{"last_updated":1728666469,"ttl":60,"version":"2.2","data":{"bikes":[{"bike_id":"d84fd2e3-be91-47f2-8212-5bf03a54cc56","system_id":"levelo_inurba_marseille","lat":43.250891,"lon":5.395221,"is_reserved":false,"is_disabled":false,"rental_uris":{"android":"levelo://app?vid=d84fd2e3-be91-47f2-8212-5bf03a54cc56","ios":"levelo://app?vid=d84fd2e3-be91-47f2-8212-5bf03a54cc56"},"vehicle_type_id":"4","last_reported":1728666469,"current_range_meters":36800,"station_id":"ce4bhm12rcd13ifvqgkg","pricing_plan_id":"cebpf4jnsgd1na2vs0mg"},{"bike_id":"814bc03e-f537-40cf-a605-28786ec5d927","system_id":"levelo_inurba_marseille","lat":43.28924,"lon":5.38388,"is_reserved":false,"is_disabled":false,"rental_uris":{"android":"levelo://app?vid=814bc03e-f537-40cf-a605-28786ec5d927","ios":"levelo://app?vid=814bc03e-f537-40cf-a605-28786ec5d927"},"vehicle_type_id":"4","last_reported":1728666469,"current_range_meters":38800,"station_id":"ce4bh612rcd13ifvqe6g","pricing_plan_id":"cebpf4jnsgd1na2vs0mg"},{"bike_id":"b9d956a9-f204-4c0b-bd07-a961aafefa4e","system_id":"levelo_inurba_marseille","lat":43.27067,"lon":5.42281,"is_reserved":false,"is_disabled":false,"rental_uris":{"android":"levelo://app?vid=b9d956a9-f204-4c0b-bd07-a961aafefa4e","ios":"levelo://app?vid=b9d956a9-f204-4c0b-bd07-a961aafefa4e"},"vehicle_type_id":"4","last_reported":1728666469,"current_range_meters":21600,"station_id":"ce4bhk92rcd13ifvqgb0","pricing_plan_id":"cebpf4jnsgd1na2vs0mg"},{"bike_id":"0174c4fd-9787-4fd5-8185-59a54e87dfd3","system_id":"levelo_inurba_marseille","lat":43.28412,"lon":5.34983,"is_reserved":false,"is_disabled":false,"rental_uris":{"android":"levelo://app?vid=0174c4fd-9787-4fd5-8185-59a54e87dfd3","ios":"levelo://app?vid=0174c4fd-9787-4fd5-8185-59a54e87dfd3"},"vehicle_type_id":"4","last_reported":1728666469,"current_range_meters":36800,"station_id":"ce4bhbh2rcd13ifvqepg","pricing_plan_id":"cebpf4jnsgd1na2vs0mg"},{"bike_id":"5fd1baea-a4e4-4f9c-a978-ec62030ec8e3","system_id":"levelo_inurba_marseille","lat":43.3013,"lon":5.387706,"is_reserved":false,"is_disabled":false,"rental_uris":{"android":"levelo://app?vid=5fd1baea-a4e4-4f9c-a978-ec62030ec8e3","ios":"levelo://app?vid=5fd1baea-a4e4-4f9c-a978-ec62030ec8e3"},"vehicle_type_id":"4","last_reported":1728666469,"current_range_meters":15200,"station_id":"ce4bghh2rcd13ifvqb60","pricing_plan_id":"cebpf4jnsgd1na2vs0mg"},{"bike_id":"51dd5005-a195-4642-bd5f-8cbea71cb3b3","system_id":"levelo_inurba_marseille","lat":43.2293,"lon":5.35372,"is_reserved":false,"is_disabled":false,"rental_uris":{"android":"levelo://app?vid=51dd5005-a195-4642-bd5f-8cbea71cb3b3","ios":"levelo://app?vid=51dd5005-a195-4642-bd5f-8cbea71cb3b3"},"vehicle_type_id":"4","last_reported":1728666469,"current_range_meters":38800,"station_id":"cpo3532slgdg3j2ikp40","pricing_plan_id":"cebpf4jnsgd1na2vs0mg"},{"bike_id":"6dc8dc3a-bd2b-4a5a-9d40-489c4042534b","system_id":"levelo_inurba_marseille","lat":43.29191,"lon":5.35798,"is_reserved":false,"is_disabled":false,"rental_uris":{"android":"levelo://app?vid=6dc8dc3a-bd2b-4a5a-9d40-489c4042534b","ios":"levelo://app?vid=6dc8dc3a-bd2b-4a5a-9d40-489c4042534b"},"vehicle_type_id":"4","last_reported":1728666469,"current_range_meters":9200,"station_id":"ce4bhb12rcd13ifvqel0","pricing_plan_id":"cebpf4jnsgd1na2vs0mg"},{"bike_id":"b474cc28-429d-4bf6-a453-cfd8e447da8a","system_id":"levelo_inurba_marseille","lat":43.33723,"lon":5.3919,"is_reserved":false,"is_disabled":false,"rental_uris":{"android":"levelo://app?vid=b474cc28-429d-4bf6-a453-cfd8e447da8a","ios":"levelo://app?vid=b474cc28-429d-4bf6-a453-cfd8e447da8a"},"vehicle_type_id":"4","last_reported":1728666469,"current_range_meters":38800,"station_id":"ce4bhr92rcd13ifvqhsg","pricing_plan_id":"cebpf4jnsgd1na2vs0mg"},{"bike_id":"fbe8e187-eee2-4d00-8d58-f6758d6e1dd6","system_id":"levelo_inurba_marseille","lat":43.33022,"lon":5.39038,"is_reserved":false,"is_disabled":false,"rental_uris":{"android":"levelo://app?vid=fbe8e187-eee2-4d00-8d58-f6758d6e1dd6","ios":"levelo://app?vid=fbe8e187-eee2-4d00-8d58-f6758d6e1dd6"},"vehicle_type_id":"4","last_reported":1728666469,"current_range_meters":14400,"station_id":"ce4bhr92rcd13ifvqhrg","pricing_plan_id":"cebpf4jnsgd1na2vs0mg"},{"bike_id":"4f1ac9db-36fd-4126-b3cc-b859636a6a29","system_id":"levelo_inurba_marseille","lat":43.2293,"lon":5.35375,"is_reserved":false,"is_disabled":false,"rental_uris":{"android":"levelo://app?vid=4f1ac9db-36fd-4126-b3cc-b859636a6a29","ios":"levelo://app?vid=4f1ac9db-36fd-4126-b3cc-b859636a6a29"},"vehicle_type_id":"4","last_reported":1728666469,"current_range_meters":38800,"station_id":"cpo3532slgdg3j2ikp40","pricing_plan_id":"cebpf4jnsgd1na2vs0mg"},{"bike_id":"47de844e-e433-4cff-a39a-1ba30fbb4482","system_id":"levelo_inurba_marseille","lat":43.3093,"lon":5.40148,"is_reserved":false,"is_disabled":false,"rental_uris":{"android":"levelo://app?vid=47de844e-e433-4cff-a39a-1ba30fbb4482","ios":"levelo://app?vid=47de844e-e433-4cff-a39a-1ba30fbb4482"},"vehicle_type_id":"4","last_reported":1728666469,"current_range_meters":38800,"station_id":"ce4bgvp2rcd13ifvqct0","pricing_plan_id":"cebpf4jnsgd1na2vs0mg"},{"bike_id":"d1509512-c6ca-46d9-9239-27c762f1decf","system_id":"levelo_inurba_marseille","lat":43.29312,"lon":5.37176,"is_reserved":false,"is_disabled":false,"rental_uris":{"android":"levelo://app?vid=d1509512-c6ca-46d9-9239-27c762f1decf","ios":"levelo://app?vid=d1509512-c6ca-46d9-9239-27c762f1decf"},"vehicle_type_id":"4","last_reported":1728666469,"current_range_meters":9200,"station_id":"ce4bgh92rcd13ifvqb40","pricing_plan_id":"cebpf4jnsgd1na2vs0mg"},{"bike_id":"dcdfec34-8d08-40a1-904e-38244ab97141","system_id":"levelo_inurba_marseille","lat":43.23145,"lon":5.43725,"is_reserved":false,"is_disabled":false,"rental_uris":{"android":"levelo://app?vid=dcdfec34-8d08-40a1-904e-38244ab97141","ios":"levelo://app?vid=dcdfec34-8d08-40a1-904e-38244ab97141"},"vehicle_type_id":"4","last_reported":1728666469,"current_range_meters":16800,"station_id":"ce4bhmp2rcd13ifvqgog","pricing_plan_id":"cebpf4jnsgd1na2vs0mg"},{"bike_id":"57082491-75e2-4b9a-9235-352c61873c4f","system_id":"levelo_inurba_marseille","lat":43.26203,"lon":5.37927,"is_reserved":false,"is_disabled":false,"rental_uris":{"android":"levelo://app?vid=57082491-75e2-4b9a-9235-352c61873c4f","ios":"levelo://app?vid=57082491-75e2-4b9a-9235-352c61873c4f"},"vehicle_type_id":"4","last_reported":1728666469,"current_range_meters":12400,"station_id":"ce4bhjp2rcd13ifvqg90","pricing_plan_id":"cebpf4jnsgd1na2vs0mg"},{"bike_id":"01938b66-001d-4bfc-bc8d-9c2db6baa767","system_id":"levelo_inurba_marseille","lat":43.28859,"lon":5.3586,"is_reserved":false,"is_disabled":false,"rental_uris":{"android":"levelo://app?vid=01938b66-001d-4bfc-bc8d-9c2db6baa767","ios":"levelo://app?vid=01938b66-001d-4bfc-bc8d-9c2db6baa767"},"vehicle_type_id":"4","last_reported":1728666469,"current_range_meters":16400,"station_id":"ce4bhb12rcd13ifvqem0","pricing_plan_id":"cebpf4jnsgd1na2vs0mg"},{"bike_id":"9e7f8352-f627-4c43-8897-d464181d451a","system_id":"levelo_inurba_marseille","lat":43.23192,"lon":5.35554,"is_reserved":false,"is_disabled":false,"rental_uris":{"android":"levelo://app?vid=9e7f8352-f627-4c43-8897-d464181d451a","ios":"levelo://app?vid=9e7f8352-f627-4c43-8897-d464181d451a"},"vehicle_type_id":"4","last_reported":1728666469,"current_range_meters":27600,"station_id":"ce4bhu92rcd13ifvqi70","pricing_plan_id":"cebpf4jnsgd1na2vs0mg"},{"bike_id":"9b936ab4-d646-4064-b4ac-40864130d942","system_id":"levelo_inurba_marseille","lat":43.30136,"lon":5.38779,"is_reserved":false,"is_disabled":false,"rental_uris":{"android":"levelo://app?vid=9b936ab4-d646-4064-b4ac-40864130d942","ios":"levelo://app?vid=9b936ab4-d646-4064-b4ac-40864130d942"},"vehicle_type_id":"4","last_reported":1728666469,"current_range_meters":28400,"station_id":"ce4bghh2rcd13ifvqb60","pricing_plan_id":"cebpf4jnsgd1na2vs0mg"},{"bike_id":"631afeb3-ff24-4869-b570-0bf0c9ce47b0","system_id":"levelo_inurba_marseille","lat":43.32312,"lon":5.38946,"is_reserved":false,"is_disabled":false,"rental_uris":{"android":"levelo://app?vid=631afeb3-ff24-4869-b570-0bf0c9ce47b0","ios":"levelo://app?vid=631afeb3-ff24-4869-b570-0bf0c9ce47b0"},"vehicle_type_id":"4","last_reported":1728666469,"current_range_meters":20000,"station_id":"","pricing_plan_id":"cebpf4jnsgd1na2vs0mg"},{"bike_id":"8720b595-240e-49e0-b2f4-1834b5703a06","system_id":"levelo_inurba_marseille","lat":43.2873,"lon":5.37608,"is_reserved":false,"is_disabled":false,"rental_uris":{"android":"levelo://app?vid=8720b595-240e-49e0-b2f4-1834b5703a06","ios":"levelo://app?vid=8720b595-240e-49e0-b2f4-1834b5703a06"},"vehicle_type_id":"4","last_reported":1728666469,"current_range_meters":9600,"station_id":"ce4bh3p2rcd13ifvqdq0","pricing_plan_id":"cebpf4jnsgd1na2vs0mg"},{"bike_id":"17b2dca4-92d8-4dcf-bb83-695148b8a7f1","system_id":"levelo_inurba_marseille","lat":43.28947,"lon":5.39621,"is_reserved":false,"is_disabled":false,"rental_uris":{"android":"levelo://app?vid=17b2dca4-92d8-4dcf-bb83-695148b8a7f1","ios":"levelo://app?vid=17b2dca4-92d8-4dcf-bb83-695148b8a7f1"},"vehicle_type_id":"4","last_reported":1728666469,"current_range_meters":38800,"station_id":"ce4bh3h2rcd13ifvqdn0","pricing_plan_id":"cebpf4jnsgd1na2vs0mg"},{"bike_id":"ec53dfb1-c711-487f-ae1c-ec144d363ff5","system_id":"levelo_inurba_marseille","lat":43.28701,"lon":5.3998,"is_reserved":false,"is_disabled":false,"rental_uris":{"android":"levelo://app?vid=ec53dfb1-c711-487f-ae1c-ec144d363ff5","ios":"levelo://app?vid=ec53dfb1-c711-487f-ae1c-ec144d363ff5"},"vehicle_type_id":"4","last_reported":1728666469,"current_range_meters":25200,"station_id":"ce4bho92rcd13ifvqh3g","pricing_plan_id":"cebpf4jnsgd1na2vs0mg"},{"bike_id":"a0e46ffe-9949-404f-8bdb-875dbc60e6b7","system_id":"levelo_inurba_marseille","lat":43.229382,"lon":5.353532,"is_reserved":false,"is_disabled":false,"rental_uris":{"android":"levelo://app?vid=a0e46ffe-9949-404f-8bdb-875dbc60e6b7","ios":"levelo://app?vid=a0e46ffe-9949-404f-8bdb-875dbc60e6b7"},"vehicle_type_id":"4","last_reported":1728666469,"current_range_meters":37600,"station_id":"cpo3532slgdg3j2ikp40","pricing_plan_id":"cebpf4jnsgd1na2vs0mg"},{"bike_id":"4655dd7a-88cc-4978-a0db-e70e6f1557c5","system_id":"levelo_inurba_marseille","lat":43.301361,"lon":5.387695,"is_reserved":false,"is_disabled":false,"rental_uris":{"android":"levelo://app?vid=4655dd7a-88cc-4978-a0db-e70e6f1557c5","ios":"levelo://app?vid=4655dd7a-88cc-4978-a0db-e70e6f1557c5"},"vehicle_type_id":"4","last_reported":1728666469,"current_range_meters":16000,"station_id":"ce4bghh2rcd13ifvqb60","pricing_plan_id":"cebpf4jnsgd1na2vs0mg"},{"bike_id":"e7aa64d9-8b4f-4a29-b151-96e8cb6bcacf","system_id":"levelo_inurba_marseille","lat":43.33612,"lon":5.4103,"is_reserved":false,"is_disabled":false,"rental_uris":{"android":"levelo://app?vid=e7aa64d9-8b4f-4a29-b151-96e8cb6bcacf","ios":"levelo://app?vid=e7aa64d9-8b4f-4a29-b151-96e8cb6bcacf"},"vehicle_type_id":"4","last_reported":1728666469,"current_range_meters":20800,"station_id":"ce4bhqh2rcd13ifvqhmg","pricing_plan_id":"cebpf4jnsgd1na2vs0mg"},{"bike_id":"4b9fa06b-1d57-4c2f-a805-a705d44c8aa4","system_id":"levelo_inurba_marseille","lat":43.28857,"lon":5.35878,"is_reserved":false,"is_disabled":false,"rental_uris":{"android":"levelo://app?vid=4b9fa06b-1d57-4c2f-a805-a705d44c8aa4","ios":"levelo://app?vid=4b9fa06b-1d57-4c2f-a805-a705d44c8aa4"},"vehicle_type_id":"4","last_reported":1728666469,"current_range_meters":35200,"station_id":"ce4bhb12rcd13ifvqem0","pricing_plan_id":"cebpf4jnsgd1na2vs0mg"},{"bike_id":"c6b1b36d-22f2-4db2-a0d8-3021eea75647","system_id":"levelo_inurba_marseille","lat":43.28724,"lon":5.37946,"is_reserved":false,"is_disabled":false,"rental_uris":{"android":"levelo://app?vid=c6b1b36d-22f2-4db2-a0d8-3021eea75647","ios":"levelo://app?vid=c6b1b36d-22f2-4db2-a0d8-3021eea75647"},"vehicle_type_id":"4","last_reported":1728666469,"current_range_meters":17200,"station_id":"ce4bh9p2rcd13ifvqec0","pricing_plan_id":"cebpf4jnsgd1na2vs0mg"},{"bike_id":"b4be0163-d1a5-4e8d-b1c8-ea8cf15eacad","system_id":"levelo_inurba_marseille","lat":43.28858,"lon":5.35853,"is_reserved":false,"is_disabled":false,"rental_uris":{"android":"levelo://app?vid=b4be0163-d1a5-4e8d-b1c8-ea8cf15eacad","ios":"levelo://app?vid=b4be0163-d1a5-4e8d-b1c8-ea8cf15eacad"},"vehicle_type_id":"4","last_reported":1728666469,"current_range_meters":25600,"station_id":"ce4bhb12rcd13ifvqem0","pricing_plan_id":"cebpf4jnsgd1na2vs0mg"},{"bike_id":"c8de08e8-fdd4-4a0e-91a5-f5956cb05de1","system_id":"levelo_inurba_marseille","lat":43.3084,"lon":5.38091,"is_reserved":false,"is_disabled":false,"rental_uris":{"android":"levelo://app?vid=c8de08e8-fdd4-4a0e-91a5-f5956cb05de1","ios":"levelo://app?vid=c8de08e8-fdd4-4a0e-91a5-f5956cb05de1"},"vehicle_type_id":"4","last_reported":1728666469,"current_range_meters":15200,"station_id":"","pricing_plan_id":"cebpf4jnsgd1na2vs0mg"},{"bike_id":"b07dc4a2-0cbb-422f-8ebb-fe307e1a8f5b","system_id":"levelo_inurba_marseille","lat":43.27624,"lon":5.36115,"is_reserved":false,"is_disabled":false,"rental_uris":{"android":"levelo://app?vid=b07dc4a2-0cbb-422f-8ebb-fe307e1a8f5b","ios":"levelo://app?vid=b07dc4a2-0cbb-422f-8ebb-fe307e1a8f5b"},"vehicle_type_id":"4","last_reported":1728666469,"current_range_meters":8400,"station_id":"ce4bgj92rcd13ifvqbe0","pricing_plan_id":"cebpf4jnsgd1na2vs0mg"},{"bike_id":"1238fc3a-4b26-481d-869f-94ba72bbf074","system_id":"levelo_inurba_marseille","lat":43.30886,"lon":5.37205,"is_reserved":false,"is_disabled":false,"rental_uris":{"android":"levelo://app?vid=1238fc3a-4b26-481d-869f-94ba72bbf074","ios":"levelo://app?vid=1238fc3a-4b26-481d-869f-94ba72bbf074"},"vehicle_type_id":"4","last_reported":1728666469,"current_range_meters":38000,"station_id":"ce4bguh2rcd13ifvqckg","pricing_plan_id":"cebpf4jnsgd1na2vs0mg"},{"bike_id":"61a1349d-b40b-4d30-a79e-17c7aa838a6d","system_id":"levelo_inurba_marseille","lat":43.31528,"lon":5.38035,"is_reserved":false,"is_disabled":false,"rental_uris":{"android":"levelo://app?vid=61a1349d-b40b-4d30-a79e-17c7aa838a6d","ios":"levelo://app?vid=61a1349d-b40b-4d30-a79e-17c7aa838a6d"},"vehicle_type_id":"4","last_reported":1728666469,"current_range_meters":18000,"station_id":"ce4bhsp2rcd13ifvqi50","pricing_plan_id":"cebpf4jnsgd1na2vs0mg"},{"bike_id":"b27220ce-643c-4cda-b1cf-ddebfd37a8aa","system_id":"levelo_inurba_marseille","lat":43.23192,"lon":5.39976,"is_reserved":false,"is_disabled":false,"rental_uris":{"android":"levelo://app?vid=b27220ce-643c-4cda-b1cf-ddebfd37a8aa","ios":"levelo://app?vid=b27220ce-643c-4cda-b1cf-ddebfd37a8aa"},"vehicle_type_id":"4","last_reported":1728666469,"current_range_meters":28400,"station_id":"ce4bhn12rcd13ifvqgqg","pricing_plan_id":"cebpf4jnsgd1na2vs0mg"},{"bike_id":"c2709d8c-182c-4c66-9678-32143d413767","system_id":"levelo_inurba_marseille","lat":43.2293,"lon":5.35377,"is_reserved":false,"is_disabled":false,"rental_uris":{"android":"levelo://app?vid=c2709d8c-182c-4c66-9678-32143d413767","ios":"levelo://app?vid=c2709d8c-182c-4c66-9678-32143d413767"},"vehicle_type_id":"4","last_reported":1728666469,"current_range_meters":30000,"station_id":"cpo3532slgdg3j2ikp40","pricing_plan_id":"cebpf4jnsgd1na2vs0mg"},{"bike_id":"df6eaaad-1ef3-4212-97e0-3374b5979321","system_id":"levelo_inurba_marseille","lat":43.324835,"lon":5.365643,"is_reserved":false,"is_disabled":false,"rental_uris":{"android":"levelo://app?vid=df6eaaad-1ef3-4212-97e0-3374b5979321","ios":"levelo://app?vid=df6eaaad-1ef3-4212-97e0-3374b5979321"},"vehicle_type_id":"4","last_reported":1728666469,"current_range_meters":9600,"station_id":"ce4bhs12rcd13ifvqhvg","pricing_plan_id":"cebpf4jnsgd1na2vs0mg"},{"bike_id":"9445b996-d266-43df-83e5-9845a2599582","system_id":"levelo_inurba_marseille","lat":43.29622,"lon":5.37711,"is_reserved":false,"is_disabled":false,"rental_uris":{"android":"levelo://app?vid=9445b996-d266-43df-83e5-9845a2599582","ios":"levelo://app?vid=9445b996-d266-43df-83e5-9845a2599582"},"vehicle_type_id":"4","last_reported":1728666469,"current_range_meters":3600,"station_id":"ce4bgi92rcd13ifvqb90","pricing_plan_id":"cebpf4jnsgd1na2vs0mg"},{"bike_id":"d7920576-5b90-4547-bf49-731c01f226ac","system_id":"levelo_inurba_marseille","lat":43.27376,"lon":5.3626,"is_reserved":false,"is_disabled":false,"rental_uris":{"android":"levelo://app?vid=d7920576-5b90-4547-bf49-731c01f226ac","ios":"levelo://app?vid=d7920576-5b90-4547-bf49-731c01f226ac"},"vehicle_type_id":"4","last_reported":1728666469,"current_range_meters":11200,"station_id":"ce4bhbh2rcd13ifvqeo0","pricing_plan_id":"cebpf4jnsgd1na2vs0mg"},{"bike_id":"435717b3-7670-47bd-9710-5dcb674be8c9","system_id":"levelo_inurba_marseille","lat":43.31073,"lon":5.38339,"is_reserved":false,"is_disabled":false,"rental_uris":{"android":"levelo://app?vid=435717b3-7670-47bd-9710-5dcb674be8c9","ios":"levelo://app?vid=435717b3-7670-47bd-9710-5dcb674be8c9"},"vehicle_type_id":"4","last_reported":1728666469,"current_range_meters":8400,"station_id":"ce4bgv92rcd13ifvqcr0","pricing_plan_id":"cebpf4jnsgd1na2vs0mg"},{"bike_id":"613375e0-c8a8-4169-8853-6a6cc9dea7c3","system_id":"levelo_inurba_marseille","lat":43.33721,"lon":5.39193,"is_reserved":false,"is_disabled":false,"rental_uris":{"android":"levelo://app?vid=613375e0-c8a8-4169-8853-6a6cc9dea7c3","ios":"levelo://app?vid=613375e0-c8a8-4169-8853-6a6cc9dea7c3"},"vehicle_type_id":"4","last_reported":1728666469,"current_range_meters":9200,"station_id":"ce4bhr92rcd13ifvqhsg","pricing_plan_id":"cebpf4jnsgd1na2vs0mg"},{"bike_id":"436a7a95-6904-4e58-bd02-79b7862b583b","system_id":"levelo_inurba_marseille","lat":43.31705,"lon":5.3776,"is_reserved":false,"is_disabled":false,"rental_uris":{"android":"levelo://app?vid=436a7a95-6904-4e58-bd02-79b7862b583b","ios":"levelo://app?vid=436a7a95-6904-4e58-bd02-79b7862b583b"},"vehicle_type_id":"4","last_reported":1728666469,"current_range_meters":20800,"station_id":"ce4bgth2rcd13ifvqch0","pricing_plan_id":"cebpf4jnsgd1na2vs0mg"},{"bike_id":"ea4e822d-5c26-4348-9712-13dc92b51d6e","system_id":"levelo_inurba_marseille","lat":43.32537,"lon":5.41446,"is_reserved":false,"is_disabled":false,"rental_uris":{"android":"levelo://app?vid=ea4e822d-5c26-4348-9712-13dc92b51d6e","ios":"levelo://app?vid=ea4e822d-5c26-4348-9712-13dc92b51d6e"},"vehicle_type_id":"4","last_reported":1728666469,"current_range_meters":36800,"station_id":"ce4bhq12rcd13ifvqhhg","pricing_plan_id":"cebpf4jnsgd1na2vs0mg"},{"bike_id":"fe499ee7-6375-4ecd-b57e-a932fe0f65cf","system_id":"levelo_inurba_marseille","lat":43.3372,"lon":5.39189,"is_reserved":false,"is_disabled":false,"rental_uris":{"android":"levelo://app?vid=fe499ee7-6375-4ecd-b57e-a932fe0f65cf","ios":"levelo://app?vid=fe499ee7-6375-4ecd-b57e-a932fe0f65cf"},"vehicle_type_id":"4","last_reported":1728666469,"current_range_meters":12800,"station_id":"ce4bhr92rcd13ifvqhsg","pricing_plan_id":"cebpf4jnsgd1na2vs0mg"},{"bike_id":"fbffa957-ac49-4590-b223-7d57f26e111b","system_id":"levelo_inurba_marseille","lat":43.32262,"lon":5.38266,"is_reserved":false,"is_disabled":false,"rental_uris":{"android":"levelo://app?vid=fbffa957-ac49-4590-b223-7d57f26e111b","ios":"levelo://app?vid=fbffa957-ac49-4590-b223-7d57f26e111b"},"vehicle_type_id":"4","last_reported":1728666469,"current_range_meters":32800,"station_id":"ce4bhr12rcd13ifvqhqg","pricing_plan_id":"cebpf4jnsgd1na2vs0mg"},{"bike_id":"e28314e2-bddb-418b-a2da-2de2db59abd2","system_id":"levelo_inurba_marseille","lat":43.32332,"lon":5.40625,"is_reserved":false,"is_disabled":false,"rental_uris":{"android":"levelo://app?vid=e28314e2-bddb-418b-a2da-2de2db59abd2","ios":"levelo://app?vid=e28314e2-bddb-418b-a2da-2de2db59abd2"},"vehicle_type_id":"4","last_reported":1728666469,"current_range_meters":38000,"station_id":"ce4bhq92rcd13ifvqhjg","pricing_plan_id":"cebpf4jnsgd1na2vs0mg"},{"bike_id":"fa3d1a81-dcfc-4dd6-b6c7-47dd84b76d28","system_id":"levelo_inurba_marseille","lat":43.27171,"lon":5.40992,"is_reserved":false,"is_disabled":false,"rental_uris":{"android":"levelo://app?vid=fa3d1a81-dcfc-4dd6-b6c7-47dd84b76d28","ios":"levelo://app?vid=fa3d1a81-dcfc-4dd6-b6c7-47dd84b76d28"},"vehicle_type_id":"4","last_reported":1728666469,"current_range_meters":26800,"station_id":"ce4bhl12rcd13ifvqgf0","pricing_plan_id":"cebpf4jnsgd1na2vs0mg"},{"bike_id":"0afde4da-0300-41de-b351-a7c0b40027c4","system_id":"levelo_inurba_marseille","lat":43.2893,"lon":5.38396,"is_reserved":false,"is_disabled":false,"rental_uris":{"android":"levelo://app?vid=0afde4da-0300-41de-b351-a7c0b40027c4","ios":"levelo://app?vid=0afde4da-0300-41de-b351-a7c0b40027c4"},"vehicle_type_id":"4","last_reported":1728666469,"current_range_meters":38800,"station_id":"ce4bh512rcd13ifvqe2g","pricing_plan_id":"cebpf4jnsgd1na2vs0mg"},{"bike_id":"4c01e0fe-4fc2-4f05-a04a-3017db60fcf6","system_id":"levelo_inurba_marseille","lat":43.25112,"lon":5.40312,"is_reserved":false,"is_disabled":false,"rental_uris":{"android":"levelo://app?vid=4c01e0fe-4fc2-4f05-a04a-3017db60fcf6","ios":"levelo://app?vid=4c01e0fe-4fc2-4f05-a04a-3017db60fcf6"},"vehicle_type_id":"4","last_reported":1728666469,"current_range_meters":1600,"station_id":"ce4bhlh2rcd13ifvqgig","pricing_plan_id":"cebpf4jnsgd1na2vs0mg"},{"bike_id":"e54df811-8817-4b7f-b02a-83e0bf3d21ae","system_id":"levelo_inurba_marseille","lat":43.28441,"lon":5.39204,"is_reserved":false,"is_disabled":false,"rental_uris":{"android":"levelo://app?vid=e54df811-8817-4b7f-b02a-83e0bf3d21ae","ios":"levelo://app?vid=e54df811-8817-4b7f-b02a-83e0bf3d21ae"},"vehicle_type_id":"4","last_reported":1728666469,"current_range_meters":19200,"station_id":"ce4bhoh2rcd13ifvqh5g","pricing_plan_id":"cebpf4jnsgd1na2vs0mg"},{"bike_id":"eee18a44-71b1-4c28-8ff2-72b1fbcb0b4b","system_id":"levelo_inurba_marseille","lat":43.22935,"lon":5.3538,"is_reserved":false,"is_disabled":false,"rental_uris":{"android":"levelo://app?vid=eee18a44-71b1-4c28-8ff2-72b1fbcb0b4b","ios":"levelo://app?vid=eee18a44-71b1-4c28-8ff2-72b1fbcb0b4b"},"vehicle_type_id":"4","last_reported":1728666469,"current_range_meters":6400,"station_id":"cpo3532slgdg3j2ikp40","pricing_plan_id":"cebpf4jnsgd1na2vs0mg"},{"bike_id":"d7fd2fc0-7e3d-4a45-ad6a-e61168e8844f","system_id":"levelo_inurba_marseille","lat":43.29162,"lon":5.3715,"is_reserved":false,"is_disabled":false,"rental_uris":{"android":"levelo://app?vid=d7fd2fc0-7e3d-4a45-ad6a-e61168e8844f","ios":"levelo://app?vid=d7fd2fc0-7e3d-4a45-ad6a-e61168e8844f"},"vehicle_type_id":"4","last_reported":1728666469,"current_range_meters":37600,"station_id":"ce4bha92rcd13ifvqeh0","pricing_plan_id":"cebpf4jnsgd1na2vs0mg"},{"bike_id":"e799d61c-5140-4007-bc9f-b58a0c186c6b","system_id":"levelo_inurba_marseille","lat":43.31684,"lon":5.40472,"is_reserved":false,"is_disabled":false,"rental_uris":{"android":"levelo://app?vid=e799d61c-5140-4007-bc9f-b58a0c186c6b","ios":"levelo://app?vid=e799d61c-5140-4007-bc9f-b58a0c186c6b"},"vehicle_type_id":"4","last_reported":1728666469,"current_range_meters":11200,"station_id":"ce4bh012rcd13ifvqd00","pricing_plan_id":"cebpf4jnsgd1na2vs0mg"},{"bike_id":"8e10af63-d1f1-408a-92ff-c1fbbc23730a","system_id":"levelo_inurba_marseille","lat":43.304984,"lon":5.390674,"is_reserved":false,"is_disabled":false,"rental_uris":{"android":"levelo://app?vid=8e10af63-d1f1-408a-92ff-c1fbbc23730a","ios":"levelo://app?vid=8e10af63-d1f1-408a-92ff-c1fbbc23730a"},"vehicle_type_id":"4","last_reported":1728666469,"current_range_meters":1600,"station_id":"ce4bgk12rcd13ifvqbi0","pricing_plan_id":"cebpf4jnsgd1na2vs0mg"},{"bike_id":"cea4d349-989a-4d46-82cd-bd372fa3b8a0","system_id":"levelo_inurba_marseille","lat":43.27608,"lon":5.36119,"is_reserved":false,"is_disabled":false,"rental_uris":{"android":"levelo://app?vid=cea4d349-989a-4d46-82cd-bd372fa3b8a0","ios":"levelo://app?vid=cea4d349-989a-4d46-82cd-bd372fa3b8a0"},"vehicle_type_id":"4","last_reported":1728666469,"current_range_meters":2800,"station_id":"ce4bgj92rcd13ifvqbe0","pricing_plan_id":"cebpf4jnsgd1na2vs0mg"},{"bike_id":"694cd67c-f914-4668-beca-57a838a153fc","system_id":"levelo_inurba_marseille","lat":43.29529,"lon":5.38539,"is_reserved":false,"is_disabled":false,"rental_uris":{"android":"levelo://app?vid=694cd67c-f914-4668-beca-57a838a153fc","ios":"levelo://app?vid=694cd67c-f914-4668-beca-57a838a153fc"},"vehicle_type_id":"4","last_reported":1728666469,"current_range_meters":32000,"station_id":"ce4bgih2rcd13ifvqba0","pricing_plan_id":"cebpf4jnsgd1na2vs0mg"},{"bike_id":"370df1a3-fb1d-43a8-8004-3a5710a5f387","system_id":"levelo_inurba_marseille","lat":43.29375,"lon":5.37843,"is_reserved":false,"is_disabled":false,"rental_uris":{"android":"levelo://app?vid=370df1a3-fb1d-43a8-8004-3a5710a5f387","ios":"levelo://app?vid=370df1a3-fb1d-43a8-8004-3a5710a5f387"},"vehicle_type_id":"4","last_reported":1728666469,"current_range_meters":8000,"station_id":"ce4bgjh2rcd13ifvqbf0","pricing_plan_id":"cebpf4jnsgd1na2vs0mg"},{"bike_id":"3ac584f3-0216-4ab3-8e1a-0ce49653ea9b","system_id":"levelo_inurba_marseille","lat":43.28859,"lon":5.35861,"is_reserved":false,"is_disabled":false,"rental_uris":{"android":"levelo://app?vid=3ac584f3-0216-4ab3-8e1a-0ce49653ea9b","ios":"levelo://app?vid=3ac584f3-0216-4ab3-8e1a-0ce49653ea9b"},"vehicle_type_id":"4","last_reported":1728666469,"current_range_meters":19200,"station_id":"ce4bhb12rcd13ifvqem0","pricing_plan_id":"cebpf4jnsgd1na2vs0mg"},{"bike_id":"f43cd11c-e00a-46ec-b65f-108711e37e9a","system_id":"levelo_inurba_marseille","lat":43.27372,"lon":5.36254,"is_reserved":false,"is_disabled":false,"rental_uris":{"android":"levelo://app?vid=f43cd11c-e00a-46ec-b65f-108711e37e9a","ios":"levelo://app?vid=f43cd11c-e00a-46ec-b65f-108711e37e9a"},"vehicle_type_id":"4","last_reported":1728666469,"current_range_meters":38800,"station_id":"ce4bhbh2rcd13ifvqeo0","pricing_plan_id":"cebpf4jnsgd1na2vs0mg"},{"bike_id":"ff68b789-7173-415f-860f-fb58c1b9d01d","system_id":"levelo_inurba_marseille","lat":43.22929,"lon":5.3538,"is_reserved":false,"is_disabled":false,"rental_uris":{"android":"levelo://app?vid=ff68b789-7173-415f-860f-fb58c1b9d01d","ios":"levelo://app?vid=ff68b789-7173-415f-860f-fb58c1b9d01d"},"vehicle_type_id":"4","last_reported":1728666469,"current_range_meters":30000,"station_id":"cpo3532slgdg3j2ikp40","pricing_plan_id":"cebpf4jnsgd1na2vs0mg"},{"bike_id":"11ed2bc4-99e4-42ab-8911-f3374fcced68","system_id":"levelo_inurba_marseille","lat":43.27178,"lon":5.40989,"is_reserved":false,"is_disabled":false,"rental_uris":{"android":"levelo://app?vid=11ed2bc4-99e4-42ab-8911-f3374fcced68","ios":"levelo://app?vid=11ed2bc4-99e4-42ab-8911-f3374fcced68"},"vehicle_type_id":"4","last_reported":1728666469,"current_range_meters":36400,"station_id":"ce4bhl12rcd13ifvqgf0","pricing_plan_id":"cebpf4jnsgd1na2vs0mg"},{"bike_id":"6cb5b02c-2401-484a-8b7d-b4d2106d6b08","system_id":"levelo_inurba_marseille","lat":43.2319,"lon":5.35558,"is_reserved":false,"is_disabled":false,"rental_uris":{"android":"levelo://app?vid=6cb5b02c-2401-484a-8b7d-b4d2106d6b08","ios":"levelo://app?vid=6cb5b02c-2401-484a-8b7d-b4d2106d6b08"},"vehicle_type_id":"4","last_reported":1728666469,"current_range_meters":35600,"station_id":"ce4bhu92rcd13ifvqi70","pricing_plan_id":"cebpf4jnsgd1na2vs0mg"},{"bike_id":"751ab8f4-b66e-4832-9b92-433be04fd785","system_id":"levelo_inurba_marseille","lat":43.33025,"lon":5.39035,"is_reserved":false,"is_disabled":false,"rental_uris":{"android":"levelo://app?vid=751ab8f4-b66e-4832-9b92-433be04fd785","ios":"levelo://app?vid=751ab8f4-b66e-4832-9b92-433be04fd785"},"vehicle_type_id":"4","last_reported":1728666469,"current_range_meters":28000,"station_id":"ce4bhr92rcd13ifvqhrg","pricing_plan_id":"cebpf4jnsgd1na2vs0mg"},{"bike_id":"7ac7e627-06e3-49fc-b1d7-b6203dd7d747","system_id":"levelo_inurba_marseille","lat":43.31752,"lon":5.39006,"is_reserved":false,"is_disabled":false,"rental_uris":{"android":"levelo://app?vid=7ac7e627-06e3-49fc-b1d7-b6203dd7d747","ios":"levelo://app?vid=7ac7e627-06e3-49fc-b1d7-b6203dd7d747"},"vehicle_type_id":"4","last_reported":1728666469,"current_range_meters":8000,"station_id":"ce4bhqp2rcd13ifvqhng","pricing_plan_id":"cebpf4jnsgd1na2vs0mg"},{"bike_id":"fddfcc49-700c-427c-8069-e0bdad238741","system_id":"levelo_inurba_marseille","lat":43.24649,"lon":5.38887,"is_reserved":false,"is_disabled":false,"rental_uris":{"android":"levelo://app?vid=fddfcc49-700c-427c-8069-e0bdad238741","ios":"levelo://app?vid=fddfcc49-700c-427c-8069-e0bdad238741"},"vehicle_type_id":"4","last_reported":1728666469,"current_range_meters":25200,"station_id":"ce4bhg12rcd13ifvqf60","pricing_plan_id":"cebpf4jnsgd1na2vs0mg"},{"bike_id":"f81e712b-d93d-4f2c-bad5-cb4d50f405bf","system_id":"levelo_inurba_marseille","lat":43.28581,"lon":5.39503,"is_reserved":false,"is_disabled":false,"rental_uris":{"android":"levelo://app?vid=f81e712b-d93d-4f2c-bad5-cb4d50f405bf","ios":"levelo://app?vid=f81e712b-d93d-4f2c-bad5-cb4d50f405bf"},"vehicle_type_id":"4","last_reported":1728666469,"current_range_meters":28400,"station_id":"ce4bh292rcd13ifvqdg0","pricing_plan_id":"cebpf4jnsgd1na2vs0mg"},{"bike_id":"319962ec-7162-4f47-82bd-2a4f0e619dbf","system_id":"levelo_inurba_marseille","lat":43.31999,"lon":5.38159,"is_reserved":false,"is_disabled":false,"rental_uris":{"android":"levelo://app?vid=319962ec-7162-4f47-82bd-2a4f0e619dbf","ios":"levelo://app?vid=319962ec-7162-4f47-82bd-2a4f0e619dbf"},"vehicle_type_id":"4","last_reported":1728666469,"current_range_meters":39200,"station_id":"ce4bhr12rcd13ifvqhpg","pricing_plan_id":"cebpf4jnsgd1na2vs0mg"},{"bike_id":"0218be81-a023-4135-a21e-30236bb4a4a4","system_id":"levelo_inurba_marseille","lat":43.32107,"lon":5.36761,"is_reserved":false,"is_disabled":false,"rental_uris":{"android":"levelo://app?vid=0218be81-a023-4135-a21e-30236bb4a4a4","ios":"levelo://app?vid=0218be81-a023-4135-a21e-30236bb4a4a4"},"vehicle_type_id":"4","last_reported":1728666469,"current_range_meters":37600,"station_id":"ce4bhrh2rcd13ifvqhug","pricing_plan_id":"cebpf4jnsgd1na2vs0mg"},{"bike_id":"f80c2e75-b47f-4161-9783-8454957aba75","system_id":"levelo_inurba_marseille","lat":43.321,"lon":5.36775,"is_reserved":false,"is_disabled":false,"rental_uris":{"android":"levelo://app?vid=f80c2e75-b47f-4161-9783-8454957aba75","ios":"levelo://app?vid=f80c2e75-b47f-4161-9783-8454957aba75"},"vehicle_type_id":"4","last_reported":1728666469,"current_range_meters":38800,"station_id":"ce4bhrh2rcd13ifvqhug","pricing_plan_id":"cebpf4jnsgd1na2vs0mg"},{"bike_id":"a981b579-665b-415a-ae31-eccfb5729f75","system_id":"levelo_inurba_marseille","lat":43.2668,"lon":5.38267,"is_reserved":false,"is_disabled":false,"rental_uris":{"android":"levelo://app?vid=a981b579-665b-415a-ae31-eccfb5729f75","ios":"levelo://app?vid=a981b579-665b-415a-ae31-eccfb5729f75"},"vehicle_type_id":"4","last_reported":1728666469,"current_range_meters":16000,"station_id":"ce4bhg92rcd13ifvqf90","pricing_plan_id":"cebpf4jnsgd1na2vs0mg"},{"bike_id":"4316ee29-fcc9-49a1-8bad-fe40f0b09678","system_id":"levelo_inurba_marseille","lat":43.27368,"lon":5.36254,"is_reserved":false,"is_disabled":false,"rental_uris":{"android":"levelo://app?vid=4316ee29-fcc9-49a1-8bad-fe40f0b09678","ios":"levelo://app?vid=4316ee29-fcc9-49a1-8bad-fe40f0b09678"},"vehicle_type_id":"4","last_reported":1728666469,"current_range_meters":8400,"station_id":"ce4bhbh2rcd13ifvqeo0","pricing_plan_id":"cebpf4jnsgd1na2vs0mg"},{"bike_id":"df6a53fa-18f0-4fb3-b654-ab01820b77c4","system_id":"levelo_inurba_marseille","lat":43.23192,"lon":5.35546,"is_reserved":false,"is_disabled":false,"rental_uris":{"android":"levelo://app?vid=df6a53fa-18f0-4fb3-b654-ab01820b77c4","ios":"levelo://app?vid=df6a53fa-18f0-4fb3-b654-ab01820b77c4"},"vehicle_type_id":"4","last_reported":1728666469,"current_range_meters":7200,"station_id":"ce4bhu92rcd13ifvqi70","pricing_plan_id":"cebpf4jnsgd1na2vs0mg"},{"bike_id":"b933402b-d1ca-49a8-bbf7-fb19281d941c","system_id":"levelo_inurba_marseille","lat":43.23189,"lon":5.35555,"is_reserved":false,"is_disabled":false,"rental_uris":{"android":"levelo://app?vid=b933402b-d1ca-49a8-bbf7-fb19281d941c","ios":"levelo://app?vid=b933402b-d1ca-49a8-bbf7-fb19281d941c"},"vehicle_type_id":"4","last_reported":1728666469,"current_range_meters":26000,"station_id":"ce4bhu92rcd13ifvqi70","pricing_plan_id":"cebpf4jnsgd1na2vs0mg"},{"bike_id":"47b34736-e84e-49ec-980e-aa2d6407defd","system_id":"levelo_inurba_marseille","lat":43.26238,"lon":5.37904,"is_reserved":false,"is_disabled":false,"rental_uris":{"android":"levelo://app?vid=47b34736-e84e-49ec-980e-aa2d6407defd","ios":"levelo://app?vid=47b34736-e84e-49ec-980e-aa2d6407defd"},"vehicle_type_id":"4","last_reported":1728666469,"current_range_meters":37600,"station_id":"ce4bhjp2rcd13ifvqg90","pricing_plan_id":"cebpf4jnsgd1na2vs0mg"},{"bike_id":"484a4c63-4ef1-4433-b27a-9a9ca5ad2f9a","system_id":"levelo_inurba_marseille","lat":43.22926,"lon":5.35381,"is_reserved":false,"is_disabled":false,"rental_uris":{"android":"levelo://app?vid=484a4c63-4ef1-4433-b27a-9a9ca5ad2f9a","ios":"levelo://app?vid=484a4c63-4ef1-4433-b27a-9a9ca5ad2f9a"},"vehicle_type_id":"4","last_reported":1728666469,"current_range_meters":15200,"station_id":"cpo3532slgdg3j2ikp40","pricing_plan_id":"cebpf4jnsgd1na2vs0mg"},{"bike_id":"0889b945-e4f4-4b63-8b2c-17c365f47b6d","system_id":"levelo_inurba_marseille","lat":43.31356,"lon":5.36703,"is_reserved":false,"is_disabled":false,"rental_uris":{"android":"levelo://app?vid=0889b945-e4f4-4b63-8b2c-17c365f47b6d","ios":"levelo://app?vid=0889b945-e4f4-4b63-8b2c-17c365f47b6d"},"vehicle_type_id":"4","last_reported":1728666469,"current_range_meters":10000,"station_id":"ce4bgr92rcd13ifvqc6g","pricing_plan_id":"cebpf4jnsgd1na2vs0mg"},{"bike_id":"816f53e3-3f22-4fb6-aae1-f5b157bd928f","system_id":"levelo_inurba_marseille","lat":43.29014,"lon":5.38144,"is_reserved":false,"is_disabled":false,"rental_uris":{"android":"levelo://app?vid=816f53e3-3f22-4fb6-aae1-f5b157bd928f","ios":"levelo://app?vid=816f53e3-3f22-4fb6-aae1-f5b157bd928f"},"vehicle_type_id":"4","last_reported":1728666469,"current_range_meters":26800,"station_id":"ce4bh4p2rcd13ifvqe1g","pricing_plan_id":"cebpf4jnsgd1na2vs0mg"},{"bike_id":"0acb2ccc-a829-423b-b46b-e86c58babd94","system_id":"levelo_inurba_marseille","lat":43.33724,"lon":5.39166,"is_reserved":false,"is_disabled":false,"rental_uris":{"android":"levelo://app?vid=0acb2ccc-a829-423b-b46b-e86c58babd94","ios":"levelo://app?vid=0acb2ccc-a829-423b-b46b-e86c58babd94"},"vehicle_type_id":"4","last_reported":1728666469,"current_range_meters":28000,"station_id":"ce4bhr92rcd13ifvqhsg","pricing_plan_id":"cebpf4jnsgd1na2vs0mg"},{"bike_id":"39bb093e-1fb0-4fe9-a7de-f970ccf3512f","system_id":"levelo_inurba_marseille","lat":43.22932,"lon":5.35378,"is_reserved":false,"is_disabled":false,"rental_uris":{"android":"levelo://app?vid=39bb093e-1fb0-4fe9-a7de-f970ccf3512f","ios":"levelo://app?vid=39bb093e-1fb0-4fe9-a7de-f970ccf3512f"},"vehicle_type_id":"4","last_reported":1728666469,"current_range_meters":24800,"station_id":"cpo3532slgdg3j2ikp40","pricing_plan_id":"cebpf4jnsgd1na2vs0mg"},{"bike_id":"134d3346-a736-4563-b586-31784d854e15","system_id":"levelo_inurba_marseille","lat":43.2847,"lon":5.38551,"is_reserved":false,"is_disabled":false,"rental_uris":{"android":"levelo://app?vid=134d3346-a736-4563-b586-31784d854e15","ios":"levelo://app?vid=134d3346-a736-4563-b586-31784d854e15"},"vehicle_type_id":"4","last_reported":1728666469,"current_range_meters":4000,"station_id":"ce4bh8p2rcd13ifvqeb0","pricing_plan_id":"cebpf4jnsgd1na2vs0mg"},{"bike_id":"21405333-9f46-47e3-b96f-8b8c486c025c","system_id":"levelo_inurba_marseille","lat":43.29269,"lon":5.36835,"is_reserved":false,"is_disabled":false,"rental_uris":{"android":"levelo://app?vid=21405333-9f46-47e3-b96f-8b8c486c025c","ios":"levelo://app?vid=21405333-9f46-47e3-b96f-8b8c486c025c"},"vehicle_type_id":"4","last_reported":1728666469,"current_range_meters":38800,"station_id":"ce4bhbp2rcd13ifvqesg","pricing_plan_id":"cebpf4jnsgd1na2vs0mg"},{"bike_id":"9420c6dc-b19d-4421-8c0c-72e39b809c6b","system_id":"levelo_inurba_marseille","lat":43.22928,"lon":5.35375,"is_reserved":false,"is_disabled":false,"rental_uris":{"android":"levelo://app?vid=9420c6dc-b19d-4421-8c0c-72e39b809c6b","ios":"levelo://app?vid=9420c6dc-b19d-4421-8c0c-72e39b809c6b"},"vehicle_type_id":"4","last_reported":1728666469,"current_range_meters":38800,"station_id":"cpo3532slgdg3j2ikp40","pricing_plan_id":"cebpf4jnsgd1na2vs0mg"},{"bike_id":"5a5649e8-a9bc-4d0f-be41-ed6fc56a9baf","system_id":"levelo_inurba_marseille","lat":43.22925,"lon":5.35379,"is_reserved":false,"is_disabled":false,"rental_uris":{"android":"levelo://app?vid=5a5649e8-a9bc-4d0f-be41-ed6fc56a9baf","ios":"levelo://app?vid=5a5649e8-a9bc-4d0f-be41-ed6fc56a9baf"},"vehicle_type_id":"4","last_reported":1728666469,"current_range_meters":36800,"station_id":"cpo3532slgdg3j2ikp40","pricing_plan_id":"cebpf4jnsgd1na2vs0mg"},{"bike_id":"7f6f2577-f85b-433a-9724-04460ba35c02","system_id":"levelo_inurba_marseille","lat":43.31321,"lon":5.41269,"is_reserved":false,"is_disabled":false,"rental_uris":{"android":"levelo://app?vid=7f6f2577-f85b-433a-9724-04460ba35c02","ios":"levelo://app?vid=7f6f2577-f85b-433a-9724-04460ba35c02"},"vehicle_type_id":"4","last_reported":1728666469,"current_range_meters":23200,"station_id":"","pricing_plan_id":"cebpf4jnsgd1na2vs0mg"},{"bike_id":"d66fdf2f-07a9-4b26-b71a-667699602f45","system_id":"levelo_inurba_marseille","lat":43.27939,"lon":5.4104,"is_reserved":false,"is_disabled":false,"rental_uris":{"android":"levelo://app?vid=d66fdf2f-07a9-4b26-b71a-667699602f45","ios":"levelo://app?vid=d66fdf2f-07a9-4b26-b71a-667699602f45"},"vehicle_type_id":"4","last_reported":1728666469,"current_range_meters":12800,"station_id":"ce4bhnp2rcd13ifvqh0g","pricing_plan_id":"cebpf4jnsgd1na2vs0mg"},{"bike_id":"8fb2b431-bcb9-46ba-80fb-e26e84592fc5","system_id":"levelo_inurba_marseille","lat":43.23191,"lon":5.35555,"is_reserved":false,"is_disabled":false,"rental_uris":{"android":"levelo://app?vid=8fb2b431-bcb9-46ba-80fb-e26e84592fc5","ios":"levelo://app?vid=8fb2b431-bcb9-46ba-80fb-e26e84592fc5"},"vehicle_type_id":"4","last_reported":1728666469,"current_range_meters":36400,"station_id":"ce4bhu92rcd13ifvqi70","pricing_plan_id":"cebpf4jnsgd1na2vs0mg"},{"bike_id":"4311070d-6aca-4a2e-a20e-896094b6cac2","system_id":"levelo_inurba_marseille","lat":43.33719,"lon":5.39175,"is_reserved":false,"is_disabled":false,"rental_uris":{"android":"levelo://app?vid=4311070d-6aca-4a2e-a20e-896094b6cac2","ios":"levelo://app?vid=4311070d-6aca-4a2e-a20e-896094b6cac2"},"vehicle_type_id":"4","last_reported":1728666469,"current_range_meters":13600,"station_id":"ce4bhr92rcd13ifvqhsg","pricing_plan_id":"cebpf4jnsgd1na2vs0mg"},{"bike_id":"f4a9a51a-4cf1-4433-ac3c-527278e7b522","system_id":"levelo_inurba_marseille","lat":43.27178,"lon":5.41001,"is_reserved":false,"is_disabled":false,"rental_uris":{"android":"levelo://app?vid=f4a9a51a-4cf1-4433-ac3c-527278e7b522","ios":"levelo://app?vid=f4a9a51a-4cf1-4433-ac3c-527278e7b522"},"vehicle_type_id":"4","last_reported":1728666469,"current_range_meters":38400,"station_id":"ce4bhl12rcd13ifvqgf0","pricing_plan_id":"cebpf4jnsgd1na2vs0mg"},{"bike_id":"28f2423f-8aa6-4fcf-a81a-a9624ddcc334","system_id":"levelo_inurba_marseille","lat":43.32655,"lon":5.40986,"is_reserved":false,"is_disabled":false,"rental_uris":{"android":"levelo://app?vid=28f2423f-8aa6-4fcf-a81a-a9624ddcc334","ios":"levelo://app?vid=28f2423f-8aa6-4fcf-a81a-a9624ddcc334"},"vehicle_type_id":"4","last_reported":1728666469,"current_range_meters":20000,"station_id":"ce4bhpp2rcd13ifvqhgg","pricing_plan_id":"cebpf4jnsgd1na2vs0mg"},{"bike_id":"b143cc2b-c2af-4d5a-9ea8-60042381a872","system_id":"levelo_inurba_marseille","lat":43.24996,"lon":5.38931,"is_reserved":false,"is_disabled":false,"rental_uris":{"android":"levelo://app?vid=b143cc2b-c2af-4d5a-9ea8-60042381a872","ios":"levelo://app?vid=b143cc2b-c2af-4d5a-9ea8-60042381a872"},"vehicle_type_id":"4","last_reported":1728666469,"current_range_meters":24800,"station_id":"ce4bhgp2rcd13ifvqfd0","pricing_plan_id":"cebpf4jnsgd1na2vs0mg"},{"bike_id":"aab482f5-b236-4a62-9b24-31b21a2c7b13","system_id":"levelo_inurba_marseille","lat":43.2886,"lon":5.39324,"is_reserved":false,"is_disabled":false,"rental_uris":{"android":"levelo://app?vid=aab482f5-b236-4a62-9b24-31b21a2c7b13","ios":"levelo://app?vid=aab482f5-b236-4a62-9b24-31b21a2c7b13"},"vehicle_type_id":"4","last_reported":1728666469,"current_range_meters":38800,"station_id":"ce4bh2p2rcd13ifvqdi0","pricing_plan_id":"cebpf4jnsgd1na2vs0mg"},{"bike_id":"a27554a6-a50a-485f-8f1f-4487a4aa2e01","system_id":"levelo_inurba_marseille","lat":43.30591,"lon":5.38075,"is_reserved":false,"is_disabled":false,"rental_uris":{"android":"levelo://app?vid=a27554a6-a50a-485f-8f1f-4487a4aa2e01","ios":"levelo://app?vid=a27554a6-a50a-485f-8f1f-4487a4aa2e01"},"vehicle_type_id":"4","last_reported":1728666469,"current_range_meters":30400,"station_id":"","pricing_plan_id":"cebpf4jnsgd1na2vs0mg"},{"bike_id":"f460f34f-967a-411c-95ab-8377297b6db9","system_id":"levelo_inurba_marseille","lat":43.29304,"lon":5.37177,"is_reserved":false,"is_disabled":false,"rental_uris":{"android":"levelo://app?vid=f460f34f-967a-411c-95ab-8377297b6db9","ios":"levelo://app?vid=f460f34f-967a-411c-95ab-8377297b6db9"},"vehicle_type_id":"4","last_reported":1728666469,"current_range_meters":26800,"station_id":"ce4bgh92rcd13ifvqb40","pricing_plan_id":"cebpf4jnsgd1na2vs0mg"},{"bike_id":"549aa92d-1d57-4f68-860e-b86ca10a5955","system_id":"levelo_inurba_marseille","lat":43.32295,"lon":5.3827,"is_reserved":false,"is_disabled":false,"rental_uris":{"android":"levelo://app?vid=549aa92d-1d57-4f68-860e-b86ca10a5955","ios":"levelo://app?vid=549aa92d-1d57-4f68-860e-b86ca10a5955"},"vehicle_type_id":"4","last_reported":1728666469,"current_range_meters":26800,"station_id":"ce4bhr12rcd13ifvqhqg","pricing_plan_id":"cebpf4jnsgd1na2vs0mg"},{"bike_id":"c9c5d750-6512-4aec-b679-0de2527f5539","system_id":"levelo_inurba_marseille","lat":43.28662,"lon":5.36349,"is_reserved":false,"is_disabled":false,"rental_uris":{"android":"levelo://app?vid=c9c5d750-6512-4aec-b679-0de2527f5539","ios":"levelo://app?vid=c9c5d750-6512-4aec-b679-0de2527f5539"},"vehicle_type_id":"4","last_reported":1728666469,"current_range_meters":29600,"station_id":"ce4bhah2rcd13ifvqej0","pricing_plan_id":"cebpf4jnsgd1na2vs0mg"},{"bike_id":"da94ed16-ab6e-4d0a-9634-0303c96a8f40","system_id":"levelo_inurba_marseille","lat":43.31357,"lon":5.38493,"is_reserved":false,"is_disabled":false,"rental_uris":{"android":"levelo://app?vid=da94ed16-ab6e-4d0a-9634-0303c96a8f40","ios":"levelo://app?vid=da94ed16-ab6e-4d0a-9634-0303c96a8f40"},"vehicle_type_id":"4","last_reported":1728666469,"current_range_meters":14800,"station_id":"ce4bgt92rcd13ifvqcf0","pricing_plan_id":"cebpf4jnsgd1na2vs0mg"},{"bike_id":"039f5b19-afaf-4980-8d7b-7ed9613007b5","system_id":"levelo_inurba_marseille","lat":43.32263,"lon":5.38276,"is_reserved":false,"is_disabled":false,"rental_uris":{"android":"levelo://app?vid=039f5b19-afaf-4980-8d7b-7ed9613007b5","ios":"levelo://app?vid=039f5b19-afaf-4980-8d7b-7ed9613007b5"},"vehicle_type_id":"4","last_reported":1728666469,"current_range_meters":12000,"station_id":"ce4bhr12rcd13ifvqhqg","pricing_plan_id":"cebpf4jnsgd1na2vs0mg"},{"bike_id":"bdf06f47-ed7c-46bb-9d07-b91669d1b6ef","system_id":"levelo_inurba_marseille","lat":43.30459,"lon":5.37906,"is_reserved":false,"is_disabled":false,"rental_uris":{"android":"levelo://app?vid=bdf06f47-ed7c-46bb-9d07-b91669d1b6ef","ios":"levelo://app?vid=bdf06f47-ed7c-46bb-9d07-b91669d1b6ef"},"vehicle_type_id":"4","last_reported":1728666469,"current_range_meters":20400,"station_id":"ce4bgup2rcd13ifvqcn0","pricing_plan_id":"cebpf4jnsgd1na2vs0mg"},{"bike_id":"aa75c41c-1391-4d5a-b0ad-fb29c317877d","system_id":"levelo_inurba_marseille","lat":43.23071,"lon":5.35497,"is_reserved":false,"is_disabled":false,"rental_uris":{"android":"levelo://app?vid=aa75c41c-1391-4d5a-b0ad-fb29c317877d","ios":"levelo://app?vid=aa75c41c-1391-4d5a-b0ad-fb29c317877d"},"vehicle_type_id":"4","last_reported":1728666469,"current_range_meters":38800,"station_id":"cpo3342slgdg3j2ifvpg","pricing_plan_id":"cebpf4jnsgd1na2vs0mg"},{"bike_id":"f441069c-7d25-4680-8d68-ed6b58561a88","system_id":"levelo_inurba_marseille","lat":43.29849,"lon":5.36285,"is_reserved":false,"is_disabled":false,"rental_uris":{"android":"levelo://app?vid=f441069c-7d25-4680-8d68-ed6b58561a88","ios":"levelo://app?vid=f441069c-7d25-4680-8d68-ed6b58561a88"},"vehicle_type_id":"4","last_reported":1728666469,"current_range_meters":21600,"station_id":"ce4bgpp2rcd13ifvqc3g","pricing_plan_id":"cebpf4jnsgd1na2vs0mg"},{"bike_id":"303bc28b-a2dd-4d7f-a721-59b0812a105e","system_id":"levelo_inurba_marseille","lat":43.31366,"lon":5.38485,"is_reserved":false,"is_disabled":false,"rental_uris":{"android":"levelo://app?vid=303bc28b-a2dd-4d7f-a721-59b0812a105e","ios":"levelo://app?vid=303bc28b-a2dd-4d7f-a721-59b0812a105e"},"vehicle_type_id":"4","last_reported":1728666469,"current_range_meters":39200,"station_id":"ce4bgt92rcd13ifvqcf0","pricing_plan_id":"cebpf4jnsgd1na2vs0mg"},{"bike_id":"1a0f090a-d6e7-4a1e-bfe5-0c2a632b851c","system_id":"levelo_inurba_marseille","lat":43.27175,"lon":5.40994,"is_reserved":false,"is_disabled":false,"rental_uris":{"android":"levelo://app?vid=1a0f090a-d6e7-4a1e-bfe5-0c2a632b851c","ios":"levelo://app?vid=1a0f090a-d6e7-4a1e-bfe5-0c2a632b851c"},"vehicle_type_id":"4","last_reported":1728666469,"current_range_meters":40000,"station_id":"ce4bhl12rcd13ifvqgf0","pricing_plan_id":"cebpf4jnsgd1na2vs0mg"},{"bike_id":"bf75617e-9abc-43e4-b91b-87c3de6fb801","system_id":"levelo_inurba_marseille","lat":43.26678,"lon":5.3827,"is_reserved":false,"is_disabled":false,"rental_uris":{"android":"levelo://app?vid=bf75617e-9abc-43e4-b91b-87c3de6fb801","ios":"levelo://app?vid=bf75617e-9abc-43e4-b91b-87c3de6fb801"},"vehicle_type_id":"4","last_reported":1728666469,"current_range_meters":36000,"station_id":"ce4bhg92rcd13ifvqf90","pricing_plan_id":"cebpf4jnsgd1na2vs0mg"},{"bike_id":"3a7395f6-1771-4e2e-9268-1110cffd1738","system_id":"levelo_inurba_marseille","lat":43.28319,"lon":5.40158,"is_reserved":false,"is_disabled":false,"rental_uris":{"android":"levelo://app?vid=3a7395f6-1771-4e2e-9268-1110cffd1738","ios":"levelo://app?vid=3a7395f6-1771-4e2e-9268-1110cffd1738"},"vehicle_type_id":"4","last_reported":1728666469,"current_range_meters":22800,"station_id":"ce4bhq92rcd13ifvqhkg","pricing_plan_id":"cebpf4jnsgd1na2vs0mg"},{"bike_id":"5be201fb-ac95-4eed-ad22-ed6b231b684a","system_id":"levelo_inurba_marseille","lat":43.26491,"lon":5.39545,"is_reserved":false,"is_disabled":false,"rental_uris":{"android":"levelo://app?vid=5be201fb-ac95-4eed-ad22-ed6b231b684a","ios":"levelo://app?vid=5be201fb-ac95-4eed-ad22-ed6b231b684a"},"vehicle_type_id":"4","last_reported":1728666469,"current_range_meters":2800,"station_id":"ce4bhi12rcd13ifvqfq0","pricing_plan_id":"cebpf4jnsgd1na2vs0mg"},{"bike_id":"a8e5ad48-1772-48fc-8f57-12ee5d4c62cb","system_id":"levelo_inurba_marseille","lat":43.24179,"lon":5.3972,"is_reserved":false,"is_disabled":false,"rental_uris":{"android":"levelo://app?vid=a8e5ad48-1772-48fc-8f57-12ee5d4c62cb","ios":"levelo://app?vid=a8e5ad48-1772-48fc-8f57-12ee5d4c62cb"},"vehicle_type_id":"4","last_reported":1728666469,"current_range_meters":3600,"station_id":"ce4bhn12rcd13ifvqgpg","pricing_plan_id":"cebpf4jnsgd1na2vs0mg"},{"bike_id":"b1009450-6152-462c-a724-90df51eeb6db","system_id":"levelo_inurba_marseille","lat":43.32382,"lon":5.38917,"is_reserved":false,"is_disabled":false,"rental_uris":{"android":"levelo://app?vid=b1009450-6152-462c-a724-90df51eeb6db","ios":"levelo://app?vid=b1009450-6152-462c-a724-90df51eeb6db"},"vehicle_type_id":"4","last_reported":1728666469,"current_range_meters":4800,"station_id":"ce4bhqp2rcd13ifvqhog","pricing_plan_id":"cebpf4jnsgd1na2vs0mg"},{"bike_id":"a37ceb87-8803-4328-95a0-963696a0fe43","system_id":"levelo_inurba_marseille","lat":43.28933,"lon":5.36637,"is_reserved":false,"is_disabled":false,"rental_uris":{"android":"levelo://app?vid=a37ceb87-8803-4328-95a0-963696a0fe43","ios":"levelo://app?vid=a37ceb87-8803-4328-95a0-963696a0fe43"},"vehicle_type_id":"4","last_reported":1728666469,"current_range_meters":18000,"station_id":"ce4bhap2rcd13ifvqek0","pricing_plan_id":"cebpf4jnsgd1na2vs0mg"},{"bike_id":"590d86b4-90af-4530-a62f-73742dc4dcb7","system_id":"levelo_inurba_marseille","lat":43.25,"lon":5.3892,"is_reserved":false,"is_disabled":false,"rental_uris":{"android":"levelo://app?vid=590d86b4-90af-4530-a62f-73742dc4dcb7","ios":"levelo://app?vid=590d86b4-90af-4530-a62f-73742dc4dcb7"},"vehicle_type_id":"4","last_reported":1728666469,"current_range_meters":29600,"station_id":"ce4bhgp2rcd13ifvqfd0","pricing_plan_id":"cebpf4jnsgd1na2vs0mg"},{"bike_id":"ef3d4cfb-4780-4a05-a7c0-d330a1214115","system_id":"levelo_inurba_marseille","lat":43.26806,"lon":5.40269,"is_reserved":false,"is_disabled":false,"rental_uris":{"android":"levelo://app?vid=ef3d4cfb-4780-4a05-a7c0-d330a1214115","ios":"levelo://app?vid=ef3d4cfb-4780-4a05-a7c0-d330a1214115"},"vehicle_type_id":"4","last_reported":1728666469,"current_range_meters":4000,"station_id":"ce501612rcd8frsf0b60","pricing_plan_id":"cebpf4jnsgd1na2vs0mg"},{"bike_id":"02b1a36c-9fd3-478f-aa52-92504ca7e3a8","system_id":"levelo_inurba_marseille","lat":43.33021,"lon":5.39039,"is_reserved":false,"is_disabled":false,"rental_uris":{"android":"levelo://app?vid=02b1a36c-9fd3-478f-aa52-92504ca7e3a8","ios":"levelo://app?vid=02b1a36c-9fd3-478f-aa52-92504ca7e3a8"},"vehicle_type_id":"4","last_reported":1728666469,"current_range_meters":9200,"station_id":"ce4bhr92rcd13ifvqhrg","pricing_plan_id":"cebpf4jnsgd1na2vs0mg"},{"bike_id":"0540e61f-fa6d-40b6-a13e-2152141b9555","system_id":"levelo_inurba_marseille","lat":43.27143,"lon":5.38923,"is_reserved":false,"is_disabled":false,"rental_uris":{"android":"levelo://app?vid=0540e61f-fa6d-40b6-a13e-2152141b9555","ios":"levelo://app?vid=0540e61f-fa6d-40b6-a13e-2152141b9555"},"vehicle_type_id":"4","last_reported":1728666469,"current_range_meters":6800,"station_id":"","pricing_plan_id":"cebpf4jnsgd1na2vs0mg"},{"bike_id":"05f4497d-f3b9-4664-873c-9f43c90a517f","system_id":"levelo_inurba_marseille","lat":43.29875,"lon":5.38906,"is_reserved":false,"is_disabled":false,"rental_uris":{"android":"levelo://app?vid=05f4497d-f3b9-4664-873c-9f43c90a517f","ios":"levelo://app?vid=05f4497d-f3b9-4664-873c-9f43c90a517f"},"vehicle_type_id":"4","last_reported":1728666469,"current_range_meters":2800,"station_id":"ce4bh392rcd13ifvqdl0","pricing_plan_id":"cebpf4jnsgd1na2vs0mg"},{"bike_id":"929fb2d3-e56a-4635-a163-e7d7820aba4c","system_id":"levelo_inurba_marseille","lat":43.28407,"lon":5.37513,"is_reserved":false,"is_disabled":false,"rental_uris":{"android":"levelo://app?vid=929fb2d3-e56a-4635-a163-e7d7820aba4c","ios":"levelo://app?vid=929fb2d3-e56a-4635-a163-e7d7820aba4c"},"vehicle_type_id":"4","last_reported":1728666469,"current_range_meters":16000,"station_id":"ce4bh412rcd13ifvqds0","pricing_plan_id":"cebpf4jnsgd1na2vs0mg"},{"bike_id":"1a0ddab3-5260-40c3-a774-f2cebd63408d","system_id":"levelo_inurba_marseille","lat":43.28005,"lon":5.40011,"is_reserved":false,"is_disabled":false,"rental_uris":{"android":"levelo://app?vid=1a0ddab3-5260-40c3-a774-f2cebd63408d","ios":"levelo://app?vid=1a0ddab3-5260-40c3-a774-f2cebd63408d"},"vehicle_type_id":"4","last_reported":1728666469,"current_range_meters":19200,"station_id":"ce4bho92rcd13ifvqh4g","pricing_plan_id":"cebpf4jnsgd1na2vs0mg"},{"bike_id":"473ae646-d043-4853-9639-1e837b890635","system_id":"levelo_inurba_marseille","lat":43.28087,"lon":5.40125,"is_reserved":false,"is_disabled":false,"rental_uris":{"android":"levelo://app?vid=473ae646-d043-4853-9639-1e837b890635","ios":"levelo://app?vid=473ae646-d043-4853-9639-1e837b890635"},"vehicle_type_id":"4","last_reported":1728666469,"current_range_meters":25600,"station_id":"ce4bho92rcd13ifvqh4g","pricing_plan_id":"cebpf4jnsgd1na2vs0mg"},{"bike_id":"b2c346e5-c53d-4dd4-a6e0-b0fcccdcdcff","system_id":"levelo_inurba_marseille","lat":43.28663,"lon":5.36356,"is_reserved":false,"is_disabled":false,"rental_uris":{"android":"levelo://app?vid=b2c346e5-c53d-4dd4-a6e0-b0fcccdcdcff","ios":"levelo://app?vid=b2c346e5-c53d-4dd4-a6e0-b0fcccdcdcff"},"vehicle_type_id":"4","last_reported":1728666469,"current_range_meters":11600,"station_id":"ce4bhah2rcd13ifvqej0","pricing_plan_id":"cebpf4jnsgd1na2vs0mg"},{"bike_id":"79fcd4c2-1dc4-4bdf-b329-cfb238c2cbbc","system_id":"levelo_inurba_marseille","lat":43.29552,"lon":5.42292,"is_reserved":false,"is_disabled":false,"rental_uris":{"android":"levelo://app?vid=79fcd4c2-1dc4-4bdf-b329-cfb238c2cbbc","ios":"levelo://app?vid=79fcd4c2-1dc4-4bdf-b329-cfb238c2cbbc"},"vehicle_type_id":"4","last_reported":1728666469,"current_range_meters":7200,"station_id":"ce4bhph2rcd13ifvqhdg","pricing_plan_id":"cebpf4jnsgd1na2vs0mg"},{"bike_id":"69cc8fb7-9d75-42cc-9509-9ef7ad67f8b3","system_id":"levelo_inurba_marseille","lat":43.27372,"lon":5.36257,"is_reserved":false,"is_disabled":false,"rental_uris":{"android":"levelo://app?vid=69cc8fb7-9d75-42cc-9509-9ef7ad67f8b3","ios":"levelo://app?vid=69cc8fb7-9d75-42cc-9509-9ef7ad67f8b3"},"vehicle_type_id":"4","last_reported":1728666469,"current_range_meters":4400,"station_id":"ce4bhbh2rcd13ifvqeo0","pricing_plan_id":"cebpf4jnsgd1na2vs0mg"},{"bike_id":"09e861ab-9da3-4b17-8792-c27052ebb9f6","system_id":"levelo_inurba_marseille","lat":43.27945,"lon":5.41046,"is_reserved":false,"is_disabled":false,"rental_uris":{"android":"levelo://app?vid=09e861ab-9da3-4b17-8792-c27052ebb9f6","ios":"levelo://app?vid=09e861ab-9da3-4b17-8792-c27052ebb9f6"},"vehicle_type_id":"4","last_reported":1728666469,"current_range_meters":11200,"station_id":"ce4bhnp2rcd13ifvqh0g","pricing_plan_id":"cebpf4jnsgd1na2vs0mg"},{"bike_id":"8c9a5779-48c6-4a49-b87c-4b9241d4f44b","system_id":"levelo_inurba_marseille","lat":43.337444,"lon":5.374475,"is_reserved":false,"is_disabled":false,"rental_uris":{"android":"levelo://app?vid=8c9a5779-48c6-4a49-b87c-4b9241d4f44b","ios":"levelo://app?vid=8c9a5779-48c6-4a49-b87c-4b9241d4f44b"},"vehicle_type_id":"4","last_reported":1728666469,"current_range_meters":10000,"station_id":"","pricing_plan_id":"cebpf4jnsgd1na2vs0mg"},{"bike_id":"f0400f42-9d67-4533-81ca-8770eecdb403","system_id":"levelo_inurba_marseille","lat":43.29549,"lon":5.42292,"is_reserved":false,"is_disabled":false,"rental_uris":{"android":"levelo://app?vid=f0400f42-9d67-4533-81ca-8770eecdb403","ios":"levelo://app?vid=f0400f42-9d67-4533-81ca-8770eecdb403"},"vehicle_type_id":"4","last_reported":1728666469,"current_range_meters":28400,"station_id":"ce4bhph2rcd13ifvqhdg","pricing_plan_id":"cebpf4jnsgd1na2vs0mg"},{"bike_id":"fe8bfe5f-6b56-4544-a987-9773c5b6594d","system_id":"levelo_inurba_marseille","lat":43.337444,"lon":5.374475,"is_reserved":false,"is_disabled":false,"rental_uris":{"android":"levelo://app?vid=fe8bfe5f-6b56-4544-a987-9773c5b6594d","ios":"levelo://app?vid=fe8bfe5f-6b56-4544-a987-9773c5b6594d"},"vehicle_type_id":"4","last_reported":1728666469,"current_range_meters":35600,"station_id":"","pricing_plan_id":"cebpf4jnsgd1na2vs0mg"},{"bike_id":"efafc372-9fcd-43af-953e-b60ebdb2d53b","system_id":"levelo_inurba_marseille","lat":43.26554,"lon":5.37284,"is_reserved":false,"is_disabled":false,"rental_uris":{"android":"levelo://app?vid=efafc372-9fcd-43af-953e-b60ebdb2d53b","ios":"levelo://app?vid=efafc372-9fcd-43af-953e-b60ebdb2d53b"},"vehicle_type_id":"4","last_reported":1728666469,"current_range_meters":20400,"station_id":"ce4bhg12rcd13ifvqf70","pricing_plan_id":"cebpf4jnsgd1na2vs0mg"},{"bike_id":"3727dd72-2eb8-4544-845a-ac22dd706585","system_id":"levelo_inurba_marseille","lat":43.33721,"lon":5.39187,"is_reserved":false,"is_disabled":false,"rental_uris":{"android":"levelo://app?vid=3727dd72-2eb8-4544-845a-ac22dd706585","ios":"levelo://app?vid=3727dd72-2eb8-4544-845a-ac22dd706585"},"vehicle_type_id":"4","last_reported":1728666469,"current_range_meters":19200,"station_id":"ce4bhr92rcd13ifvqhsg","pricing_plan_id":"cebpf4jnsgd1na2vs0mg"},{"bike_id":"33b44b0d-b900-43a4-8842-e53350435995","system_id":"levelo_inurba_marseille","lat":43.29002,"lon":5.35607,"is_reserved":false,"is_disabled":false,"rental_uris":{"android":"levelo://app?vid=33b44b0d-b900-43a4-8842-e53350435995","ios":"levelo://app?vid=33b44b0d-b900-43a4-8842-e53350435995"},"vehicle_type_id":"4","last_reported":1728666469,"current_range_meters":29600,"station_id":"ce4bhb92rcd13ifvqen0","pricing_plan_id":"cebpf4jnsgd1na2vs0mg"},{"bike_id":"384f7998-c20a-48f5-9a4b-f8228082c4e6","system_id":"levelo_inurba_marseille","lat":43.27174,"lon":5.40989,"is_reserved":false,"is_disabled":false,"rental_uris":{"android":"levelo://app?vid=384f7998-c20a-48f5-9a4b-f8228082c4e6","ios":"levelo://app?vid=384f7998-c20a-48f5-9a4b-f8228082c4e6"},"vehicle_type_id":"4","last_reported":1728666469,"current_range_meters":27600,"station_id":"ce4bhl12rcd13ifvqgf0","pricing_plan_id":"cebpf4jnsgd1na2vs0mg"},{"bike_id":"ae0e8aa4-b27a-4e5b-9b34-d48fc24e558e","system_id":"levelo_inurba_marseille","lat":43.2466,"lon":5.38169,"is_reserved":false,"is_disabled":false,"rental_uris":{"android":"levelo://app?vid=ae0e8aa4-b27a-4e5b-9b34-d48fc24e558e","ios":"levelo://app?vid=ae0e8aa4-b27a-4e5b-9b34-d48fc24e558e"},"vehicle_type_id":"4","last_reported":1728666469,"current_range_meters":32800,"station_id":"ce4bhih2rcd13ifvqfr0","pricing_plan_id":"cebpf4jnsgd1na2vs0mg"},{"bike_id":"7aef1581-5176-4b9f-a874-be92d42d189d","system_id":"levelo_inurba_marseille","lat":43.29556,"lon":5.42293,"is_reserved":false,"is_disabled":false,"rental_uris":{"android":"levelo://app?vid=7aef1581-5176-4b9f-a874-be92d42d189d","ios":"levelo://app?vid=7aef1581-5176-4b9f-a874-be92d42d189d"},"vehicle_type_id":"4","last_reported":1728666469,"current_range_meters":4400,"station_id":"ce4bhph2rcd13ifvqhdg","pricing_plan_id":"cebpf4jnsgd1na2vs0mg"},{"bike_id":"9864e6b9-e77c-46c9-a2e6-183454b09bb4","system_id":"levelo_inurba_marseille","lat":43.27992,"lon":5.40006,"is_reserved":false,"is_disabled":false,"rental_uris":{"android":"levelo://app?vid=9864e6b9-e77c-46c9-a2e6-183454b09bb4","ios":"levelo://app?vid=9864e6b9-e77c-46c9-a2e6-183454b09bb4"},"vehicle_type_id":"4","last_reported":1728666469,"current_range_meters":29600,"station_id":"ce4bho92rcd13ifvqh4g","pricing_plan_id":"cebpf4jnsgd1na2vs0mg"},{"bike_id":"8e2ed7e9-093b-4df7-8b24-eb69cd3b289e","system_id":"levelo_inurba_marseille","lat":43.28,"lon":5.40014,"is_reserved":false,"is_disabled":false,"rental_uris":{"android":"levelo://app?vid=8e2ed7e9-093b-4df7-8b24-eb69cd3b289e","ios":"levelo://app?vid=8e2ed7e9-093b-4df7-8b24-eb69cd3b289e"},"vehicle_type_id":"4","last_reported":1728666469,"current_range_meters":39200,"station_id":"ce4bho92rcd13ifvqh4g","pricing_plan_id":"cebpf4jnsgd1na2vs0mg"},{"bike_id":"ba329a88-d68a-45eb-a036-6b41efaec17e","system_id":"levelo_inurba_marseille","lat":43.26063,"lon":5.39396,"is_reserved":false,"is_disabled":false,"rental_uris":{"android":"levelo://app?vid=ba329a88-d68a-45eb-a036-6b41efaec17e","ios":"levelo://app?vid=ba329a88-d68a-45eb-a036-6b41efaec17e"},"vehicle_type_id":"4","last_reported":1728666469,"current_range_meters":31200,"station_id":"ce4bhh92rcd13ifvqfj0","pricing_plan_id":"cebpf4jnsgd1na2vs0mg"},{"bike_id":"715a28d5-b5b5-4dd6-861d-cf01be07f78f","system_id":"levelo_inurba_marseille","lat":43.302606,"lon":5.377143,"is_reserved":false,"is_disabled":false,"rental_uris":{"android":"levelo://app?vid=715a28d5-b5b5-4dd6-861d-cf01be07f78f","ios":"levelo://app?vid=715a28d5-b5b5-4dd6-861d-cf01be07f78f"},"vehicle_type_id":"4","last_reported":1728666469,"current_range_meters":38000,"station_id":"ce4bguh2rcd13ifvqcj0","pricing_plan_id":"cebpf4jnsgd1na2vs0mg"},{"bike_id":"d10663c0-8c05-479b-a7ad-306ab8d6dfc6","system_id":"levelo_inurba_marseille","lat":43.291659,"lon":5.371422,"is_reserved":false,"is_disabled":false,"rental_uris":{"android":"levelo://app?vid=d10663c0-8c05-479b-a7ad-306ab8d6dfc6","ios":"levelo://app?vid=d10663c0-8c05-479b-a7ad-306ab8d6dfc6"},"vehicle_type_id":"4","last_reported":1728666469,"current_range_meters":37600,"station_id":"ce4bha92rcd13ifvqeh0","pricing_plan_id":"cebpf4jnsgd1na2vs0mg"},{"bike_id":"8fd634a9-e1e9-4606-af0c-efcc4e1c681a","system_id":"levelo_inurba_marseille","lat":43.31359,"lon":5.38485,"is_reserved":false,"is_disabled":false,"rental_uris":{"android":"levelo://app?vid=8fd634a9-e1e9-4606-af0c-efcc4e1c681a","ios":"levelo://app?vid=8fd634a9-e1e9-4606-af0c-efcc4e1c681a"},"vehicle_type_id":"4","last_reported":1728666469,"current_range_meters":36000,"station_id":"ce4bgt92rcd13ifvqcf0","pricing_plan_id":"cebpf4jnsgd1na2vs0mg"},{"bike_id":"d0bcf234-798b-4c72-885f-7da24c2fef9e","system_id":"levelo_inurba_marseille","lat":43.32508,"lon":5.38954,"is_reserved":false,"is_disabled":false,"rental_uris":{"android":"levelo://app?vid=d0bcf234-798b-4c72-885f-7da24c2fef9e","ios":"levelo://app?vid=d0bcf234-798b-4c72-885f-7da24c2fef9e"},"vehicle_type_id":"4","last_reported":1728666469,"current_range_meters":38800,"station_id":"","pricing_plan_id":"cebpf4jnsgd1na2vs0mg"},{"bike_id":"7741b23e-8f27-44f9-895d-254e789ab6dd","system_id":"levelo_inurba_marseille","lat":43.3302,"lon":5.39037,"is_reserved":false,"is_disabled":false,"rental_uris":{"android":"levelo://app?vid=7741b23e-8f27-44f9-895d-254e789ab6dd","ios":"levelo://app?vid=7741b23e-8f27-44f9-895d-254e789ab6dd"},"vehicle_type_id":"4","last_reported":1728666469,"current_range_meters":38800,"station_id":"ce4bhr92rcd13ifvqhrg","pricing_plan_id":"cebpf4jnsgd1na2vs0mg"},{"bike_id":"04297339-b0e6-4e0c-ba57-2ecfb29a6f77","system_id":"levelo_inurba_marseille","lat":43.23188,"lon":5.39989,"is_reserved":false,"is_disabled":false,"rental_uris":{"android":"levelo://app?vid=04297339-b0e6-4e0c-ba57-2ecfb29a6f77","ios":"levelo://app?vid=04297339-b0e6-4e0c-ba57-2ecfb29a6f77"},"vehicle_type_id":"4","last_reported":1728666469,"current_range_meters":0,"station_id":"ce4bhn12rcd13ifvqgqg","pricing_plan_id":"cebpf4jnsgd1na2vs0mg"},{"bike_id":"3758c66e-410c-4587-ac08-a52558547f6d","system_id":"levelo_inurba_marseille","lat":43.27999,"lon":5.40012,"is_reserved":false,"is_disabled":false,"rental_uris":{"android":"levelo://app?vid=3758c66e-410c-4587-ac08-a52558547f6d","ios":"levelo://app?vid=3758c66e-410c-4587-ac08-a52558547f6d"},"vehicle_type_id":"4","last_reported":1728666469,"current_range_meters":10000,"station_id":"ce4bho92rcd13ifvqh4g","pricing_plan_id":"cebpf4jnsgd1na2vs0mg"},{"bike_id":"0ed38251-b2c4-441a-bf32-cf687f26ace0","system_id":"levelo_inurba_marseille","lat":43.32,"lon":5.38157,"is_reserved":false,"is_disabled":false,"rental_uris":{"android":"levelo://app?vid=0ed38251-b2c4-441a-bf32-cf687f26ace0","ios":"levelo://app?vid=0ed38251-b2c4-441a-bf32-cf687f26ace0"},"vehicle_type_id":"4","last_reported":1728666469,"current_range_meters":5600,"station_id":"ce4bhr12rcd13ifvqhpg","pricing_plan_id":"cebpf4jnsgd1na2vs0mg"},{"bike_id":"2df715b3-a15f-49b9-8177-e4d8588b4d0b","system_id":"levelo_inurba_marseille","lat":43.28366,"lon":5.38639,"is_reserved":false,"is_disabled":false,"rental_uris":{"android":"levelo://app?vid=2df715b3-a15f-49b9-8177-e4d8588b4d0b","ios":"levelo://app?vid=2df715b3-a15f-49b9-8177-e4d8588b4d0b"},"vehicle_type_id":"4","last_reported":1728666469,"current_range_meters":12400,"station_id":"ce4bh492rcd13ifvqdvg","pricing_plan_id":"cebpf4jnsgd1na2vs0mg"},{"bike_id":"2cec717a-f132-462b-913c-08171378f2e1","system_id":"levelo_inurba_marseille","lat":43.28508,"lon":5.38527,"is_reserved":false,"is_disabled":false,"rental_uris":{"android":"levelo://app?vid=2cec717a-f132-462b-913c-08171378f2e1","ios":"levelo://app?vid=2cec717a-f132-462b-913c-08171378f2e1"},"vehicle_type_id":"4","last_reported":1728666469,"current_range_meters":37600,"station_id":"ce4bh8p2rcd13ifvqeb0","pricing_plan_id":"cebpf4jnsgd1na2vs0mg"},{"bike_id":"8bbf8e30-7a80-4bd4-bcfa-d99a44c1f2e9","system_id":"levelo_inurba_marseille","lat":43.31756,"lon":5.3901,"is_reserved":false,"is_disabled":false,"rental_uris":{"android":"levelo://app?vid=8bbf8e30-7a80-4bd4-bcfa-d99a44c1f2e9","ios":"levelo://app?vid=8bbf8e30-7a80-4bd4-bcfa-d99a44c1f2e9"},"vehicle_type_id":"4","last_reported":1728666469,"current_range_meters":16800,"station_id":"ce4bhqp2rcd13ifvqhng","pricing_plan_id":"cebpf4jnsgd1na2vs0mg"},{"bike_id":"afbb4f69-e124-4bbe-b2a1-ad7bd811b3ee","system_id":"levelo_inurba_marseille","lat":43.28464,"lon":5.35886,"is_reserved":false,"is_disabled":false,"rental_uris":{"android":"levelo://app?vid=afbb4f69-e124-4bbe-b2a1-ad7bd811b3ee","ios":"levelo://app?vid=afbb4f69-e124-4bbe-b2a1-ad7bd811b3ee"},"vehicle_type_id":"4","last_reported":1728666469,"current_range_meters":20000,"station_id":"ce4bhb92rcd13ifvqen0","pricing_plan_id":"cebpf4jnsgd1na2vs0mg"},{"bike_id":"52b1125a-5821-42ca-b212-63aac46a0191","system_id":"levelo_inurba_marseille","lat":43.31711,"lon":5.43707,"is_reserved":false,"is_disabled":false,"rental_uris":{"android":"levelo://app?vid=52b1125a-5821-42ca-b212-63aac46a0191","ios":"levelo://app?vid=52b1125a-5821-42ca-b212-63aac46a0191"},"vehicle_type_id":"4","last_reported":1728666469,"current_range_meters":25600,"station_id":"ce4bhp92rcd13ifvqhcg","pricing_plan_id":"cebpf4jnsgd1na2vs0mg"},{"bike_id":"f45529d0-1c08-4b28-83c0-5124862836f4","system_id":"levelo_inurba_marseille","lat":43.33022,"lon":5.39041,"is_reserved":false,"is_disabled":false,"rental_uris":{"android":"levelo://app?vid=f45529d0-1c08-4b28-83c0-5124862836f4","ios":"levelo://app?vid=f45529d0-1c08-4b28-83c0-5124862836f4"},"vehicle_type_id":"4","last_reported":1728666469,"current_range_meters":5600,"station_id":"ce4bhr92rcd13ifvqhrg","pricing_plan_id":"cebpf4jnsgd1na2vs0mg"},{"bike_id":"1c5dfffa-e021-42fa-87e9-a89f4d4718ac","system_id":"levelo_inurba_marseille","lat":43.29781,"lon":5.37093,"is_reserved":false,"is_disabled":false,"rental_uris":{"android":"levelo://app?vid=1c5dfffa-e021-42fa-87e9-a89f4d4718ac","ios":"levelo://app?vid=1c5dfffa-e021-42fa-87e9-a89f4d4718ac"},"vehicle_type_id":"4","last_reported":1728666469,"current_range_meters":4000,"station_id":"ce4bgop2rcd13ifvqc1g","pricing_plan_id":"cebpf4jnsgd1na2vs0mg"},{"bike_id":"57a8a4e4-fb43-474f-af8c-fa1abb87ecef","system_id":"levelo_inurba_marseille","lat":43.33022,"lon":5.39039,"is_reserved":false,"is_disabled":false,"rental_uris":{"android":"levelo://app?vid=57a8a4e4-fb43-474f-af8c-fa1abb87ecef","ios":"levelo://app?vid=57a8a4e4-fb43-474f-af8c-fa1abb87ecef"},"vehicle_type_id":"4","last_reported":1728666469,"current_range_meters":38000,"station_id":"ce4bhr92rcd13ifvqhrg","pricing_plan_id":"cebpf4jnsgd1na2vs0mg"},{"bike_id":"b1ddc208-8b06-4192-a00c-7df3716acceb","system_id":"levelo_inurba_marseille","lat":43.286365,"lon":5.385841,"is_reserved":false,"is_disabled":false,"rental_uris":{"android":"levelo://app?vid=b1ddc208-8b06-4192-a00c-7df3716acceb","ios":"levelo://app?vid=b1ddc208-8b06-4192-a00c-7df3716acceb"},"vehicle_type_id":"4","last_reported":1728666469,"current_range_meters":3600,"station_id":"ce4bh492rcd13ifvqdug","pricing_plan_id":"cebpf4jnsgd1na2vs0mg"},{"bike_id":"0adf0137-f1fa-44fa-ae9a-429e03a87573","system_id":"levelo_inurba_marseille","lat":43.26958,"lon":5.38635,"is_reserved":false,"is_disabled":false,"rental_uris":{"android":"levelo://app?vid=0adf0137-f1fa-44fa-ae9a-429e03a87573","ios":"levelo://app?vid=0adf0137-f1fa-44fa-ae9a-429e03a87573"},"vehicle_type_id":"4","last_reported":1728666469,"current_range_meters":16400,"station_id":"ce4bhh92rcd13ifvqfh0","pricing_plan_id":"cebpf4jnsgd1na2vs0mg"},{"bike_id":"ceaba6d0-7f02-4739-b799-9aeb36263d57","system_id":"levelo_inurba_marseille","lat":43.31753,"lon":5.39005,"is_reserved":false,"is_disabled":false,"rental_uris":{"android":"levelo://app?vid=ceaba6d0-7f02-4739-b799-9aeb36263d57","ios":"levelo://app?vid=ceaba6d0-7f02-4739-b799-9aeb36263d57"},"vehicle_type_id":"4","last_reported":1728666469,"current_range_meters":8000,"station_id":"ce4bhqp2rcd13ifvqhng","pricing_plan_id":"cebpf4jnsgd1na2vs0mg"},{"bike_id":"e9618834-f16a-4dcc-9102-b19cc3887101","system_id":"levelo_inurba_marseille","lat":43.29433,"lon":5.39761,"is_reserved":false,"is_disabled":false,"rental_uris":{"android":"levelo://app?vid=e9618834-f16a-4dcc-9102-b19cc3887101","ios":"levelo://app?vid=e9618834-f16a-4dcc-9102-b19cc3887101"},"vehicle_type_id":"4","last_reported":1728666469,"current_range_meters":29600,"station_id":"ce4bh3h2rcd13ifvqdo0","pricing_plan_id":"cebpf4jnsgd1na2vs0mg"},{"bike_id":"76a700fa-003b-4709-aa97-479c866caeca","system_id":"levelo_inurba_marseille","lat":43.27371,"lon":5.36262,"is_reserved":false,"is_disabled":false,"rental_uris":{"android":"levelo://app?vid=76a700fa-003b-4709-aa97-479c866caeca","ios":"levelo://app?vid=76a700fa-003b-4709-aa97-479c866caeca"},"vehicle_type_id":"4","last_reported":1728666469,"current_range_meters":4000,"station_id":"ce4bhbh2rcd13ifvqeo0","pricing_plan_id":"cebpf4jnsgd1na2vs0mg"},{"bike_id":"1c9a48ad-1a33-4247-aa77-b8edc9d2520f","system_id":"levelo_inurba_marseille","lat":43.24804,"lon":5.37456,"is_reserved":false,"is_disabled":false,"rental_uris":{"android":"levelo://app?vid=1c9a48ad-1a33-4247-aa77-b8edc9d2520f","ios":"levelo://app?vid=1c9a48ad-1a33-4247-aa77-b8edc9d2520f"},"vehicle_type_id":"4","last_reported":1728666469,"current_range_meters":8400,"station_id":"ce4bhgh2rcd13ifvqfb0","pricing_plan_id":"cebpf4jnsgd1na2vs0mg"},{"bike_id":"15080fac-1cd1-4a59-bac3-e1150dc90b17","system_id":"levelo_inurba_marseille","lat":43.27992,"lon":5.41661,"is_reserved":false,"is_disabled":false,"rental_uris":{"android":"levelo://app?vid=15080fac-1cd1-4a59-bac3-e1150dc90b17","ios":"levelo://app?vid=15080fac-1cd1-4a59-bac3-e1150dc90b17"},"vehicle_type_id":"4","last_reported":1728666469,"current_range_meters":6000,"station_id":"ce4bho12rcd13ifvqh1g","pricing_plan_id":"cebpf4jnsgd1na2vs0mg"},{"bike_id":"28bbddb5-0c77-40f8-b316-bd8bdbf8af69","system_id":"levelo_inurba_marseille","lat":43.29197,"lon":5.3932,"is_reserved":false,"is_disabled":false,"rental_uris":{"android":"levelo://app?vid=28bbddb5-0c77-40f8-b316-bd8bdbf8af69","ios":"levelo://app?vid=28bbddb5-0c77-40f8-b316-bd8bdbf8af69"},"vehicle_type_id":"4","last_reported":1728666469,"current_range_meters":18800,"station_id":"ce4bh192rcd13ifvqdd0","pricing_plan_id":"cebpf4jnsgd1na2vs0mg"},{"bike_id":"600a6ea5-5c70-4f25-9b57-c621b8210681","system_id":"levelo_inurba_marseille","lat":43.32659,"lon":5.40987,"is_reserved":false,"is_disabled":false,"rental_uris":{"android":"levelo://app?vid=600a6ea5-5c70-4f25-9b57-c621b8210681","ios":"levelo://app?vid=600a6ea5-5c70-4f25-9b57-c621b8210681"},"vehicle_type_id":"4","last_reported":1728666469,"current_range_meters":37600,"station_id":"ce4bhpp2rcd13ifvqhgg","pricing_plan_id":"cebpf4jnsgd1na2vs0mg"},{"bike_id":"39ce0c5a-6027-400c-bfc8-3fc97ebe4eea","system_id":"levelo_inurba_marseille","lat":43.260559,"lon":5.394046,"is_reserved":false,"is_disabled":false,"rental_uris":{"android":"levelo://app?vid=39ce0c5a-6027-400c-bfc8-3fc97ebe4eea","ios":"levelo://app?vid=39ce0c5a-6027-400c-bfc8-3fc97ebe4eea"},"vehicle_type_id":"4","last_reported":1728666469,"current_range_meters":4000,"station_id":"ce4bhh92rcd13ifvqfj0","pricing_plan_id":"cebpf4jnsgd1na2vs0mg"},{"bike_id":"1ec29aa7-838d-4e7c-b906-8d820ea17a7a","system_id":"levelo_inurba_marseille","lat":43.26944,"lon":5.40245,"is_reserved":false,"is_disabled":false,"rental_uris":{"android":"levelo://app?vid=1ec29aa7-838d-4e7c-b906-8d820ea17a7a","ios":"levelo://app?vid=1ec29aa7-838d-4e7c-b906-8d820ea17a7a"},"vehicle_type_id":"4","last_reported":1728666469,"current_range_meters":22000,"station_id":"cjm6bp8fraef2m0cb0m0","pricing_plan_id":"cebpf4jnsgd1na2vs0mg"},{"bike_id":"9cf3db70-1431-4372-b452-2d0770d0c15d","system_id":"levelo_inurba_marseille","lat":43.23194,"lon":5.35553,"is_reserved":false,"is_disabled":false,"rental_uris":{"android":"levelo://app?vid=9cf3db70-1431-4372-b452-2d0770d0c15d","ios":"levelo://app?vid=9cf3db70-1431-4372-b452-2d0770d0c15d"},"vehicle_type_id":"4","last_reported":1728666469,"current_range_meters":39200,"station_id":"ce4bhu92rcd13ifvqi70","pricing_plan_id":"cebpf4jnsgd1na2vs0mg"},{"bike_id":"325d498a-3f25-4358-b8c5-d00dff8600cf","system_id":"levelo_inurba_marseille","lat":43.29845,"lon":5.36275,"is_reserved":false,"is_disabled":false,"rental_uris":{"android":"levelo://app?vid=325d498a-3f25-4358-b8c5-d00dff8600cf","ios":"levelo://app?vid=325d498a-3f25-4358-b8c5-d00dff8600cf"},"vehicle_type_id":"4","last_reported":1728666469,"current_range_meters":6400,"station_id":"ce4bgpp2rcd13ifvqc3g","pricing_plan_id":"cebpf4jnsgd1na2vs0mg"},{"bike_id":"7b6baa85-f647-4dbc-bee4-af88f44a8bf2","system_id":"levelo_inurba_marseille","lat":43.22924,"lon":5.35377,"is_reserved":false,"is_disabled":false,"rental_uris":{"android":"levelo://app?vid=7b6baa85-f647-4dbc-bee4-af88f44a8bf2","ios":"levelo://app?vid=7b6baa85-f647-4dbc-bee4-af88f44a8bf2"},"vehicle_type_id":"4","last_reported":1728666469,"current_range_meters":23200,"station_id":"cpo3532slgdg3j2ikp40","pricing_plan_id":"cebpf4jnsgd1na2vs0mg"},{"bike_id":"3c25dded-f8d5-4193-a336-9fad641c4aac","system_id":"levelo_inurba_marseille","lat":43.33766,"lon":5.37447,"is_reserved":false,"is_disabled":false,"rental_uris":{"android":"levelo://app?vid=3c25dded-f8d5-4193-a336-9fad641c4aac","ios":"levelo://app?vid=3c25dded-f8d5-4193-a336-9fad641c4aac"},"vehicle_type_id":"4","last_reported":1728666469,"current_range_meters":11200,"station_id":"","pricing_plan_id":"cebpf4jnsgd1na2vs0mg"},{"bike_id":"8bdb494a-1b59-4cbf-9720-3af2ff711dbb","system_id":"levelo_inurba_marseille","lat":43.2901,"lon":5.355964,"is_reserved":false,"is_disabled":false,"rental_uris":{"android":"levelo://app?vid=8bdb494a-1b59-4cbf-9720-3af2ff711dbb","ios":"levelo://app?vid=8bdb494a-1b59-4cbf-9720-3af2ff711dbb"},"vehicle_type_id":"4","last_reported":1728666469,"current_range_meters":16000,"station_id":"ce4bhb92rcd13ifvqen0","pricing_plan_id":"cebpf4jnsgd1na2vs0mg"},{"bike_id":"4abdbbc7-facb-47b7-8f92-ec268e73003e","system_id":"levelo_inurba_marseille","lat":43.22929,"lon":5.35378,"is_reserved":false,"is_disabled":false,"rental_uris":{"android":"levelo://app?vid=4abdbbc7-facb-47b7-8f92-ec268e73003e","ios":"levelo://app?vid=4abdbbc7-facb-47b7-8f92-ec268e73003e"},"vehicle_type_id":"4","last_reported":1728666469,"current_range_meters":7200,"station_id":"cpo3532slgdg3j2ikp40","pricing_plan_id":"cebpf4jnsgd1na2vs0mg"},{"bike_id":"7975faaf-f260-41c7-87cd-147b9a3b3ebf","system_id":"levelo_inurba_marseille","lat":43.23057,"lon":5.35488,"is_reserved":false,"is_disabled":false,"rental_uris":{"android":"levelo://app?vid=7975faaf-f260-41c7-87cd-147b9a3b3ebf","ios":"levelo://app?vid=7975faaf-f260-41c7-87cd-147b9a3b3ebf"},"vehicle_type_id":"4","last_reported":1728666469,"current_range_meters":12400,"station_id":"cpo3342slgdg3j2ifvpg","pricing_plan_id":"cebpf4jnsgd1na2vs0mg"},{"bike_id":"9e6b5928-a6b2-4030-bfda-ac055d9961fb","system_id":"levelo_inurba_marseille","lat":43.30546,"lon":5.3671,"is_reserved":false,"is_disabled":false,"rental_uris":{"android":"levelo://app?vid=9e6b5928-a6b2-4030-bfda-ac055d9961fb","ios":"levelo://app?vid=9e6b5928-a6b2-4030-bfda-ac055d9961fb"},"vehicle_type_id":"4","last_reported":1728666469,"current_range_meters":27200,"station_id":"ce4bgrp2rcd13ifvqc9g","pricing_plan_id":"cebpf4jnsgd1na2vs0mg"},{"bike_id":"703d5faf-e8f5-42e8-a15c-36acb1ae64d2","system_id":"levelo_inurba_marseille","lat":43.22934,"lon":5.35382,"is_reserved":false,"is_disabled":false,"rental_uris":{"android":"levelo://app?vid=703d5faf-e8f5-42e8-a15c-36acb1ae64d2","ios":"levelo://app?vid=703d5faf-e8f5-42e8-a15c-36acb1ae64d2"},"vehicle_type_id":"4","last_reported":1728666469,"current_range_meters":38800,"station_id":"cpo3532slgdg3j2ikp40","pricing_plan_id":"cebpf4jnsgd1na2vs0mg"},{"bike_id":"b4e5e722-7fda-4e4e-adb7-f9c69cced19d","system_id":"levelo_inurba_marseille","lat":43.31067,"lon":5.38348,"is_reserved":false,"is_disabled":false,"rental_uris":{"android":"levelo://app?vid=b4e5e722-7fda-4e4e-adb7-f9c69cced19d","ios":"levelo://app?vid=b4e5e722-7fda-4e4e-adb7-f9c69cced19d"},"vehicle_type_id":"4","last_reported":1728666469,"current_range_meters":39200,"station_id":"ce4bgv92rcd13ifvqcr0","pricing_plan_id":"cebpf4jnsgd1na2vs0mg"},{"bike_id":"b3d40eba-5f2c-49c4-9773-1c48fb4b8b36","system_id":"levelo_inurba_marseille","lat":43.33716,"lon":5.39186,"is_reserved":false,"is_disabled":false,"rental_uris":{"android":"levelo://app?vid=b3d40eba-5f2c-49c4-9773-1c48fb4b8b36","ios":"levelo://app?vid=b3d40eba-5f2c-49c4-9773-1c48fb4b8b36"},"vehicle_type_id":"4","last_reported":1728666469,"current_range_meters":28400,"station_id":"ce4bhr92rcd13ifvqhsg","pricing_plan_id":"cebpf4jnsgd1na2vs0mg"},{"bike_id":"813cb73c-c273-490f-ab14-76009a9929b6","system_id":"levelo_inurba_marseille","lat":43.29555,"lon":5.42292,"is_reserved":false,"is_disabled":false,"rental_uris":{"android":"levelo://app?vid=813cb73c-c273-490f-ab14-76009a9929b6","ios":"levelo://app?vid=813cb73c-c273-490f-ab14-76009a9929b6"},"vehicle_type_id":"4","last_reported":1728666469,"current_range_meters":26000,"station_id":"ce4bhph2rcd13ifvqhdg","pricing_plan_id":"cebpf4jnsgd1na2vs0mg"},{"bike_id":"5ee79a93-2117-4005-895f-fbe785d52d67","system_id":"levelo_inurba_marseille","lat":43.27994,"lon":5.40009,"is_reserved":false,"is_disabled":false,"rental_uris":{"android":"levelo://app?vid=5ee79a93-2117-4005-895f-fbe785d52d67","ios":"levelo://app?vid=5ee79a93-2117-4005-895f-fbe785d52d67"},"vehicle_type_id":"4","last_reported":1728666469,"current_range_meters":14800,"station_id":"ce4bho92rcd13ifvqh4g","pricing_plan_id":"cebpf4jnsgd1na2vs0mg"},{"bike_id":"2cb32185-4ce4-4923-820b-712b939a62c2","system_id":"levelo_inurba_marseille","lat":43.24662,"lon":5.38169,"is_reserved":false,"is_disabled":false,"rental_uris":{"android":"levelo://app?vid=2cb32185-4ce4-4923-820b-712b939a62c2","ios":"levelo://app?vid=2cb32185-4ce4-4923-820b-712b939a62c2"},"vehicle_type_id":"4","last_reported":1728666469,"current_range_meters":5600,"station_id":"ce4bhih2rcd13ifvqfr0","pricing_plan_id":"cebpf4jnsgd1na2vs0mg"},{"bike_id":"0affb511-11e4-4062-b2b6-78c70f605970","system_id":"levelo_inurba_marseille","lat":43.23836,"lon":5.36564,"is_reserved":false,"is_disabled":false,"rental_uris":{"android":"levelo://app?vid=0affb511-11e4-4062-b2b6-78c70f605970","ios":"levelo://app?vid=0affb511-11e4-4062-b2b6-78c70f605970"},"vehicle_type_id":"4","last_reported":1728666469,"current_range_meters":6800,"station_id":"","pricing_plan_id":"cebpf4jnsgd1na2vs0mg"},{"bike_id":"ed4a2dc3-7b94-43ca-8469-40c8753a9897","system_id":"levelo_inurba_marseille","lat":43.23192,"lon":5.39968,"is_reserved":false,"is_disabled":false,"rental_uris":{"android":"levelo://app?vid=ed4a2dc3-7b94-43ca-8469-40c8753a9897","ios":"levelo://app?vid=ed4a2dc3-7b94-43ca-8469-40c8753a9897"},"vehicle_type_id":"4","last_reported":1728666469,"current_range_meters":400,"station_id":"ce4bhn12rcd13ifvqgqg","pricing_plan_id":"cebpf4jnsgd1na2vs0mg"},{"bike_id":"0d5e3041-789f-4866-82e2-c7598f6136ec","system_id":"levelo_inurba_marseille","lat":43.27908,"lon":5.38024,"is_reserved":false,"is_disabled":false,"rental_uris":{"android":"levelo://app?vid=0d5e3041-789f-4866-82e2-c7598f6136ec","ios":"levelo://app?vid=0d5e3041-789f-4866-82e2-c7598f6136ec"},"vehicle_type_id":"4","last_reported":1728666469,"current_range_meters":39200,"station_id":"ce4bhf92rcd13ifvqf50","pricing_plan_id":"cebpf4jnsgd1na2vs0mg"},{"bike_id":"ce7a5724-1783-445d-b156-eaeb13d2e12e","system_id":"levelo_inurba_marseille","lat":43.241789,"lon":5.397166,"is_reserved":false,"is_disabled":false,"rental_uris":{"android":"levelo://app?vid=ce7a5724-1783-445d-b156-eaeb13d2e12e","ios":"levelo://app?vid=ce7a5724-1783-445d-b156-eaeb13d2e12e"},"vehicle_type_id":"4","last_reported":1728666469,"current_range_meters":38800,"station_id":"ce4bhn12rcd13ifvqgpg","pricing_plan_id":"cebpf4jnsgd1na2vs0mg"},{"bike_id":"9fc4da1b-22ff-4cc6-bca5-7381d075a806","system_id":"levelo_inurba_marseille","lat":43.27373,"lon":5.36251,"is_reserved":false,"is_disabled":false,"rental_uris":{"android":"levelo://app?vid=9fc4da1b-22ff-4cc6-bca5-7381d075a806","ios":"levelo://app?vid=9fc4da1b-22ff-4cc6-bca5-7381d075a806"},"vehicle_type_id":"4","last_reported":1728666469,"current_range_meters":12000,"station_id":"ce4bhbh2rcd13ifvqeo0","pricing_plan_id":"cebpf4jnsgd1na2vs0mg"},{"bike_id":"4c6d104c-578b-42dd-9868-6f8ae896012a","system_id":"levelo_inurba_marseille","lat":43.24178,"lon":5.3973,"is_reserved":false,"is_disabled":false,"rental_uris":{"android":"levelo://app?vid=4c6d104c-578b-42dd-9868-6f8ae896012a","ios":"levelo://app?vid=4c6d104c-578b-42dd-9868-6f8ae896012a"},"vehicle_type_id":"4","last_reported":1728666469,"current_range_meters":39200,"station_id":"ce4bhn12rcd13ifvqgpg","pricing_plan_id":"cebpf4jnsgd1na2vs0mg"},{"bike_id":"450796b6-ee46-43ae-88f0-8031169b73ec","system_id":"levelo_inurba_marseille","lat":43.29378,"lon":5.40075,"is_reserved":false,"is_disabled":false,"rental_uris":{"android":"levelo://app?vid=450796b6-ee46-43ae-88f0-8031169b73ec","ios":"levelo://app?vid=450796b6-ee46-43ae-88f0-8031169b73ec"},"vehicle_type_id":"4","last_reported":1728666469,"current_range_meters":4000,"station_id":"","pricing_plan_id":"cebpf4jnsgd1na2vs0mg"},{"bike_id":"e43151c5-dc83-4d1b-a7d2-f253afa3c515","system_id":"levelo_inurba_marseille","lat":43.27174,"lon":5.40987,"is_reserved":false,"is_disabled":false,"rental_uris":{"android":"levelo://app?vid=e43151c5-dc83-4d1b-a7d2-f253afa3c515","ios":"levelo://app?vid=e43151c5-dc83-4d1b-a7d2-f253afa3c515"},"vehicle_type_id":"4","last_reported":1728666469,"current_range_meters":38400,"station_id":"ce4bhl12rcd13ifvqgf0","pricing_plan_id":"cebpf4jnsgd1na2vs0mg"},{"bike_id":"93597776-aa4b-4556-b902-f43005559dd1","system_id":"levelo_inurba_marseille","lat":43.27808,"lon":5.40713,"is_reserved":false,"is_disabled":false,"rental_uris":{"android":"levelo://app?vid=93597776-aa4b-4556-b902-f43005559dd1","ios":"levelo://app?vid=93597776-aa4b-4556-b902-f43005559dd1"},"vehicle_type_id":"4","last_reported":1728666469,"current_range_meters":8400,"station_id":"ce4bhnh2rcd13ifvqgtg","pricing_plan_id":"cebpf4jnsgd1na2vs0mg"},{"bike_id":"4311fb37-684c-4301-bada-75f8e8b04bf6","system_id":"levelo_inurba_marseille","lat":43.24662,"lon":5.38153,"is_reserved":false,"is_disabled":false,"rental_uris":{"android":"levelo://app?vid=4311fb37-684c-4301-bada-75f8e8b04bf6","ios":"levelo://app?vid=4311fb37-684c-4301-bada-75f8e8b04bf6"},"vehicle_type_id":"4","last_reported":1728666469,"current_range_meters":38800,"station_id":"ce4bhih2rcd13ifvqfr0","pricing_plan_id":"cebpf4jnsgd1na2vs0mg"},{"bike_id":"ee98344a-cab6-444e-b1e7-006c0cc649cb","system_id":"levelo_inurba_marseille","lat":43.30605,"lon":5.37228,"is_reserved":false,"is_disabled":false,"rental_uris":{"android":"levelo://app?vid=ee98344a-cab6-444e-b1e7-006c0cc649cb","ios":"levelo://app?vid=ee98344a-cab6-444e-b1e7-006c0cc649cb"},"vehicle_type_id":"4","last_reported":1728666469,"current_range_meters":9600,"station_id":"ce4bgqh2rcd13ifvqc4g","pricing_plan_id":"cebpf4jnsgd1na2vs0mg"},{"bike_id":"d0af47d5-71a2-4e6e-a4f7-a2d225b8e53a","system_id":"levelo_inurba_marseille","lat":43.23056,"lon":5.35492,"is_reserved":false,"is_disabled":false,"rental_uris":{"android":"levelo://app?vid=d0af47d5-71a2-4e6e-a4f7-a2d225b8e53a","ios":"levelo://app?vid=d0af47d5-71a2-4e6e-a4f7-a2d225b8e53a"},"vehicle_type_id":"4","last_reported":1728666469,"current_range_meters":14800,"station_id":"cpo3342slgdg3j2ifvpg","pricing_plan_id":"cebpf4jnsgd1na2vs0mg"},{"bike_id":"93ab6c55-8dad-48b5-8f7a-b3cf1bec6cfe","system_id":"levelo_inurba_marseille","lat":43.27989,"lon":5.40027,"is_reserved":false,"is_disabled":false,"rental_uris":{"android":"levelo://app?vid=93ab6c55-8dad-48b5-8f7a-b3cf1bec6cfe","ios":"levelo://app?vid=93ab6c55-8dad-48b5-8f7a-b3cf1bec6cfe"},"vehicle_type_id":"4","last_reported":1728666469,"current_range_meters":27200,"station_id":"ce4bho92rcd13ifvqh4g","pricing_plan_id":"cebpf4jnsgd1na2vs0mg"},{"bike_id":"3f1f6032-c6dc-40b2-80a0-591226a7e5f2","system_id":"levelo_inurba_marseille","lat":43.25088,"lon":5.39515,"is_reserved":false,"is_disabled":false,"rental_uris":{"android":"levelo://app?vid=3f1f6032-c6dc-40b2-80a0-591226a7e5f2","ios":"levelo://app?vid=3f1f6032-c6dc-40b2-80a0-591226a7e5f2"},"vehicle_type_id":"4","last_reported":1728666469,"current_range_meters":38800,"station_id":"ce4bhm12rcd13ifvqgkg","pricing_plan_id":"cebpf4jnsgd1na2vs0mg"},{"bike_id":"21903e1e-7cfc-48a5-ae7f-b9bc00c8eaa8","system_id":"levelo_inurba_marseille","lat":43.29304,"lon":5.37165,"is_reserved":false,"is_disabled":false,"rental_uris":{"android":"levelo://app?vid=21903e1e-7cfc-48a5-ae7f-b9bc00c8eaa8","ios":"levelo://app?vid=21903e1e-7cfc-48a5-ae7f-b9bc00c8eaa8"},"vehicle_type_id":"4","last_reported":1728666469,"current_range_meters":37600,"station_id":"ce4bgh92rcd13ifvqb40","pricing_plan_id":"cebpf4jnsgd1na2vs0mg"},{"bike_id":"d43618f2-0a92-4bb7-809a-6694606ef1c8","system_id":"levelo_inurba_marseille","lat":43.24648,"lon":5.38888,"is_reserved":false,"is_disabled":false,"rental_uris":{"android":"levelo://app?vid=d43618f2-0a92-4bb7-809a-6694606ef1c8","ios":"levelo://app?vid=d43618f2-0a92-4bb7-809a-6694606ef1c8"},"vehicle_type_id":"4","last_reported":1728666469,"current_range_meters":26000,"station_id":"ce4bhg12rcd13ifvqf60","pricing_plan_id":"cebpf4jnsgd1na2vs0mg"},{"bike_id":"f4196d6a-3016-4d1a-a75e-beb16aa0d682","system_id":"levelo_inurba_marseille","lat":43.309784,"lon":5.36986,"is_reserved":false,"is_disabled":false,"rental_uris":{"android":"levelo://app?vid=f4196d6a-3016-4d1a-a75e-beb16aa0d682","ios":"levelo://app?vid=f4196d6a-3016-4d1a-a75e-beb16aa0d682"},"vehicle_type_id":"4","last_reported":1728666469,"current_range_meters":36400,"station_id":"ce4bgh92rcd13ifvqb50","pricing_plan_id":"cebpf4jnsgd1na2vs0mg"},{"bike_id":"65fd6c2d-276c-4975-ba6f-15caf10c1bdd","system_id":"levelo_inurba_marseille","lat":43.337444,"lon":5.374475,"is_reserved":false,"is_disabled":false,"rental_uris":{"android":"levelo://app?vid=65fd6c2d-276c-4975-ba6f-15caf10c1bdd","ios":"levelo://app?vid=65fd6c2d-276c-4975-ba6f-15caf10c1bdd"},"vehicle_type_id":"4","last_reported":1728666469,"current_range_meters":14800,"station_id":"","pricing_plan_id":"cebpf4jnsgd1na2vs0mg"},{"bike_id":"44f30245-85b5-4468-8481-7232ba43a394","system_id":"levelo_inurba_marseille","lat":43.28468,"lon":5.35893,"is_reserved":false,"is_disabled":false,"rental_uris":{"android":"levelo://app?vid=44f30245-85b5-4468-8481-7232ba43a394","ios":"levelo://app?vid=44f30245-85b5-4468-8481-7232ba43a394"},"vehicle_type_id":"4","last_reported":1728666469,"current_range_meters":38800,"station_id":"ce4bhah2rcd13ifvqei0","pricing_plan_id":"cebpf4jnsgd1na2vs0mg"},{"bike_id":"77906c4d-8b82-443a-8959-fb19f8a2d784","system_id":"levelo_inurba_marseille","lat":43.29005,"lon":5.35603,"is_reserved":false,"is_disabled":false,"rental_uris":{"android":"levelo://app?vid=77906c4d-8b82-443a-8959-fb19f8a2d784","ios":"levelo://app?vid=77906c4d-8b82-443a-8959-fb19f8a2d784"},"vehicle_type_id":"4","last_reported":1728666469,"current_range_meters":24400,"station_id":"ce4bhb92rcd13ifvqen0","pricing_plan_id":"cebpf4jnsgd1na2vs0mg"},{"bike_id":"9119bfed-6fe0-44c1-92af-8f9f407caeeb","system_id":"levelo_inurba_marseille","lat":43.22931,"lon":5.35381,"is_reserved":false,"is_disabled":false,"rental_uris":{"android":"levelo://app?vid=9119bfed-6fe0-44c1-92af-8f9f407caeeb","ios":"levelo://app?vid=9119bfed-6fe0-44c1-92af-8f9f407caeeb"},"vehicle_type_id":"4","last_reported":1728666469,"current_range_meters":30800,"station_id":"cpo3532slgdg3j2ikp40","pricing_plan_id":"cebpf4jnsgd1na2vs0mg"},{"bike_id":"ec0a0882-4237-4341-858f-b7c97b0f20fa","system_id":"levelo_inurba_marseille","lat":43.28854,"lon":5.35836,"is_reserved":false,"is_disabled":false,"rental_uris":{"android":"levelo://app?vid=ec0a0882-4237-4341-858f-b7c97b0f20fa","ios":"levelo://app?vid=ec0a0882-4237-4341-858f-b7c97b0f20fa"},"vehicle_type_id":"4","last_reported":1728666469,"current_range_meters":38800,"station_id":"ce4bhb12rcd13ifvqem0","pricing_plan_id":"cebpf4jnsgd1na2vs0mg"},{"bike_id":"169b2a20-3636-4e62-82e1-3ab942e6b8f0","system_id":"levelo_inurba_marseille","lat":43.23187,"lon":5.39992,"is_reserved":false,"is_disabled":false,"rental_uris":{"android":"levelo://app?vid=169b2a20-3636-4e62-82e1-3ab942e6b8f0","ios":"levelo://app?vid=169b2a20-3636-4e62-82e1-3ab942e6b8f0"},"vehicle_type_id":"4","last_reported":1728666469,"current_range_meters":23200,"station_id":"ce4bhn12rcd13ifvqgqg","pricing_plan_id":"cebpf4jnsgd1na2vs0mg"},{"bike_id":"e3536ce3-730e-4f25-a19c-97bc53e2a7ca","system_id":"levelo_inurba_marseille","lat":43.2842,"lon":5.34992,"is_reserved":false,"is_disabled":false,"rental_uris":{"android":"levelo://app?vid=e3536ce3-730e-4f25-a19c-97bc53e2a7ca","ios":"levelo://app?vid=e3536ce3-730e-4f25-a19c-97bc53e2a7ca"},"vehicle_type_id":"4","last_reported":1728666469,"current_range_meters":24800,"station_id":"ce4bhbh2rcd13ifvqepg","pricing_plan_id":"cebpf4jnsgd1na2vs0mg"},{"bike_id":"c49e76eb-8a64-45a3-96db-962896a64328","system_id":"levelo_inurba_marseille","lat":43.27561,"lon":5.38422,"is_reserved":false,"is_disabled":false,"rental_uris":{"android":"levelo://app?vid=c49e76eb-8a64-45a3-96db-962896a64328","ios":"levelo://app?vid=c49e76eb-8a64-45a3-96db-962896a64328"},"vehicle_type_id":"4","last_reported":1728666469,"current_range_meters":800,"station_id":"ce4bhh92rcd13ifvqfi0","pricing_plan_id":"cebpf4jnsgd1na2vs0mg"},{"bike_id":"4ef1dda4-b3ce-40ee-9674-6dee53f619bf","system_id":"levelo_inurba_marseille","lat":43.27378,"lon":5.36254,"is_reserved":false,"is_disabled":false,"rental_uris":{"android":"levelo://app?vid=4ef1dda4-b3ce-40ee-9674-6dee53f619bf","ios":"levelo://app?vid=4ef1dda4-b3ce-40ee-9674-6dee53f619bf"},"vehicle_type_id":"4","last_reported":1728666469,"current_range_meters":9200,"station_id":"ce4bhbh2rcd13ifvqeo0","pricing_plan_id":"cebpf4jnsgd1na2vs0mg"},{"bike_id":"d05b8393-ea64-4791-ad7b-43d23685d0d1","system_id":"levelo_inurba_marseille","lat":43.28671,"lon":5.3635,"is_reserved":false,"is_disabled":false,"rental_uris":{"android":"levelo://app?vid=d05b8393-ea64-4791-ad7b-43d23685d0d1","ios":"levelo://app?vid=d05b8393-ea64-4791-ad7b-43d23685d0d1"},"vehicle_type_id":"4","last_reported":1728666469,"current_range_meters":17200,"station_id":"ce4bhah2rcd13ifvqej0","pricing_plan_id":"cebpf4jnsgd1na2vs0mg"},{"bike_id":"0de1cff6-f8dd-4718-814f-c0610370ffdb","system_id":"levelo_inurba_marseille","lat":43.31264,"lon":5.40166,"is_reserved":false,"is_disabled":false,"rental_uris":{"android":"levelo://app?vid=0de1cff6-f8dd-4718-814f-c0610370ffdb","ios":"levelo://app?vid=0de1cff6-f8dd-4718-814f-c0610370ffdb"},"vehicle_type_id":"4","last_reported":1728666469,"current_range_meters":2000,"station_id":"ce4bh092rcd13ifvqd30","pricing_plan_id":"cebpf4jnsgd1na2vs0mg"},{"bike_id":"e87b79d5-e644-4cb3-84fb-f72f3186d9c3","system_id":"levelo_inurba_marseille","lat":43.31995,"lon":5.38155,"is_reserved":false,"is_disabled":false,"rental_uris":{"android":"levelo://app?vid=e87b79d5-e644-4cb3-84fb-f72f3186d9c3","ios":"levelo://app?vid=e87b79d5-e644-4cb3-84fb-f72f3186d9c3"},"vehicle_type_id":"4","last_reported":1728666469,"current_range_meters":11600,"station_id":"ce4bhr12rcd13ifvqhpg","pricing_plan_id":"cebpf4jnsgd1na2vs0mg"},{"bike_id":"b0f5d262-846b-4771-ae36-fe562430f0e4","system_id":"levelo_inurba_marseille","lat":43.27944,"lon":5.4105,"is_reserved":false,"is_disabled":false,"rental_uris":{"android":"levelo://app?vid=b0f5d262-846b-4771-ae36-fe562430f0e4","ios":"levelo://app?vid=b0f5d262-846b-4771-ae36-fe562430f0e4"},"vehicle_type_id":"4","last_reported":1728666469,"current_range_meters":2000,"station_id":"ce4bhnp2rcd13ifvqh0g","pricing_plan_id":"cebpf4jnsgd1na2vs0mg"},{"bike_id":"37c221c7-4c80-4af3-8680-39ac41deddef","system_id":"levelo_inurba_marseille","lat":43.29168,"lon":5.37146,"is_reserved":false,"is_disabled":false,"rental_uris":{"android":"levelo://app?vid=37c221c7-4c80-4af3-8680-39ac41deddef","ios":"levelo://app?vid=37c221c7-4c80-4af3-8680-39ac41deddef"},"vehicle_type_id":"4","last_reported":1728666469,"current_range_meters":8000,"station_id":"ce4bha92rcd13ifvqeh0","pricing_plan_id":"cebpf4jnsgd1na2vs0mg"},{"bike_id":"60af9571-4931-4d76-85d2-7035472b165c","system_id":"levelo_inurba_marseille","lat":43.27937,"lon":5.41039,"is_reserved":false,"is_disabled":false,"rental_uris":{"android":"levelo://app?vid=60af9571-4931-4d76-85d2-7035472b165c","ios":"levelo://app?vid=60af9571-4931-4d76-85d2-7035472b165c"},"vehicle_type_id":"4","last_reported":1728666469,"current_range_meters":5600,"station_id":"ce4bhnp2rcd13ifvqh0g","pricing_plan_id":"cebpf4jnsgd1na2vs0mg"},{"bike_id":"639b3346-7a7f-4cfc-9771-fe50d5c29406","system_id":"levelo_inurba_marseille","lat":43.29569,"lon":5.39959,"is_reserved":false,"is_disabled":false,"rental_uris":{"android":"levelo://app?vid=639b3346-7a7f-4cfc-9771-fe50d5c29406","ios":"levelo://app?vid=639b3346-7a7f-4cfc-9771-fe50d5c29406"},"vehicle_type_id":"4","last_reported":1728666469,"current_range_meters":38800,"station_id":"ce4bh312rcd13ifvqdj0","pricing_plan_id":"cebpf4jnsgd1na2vs0mg"},{"bike_id":"379af439-96ce-4d62-9cb4-94424b28a2ca","system_id":"levelo_inurba_marseille","lat":43.275381,"lon":5.423979,"is_reserved":false,"is_disabled":false,"rental_uris":{"android":"levelo://app?vid=379af439-96ce-4d62-9cb4-94424b28a2ca","ios":"levelo://app?vid=379af439-96ce-4d62-9cb4-94424b28a2ca"},"vehicle_type_id":"4","last_reported":1728666469,"current_range_meters":20800,"station_id":"ce4bhn92rcd13ifvqgrg","pricing_plan_id":"cebpf4jnsgd1na2vs0mg"},{"bike_id":"faecf2d4-6bd4-4344-9aac-3ddc5aaf3cac","system_id":"levelo_inurba_marseille","lat":43.28581,"lon":5.38647,"is_reserved":false,"is_disabled":false,"rental_uris":{"android":"levelo://app?vid=faecf2d4-6bd4-4344-9aac-3ddc5aaf3cac","ios":"levelo://app?vid=faecf2d4-6bd4-4344-9aac-3ddc5aaf3cac"},"vehicle_type_id":"4","last_reported":1728666469,"current_range_meters":24800,"station_id":"ce4bh8p2rcd13ifvqeb0","pricing_plan_id":"cebpf4jnsgd1na2vs0mg"},{"bike_id":"ef06c73d-55c6-418d-9d6f-0492e691cc88","system_id":"levelo_inurba_marseille","lat":43.255,"lon":5.37647,"is_reserved":false,"is_disabled":false,"rental_uris":{"android":"levelo://app?vid=ef06c73d-55c6-418d-9d6f-0492e691cc88","ios":"levelo://app?vid=ef06c73d-55c6-418d-9d6f-0492e691cc88"},"vehicle_type_id":"4","last_reported":1728666469,"current_range_meters":19600,"station_id":"ce4bhh12rcd13ifvqff0","pricing_plan_id":"cebpf4jnsgd1na2vs0mg"},{"bike_id":"60a497dd-6ce7-4b3f-bae4-1e7f6dac7b41","system_id":"levelo_inurba_marseille","lat":43.2319,"lon":5.39978,"is_reserved":false,"is_disabled":false,"rental_uris":{"android":"levelo://app?vid=60a497dd-6ce7-4b3f-bae4-1e7f6dac7b41","ios":"levelo://app?vid=60a497dd-6ce7-4b3f-bae4-1e7f6dac7b41"},"vehicle_type_id":"4","last_reported":1728666469,"current_range_meters":6400,"station_id":"ce4bhn12rcd13ifvqgqg","pricing_plan_id":"cebpf4jnsgd1na2vs0mg"},{"bike_id":"f8b93b1d-adb8-463a-898a-560b989d3bed","system_id":"levelo_inurba_marseille","lat":43.30188,"lon":5.36608,"is_reserved":false,"is_disabled":false,"rental_uris":{"android":"levelo://app?vid=f8b93b1d-adb8-463a-898a-560b989d3bed","ios":"levelo://app?vid=f8b93b1d-adb8-463a-898a-560b989d3bed"},"vehicle_type_id":"4","last_reported":1728666469,"current_range_meters":24800,"station_id":"ce4bgrh2rcd13ifvqc8g","pricing_plan_id":"cebpf4jnsgd1na2vs0mg"},{"bike_id":"bdee3219-57c1-49d1-a2d1-d02ddf7e4ac9","system_id":"levelo_inurba_marseille","lat":43.23058,"lon":5.35491,"is_reserved":false,"is_disabled":false,"rental_uris":{"android":"levelo://app?vid=bdee3219-57c1-49d1-a2d1-d02ddf7e4ac9","ios":"levelo://app?vid=bdee3219-57c1-49d1-a2d1-d02ddf7e4ac9"},"vehicle_type_id":"4","last_reported":1728666469,"current_range_meters":17200,"station_id":"cpo3342slgdg3j2ifvpg","pricing_plan_id":"cebpf4jnsgd1na2vs0mg"},{"bike_id":"8da67ccd-45cf-4fd5-8d81-879b0ebfc026","system_id":"levelo_inurba_marseille","lat":43.30306,"lon":5.39206,"is_reserved":false,"is_disabled":false,"rental_uris":{"android":"levelo://app?vid=8da67ccd-45cf-4fd5-8d81-879b0ebfc026","ios":"levelo://app?vid=8da67ccd-45cf-4fd5-8d81-879b0ebfc026"},"vehicle_type_id":"4","last_reported":1728666469,"current_range_meters":3600,"station_id":"ce4bgkh2rcd13ifvqbk0","pricing_plan_id":"cebpf4jnsgd1na2vs0mg"},{"bike_id":"22c6a6d5-b95e-46fb-8991-9f22cdde3244","system_id":"levelo_inurba_marseille","lat":43.2306,"lon":5.35494,"is_reserved":false,"is_disabled":false,"rental_uris":{"android":"levelo://app?vid=22c6a6d5-b95e-46fb-8991-9f22cdde3244","ios":"levelo://app?vid=22c6a6d5-b95e-46fb-8991-9f22cdde3244"},"vehicle_type_id":"4","last_reported":1728666469,"current_range_meters":38800,"station_id":"cpo3342slgdg3j2ifvpg","pricing_plan_id":"cebpf4jnsgd1na2vs0mg"},{"bike_id":"ebeaaafb-f076-4a7c-a9ec-31a41d606f4f","system_id":"levelo_inurba_marseille","lat":43.28153,"lon":5.42641,"is_reserved":false,"is_disabled":false,"rental_uris":{"android":"levelo://app?vid=ebeaaafb-f076-4a7c-a9ec-31a41d606f4f","ios":"levelo://app?vid=ebeaaafb-f076-4a7c-a9ec-31a41d606f4f"},"vehicle_type_id":"4","last_reported":1728666469,"current_range_meters":6000,"station_id":"ce4bhnh2rcd13ifvqgug","pricing_plan_id":"cebpf4jnsgd1na2vs0mg"},{"bike_id":"57d91c66-95bf-4fdd-9a6d-cae1e727e4e1","system_id":"levelo_inurba_marseille","lat":43.27897,"lon":5.38017,"is_reserved":false,"is_disabled":false,"rental_uris":{"android":"levelo://app?vid=57d91c66-95bf-4fdd-9a6d-cae1e727e4e1","ios":"levelo://app?vid=57d91c66-95bf-4fdd-9a6d-cae1e727e4e1"},"vehicle_type_id":"4","last_reported":1728666469,"current_range_meters":24000,"station_id":"ce4bhf92rcd13ifvqf50","pricing_plan_id":"cebpf4jnsgd1na2vs0mg"},{"bike_id":"1170e54e-de3e-46a8-987d-35f8b0947dc8","system_id":"levelo_inurba_marseille","lat":43.29527,"lon":5.38538,"is_reserved":false,"is_disabled":false,"rental_uris":{"android":"levelo://app?vid=1170e54e-de3e-46a8-987d-35f8b0947dc8","ios":"levelo://app?vid=1170e54e-de3e-46a8-987d-35f8b0947dc8"},"vehicle_type_id":"4","last_reported":1728666469,"current_range_meters":12400,"station_id":"ce4bgih2rcd13ifvqba0","pricing_plan_id":"cebpf4jnsgd1na2vs0mg"},{"bike_id":"a562589d-ef23-4da1-8f06-8dd5c89e7ebf","system_id":"levelo_inurba_marseille","lat":43.302842,"lon":5.368567,"is_reserved":false,"is_disabled":false,"rental_uris":{"android":"levelo://app?vid=a562589d-ef23-4da1-8f06-8dd5c89e7ebf","ios":"levelo://app?vid=a562589d-ef23-4da1-8f06-8dd5c89e7ebf"},"vehicle_type_id":"4","last_reported":1728666469,"current_range_meters":10000,"station_id":"ce4bgqh2rcd13ifvqc5g","pricing_plan_id":"cebpf4jnsgd1na2vs0mg"},{"bike_id":"0cd26058-2aeb-4d77-8e2d-c6a2723bc511","system_id":"levelo_inurba_marseille","lat":43.28849,"lon":5.35867,"is_reserved":false,"is_disabled":false,"rental_uris":{"android":"levelo://app?vid=0cd26058-2aeb-4d77-8e2d-c6a2723bc511","ios":"levelo://app?vid=0cd26058-2aeb-4d77-8e2d-c6a2723bc511"},"vehicle_type_id":"4","last_reported":1728666469,"current_range_meters":33600,"station_id":"ce4bhb12rcd13ifvqem0","pricing_plan_id":"cebpf4jnsgd1na2vs0mg"},{"bike_id":"7387fee0-85c2-43bb-bbce-964bcb5513b5","system_id":"levelo_inurba_marseille","lat":43.27374,"lon":5.36252,"is_reserved":false,"is_disabled":false,"rental_uris":{"android":"levelo://app?vid=7387fee0-85c2-43bb-bbce-964bcb5513b5","ios":"levelo://app?vid=7387fee0-85c2-43bb-bbce-964bcb5513b5"},"vehicle_type_id":"4","last_reported":1728666469,"current_range_meters":5600,"station_id":"ce4bhbh2rcd13ifvqeo0","pricing_plan_id":"cebpf4jnsgd1na2vs0mg"},{"bike_id":"0349f27d-de85-4a45-80a6-247322abb38a","system_id":"levelo_inurba_marseille","lat":43.26779,"lon":5.39418,"is_reserved":false,"is_disabled":false,"rental_uris":{"android":"levelo://app?vid=0349f27d-de85-4a45-80a6-247322abb38a","ios":"levelo://app?vid=0349f27d-de85-4a45-80a6-247322abb38a"},"vehicle_type_id":"4","last_reported":1728666469,"current_range_meters":12000,"station_id":"ce4bhh12rcd13ifvqfg0","pricing_plan_id":"cebpf4jnsgd1na2vs0mg"},{"bike_id":"570999f0-9ad2-47ff-a301-b481a5e39541","system_id":"levelo_inurba_marseille","lat":43.33022,"lon":5.39046,"is_reserved":false,"is_disabled":false,"rental_uris":{"android":"levelo://app?vid=570999f0-9ad2-47ff-a301-b481a5e39541","ios":"levelo://app?vid=570999f0-9ad2-47ff-a301-b481a5e39541"},"vehicle_type_id":"4","last_reported":1728666469,"current_range_meters":4400,"station_id":"ce4bhr92rcd13ifvqhrg","pricing_plan_id":"cebpf4jnsgd1na2vs0mg"},