{"last_updated":1779478171,"ttl":60,"version":"2.2","data":{"bikes":[{"bike_id":"7d641315-6110-49cb-a9dd-d637ff032de1","system_id":"levelo_inurba_marseille","lat":43.337444,"lon":5.374475,"is_reserved":false,"is_disabled":false,"rental_uris":{"android":"levelo://app?vid=7d641315-6110-49cb-a9dd-d637ff032de1","ios":"levelo://app?vid=7d641315-6110-49cb-a9dd-d637ff032de1"},"vehicle_type_id":"4","last_reported":1779478172,"current_range_meters":0,"station_id":"","pricing_plan_id":"cebpf4jnsgd1na2vs0mg"},{"bike_id":"ad6d8b73-6259-410d-979f-09e40ec16dc9","system_id":"levelo_inurba_marseille","lat":43.3082,"lon":5.37198,"is_reserved":false,"is_disabled":false,"rental_uris":{"android":"levelo://app?vid=ad6d8b73-6259-410d-979f-09e40ec16dc9","ios":"levelo://app?vid=ad6d8b73-6259-410d-979f-09e40ec16dc9"},"vehicle_type_id":"4","last_reported":1779478172,"current_range_meters":2800,"station_id":"","pricing_plan_id":"cebpf4jnsgd1na2vs0mg"},{"bike_id":"678c2486-f208-445a-a253-9dfac60b0dc7","system_id":"levelo_inurba_marseille","lat":43.32441,"lon":5.36906,"is_reserved":false,"is_disabled":false,"rental_uris":{"android":"levelo://app?vid=678c2486-f208-445a-a253-9dfac60b0dc7","ios":"levelo://app?vid=678c2486-f208-445a-a253-9dfac60b0dc7"},"vehicle_type_id":"4","last_reported":1779478172,"current_range_meters":2800,"station_id":"","pricing_plan_id":"cebpf4jnsgd1na2vs0mg"},{"bike_id":"bd9c66d1-8252-4533-9bd9-04795d1785b6","system_id":"levelo_inurba_marseille","lat":43.2622,"lon":5.37436,"is_reserved":false,"is_disabled":true,"rental_uris":{"android":"levelo://app?vid=bd9c66d1-8252-4533-9bd9-04795d1785b6","ios":"levelo://app?vid=bd9c66d1-8252-4533-9bd9-04795d1785b6"},"vehicle_type_id":"4","last_reported":1779478172,"current_range_meters":2800,"station_id":"ce4bhgp2rcd13ifvqfc0","pricing_plan_id":"cebpf4jnsgd1na2vs0mg"},{"bike_id":"12481d7b-ca53-44d2-a72d-3641cbe06950","system_id":"levelo_inurba_marseille","lat":43.29916,"lon":5.41013,"is_reserved":false,"is_disabled":false,"rental_uris":{"android":"levelo://app?vid=12481d7b-ca53-44d2-a72d-3641cbe06950","ios":"levelo://app?vid=12481d7b-ca53-44d2-a72d-3641cbe06950"},"vehicle_type_id":"4","last_reported":1779478172,"current_range_meters":2800,"station_id":"","pricing_plan_id":"cebpf4jnsgd1na2vs0mg"},{"bike_id":"b62d84dc-d774-4128-bbc8-dcda8ad0985e","system_id":"levelo_inurba_marseille","lat":43.29498,"lon":5.39002,"is_reserved":false,"is_disabled":false,"rental_uris":{"android":"levelo://app?vid=b62d84dc-d774-4128-bbc8-dcda8ad0985e","ios":"levelo://app?vid=b62d84dc-d774-4128-bbc8-dcda8ad0985e"},"vehicle_type_id":"4","last_reported":1779478172,"current_range_meters":2800,"station_id":"ce4bh3p2rcd13ifvqdp0","pricing_plan_id":"cebpf4jnsgd1na2vs0mg"},{"bike_id":"4be845f0-985d-4e3e-8529-9f6b033f1a36","system_id":"levelo_inurba_marseille","lat":43.29801,"lon":5.38092,"is_reserved":false,"is_disabled":false,"rental_uris":{"android":"levelo://app?vid=4be845f0-985d-4e3e-8529-9f6b033f1a36","ios":"levelo://app?vid=4be845f0-985d-4e3e-8529-9f6b033f1a36"},"vehicle_type_id":"4","last_reported":1779478172,"current_range_meters":2800,"station_id":"ce4bgip2rcd13ifvqbb0","pricing_plan_id":"cebpf4jnsgd1na2vs0mg"},{"bike_id":"68995fe0-35e6-432f-94ef-96561cbc66e4","system_id":"levelo_inurba_marseille","lat":43.28993,"lon":5.35623,"is_reserved":false,"is_disabled":false,"rental_uris":{"android":"levelo://app?vid=68995fe0-35e6-432f-94ef-96561cbc66e4","ios":"levelo://app?vid=68995fe0-35e6-432f-94ef-96561cbc66e4"},"vehicle_type_id":"4","last_reported":1779478172,"current_range_meters":2800,"station_id":"ce4bhb92rcd13ifvqen0","pricing_plan_id":"cebpf4jnsgd1na2vs0mg"},{"bike_id":"c54a36a2-49ac-42ed-a527-dcfaacc9d95a","system_id":"levelo_inurba_marseille","lat":43.29544,"lon":5.39391,"is_reserved":false,"is_disabled":false,"rental_uris":{"android":"levelo://app?vid=c54a36a2-49ac-42ed-a527-dcfaacc9d95a","ios":"levelo://app?vid=c54a36a2-49ac-42ed-a527-dcfaacc9d95a"},"vehicle_type_id":"4","last_reported":1779478172,"current_range_meters":2800,"station_id":"ce4bh292rcd13ifvqdf0","pricing_plan_id":"cebpf4jnsgd1na2vs0mg"},{"bike_id":"ca8a2f0a-5935-4f1a-8f98-7a83aa5c69de","system_id":"levelo_inurba_marseille","lat":43.30663,"lon":5.36891,"is_reserved":false,"is_disabled":false,"rental_uris":{"android":"levelo://app?vid=ca8a2f0a-5935-4f1a-8f98-7a83aa5c69de","ios":"levelo://app?vid=ca8a2f0a-5935-4f1a-8f98-7a83aa5c69de"},"vehicle_type_id":"4","last_reported":1779478172,"current_range_meters":2800,"station_id":"","pricing_plan_id":"cebpf4jnsgd1na2vs0mg"},{"bike_id":"d5925df4-084c-4520-8a3f-e5f152dbfff6","system_id":"levelo_inurba_marseille","lat":43.31343,"lon":5.40318,"is_reserved":false,"is_disabled":false,"rental_uris":{"android":"levelo://app?vid=d5925df4-084c-4520-8a3f-e5f152dbfff6","ios":"levelo://app?vid=d5925df4-084c-4520-8a3f-e5f152dbfff6"},"vehicle_type_id":"4","last_reported":1779478172,"current_range_meters":2800,"station_id":"","pricing_plan_id":"cebpf4jnsgd1na2vs0mg"},{"bike_id":"01e0d0eb-aceb-45d0-b448-f190cc7530a6","system_id":"levelo_inurba_marseille","lat":43.225321,"lon":5.348341,"is_reserved":false,"is_disabled":true,"rental_uris":{"android":"levelo://app?vid=01e0d0eb-aceb-45d0-b448-f190cc7530a6","ios":"levelo://app?vid=01e0d0eb-aceb-45d0-b448-f190cc7530a6"},"vehicle_type_id":"4","last_reported":1779478172,"current_range_meters":2800,"station_id":"st_cvj5dfep6f1abm77gieg","pricing_plan_id":"cebpf4jnsgd1na2vs0mg"},{"bike_id":"3b3648bc-114e-4573-b5a4-e0750016f792","system_id":"levelo_inurba_marseille","lat":43.23864,"lon":5.41313,"is_reserved":false,"is_disabled":false,"rental_uris":{"android":"levelo://app?vid=3b3648bc-114e-4573-b5a4-e0750016f792","ios":"levelo://app?vid=3b3648bc-114e-4573-b5a4-e0750016f792"},"vehicle_type_id":"4","last_reported":1779478172,"current_range_meters":2800,"station_id":"","pricing_plan_id":"cebpf4jnsgd1na2vs0mg"},{"bike_id":"9cc3431d-0d5f-4774-a434-c655f1b2d5bf","system_id":"levelo_inurba_marseille","lat":43.26491,"lon":5.39543,"is_reserved":false,"is_disabled":false,"rental_uris":{"android":"levelo://app?vid=9cc3431d-0d5f-4774-a434-c655f1b2d5bf","ios":"levelo://app?vid=9cc3431d-0d5f-4774-a434-c655f1b2d5bf"},"vehicle_type_id":"4","last_reported":1779478172,"current_range_meters":2800,"station_id":"ce4bhi12rcd13ifvqfq0","pricing_plan_id":"cebpf4jnsgd1na2vs0mg"},{"bike_id":"3936af97-ef4d-4f58-a35e-a0221d7e9a6c","system_id":"levelo_inurba_marseille","lat":43.22563,"lon":5.41646,"is_reserved":false,"is_disabled":false,"rental_uris":{"android":"levelo://app?vid=3936af97-ef4d-4f58-a35e-a0221d7e9a6c","ios":"levelo://app?vid=3936af97-ef4d-4f58-a35e-a0221d7e9a6c"},"vehicle_type_id":"4","last_reported":1779478172,"current_range_meters":3200,"station_id":"st_d2o4gvlbi1j2169b742g","pricing_plan_id":"cebpf4jnsgd1na2vs0mg"},{"bike_id":"4054b715-62cc-4bdd-aa8a-e8f938bcda9f","system_id":"levelo_inurba_marseille","lat":43.313267,"lon":5.396897,"is_reserved":false,"is_disabled":false,"rental_uris":{"android":"levelo://app?vid=4054b715-62cc-4bdd-aa8a-e8f938bcda9f","ios":"levelo://app?vid=4054b715-62cc-4bdd-aa8a-e8f938bcda9f"},"vehicle_type_id":"4","last_reported":1779478172,"current_range_meters":3200,"station_id":"ce4bgvp2rcd13ifvqcu0","pricing_plan_id":"cebpf4jnsgd1na2vs0mg"},{"bike_id":"3f631110-ce08-410c-a3b6-ee2d14006ba5","system_id":"levelo_inurba_marseille","lat":43.23969,"lon":5.36637,"is_reserved":false,"is_disabled":false,"rental_uris":{"android":"levelo://app?vid=3f631110-ce08-410c-a3b6-ee2d14006ba5","ios":"levelo://app?vid=3f631110-ce08-410c-a3b6-ee2d14006ba5"},"vehicle_type_id":"4","last_reported":1779478172,"current_range_meters":3200,"station_id":"ce4bhi12rcd13ifvqfp0","pricing_plan_id":"cebpf4jnsgd1na2vs0mg"},{"bike_id":"7ec93175-8d9c-4b31-b534-34e06405c4e0","system_id":"levelo_inurba_marseille","lat":43.29621,"lon":5.44707,"is_reserved":false,"is_disabled":false,"rental_uris":{"android":"levelo://app?vid=7ec93175-8d9c-4b31-b534-34e06405c4e0","ios":"levelo://app?vid=7ec93175-8d9c-4b31-b534-34e06405c4e0"},"vehicle_type_id":"4","last_reported":1779478172,"current_range_meters":3200,"station_id":"","pricing_plan_id":"cebpf4jnsgd1na2vs0mg"},{"bike_id":"659c92a3-3b72-4555-9299-8a3f645238bf","system_id":"levelo_inurba_marseille","lat":43.3013,"lon":5.43111,"is_reserved":false,"is_disabled":false,"rental_uris":{"android":"levelo://app?vid=659c92a3-3b72-4555-9299-8a3f645238bf","ios":"levelo://app?vid=659c92a3-3b72-4555-9299-8a3f645238bf"},"vehicle_type_id":"4","last_reported":1779478172,"current_range_meters":3200,"station_id":"st_d3js3co5814s73ftftug","pricing_plan_id":"cebpf4jnsgd1na2vs0mg"},{"bike_id":"ce615eef-6ad9-4c68-9d98-cb91cd71adf6","system_id":"levelo_inurba_marseille","lat":43.2481,"lon":5.37452,"is_reserved":false,"is_disabled":false,"rental_uris":{"android":"levelo://app?vid=ce615eef-6ad9-4c68-9d98-cb91cd71adf6","ios":"levelo://app?vid=ce615eef-6ad9-4c68-9d98-cb91cd71adf6"},"vehicle_type_id":"4","last_reported":1779478172,"current_range_meters":3200,"station_id":"ce4bhgh2rcd13ifvqfb0","pricing_plan_id":"cebpf4jnsgd1na2vs0mg"},{"bike_id":"338fc902-79db-4d5a-a387-cd149106cb45","system_id":"levelo_inurba_marseille","lat":43.30281,"lon":5.37256,"is_reserved":false,"is_disabled":false,"rental_uris":{"android":"levelo://app?vid=338fc902-79db-4d5a-a387-cd149106cb45","ios":"levelo://app?vid=338fc902-79db-4d5a-a387-cd149106cb45"},"vehicle_type_id":"4","last_reported":1779478172,"current_range_meters":3200,"station_id":"","pricing_plan_id":"cebpf4jnsgd1na2vs0mg"},{"bike_id":"74660328-c441-4424-99ad-d9576cde46bb","system_id":"levelo_inurba_marseille","lat":43.31892,"lon":5.36808,"is_reserved":false,"is_disabled":false,"rental_uris":{"android":"levelo://app?vid=74660328-c441-4424-99ad-d9576cde46bb","ios":"levelo://app?vid=74660328-c441-4424-99ad-d9576cde46bb"},"vehicle_type_id":"4","last_reported":1779478172,"current_range_meters":3200,"station_id":"st_d6o2h0d0559c73evc1b0","pricing_plan_id":"cebpf4jnsgd1na2vs0mg"},{"bike_id":"eeca1756-cd62-40df-b0f5-c2894ddebeef","system_id":"levelo_inurba_marseille","lat":43.26232,"lon":5.38764,"is_reserved":false,"is_disabled":false,"rental_uris":{"android":"levelo://app?vid=eeca1756-cd62-40df-b0f5-c2894ddebeef","ios":"levelo://app?vid=eeca1756-cd62-40df-b0f5-c2894ddebeef"},"vehicle_type_id":"4","last_reported":1779478172,"current_range_meters":3200,"station_id":"","pricing_plan_id":"cebpf4jnsgd1na2vs0mg"},{"bike_id":"d0c870e2-d4da-4103-9aea-c5acd7ca8362","system_id":"levelo_inurba_marseille","lat":43.28939,"lon":5.36636,"is_reserved":false,"is_disabled":false,"rental_uris":{"android":"levelo://app?vid=d0c870e2-d4da-4103-9aea-c5acd7ca8362","ios":"levelo://app?vid=d0c870e2-d4da-4103-9aea-c5acd7ca8362"},"vehicle_type_id":"4","last_reported":1779478172,"current_range_meters":3200,"station_id":"ce4bhap2rcd13ifvqek0","pricing_plan_id":"cebpf4jnsgd1na2vs0mg"},{"bike_id":"7eebbda7-66b3-4973-bb8a-7ba5bc875a88","system_id":"levelo_inurba_marseille","lat":43.27179,"lon":5.40993,"is_reserved":false,"is_disabled":false,"rental_uris":{"android":"levelo://app?vid=7eebbda7-66b3-4973-bb8a-7ba5bc875a88","ios":"levelo://app?vid=7eebbda7-66b3-4973-bb8a-7ba5bc875a88"},"vehicle_type_id":"4","last_reported":1779478172,"current_range_meters":3200,"station_id":"ce4bhl12rcd13ifvqgf0","pricing_plan_id":"cebpf4jnsgd1na2vs0mg"},{"bike_id":"5aa3032d-05a0-497c-8f73-eb2d3639e087","system_id":"levelo_inurba_marseille","lat":43.26204,"lon":5.37439,"is_reserved":false,"is_disabled":false,"rental_uris":{"android":"levelo://app?vid=5aa3032d-05a0-497c-8f73-eb2d3639e087","ios":"levelo://app?vid=5aa3032d-05a0-497c-8f73-eb2d3639e087"},"vehicle_type_id":"4","last_reported":1779478172,"current_range_meters":3200,"station_id":"ce4bhgp2rcd13ifvqfc0","pricing_plan_id":"cebpf4jnsgd1na2vs0mg"},{"bike_id":"972e4029-acc2-47bb-a7c9-18c55104124c","system_id":"levelo_inurba_marseille","lat":43.29492,"lon":5.43302,"is_reserved":false,"is_disabled":false,"rental_uris":{"android":"levelo://app?vid=972e4029-acc2-47bb-a7c9-18c55104124c","ios":"levelo://app?vid=972e4029-acc2-47bb-a7c9-18c55104124c"},"vehicle_type_id":"4","last_reported":1779478172,"current_range_meters":3200,"station_id":"st_d3j5ugp08ojc73fj9d10","pricing_plan_id":"cebpf4jnsgd1na2vs0mg"},{"bike_id":"0e760750-d481-46ee-9563-bca9699511d9","system_id":"levelo_inurba_marseille","lat":43.28956,"lon":5.39614,"is_reserved":false,"is_disabled":false,"rental_uris":{"android":"levelo://app?vid=0e760750-d481-46ee-9563-bca9699511d9","ios":"levelo://app?vid=0e760750-d481-46ee-9563-bca9699511d9"},"vehicle_type_id":"4","last_reported":1779478172,"current_range_meters":3600,"station_id":"ce4bh3h2rcd13ifvqdn0","pricing_plan_id":"cebpf4jnsgd1na2vs0mg"},{"bike_id":"f06ef057-90c3-408c-bc5f-d78225742114","system_id":"levelo_inurba_marseille","lat":43.29307,"lon":5.37164,"is_reserved":false,"is_disabled":false,"rental_uris":{"android":"levelo://app?vid=f06ef057-90c3-408c-bc5f-d78225742114","ios":"levelo://app?vid=f06ef057-90c3-408c-bc5f-d78225742114"},"vehicle_type_id":"4","last_reported":1779478172,"current_range_meters":3600,"station_id":"ce4bgh92rcd13ifvqb40","pricing_plan_id":"cebpf4jnsgd1na2vs0mg"},{"bike_id":"a84fab8c-089a-4371-8813-a34f0edb4145","system_id":"levelo_inurba_marseille","lat":43.22941,"lon":5.35375,"is_reserved":false,"is_disabled":true,"rental_uris":{"android":"levelo://app?vid=a84fab8c-089a-4371-8813-a34f0edb4145","ios":"levelo://app?vid=a84fab8c-089a-4371-8813-a34f0edb4145"},"vehicle_type_id":"4","last_reported":1779478172,"current_range_meters":3600,"station_id":"cpo3532slgdg3j2ikp40","pricing_plan_id":"cebpf4jnsgd1na2vs0mg"},{"bike_id":"b916dc26-3594-41bd-b79f-127b3208b674","system_id":"levelo_inurba_marseille","lat":43.25574,"lon":5.38236,"is_reserved":false,"is_disabled":true,"rental_uris":{"android":"levelo://app?vid=b916dc26-3594-41bd-b79f-127b3208b674","ios":"levelo://app?vid=b916dc26-3594-41bd-b79f-127b3208b674"},"vehicle_type_id":"4","last_reported":1779478172,"current_range_meters":3600,"station_id":"ce4bhih2rcd13ifvqfs0","pricing_plan_id":"cebpf4jnsgd1na2vs0mg"},{"bike_id":"c1e0f8e5-6b8a-4678-966d-7fdace31e617","system_id":"levelo_inurba_marseille","lat":43.28407,"lon":5.34987,"is_reserved":false,"is_disabled":false,"rental_uris":{"android":"levelo://app?vid=c1e0f8e5-6b8a-4678-966d-7fdace31e617","ios":"levelo://app?vid=c1e0f8e5-6b8a-4678-966d-7fdace31e617"},"vehicle_type_id":"4","last_reported":1779478172,"current_range_meters":3600,"station_id":"ce4bhbh2rcd13ifvqepg","pricing_plan_id":"cebpf4jnsgd1na2vs0mg"},{"bike_id":"831eb3fe-58c0-43aa-9c3c-e788c914eb48","system_id":"levelo_inurba_marseille","lat":43.27614,"lon":5.36107,"is_reserved":false,"is_disabled":true,"rental_uris":{"android":"levelo://app?vid=831eb3fe-58c0-43aa-9c3c-e788c914eb48","ios":"levelo://app?vid=831eb3fe-58c0-43aa-9c3c-e788c914eb48"},"vehicle_type_id":"4","last_reported":1779478172,"current_range_meters":3600,"station_id":"ce4bgj92rcd13ifvqbe0","pricing_plan_id":"cebpf4jnsgd1na2vs0mg"},{"bike_id":"29d3842c-78e9-4c8d-9620-387ce917725c","system_id":"levelo_inurba_marseille","lat":43.2963,"lon":5.37134,"is_reserved":false,"is_disabled":false,"rental_uris":{"android":"levelo://app?vid=29d3842c-78e9-4c8d-9620-387ce917725c","ios":"levelo://app?vid=29d3842c-78e9-4c8d-9620-387ce917725c"},"vehicle_type_id":"4","last_reported":1779478172,"current_range_meters":3600,"station_id":"ce4bgnh2rcd13ifvqc0g","pricing_plan_id":"cebpf4jnsgd1na2vs0mg"},{"bike_id":"c0fc652c-1559-442c-9073-abcdfaa2b068","system_id":"levelo_inurba_marseille","lat":43.28711,"lon":5.46676,"is_reserved":false,"is_disabled":false,"rental_uris":{"android":"levelo://app?vid=c0fc652c-1559-442c-9073-abcdfaa2b068","ios":"levelo://app?vid=c0fc652c-1559-442c-9073-abcdfaa2b068"},"vehicle_type_id":"4","last_reported":1779478172,"current_range_meters":3600,"station_id":"st_d6tc3vkotcvc738tfjhg","pricing_plan_id":"cebpf4jnsgd1na2vs0mg"},{"bike_id":"31cfa991-0d55-48c5-a506-6a4a518d8a15","system_id":"levelo_inurba_marseille","lat":43.29514,"lon":5.39049,"is_reserved":false,"is_disabled":false,"rental_uris":{"android":"levelo://app?vid=31cfa991-0d55-48c5-a506-6a4a518d8a15","ios":"levelo://app?vid=31cfa991-0d55-48c5-a506-6a4a518d8a15"},"vehicle_type_id":"4","last_reported":1779478172,"current_range_meters":3600,"station_id":"ce4bh3p2rcd13ifvqdp0","pricing_plan_id":"cebpf4jnsgd1na2vs0mg"},{"bike_id":"88d4750e-68c8-4422-93c8-338e2c3cf9b8","system_id":"levelo_inurba_marseille","lat":43.28599,"lon":5.37134,"is_reserved":false,"is_disabled":false,"rental_uris":{"android":"levelo://app?vid=88d4750e-68c8-4422-93c8-338e2c3cf9b8","ios":"levelo://app?vid=88d4750e-68c8-4422-93c8-338e2c3cf9b8"},"vehicle_type_id":"4","last_reported":1779478172,"current_range_meters":3600,"station_id":"ce4bht12rcd13ifvqi60","pricing_plan_id":"cebpf4jnsgd1na2vs0mg"},{"bike_id":"7193286c-6fc3-44ad-8ba7-4425a3e07854","system_id":"levelo_inurba_marseille","lat":43.28621,"lon":5.35101,"is_reserved":false,"is_disabled":false,"rental_uris":{"android":"levelo://app?vid=7193286c-6fc3-44ad-8ba7-4425a3e07854","ios":"levelo://app?vid=7193286c-6fc3-44ad-8ba7-4425a3e07854"},"vehicle_type_id":"4","last_reported":1779478172,"current_range_meters":3600,"station_id":"ce4bhch2rcd13ifvqeug","pricing_plan_id":"cebpf4jnsgd1na2vs0mg"},{"bike_id":"0dc787a0-6039-48c9-8a25-c5837cb55b9f","system_id":"levelo_inurba_marseille","lat":43.30853,"lon":5.38132,"is_reserved":false,"is_disabled":false,"rental_uris":{"android":"levelo://app?vid=0dc787a0-6039-48c9-8a25-c5837cb55b9f","ios":"levelo://app?vid=0dc787a0-6039-48c9-8a25-c5837cb55b9f"},"vehicle_type_id":"4","last_reported":1779478172,"current_range_meters":4000,"station_id":"","pricing_plan_id":"cebpf4jnsgd1na2vs0mg"},{"bike_id":"e01e9a76-7559-40e0-bc65-36123416e7b0","system_id":"levelo_inurba_marseille","lat":43.31288,"lon":5.36757,"is_reserved":false,"is_disabled":false,"rental_uris":{"android":"levelo://app?vid=e01e9a76-7559-40e0-bc65-36123416e7b0","ios":"levelo://app?vid=e01e9a76-7559-40e0-bc65-36123416e7b0"},"vehicle_type_id":"4","last_reported":1779478172,"current_range_meters":4000,"station_id":"","pricing_plan_id":"cebpf4jnsgd1na2vs0mg"},{"bike_id":"e932ec08-651e-4915-bfa6-9e0fee3ef016","system_id":"levelo_inurba_marseille","lat":43.31688,"lon":5.40462,"is_reserved":false,"is_disabled":false,"rental_uris":{"android":"levelo://app?vid=e932ec08-651e-4915-bfa6-9e0fee3ef016","ios":"levelo://app?vid=e932ec08-651e-4915-bfa6-9e0fee3ef016"},"vehicle_type_id":"4","last_reported":1779478172,"current_range_meters":4000,"station_id":"ce4bh012rcd13ifvqd00","pricing_plan_id":"cebpf4jnsgd1na2vs0mg"},{"bike_id":"aa9e1ee3-f693-4fb5-b11b-28f459ed8a85","system_id":"levelo_inurba_marseille","lat":43.29832,"lon":5.38103,"is_reserved":false,"is_disabled":false,"rental_uris":{"android":"levelo://app?vid=aa9e1ee3-f693-4fb5-b11b-28f459ed8a85","ios":"levelo://app?vid=aa9e1ee3-f693-4fb5-b11b-28f459ed8a85"},"vehicle_type_id":"4","last_reported":1779478172,"current_range_meters":4000,"station_id":"ce4bgip2rcd13ifvqbb0","pricing_plan_id":"cebpf4jnsgd1na2vs0mg"},{"bike_id":"6c9e73af-8242-4078-9c56-89b8665bcd3a","system_id":"levelo_inurba_marseille","lat":43.28408,"lon":5.37498,"is_reserved":false,"is_disabled":false,"rental_uris":{"android":"levelo://app?vid=6c9e73af-8242-4078-9c56-89b8665bcd3a","ios":"levelo://app?vid=6c9e73af-8242-4078-9c56-89b8665bcd3a"},"vehicle_type_id":"4","last_reported":1779478172,"current_range_meters":4000,"station_id":"ce4bh412rcd13ifvqds0","pricing_plan_id":"cebpf4jnsgd1na2vs0mg"},{"bike_id":"44716bfe-f622-427b-ab4e-3597f1adda8a","system_id":"levelo_inurba_marseille","lat":43.29865,"lon":5.397236,"is_reserved":false,"is_disabled":false,"rental_uris":{"android":"levelo://app?vid=44716bfe-f622-427b-ab4e-3597f1adda8a","ios":"levelo://app?vid=44716bfe-f622-427b-ab4e-3597f1adda8a"},"vehicle_type_id":"4","last_reported":1779478172,"current_range_meters":4000,"station_id":"ce4bh0h2rcd13ifvqd50","pricing_plan_id":"cebpf4jnsgd1na2vs0mg"},{"bike_id":"176b819d-319e-4b03-8f89-9df924bec897","system_id":"levelo_inurba_marseille","lat":43.259235,"lon":5.409211,"is_reserved":false,"is_disabled":false,"rental_uris":{"android":"levelo://app?vid=176b819d-319e-4b03-8f89-9df924bec897","ios":"levelo://app?vid=176b819d-319e-4b03-8f89-9df924bec897"},"vehicle_type_id":"4","last_reported":1779478172,"current_range_meters":4000,"station_id":"ce4bhm92rcd13ifvqglg","pricing_plan_id":"cebpf4jnsgd1na2vs0mg"},{"bike_id":"23167f1c-d984-465e-a449-121e46381a38","system_id":"levelo_inurba_marseille","lat":43.30476,"lon":5.37899,"is_reserved":false,"is_disabled":false,"rental_uris":{"android":"levelo://app?vid=23167f1c-d984-465e-a449-121e46381a38","ios":"levelo://app?vid=23167f1c-d984-465e-a449-121e46381a38"},"vehicle_type_id":"4","last_reported":1779478172,"current_range_meters":4000,"station_id":"ce4bgup2rcd13ifvqcn0","pricing_plan_id":"cebpf4jnsgd1na2vs0mg"},{"bike_id":"1204b2ed-716f-433d-a659-fbcf8963dc7b","system_id":"levelo_inurba_marseille","lat":43.24191,"lon":5.39719,"is_reserved":false,"is_disabled":false,"rental_uris":{"android":"levelo://app?vid=1204b2ed-716f-433d-a659-fbcf8963dc7b","ios":"levelo://app?vid=1204b2ed-716f-433d-a659-fbcf8963dc7b"},"vehicle_type_id":"4","last_reported":1779478172,"current_range_meters":4000,"station_id":"ce4bhn12rcd13ifvqgpg","pricing_plan_id":"cebpf4jnsgd1na2vs0mg"},{"bike_id":"2acb06d9-ff6b-48a5-9dd2-755efb559ed4","system_id":"levelo_inurba_marseille","lat":43.286084,"lon":5.351156,"is_reserved":false,"is_disabled":false,"rental_uris":{"android":"levelo://app?vid=2acb06d9-ff6b-48a5-9dd2-755efb559ed4","ios":"levelo://app?vid=2acb06d9-ff6b-48a5-9dd2-755efb559ed4"},"vehicle_type_id":"4","last_reported":1779478172,"current_range_meters":4000,"station_id":"ce4bhch2rcd13ifvqeug","pricing_plan_id":"cebpf4jnsgd1na2vs0mg"},{"bike_id":"a3befc54-1f36-4692-8b43-cb9796773eac","system_id":"levelo_inurba_marseille","lat":43.2992,"lon":5.37487,"is_reserved":false,"is_disabled":false,"rental_uris":{"android":"levelo://app?vid=a3befc54-1f36-4692-8b43-cb9796773eac","ios":"levelo://app?vid=a3befc54-1f36-4692-8b43-cb9796773eac"},"vehicle_type_id":"4","last_reported":1779478172,"current_range_meters":4000,"station_id":"ce4bgjh2rcd13ifvqbg0","pricing_plan_id":"cebpf4jnsgd1na2vs0mg"},{"bike_id":"1812d555-b6e7-4504-b98f-d49cd595a2a2","system_id":"levelo_inurba_marseille","lat":43.30454,"lon":5.38885,"is_reserved":false,"is_disabled":false,"rental_uris":{"android":"levelo://app?vid=1812d555-b6e7-4504-b98f-d49cd595a2a2","ios":"levelo://app?vid=1812d555-b6e7-4504-b98f-d49cd595a2a2"},"vehicle_type_id":"4","last_reported":1779478172,"current_range_meters":4000,"station_id":"ce4bgk12rcd13ifvqbi0","pricing_plan_id":"cebpf4jnsgd1na2vs0mg"},{"bike_id":"b56a8080-cbdc-431e-97d0-e5a8a14362b8","system_id":"levelo_inurba_marseille","lat":43.29603,"lon":5.37708,"is_reserved":false,"is_disabled":false,"rental_uris":{"android":"levelo://app?vid=b56a8080-cbdc-431e-97d0-e5a8a14362b8","ios":"levelo://app?vid=b56a8080-cbdc-431e-97d0-e5a8a14362b8"},"vehicle_type_id":"4","last_reported":1779478172,"current_range_meters":4000,"station_id":"ce4bgi92rcd13ifvqb90","pricing_plan_id":"cebpf4jnsgd1na2vs0mg"},{"bike_id":"d6b25117-ad92-4551-b0d4-3dc0d96e8362","system_id":"levelo_inurba_marseille","lat":43.3199,"lon":5.38135,"is_reserved":false,"is_disabled":false,"rental_uris":{"android":"levelo://app?vid=d6b25117-ad92-4551-b0d4-3dc0d96e8362","ios":"levelo://app?vid=d6b25117-ad92-4551-b0d4-3dc0d96e8362"},"vehicle_type_id":"4","last_reported":1779478172,"current_range_meters":4000,"station_id":"ce4bhr12rcd13ifvqhpg","pricing_plan_id":"cebpf4jnsgd1na2vs0mg"},{"bike_id":"80edc1b2-da5d-435a-b577-fef452505ec4","system_id":"levelo_inurba_marseille","lat":43.26228,"lon":5.38769,"is_reserved":false,"is_disabled":false,"rental_uris":{"android":"levelo://app?vid=80edc1b2-da5d-435a-b577-fef452505ec4","ios":"levelo://app?vid=80edc1b2-da5d-435a-b577-fef452505ec4"},"vehicle_type_id":"4","last_reported":1779478172,"current_range_meters":4000,"station_id":"","pricing_plan_id":"cebpf4jnsgd1na2vs0mg"},{"bike_id":"6de22d45-9d07-413b-94c0-7605769e9f29","system_id":"levelo_inurba_marseille","lat":43.29528,"lon":5.39042,"is_reserved":false,"is_disabled":false,"rental_uris":{"android":"levelo://app?vid=6de22d45-9d07-413b-94c0-7605769e9f29","ios":"levelo://app?vid=6de22d45-9d07-413b-94c0-7605769e9f29"},"vehicle_type_id":"4","last_reported":1779478172,"current_range_meters":4000,"station_id":"ce4bh3p2rcd13ifvqdp0","pricing_plan_id":"cebpf4jnsgd1na2vs0mg"},{"bike_id":"0f1760a9-bb42-4ae9-bb87-6f15ac7eae5b","system_id":"levelo_inurba_marseille","lat":43.29818,"lon":5.4407,"is_reserved":false,"is_disabled":false,"rental_uris":{"android":"levelo://app?vid=0f1760a9-bb42-4ae9-bb87-6f15ac7eae5b","ios":"levelo://app?vid=0f1760a9-bb42-4ae9-bb87-6f15ac7eae5b"},"vehicle_type_id":"4","last_reported":1779478172,"current_range_meters":4000,"station_id":"st_d3jp68qikq2c7381ktn0","pricing_plan_id":"cebpf4jnsgd1na2vs0mg"},{"bike_id":"c97309d8-44c6-4946-84f5-9a696edce419","system_id":"levelo_inurba_marseille","lat":43.31711,"lon":5.37735,"is_reserved":false,"is_disabled":false,"rental_uris":{"android":"levelo://app?vid=c97309d8-44c6-4946-84f5-9a696edce419","ios":"levelo://app?vid=c97309d8-44c6-4946-84f5-9a696edce419"},"vehicle_type_id":"4","last_reported":1779478172,"current_range_meters":4400,"station_id":"ce4bgth2rcd13ifvqch0","pricing_plan_id":"cebpf4jnsgd1na2vs0mg"},{"bike_id":"e3186371-0391-47d4-9927-7c8a3c2904ba","system_id":"levelo_inurba_marseille","lat":43.28304,"lon":5.38538,"is_reserved":false,"is_disabled":false,"rental_uris":{"android":"levelo://app?vid=e3186371-0391-47d4-9927-7c8a3c2904ba","ios":"levelo://app?vid=e3186371-0391-47d4-9927-7c8a3c2904ba"},"vehicle_type_id":"4","last_reported":1779478172,"current_range_meters":4400,"station_id":"","pricing_plan_id":"cebpf4jnsgd1na2vs0mg"},{"bike_id":"37893482-1ca7-4e65-a3f3-86c49eda4a22","system_id":"levelo_inurba_marseille","lat":43.30391,"lon":5.42475,"is_reserved":false,"is_disabled":true,"rental_uris":{"android":"levelo://app?vid=37893482-1ca7-4e65-a3f3-86c49eda4a22","ios":"levelo://app?vid=37893482-1ca7-4e65-a3f3-86c49eda4a22"},"vehicle_type_id":"4","last_reported":1779478172,"current_range_meters":4400,"station_id":"ce4bhoh2rcd13ifvqh6g","pricing_plan_id":"cebpf4jnsgd1na2vs0mg"},{"bike_id":"f0efc42b-7455-48c5-a07f-66b350fce5f2","system_id":"levelo_inurba_marseille","lat":43.29263,"lon":5.38425,"is_reserved":false,"is_disabled":false,"rental_uris":{"android":"levelo://app?vid=f0efc42b-7455-48c5-a07f-66b350fce5f2","ios":"levelo://app?vid=f0efc42b-7455-48c5-a07f-66b350fce5f2"},"vehicle_type_id":"4","last_reported":1779478172,"current_range_meters":4400,"station_id":"ce4bh692rcd13ifvqea0","pricing_plan_id":"cebpf4jnsgd1na2vs0mg"},{"bike_id":"04c63912-095e-401c-ad25-ccb7776a5453","system_id":"levelo_inurba_marseille","lat":43.23979,"lon":5.36616,"is_reserved":false,"is_disabled":false,"rental_uris":{"android":"levelo://app?vid=04c63912-095e-401c-ad25-ccb7776a5453","ios":"levelo://app?vid=04c63912-095e-401c-ad25-ccb7776a5453"},"vehicle_type_id":"4","last_reported":1779478172,"current_range_meters":4400,"station_id":"ce4bhi12rcd13ifvqfp0","pricing_plan_id":"cebpf4jnsgd1na2vs0mg"},{"bike_id":"4f9b74af-2a14-4f34-bdde-27a61de43c5b","system_id":"levelo_inurba_marseille","lat":43.30976,"lon":5.39043,"is_reserved":false,"is_disabled":false,"rental_uris":{"android":"levelo://app?vid=4f9b74af-2a14-4f34-bdde-27a61de43c5b","ios":"levelo://app?vid=4f9b74af-2a14-4f34-bdde-27a61de43c5b"},"vehicle_type_id":"4","last_reported":1779478172,"current_range_meters":4400,"station_id":"ce4bgup2rcd13ifvqco0","pricing_plan_id":"cebpf4jnsgd1na2vs0mg"},{"bike_id":"2046cee4-d840-4948-a716-4744a0933cde","system_id":"levelo_inurba_marseille","lat":43.25001,"lon":5.38925,"is_reserved":false,"is_disabled":false,"rental_uris":{"android":"levelo://app?vid=2046cee4-d840-4948-a716-4744a0933cde","ios":"levelo://app?vid=2046cee4-d840-4948-a716-4744a0933cde"},"vehicle_type_id":"4","last_reported":1779478172,"current_range_meters":4400,"station_id":"ce4bhgp2rcd13ifvqfd0","pricing_plan_id":"cebpf4jnsgd1na2vs0mg"},{"bike_id":"1c18f7e7-efdd-45f7-ba21-e0d32607c74c","system_id":"levelo_inurba_marseille","lat":43.28724,"lon":5.46671,"is_reserved":false,"is_disabled":false,"rental_uris":{"android":"levelo://app?vid=1c18f7e7-efdd-45f7-ba21-e0d32607c74c","ios":"levelo://app?vid=1c18f7e7-efdd-45f7-ba21-e0d32607c74c"},"vehicle_type_id":"4","last_reported":1779478172,"current_range_meters":4400,"station_id":"st_d6tc3vkotcvc738tfjhg","pricing_plan_id":"cebpf4jnsgd1na2vs0mg"},{"bike_id":"0515141f-c245-4fd9-bbd6-8bc3719eeff2","system_id":"levelo_inurba_marseille","lat":43.28888,"lon":5.36065,"is_reserved":false,"is_disabled":true,"rental_uris":{"android":"levelo://app?vid=0515141f-c245-4fd9-bbd6-8bc3719eeff2","ios":"levelo://app?vid=0515141f-c245-4fd9-bbd6-8bc3719eeff2"},"vehicle_type_id":"4","last_reported":1779478172,"current_range_meters":4400,"station_id":"","pricing_plan_id":"cebpf4jnsgd1na2vs0mg"},{"bike_id":"ae73dd5f-c448-475f-be97-7d9f664d23a6","system_id":"levelo_inurba_marseille","lat":43.28508,"lon":5.38482,"is_reserved":false,"is_disabled":false,"rental_uris":{"android":"levelo://app?vid=ae73dd5f-c448-475f-be97-7d9f664d23a6","ios":"levelo://app?vid=ae73dd5f-c448-475f-be97-7d9f664d23a6"},"vehicle_type_id":"4","last_reported":1779478172,"current_range_meters":4400,"station_id":"","pricing_plan_id":"cebpf4jnsgd1na2vs0mg"},{"bike_id":"7367ef29-b5c1-4b9d-9d64-99df595c3227","system_id":"levelo_inurba_marseille","lat":43.24811,"lon":5.37437,"is_reserved":false,"is_disabled":false,"rental_uris":{"android":"levelo://app?vid=7367ef29-b5c1-4b9d-9d64-99df595c3227","ios":"levelo://app?vid=7367ef29-b5c1-4b9d-9d64-99df595c3227"},"vehicle_type_id":"4","last_reported":1779478172,"current_range_meters":4400,"station_id":"ce4bhgh2rcd13ifvqfb0","pricing_plan_id":"cebpf4jnsgd1na2vs0mg"},{"bike_id":"72442759-6707-4a3e-bc1b-3c3a429ef99c","system_id":"levelo_inurba_marseille","lat":43.24806,"lon":5.37445,"is_reserved":false,"is_disabled":false,"rental_uris":{"android":"levelo://app?vid=72442759-6707-4a3e-bc1b-3c3a429ef99c","ios":"levelo://app?vid=72442759-6707-4a3e-bc1b-3c3a429ef99c"},"vehicle_type_id":"4","last_reported":1779478172,"current_range_meters":4400,"station_id":"ce4bhgh2rcd13ifvqfb0","pricing_plan_id":"cebpf4jnsgd1na2vs0mg"},{"bike_id":"3d436a0d-575b-42d3-8681-5c87057b3b7f","system_id":"levelo_inurba_marseille","lat":43.27989,"lon":5.43612,"is_reserved":false,"is_disabled":false,"rental_uris":{"android":"levelo://app?vid=3d436a0d-575b-42d3-8681-5c87057b3b7f","ios":"levelo://app?vid=3d436a0d-575b-42d3-8681-5c87057b3b7f"},"vehicle_type_id":"4","last_reported":1779478172,"current_range_meters":4400,"station_id":"","pricing_plan_id":"cebpf4jnsgd1na2vs0mg"},{"bike_id":"24abcfc1-4580-4a46-b970-73785234bcb8","system_id":"levelo_inurba_marseille","lat":43.24085,"lon":5.37743,"is_reserved":false,"is_disabled":false,"rental_uris":{"android":"levelo://app?vid=24abcfc1-4580-4a46-b970-73785234bcb8","ios":"levelo://app?vid=24abcfc1-4580-4a46-b970-73785234bcb8"},"vehicle_type_id":"4","last_reported":1779478172,"current_range_meters":4400,"station_id":"ce4bhnp2rcd13ifvqgvg","pricing_plan_id":"cebpf4jnsgd1na2vs0mg"},{"bike_id":"8a59138f-e9ab-4084-bd9c-4a7113ee474f","system_id":"levelo_inurba_marseille","lat":43.2552,"lon":5.3765,"is_reserved":false,"is_disabled":false,"rental_uris":{"android":"levelo://app?vid=8a59138f-e9ab-4084-bd9c-4a7113ee474f","ios":"levelo://app?vid=8a59138f-e9ab-4084-bd9c-4a7113ee474f"},"vehicle_type_id":"4","last_reported":1779478172,"current_range_meters":4800,"station_id":"ce4bhh12rcd13ifvqff0","pricing_plan_id":"cebpf4jnsgd1na2vs0mg"},{"bike_id":"a86b2346-e5a6-4f21-b837-6bf630391a2d","system_id":"levelo_inurba_marseille","lat":43.30146,"lon":5.39859,"is_reserved":false,"is_disabled":false,"rental_uris":{"android":"levelo://app?vid=a86b2346-e5a6-4f21-b837-6bf630391a2d","ios":"levelo://app?vid=a86b2346-e5a6-4f21-b837-6bf630391a2d"},"vehicle_type_id":"4","last_reported":1779478172,"current_range_meters":4800,"station_id":"ce4bh0h2rcd13ifvqd40","pricing_plan_id":"cebpf4jnsgd1na2vs0mg"},{"bike_id":"953377cf-ed60-4f2b-827e-5d32a60b75f9","system_id":"levelo_inurba_marseille","lat":43.28645,"lon":5.35084,"is_reserved":false,"is_disabled":false,"rental_uris":{"android":"levelo://app?vid=953377cf-ed60-4f2b-827e-5d32a60b75f9","ios":"levelo://app?vid=953377cf-ed60-4f2b-827e-5d32a60b75f9"},"vehicle_type_id":"4","last_reported":1779478172,"current_range_meters":4800,"station_id":"ce4bhch2rcd13ifvqeug","pricing_plan_id":"cebpf4jnsgd1na2vs0mg"},{"bike_id":"5f78cafb-50df-43c9-ba0e-71375d271df2","system_id":"levelo_inurba_marseille","lat":43.30535,"lon":5.36691,"is_reserved":false,"is_disabled":false,"rental_uris":{"android":"levelo://app?vid=5f78cafb-50df-43c9-ba0e-71375d271df2","ios":"levelo://app?vid=5f78cafb-50df-43c9-ba0e-71375d271df2"},"vehicle_type_id":"4","last_reported":1779478172,"current_range_meters":4800,"station_id":"ce4bgrp2rcd13ifvqc9g","pricing_plan_id":"cebpf4jnsgd1na2vs0mg"},{"bike_id":"669755b1-4bec-434c-9d11-dd7c750b4c3b","system_id":"levelo_inurba_marseille","lat":43.30123,"lon":5.43095,"is_reserved":false,"is_disabled":false,"rental_uris":{"android":"levelo://app?vid=669755b1-4bec-434c-9d11-dd7c750b4c3b","ios":"levelo://app?vid=669755b1-4bec-434c-9d11-dd7c750b4c3b"},"vehicle_type_id":"4","last_reported":1779478172,"current_range_meters":4800,"station_id":"st_d3js3co5814s73ftftug","pricing_plan_id":"cebpf4jnsgd1na2vs0mg"},{"bike_id":"5c530a9e-7c4a-4aa6-adac-4172a237ef4e","system_id":"levelo_inurba_marseille","lat":43.28612,"lon":5.3499,"is_reserved":false,"is_disabled":false,"rental_uris":{"android":"levelo://app?vid=5c530a9e-7c4a-4aa6-adac-4172a237ef4e","ios":"levelo://app?vid=5c530a9e-7c4a-4aa6-adac-4172a237ef4e"},"vehicle_type_id":"4","last_reported":1779478172,"current_range_meters":4800,"station_id":"","pricing_plan_id":"cebpf4jnsgd1na2vs0mg"},{"bike_id":"bf0d33ec-c92f-4769-a69b-a90dbeea040e","system_id":"levelo_inurba_marseille","lat":43.27899,"lon":5.38019,"is_reserved":false,"is_disabled":false,"rental_uris":{"android":"levelo://app?vid=bf0d33ec-c92f-4769-a69b-a90dbeea040e","ios":"levelo://app?vid=bf0d33ec-c92f-4769-a69b-a90dbeea040e"},"vehicle_type_id":"4","last_reported":1779478172,"current_range_meters":4800,"station_id":"ce4bhf92rcd13ifvqf50","pricing_plan_id":"cebpf4jnsgd1na2vs0mg"},{"bike_id":"47086e48-4e5c-41d9-85cc-44e2cc73023e","system_id":"levelo_inurba_marseille","lat":43.30949,"lon":5.39044,"is_reserved":false,"is_disabled":false,"rental_uris":{"android":"levelo://app?vid=47086e48-4e5c-41d9-85cc-44e2cc73023e","ios":"levelo://app?vid=47086e48-4e5c-41d9-85cc-44e2cc73023e"},"vehicle_type_id":"4","last_reported":1779478172,"current_range_meters":4800,"station_id":"ce4bgup2rcd13ifvqco0","pricing_plan_id":"cebpf4jnsgd1na2vs0mg"},{"bike_id":"3397d705-122e-4b74-aeb9-195e6e4516a2","system_id":"levelo_inurba_marseille","lat":43.29678,"lon":5.37293,"is_reserved":false,"is_disabled":false,"rental_uris":{"android":"levelo://app?vid=3397d705-122e-4b74-aeb9-195e6e4516a2","ios":"levelo://app?vid=3397d705-122e-4b74-aeb9-195e6e4516a2"},"vehicle_type_id":"4","last_reported":1779478172,"current_range_meters":4800,"station_id":"ce4bgk12rcd13ifvqbj0","pricing_plan_id":"cebpf4jnsgd1na2vs0mg"},{"bike_id":"b145127f-b86c-4a71-b4c0-33f76deb60c3","system_id":"levelo_inurba_marseille","lat":43.2903,"lon":5.38639,"is_reserved":false,"is_disabled":false,"rental_uris":{"android":"levelo://app?vid=b145127f-b86c-4a71-b4c0-33f76deb60c3","ios":"levelo://app?vid=b145127f-b86c-4a71-b4c0-33f76deb60c3"},"vehicle_type_id":"4","last_reported":1779478172,"current_range_meters":4800,"station_id":"ce4bh4p2rcd13ifvqe0g","pricing_plan_id":"cebpf4jnsgd1na2vs0mg"},{"bike_id":"c8d558af-ac97-4e77-9fc7-e811447926c0","system_id":"levelo_inurba_marseille","lat":43.26228,"lon":5.38767,"is_reserved":false,"is_disabled":false,"rental_uris":{"android":"levelo://app?vid=c8d558af-ac97-4e77-9fc7-e811447926c0","ios":"levelo://app?vid=c8d558af-ac97-4e77-9fc7-e811447926c0"},"vehicle_type_id":"4","last_reported":1779478172,"current_range_meters":4800,"station_id":"","pricing_plan_id":"cebpf4jnsgd1na2vs0mg"},{"bike_id":"daa7210a-fefe-43d8-9c2d-46511d010a3b","system_id":"levelo_inurba_marseille","lat":43.30954,"lon":5.39035,"is_reserved":false,"is_disabled":false,"rental_uris":{"android":"levelo://app?vid=daa7210a-fefe-43d8-9c2d-46511d010a3b","ios":"levelo://app?vid=daa7210a-fefe-43d8-9c2d-46511d010a3b"},"vehicle_type_id":"4","last_reported":1779478172,"current_range_meters":4800,"station_id":"ce4bgup2rcd13ifvqco0","pricing_plan_id":"cebpf4jnsgd1na2vs0mg"},{"bike_id":"4c73ac5b-f848-44b9-9488-246344552796","system_id":"levelo_inurba_marseille","lat":43.28537,"lon":5.44092,"is_reserved":false,"is_disabled":false,"rental_uris":{"android":"levelo://app?vid=4c73ac5b-f848-44b9-9488-246344552796","ios":"levelo://app?vid=4c73ac5b-f848-44b9-9488-246344552796"},"vehicle_type_id":"4","last_reported":1779478172,"current_range_meters":4800,"station_id":"st_d3j3df2ikq2c7380ej80","pricing_plan_id":"cebpf4jnsgd1na2vs0mg"},{"bike_id":"9bd2c99d-831a-4bd4-9d28-b381a9585878","system_id":"levelo_inurba_marseille","lat":43.23963,"lon":5.36636,"is_reserved":false,"is_disabled":false,"rental_uris":{"android":"levelo://app?vid=9bd2c99d-831a-4bd4-9d28-b381a9585878","ios":"levelo://app?vid=9bd2c99d-831a-4bd4-9d28-b381a9585878"},"vehicle_type_id":"4","last_reported":1779478172,"current_range_meters":4800,"station_id":"ce4bhi12rcd13ifvqfp0","pricing_plan_id":"cebpf4jnsgd1na2vs0mg"},{"bike_id":"b5f78969-2d9d-448d-8f6d-b8c13de13c70","system_id":"levelo_inurba_marseille","lat":43.23177,"lon":5.39993,"is_reserved":false,"is_disabled":false,"rental_uris":{"android":"levelo://app?vid=b5f78969-2d9d-448d-8f6d-b8c13de13c70","ios":"levelo://app?vid=b5f78969-2d9d-448d-8f6d-b8c13de13c70"},"vehicle_type_id":"4","last_reported":1779478172,"current_range_meters":4800,"station_id":"ce4bhn12rcd13ifvqgqg","pricing_plan_id":"cebpf4jnsgd1na2vs0mg"},{"bike_id":"c77ed54e-3d2a-4435-90ab-591781710cbd","system_id":"levelo_inurba_marseille","lat":43.29033,"lon":5.38136,"is_reserved":false,"is_disabled":false,"rental_uris":{"android":"levelo://app?vid=c77ed54e-3d2a-4435-90ab-591781710cbd","ios":"levelo://app?vid=c77ed54e-3d2a-4435-90ab-591781710cbd"},"vehicle_type_id":"4","last_reported":1779478172,"current_range_meters":4800,"station_id":"ce4bh4p2rcd13ifvqe1g","pricing_plan_id":"cebpf4jnsgd1na2vs0mg"},{"bike_id":"4a65d6b3-dc2f-4012-868a-1c12b04ab0ca","system_id":"levelo_inurba_marseille","lat":43.2306,"lon":5.35502,"is_reserved":false,"is_disabled":false,"rental_uris":{"android":"levelo://app?vid=4a65d6b3-dc2f-4012-868a-1c12b04ab0ca","ios":"levelo://app?vid=4a65d6b3-dc2f-4012-868a-1c12b04ab0ca"},"vehicle_type_id":"4","last_reported":1779478172,"current_range_meters":4800,"station_id":"cpo3342slgdg3j2ifvpg","pricing_plan_id":"cebpf4jnsgd1na2vs0mg"},{"bike_id":"3087c968-4926-49f3-8cf6-3c974e51f6a0","system_id":"levelo_inurba_marseille","lat":43.24803,"lon":5.3746,"is_reserved":false,"is_disabled":true,"rental_uris":{"android":"levelo://app?vid=3087c968-4926-49f3-8cf6-3c974e51f6a0","ios":"levelo://app?vid=3087c968-4926-49f3-8cf6-3c974e51f6a0"},"vehicle_type_id":"4","last_reported":1779478172,"current_range_meters":4800,"station_id":"ce4bhgh2rcd13ifvqfb0","pricing_plan_id":"cebpf4jnsgd1na2vs0mg"},{"bike_id":"062108ee-2f9e-415c-b428-0c1380f714aa","system_id":"levelo_inurba_marseille","lat":43.29265,"lon":5.38435,"is_reserved":false,"is_disabled":false,"rental_uris":{"android":"levelo://app?vid=062108ee-2f9e-415c-b428-0c1380f714aa","ios":"levelo://app?vid=062108ee-2f9e-415c-b428-0c1380f714aa"},"vehicle_type_id":"4","last_reported":1779478172,"current_range_meters":4800,"station_id":"ce4bh692rcd13ifvqea0","pricing_plan_id":"cebpf4jnsgd1na2vs0mg"},{"bike_id":"acd6894a-5372-437b-a9b7-c0a175650af8","system_id":"levelo_inurba_marseille","lat":43.29195,"lon":5.42255,"is_reserved":false,"is_disabled":true,"rental_uris":{"android":"levelo://app?vid=acd6894a-5372-437b-a9b7-c0a175650af8","ios":"levelo://app?vid=acd6894a-5372-437b-a9b7-c0a175650af8"},"vehicle_type_id":"4","last_reported":1779478172,"current_range_meters":4800,"station_id":"","pricing_plan_id":"cebpf4jnsgd1na2vs0mg"},{"bike_id":"531e6b23-1b60-475a-9411-24d6c208971a","system_id":"levelo_inurba_marseille","lat":43.25649,"lon":5.38529,"is_reserved":false,"is_disabled":false,"rental_uris":{"android":"levelo://app?vid=531e6b23-1b60-475a-9411-24d6c208971a","ios":"levelo://app?vid=531e6b23-1b60-475a-9411-24d6c208971a"},"vehicle_type_id":"4","last_reported":1779478172,"current_range_meters":4800,"station_id":"","pricing_plan_id":"cebpf4jnsgd1na2vs0mg"},{"bike_id":"33877885-a5ab-42c6-a546-38cff4ac0036","system_id":"levelo_inurba_marseille","lat":43.30539,"lon":5.38418,"is_reserved":false,"is_disabled":false,"rental_uris":{"android":"levelo://app?vid=33877885-a5ab-42c6-a546-38cff4ac0036","ios":"levelo://app?vid=33877885-a5ab-42c6-a546-38cff4ac0036"},"vehicle_type_id":"4","last_reported":1779478172,"current_range_meters":4800,"station_id":"ce4bgg92rcd13ifvqb30","pricing_plan_id":"cebpf4jnsgd1na2vs0mg"},{"bike_id":"6378b808-d994-4004-9991-97fbd05b2293","system_id":"levelo_inurba_marseille","lat":43.28401,"lon":5.37521,"is_reserved":false,"is_disabled":false,"rental_uris":{"android":"levelo://app?vid=6378b808-d994-4004-9991-97fbd05b2293","ios":"levelo://app?vid=6378b808-d994-4004-9991-97fbd05b2293"},"vehicle_type_id":"4","last_reported":1779478172,"current_range_meters":4800,"station_id":"ce4bh412rcd13ifvqds0","pricing_plan_id":"cebpf4jnsgd1na2vs0mg"},{"bike_id":"3e8f9d2c-bfaf-4c2f-b2b2-60b6ddd02a20","system_id":"levelo_inurba_marseille","lat":43.30133,"lon":5.38781,"is_reserved":false,"is_disabled":false,"rental_uris":{"android":"levelo://app?vid=3e8f9d2c-bfaf-4c2f-b2b2-60b6ddd02a20","ios":"levelo://app?vid=3e8f9d2c-bfaf-4c2f-b2b2-60b6ddd02a20"},"vehicle_type_id":"4","last_reported":1779478172,"current_range_meters":5600,"station_id":"ce4bghh2rcd13ifvqb60","pricing_plan_id":"cebpf4jnsgd1na2vs0mg"},{"bike_id":"58f08ebb-b0c6-47ad-85e5-88369ba3049c","system_id":"levelo_inurba_marseille","lat":43.25077,"lon":5.40365,"is_reserved":false,"is_disabled":true,"rental_uris":{"android":"levelo://app?vid=58f08ebb-b0c6-47ad-85e5-88369ba3049c","ios":"levelo://app?vid=58f08ebb-b0c6-47ad-85e5-88369ba3049c"},"vehicle_type_id":"4","last_reported":1779478172,"current_range_meters":5600,"station_id":"ce4bhlh2rcd13ifvqgig","pricing_plan_id":"cebpf4jnsgd1na2vs0mg"},{"bike_id":"dbb64609-0996-41ff-88a8-2d79d3b5bca3","system_id":"levelo_inurba_marseille","lat":43.29496,"lon":5.38546,"is_reserved":false,"is_disabled":false,"rental_uris":{"android":"levelo://app?vid=dbb64609-0996-41ff-88a8-2d79d3b5bca3","ios":"levelo://app?vid=dbb64609-0996-41ff-88a8-2d79d3b5bca3"},"vehicle_type_id":"4","last_reported":1779478172,"current_range_meters":5600,"station_id":"ce4bgih2rcd13ifvqba0","pricing_plan_id":"cebpf4jnsgd1na2vs0mg"},{"bike_id":"b7e0fa63-60b1-4ef3-814a-19fe58151f8d","system_id":"levelo_inurba_marseille","lat":43.24166,"lon":5.36388,"is_reserved":false,"is_disabled":false,"rental_uris":{"android":"levelo://app?vid=b7e0fa63-60b1-4ef3-814a-19fe58151f8d","ios":"levelo://app?vid=b7e0fa63-60b1-4ef3-814a-19fe58151f8d"},"vehicle_type_id":"4","last_reported":1779478172,"current_range_meters":5600,"station_id":"cpo36qri1sfpv3e86is0","pricing_plan_id":"cebpf4jnsgd1na2vs0mg"},{"bike_id":"ff3f5016-9aed-4859-ad06-83e503a3529a","system_id":"levelo_inurba_marseille","lat":43.30884,"lon":5.39657,"is_reserved":false,"is_disabled":false,"rental_uris":{"android":"levelo://app?vid=ff3f5016-9aed-4859-ad06-83e503a3529a","ios":"levelo://app?vid=ff3f5016-9aed-4859-ad06-83e503a3529a"},"vehicle_type_id":"4","last_reported":1779478172,"current_range_meters":5600,"station_id":"ce4bh012rcd13ifvqcv0","pricing_plan_id":"cebpf4jnsgd1na2vs0mg"},{"bike_id":"3200b978-002a-4bf0-9ea7-51cc9e75e711","system_id":"levelo_inurba_marseille","lat":43.27188,"lon":5.40967,"is_reserved":false,"is_disabled":false,"rental_uris":{"android":"levelo://app?vid=3200b978-002a-4bf0-9ea7-51cc9e75e711","ios":"levelo://app?vid=3200b978-002a-4bf0-9ea7-51cc9e75e711"},"vehicle_type_id":"4","last_reported":1779478172,"current_range_meters":5600,"station_id":"ce4bhl12rcd13ifvqgf0","pricing_plan_id":"cebpf4jnsgd1na2vs0mg"},{"bike_id":"010884ae-4f3a-4939-a2c5-58451e8b7c73","system_id":"levelo_inurba_marseille","lat":43.28876,"lon":5.42542,"is_reserved":false,"is_disabled":false,"rental_uris":{"android":"levelo://app?vid=010884ae-4f3a-4939-a2c5-58451e8b7c73","ios":"levelo://app?vid=010884ae-4f3a-4939-a2c5-58451e8b7c73"},"vehicle_type_id":"4","last_reported":1779478172,"current_range_meters":5600,"station_id":"st_d3b462108ojc7389ooeg","pricing_plan_id":"cebpf4jnsgd1na2vs0mg"},{"bike_id":"55ff971c-f753-4ef7-83e4-054f84d32949","system_id":"levelo_inurba_marseille","lat":43.29965,"lon":5.36631,"is_reserved":false,"is_disabled":true,"rental_uris":{"android":"levelo://app?vid=55ff971c-f753-4ef7-83e4-054f84d32949","ios":"levelo://app?vid=55ff971c-f753-4ef7-83e4-054f84d32949"},"vehicle_type_id":"4","last_reported":1779478172,"current_range_meters":5600,"station_id":"","pricing_plan_id":"cebpf4jnsgd1na2vs0mg"},{"bike_id":"ca8270b4-d39a-47bc-a5ba-46cea51aa1f5","system_id":"levelo_inurba_marseille","lat":43.28082,"lon":5.35282,"is_reserved":false,"is_disabled":false,"rental_uris":{"android":"levelo://app?vid=ca8270b4-d39a-47bc-a5ba-46cea51aa1f5","ios":"levelo://app?vid=ca8270b4-d39a-47bc-a5ba-46cea51aa1f5"},"vehicle_type_id":"4","last_reported":1779478172,"current_range_meters":5600,"station_id":"","pricing_plan_id":"cebpf4jnsgd1na2vs0mg"},{"bike_id":"a0789018-2c68-4a2f-8146-a8f2b8e4a119","system_id":"levelo_inurba_marseille","lat":43.27935,"lon":5.38729,"is_reserved":false,"is_disabled":true,"rental_uris":{"android":"levelo://app?vid=a0789018-2c68-4a2f-8146-a8f2b8e4a119","ios":"levelo://app?vid=a0789018-2c68-4a2f-8146-a8f2b8e4a119"},"vehicle_type_id":"4","last_reported":1779478172,"current_range_meters":5600,"station_id":"ce4bhg12rcd13ifvqf80","pricing_plan_id":"cebpf4jnsgd1na2vs0mg"},{"bike_id":"e786b313-4356-4a74-b6dc-374e1e4b0c67","system_id":"levelo_inurba_marseille","lat":43.27815,"lon":5.40706,"is_reserved":false,"is_disabled":false,"rental_uris":{"android":"levelo://app?vid=e786b313-4356-4a74-b6dc-374e1e4b0c67","ios":"levelo://app?vid=e786b313-4356-4a74-b6dc-374e1e4b0c67"},"vehicle_type_id":"4","last_reported":1779478172,"current_range_meters":5600,"station_id":"ce4bhnh2rcd13ifvqgtg","pricing_plan_id":"cebpf4jnsgd1na2vs0mg"},{"bike_id":"e1e8d0c5-7cff-4a52-a548-b6f5342738ad","system_id":"levelo_inurba_marseille","lat":43.31362,"lon":5.36687,"is_reserved":false,"is_disabled":false,"rental_uris":{"android":"levelo://app?vid=e1e8d0c5-7cff-4a52-a548-b6f5342738ad","ios":"levelo://app?vid=e1e8d0c5-7cff-4a52-a548-b6f5342738ad"},"vehicle_type_id":"4","last_reported":1779478172,"current_range_meters":5600,"station_id":"ce4bgr92rcd13ifvqc6g","pricing_plan_id":"cebpf4jnsgd1na2vs0mg"},{"bike_id":"ce1257fa-2ee4-4500-b86b-8956ada98213","system_id":"levelo_inurba_marseille","lat":43.30615,"lon":5.39287,"is_reserved":false,"is_disabled":true,"rental_uris":{"android":"levelo://app?vid=ce1257fa-2ee4-4500-b86b-8956ada98213","ios":"levelo://app?vid=ce1257fa-2ee4-4500-b86b-8956ada98213"},"vehicle_type_id":"4","last_reported":1779478172,"current_range_meters":5600,"station_id":"","pricing_plan_id":"cebpf4jnsgd1na2vs0mg"},{"bike_id":"419f8fd4-ee4b-475f-93f7-7c9d2fa71368","system_id":"levelo_inurba_marseille","lat":43.29531,"lon":5.38546,"is_reserved":false,"is_disabled":false,"rental_uris":{"android":"levelo://app?vid=419f8fd4-ee4b-475f-93f7-7c9d2fa71368","ios":"levelo://app?vid=419f8fd4-ee4b-475f-93f7-7c9d2fa71368"},"vehicle_type_id":"4","last_reported":1779478172,"current_range_meters":5600,"station_id":"ce4bgih2rcd13ifvqba0","pricing_plan_id":"cebpf4jnsgd1na2vs0mg"},{"bike_id":"ec5b297c-6c6f-46d7-af1b-87cfe632aa27","system_id":"levelo_inurba_marseille","lat":43.291982,"lon":5.358128,"is_reserved":false,"is_disabled":true,"rental_uris":{"android":"levelo://app?vid=ec5b297c-6c6f-46d7-af1b-87cfe632aa27","ios":"levelo://app?vid=ec5b297c-6c6f-46d7-af1b-87cfe632aa27"},"vehicle_type_id":"4","last_reported":1779478172,"current_range_meters":5600,"station_id":"ce4bhb12rcd13ifvqel0","pricing_plan_id":"cebpf4jnsgd1na2vs0mg"},{"bike_id":"9c5487b1-6c5e-436b-81d2-45c9e12dac00","system_id":"levelo_inurba_marseille","lat":43.28269,"lon":5.35066,"is_reserved":false,"is_disabled":false,"rental_uris":{"android":"levelo://app?vid=9c5487b1-6c5e-436b-81d2-45c9e12dac00","ios":"levelo://app?vid=9c5487b1-6c5e-436b-81d2-45c9e12dac00"},"vehicle_type_id":"4","last_reported":1779478172,"current_range_meters":5600,"station_id":"ce4bhbp2rcd13ifvqerg","pricing_plan_id":"cebpf4jnsgd1na2vs0mg"},{"bike_id":"078c4096-86db-4b8b-9f36-32ccbc603a15","system_id":"levelo_inurba_marseille","lat":43.29528,"lon":5.39036,"is_reserved":false,"is_disabled":false,"rental_uris":{"android":"levelo://app?vid=078c4096-86db-4b8b-9f36-32ccbc603a15","ios":"levelo://app?vid=078c4096-86db-4b8b-9f36-32ccbc603a15"},"vehicle_type_id":"4","last_reported":1779478172,"current_range_meters":5600,"station_id":"ce4bh3p2rcd13ifvqdp0","pricing_plan_id":"cebpf4jnsgd1na2vs0mg"},{"bike_id":"8e7d492e-68d9-4c3d-9774-ac3c0c3019e6","system_id":"levelo_inurba_marseille","lat":43.24562,"lon":5.39529,"is_reserved":false,"is_disabled":false,"rental_uris":{"android":"levelo://app?vid=8e7d492e-68d9-4c3d-9774-ac3c0c3019e6","ios":"levelo://app?vid=8e7d492e-68d9-4c3d-9774-ac3c0c3019e6"},"vehicle_type_id":"4","last_reported":1779478172,"current_range_meters":5600,"station_id":"ce4bhlp2rcd13ifvqgjg","pricing_plan_id":"cebpf4jnsgd1na2vs0mg"},{"bike_id":"103c3925-0fed-4670-8dde-c29c1ddbe606","system_id":"levelo_inurba_marseille","lat":43.246323,"lon":5.431301,"is_reserved":false,"is_disabled":false,"rental_uris":{"android":"levelo://app?vid=103c3925-0fed-4670-8dde-c29c1ddbe606","ios":"levelo://app?vid=103c3925-0fed-4670-8dde-c29c1ddbe606"},"vehicle_type_id":"4","last_reported":1779478172,"current_range_meters":5600,"station_id":"st_d2m6c4gdas8pm72e190g","pricing_plan_id":"cebpf4jnsgd1na2vs0mg"},{"bike_id":"875ff3ec-3d53-4289-87d8-004996e2dc85","system_id":"levelo_inurba_marseille","lat":43.292646,"lon":5.38435,"is_reserved":false,"is_disabled":false,"rental_uris":{"android":"levelo://app?vid=875ff3ec-3d53-4289-87d8-004996e2dc85","ios":"levelo://app?vid=875ff3ec-3d53-4289-87d8-004996e2dc85"},"vehicle_type_id":"4","last_reported":1779478172,"current_range_meters":5600,"station_id":"ce4bh692rcd13ifvqea0","pricing_plan_id":"cebpf4jnsgd1na2vs0mg"},{"bike_id":"c7352d91-a351-4741-9e2e-3bbeeac985d0","system_id":"levelo_inurba_marseille","lat":43.30733,"lon":5.42437,"is_reserved":false,"is_disabled":false,"rental_uris":{"android":"levelo://app?vid=c7352d91-a351-4741-9e2e-3bbeeac985d0","ios":"levelo://app?vid=c7352d91-a351-4741-9e2e-3bbeeac985d0"},"vehicle_type_id":"4","last_reported":1779478172,"current_range_meters":5600,"station_id":"st_cvj6ca6bvosntc0bfgr0","pricing_plan_id":"cebpf4jnsgd1na2vs0mg"},{"bike_id":"6151e9cf-ce86-4e9f-894d-a7a67562ed5e","system_id":"levelo_inurba_marseille","lat":43.23178,"lon":5.3999,"is_reserved":false,"is_disabled":false,"rental_uris":{"android":"levelo://app?vid=6151e9cf-ce86-4e9f-894d-a7a67562ed5e","ios":"levelo://app?vid=6151e9cf-ce86-4e9f-894d-a7a67562ed5e"},"vehicle_type_id":"4","last_reported":1779478172,"current_range_meters":5600,"station_id":"ce4bhn12rcd13ifvqgqg","pricing_plan_id":"cebpf4jnsgd1na2vs0mg"},{"bike_id":"88da0d63-d6e9-47cb-80d9-5ab1adc51fc6","system_id":"levelo_inurba_marseille","lat":43.2827,"lon":5.35064,"is_reserved":false,"is_disabled":false,"rental_uris":{"android":"levelo://app?vid=88da0d63-d6e9-47cb-80d9-5ab1adc51fc6","ios":"levelo://app?vid=88da0d63-d6e9-47cb-80d9-5ab1adc51fc6"},"vehicle_type_id":"4","last_reported":1779478172,"current_range_meters":6000,"station_id":"ce4bhbp2rcd13ifvqerg","pricing_plan_id":"cebpf4jnsgd1na2vs0mg"},{"bike_id":"b36f6250-7319-4924-8bcd-74f03836ee41","system_id":"levelo_inurba_marseille","lat":43.23937,"lon":5.36636,"is_reserved":false,"is_disabled":false,"rental_uris":{"android":"levelo://app?vid=b36f6250-7319-4924-8bcd-74f03836ee41","ios":"levelo://app?vid=b36f6250-7319-4924-8bcd-74f03836ee41"},"vehicle_type_id":"4","last_reported":1779478172,"current_range_meters":6000,"station_id":"ce4bhi12rcd13ifvqfp0","pricing_plan_id":"cebpf4jnsgd1na2vs0mg"},{"bike_id":"d6ef5181-9c65-4b14-a132-bd2560a893a3","system_id":"levelo_inurba_marseille","lat":43.25839,"lon":5.39438,"is_reserved":false,"is_disabled":false,"rental_uris":{"android":"levelo://app?vid=d6ef5181-9c65-4b14-a132-bd2560a893a3","ios":"levelo://app?vid=d6ef5181-9c65-4b14-a132-bd2560a893a3"},"vehicle_type_id":"4","last_reported":1779478172,"current_range_meters":6000,"station_id":"ce4bhip2rcd13ifvqft0","pricing_plan_id":"cebpf4jnsgd1na2vs0mg"},{"bike_id":"ea0ed1bd-e0bc-4d67-803d-65f9cf990f77","system_id":"levelo_inurba_marseille","lat":43.30937,"lon":5.39045,"is_reserved":false,"is_disabled":false,"rental_uris":{"android":"levelo://app?vid=ea0ed1bd-e0bc-4d67-803d-65f9cf990f77","ios":"levelo://app?vid=ea0ed1bd-e0bc-4d67-803d-65f9cf990f77"},"vehicle_type_id":"4","last_reported":1779478172,"current_range_meters":6000,"station_id":"ce4bgup2rcd13ifvqco0","pricing_plan_id":"cebpf4jnsgd1na2vs0mg"},{"bike_id":"2d09449d-df92-4d3e-9412-ea34f0e8afc0","system_id":"levelo_inurba_marseille","lat":43.29613,"lon":5.38539,"is_reserved":false,"is_disabled":false,"rental_uris":{"android":"levelo://app?vid=2d09449d-df92-4d3e-9412-ea34f0e8afc0","ios":"levelo://app?vid=2d09449d-df92-4d3e-9412-ea34f0e8afc0"},"vehicle_type_id":"4","last_reported":1779478172,"current_range_meters":6000,"station_id":"","pricing_plan_id":"cebpf4jnsgd1na2vs0mg"},{"bike_id":"af8563ac-7daa-4dd6-8ff1-c9409dd979f1","system_id":"levelo_inurba_marseille","lat":43.298691,"lon":5.397432,"is_reserved":false,"is_disabled":false,"rental_uris":{"android":"levelo://app?vid=af8563ac-7daa-4dd6-8ff1-c9409dd979f1","ios":"levelo://app?vid=af8563ac-7daa-4dd6-8ff1-c9409dd979f1"},"vehicle_type_id":"4","last_reported":1779478172,"current_range_meters":6000,"station_id":"ce4bh0h2rcd13ifvqd50","pricing_plan_id":"cebpf4jnsgd1na2vs0mg"},{"bike_id":"ca7bec4c-c9ce-4816-988f-528f79a7e440","system_id":"levelo_inurba_marseille","lat":43.32059,"lon":5.41564,"is_reserved":false,"is_disabled":false,"rental_uris":{"android":"levelo://app?vid=ca7bec4c-c9ce-4816-988f-528f79a7e440","ios":"levelo://app?vid=ca7bec4c-c9ce-4816-988f-528f79a7e440"},"vehicle_type_id":"4","last_reported":1779478172,"current_range_meters":6000,"station_id":"ce4bhq92rcd13ifvqhkg","pricing_plan_id":"cebpf4jnsgd1na2vs0mg"},{"bike_id":"96f42b6b-6441-4dab-b89d-94bd7ab6e703","system_id":"levelo_inurba_marseille","lat":43.28279,"lon":5.35082,"is_reserved":false,"is_disabled":false,"rental_uris":{"android":"levelo://app?vid=96f42b6b-6441-4dab-b89d-94bd7ab6e703","ios":"levelo://app?vid=96f42b6b-6441-4dab-b89d-94bd7ab6e703"},"vehicle_type_id":"4","last_reported":1779478172,"current_range_meters":6000,"station_id":"ce4bhbp2rcd13ifvqerg","pricing_plan_id":"cebpf4jnsgd1na2vs0mg"},{"bike_id":"aa71664e-fae7-4d97-8515-ddae352558ad","system_id":"levelo_inurba_marseille","lat":43.2929,"lon":5.401,"is_reserved":false,"is_disabled":true,"rental_uris":{"android":"levelo://app?vid=aa71664e-fae7-4d97-8515-ddae352558ad","ios":"levelo://app?vid=aa71664e-fae7-4d97-8515-ddae352558ad"},"vehicle_type_id":"4","last_reported":1779478172,"current_range_meters":6000,"station_id":"ce4bh312rcd13ifvqdk0","pricing_plan_id":"cebpf4jnsgd1na2vs0mg"},{"bike_id":"f387904c-d50f-45a2-ba9c-d68694636136","system_id":"levelo_inurba_marseille","lat":43.30946,"lon":5.39053,"is_reserved":false,"is_disabled":false,"rental_uris":{"android":"levelo://app?vid=f387904c-d50f-45a2-ba9c-d68694636136","ios":"levelo://app?vid=f387904c-d50f-45a2-ba9c-d68694636136"},"vehicle_type_id":"4","last_reported":1779478172,"current_range_meters":6000,"station_id":"ce4bgup2rcd13ifvqco0","pricing_plan_id":"cebpf4jnsgd1na2vs0mg"},{"bike_id":"843e51c5-e16f-4b79-aadc-becfcf0f79be","system_id":"levelo_inurba_marseille","lat":43.32331,"lon":5.36755,"is_reserved":false,"is_disabled":false,"rental_uris":{"android":"levelo://app?vid=843e51c5-e16f-4b79-aadc-becfcf0f79be","ios":"levelo://app?vid=843e51c5-e16f-4b79-aadc-becfcf0f79be"},"vehicle_type_id":"4","last_reported":1779478172,"current_range_meters":6000,"station_id":"ce4bhsh2rcd13ifvqi2g","pricing_plan_id":"cebpf4jnsgd1na2vs0mg"},{"bike_id":"0db8267b-0e02-4e40-9b69-4889ebb416f0","system_id":"levelo_inurba_marseille","lat":43.29563,"lon":5.37493,"is_reserved":false,"is_disabled":true,"rental_uris":{"android":"levelo://app?vid=0db8267b-0e02-4e40-9b69-4889ebb416f0","ios":"levelo://app?vid=0db8267b-0e02-4e40-9b69-4889ebb416f0"},"vehicle_type_id":"4","last_reported":1779478172,"current_range_meters":6000,"station_id":"ce4bgh92rcd13ifvqb50","pricing_plan_id":"cebpf4jnsgd1na2vs0mg"},{"bike_id":"4857e8ec-fd88-492a-bfe4-a15b23541e6f","system_id":"levelo_inurba_marseille","lat":43.29724,"lon":5.37277,"is_reserved":false,"is_disabled":false,"rental_uris":{"android":"levelo://app?vid=4857e8ec-fd88-492a-bfe4-a15b23541e6f","ios":"levelo://app?vid=4857e8ec-fd88-492a-bfe4-a15b23541e6f"},"vehicle_type_id":"4","last_reported":1779478172,"current_range_meters":6000,"station_id":"","pricing_plan_id":"cebpf4jnsgd1na2vs0mg"},{"bike_id":"72526a08-f6ff-46a9-9b10-91d396b96e2d","system_id":"levelo_inurba_marseille","lat":43.29626,"lon":5.36721,"is_reserved":false,"is_disabled":true,"rental_uris":{"android":"levelo://app?vid=72526a08-f6ff-46a9-9b10-91d396b96e2d","ios":"levelo://app?vid=72526a08-f6ff-46a9-9b10-91d396b96e2d"},"vehicle_type_id":"4","last_reported":1779478172,"current_range_meters":6000,"station_id":"ce4bgph2rcd13ifvqc2g","pricing_plan_id":"cebpf4jnsgd1na2vs0mg"},{"bike_id":"29f4756e-20ba-48af-83c2-b5be4ce60e4e","system_id":"levelo_inurba_marseille","lat":43.28431,"lon":5.34981,"is_reserved":false,"is_disabled":false,"rental_uris":{"android":"levelo://app?vid=29f4756e-20ba-48af-83c2-b5be4ce60e4e","ios":"levelo://app?vid=29f4756e-20ba-48af-83c2-b5be4ce60e4e"},"vehicle_type_id":"4","last_reported":1779478172,"current_range_meters":6000,"station_id":"ce4bhbh2rcd13ifvqepg","pricing_plan_id":"cebpf4jnsgd1na2vs0mg"},{"bike_id":"6ae6b289-622c-48b2-9751-488e7011ac94","system_id":"levelo_inurba_marseille","lat":43.29216,"lon":5.36076,"is_reserved":false,"is_disabled":false,"rental_uris":{"android":"levelo://app?vid=6ae6b289-622c-48b2-9751-488e7011ac94","ios":"levelo://app?vid=6ae6b289-622c-48b2-9751-488e7011ac94"},"vehicle_type_id":"4","last_reported":1779478172,"current_range_meters":6000,"station_id":"ce4bhbh2rcd13ifvqeqg","pricing_plan_id":"cebpf4jnsgd1na2vs0mg"},{"bike_id":"eb523846-fe8b-4dcb-80b4-2505f1980eaa","system_id":"levelo_inurba_marseille","lat":43.30245,"lon":5.40085,"is_reserved":false,"is_disabled":false,"rental_uris":{"android":"levelo://app?vid=eb523846-fe8b-4dcb-80b4-2505f1980eaa","ios":"levelo://app?vid=eb523846-fe8b-4dcb-80b4-2505f1980eaa"},"vehicle_type_id":"4","last_reported":1779478172,"current_range_meters":6000,"station_id":"ce4bgvh2rcd13ifvqcs0","pricing_plan_id":"cebpf4jnsgd1na2vs0mg"},{"bike_id":"125c4d5b-9f0c-4f70-b053-7773cea0e270","system_id":"levelo_inurba_marseille","lat":43.28141,"lon":5.43766,"is_reserved":false,"is_disabled":false,"rental_uris":{"android":"levelo://app?vid=125c4d5b-9f0c-4f70-b053-7773cea0e270","ios":"levelo://app?vid=125c4d5b-9f0c-4f70-b053-7773cea0e270"},"vehicle_type_id":"4","last_reported":1779478172,"current_range_meters":6000,"station_id":"","pricing_plan_id":"cebpf4jnsgd1na2vs0mg"},{"bike_id":"ae813e1c-f002-41c2-ab00-93a6ceca7521","system_id":"levelo_inurba_marseille","lat":43.30749,"lon":5.39254,"is_reserved":false,"is_disabled":false,"rental_uris":{"android":"levelo://app?vid=ae813e1c-f002-41c2-ab00-93a6ceca7521","ios":"levelo://app?vid=ae813e1c-f002-41c2-ab00-93a6ceca7521"},"vehicle_type_id":"4","last_reported":1779478172,"current_range_meters":6000,"station_id":"","pricing_plan_id":"cebpf4jnsgd1na2vs0mg"},{"bike_id":"a59e2711-f8aa-42a4-97d2-4c0a32cbbb0e","system_id":"levelo_inurba_marseille","lat":43.28413,"lon":5.34985,"is_reserved":false,"is_disabled":false,"rental_uris":{"android":"levelo://app?vid=a59e2711-f8aa-42a4-97d2-4c0a32cbbb0e","ios":"levelo://app?vid=a59e2711-f8aa-42a4-97d2-4c0a32cbbb0e"},"vehicle_type_id":"4","last_reported":1779478172,"current_range_meters":6000,"station_id":"ce4bhbh2rcd13ifvqepg","pricing_plan_id":"cebpf4jnsgd1na2vs0mg"},{"bike_id":"5eb47de2-6d0b-4d6a-b931-7c6d8bfe6b8f","system_id":"levelo_inurba_marseille","lat":43.26211,"lon":5.38642,"is_reserved":false,"is_disabled":false,"rental_uris":{"android":"levelo://app?vid=5eb47de2-6d0b-4d6a-b931-7c6d8bfe6b8f","ios":"levelo://app?vid=5eb47de2-6d0b-4d6a-b931-7c6d8bfe6b8f"},"vehicle_type_id":"4","last_reported":1779478172,"current_range_meters":6000,"station_id":"","pricing_plan_id":"cebpf4jnsgd1na2vs0mg"},{"bike_id":"3aa4650d-b7c8-4aa8-9109-03ce5752d06b","system_id":"levelo_inurba_marseille","lat":43.3013,"lon":5.38781,"is_reserved":false,"is_disabled":false,"rental_uris":{"android":"levelo://app?vid=3aa4650d-b7c8-4aa8-9109-03ce5752d06b","ios":"levelo://app?vid=3aa4650d-b7c8-4aa8-9109-03ce5752d06b"},"vehicle_type_id":"4","last_reported":1779478172,"current_range_meters":6400,"station_id":"ce4bghh2rcd13ifvqb60","pricing_plan_id":"cebpf4jnsgd1na2vs0mg"},{"bike_id":"20f52871-1aed-4877-a3a3-cb10650ae58f","system_id":"levelo_inurba_marseille","lat":43.28421,"lon":5.3499,"is_reserved":false,"is_disabled":false,"rental_uris":{"android":"levelo://app?vid=20f52871-1aed-4877-a3a3-cb10650ae58f","ios":"levelo://app?vid=20f52871-1aed-4877-a3a3-cb10650ae58f"},"vehicle_type_id":"4","last_reported":1779478172,"current_range_meters":6400,"station_id":"ce4bhbh2rcd13ifvqepg","pricing_plan_id":"cebpf4jnsgd1na2vs0mg"},{"bike_id":"5cd16571-7e0f-4f01-8cf6-d8caba7f9ec5","system_id":"levelo_inurba_marseille","lat":43.28849,"lon":5.35836,"is_reserved":false,"is_disabled":false,"rental_uris":{"android":"levelo://app?vid=5cd16571-7e0f-4f01-8cf6-d8caba7f9ec5","ios":"levelo://app?vid=5cd16571-7e0f-4f01-8cf6-d8caba7f9ec5"},"vehicle_type_id":"4","last_reported":1779478172,"current_range_meters":6400,"station_id":"ce4bhb12rcd13ifvqem0","pricing_plan_id":"cebpf4jnsgd1na2vs0mg"},{"bike_id":"a937fd21-c70f-4e0f-88f7-641ada6ab82c","system_id":"levelo_inurba_marseille","lat":43.26029,"lon":5.37542,"is_reserved":false,"is_disabled":true,"rental_uris":{"android":"levelo://app?vid=a937fd21-c70f-4e0f-88f7-641ada6ab82c","ios":"levelo://app?vid=a937fd21-c70f-4e0f-88f7-641ada6ab82c"},"vehicle_type_id":"4","last_reported":1779478172,"current_range_meters":6400,"station_id":"ce4bhgh2rcd13ifvqfa0","pricing_plan_id":"cebpf4jnsgd1na2vs0mg"},{"bike_id":"620f68a1-fedb-4466-88c1-a3b742a84bc0","system_id":"levelo_inurba_marseille","lat":43.29015,"lon":5.38625,"is_reserved":false,"is_disabled":false,"rental_uris":{"android":"levelo://app?vid=620f68a1-fedb-4466-88c1-a3b742a84bc0","ios":"levelo://app?vid=620f68a1-fedb-4466-88c1-a3b742a84bc0"},"vehicle_type_id":"4","last_reported":1779478172,"current_range_meters":6400,"station_id":"ce4bh4p2rcd13ifvqe0g","pricing_plan_id":"cebpf4jnsgd1na2vs0mg"},{"bike_id":"ffd53158-4574-470f-825a-07c56015133e","system_id":"levelo_inurba_marseille","lat":43.28608,"lon":5.39874,"is_reserved":false,"is_disabled":false,"rental_uris":{"android":"levelo://app?vid=ffd53158-4574-470f-825a-07c56015133e","ios":"levelo://app?vid=ffd53158-4574-470f-825a-07c56015133e"},"vehicle_type_id":"4","last_reported":1779478172,"current_range_meters":6400,"station_id":"st_d4a7ka997mjs738ck50g","pricing_plan_id":"cebpf4jnsgd1na2vs0mg"},{"bike_id":"e7d555aa-d43f-452f-a07f-4a685c3f4f3b","system_id":"levelo_inurba_marseille","lat":43.25871,"lon":5.39894,"is_reserved":false,"is_disabled":false,"rental_uris":{"android":"levelo://app?vid=e7d555aa-d43f-452f-a07f-4a685c3f4f3b","ios":"levelo://app?vid=e7d555aa-d43f-452f-a07f-4a685c3f4f3b"},"vehicle_type_id":"4","last_reported":1779478172,"current_range_meters":6400,"station_id":"ce4bhl92rcd13ifvqghg","pricing_plan_id":"cebpf4jnsgd1na2vs0mg"},{"bike_id":"9ababcea-6d2c-4b63-b274-5f3326cd3fee","system_id":"levelo_inurba_marseille","lat":43.25509,"lon":5.37651,"is_reserved":false,"is_disabled":false,"rental_uris":{"android":"levelo://app?vid=9ababcea-6d2c-4b63-b274-5f3326cd3fee","ios":"levelo://app?vid=9ababcea-6d2c-4b63-b274-5f3326cd3fee"},"vehicle_type_id":"4","last_reported":1779478172,"current_range_meters":6400,"station_id":"ce4bhh12rcd13ifvqff0","pricing_plan_id":"cebpf4jnsgd1na2vs0mg"},{"bike_id":"842bc819-110f-4368-b3ff-9e842854a1ed","system_id":"levelo_inurba_marseille","lat":43.24809,"lon":5.37459,"is_reserved":false,"is_disabled":false,"rental_uris":{"android":"levelo://app?vid=842bc819-110f-4368-b3ff-9e842854a1ed","ios":"levelo://app?vid=842bc819-110f-4368-b3ff-9e842854a1ed"},"vehicle_type_id":"4","last_reported":1779478172,"current_range_meters":6400,"station_id":"ce4bhgh2rcd13ifvqfb0","pricing_plan_id":"cebpf4jnsgd1na2vs0mg"},{"bike_id":"951e6bb8-e524-4196-9660-1f15028ab994","system_id":"levelo_inurba_marseille","lat":43.2886,"lon":5.42518,"is_reserved":false,"is_disabled":false,"rental_uris":{"android":"levelo://app?vid=951e6bb8-e524-4196-9660-1f15028ab994","ios":"levelo://app?vid=951e6bb8-e524-4196-9660-1f15028ab994"},"vehicle_type_id":"4","last_reported":1779478172,"current_range_meters":6400,"station_id":"st_d3b462108ojc7389ooeg","pricing_plan_id":"cebpf4jnsgd1na2vs0mg"},{"bike_id":"58e01963-9e1f-4d71-a1d3-f02c3ffa6a35","system_id":"levelo_inurba_marseille","lat":43.26545,"lon":5.3729,"is_reserved":false,"is_disabled":true,"rental_uris":{"android":"levelo://app?vid=58e01963-9e1f-4d71-a1d3-f02c3ffa6a35","ios":"levelo://app?vid=58e01963-9e1f-4d71-a1d3-f02c3ffa6a35"},"vehicle_type_id":"4","last_reported":1779478172,"current_range_meters":6400,"station_id":"ce4bhg12rcd13ifvqf70","pricing_plan_id":"cebpf4jnsgd1na2vs0mg"},{"bike_id":"a821a46f-2560-423c-9235-2c6ca27aa55b","system_id":"levelo_inurba_marseille","lat":43.28081,"lon":5.35661,"is_reserved":false,"is_disabled":false,"rental_uris":{"android":"levelo://app?vid=a821a46f-2560-423c-9235-2c6ca27aa55b","ios":"levelo://app?vid=a821a46f-2560-423c-9235-2c6ca27aa55b"},"vehicle_type_id":"4","last_reported":1779478172,"current_range_meters":6400,"station_id":"","pricing_plan_id":"cebpf4jnsgd1na2vs0mg"},{"bike_id":"10605502-92ee-48c7-946d-19178aa5282a","system_id":"levelo_inurba_marseille","lat":43.2737,"lon":5.36237,"is_reserved":false,"is_disabled":true,"rental_uris":{"android":"levelo://app?vid=10605502-92ee-48c7-946d-19178aa5282a","ios":"levelo://app?vid=10605502-92ee-48c7-946d-19178aa5282a"},"vehicle_type_id":"4","last_reported":1779478172,"current_range_meters":6400,"station_id":"ce4bhbh2rcd13ifvqeo0","pricing_plan_id":"cebpf4jnsgd1na2vs0mg"},{"bike_id":"3664d830-b1fb-4fe3-a1ac-c928bb4c1f90","system_id":"levelo_inurba_marseille","lat":43.291945,"lon":5.358011,"is_reserved":false,"is_disabled":false,"rental_uris":{"android":"levelo://app?vid=3664d830-b1fb-4fe3-a1ac-c928bb4c1f90","ios":"levelo://app?vid=3664d830-b1fb-4fe3-a1ac-c928bb4c1f90"},"vehicle_type_id":"4","last_reported":1779478172,"current_range_meters":6400,"station_id":"ce4bhb12rcd13ifvqel0","pricing_plan_id":"cebpf4jnsgd1na2vs0mg"},{"bike_id":"9ef554ef-ab7e-42e9-9754-c06dd828377a","system_id":"levelo_inurba_marseille","lat":43.29012,"lon":5.38627,"is_reserved":false,"is_disabled":false,"rental_uris":{"android":"levelo://app?vid=9ef554ef-ab7e-42e9-9754-c06dd828377a","ios":"levelo://app?vid=9ef554ef-ab7e-42e9-9754-c06dd828377a"},"vehicle_type_id":"4","last_reported":1779478172,"current_range_meters":6400,"station_id":"ce4bh4p2rcd13ifvqe0g","pricing_plan_id":"cebpf4jnsgd1na2vs0mg"},{"bike_id":"a48e9725-901e-43ad-9509-b3b3bd6891f5","system_id":"levelo_inurba_marseille","lat":43.29676,"lon":5.37294,"is_reserved":false,"is_disabled":false,"rental_uris":{"android":"levelo://app?vid=a48e9725-901e-43ad-9509-b3b3bd6891f5","ios":"levelo://app?vid=a48e9725-901e-43ad-9509-b3b3bd6891f5"},"vehicle_type_id":"4","last_reported":1779478172,"current_range_meters":6400,"station_id":"ce4bgk12rcd13ifvqbj0","pricing_plan_id":"cebpf4jnsgd1na2vs0mg"},{"bike_id":"c0673171-2c38-4ff5-a7c5-a9d55205f829","system_id":"levelo_inurba_marseille","lat":43.288687,"lon":5.425582,"is_reserved":false,"is_disabled":false,"rental_uris":{"android":"levelo://app?vid=c0673171-2c38-4ff5-a7c5-a9d55205f829","ios":"levelo://app?vid=c0673171-2c38-4ff5-a7c5-a9d55205f829"},"vehicle_type_id":"4","last_reported":1779478172,"current_range_meters":6400,"station_id":"","pricing_plan_id":"cebpf4jnsgd1na2vs0mg"},{"bike_id":"ad0ce0a0-b313-407e-b7d9-63b7147a0c85","system_id":"levelo_inurba_marseille","lat":43.2447,"lon":5.42529,"is_reserved":false,"is_disabled":false,"rental_uris":{"android":"levelo://app?vid=ad0ce0a0-b313-407e-b7d9-63b7147a0c85","ios":"levelo://app?vid=ad0ce0a0-b313-407e-b7d9-63b7147a0c85"},"vehicle_type_id":"4","last_reported":1779478172,"current_range_meters":6400,"station_id":"st_d4a3vfp97mjs738cd8kg","pricing_plan_id":"cebpf4jnsgd1na2vs0mg"},{"bike_id":"d89aab4f-9874-4fd6-8a64-ba02cf0591f6","system_id":"levelo_inurba_marseille","lat":43.28614,"lon":5.35095,"is_reserved":false,"is_disabled":false,"rental_uris":{"android":"levelo://app?vid=d89aab4f-9874-4fd6-8a64-ba02cf0591f6","ios":"levelo://app?vid=d89aab4f-9874-4fd6-8a64-ba02cf0591f6"},"vehicle_type_id":"4","last_reported":1779478172,"current_range_meters":6400,"station_id":"ce4bhch2rcd13ifvqeug","pricing_plan_id":"cebpf4jnsgd1na2vs0mg"},{"bike_id":"898345a5-015f-4e7c-abad-d69e931303cd","system_id":"levelo_inurba_marseille","lat":43.3064,"lon":5.36428,"is_reserved":false,"is_disabled":false,"rental_uris":{"android":"levelo://app?vid=898345a5-015f-4e7c-abad-d69e931303cd","ios":"levelo://app?vid=898345a5-015f-4e7c-abad-d69e931303cd"},"vehicle_type_id":"4","last_reported":1779478172,"current_range_meters":6400,"station_id":"","pricing_plan_id":"cebpf4jnsgd1na2vs0mg"},{"bike_id":"4441972b-7bcd-41ec-a161-75d1792b802d","system_id":"levelo_inurba_marseille","lat":43.30716,"lon":5.37721,"is_reserved":false,"is_disabled":true,"rental_uris":{"android":"levelo://app?vid=4441972b-7bcd-41ec-a161-75d1792b802d","ios":"levelo://app?vid=4441972b-7bcd-41ec-a161-75d1792b802d"},"vehicle_type_id":"4","last_reported":1779478172,"current_range_meters":6400,"station_id":"ce4bgv92rcd13ifvqcq0","pricing_plan_id":"cebpf4jnsgd1na2vs0mg"},{"bike_id":"23b9361c-eba5-4306-98b2-3eb1c0511004","system_id":"levelo_inurba_marseille","lat":43.24198,"lon":5.39721,"is_reserved":false,"is_disabled":false,"rental_uris":{"android":"levelo://app?vid=23b9361c-eba5-4306-98b2-3eb1c0511004","ios":"levelo://app?vid=23b9361c-eba5-4306-98b2-3eb1c0511004"},"vehicle_type_id":"4","last_reported":1779478172,"current_range_meters":6400,"station_id":"ce4bhn12rcd13ifvqgpg","pricing_plan_id":"cebpf4jnsgd1na2vs0mg"},{"bike_id":"3c55f59d-b1d8-4169-bf98-f220d4ec85bb","system_id":"levelo_inurba_marseille","lat":43.30946,"lon":5.39038,"is_reserved":false,"is_disabled":false,"rental_uris":{"android":"levelo://app?vid=3c55f59d-b1d8-4169-bf98-f220d4ec85bb","ios":"levelo://app?vid=3c55f59d-b1d8-4169-bf98-f220d4ec85bb"},"vehicle_type_id":"4","last_reported":1779478172,"current_range_meters":6400,"station_id":"ce4bgup2rcd13ifvqco0","pricing_plan_id":"cebpf4jnsgd1na2vs0mg"},{"bike_id":"8aea5956-f83b-4fbb-9f17-aa8c2cd0f4e7","system_id":"levelo_inurba_marseille","lat":43.28671,"lon":5.38657,"is_reserved":false,"is_disabled":false,"rental_uris":{"android":"levelo://app?vid=8aea5956-f83b-4fbb-9f17-aa8c2cd0f4e7","ios":"levelo://app?vid=8aea5956-f83b-4fbb-9f17-aa8c2cd0f4e7"},"vehicle_type_id":"4","last_reported":1779478172,"current_range_meters":6400,"station_id":"ce4bh492rcd13ifvqdug","pricing_plan_id":"cebpf4jnsgd1na2vs0mg"},{"bike_id":"9344265d-ff03-45ef-9121-0085bc1a43ad","system_id":"levelo_inurba_marseille","lat":43.28431,"lon":5.37512,"is_reserved":false,"is_disabled":true,"rental_uris":{"android":"levelo://app?vid=9344265d-ff03-45ef-9121-0085bc1a43ad","ios":"levelo://app?vid=9344265d-ff03-45ef-9121-0085bc1a43ad"},"vehicle_type_id":"4","last_reported":1779478172,"current_range_meters":6400,"station_id":"ce4bh412rcd13ifvqds0","pricing_plan_id":"cebpf4jnsgd1na2vs0mg"},{"bike_id":"3f30ce56-c01f-40ac-b044-fd61c64c18a6","system_id":"levelo_inurba_marseille","lat":43.29867,"lon":5.39733,"is_reserved":false,"is_disabled":false,"rental_uris":{"android":"levelo://app?vid=3f30ce56-c01f-40ac-b044-fd61c64c18a6","ios":"levelo://app?vid=3f30ce56-c01f-40ac-b044-fd61c64c18a6"},"vehicle_type_id":"4","last_reported":1779478172,"current_range_meters":6400,"station_id":"ce4bh0h2rcd13ifvqd50","pricing_plan_id":"cebpf4jnsgd1na2vs0mg"},{"bike_id":"605d5b4b-57cd-487c-8ef4-fd3dea3ad8e0","system_id":"levelo_inurba_marseille","lat":43.29942,"lon":5.3655,"is_reserved":false,"is_disabled":false,"rental_uris":{"android":"levelo://app?vid=605d5b4b-57cd-487c-8ef4-fd3dea3ad8e0","ios":"levelo://app?vid=605d5b4b-57cd-487c-8ef4-fd3dea3ad8e0"},"vehicle_type_id":"4","last_reported":1779478172,"current_range_meters":6400,"station_id":"ce4bgm92rcd13ifvqbr0","pricing_plan_id":"cebpf4jnsgd1na2vs0mg"},{"bike_id":"d73d43ed-daf3-4afa-9ebb-d44638da0b02","system_id":"levelo_inurba_marseille","lat":43.28851,"lon":5.35862,"is_reserved":false,"is_disabled":false,"rental_uris":{"android":"levelo://app?vid=d73d43ed-daf3-4afa-9ebb-d44638da0b02","ios":"levelo://app?vid=d73d43ed-daf3-4afa-9ebb-d44638da0b02"},"vehicle_type_id":"4","last_reported":1779478172,"current_range_meters":6400,"station_id":"ce4bhb12rcd13ifvqem0","pricing_plan_id":"cebpf4jnsgd1na2vs0mg"},{"bike_id":"92f55a06-09e7-490e-aef6-78292570638c","system_id":"levelo_inurba_marseille","lat":43.23067,"lon":5.35491,"is_reserved":false,"is_disabled":false,"rental_uris":{"android":"levelo://app?vid=92f55a06-09e7-490e-aef6-78292570638c","ios":"levelo://app?vid=92f55a06-09e7-490e-aef6-78292570638c"},"vehicle_type_id":"4","last_reported":1779478172,"current_range_meters":6800,"station_id":"cpo3342slgdg3j2ifvpg","pricing_plan_id":"cebpf4jnsgd1na2vs0mg"},{"bike_id":"a54270e7-ae4d-43a8-a3da-f8a8a482945d","system_id":"levelo_inurba_marseille","lat":43.28842,"lon":5.35848,"is_reserved":false,"is_disabled":false,"rental_uris":{"android":"levelo://app?vid=a54270e7-ae4d-43a8-a3da-f8a8a482945d","ios":"levelo://app?vid=a54270e7-ae4d-43a8-a3da-f8a8a482945d"},"vehicle_type_id":"4","last_reported":1779478172,"current_range_meters":6800,"station_id":"ce4bhb12rcd13ifvqem0","pricing_plan_id":"cebpf4jnsgd1na2vs0mg"},{"bike_id":"0ebd8f06-dab0-44bf-94cf-d6d99aba450f","system_id":"levelo_inurba_marseille","lat":43.30534,"lon":5.36516,"is_reserved":false,"is_disabled":false,"rental_uris":{"android":"levelo://app?vid=0ebd8f06-dab0-44bf-94cf-d6d99aba450f","ios":"levelo://app?vid=0ebd8f06-dab0-44bf-94cf-d6d99aba450f"},"vehicle_type_id":"4","last_reported":1779478172,"current_range_meters":6800,"station_id":"ce4bgs12rcd13ifvqcag","pricing_plan_id":"cebpf4jnsgd1na2vs0mg"},{"bike_id":"69e6d9de-fc63-4a43-b2a5-c583a9746f0e","system_id":"levelo_inurba_marseille","lat":43.28026,"lon":5.36936,"is_reserved":false,"is_disabled":true,"rental_uris":{"android":"levelo://app?vid=69e6d9de-fc63-4a43-b2a5-c583a9746f0e","ios":"levelo://app?vid=69e6d9de-fc63-4a43-b2a5-c583a9746f0e"},"vehicle_type_id":"4","last_reported":1779478172,"current_range_meters":6800,"station_id":"ce4bha12rcd13ifvqef0","pricing_plan_id":"cebpf4jnsgd1na2vs0mg"},{"bike_id":"d827e303-aea2-4311-8dc0-b4274f2eb69c","system_id":"levelo_inurba_marseille","lat":43.28854,"lon":5.42438,"is_reserved":false,"is_disabled":false,"rental_uris":{"android":"levelo://app?vid=d827e303-aea2-4311-8dc0-b4274f2eb69c","ios":"levelo://app?vid=d827e303-aea2-4311-8dc0-b4274f2eb69c"},"vehicle_type_id":"4","last_reported":1779478172,"current_range_meters":6800,"station_id":"","pricing_plan_id":"cebpf4jnsgd1na2vs0mg"},{"bike_id":"bd328f95-4a63-423b-91bb-97d7fb6befec","system_id":"levelo_inurba_marseille","lat":43.290317,"lon":5.424353,"is_reserved":false,"is_disabled":false,"rental_uris":{"android":"levelo://app?vid=bd328f95-4a63-423b-91bb-97d7fb6befec","ios":"levelo://app?vid=bd328f95-4a63-423b-91bb-97d7fb6befec"},"vehicle_type_id":"4","last_reported":1779478172,"current_range_meters":6800,"station_id":"","pricing_plan_id":"cebpf4jnsgd1na2vs0mg"},{"bike_id":"a178688d-fd28-46a3-9742-20e9e3d623fd","system_id":"levelo_inurba_marseille","lat":43.29782,"lon":5.3809,"is_reserved":false,"is_disabled":false,"rental_uris":{"android":"levelo://app?vid=a178688d-fd28-46a3-9742-20e9e3d623fd","ios":"levelo://app?vid=a178688d-fd28-46a3-9742-20e9e3d623fd"},"vehicle_type_id":"4","last_reported":1779478172,"current_range_meters":6800,"station_id":"ce4bgip2rcd13ifvqbb0","pricing_plan_id":"cebpf4jnsgd1na2vs0mg"},{"bike_id":"67fd4f56-d6e3-41be-8298-e0a75fdcdf70","system_id":"levelo_inurba_marseille","lat":43.29744,"lon":5.37669,"is_reserved":false,"is_disabled":true,"rental_uris":{"android":"levelo://app?vid=67fd4f56-d6e3-41be-8298-e0a75fdcdf70","ios":"levelo://app?vid=67fd4f56-d6e3-41be-8298-e0a75fdcdf70"},"vehicle_type_id":"4","last_reported":1779478172,"current_range_meters":6800,"station_id":"ce4bgkh2rcd13ifvqbl0","pricing_plan_id":"cebpf4jnsgd1na2vs0mg"},{"bike_id":"f4c0b23e-43a3-4715-8696-99bddc13e830","system_id":"levelo_inurba_marseille","lat":43.30808,"lon":5.44608,"is_reserved":false,"is_disabled":false,"rental_uris":{"android":"levelo://app?vid=f4c0b23e-43a3-4715-8696-99bddc13e830","ios":"levelo://app?vid=f4c0b23e-43a3-4715-8696-99bddc13e830"},"vehicle_type_id":"4","last_reported":1779478172,"current_range_meters":6800,"station_id":"","pricing_plan_id":"cebpf4jnsgd1na2vs0mg"},{"bike_id":"e5765682-87e3-4649-97f1-cbe838483508","system_id":"levelo_inurba_marseille","lat":43.32104,"lon":5.36796,"is_reserved":false,"is_disabled":false,"rental_uris":{"android":"levelo://app?vid=e5765682-87e3-4649-97f1-cbe838483508","ios":"levelo://app?vid=e5765682-87e3-4649-97f1-cbe838483508"},"vehicle_type_id":"4","last_reported":1779478172,"current_range_meters":6800,"station_id":"ce4bhrh2rcd13ifvqhug","pricing_plan_id":"cebpf4jnsgd1na2vs0mg"},{"bike_id":"93c2aab6-05d8-431c-9e9e-ff77cc252e3f","system_id":"levelo_inurba_marseille","lat":43.28412,"lon":5.37507,"is_reserved":false,"is_disabled":false,"rental_uris":{"android":"levelo://app?vid=93c2aab6-05d8-431c-9e9e-ff77cc252e3f","ios":"levelo://app?vid=93c2aab6-05d8-431c-9e9e-ff77cc252e3f"},"vehicle_type_id":"4","last_reported":1779478172,"current_range_meters":6800,"station_id":"ce4bh412rcd13ifvqds0","pricing_plan_id":"cebpf4jnsgd1na2vs0mg"},{"bike_id":"3fc5db4c-8882-4542-9143-e410336afdd0","system_id":"levelo_inurba_marseille","lat":43.284614,"lon":5.35882,"is_reserved":false,"is_disabled":false,"rental_uris":{"android":"levelo://app?vid=3fc5db4c-8882-4542-9143-e410336afdd0","ios":"levelo://app?vid=3fc5db4c-8882-4542-9143-e410336afdd0"},"vehicle_type_id":"4","last_reported":1779478172,"current_range_meters":6800,"station_id":"ce4bhah2rcd13ifvqei0","pricing_plan_id":"cebpf4jnsgd1na2vs0mg"},{"bike_id":"7816563c-9631-4d35-a020-dda58ed96e8f","system_id":"levelo_inurba_marseille","lat":43.23203,"lon":5.35545,"is_reserved":false,"is_disabled":true,"rental_uris":{"android":"levelo://app?vid=7816563c-9631-4d35-a020-dda58ed96e8f","ios":"levelo://app?vid=7816563c-9631-4d35-a020-dda58ed96e8f"},"vehicle_type_id":"4","last_reported":1779478172,"current_range_meters":6800,"station_id":"ce4bhu92rcd13ifvqi70","pricing_plan_id":"cebpf4jnsgd1na2vs0mg"},{"bike_id":"a06e9d5d-6bcb-4fc7-b6c7-23dbf200556d","system_id":"levelo_inurba_marseille","lat":43.3292,"lon":5.37635,"is_reserved":false,"is_disabled":false,"rental_uris":{"android":"levelo://app?vid=a06e9d5d-6bcb-4fc7-b6c7-23dbf200556d","ios":"levelo://app?vid=a06e9d5d-6bcb-4fc7-b6c7-23dbf200556d"},"vehicle_type_id":"4","last_reported":1779478172,"current_range_meters":6800,"station_id":"","pricing_plan_id":"cebpf4jnsgd1na2vs0mg"},{"bike_id":"1b107236-5c99-4d3e-b827-c2ab64321487","system_id":"levelo_inurba_marseille","lat":43.27171,"lon":5.40975,"is_reserved":false,"is_disabled":false,"rental_uris":{"android":"levelo://app?vid=1b107236-5c99-4d3e-b827-c2ab64321487","ios":"levelo://app?vid=1b107236-5c99-4d3e-b827-c2ab64321487"},"vehicle_type_id":"4","last_reported":1779478172,"current_range_meters":6800,"station_id":"ce4bhl12rcd13ifvqgf0","pricing_plan_id":"cebpf4jnsgd1na2vs0mg"},{"bike_id":"6a94ba67-44c6-4208-b305-a9f0a5c4db3e","system_id":"levelo_inurba_marseille","lat":43.22562,"lon":5.41622,"is_reserved":false,"is_disabled":false,"rental_uris":{"android":"levelo://app?vid=6a94ba67-44c6-4208-b305-a9f0a5c4db3e","ios":"levelo://app?vid=6a94ba67-44c6-4208-b305-a9f0a5c4db3e"},"vehicle_type_id":"4","last_reported":1779478172,"current_range_meters":6800,"station_id":"st_d2o4gvlbi1j2169b742g","pricing_plan_id":"cebpf4jnsgd1na2vs0mg"},{"bike_id":"29f177f7-be7f-4da8-8bcc-664e10bce6bf","system_id":"levelo_inurba_marseille","lat":43.28506,"lon":5.44119,"is_reserved":false,"is_disabled":false,"rental_uris":{"android":"levelo://app?vid=29f177f7-be7f-4da8-8bcc-664e10bce6bf","ios":"levelo://app?vid=29f177f7-be7f-4da8-8bcc-664e10bce6bf"},"vehicle_type_id":"4","last_reported":1779478172,"current_range_meters":6800,"station_id":"st_d3j3df2ikq2c7380ej80","pricing_plan_id":"cebpf4jnsgd1na2vs0mg"},{"bike_id":"8e5683c2-4140-4ca4-b466-7b671c6130d0","system_id":"levelo_inurba_marseille","lat":43.29458,"lon":5.38059,"is_reserved":false,"is_disabled":false,"rental_uris":{"android":"levelo://app?vid=8e5683c2-4140-4ca4-b466-7b671c6130d0","ios":"levelo://app?vid=8e5683c2-4140-4ca4-b466-7b671c6130d0"},"vehicle_type_id":"4","last_reported":1779478172,"current_range_meters":6800,"station_id":"","pricing_plan_id":"cebpf4jnsgd1na2vs0mg"},{"bike_id":"a4b48df2-dcb8-4fe8-a276-d28f3cfa3d56","system_id":"levelo_inurba_marseille","lat":43.26211,"lon":5.37461,"is_reserved":false,"is_disabled":false,"rental_uris":{"android":"levelo://app?vid=a4b48df2-dcb8-4fe8-a276-d28f3cfa3d56","ios":"levelo://app?vid=a4b48df2-dcb8-4fe8-a276-d28f3cfa3d56"},"vehicle_type_id":"4","last_reported":1779478172,"current_range_meters":6800,"station_id":"ce4bhgp2rcd13ifvqfc0","pricing_plan_id":"cebpf4jnsgd1na2vs0mg"},{"bike_id":"eda52123-a359-40d9-a557-49ee42d8840e","system_id":"levelo_inurba_marseille","lat":43.27461,"lon":5.41621,"is_reserved":false,"is_disabled":false,"rental_uris":{"android":"levelo://app?vid=eda52123-a359-40d9-a557-49ee42d8840e","ios":"levelo://app?vid=eda52123-a359-40d9-a557-49ee42d8840e"},"vehicle_type_id":"4","last_reported":1779478172,"current_range_meters":6800,"station_id":"st_d6im8g6chgec73a5pndg","pricing_plan_id":"cebpf4jnsgd1na2vs0mg"},{"bike_id":"c8586636-834e-4845-92bc-42a54d2ff104","system_id":"levelo_inurba_marseille","lat":43.28387,"lon":5.34989,"is_reserved":false,"is_disabled":false,"rental_uris":{"android":"levelo://app?vid=c8586636-834e-4845-92bc-42a54d2ff104","ios":"levelo://app?vid=c8586636-834e-4845-92bc-42a54d2ff104"},"vehicle_type_id":"4","last_reported":1779478172,"current_range_meters":6800,"station_id":"ce4bhbh2rcd13ifvqepg","pricing_plan_id":"cebpf4jnsgd1na2vs0mg"},{"bike_id":"9fb74047-56c4-40a2-a30a-c2d7f57a9404","system_id":"levelo_inurba_marseille","lat":43.31245,"lon":5.36901,"is_reserved":false,"is_disabled":false,"rental_uris":{"android":"levelo://app?vid=9fb74047-56c4-40a2-a30a-c2d7f57a9404","ios":"levelo://app?vid=9fb74047-56c4-40a2-a30a-c2d7f57a9404"},"vehicle_type_id":"4","last_reported":1779478172,"current_range_meters":7200,"station_id":"ce4bgl92rcd13ifvqbq0","pricing_plan_id":"cebpf4jnsgd1na2vs0mg"},{"bike_id":"d585e531-3cdf-41d2-b8b1-7ec9a069f3f8","system_id":"levelo_inurba_marseille","lat":43.28353,"lon":5.38115,"is_reserved":false,"is_disabled":false,"rental_uris":{"android":"levelo://app?vid=d585e531-3cdf-41d2-b8b1-7ec9a069f3f8","ios":"levelo://app?vid=d585e531-3cdf-41d2-b8b1-7ec9a069f3f8"},"vehicle_type_id":"4","last_reported":1779478172,"current_range_meters":7200,"station_id":"ce4bh412rcd13ifvqdr0","pricing_plan_id":"cebpf4jnsgd1na2vs0mg"},{"bike_id":"343fc0b1-fe09-4248-9555-651c3428c51c","system_id":"levelo_inurba_marseille","lat":43.26891,"lon":5.40201,"is_reserved":false,"is_disabled":false,"rental_uris":{"android":"levelo://app?vid=343fc0b1-fe09-4248-9555-651c3428c51c","ios":"levelo://app?vid=343fc0b1-fe09-4248-9555-651c3428c51c"},"vehicle_type_id":"4","last_reported":1779478172,"current_range_meters":7200,"station_id":"cjm6bp8fraef2m0cb0m0","pricing_plan_id":"cebpf4jnsgd1na2vs0mg"},{"bike_id":"c99cee5d-126d-4dd5-9087-604338168bd9","system_id":"levelo_inurba_marseille","lat":43.29525,"lon":5.39023,"is_reserved":false,"is_disabled":false,"rental_uris":{"android":"levelo://app?vid=c99cee5d-126d-4dd5-9087-604338168bd9","ios":"levelo://app?vid=c99cee5d-126d-4dd5-9087-604338168bd9"},"vehicle_type_id":"4","last_reported":1779478172,"current_range_meters":7200,"station_id":"ce4bh3p2rcd13ifvqdp0","pricing_plan_id":"cebpf4jnsgd1na2vs0mg"},{"bike_id":"92a5d274-31fe-4272-a3cb-5e1c3b848c93","system_id":"levelo_inurba_marseille","lat":43.28268,"lon":5.35062,"is_reserved":false,"is_disabled":true,"rental_uris":{"android":"levelo://app?vid=92a5d274-31fe-4272-a3cb-5e1c3b848c93","ios":"levelo://app?vid=92a5d274-31fe-4272-a3cb-5e1c3b848c93"},"vehicle_type_id":"4","last_reported":1779478172,"current_range_meters":7200,"station_id":"ce4bhbp2rcd13ifvqerg","pricing_plan_id":"cebpf4jnsgd1na2vs0mg"},{"bike_id":"a1805e6f-c662-4e61-bfbd-8752c6a0a421","system_id":"levelo_inurba_marseille","lat":43.28422,"lon":5.34991,"is_reserved":false,"is_disabled":false,"rental_uris":{"android":"levelo://app?vid=a1805e6f-c662-4e61-bfbd-8752c6a0a421","ios":"levelo://app?vid=a1805e6f-c662-4e61-bfbd-8752c6a0a421"},"vehicle_type_id":"4","last_reported":1779478172,"current_range_meters":7200,"station_id":"ce4bhbh2rcd13ifvqepg","pricing_plan_id":"cebpf4jnsgd1na2vs0mg"},{"bike_id":"f90ee025-9270-4421-a34e-0e24a2722a27","system_id":"levelo_inurba_marseille","lat":43.29056,"lon":5.42412,"is_reserved":false,"is_disabled":false,"rental_uris":{"android":"levelo://app?vid=f90ee025-9270-4421-a34e-0e24a2722a27","ios":"levelo://app?vid=f90ee025-9270-4421-a34e-0e24a2722a27"},"vehicle_type_id":"4","last_reported":1779478172,"current_range_meters":7200,"station_id":"","pricing_plan_id":"cebpf4jnsgd1na2vs0mg"},{"bike_id":"33fd2c4d-0195-4fe3-9b07-cb7d63fcd224","system_id":"levelo_inurba_marseille","lat":43.25377,"lon":5.42141,"is_reserved":false,"is_disabled":false,"rental_uris":{"android":"levelo://app?vid=33fd2c4d-0195-4fe3-9b07-cb7d63fcd224","ios":"levelo://app?vid=33fd2c4d-0195-4fe3-9b07-cb7d63fcd224"},"vehicle_type_id":"4","last_reported":1779478172,"current_range_meters":7200,"station_id":"st_d2m65c5bi1j21697t3ng","pricing_plan_id":"cebpf4jnsgd1na2vs0mg"},{"bike_id":"f143917a-38c4-4b36-b7b6-1eae9b137d00","system_id":"levelo_inurba_marseille","lat":43.2948,"lon":5.43309,"is_reserved":false,"is_disabled":false,"rental_uris":{"android":"levelo://app?vid=f143917a-38c4-4b36-b7b6-1eae9b137d00","ios":"levelo://app?vid=f143917a-38c4-4b36-b7b6-1eae9b137d00"},"vehicle_type_id":"4","last_reported":1779478172,"current_range_meters":7200,"station_id":"st_d3j5ugp08ojc73fj9d10","pricing_plan_id":"cebpf4jnsgd1na2vs0mg"},{"bike_id":"8ad32778-1b2a-4573-947d-009db49cc73e","system_id":"levelo_inurba_marseille","lat":43.29605,"lon":5.38105,"is_reserved":false,"is_disabled":false,"rental_uris":{"android":"levelo://app?vid=8ad32778-1b2a-4573-947d-009db49cc73e","ios":"levelo://app?vid=8ad32778-1b2a-4573-947d-009db49cc73e"},"vehicle_type_id":"4","last_reported":1779478172,"current_range_meters":7200,"station_id":"ce4bgl12rcd13ifvqbo0","pricing_plan_id":"cebpf4jnsgd1na2vs0mg"},{"bike_id":"21365cae-86d6-4d77-a777-80caf46a8b04","system_id":"levelo_inurba_marseille","lat":43.33767,"lon":5.37487,"is_reserved":false,"is_disabled":false,"rental_uris":{"android":"levelo://app?vid=21365cae-86d6-4d77-a777-80caf46a8b04","ios":"levelo://app?vid=21365cae-86d6-4d77-a777-80caf46a8b04"},"vehicle_type_id":"4","last_reported":1779478172,"current_range_meters":7200,"station_id":"st_d46tts09ee8s73dlu43g","pricing_plan_id":"cebpf4jnsgd1na2vs0mg"},{"bike_id":"9230d5b4-0891-4239-93b1-c918870fbe57","system_id":"levelo_inurba_marseille","lat":43.259,"lon":5.39958,"is_reserved":false,"is_disabled":false,"rental_uris":{"android":"levelo://app?vid=9230d5b4-0891-4239-93b1-c918870fbe57","ios":"levelo://app?vid=9230d5b4-0891-4239-93b1-c918870fbe57"},"vehicle_type_id":"4","last_reported":1779478172,"current_range_meters":7200,"station_id":"","pricing_plan_id":"cebpf4jnsgd1na2vs0mg"},{"bike_id":"f05a466d-56f9-48bb-8529-8c1ee70481cd","system_id":"levelo_inurba_marseille","lat":43.28625,"lon":5.35104,"is_reserved":false,"is_disabled":false,"rental_uris":{"android":"levelo://app?vid=f05a466d-56f9-48bb-8529-8c1ee70481cd","ios":"levelo://app?vid=f05a466d-56f9-48bb-8529-8c1ee70481cd"},"vehicle_type_id":"4","last_reported":1779478172,"current_range_meters":7200,"station_id":"ce4bhch2rcd13ifvqeug","pricing_plan_id":"cebpf4jnsgd1na2vs0mg"},{"bike_id":"dbfe84b8-e710-4503-9c42-358b3fa7c34c","system_id":"levelo_inurba_marseille","lat":43.24681,"lon":5.38148,"is_reserved":false,"is_disabled":false,"rental_uris":{"android":"levelo://app?vid=dbfe84b8-e710-4503-9c42-358b3fa7c34c","ios":"levelo://app?vid=dbfe84b8-e710-4503-9c42-358b3fa7c34c"},"vehicle_type_id":"4","last_reported":1779478172,"current_range_meters":7200,"station_id":"ce4bhih2rcd13ifvqfr0","pricing_plan_id":"cebpf4jnsgd1na2vs0mg"},{"bike_id":"f9c77ea9-3c1d-47ea-8c58-07218dbfafd9","system_id":"levelo_inurba_marseille","lat":43.29377,"lon":5.37837,"is_reserved":false,"is_disabled":false,"rental_uris":{"android":"levelo://app?vid=f9c77ea9-3c1d-47ea-8c58-07218dbfafd9","ios":"levelo://app?vid=f9c77ea9-3c1d-47ea-8c58-07218dbfafd9"},"vehicle_type_id":"4","last_reported":1779478172,"current_range_meters":7200,"station_id":"ce4bgjh2rcd13ifvqbf0","pricing_plan_id":"cebpf4jnsgd1na2vs0mg"},{"bike_id":"999d3ebd-e3d7-4530-b990-3ec06b375240","system_id":"levelo_inurba_marseille","lat":43.28098,"lon":5.37837,"is_reserved":false,"is_disabled":true,"rental_uris":{"android":"levelo://app?vid=999d3ebd-e3d7-4530-b990-3ec06b375240","ios":"levelo://app?vid=999d3ebd-e3d7-4530-b990-3ec06b375240"},"vehicle_type_id":"4","last_reported":1779478172,"current_range_meters":7200,"station_id":"ce4bha12rcd13ifvqee0","pricing_plan_id":"cebpf4jnsgd1na2vs0mg"},{"bike_id":"914222e8-1582-493d-bc5d-5e54317c3211","system_id":"levelo_inurba_marseille","lat":43.29778,"lon":5.39346,"is_reserved":false,"is_disabled":false,"rental_uris":{"android":"levelo://app?vid=914222e8-1582-493d-bc5d-5e54317c3211","ios":"levelo://app?vid=914222e8-1582-493d-bc5d-5e54317c3211"},"vehicle_type_id":"4","last_reported":1779478172,"current_range_meters":7200,"station_id":"chh1huq6cuj3fo74tm60","pricing_plan_id":"cebpf4jnsgd1na2vs0mg"},{"bike_id":"24a562cd-8f38-4994-922f-4b4ae6ed58c3","system_id":"levelo_inurba_marseille","lat":43.313314,"lon":5.396904,"is_reserved":false,"is_disabled":false,"rental_uris":{"android":"levelo://app?vid=24a562cd-8f38-4994-922f-4b4ae6ed58c3","ios":"levelo://app?vid=24a562cd-8f38-4994-922f-4b4ae6ed58c3"},"vehicle_type_id":"4","last_reported":1779478172,"current_range_meters":7200,"station_id":"ce4bgvp2rcd13ifvqcu0","pricing_plan_id":"cebpf4jnsgd1na2vs0mg"},{"bike_id":"b99b5ee2-febd-4e20-933c-a406b26fc217","system_id":"levelo_inurba_marseille","lat":43.29034,"lon":5.3864,"is_reserved":false,"is_disabled":false,"rental_uris":{"android":"levelo://app?vid=b99b5ee2-febd-4e20-933c-a406b26fc217","ios":"levelo://app?vid=b99b5ee2-febd-4e20-933c-a406b26fc217"},"vehicle_type_id":"4","last_reported":1779478172,"current_range_meters":7200,"station_id":"ce4bh4p2rcd13ifvqe0g","pricing_plan_id":"cebpf4jnsgd1na2vs0mg"},{"bike_id":"05b28374-b5f6-48af-89da-787cf161fe81","system_id":"levelo_inurba_marseille","lat":43.27189,"lon":5.39207,"is_reserved":false,"is_disabled":false,"rental_uris":{"android":"levelo://app?vid=05b28374-b5f6-48af-89da-787cf161fe81","ios":"levelo://app?vid=05b28374-b5f6-48af-89da-787cf161fe81"},"vehicle_type_id":"4","last_reported":1779478172,"current_range_meters":7200,"station_id":"ce4bhhp2rcd13ifvqfm0","pricing_plan_id":"cebpf4jnsgd1na2vs0mg"},{"bike_id":"e182c879-136b-48ee-8e04-998e7c0d9a86","system_id":"levelo_inurba_marseille","lat":43.28857,"lon":5.35814,"is_reserved":false,"is_disabled":false,"rental_uris":{"android":"levelo://app?vid=e182c879-136b-48ee-8e04-998e7c0d9a86","ios":"levelo://app?vid=e182c879-136b-48ee-8e04-998e7c0d9a86"},"vehicle_type_id":"4","last_reported":1779478172,"current_range_meters":7200,"station_id":"ce4bhb12rcd13ifvqem0","pricing_plan_id":"cebpf4jnsgd1na2vs0mg"},{"bike_id":"78b7a86a-a4af-4200-9b4f-06f48ffe27ce","system_id":"levelo_inurba_marseille","lat":43.29665,"lon":5.40199,"is_reserved":false,"is_disabled":false,"rental_uris":{"android":"levelo://app?vid=78b7a86a-a4af-4200-9b4f-06f48ffe27ce","ios":"levelo://app?vid=78b7a86a-a4af-4200-9b4f-06f48ffe27ce"},"vehicle_type_id":"4","last_reported":1779478172,"current_range_meters":7200,"station_id":"","pricing_plan_id":"cebpf4jnsgd1na2vs0mg"},{"bike_id":"3e35e13c-4feb-4694-8733-d2ec8312eb38","system_id":"levelo_inurba_marseille","lat":43.30954,"lon":5.39042,"is_reserved":false,"is_disabled":false,"rental_uris":{"android":"levelo://app?vid=3e35e13c-4feb-4694-8733-d2ec8312eb38","ios":"levelo://app?vid=3e35e13c-4feb-4694-8733-d2ec8312eb38"},"vehicle_type_id":"4","last_reported":1779478172,"current_range_meters":7200,"station_id":"ce4bgup2rcd13ifvqco0","pricing_plan_id":"cebpf4jnsgd1na2vs0mg"},{"bike_id":"a468becb-cfcc-4425-88fd-08f2a5a23757","system_id":"levelo_inurba_marseille","lat":43.29282,"lon":5.36838,"is_reserved":false,"is_disabled":false,"rental_uris":{"android":"levelo://app?vid=a468becb-cfcc-4425-88fd-08f2a5a23757","ios":"levelo://app?vid=a468becb-cfcc-4425-88fd-08f2a5a23757"},"vehicle_type_id":"4","last_reported":1779478172,"current_range_meters":7200,"station_id":"ce4bhbp2rcd13ifvqesg","pricing_plan_id":"cebpf4jnsgd1na2vs0mg"},{"bike_id":"bacc3dec-e9ea-4c0a-a6d3-33821331d942","system_id":"levelo_inurba_marseille","lat":43.28464,"lon":5.35027,"is_reserved":false,"is_disabled":false,"rental_uris":{"android":"levelo://app?vid=bacc3dec-e9ea-4c0a-a6d3-33821331d942","ios":"levelo://app?vid=bacc3dec-e9ea-4c0a-a6d3-33821331d942"},"vehicle_type_id":"4","last_reported":1779478172,"current_range_meters":7200,"station_id":"","pricing_plan_id":"cebpf4jnsgd1na2vs0mg"},{"bike_id":"e0c89d73-82ff-4881-9178-6a3f1a454ba1","system_id":"levelo_inurba_marseille","lat":43.2587,"lon":5.39895,"is_reserved":false,"is_disabled":false,"rental_uris":{"android":"levelo://app?vid=e0c89d73-82ff-4881-9178-6a3f1a454ba1","ios":"levelo://app?vid=e0c89d73-82ff-4881-9178-6a3f1a454ba1"},"vehicle_type_id":"4","last_reported":1779478172,"current_range_meters":7200,"station_id":"ce4bhl92rcd13ifvqghg","pricing_plan_id":"cebpf4jnsgd1na2vs0mg"},{"bike_id":"960d768b-45a3-49f4-bc63-fb8d971183c9","system_id":"levelo_inurba_marseille","lat":43.28438,"lon":5.34966,"is_reserved":false,"is_disabled":false,"rental_uris":{"android":"levelo://app?vid=960d768b-45a3-49f4-bc63-fb8d971183c9","ios":"levelo://app?vid=960d768b-45a3-49f4-bc63-fb8d971183c9"},"vehicle_type_id":"4","last_reported":1779478172,"current_range_meters":7200,"station_id":"ce4bhbh2rcd13ifvqepg","pricing_plan_id":"cebpf4jnsgd1na2vs0mg"},{"bike_id":"6fe44b04-2456-4e7f-b26b-0abbade8ce8b","system_id":"levelo_inurba_marseille","lat":43.27972,"lon":5.38731,"is_reserved":false,"is_disabled":false,"rental_uris":{"android":"levelo://app?vid=6fe44b04-2456-4e7f-b26b-0abbade8ce8b","ios":"levelo://app?vid=6fe44b04-2456-4e7f-b26b-0abbade8ce8b"},"vehicle_type_id":"4","last_reported":1779478172,"current_range_meters":7200,"station_id":"ce4bhg12rcd13ifvqf80","pricing_plan_id":"cebpf4jnsgd1na2vs0mg"},{"bike_id":"a9a4e1ca-c22a-4090-b3eb-6f63223eb228","system_id":"levelo_inurba_marseille","lat":43.28102,"lon":5.37827,"is_reserved":false,"is_disabled":false,"rental_uris":{"android":"levelo://app?vid=a9a4e1ca-c22a-4090-b3eb-6f63223eb228","ios":"levelo://app?vid=a9a4e1ca-c22a-4090-b3eb-6f63223eb228"},"vehicle_type_id":"4","last_reported":1779478172,"current_range_meters":7200,"station_id":"ce4bha12rcd13ifvqee0","pricing_plan_id":"cebpf4jnsgd1na2vs0mg"},{"bike_id":"2cede324-d456-4558-ac0a-2a84941d7b49","system_id":"levelo_inurba_marseille","lat":43.26557,"lon":5.39026,"is_reserved":false,"is_disabled":false,"rental_uris":{"android":"levelo://app?vid=2cede324-d456-4558-ac0a-2a84941d7b49","ios":"levelo://app?vid=2cede324-d456-4558-ac0a-2a84941d7b49"},"vehicle_type_id":"4","last_reported":1779478172,"current_range_meters":7200,"station_id":"ce4bhe12rcd13ifvqf30","pricing_plan_id":"cebpf4jnsgd1na2vs0mg"},{"bike_id":"1b84f242-b427-44cd-86c6-6b247513b959","system_id":"levelo_inurba_marseille","lat":43.29533,"lon":5.38554,"is_reserved":false,"is_disabled":false,"rental_uris":{"android":"levelo://app?vid=1b84f242-b427-44cd-86c6-6b247513b959","ios":"levelo://app?vid=1b84f242-b427-44cd-86c6-6b247513b959"},"vehicle_type_id":"4","last_reported":1779478172,"current_range_meters":7200,"station_id":"ce4bgih2rcd13ifvqba0","pricing_plan_id":"cebpf4jnsgd1na2vs0mg"},{"bike_id":"d59dc68b-4696-42bd-a9dd-bf4d9cca7fd1","system_id":"levelo_inurba_marseille","lat":43.2466,"lon":5.3889,"is_reserved":false,"is_disabled":false,"rental_uris":{"android":"levelo://app?vid=d59dc68b-4696-42bd-a9dd-bf4d9cca7fd1","ios":"levelo://app?vid=d59dc68b-4696-42bd-a9dd-bf4d9cca7fd1"},"vehicle_type_id":"4","last_reported":1779478172,"current_range_meters":7200,"station_id":"ce4bhg12rcd13ifvqf60","pricing_plan_id":"cebpf4jnsgd1na2vs0mg"},{"bike_id":"ce8d53bb-2e59-41a6-90c6-31de32a3a076","system_id":"levelo_inurba_marseille","lat":43.3124,"lon":5.36877,"is_reserved":false,"is_disabled":false,"rental_uris":{"android":"levelo://app?vid=ce8d53bb-2e59-41a6-90c6-31de32a3a076","ios":"levelo://app?vid=ce8d53bb-2e59-41a6-90c6-31de32a3a076"},"vehicle_type_id":"4","last_reported":1779478172,"current_range_meters":8000,"station_id":"ce4bgl92rcd13ifvqbq0","pricing_plan_id":"cebpf4jnsgd1na2vs0mg"},{"bike_id":"e8bd13bf-3fca-4f3b-89e4-0674a7d02d62","system_id":"levelo_inurba_marseille","lat":43.29987,"lon":5.37739,"is_reserved":false,"is_disabled":false,"rental_uris":{"android":"levelo://app?vid=e8bd13bf-3fca-4f3b-89e4-0674a7d02d62","ios":"levelo://app?vid=e8bd13bf-3fca-4f3b-89e4-0674a7d02d62"},"vehicle_type_id":"4","last_reported":1779478172,"current_range_meters":8000,"station_id":"","pricing_plan_id":"cebpf4jnsgd1na2vs0mg"},{"bike_id":"9fcf5246-6c40-47b3-a54e-b8ebcdb65950","system_id":"levelo_inurba_marseille","lat":43.29269,"lon":5.38436,"is_reserved":false,"is_disabled":false,"rental_uris":{"android":"levelo://app?vid=9fcf5246-6c40-47b3-a54e-b8ebcdb65950","ios":"levelo://app?vid=9fcf5246-6c40-47b3-a54e-b8ebcdb65950"},"vehicle_type_id":"4","last_reported":1779478172,"current_range_meters":8000,"station_id":"ce4bh692rcd13ifvqea0","pricing_plan_id":"cebpf4jnsgd1na2vs0mg"},{"bike_id":"efcc1335-da4a-4d4a-bc29-691a8e8a6f8a","system_id":"levelo_inurba_marseille","lat":43.31372,"lon":5.38492,"is_reserved":false,"is_disabled":false,"rental_uris":{"android":"levelo://app?vid=efcc1335-da4a-4d4a-bc29-691a8e8a6f8a","ios":"levelo://app?vid=efcc1335-da4a-4d4a-bc29-691a8e8a6f8a"},"vehicle_type_id":"4","last_reported":1779478172,"current_range_meters":8000,"station_id":"ce4bgt92rcd13ifvqcf0","pricing_plan_id":"cebpf4jnsgd1na2vs0mg"},{"bike_id":"b136b22c-bd11-4f33-ac25-6cd5883b144e","system_id":"levelo_inurba_marseille","lat":43.28528,"lon":5.44083,"is_reserved":false,"is_disabled":false,"rental_uris":{"android":"levelo://app?vid=b136b22c-bd11-4f33-ac25-6cd5883b144e","ios":"levelo://app?vid=b136b22c-bd11-4f33-ac25-6cd5883b144e"},