{"last_updated":1729768067,"ttl":60,"version":"2.2","data":{"bikes":[{"bike_id":"6bb28513-7ba6-4d73-94c5-cbf1dfef8b42","system_id":"levelo_inurba_marseille","lat":43.32479,"lon":5.36564,"is_reserved":false,"is_disabled":false,"rental_uris":{"android":"levelo://app?vid=6bb28513-7ba6-4d73-94c5-cbf1dfef8b42","ios":"levelo://app?vid=6bb28513-7ba6-4d73-94c5-cbf1dfef8b42"},"vehicle_type_id":"4","last_reported":1729768067,"current_range_meters":25200,"station_id":"ce4bhs12rcd13ifvqhvg","pricing_plan_id":"cebpf4jnsgd1na2vs0mg"},{"bike_id":"ce0dac4b-3d87-4943-b579-0ad58ffaa9c6","system_id":"levelo_inurba_marseille","lat":43.28352,"lon":5.38098,"is_reserved":false,"is_disabled":false,"rental_uris":{"android":"levelo://app?vid=ce0dac4b-3d87-4943-b579-0ad58ffaa9c6","ios":"levelo://app?vid=ce0dac4b-3d87-4943-b579-0ad58ffaa9c6"},"vehicle_type_id":"4","last_reported":1729768067,"current_range_meters":12400,"station_id":"ce4bh412rcd13ifvqdr0","pricing_plan_id":"cebpf4jnsgd1na2vs0mg"},{"bike_id":"75c576b8-d70a-4b92-9dc8-d7bc8e6c3fd9","system_id":"levelo_inurba_marseille","lat":43.30314,"lon":5.36906,"is_reserved":false,"is_disabled":false,"rental_uris":{"android":"levelo://app?vid=75c576b8-d70a-4b92-9dc8-d7bc8e6c3fd9","ios":"levelo://app?vid=75c576b8-d70a-4b92-9dc8-d7bc8e6c3fd9"},"vehicle_type_id":"4","last_reported":1729768067,"current_range_meters":28400,"station_id":"ce4bgqh2rcd13ifvqc5g","pricing_plan_id":"cebpf4jnsgd1na2vs0mg"},{"bike_id":"4e718520-217c-4986-8e4a-4dbcae9b7210","system_id":"levelo_inurba_marseille","lat":43.27987,"lon":5.41655,"is_reserved":false,"is_disabled":false,"rental_uris":{"android":"levelo://app?vid=4e718520-217c-4986-8e4a-4dbcae9b7210","ios":"levelo://app?vid=4e718520-217c-4986-8e4a-4dbcae9b7210"},"vehicle_type_id":"4","last_reported":1729768067,"current_range_meters":9200,"station_id":"ce4bho12rcd13ifvqh1g","pricing_plan_id":"cebpf4jnsgd1na2vs0mg"},{"bike_id":"ea0c7648-c6a7-4e05-8b66-dd108538ccc1","system_id":"levelo_inurba_marseille","lat":43.30142,"lon":5.38771,"is_reserved":false,"is_disabled":false,"rental_uris":{"android":"levelo://app?vid=ea0c7648-c6a7-4e05-8b66-dd108538ccc1","ios":"levelo://app?vid=ea0c7648-c6a7-4e05-8b66-dd108538ccc1"},"vehicle_type_id":"4","last_reported":1729768067,"current_range_meters":36800,"station_id":"ce4bghh2rcd13ifvqb60","pricing_plan_id":"cebpf4jnsgd1na2vs0mg"},{"bike_id":"5a7ff768-1626-4f3d-8d11-d17497af7c11","system_id":"levelo_inurba_marseille","lat":43.2962,"lon":5.37157,"is_reserved":false,"is_disabled":false,"rental_uris":{"android":"levelo://app?vid=5a7ff768-1626-4f3d-8d11-d17497af7c11","ios":"levelo://app?vid=5a7ff768-1626-4f3d-8d11-d17497af7c11"},"vehicle_type_id":"4","last_reported":1729768067,"current_range_meters":8400,"station_id":"ce4bgnh2rcd13ifvqc0g","pricing_plan_id":"cebpf4jnsgd1na2vs0mg"},{"bike_id":"449bf265-b5c6-4133-bfcc-04eb47e57c72","system_id":"levelo_inurba_marseille","lat":43.26679,"lon":5.38272,"is_reserved":false,"is_disabled":false,"rental_uris":{"android":"levelo://app?vid=449bf265-b5c6-4133-bfcc-04eb47e57c72","ios":"levelo://app?vid=449bf265-b5c6-4133-bfcc-04eb47e57c72"},"vehicle_type_id":"4","last_reported":1729768067,"current_range_meters":36000,"station_id":"ce4bhg92rcd13ifvqf90","pricing_plan_id":"cebpf4jnsgd1na2vs0mg"},{"bike_id":"cf00bfcd-9f87-4011-81c6-4541ee31d8cd","system_id":"levelo_inurba_marseille","lat":43.31341,"lon":5.36708,"is_reserved":false,"is_disabled":false,"rental_uris":{"android":"levelo://app?vid=cf00bfcd-9f87-4011-81c6-4541ee31d8cd","ios":"levelo://app?vid=cf00bfcd-9f87-4011-81c6-4541ee31d8cd"},"vehicle_type_id":"4","last_reported":1729768067,"current_range_meters":38800,"station_id":"ce4bgr92rcd13ifvqc6g","pricing_plan_id":"cebpf4jnsgd1na2vs0mg"},{"bike_id":"62c3f4e5-aa3a-4c9e-ae92-e05356b4ba94","system_id":"levelo_inurba_marseille","lat":43.28448,"lon":5.39204,"is_reserved":false,"is_disabled":false,"rental_uris":{"android":"levelo://app?vid=62c3f4e5-aa3a-4c9e-ae92-e05356b4ba94","ios":"levelo://app?vid=62c3f4e5-aa3a-4c9e-ae92-e05356b4ba94"},"vehicle_type_id":"4","last_reported":1729768067,"current_range_meters":18000,"station_id":"ce4bhoh2rcd13ifvqh5g","pricing_plan_id":"cebpf4jnsgd1na2vs0mg"},{"bike_id":"21c7101c-ca4b-4c55-b4b1-4130a4e6a9f4","system_id":"levelo_inurba_marseille","lat":43.30541,"lon":5.367,"is_reserved":false,"is_disabled":false,"rental_uris":{"android":"levelo://app?vid=21c7101c-ca4b-4c55-b4b1-4130a4e6a9f4","ios":"levelo://app?vid=21c7101c-ca4b-4c55-b4b1-4130a4e6a9f4"},"vehicle_type_id":"4","last_reported":1729768067,"current_range_meters":38800,"station_id":"ce4bgrp2rcd13ifvqc9g","pricing_plan_id":"cebpf4jnsgd1na2vs0mg"},{"bike_id":"f3cca4ef-25d8-49c3-a4b7-ee6a785817b8","system_id":"levelo_inurba_marseille","lat":43.30543,"lon":5.36523,"is_reserved":false,"is_disabled":false,"rental_uris":{"android":"levelo://app?vid=f3cca4ef-25d8-49c3-a4b7-ee6a785817b8","ios":"levelo://app?vid=f3cca4ef-25d8-49c3-a4b7-ee6a785817b8"},"vehicle_type_id":"4","last_reported":1729768067,"current_range_meters":38800,"station_id":"ce4bgs12rcd13ifvqcag","pricing_plan_id":"cebpf4jnsgd1na2vs0mg"},{"bike_id":"5d0a5019-a6f4-4628-b405-c6ddf4b5f67b","system_id":"levelo_inurba_marseille","lat":43.28443,"lon":5.39206,"is_reserved":false,"is_disabled":false,"rental_uris":{"android":"levelo://app?vid=5d0a5019-a6f4-4628-b405-c6ddf4b5f67b","ios":"levelo://app?vid=5d0a5019-a6f4-4628-b405-c6ddf4b5f67b"},"vehicle_type_id":"4","last_reported":1729768067,"current_range_meters":24000,"station_id":"ce4bhoh2rcd13ifvqh5g","pricing_plan_id":"cebpf4jnsgd1na2vs0mg"},{"bike_id":"1010e7d7-afcb-4664-ad53-f103f84910dd","system_id":"levelo_inurba_marseille","lat":43.29185,"lon":5.35805,"is_reserved":false,"is_disabled":false,"rental_uris":{"android":"levelo://app?vid=1010e7d7-afcb-4664-ad53-f103f84910dd","ios":"levelo://app?vid=1010e7d7-afcb-4664-ad53-f103f84910dd"},"vehicle_type_id":"4","last_reported":1729768067,"current_range_meters":20400,"station_id":"ce4bhb12rcd13ifvqel0","pricing_plan_id":"cebpf4jnsgd1na2vs0mg"},{"bike_id":"9379528d-dc27-4009-8b9a-b522c1a3eceb","system_id":"levelo_inurba_marseille","lat":43.33723,"lon":5.39192,"is_reserved":false,"is_disabled":false,"rental_uris":{"android":"levelo://app?vid=9379528d-dc27-4009-8b9a-b522c1a3eceb","ios":"levelo://app?vid=9379528d-dc27-4009-8b9a-b522c1a3eceb"},"vehicle_type_id":"4","last_reported":1729768067,"current_range_meters":12400,"station_id":"ce4bhr92rcd13ifvqhsg","pricing_plan_id":"cebpf4jnsgd1na2vs0mg"},{"bike_id":"0a1b479d-52cc-43be-b555-b0ec65cfda36","system_id":"levelo_inurba_marseille","lat":43.24069,"lon":5.3776,"is_reserved":false,"is_disabled":false,"rental_uris":{"android":"levelo://app?vid=0a1b479d-52cc-43be-b555-b0ec65cfda36","ios":"levelo://app?vid=0a1b479d-52cc-43be-b555-b0ec65cfda36"},"vehicle_type_id":"4","last_reported":1729768067,"current_range_meters":37600,"station_id":"ce4bhnp2rcd13ifvqgvg","pricing_plan_id":"cebpf4jnsgd1na2vs0mg"},{"bike_id":"a87c7c69-5cdb-4c09-949d-bba581135808","system_id":"levelo_inurba_marseille","lat":43.273063,"lon":5.390661,"is_reserved":false,"is_disabled":false,"rental_uris":{"android":"levelo://app?vid=a87c7c69-5cdb-4c09-949d-bba581135808","ios":"levelo://app?vid=a87c7c69-5cdb-4c09-949d-bba581135808"},"vehicle_type_id":"4","last_reported":1729768067,"current_range_meters":33600,"station_id":"ce4bhgp2rcd13ifvqfe0","pricing_plan_id":"cebpf4jnsgd1na2vs0mg"},{"bike_id":"93b004d5-e088-4995-a4b0-f34bd0d548c5","system_id":"levelo_inurba_marseille","lat":43.33732,"lon":5.39188,"is_reserved":false,"is_disabled":false,"rental_uris":{"android":"levelo://app?vid=93b004d5-e088-4995-a4b0-f34bd0d548c5","ios":"levelo://app?vid=93b004d5-e088-4995-a4b0-f34bd0d548c5"},"vehicle_type_id":"4","last_reported":1729768067,"current_range_meters":27200,"station_id":"ce4bhr92rcd13ifvqhsg","pricing_plan_id":"cebpf4jnsgd1na2vs0mg"},{"bike_id":"577e6b57-5b52-4e36-90cc-0e42f682f99e","system_id":"levelo_inurba_marseille","lat":43.29053,"lon":5.35914,"is_reserved":false,"is_disabled":false,"rental_uris":{"android":"levelo://app?vid=577e6b57-5b52-4e36-90cc-0e42f682f99e","ios":"levelo://app?vid=577e6b57-5b52-4e36-90cc-0e42f682f99e"},"vehicle_type_id":"4","last_reported":1729768067,"current_range_meters":28000,"station_id":"ce4bha92rcd13ifvqeg0","pricing_plan_id":"cebpf4jnsgd1na2vs0mg"},{"bike_id":"ca2cba38-a8eb-4340-b70e-1c48183ae7c2","system_id":"levelo_inurba_marseille","lat":43.29198,"lon":5.35805,"is_reserved":false,"is_disabled":false,"rental_uris":{"android":"levelo://app?vid=ca2cba38-a8eb-4340-b70e-1c48183ae7c2","ios":"levelo://app?vid=ca2cba38-a8eb-4340-b70e-1c48183ae7c2"},"vehicle_type_id":"4","last_reported":1729768067,"current_range_meters":24400,"station_id":"ce4bhb12rcd13ifvqel0","pricing_plan_id":"cebpf4jnsgd1na2vs0mg"},{"bike_id":"7a632fec-0e5c-4d95-9f73-b6a9f3a4cd45","system_id":"levelo_inurba_marseille","lat":43.31998,"lon":5.38165,"is_reserved":false,"is_disabled":false,"rental_uris":{"android":"levelo://app?vid=7a632fec-0e5c-4d95-9f73-b6a9f3a4cd45","ios":"levelo://app?vid=7a632fec-0e5c-4d95-9f73-b6a9f3a4cd45"},"vehicle_type_id":"4","last_reported":1729768067,"current_range_meters":24400,"station_id":"ce4bhr12rcd13ifvqhpg","pricing_plan_id":"cebpf4jnsgd1na2vs0mg"},{"bike_id":"e9d746de-b424-490d-bc71-341335e7c7e9","system_id":"levelo_inurba_marseille","lat":43.29201,"lon":5.39319,"is_reserved":false,"is_disabled":false,"rental_uris":{"android":"levelo://app?vid=e9d746de-b424-490d-bc71-341335e7c7e9","ios":"levelo://app?vid=e9d746de-b424-490d-bc71-341335e7c7e9"},"vehicle_type_id":"4","last_reported":1729768067,"current_range_meters":17600,"station_id":"ce4bh192rcd13ifvqdd0","pricing_plan_id":"cebpf4jnsgd1na2vs0mg"},{"bike_id":"b3053342-0ad4-4171-b13d-30211faebc90","system_id":"levelo_inurba_marseille","lat":43.33742,"lon":5.37447,"is_reserved":false,"is_disabled":false,"rental_uris":{"android":"levelo://app?vid=b3053342-0ad4-4171-b13d-30211faebc90","ios":"levelo://app?vid=b3053342-0ad4-4171-b13d-30211faebc90"},"vehicle_type_id":"4","last_reported":1729768067,"current_range_meters":35600,"station_id":"","pricing_plan_id":"cebpf4jnsgd1na2vs0mg"},{"bike_id":"61dcceb4-2115-4411-93df-3a55e0c49e0c","system_id":"levelo_inurba_marseille","lat":43.23967,"lon":5.36633,"is_reserved":false,"is_disabled":false,"rental_uris":{"android":"levelo://app?vid=61dcceb4-2115-4411-93df-3a55e0c49e0c","ios":"levelo://app?vid=61dcceb4-2115-4411-93df-3a55e0c49e0c"},"vehicle_type_id":"4","last_reported":1729768067,"current_range_meters":18800,"station_id":"ce4bhi12rcd13ifvqfp0","pricing_plan_id":"cebpf4jnsgd1na2vs0mg"},{"bike_id":"3e6dacef-7721-4fd6-908f-05fbf9bc0354","system_id":"levelo_inurba_marseille","lat":43.23194,"lon":5.35548,"is_reserved":false,"is_disabled":false,"rental_uris":{"android":"levelo://app?vid=3e6dacef-7721-4fd6-908f-05fbf9bc0354","ios":"levelo://app?vid=3e6dacef-7721-4fd6-908f-05fbf9bc0354"},"vehicle_type_id":"4","last_reported":1729768067,"current_range_meters":38800,"station_id":"ce4bhu92rcd13ifvqi70","pricing_plan_id":"cebpf4jnsgd1na2vs0mg"},{"bike_id":"5612d756-62ee-4fef-9af8-4b923e45d362","system_id":"levelo_inurba_marseille","lat":43.28842,"lon":5.39322,"is_reserved":false,"is_disabled":false,"rental_uris":{"android":"levelo://app?vid=5612d756-62ee-4fef-9af8-4b923e45d362","ios":"levelo://app?vid=5612d756-62ee-4fef-9af8-4b923e45d362"},"vehicle_type_id":"4","last_reported":1729768067,"current_range_meters":36400,"station_id":"ce4bh2p2rcd13ifvqdi0","pricing_plan_id":"cebpf4jnsgd1na2vs0mg"},{"bike_id":"c49008ee-e5c4-4d8b-92ba-1850f9301df2","system_id":"levelo_inurba_marseille","lat":43.29584,"lon":5.36743,"is_reserved":false,"is_disabled":false,"rental_uris":{"android":"levelo://app?vid=c49008ee-e5c4-4d8b-92ba-1850f9301df2","ios":"levelo://app?vid=c49008ee-e5c4-4d8b-92ba-1850f9301df2"},"vehicle_type_id":"4","last_reported":1729768067,"current_range_meters":26000,"station_id":"ce4bgph2rcd13ifvqc2g","pricing_plan_id":"cebpf4jnsgd1na2vs0mg"},{"bike_id":"97ce6431-cdfe-4c86-8575-534875aed7f5","system_id":"levelo_inurba_marseille","lat":43.3053,"lon":5.36659,"is_reserved":false,"is_disabled":false,"rental_uris":{"android":"levelo://app?vid=97ce6431-cdfe-4c86-8575-534875aed7f5","ios":"levelo://app?vid=97ce6431-cdfe-4c86-8575-534875aed7f5"},"vehicle_type_id":"4","last_reported":1729768067,"current_range_meters":7200,"station_id":"","pricing_plan_id":"cebpf4jnsgd1na2vs0mg"},{"bike_id":"3c253caa-914f-4c87-bd4d-8ad78666e7d2","system_id":"levelo_inurba_marseille","lat":43.24551,"lon":5.39523,"is_reserved":false,"is_disabled":false,"rental_uris":{"android":"levelo://app?vid=3c253caa-914f-4c87-bd4d-8ad78666e7d2","ios":"levelo://app?vid=3c253caa-914f-4c87-bd4d-8ad78666e7d2"},"vehicle_type_id":"4","last_reported":1729768067,"current_range_meters":32800,"station_id":"ce4bhlp2rcd13ifvqgjg","pricing_plan_id":"cebpf4jnsgd1na2vs0mg"},{"bike_id":"bc4efb73-4734-4293-a1eb-82c722d0ec12","system_id":"levelo_inurba_marseille","lat":43.25503,"lon":5.37649,"is_reserved":false,"is_disabled":false,"rental_uris":{"android":"levelo://app?vid=bc4efb73-4734-4293-a1eb-82c722d0ec12","ios":"levelo://app?vid=bc4efb73-4734-4293-a1eb-82c722d0ec12"},"vehicle_type_id":"4","last_reported":1729768067,"current_range_meters":38000,"station_id":"ce4bhh12rcd13ifvqff0","pricing_plan_id":"cebpf4jnsgd1na2vs0mg"},{"bike_id":"dcec548d-d28e-48ba-a194-b4f2f508889b","system_id":"levelo_inurba_marseille","lat":43.2971,"lon":5.36608,"is_reserved":false,"is_disabled":false,"rental_uris":{"android":"levelo://app?vid=dcec548d-d28e-48ba-a194-b4f2f508889b","ios":"levelo://app?vid=dcec548d-d28e-48ba-a194-b4f2f508889b"},"vehicle_type_id":"4","last_reported":1729768067,"current_range_meters":38400,"station_id":"ce4bgn12rcd13ifvqbt0","pricing_plan_id":"cebpf4jnsgd1na2vs0mg"},{"bike_id":"b69d0c64-0724-4563-ab4e-cdb5166b1cd5","system_id":"levelo_inurba_marseille","lat":43.33121,"lon":5.38213,"is_reserved":false,"is_disabled":false,"rental_uris":{"android":"levelo://app?vid=b69d0c64-0724-4563-ab4e-cdb5166b1cd5","ios":"levelo://app?vid=b69d0c64-0724-4563-ab4e-cdb5166b1cd5"},"vehicle_type_id":"4","last_reported":1729768067,"current_range_meters":20400,"station_id":"","pricing_plan_id":"cebpf4jnsgd1na2vs0mg"},{"bike_id":"1545824a-6bd3-44fa-ac2d-0115594acea0","system_id":"levelo_inurba_marseille","lat":43.26052,"lon":5.40714,"is_reserved":false,"is_disabled":false,"rental_uris":{"android":"levelo://app?vid=1545824a-6bd3-44fa-ac2d-0115594acea0","ios":"levelo://app?vid=1545824a-6bd3-44fa-ac2d-0115594acea0"},"vehicle_type_id":"4","last_reported":1729768067,"current_range_meters":24000,"station_id":"","pricing_plan_id":"cebpf4jnsgd1na2vs0mg"},{"bike_id":"25bb89a1-1582-4502-bfe1-5d9e0d024149","system_id":"levelo_inurba_marseille","lat":43.29715,"lon":5.37695,"is_reserved":false,"is_disabled":false,"rental_uris":{"android":"levelo://app?vid=25bb89a1-1582-4502-bfe1-5d9e0d024149","ios":"levelo://app?vid=25bb89a1-1582-4502-bfe1-5d9e0d024149"},"vehicle_type_id":"4","last_reported":1729768067,"current_range_meters":25200,"station_id":"ce4bgkh2rcd13ifvqbl0","pricing_plan_id":"cebpf4jnsgd1na2vs0mg"},{"bike_id":"866da92f-eb6c-4428-8396-b0ce1ce7d1d1","system_id":"levelo_inurba_marseille","lat":43.26555,"lon":5.37286,"is_reserved":false,"is_disabled":false,"rental_uris":{"android":"levelo://app?vid=866da92f-eb6c-4428-8396-b0ce1ce7d1d1","ios":"levelo://app?vid=866da92f-eb6c-4428-8396-b0ce1ce7d1d1"},"vehicle_type_id":"4","last_reported":1729768067,"current_range_meters":36000,"station_id":"ce4bhg12rcd13ifvqf70","pricing_plan_id":"cebpf4jnsgd1na2vs0mg"},{"bike_id":"ad620477-6535-4563-b912-7017fc201600","system_id":"levelo_inurba_marseille","lat":43.24546,"lon":5.39524,"is_reserved":false,"is_disabled":false,"rental_uris":{"android":"levelo://app?vid=ad620477-6535-4563-b912-7017fc201600","ios":"levelo://app?vid=ad620477-6535-4563-b912-7017fc201600"},"vehicle_type_id":"4","last_reported":1729768067,"current_range_meters":29600,"station_id":"ce4bhlp2rcd13ifvqgjg","pricing_plan_id":"cebpf4jnsgd1na2vs0mg"},{"bike_id":"ed35b615-4c0f-405d-a282-4eb3bd8d973b","system_id":"levelo_inurba_marseille","lat":43.29698,"lon":5.37696,"is_reserved":false,"is_disabled":false,"rental_uris":{"android":"levelo://app?vid=ed35b615-4c0f-405d-a282-4eb3bd8d973b","ios":"levelo://app?vid=ed35b615-4c0f-405d-a282-4eb3bd8d973b"},"vehicle_type_id":"4","last_reported":1729768067,"current_range_meters":27200,"station_id":"ce4bgkh2rcd13ifvqbl0","pricing_plan_id":"cebpf4jnsgd1na2vs0mg"},{"bike_id":"dd8d4647-a0c7-4dcf-919c-66b1ed3c1e6a","system_id":"levelo_inurba_marseille","lat":43.29937,"lon":5.3655,"is_reserved":false,"is_disabled":false,"rental_uris":{"android":"levelo://app?vid=dd8d4647-a0c7-4dcf-919c-66b1ed3c1e6a","ios":"levelo://app?vid=dd8d4647-a0c7-4dcf-919c-66b1ed3c1e6a"},"vehicle_type_id":"4","last_reported":1729768067,"current_range_meters":34000,"station_id":"ce4bgm92rcd13ifvqbr0","pricing_plan_id":"cebpf4jnsgd1na2vs0mg"},{"bike_id":"d559dc1b-ba63-4390-a50c-92e4adeb1a9d","system_id":"levelo_inurba_marseille","lat":43.25933,"lon":5.40897,"is_reserved":false,"is_disabled":false,"rental_uris":{"android":"levelo://app?vid=d559dc1b-ba63-4390-a50c-92e4adeb1a9d","ios":"levelo://app?vid=d559dc1b-ba63-4390-a50c-92e4adeb1a9d"},"vehicle_type_id":"4","last_reported":1729768067,"current_range_meters":8400,"station_id":"ce4bhm92rcd13ifvqglg","pricing_plan_id":"cebpf4jnsgd1na2vs0mg"},{"bike_id":"d7f7ec00-9b82-4b1b-8c40-5ae8b7c7e605","system_id":"levelo_inurba_marseille","lat":43.2987,"lon":5.38915,"is_reserved":false,"is_disabled":false,"rental_uris":{"android":"levelo://app?vid=d7f7ec00-9b82-4b1b-8c40-5ae8b7c7e605","ios":"levelo://app?vid=d7f7ec00-9b82-4b1b-8c40-5ae8b7c7e605"},"vehicle_type_id":"4","last_reported":1729768067,"current_range_meters":38400,"station_id":"ce4bh392rcd13ifvqdl0","pricing_plan_id":"cebpf4jnsgd1na2vs0mg"},{"bike_id":"1d6004be-9828-473b-8b05-932de9192136","system_id":"levelo_inurba_marseille","lat":43.29304,"lon":5.37175,"is_reserved":false,"is_disabled":false,"rental_uris":{"android":"levelo://app?vid=1d6004be-9828-473b-8b05-932de9192136","ios":"levelo://app?vid=1d6004be-9828-473b-8b05-932de9192136"},"vehicle_type_id":"4","last_reported":1729768067,"current_range_meters":38800,"station_id":"ce4bgh92rcd13ifvqb40","pricing_plan_id":"cebpf4jnsgd1na2vs0mg"},{"bike_id":"740cff28-dccb-4e8d-ab12-295ee7e6df38","system_id":"levelo_inurba_marseille","lat":43.30595,"lon":5.37218,"is_reserved":false,"is_disabled":false,"rental_uris":{"android":"levelo://app?vid=740cff28-dccb-4e8d-ab12-295ee7e6df38","ios":"levelo://app?vid=740cff28-dccb-4e8d-ab12-295ee7e6df38"},"vehicle_type_id":"4","last_reported":1729768067,"current_range_meters":38400,"station_id":"ce4bgqh2rcd13ifvqc4g","pricing_plan_id":"cebpf4jnsgd1na2vs0mg"},{"bike_id":"08a6636f-a288-401d-a968-afac32238f7d","system_id":"levelo_inurba_marseille","lat":43.30355,"lon":5.4188,"is_reserved":false,"is_disabled":false,"rental_uris":{"android":"levelo://app?vid=08a6636f-a288-401d-a968-afac32238f7d","ios":"levelo://app?vid=08a6636f-a288-401d-a968-afac32238f7d"},"vehicle_type_id":"4","last_reported":1729768067,"current_range_meters":15200,"station_id":"ce4bhop2rcd13ifvqh7g","pricing_plan_id":"cebpf4jnsgd1na2vs0mg"},{"bike_id":"c5baeef2-7e03-4e6d-be2d-206456692c98","system_id":"levelo_inurba_marseille","lat":43.32538,"lon":5.414395,"is_reserved":false,"is_disabled":false,"rental_uris":{"android":"levelo://app?vid=c5baeef2-7e03-4e6d-be2d-206456692c98","ios":"levelo://app?vid=c5baeef2-7e03-4e6d-be2d-206456692c98"},"vehicle_type_id":"4","last_reported":1729768067,"current_range_meters":38800,"station_id":"ce4bhq12rcd13ifvqhhg","pricing_plan_id":"cebpf4jnsgd1na2vs0mg"},{"bike_id":"36013211-83e7-4dc7-a0b8-af0e7cb82db1","system_id":"levelo_inurba_marseille","lat":43.29911,"lon":5.38137,"is_reserved":false,"is_disabled":false,"rental_uris":{"android":"levelo://app?vid=36013211-83e7-4dc7-a0b8-af0e7cb82db1","ios":"levelo://app?vid=36013211-83e7-4dc7-a0b8-af0e7cb82db1"},"vehicle_type_id":"4","last_reported":1729768067,"current_range_meters":28800,"station_id":"ce4bgj12rcd13ifvqbc0","pricing_plan_id":"cebpf4jnsgd1na2vs0mg"},{"bike_id":"df6fba92-616f-41b7-84c7-697c91053276","system_id":"levelo_inurba_marseille","lat":43.22931,"lon":5.35378,"is_reserved":false,"is_disabled":false,"rental_uris":{"android":"levelo://app?vid=df6fba92-616f-41b7-84c7-697c91053276","ios":"levelo://app?vid=df6fba92-616f-41b7-84c7-697c91053276"},"vehicle_type_id":"4","last_reported":1729768067,"current_range_meters":25600,"station_id":"cpo3532slgdg3j2ikp40","pricing_plan_id":"cebpf4jnsgd1na2vs0mg"},{"bike_id":"b0bf7f88-d4a3-46fa-9d3d-46fad99db64f","system_id":"levelo_inurba_marseille","lat":43.29792,"lon":5.38091,"is_reserved":false,"is_disabled":false,"rental_uris":{"android":"levelo://app?vid=b0bf7f88-d4a3-46fa-9d3d-46fad99db64f","ios":"levelo://app?vid=b0bf7f88-d4a3-46fa-9d3d-46fad99db64f"},"vehicle_type_id":"4","last_reported":1729768067,"current_range_meters":20400,"station_id":"ce4bgip2rcd13ifvqbb0","pricing_plan_id":"cebpf4jnsgd1na2vs0mg"},{"bike_id":"d4c96e24-4bae-4c1a-bd3a-5bdabc26251e","system_id":"levelo_inurba_marseille","lat":43.25495,"lon":5.37651,"is_reserved":false,"is_disabled":false,"rental_uris":{"android":"levelo://app?vid=d4c96e24-4bae-4c1a-bd3a-5bdabc26251e","ios":"levelo://app?vid=d4c96e24-4bae-4c1a-bd3a-5bdabc26251e"},"vehicle_type_id":"4","last_reported":1729768067,"current_range_meters":36000,"station_id":"ce4bhh12rcd13ifvqff0","pricing_plan_id":"cebpf4jnsgd1na2vs0mg"},{"bike_id":"8f40f5a1-dff7-42c7-90d7-c956ea526b89","system_id":"levelo_inurba_marseille","lat":43.30135,"lon":5.37425,"is_reserved":false,"is_disabled":false,"rental_uris":{"android":"levelo://app?vid=8f40f5a1-dff7-42c7-90d7-c956ea526b89","ios":"levelo://app?vid=8f40f5a1-dff7-42c7-90d7-c956ea526b89"},"vehicle_type_id":"4","last_reported":1729768067,"current_range_meters":35200,"station_id":"ce4bgs92rcd13ifvqcc0","pricing_plan_id":"cebpf4jnsgd1na2vs0mg"},{"bike_id":"99f5ff6d-eb35-4dab-9b3d-f97ebd047735","system_id":"levelo_inurba_marseille","lat":43.30136,"lon":5.3985,"is_reserved":false,"is_disabled":false,"rental_uris":{"android":"levelo://app?vid=99f5ff6d-eb35-4dab-9b3d-f97ebd047735","ios":"levelo://app?vid=99f5ff6d-eb35-4dab-9b3d-f97ebd047735"},"vehicle_type_id":"4","last_reported":1729768067,"current_range_meters":3600,"station_id":"ce4bh0h2rcd13ifvqd40","pricing_plan_id":"cebpf4jnsgd1na2vs0mg"},{"bike_id":"f25dee26-fc36-4bbe-8cf7-4d807f4bf22a","system_id":"levelo_inurba_marseille","lat":43.28616,"lon":5.35108,"is_reserved":false,"is_disabled":false,"rental_uris":{"android":"levelo://app?vid=f25dee26-fc36-4bbe-8cf7-4d807f4bf22a","ios":"levelo://app?vid=f25dee26-fc36-4bbe-8cf7-4d807f4bf22a"},"vehicle_type_id":"4","last_reported":1729768067,"current_range_meters":35200,"station_id":"ce4bhch2rcd13ifvqeug","pricing_plan_id":"cebpf4jnsgd1na2vs0mg"},{"bike_id":"a257d936-b50b-4a9c-84eb-817754cbbc1d","system_id":"levelo_inurba_marseille","lat":43.2912,"lon":5.39885,"is_reserved":false,"is_disabled":false,"rental_uris":{"android":"levelo://app?vid=a257d936-b50b-4a9c-84eb-817754cbbc1d","ios":"levelo://app?vid=a257d936-b50b-4a9c-84eb-817754cbbc1d"},"vehicle_type_id":"4","last_reported":1729768067,"current_range_meters":27600,"station_id":"","pricing_plan_id":"cebpf4jnsgd1na2vs0mg"},{"bike_id":"677a26f0-a8b9-43c0-a2aa-8b4d07896f2e","system_id":"levelo_inurba_marseille","lat":43.25086,"lon":5.39519,"is_reserved":false,"is_disabled":false,"rental_uris":{"android":"levelo://app?vid=677a26f0-a8b9-43c0-a2aa-8b4d07896f2e","ios":"levelo://app?vid=677a26f0-a8b9-43c0-a2aa-8b4d07896f2e"},"vehicle_type_id":"4","last_reported":1729768067,"current_range_meters":22400,"station_id":"ce4bhm12rcd13ifvqgkg","pricing_plan_id":"cebpf4jnsgd1na2vs0mg"},{"bike_id":"4dd517db-98c2-4f74-b439-cbf3c49a9a6a","system_id":"levelo_inurba_marseille","lat":43.25489,"lon":5.37647,"is_reserved":false,"is_disabled":false,"rental_uris":{"android":"levelo://app?vid=4dd517db-98c2-4f74-b439-cbf3c49a9a6a","ios":"levelo://app?vid=4dd517db-98c2-4f74-b439-cbf3c49a9a6a"},"vehicle_type_id":"4","last_reported":1729768067,"current_range_meters":37600,"station_id":"ce4bhh12rcd13ifvqff0","pricing_plan_id":"cebpf4jnsgd1na2vs0mg"},{"bike_id":"32745b13-c55b-4aa9-82ac-9fbdcc1e90be","system_id":"levelo_inurba_marseille","lat":43.25489,"lon":5.37648,"is_reserved":false,"is_disabled":false,"rental_uris":{"android":"levelo://app?vid=32745b13-c55b-4aa9-82ac-9fbdcc1e90be","ios":"levelo://app?vid=32745b13-c55b-4aa9-82ac-9fbdcc1e90be"},"vehicle_type_id":"4","last_reported":1729768067,"current_range_meters":24400,"station_id":"ce4bhh12rcd13ifvqff0","pricing_plan_id":"cebpf4jnsgd1na2vs0mg"},{"bike_id":"59921595-b994-44a2-a4c2-9e1e24a33623","system_id":"levelo_inurba_marseille","lat":43.2593,"lon":5.40908,"is_reserved":false,"is_disabled":false,"rental_uris":{"android":"levelo://app?vid=59921595-b994-44a2-a4c2-9e1e24a33623","ios":"levelo://app?vid=59921595-b994-44a2-a4c2-9e1e24a33623"},"vehicle_type_id":"4","last_reported":1729768067,"current_range_meters":7200,"station_id":"ce4bhm92rcd13ifvqglg","pricing_plan_id":"cebpf4jnsgd1na2vs0mg"},{"bike_id":"b094d4a5-f8e8-4ea5-91a8-7ddf088acd32","system_id":"levelo_inurba_marseille","lat":43.30536,"lon":5.36534,"is_reserved":false,"is_disabled":false,"rental_uris":{"android":"levelo://app?vid=b094d4a5-f8e8-4ea5-91a8-7ddf088acd32","ios":"levelo://app?vid=b094d4a5-f8e8-4ea5-91a8-7ddf088acd32"},"vehicle_type_id":"4","last_reported":1729768067,"current_range_meters":37600,"station_id":"ce4bgs12rcd13ifvqcag","pricing_plan_id":"cebpf4jnsgd1na2vs0mg"},{"bike_id":"a95624cf-2cfe-4360-83bb-93d7c7ccfb31","system_id":"levelo_inurba_marseille","lat":43.29304,"lon":5.3718,"is_reserved":false,"is_disabled":false,"rental_uris":{"android":"levelo://app?vid=a95624cf-2cfe-4360-83bb-93d7c7ccfb31","ios":"levelo://app?vid=a95624cf-2cfe-4360-83bb-93d7c7ccfb31"},"vehicle_type_id":"4","last_reported":1729768067,"current_range_meters":38400,"station_id":"ce4bgh92rcd13ifvqb40","pricing_plan_id":"cebpf4jnsgd1na2vs0mg"},{"bike_id":"78568ba3-e558-46e4-aa36-5671f868e825","system_id":"levelo_inurba_marseille","lat":43.32036,"lon":5.41565,"is_reserved":false,"is_disabled":false,"rental_uris":{"android":"levelo://app?vid=78568ba3-e558-46e4-aa36-5671f868e825","ios":"levelo://app?vid=78568ba3-e558-46e4-aa36-5671f868e825"},"vehicle_type_id":"4","last_reported":1729768067,"current_range_meters":18000,"station_id":"ce4bhq92rcd13ifvqhkg","pricing_plan_id":"cebpf4jnsgd1na2vs0mg"},{"bike_id":"22ffdeab-698f-4bbe-b544-0fc29db244d4","system_id":"levelo_inurba_marseille","lat":43.29521,"lon":5.37511,"is_reserved":false,"is_disabled":false,"rental_uris":{"android":"levelo://app?vid=22ffdeab-698f-4bbe-b544-0fc29db244d4","ios":"levelo://app?vid=22ffdeab-698f-4bbe-b544-0fc29db244d4"},"vehicle_type_id":"4","last_reported":1729768067,"current_range_meters":20400,"station_id":"ce4bgkp2rcd13ifvqbmg","pricing_plan_id":"cebpf4jnsgd1na2vs0mg"},{"bike_id":"bfb4048f-e852-4c39-a529-77aee6ef9cf9","system_id":"levelo_inurba_marseille","lat":43.2972,"lon":5.37689,"is_reserved":false,"is_disabled":false,"rental_uris":{"android":"levelo://app?vid=bfb4048f-e852-4c39-a529-77aee6ef9cf9","ios":"levelo://app?vid=bfb4048f-e852-4c39-a529-77aee6ef9cf9"},"vehicle_type_id":"4","last_reported":1729768067,"current_range_meters":32400,"station_id":"ce4bgkh2rcd13ifvqbl0","pricing_plan_id":"cebpf4jnsgd1na2vs0mg"},{"bike_id":"825b0c26-32f9-4648-81bd-2702b467ac44","system_id":"levelo_inurba_marseille","lat":43.24546,"lon":5.39522,"is_reserved":false,"is_disabled":false,"rental_uris":{"android":"levelo://app?vid=825b0c26-32f9-4648-81bd-2702b467ac44","ios":"levelo://app?vid=825b0c26-32f9-4648-81bd-2702b467ac44"},"vehicle_type_id":"4","last_reported":1729768067,"current_range_meters":38800,"station_id":"ce4bhlp2rcd13ifvqgjg","pricing_plan_id":"cebpf4jnsgd1na2vs0mg"},{"bike_id":"db69ea4c-1c7d-43a0-b7f1-e0da5b76f2ea","system_id":"levelo_inurba_marseille","lat":43.2846,"lon":5.45973,"is_reserved":false,"is_disabled":false,"rental_uris":{"android":"levelo://app?vid=db69ea4c-1c7d-43a0-b7f1-e0da5b76f2ea","ios":"levelo://app?vid=db69ea4c-1c7d-43a0-b7f1-e0da5b76f2ea"},"vehicle_type_id":"4","last_reported":1729768067,"current_range_meters":9600,"station_id":"","pricing_plan_id":"cebpf4jnsgd1na2vs0mg"},{"bike_id":"ea0dbab6-9a0c-4bbc-b21b-26ae6ac2e0a3","system_id":"levelo_inurba_marseille","lat":43.28859,"lon":5.3585,"is_reserved":false,"is_disabled":false,"rental_uris":{"android":"levelo://app?vid=ea0dbab6-9a0c-4bbc-b21b-26ae6ac2e0a3","ios":"levelo://app?vid=ea0dbab6-9a0c-4bbc-b21b-26ae6ac2e0a3"},"vehicle_type_id":"4","last_reported":1729768067,"current_range_meters":19600,"station_id":"ce4bhb12rcd13ifvqem0","pricing_plan_id":"cebpf4jnsgd1na2vs0mg"},{"bike_id":"5d88a9b6-ebb6-498a-ba1b-fccdf74c849b","system_id":"levelo_inurba_marseille","lat":43.25491,"lon":5.37652,"is_reserved":false,"is_disabled":false,"rental_uris":{"android":"levelo://app?vid=5d88a9b6-ebb6-498a-ba1b-fccdf74c849b","ios":"levelo://app?vid=5d88a9b6-ebb6-498a-ba1b-fccdf74c849b"},"vehicle_type_id":"4","last_reported":1729768067,"current_range_meters":38800,"station_id":"ce4bhh12rcd13ifvqff0","pricing_plan_id":"cebpf4jnsgd1na2vs0mg"},{"bike_id":"b8a803e9-50dc-4307-923f-e823a1d6ed19","system_id":"levelo_inurba_marseille","lat":43.27358,"lon":5.39306,"is_reserved":false,"is_disabled":false,"rental_uris":{"android":"levelo://app?vid=b8a803e9-50dc-4307-923f-e823a1d6ed19","ios":"levelo://app?vid=b8a803e9-50dc-4307-923f-e823a1d6ed19"},"vehicle_type_id":"4","last_reported":1729768067,"current_range_meters":37600,"station_id":"ce4bhhp2rcd13ifvqfm0","pricing_plan_id":"cebpf4jnsgd1na2vs0mg"},{"bike_id":"4b06a6b3-9141-4e99-b77f-4433bbdfc30c","system_id":"levelo_inurba_marseille","lat":43.30426,"lon":5.3975,"is_reserved":false,"is_disabled":false,"rental_uris":{"android":"levelo://app?vid=4b06a6b3-9141-4e99-b77f-4433bbdfc30c","ios":"levelo://app?vid=4b06a6b3-9141-4e99-b77f-4433bbdfc30c"},"vehicle_type_id":"4","last_reported":1729768067,"current_range_meters":37600,"station_id":"ce4bh092rcd13ifvqd20","pricing_plan_id":"cebpf4jnsgd1na2vs0mg"},{"bike_id":"59e653c3-fce4-4d8c-8f5f-86a86cc24477","system_id":"levelo_inurba_marseille","lat":43.29006,"lon":5.35603,"is_reserved":false,"is_disabled":false,"rental_uris":{"android":"levelo://app?vid=59e653c3-fce4-4d8c-8f5f-86a86cc24477","ios":"levelo://app?vid=59e653c3-fce4-4d8c-8f5f-86a86cc24477"},"vehicle_type_id":"4","last_reported":1729768067,"current_range_meters":38800,"station_id":"ce4bhb92rcd13ifvqen0","pricing_plan_id":"cebpf4jnsgd1na2vs0mg"},{"bike_id":"0879f046-da2e-467d-9ff8-ecc09c6ebd2f","system_id":"levelo_inurba_marseille","lat":43.25866,"lon":5.39903,"is_reserved":false,"is_disabled":false,"rental_uris":{"android":"levelo://app?vid=0879f046-da2e-467d-9ff8-ecc09c6ebd2f","ios":"levelo://app?vid=0879f046-da2e-467d-9ff8-ecc09c6ebd2f"},"vehicle_type_id":"4","last_reported":1729768067,"current_range_meters":6800,"station_id":"ce4bhl92rcd13ifvqghg","pricing_plan_id":"cebpf4jnsgd1na2vs0mg"},{"bike_id":"cb3dd918-6355-4d2d-a9bc-aeaf59e0a27b","system_id":"levelo_inurba_marseille","lat":43.25497,"lon":5.37647,"is_reserved":false,"is_disabled":false,"rental_uris":{"android":"levelo://app?vid=cb3dd918-6355-4d2d-a9bc-aeaf59e0a27b","ios":"levelo://app?vid=cb3dd918-6355-4d2d-a9bc-aeaf59e0a27b"},"vehicle_type_id":"4","last_reported":1729768067,"current_range_meters":38800,"station_id":"ce4bhh12rcd13ifvqff0","pricing_plan_id":"cebpf4jnsgd1na2vs0mg"},{"bike_id":"5f799a55-151a-4b32-a860-174fa873af95","system_id":"levelo_inurba_marseille","lat":43.291809,"lon":5.373238,"is_reserved":false,"is_disabled":false,"rental_uris":{"android":"levelo://app?vid=5f799a55-151a-4b32-a860-174fa873af95","ios":"levelo://app?vid=5f799a55-151a-4b32-a860-174fa873af95"},"vehicle_type_id":"4","last_reported":1729768067,"current_range_meters":23200,"station_id":"chh1huq6cuj3fo74tm60","pricing_plan_id":"cebpf4jnsgd1na2vs0mg"},{"bike_id":"ddad2ca2-1ebb-483e-a678-4585669059da","system_id":"levelo_inurba_marseille","lat":43.28457,"lon":5.35886,"is_reserved":false,"is_disabled":false,"rental_uris":{"android":"levelo://app?vid=ddad2ca2-1ebb-483e-a678-4585669059da","ios":"levelo://app?vid=ddad2ca2-1ebb-483e-a678-4585669059da"},"vehicle_type_id":"4","last_reported":1729768067,"current_range_meters":27200,"station_id":"ce4bhah2rcd13ifvqei0","pricing_plan_id":"cebpf4jnsgd1na2vs0mg"},{"bike_id":"26e91605-455f-4c16-b2a3-9aae7c4ea3de","system_id":"levelo_inurba_marseille","lat":43.29706,"lon":5.36605,"is_reserved":false,"is_disabled":false,"rental_uris":{"android":"levelo://app?vid=26e91605-455f-4c16-b2a3-9aae7c4ea3de","ios":"levelo://app?vid=26e91605-455f-4c16-b2a3-9aae7c4ea3de"},"vehicle_type_id":"4","last_reported":1729768067,"current_range_meters":35600,"station_id":"ce4bgn12rcd13ifvqbt0","pricing_plan_id":"cebpf4jnsgd1na2vs0mg"},{"bike_id":"5e506d15-df2d-4cf2-a9b2-860ae69be514","system_id":"levelo_inurba_marseille","lat":43.29608,"lon":5.37729,"is_reserved":false,"is_disabled":false,"rental_uris":{"android":"levelo://app?vid=5e506d15-df2d-4cf2-a9b2-860ae69be514","ios":"levelo://app?vid=5e506d15-df2d-4cf2-a9b2-860ae69be514"},"vehicle_type_id":"4","last_reported":1729768067,"current_range_meters":28800,"station_id":"ce4bgi92rcd13ifvqb90","pricing_plan_id":"cebpf4jnsgd1na2vs0mg"},{"bike_id":"e29daa00-c9a5-4236-a53a-23c3d236a4ff","system_id":"levelo_inurba_marseille","lat":43.29715,"lon":5.36613,"is_reserved":false,"is_disabled":false,"rental_uris":{"android":"levelo://app?vid=e29daa00-c9a5-4236-a53a-23c3d236a4ff","ios":"levelo://app?vid=e29daa00-c9a5-4236-a53a-23c3d236a4ff"},"vehicle_type_id":"4","last_reported":1729768067,"current_range_meters":19600,"station_id":"ce4bgn12rcd13ifvqbt0","pricing_plan_id":"cebpf4jnsgd1na2vs0mg"},{"bike_id":"8570eba8-8cdb-4e27-85d7-fceff8d13201","system_id":"levelo_inurba_marseille","lat":43.29811,"lon":5.38091,"is_reserved":false,"is_disabled":false,"rental_uris":{"android":"levelo://app?vid=8570eba8-8cdb-4e27-85d7-fceff8d13201","ios":"levelo://app?vid=8570eba8-8cdb-4e27-85d7-fceff8d13201"},"vehicle_type_id":"4","last_reported":1729768067,"current_range_meters":38400,"station_id":"ce4bgip2rcd13ifvqbb0","pricing_plan_id":"cebpf4jnsgd1na2vs0mg"},{"bike_id":"23769ca8-939e-4321-8de6-677d7bd43ce1","system_id":"levelo_inurba_marseille","lat":43.27071,"lon":5.42275,"is_reserved":false,"is_disabled":false,"rental_uris":{"android":"levelo://app?vid=23769ca8-939e-4321-8de6-677d7bd43ce1","ios":"levelo://app?vid=23769ca8-939e-4321-8de6-677d7bd43ce1"},"vehicle_type_id":"4","last_reported":1729768067,"current_range_meters":38000,"station_id":"ce4bhk92rcd13ifvqgb0","pricing_plan_id":"cebpf4jnsgd1na2vs0mg"},{"bike_id":"ee56864d-0289-4ab0-b1d9-4e118a6c50f5","system_id":"levelo_inurba_marseille","lat":43.34149,"lon":5.40895,"is_reserved":false,"is_disabled":false,"rental_uris":{"android":"levelo://app?vid=ee56864d-0289-4ab0-b1d9-4e118a6c50f5","ios":"levelo://app?vid=ee56864d-0289-4ab0-b1d9-4e118a6c50f5"},"vehicle_type_id":"4","last_reported":1729768067,"current_range_meters":38800,"station_id":"ce4bhqh2rcd13ifvqhlg","pricing_plan_id":"cebpf4jnsgd1na2vs0mg"},{"bike_id":"c0884169-9230-4cdd-929b-3500bd3a1459","system_id":"levelo_inurba_marseille","lat":43.29027,"lon":5.37552,"is_reserved":false,"is_disabled":false,"rental_uris":{"android":"levelo://app?vid=c0884169-9230-4cdd-929b-3500bd3a1459","ios":"levelo://app?vid=c0884169-9230-4cdd-929b-3500bd3a1459"},"vehicle_type_id":"4","last_reported":1729768067,"current_range_meters":38800,"station_id":"ce4bh692rcd13ifvqe90","pricing_plan_id":"cebpf4jnsgd1na2vs0mg"},{"bike_id":"3da9b360-54de-4f25-8af7-9b3f8004742e","system_id":"levelo_inurba_marseille","lat":43.30145,"lon":5.38081,"is_reserved":false,"is_disabled":false,"rental_uris":{"android":"levelo://app?vid=3da9b360-54de-4f25-8af7-9b3f8004742e","ios":"levelo://app?vid=3da9b360-54de-4f25-8af7-9b3f8004742e"},"vehicle_type_id":"4","last_reported":1729768067,"current_range_meters":36400,"station_id":"ce4bgjp2rcd13ifvqbh0","pricing_plan_id":"cebpf4jnsgd1na2vs0mg"},{"bike_id":"d9447c08-1a7c-4b4b-b968-d6c7901f21e4","system_id":"levelo_inurba_marseille","lat":43.2958,"lon":5.37507,"is_reserved":false,"is_disabled":false,"rental_uris":{"android":"levelo://app?vid=d9447c08-1a7c-4b4b-b968-d6c7901f21e4","ios":"levelo://app?vid=d9447c08-1a7c-4b4b-b968-d6c7901f21e4"},"vehicle_type_id":"4","last_reported":1729768067,"current_range_meters":22000,"station_id":"ce4bgh92rcd13ifvqb50","pricing_plan_id":"cebpf4jnsgd1na2vs0mg"},{"bike_id":"9af9a03b-b65e-4bde-ae38-2539162e8430","system_id":"levelo_inurba_marseille","lat":43.32365,"lon":5.38882,"is_reserved":false,"is_disabled":false,"rental_uris":{"android":"levelo://app?vid=9af9a03b-b65e-4bde-ae38-2539162e8430","ios":"levelo://app?vid=9af9a03b-b65e-4bde-ae38-2539162e8430"},"vehicle_type_id":"4","last_reported":1729768067,"current_range_meters":16400,"station_id":"ce4bhqp2rcd13ifvqhog","pricing_plan_id":"cebpf4jnsgd1na2vs0mg"},{"bike_id":"7fcbf994-2e47-4b65-86cc-9b02be9d0560","system_id":"levelo_inurba_marseille","lat":43.29932,"lon":5.36536,"is_reserved":false,"is_disabled":false,"rental_uris":{"android":"levelo://app?vid=7fcbf994-2e47-4b65-86cc-9b02be9d0560","ios":"levelo://app?vid=7fcbf994-2e47-4b65-86cc-9b02be9d0560"},"vehicle_type_id":"4","last_reported":1729768067,"current_range_meters":24000,"station_id":"ce4bgm92rcd13ifvqbr0","pricing_plan_id":"cebpf4jnsgd1na2vs0mg"},{"bike_id":"f69a14f1-0ed3-49e9-a2ed-08eff79c453e","system_id":"levelo_inurba_marseille","lat":43.28274,"lon":5.35054,"is_reserved":false,"is_disabled":false,"rental_uris":{"android":"levelo://app?vid=f69a14f1-0ed3-49e9-a2ed-08eff79c453e","ios":"levelo://app?vid=f69a14f1-0ed3-49e9-a2ed-08eff79c453e"},"vehicle_type_id":"4","last_reported":1729768067,"current_range_meters":22400,"station_id":"ce4bhbp2rcd13ifvqerg","pricing_plan_id":"cebpf4jnsgd1na2vs0mg"},{"bike_id":"9ea5d381-4f75-479b-b130-b8fd4b77af34","system_id":"levelo_inurba_marseille","lat":43.27061,"lon":5.40259,"is_reserved":false,"is_disabled":false,"rental_uris":{"android":"levelo://app?vid=9ea5d381-4f75-479b-b130-b8fd4b77af34","ios":"levelo://app?vid=9ea5d381-4f75-479b-b130-b8fd4b77af34"},"vehicle_type_id":"4","last_reported":1729768067,"current_range_meters":29600,"station_id":"ce4bhk92rcd13ifvqgc0","pricing_plan_id":"cebpf4jnsgd1na2vs0mg"},{"bike_id":"412421da-4689-4f0b-8ec7-f392fbfc025d","system_id":"levelo_inurba_marseille","lat":43.30963,"lon":5.39035,"is_reserved":false,"is_disabled":false,"rental_uris":{"android":"levelo://app?vid=412421da-4689-4f0b-8ec7-f392fbfc025d","ios":"levelo://app?vid=412421da-4689-4f0b-8ec7-f392fbfc025d"},"vehicle_type_id":"4","last_reported":1729768067,"current_range_meters":14400,"station_id":"ce4bgup2rcd13ifvqco0","pricing_plan_id":"cebpf4jnsgd1na2vs0mg"},{"bike_id":"1415d9cc-3d63-4fa5-be96-5c99e20a38cd","system_id":"levelo_inurba_marseille","lat":43.2887,"lon":5.39313,"is_reserved":false,"is_disabled":false,"rental_uris":{"android":"levelo://app?vid=1415d9cc-3d63-4fa5-be96-5c99e20a38cd","ios":"levelo://app?vid=1415d9cc-3d63-4fa5-be96-5c99e20a38cd"},"vehicle_type_id":"4","last_reported":1729768067,"current_range_meters":38000,"station_id":"ce4bh2p2rcd13ifvqdi0","pricing_plan_id":"cebpf4jnsgd1na2vs0mg"},{"bike_id":"3a904881-c49f-42f3-ab29-bca1bed304a9","system_id":"levelo_inurba_marseille","lat":43.25938,"lon":5.40899,"is_reserved":false,"is_disabled":false,"rental_uris":{"android":"levelo://app?vid=3a904881-c49f-42f3-ab29-bca1bed304a9","ios":"levelo://app?vid=3a904881-c49f-42f3-ab29-bca1bed304a9"},"vehicle_type_id":"4","last_reported":1729768067,"current_range_meters":27200,"station_id":"ce4bhm92rcd13ifvqglg","pricing_plan_id":"cebpf4jnsgd1na2vs0mg"},{"bike_id":"5f120777-a767-4e0d-af7e-e4fc1aeb29f7","system_id":"levelo_inurba_marseille","lat":43.23953,"lon":5.36637,"is_reserved":false,"is_disabled":false,"rental_uris":{"android":"levelo://app?vid=5f120777-a767-4e0d-af7e-e4fc1aeb29f7","ios":"levelo://app?vid=5f120777-a767-4e0d-af7e-e4fc1aeb29f7"},"vehicle_type_id":"4","last_reported":1729768067,"current_range_meters":14800,"station_id":"ce4bhi12rcd13ifvqfp0","pricing_plan_id":"cebpf4jnsgd1na2vs0mg"},{"bike_id":"91bfa645-9cfa-4568-8072-595cbd3b9c72","system_id":"levelo_inurba_marseille","lat":43.28886,"lon":5.36111,"is_reserved":false,"is_disabled":false,"rental_uris":{"android":"levelo://app?vid=91bfa645-9cfa-4568-8072-595cbd3b9c72","ios":"levelo://app?vid=91bfa645-9cfa-4568-8072-595cbd3b9c72"},"vehicle_type_id":"4","last_reported":1729768067,"current_range_meters":24000,"station_id":"","pricing_plan_id":"cebpf4jnsgd1na2vs0mg"},{"bike_id":"7ac878d5-7464-47b0-8096-73b091a39903","system_id":"levelo_inurba_marseille","lat":43.30527,"lon":5.36525,"is_reserved":false,"is_disabled":false,"rental_uris":{"android":"levelo://app?vid=7ac878d5-7464-47b0-8096-73b091a39903","ios":"levelo://app?vid=7ac878d5-7464-47b0-8096-73b091a39903"},"vehicle_type_id":"4","last_reported":1729768067,"current_range_meters":23200,"station_id":"ce4bgs12rcd13ifvqcag","pricing_plan_id":"cebpf4jnsgd1na2vs0mg"},{"bike_id":"678de949-9c97-4c29-87e5-9f0dabf6b6c1","system_id":"levelo_inurba_marseille","lat":43.25498,"lon":5.3765,"is_reserved":false,"is_disabled":false,"rental_uris":{"android":"levelo://app?vid=678de949-9c97-4c29-87e5-9f0dabf6b6c1","ios":"levelo://app?vid=678de949-9c97-4c29-87e5-9f0dabf6b6c1"},"vehicle_type_id":"4","last_reported":1729768067,"current_range_meters":32000,"station_id":"ce4bhh12rcd13ifvqff0","pricing_plan_id":"cebpf4jnsgd1na2vs0mg"},{"bike_id":"e1d1a720-0f91-4b37-9b66-370795908451","system_id":"levelo_inurba_marseille","lat":43.26802,"lon":5.40257,"is_reserved":false,"is_disabled":false,"rental_uris":{"android":"levelo://app?vid=e1d1a720-0f91-4b37-9b66-370795908451","ios":"levelo://app?vid=e1d1a720-0f91-4b37-9b66-370795908451"},"vehicle_type_id":"4","last_reported":1729768067,"current_range_meters":22800,"station_id":"ce501612rcd8frsf0b60","pricing_plan_id":"cebpf4jnsgd1na2vs0mg"},{"bike_id":"4a969d9a-a2f7-4482-9d72-f6a3a46a8b8b","system_id":"levelo_inurba_marseille","lat":43.30142,"lon":5.37415,"is_reserved":false,"is_disabled":false,"rental_uris":{"android":"levelo://app?vid=4a969d9a-a2f7-4482-9d72-f6a3a46a8b8b","ios":"levelo://app?vid=4a969d9a-a2f7-4482-9d72-f6a3a46a8b8b"},"vehicle_type_id":"4","last_reported":1729768067,"current_range_meters":29600,"station_id":"ce4bgs92rcd13ifvqcc0","pricing_plan_id":"cebpf4jnsgd1na2vs0mg"},{"bike_id":"12965f57-3a1d-4768-83c5-e018ff17ce98","system_id":"levelo_inurba_marseille","lat":43.24176,"lon":5.39732,"is_reserved":false,"is_disabled":false,"rental_uris":{"android":"levelo://app?vid=12965f57-3a1d-4768-83c5-e018ff17ce98","ios":"levelo://app?vid=12965f57-3a1d-4768-83c5-e018ff17ce98"},"vehicle_type_id":"4","last_reported":1729768067,"current_range_meters":38800,"station_id":"ce4bhn12rcd13ifvqgpg","pricing_plan_id":"cebpf4jnsgd1na2vs0mg"},{"bike_id":"0e5bab8e-52d1-4ded-9eef-8d76d1d1f6d5","system_id":"levelo_inurba_marseille","lat":43.28858,"lon":5.39308,"is_reserved":false,"is_disabled":false,"rental_uris":{"android":"levelo://app?vid=0e5bab8e-52d1-4ded-9eef-8d76d1d1f6d5","ios":"levelo://app?vid=0e5bab8e-52d1-4ded-9eef-8d76d1d1f6d5"},"vehicle_type_id":"4","last_reported":1729768067,"current_range_meters":38800,"station_id":"ce4bh2p2rcd13ifvqdi0","pricing_plan_id":"cebpf4jnsgd1na2vs0mg"},{"bike_id":"2b6587ae-626f-4750-aebe-9d6ab9c55b26","system_id":"levelo_inurba_marseille","lat":43.24388,"lon":5.3706,"is_reserved":false,"is_disabled":false,"rental_uris":{"android":"levelo://app?vid=2b6587ae-626f-4750-aebe-9d6ab9c55b26","ios":"levelo://app?vid=2b6587ae-626f-4750-aebe-9d6ab9c55b26"},"vehicle_type_id":"4","last_reported":1729768067,"current_range_meters":30800,"station_id":"ce4bhhh2rcd13ifvqfk0","pricing_plan_id":"cebpf4jnsgd1na2vs0mg"},{"bike_id":"a45697e3-4036-4c94-8f85-2dc3e8de435e","system_id":"levelo_inurba_marseille","lat":43.26776,"lon":5.39421,"is_reserved":false,"is_disabled":false,"rental_uris":{"android":"levelo://app?vid=a45697e3-4036-4c94-8f85-2dc3e8de435e","ios":"levelo://app?vid=a45697e3-4036-4c94-8f85-2dc3e8de435e"},"vehicle_type_id":"4","last_reported":1729768067,"current_range_meters":24800,"station_id":"ce4bhh12rcd13ifvqfg0","pricing_plan_id":"cebpf4jnsgd1na2vs0mg"},{"bike_id":"0300ae8c-d89e-4fc9-94c4-e4571dd93d5f","system_id":"levelo_inurba_marseille","lat":43.2593,"lon":5.40908,"is_reserved":false,"is_disabled":false,"rental_uris":{"android":"levelo://app?vid=0300ae8c-d89e-4fc9-94c4-e4571dd93d5f","ios":"levelo://app?vid=0300ae8c-d89e-4fc9-94c4-e4571dd93d5f"},"vehicle_type_id":"4","last_reported":1729768067,"current_range_meters":31200,"station_id":"ce4bhm92rcd13ifvqglg","pricing_plan_id":"cebpf4jnsgd1na2vs0mg"},{"bike_id":"8b368eb4-d88f-4e27-9a59-f48c296d2a4c","system_id":"levelo_inurba_marseille","lat":43.27994,"lon":5.41651,"is_reserved":false,"is_disabled":false,"rental_uris":{"android":"levelo://app?vid=8b368eb4-d88f-4e27-9a59-f48c296d2a4c","ios":"levelo://app?vid=8b368eb4-d88f-4e27-9a59-f48c296d2a4c"},"vehicle_type_id":"4","last_reported":1729768067,"current_range_meters":22800,"station_id":"ce4bho12rcd13ifvqh1g","pricing_plan_id":"cebpf4jnsgd1na2vs0mg"},{"bike_id":"5c405a47-5da1-4eb2-a048-e6e0e39d0db1","system_id":"levelo_inurba_marseille","lat":43.29844,"lon":5.36272,"is_reserved":false,"is_disabled":false,"rental_uris":{"android":"levelo://app?vid=5c405a47-5da1-4eb2-a048-e6e0e39d0db1","ios":"levelo://app?vid=5c405a47-5da1-4eb2-a048-e6e0e39d0db1"},"vehicle_type_id":"4","last_reported":1729768067,"current_range_meters":19600,"station_id":"ce4bgpp2rcd13ifvqc3g","pricing_plan_id":"cebpf4jnsgd1na2vs0mg"},{"bike_id":"5424c37e-759e-40a2-bf3c-fc1acde864fc","system_id":"levelo_inurba_marseille","lat":43.29782,"lon":5.37104,"is_reserved":false,"is_disabled":false,"rental_uris":{"android":"levelo://app?vid=5424c37e-759e-40a2-bf3c-fc1acde864fc","ios":"levelo://app?vid=5424c37e-759e-40a2-bf3c-fc1acde864fc"},"vehicle_type_id":"4","last_reported":1729768067,"current_range_meters":38800,"station_id":"ce4bgop2rcd13ifvqc1g","pricing_plan_id":"cebpf4jnsgd1na2vs0mg"},{"bike_id":"9c980766-3696-42be-8e1a-d22fb6edb5c5","system_id":"levelo_inurba_marseille","lat":43.307,"lon":5.3824,"is_reserved":false,"is_disabled":false,"rental_uris":{"android":"levelo://app?vid=9c980766-3696-42be-8e1a-d22fb6edb5c5","ios":"levelo://app?vid=9c980766-3696-42be-8e1a-d22fb6edb5c5"},"vehicle_type_id":"4","last_reported":1729768067,"current_range_meters":28400,"station_id":"","pricing_plan_id":"cebpf4jnsgd1na2vs0mg"},{"bike_id":"f71ecee2-e357-44d7-b169-b8b39ef4b213","system_id":"levelo_inurba_marseille","lat":43.31712,"lon":5.37749,"is_reserved":false,"is_disabled":false,"rental_uris":{"android":"levelo://app?vid=f71ecee2-e357-44d7-b169-b8b39ef4b213","ios":"levelo://app?vid=f71ecee2-e357-44d7-b169-b8b39ef4b213"},"vehicle_type_id":"4","last_reported":1729768067,"current_range_meters":38800,"station_id":"ce4bgth2rcd13ifvqch0","pricing_plan_id":"cebpf4jnsgd1na2vs0mg"},{"bike_id":"0cdbb134-96fa-4d9b-af27-8018256ef8c7","system_id":"levelo_inurba_marseille","lat":43.23182,"lon":5.39978,"is_reserved":false,"is_disabled":false,"rental_uris":{"android":"levelo://app?vid=0cdbb134-96fa-4d9b-af27-8018256ef8c7","ios":"levelo://app?vid=0cdbb134-96fa-4d9b-af27-8018256ef8c7"},"vehicle_type_id":"4","last_reported":1729768067,"current_range_meters":23200,"station_id":"ce4bhn12rcd13ifvqgqg","pricing_plan_id":"cebpf4jnsgd1na2vs0mg"},{"bike_id":"624fe77a-eea3-45c5-8705-7034c073ec0f","system_id":"levelo_inurba_marseille","lat":43.30531,"lon":5.36539,"is_reserved":false,"is_disabled":false,"rental_uris":{"android":"levelo://app?vid=624fe77a-eea3-45c5-8705-7034c073ec0f","ios":"levelo://app?vid=624fe77a-eea3-45c5-8705-7034c073ec0f"},"vehicle_type_id":"4","last_reported":1729768067,"current_range_meters":16400,"station_id":"ce4bgs12rcd13ifvqcag","pricing_plan_id":"cebpf4jnsgd1na2vs0mg"},{"bike_id":"0a7f5ebd-fbb7-4f7e-8e06-c5e160ac69f4","system_id":"levelo_inurba_marseille","lat":43.264855,"lon":5.395424,"is_reserved":false,"is_disabled":false,"rental_uris":{"android":"levelo://app?vid=0a7f5ebd-fbb7-4f7e-8e06-c5e160ac69f4","ios":"levelo://app?vid=0a7f5ebd-fbb7-4f7e-8e06-c5e160ac69f4"},"vehicle_type_id":"4","last_reported":1729768067,"current_range_meters":9200,"station_id":"ce4bhi12rcd13ifvqfq0","pricing_plan_id":"cebpf4jnsgd1na2vs0mg"},{"bike_id":"abb7ca20-0d99-47c4-bd29-1d80eeaf6531","system_id":"levelo_inurba_marseille","lat":43.29186,"lon":5.35804,"is_reserved":false,"is_disabled":false,"rental_uris":{"android":"levelo://app?vid=abb7ca20-0d99-47c4-bd29-1d80eeaf6531","ios":"levelo://app?vid=abb7ca20-0d99-47c4-bd29-1d80eeaf6531"},"vehicle_type_id":"4","last_reported":1729768067,"current_range_meters":17200,"station_id":"ce4bhb12rcd13ifvqel0","pricing_plan_id":"cebpf4jnsgd1na2vs0mg"},{"bike_id":"8d3a665e-b607-4c6b-bfa9-0539dee50c40","system_id":"levelo_inurba_marseille","lat":43.3106,"lon":5.38126,"is_reserved":false,"is_disabled":false,"rental_uris":{"android":"levelo://app?vid=8d3a665e-b607-4c6b-bfa9-0539dee50c40","ios":"levelo://app?vid=8d3a665e-b607-4c6b-bfa9-0539dee50c40"},"vehicle_type_id":"4","last_reported":1729768067,"current_range_meters":28000,"station_id":"ce4bgup2rcd13ifvqcn0","pricing_plan_id":"cebpf4jnsgd1na2vs0mg"},{"bike_id":"6cec86c2-ec22-4980-9cd8-43bcad5390c8","system_id":"levelo_inurba_marseille","lat":43.29598,"lon":5.38107,"is_reserved":false,"is_disabled":false,"rental_uris":{"android":"levelo://app?vid=6cec86c2-ec22-4980-9cd8-43bcad5390c8","ios":"levelo://app?vid=6cec86c2-ec22-4980-9cd8-43bcad5390c8"},"vehicle_type_id":"4","last_reported":1729768067,"current_range_meters":10800,"station_id":"ce4bgl12rcd13ifvqbo0","pricing_plan_id":"cebpf4jnsgd1na2vs0mg"},{"bike_id":"eda5aa68-848a-42c4-87e6-94c18dc405ae","system_id":"levelo_inurba_marseille","lat":43.2679,"lon":5.3941,"is_reserved":false,"is_disabled":false,"rental_uris":{"android":"levelo://app?vid=eda5aa68-848a-42c4-87e6-94c18dc405ae","ios":"levelo://app?vid=eda5aa68-848a-42c4-87e6-94c18dc405ae"},"vehicle_type_id":"4","last_reported":1729768067,"current_range_meters":16400,"station_id":"ce4bhh12rcd13ifvqfg0","pricing_plan_id":"cebpf4jnsgd1na2vs0mg"},{"bike_id":"0887c6b2-87f7-45b8-9ba9-710cc54bbbe1","system_id":"levelo_inurba_marseille","lat":43.29004,"lon":5.3561,"is_reserved":false,"is_disabled":false,"rental_uris":{"android":"levelo://app?vid=0887c6b2-87f7-45b8-9ba9-710cc54bbbe1","ios":"levelo://app?vid=0887c6b2-87f7-45b8-9ba9-710cc54bbbe1"},"vehicle_type_id":"4","last_reported":1729768067,"current_range_meters":36000,"station_id":"ce4bhb92rcd13ifvqen0","pricing_plan_id":"cebpf4jnsgd1na2vs0mg"},{"bike_id":"90c3a3ae-e1f9-49f9-8230-c82dc265a457","system_id":"levelo_inurba_marseille","lat":43.31998,"lon":5.38158,"is_reserved":false,"is_disabled":false,"rental_uris":{"android":"levelo://app?vid=90c3a3ae-e1f9-49f9-8230-c82dc265a457","ios":"levelo://app?vid=90c3a3ae-e1f9-49f9-8230-c82dc265a457"},"vehicle_type_id":"4","last_reported":1729768067,"current_range_meters":6800,"station_id":"ce4bhr12rcd13ifvqhpg","pricing_plan_id":"cebpf4jnsgd1na2vs0mg"},{"bike_id":"b61613ac-0748-4108-8037-3d7940c77f58","system_id":"levelo_inurba_marseille","lat":43.26802,"lon":5.40266,"is_reserved":false,"is_disabled":false,"rental_uris":{"android":"levelo://app?vid=b61613ac-0748-4108-8037-3d7940c77f58","ios":"levelo://app?vid=b61613ac-0748-4108-8037-3d7940c77f58"},"vehicle_type_id":"4","last_reported":1729768067,"current_range_meters":39200,"station_id":"ce501612rcd8frsf0b60","pricing_plan_id":"cebpf4jnsgd1na2vs0mg"},{"bike_id":"9dfb73b4-723d-4b4e-9917-760fbcb102be","system_id":"levelo_inurba_marseille","lat":43.28476,"lon":5.38422,"is_reserved":false,"is_disabled":false,"rental_uris":{"android":"levelo://app?vid=9dfb73b4-723d-4b4e-9917-760fbcb102be","ios":"levelo://app?vid=9dfb73b4-723d-4b4e-9917-760fbcb102be"},"vehicle_type_id":"4","last_reported":1729768067,"current_range_meters":9600,"station_id":"ce4bh512rcd13ifvqe3g","pricing_plan_id":"cebpf4jnsgd1na2vs0mg"},{"bike_id":"d1814b37-5607-4c5d-a392-2ffa942f5f7f","system_id":"levelo_inurba_marseille","lat":43.27984,"lon":5.38747,"is_reserved":false,"is_disabled":false,"rental_uris":{"android":"levelo://app?vid=d1814b37-5607-4c5d-a392-2ffa942f5f7f","ios":"levelo://app?vid=d1814b37-5607-4c5d-a392-2ffa942f5f7f"},"vehicle_type_id":"4","last_reported":1729768067,"current_range_meters":28000,"station_id":"ce4bhg12rcd13ifvqf80","pricing_plan_id":"cebpf4jnsgd1na2vs0mg"},{"bike_id":"5eb08f87-e507-4877-afdc-f9ba5c077cb1","system_id":"levelo_inurba_marseille","lat":43.28486,"lon":5.38411,"is_reserved":false,"is_disabled":false,"rental_uris":{"android":"levelo://app?vid=5eb08f87-e507-4877-afdc-f9ba5c077cb1","ios":"levelo://app?vid=5eb08f87-e507-4877-afdc-f9ba5c077cb1"},"vehicle_type_id":"4","last_reported":1729768067,"current_range_meters":16000,"station_id":"ce4bh512rcd13ifvqe3g","pricing_plan_id":"cebpf4jnsgd1na2vs0mg"},{"bike_id":"e9bdaff6-12a7-4812-90dc-5cca723480d4","system_id":"levelo_inurba_marseille","lat":43.30535,"lon":5.36543,"is_reserved":false,"is_disabled":false,"rental_uris":{"android":"levelo://app?vid=e9bdaff6-12a7-4812-90dc-5cca723480d4","ios":"levelo://app?vid=e9bdaff6-12a7-4812-90dc-5cca723480d4"},"vehicle_type_id":"4","last_reported":1729768067,"current_range_meters":37600,"station_id":"ce4bgs12rcd13ifvqcag","pricing_plan_id":"cebpf4jnsgd1na2vs0mg"},{"bike_id":"ffe3f838-285f-48bb-9e9e-326366d107aa","system_id":"levelo_inurba_marseille","lat":43.28486,"lon":5.38416,"is_reserved":false,"is_disabled":false,"rental_uris":{"android":"levelo://app?vid=ffe3f838-285f-48bb-9e9e-326366d107aa","ios":"levelo://app?vid=ffe3f838-285f-48bb-9e9e-326366d107aa"},"vehicle_type_id":"4","last_reported":1729768067,"current_range_meters":34800,"station_id":"ce4bh512rcd13ifvqe3g","pricing_plan_id":"cebpf4jnsgd1na2vs0mg"},{"bike_id":"0d3c81fa-6a31-4452-b5b1-b7fbe245fca5","system_id":"levelo_inurba_marseille","lat":43.29062,"lon":5.37176,"is_reserved":false,"is_disabled":false,"rental_uris":{"android":"levelo://app?vid=0d3c81fa-6a31-4452-b5b1-b7fbe245fca5","ios":"levelo://app?vid=0d3c81fa-6a31-4452-b5b1-b7fbe245fca5"},"vehicle_type_id":"4","last_reported":1729768067,"current_range_meters":37600,"station_id":"ce4bh5p2rcd13ifvqe4g","pricing_plan_id":"cebpf4jnsgd1na2vs0mg"},{"bike_id":"bc9ae29e-4191-4d81-902c-33a17fbfac92","system_id":"levelo_inurba_marseille","lat":43.2738,"lon":5.36256,"is_reserved":false,"is_disabled":false,"rental_uris":{"android":"levelo://app?vid=bc9ae29e-4191-4d81-902c-33a17fbfac92","ios":"levelo://app?vid=bc9ae29e-4191-4d81-902c-33a17fbfac92"},"vehicle_type_id":"4","last_reported":1729768067,"current_range_meters":24000,"station_id":"ce4bhbh2rcd13ifvqeo0","pricing_plan_id":"cebpf4jnsgd1na2vs0mg"},{"bike_id":"ccdc46be-3359-4fc8-85a3-4029df8711ec","system_id":"levelo_inurba_marseille","lat":43.26685,"lon":5.38274,"is_reserved":false,"is_disabled":false,"rental_uris":{"android":"levelo://app?vid=ccdc46be-3359-4fc8-85a3-4029df8711ec","ios":"levelo://app?vid=ccdc46be-3359-4fc8-85a3-4029df8711ec"},"vehicle_type_id":"4","last_reported":1729768067,"current_range_meters":34000,"station_id":"ce4bhg92rcd13ifvqf90","pricing_plan_id":"cebpf4jnsgd1na2vs0mg"},{"bike_id":"99627c01-8c57-492c-acf0-1ceb98852cfd","system_id":"levelo_inurba_marseille","lat":43.25497,"lon":5.3765,"is_reserved":false,"is_disabled":false,"rental_uris":{"android":"levelo://app?vid=99627c01-8c57-492c-acf0-1ceb98852cfd","ios":"levelo://app?vid=99627c01-8c57-492c-acf0-1ceb98852cfd"},"vehicle_type_id":"4","last_reported":1729768067,"current_range_meters":8800,"station_id":"ce4bhh12rcd13ifvqff0","pricing_plan_id":"cebpf4jnsgd1na2vs0mg"},{"bike_id":"00a8bd9d-eef3-42e3-9e17-61a6e620d1f8","system_id":"levelo_inurba_marseille","lat":43.33021,"lon":5.39041,"is_reserved":false,"is_disabled":false,"rental_uris":{"android":"levelo://app?vid=00a8bd9d-eef3-42e3-9e17-61a6e620d1f8","ios":"levelo://app?vid=00a8bd9d-eef3-42e3-9e17-61a6e620d1f8"},"vehicle_type_id":"4","last_reported":1729768067,"current_range_meters":38800,"station_id":"ce4bhr92rcd13ifvqhrg","pricing_plan_id":"cebpf4jnsgd1na2vs0mg"},{"bike_id":"521f5215-d512-415d-b666-ad18bd925ee1","system_id":"levelo_inurba_marseille","lat":43.28361,"lon":5.38627,"is_reserved":false,"is_disabled":false,"rental_uris":{"android":"levelo://app?vid=521f5215-d512-415d-b666-ad18bd925ee1","ios":"levelo://app?vid=521f5215-d512-415d-b666-ad18bd925ee1"},"vehicle_type_id":"4","last_reported":1729768067,"current_range_meters":27600,"station_id":"ce4bh492rcd13ifvqdvg","pricing_plan_id":"cebpf4jnsgd1na2vs0mg"},{"bike_id":"610c18fb-7e2a-407e-a510-3ee88b3b2dd0","system_id":"levelo_inurba_marseille","lat":43.30143,"lon":5.37421,"is_reserved":false,"is_disabled":false,"rental_uris":{"android":"levelo://app?vid=610c18fb-7e2a-407e-a510-3ee88b3b2dd0","ios":"levelo://app?vid=610c18fb-7e2a-407e-a510-3ee88b3b2dd0"},"vehicle_type_id":"4","last_reported":1729768067,"current_range_meters":12800,"station_id":"ce4bgs92rcd13ifvqcc0","pricing_plan_id":"cebpf4jnsgd1na2vs0mg"},{"bike_id":"40d7d049-8518-4ec4-b0e7-a82d69869ad0","system_id":"levelo_inurba_marseille","lat":43.30271,"lon":5.37705,"is_reserved":false,"is_disabled":false,"rental_uris":{"android":"levelo://app?vid=40d7d049-8518-4ec4-b0e7-a82d69869ad0","ios":"levelo://app?vid=40d7d049-8518-4ec4-b0e7-a82d69869ad0"},"vehicle_type_id":"4","last_reported":1729768067,"current_range_meters":38800,"station_id":"ce4bguh2rcd13ifvqcj0","pricing_plan_id":"cebpf4jnsgd1na2vs0mg"},{"bike_id":"3bd1e45c-77e7-484c-a4cd-42c393daeced","system_id":"levelo_inurba_marseille","lat":43.25932,"lon":5.40913,"is_reserved":false,"is_disabled":false,"rental_uris":{"android":"levelo://app?vid=3bd1e45c-77e7-484c-a4cd-42c393daeced","ios":"levelo://app?vid=3bd1e45c-77e7-484c-a4cd-42c393daeced"},"vehicle_type_id":"4","last_reported":1729768067,"current_range_meters":32800,"station_id":"ce4bhm92rcd13ifvqglg","pricing_plan_id":"cebpf4jnsgd1na2vs0mg"},{"bike_id":"6de2d199-4ac8-4705-9d5c-d241e10d9297","system_id":"levelo_inurba_marseille","lat":43.28982,"lon":5.37843,"is_reserved":false,"is_disabled":false,"rental_uris":{"android":"levelo://app?vid=6de2d199-4ac8-4705-9d5c-d241e10d9297","ios":"levelo://app?vid=6de2d199-4ac8-4705-9d5c-d241e10d9297"},"vehicle_type_id":"4","last_reported":1729768067,"current_range_meters":4000,"station_id":"ce4bh9p2rcd13ifvqed0","pricing_plan_id":"cebpf4jnsgd1na2vs0mg"},{"bike_id":"7fa314c8-fcc7-43f1-a8b1-8cb324276442","system_id":"levelo_inurba_marseille","lat":43.31233,"lon":5.36854,"is_reserved":false,"is_disabled":false,"rental_uris":{"android":"levelo://app?vid=7fa314c8-fcc7-43f1-a8b1-8cb324276442","ios":"levelo://app?vid=7fa314c8-fcc7-43f1-a8b1-8cb324276442"},"vehicle_type_id":"4","last_reported":1729768067,"current_range_meters":38800,"station_id":"ce4bgl92rcd13ifvqbq0","pricing_plan_id":"cebpf4jnsgd1na2vs0mg"},{"bike_id":"228c2a65-a88a-474e-baae-39029ce20359","system_id":"levelo_inurba_marseille","lat":43.2408,"lon":5.37754,"is_reserved":false,"is_disabled":false,"rental_uris":{"android":"levelo://app?vid=228c2a65-a88a-474e-baae-39029ce20359","ios":"levelo://app?vid=228c2a65-a88a-474e-baae-39029ce20359"},"vehicle_type_id":"4","last_reported":1729768067,"current_range_meters":37600,"station_id":"ce4bhnp2rcd13ifvqgvg","pricing_plan_id":"cebpf4jnsgd1na2vs0mg"},{"bike_id":"13df089f-9cb5-48f0-9114-491fb59b3916","system_id":"levelo_inurba_marseille","lat":43.28568,"lon":5.39509,"is_reserved":false,"is_disabled":false,"rental_uris":{"android":"levelo://app?vid=13df089f-9cb5-48f0-9114-491fb59b3916","ios":"levelo://app?vid=13df089f-9cb5-48f0-9114-491fb59b3916"},"vehicle_type_id":"4","last_reported":1729768067,"current_range_meters":2800,"station_id":"ce4bh292rcd13ifvqdg0","pricing_plan_id":"cebpf4jnsgd1na2vs0mg"},{"bike_id":"b2b9f3d6-a061-4ef3-bcc4-d6af18337c10","system_id":"levelo_inurba_marseille","lat":43.30141,"lon":5.3742,"is_reserved":false,"is_disabled":false,"rental_uris":{"android":"levelo://app?vid=b2b9f3d6-a061-4ef3-bcc4-d6af18337c10","ios":"levelo://app?vid=b2b9f3d6-a061-4ef3-bcc4-d6af18337c10"},"vehicle_type_id":"4","last_reported":1729768067,"current_range_meters":24800,"station_id":"ce4bgs92rcd13ifvqcc0","pricing_plan_id":"cebpf4jnsgd1na2vs0mg"},{"bike_id":"35c4ccfe-570c-4c7c-b9cc-a3c1ab167257","system_id":"levelo_inurba_marseille","lat":43.29848,"lon":5.36282,"is_reserved":false,"is_disabled":false,"rental_uris":{"android":"levelo://app?vid=35c4ccfe-570c-4c7c-b9cc-a3c1ab167257","ios":"levelo://app?vid=35c4ccfe-570c-4c7c-b9cc-a3c1ab167257"},"vehicle_type_id":"4","last_reported":1729768067,"current_range_meters":38800,"station_id":"ce4bgpp2rcd13ifvqc3g","pricing_plan_id":"cebpf4jnsgd1na2vs0mg"},{"bike_id":"c3e70af7-3f2f-4929-ac75-99c2d70a3d79","system_id":"levelo_inurba_marseille","lat":43.30134,"lon":5.37426,"is_reserved":false,"is_disabled":false,"rental_uris":{"android":"levelo://app?vid=c3e70af7-3f2f-4929-ac75-99c2d70a3d79","ios":"levelo://app?vid=c3e70af7-3f2f-4929-ac75-99c2d70a3d79"},"vehicle_type_id":"4","last_reported":1729768067,"current_range_meters":16800,"station_id":"ce4bgs92rcd13ifvqcc0","pricing_plan_id":"cebpf4jnsgd1na2vs0mg"},{"bike_id":"4b6769f0-9d52-4427-92eb-85214df0463d","system_id":"levelo_inurba_marseille","lat":43.23192,"lon":5.35552,"is_reserved":false,"is_disabled":false,"rental_uris":{"android":"levelo://app?vid=4b6769f0-9d52-4427-92eb-85214df0463d","ios":"levelo://app?vid=4b6769f0-9d52-4427-92eb-85214df0463d"},"vehicle_type_id":"4","last_reported":1729768067,"current_range_meters":18000,"station_id":"ce4bhu92rcd13ifvqi70","pricing_plan_id":"cebpf4jnsgd1na2vs0mg"},{"bike_id":"4ec25af9-2c50-4187-b3b7-1dc66bf6c68a","system_id":"levelo_inurba_marseille","lat":43.28293,"lon":5.40841,"is_reserved":false,"is_disabled":false,"rental_uris":{"android":"levelo://app?vid=4ec25af9-2c50-4187-b3b7-1dc66bf6c68a","ios":"levelo://app?vid=4ec25af9-2c50-4187-b3b7-1dc66bf6c68a"},"vehicle_type_id":"4","last_reported":1729768067,"current_range_meters":8000,"station_id":"","pricing_plan_id":"cebpf4jnsgd1na2vs0mg"},{"bike_id":"32ce55f0-808d-413b-bc8a-59ca7f7c15fd","system_id":"levelo_inurba_marseille","lat":43.28841,"lon":5.39323,"is_reserved":false,"is_disabled":false,"rental_uris":{"android":"levelo://app?vid=32ce55f0-808d-413b-bc8a-59ca7f7c15fd","ios":"levelo://app?vid=32ce55f0-808d-413b-bc8a-59ca7f7c15fd"},"vehicle_type_id":"4","last_reported":1729768067,"current_range_meters":38800,"station_id":"ce4bh2p2rcd13ifvqdi0","pricing_plan_id":"cebpf4jnsgd1na2vs0mg"},{"bike_id":"e360ce09-236a-4b01-8d2b-2451a5894b4b","system_id":"levelo_inurba_marseille","lat":43.33022,"lon":5.39047,"is_reserved":false,"is_disabled":false,"rental_uris":{"android":"levelo://app?vid=e360ce09-236a-4b01-8d2b-2451a5894b4b","ios":"levelo://app?vid=e360ce09-236a-4b01-8d2b-2451a5894b4b"},"vehicle_type_id":"4","last_reported":1729768067,"current_range_meters":38800,"station_id":"ce4bhr92rcd13ifvqhrg","pricing_plan_id":"cebpf4jnsgd1na2vs0mg"},{"bike_id":"e653a1a7-8a2d-4b9b-8e36-f808b73bb071","system_id":"levelo_inurba_marseille","lat":43.30461,"lon":5.37903,"is_reserved":false,"is_disabled":false,"rental_uris":{"android":"levelo://app?vid=e653a1a7-8a2d-4b9b-8e36-f808b73bb071","ios":"levelo://app?vid=e653a1a7-8a2d-4b9b-8e36-f808b73bb071"},"vehicle_type_id":"4","last_reported":1729768067,"current_range_meters":23200,"station_id":"ce4bgup2rcd13ifvqcn0","pricing_plan_id":"cebpf4jnsgd1na2vs0mg"},{"bike_id":"c52d9bb7-25e8-43a2-bc2d-83d510a9263a","system_id":"levelo_inurba_marseille","lat":43.30308,"lon":5.36901,"is_reserved":false,"is_disabled":false,"rental_uris":{"android":"levelo://app?vid=c52d9bb7-25e8-43a2-bc2d-83d510a9263a","ios":"levelo://app?vid=c52d9bb7-25e8-43a2-bc2d-83d510a9263a"},"vehicle_type_id":"4","last_reported":1729768067,"current_range_meters":17600,"station_id":"ce4bgqh2rcd13ifvqc5g","pricing_plan_id":"cebpf4jnsgd1na2vs0mg"},{"bike_id":"eb098abf-7816-4ec9-ba59-3967db2af13f","system_id":"levelo_inurba_marseille","lat":43.27189,"lon":5.40982,"is_reserved":false,"is_disabled":false,"rental_uris":{"android":"levelo://app?vid=eb098abf-7816-4ec9-ba59-3967db2af13f","ios":"levelo://app?vid=eb098abf-7816-4ec9-ba59-3967db2af13f"},"vehicle_type_id":"4","last_reported":1729768067,"current_range_meters":27200,"station_id":"ce4bhl12rcd13ifvqgf0","pricing_plan_id":"cebpf4jnsgd1na2vs0mg"},{"bike_id":"103ed008-6f4b-4142-8ae0-e6b210d9a427","system_id":"levelo_inurba_marseille","lat":43.22928,"lon":5.35374,"is_reserved":false,"is_disabled":false,"rental_uris":{"android":"levelo://app?vid=103ed008-6f4b-4142-8ae0-e6b210d9a427","ios":"levelo://app?vid=103ed008-6f4b-4142-8ae0-e6b210d9a427"},"vehicle_type_id":"4","last_reported":1729768067,"current_range_meters":11200,"station_id":"cpo3532slgdg3j2ikp40","pricing_plan_id":"cebpf4jnsgd1na2vs0mg"},{"bike_id":"ca5536a6-d4cf-4970-b396-d6337f5fcca0","system_id":"levelo_inurba_marseille","lat":43.33604,"lon":5.4103,"is_reserved":false,"is_disabled":false,"rental_uris":{"android":"levelo://app?vid=ca5536a6-d4cf-4970-b396-d6337f5fcca0","ios":"levelo://app?vid=ca5536a6-d4cf-4970-b396-d6337f5fcca0"},"vehicle_type_id":"4","last_reported":1729768067,"current_range_meters":10800,"station_id":"ce4bhqh2rcd13ifvqhmg","pricing_plan_id":"cebpf4jnsgd1na2vs0mg"},{"bike_id":"dded596a-f90c-4c39-88ca-17060e5fd4d0","system_id":"levelo_inurba_marseille","lat":43.25932,"lon":5.40913,"is_reserved":false,"is_disabled":false,"rental_uris":{"android":"levelo://app?vid=dded596a-f90c-4c39-88ca-17060e5fd4d0","ios":"levelo://app?vid=dded596a-f90c-4c39-88ca-17060e5fd4d0"},"vehicle_type_id":"4","last_reported":1729768067,"current_range_meters":7200,"station_id":"ce4bhm92rcd13ifvqglg","pricing_plan_id":"cebpf4jnsgd1na2vs0mg"},{"bike_id":"1629241d-8a30-44b7-8ffc-7b7a0add6483","system_id":"levelo_inurba_marseille","lat":43.29752,"lon":5.38136,"is_reserved":false,"is_disabled":false,"rental_uris":{"android":"levelo://app?vid=1629241d-8a30-44b7-8ffc-7b7a0add6483","ios":"levelo://app?vid=1629241d-8a30-44b7-8ffc-7b7a0add6483"},"vehicle_type_id":"4","last_reported":1729768067,"current_range_meters":28400,"station_id":"ce4bgip2rcd13ifvqbb0","pricing_plan_id":"cebpf4jnsgd1na2vs0mg"},{"bike_id":"b54c802e-b8c4-43dd-bbf5-e224bfc6c0df","system_id":"levelo_inurba_marseille","lat":43.30803,"lon":5.38148,"is_reserved":false,"is_disabled":false,"rental_uris":{"android":"levelo://app?vid=b54c802e-b8c4-43dd-bbf5-e224bfc6c0df","ios":"levelo://app?vid=b54c802e-b8c4-43dd-bbf5-e224bfc6c0df"},"vehicle_type_id":"4","last_reported":1729768067,"current_range_meters":2000,"station_id":"ce4bgt12rcd13ifvqce0","pricing_plan_id":"cebpf4jnsgd1na2vs0mg"},{"bike_id":"e93d0849-6889-4c3b-b756-5d2c77aee686","system_id":"levelo_inurba_marseille","lat":43.27988,"lon":5.4166,"is_reserved":false,"is_disabled":false,"rental_uris":{"android":"levelo://app?vid=e93d0849-6889-4c3b-b756-5d2c77aee686","ios":"levelo://app?vid=e93d0849-6889-4c3b-b756-5d2c77aee686"},"vehicle_type_id":"4","last_reported":1729768067,"current_range_meters":38000,"station_id":"ce4bho12rcd13ifvqh1g","pricing_plan_id":"cebpf4jnsgd1na2vs0mg"},{"bike_id":"8b03d398-8900-4cbd-8f0d-e268b1b9f483","system_id":"levelo_inurba_marseille","lat":43.25726,"lon":5.41107,"is_reserved":false,"is_disabled":false,"rental_uris":{"android":"levelo://app?vid=8b03d398-8900-4cbd-8f0d-e268b1b9f483","ios":"levelo://app?vid=8b03d398-8900-4cbd-8f0d-e268b1b9f483"},"vehicle_type_id":"4","last_reported":1729768067,"current_range_meters":33600,"station_id":"ce4bhkp2rcd13ifvqgd0","pricing_plan_id":"cebpf4jnsgd1na2vs0mg"},{"bike_id":"60fa8af4-5768-4621-acfd-1f361b386abc","system_id":"levelo_inurba_marseille","lat":43.28475,"lon":5.3856,"is_reserved":false,"is_disabled":false,"rental_uris":{"android":"levelo://app?vid=60fa8af4-5768-4621-acfd-1f361b386abc","ios":"levelo://app?vid=60fa8af4-5768-4621-acfd-1f361b386abc"},"vehicle_type_id":"4","last_reported":1729768067,"current_range_meters":7200,"station_id":"ce4bh8p2rcd13ifvqeb0","pricing_plan_id":"cebpf4jnsgd1na2vs0mg"},{"bike_id":"5468697d-7158-411b-95f9-d6741a6e2079","system_id":"levelo_inurba_marseille","lat":43.26678,"lon":5.38265,"is_reserved":false,"is_disabled":false,"rental_uris":{"android":"levelo://app?vid=5468697d-7158-411b-95f9-d6741a6e2079","ios":"levelo://app?vid=5468697d-7158-411b-95f9-d6741a6e2079"},"vehicle_type_id":"4","last_reported":1729768067,"current_range_meters":17600,"station_id":"ce4bhg92rcd13ifvqf90","pricing_plan_id":"cebpf4jnsgd1na2vs0mg"},{"bike_id":"dc9a765b-b0a7-4ba4-b3d9-747e3f62e985","system_id":"levelo_inurba_marseille","lat":43.3027,"lon":5.39662,"is_reserved":false,"is_disabled":false,"rental_uris":{"android":"levelo://app?vid=dc9a765b-b0a7-4ba4-b3d9-747e3f62e985","ios":"levelo://app?vid=dc9a765b-b0a7-4ba4-b3d9-747e3f62e985"},"vehicle_type_id":"4","last_reported":1729768067,"current_range_meters":10000,"station_id":"","pricing_plan_id":"cebpf4jnsgd1na2vs0mg"},{"bike_id":"2e019835-c9af-49bc-8fd8-5535e847045a","system_id":"levelo_inurba_marseille","lat":43.29304,"lon":5.37455,"is_reserved":false,"is_disabled":false,"rental_uris":{"android":"levelo://app?vid=2e019835-c9af-49bc-8fd8-5535e847045a","ios":"levelo://app?vid=2e019835-c9af-49bc-8fd8-5535e847045a"},"vehicle_type_id":"4","last_reported":1729768067,"current_range_meters":38800,"station_id":"ce4bgi12rcd13ifvqb70","pricing_plan_id":"cebpf4jnsgd1na2vs0mg"},{"bike_id":"0bc90dc2-cf8c-457e-a6aa-9b91de95f992","system_id":"levelo_inurba_marseille","lat":43.22788,"lon":5.4156,"is_reserved":false,"is_disabled":false,"rental_uris":{"android":"levelo://app?vid=0bc90dc2-cf8c-457e-a6aa-9b91de95f992","ios":"levelo://app?vid=0bc90dc2-cf8c-457e-a6aa-9b91de95f992"},"vehicle_type_id":"4","last_reported":1729768067,"current_range_meters":33200,"station_id":"","pricing_plan_id":"cebpf4jnsgd1na2vs0mg"},{"bike_id":"a6aceeff-43a5-49f2-8a22-1eb508463962","system_id":"levelo_inurba_marseille","lat":43.28359,"lon":5.38103,"is_reserved":false,"is_disabled":false,"rental_uris":{"android":"levelo://app?vid=a6aceeff-43a5-49f2-8a22-1eb508463962","ios":"levelo://app?vid=a6aceeff-43a5-49f2-8a22-1eb508463962"},"vehicle_type_id":"4","last_reported":1729768067,"current_range_meters":7200,"station_id":"ce4bh412rcd13ifvqdr0","pricing_plan_id":"cebpf4jnsgd1na2vs0mg"},{"bike_id":"b043d00a-1bd1-4183-8df0-8a0f187bb040","system_id":"levelo_inurba_marseille","lat":43.34144,"lon":5.40907,"is_reserved":false,"is_disabled":false,"rental_uris":{"android":"levelo://app?vid=b043d00a-1bd1-4183-8df0-8a0f187bb040","ios":"levelo://app?vid=b043d00a-1bd1-4183-8df0-8a0f187bb040"},"vehicle_type_id":"4","last_reported":1729768067,"current_range_meters":30800,"station_id":"ce4bhqh2rcd13ifvqhlg","pricing_plan_id":"cebpf4jnsgd1na2vs0mg"},{"bike_id":"dfff237d-0773-4709-be32-4a8811e53f9d","system_id":"levelo_inurba_marseille","lat":43.28656,"lon":5.36355,"is_reserved":false,"is_disabled":false,"rental_uris":{"android":"levelo://app?vid=dfff237d-0773-4709-be32-4a8811e53f9d","ios":"levelo://app?vid=dfff237d-0773-4709-be32-4a8811e53f9d"},"vehicle_type_id":"4","last_reported":1729768067,"current_range_meters":9600,"station_id":"ce4bhah2rcd13ifvqej0","pricing_plan_id":"cebpf4jnsgd1na2vs0mg"},{"bike_id":"937e22e5-2fee-4e2e-af44-97a8feec02b9","system_id":"levelo_inurba_marseille","lat":43.30937,"lon":5.40138,"is_reserved":false,"is_disabled":false,"rental_uris":{"android":"levelo://app?vid=937e22e5-2fee-4e2e-af44-97a8feec02b9","ios":"levelo://app?vid=937e22e5-2fee-4e2e-af44-97a8feec02b9"},"vehicle_type_id":"4","last_reported":1729768067,"current_range_meters":30000,"station_id":"ce4bgvp2rcd13ifvqct0","pricing_plan_id":"cebpf4jnsgd1na2vs0mg"},{"bike_id":"bb2a666e-d4fd-434c-9930-bd52d9e92c1d","system_id":"levelo_inurba_marseille","lat":43.25935,"lon":5.40894,"is_reserved":false,"is_disabled":false,"rental_uris":{"android":"levelo://app?vid=bb2a666e-d4fd-434c-9930-bd52d9e92c1d","ios":"levelo://app?vid=bb2a666e-d4fd-434c-9930-bd52d9e92c1d"},"vehicle_type_id":"4","last_reported":1729768067,"current_range_meters":37600,"station_id":"ce4bhm92rcd13ifvqglg","pricing_plan_id":"cebpf4jnsgd1na2vs0mg"},{"bike_id":"34abaad9-1608-401d-abe1-1821ef73d17a","system_id":"levelo_inurba_marseille","lat":43.3051,"lon":5.36597,"is_reserved":false,"is_disabled":false,"rental_uris":{"android":"levelo://app?vid=34abaad9-1608-401d-abe1-1821ef73d17a","ios":"levelo://app?vid=34abaad9-1608-401d-abe1-1821ef73d17a"},"vehicle_type_id":"4","last_reported":1729768067,"current_range_meters":38800,"station_id":"","pricing_plan_id":"cebpf4jnsgd1na2vs0mg"},{"bike_id":"9050aa27-210e-4a00-99a6-53ce385deffc","system_id":"levelo_inurba_marseille","lat":43.29624,"lon":5.37151,"is_reserved":false,"is_disabled":false,"rental_uris":{"android":"levelo://app?vid=9050aa27-210e-4a00-99a6-53ce385deffc","ios":"levelo://app?vid=9050aa27-210e-4a00-99a6-53ce385deffc"},"vehicle_type_id":"4","last_reported":1729768067,"current_range_meters":38800,"station_id":"ce4bgnh2rcd13ifvqc0g","pricing_plan_id":"cebpf4jnsgd1na2vs0mg"},{"bike_id":"a0bfcec4-1019-4422-bc30-2e46cb48cb4e","system_id":"levelo_inurba_marseille","lat":43.33753,"lon":5.37433,"is_reserved":false,"is_disabled":false,"rental_uris":{"android":"levelo://app?vid=a0bfcec4-1019-4422-bc30-2e46cb48cb4e","ios":"levelo://app?vid=a0bfcec4-1019-4422-bc30-2e46cb48cb4e"},"vehicle_type_id":"4","last_reported":1729768067,"current_range_meters":22800,"station_id":"","pricing_plan_id":"cebpf4jnsgd1na2vs0mg"},{"bike_id":"9e0fe749-668f-471c-9eec-da692379dec9","system_id":"levelo_inurba_marseille","lat":43.2988,"lon":5.38912,"is_reserved":false,"is_disabled":false,"rental_uris":{"android":"levelo://app?vid=9e0fe749-668f-471c-9eec-da692379dec9","ios":"levelo://app?vid=9e0fe749-668f-471c-9eec-da692379dec9"},"vehicle_type_id":"4","last_reported":1729768067,"current_range_meters":38400,"station_id":"ce4bh392rcd13ifvqdl0","pricing_plan_id":"cebpf4jnsgd1na2vs0mg"},{"bike_id":"5a4e09b1-1395-411e-b96a-e315deef4499","system_id":"levelo_inurba_marseille","lat":43.30893,"lon":5.37176,"is_reserved":false,"is_disabled":false,"rental_uris":{"android":"levelo://app?vid=5a4e09b1-1395-411e-b96a-e315deef4499","ios":"levelo://app?vid=5a4e09b1-1395-411e-b96a-e315deef4499"},"vehicle_type_id":"4","last_reported":1729768067,"current_range_meters":29600,"station_id":"ce4bguh2rcd13ifvqckg","pricing_plan_id":"cebpf4jnsgd1na2vs0mg"},{"bike_id":"b2402164-a84a-4a3f-a2cc-a31a3ff5defe","system_id":"levelo_inurba_marseille","lat":43.30426,"lon":5.39766,"is_reserved":false,"is_disabled":false,"rental_uris":{"android":"levelo://app?vid=b2402164-a84a-4a3f-a2cc-a31a3ff5defe","ios":"levelo://app?vid=b2402164-a84a-4a3f-a2cc-a31a3ff5defe"},"vehicle_type_id":"4","last_reported":1729768067,"current_range_meters":38800,"station_id":"ce4bh092rcd13ifvqd20","pricing_plan_id":"cebpf4jnsgd1na2vs0mg"},{"bike_id":"9cc86360-5eab-45ae-a458-952e8a91e43e","system_id":"levelo_inurba_marseille","lat":43.22933,"lon":5.35379,"is_reserved":false,"is_disabled":false,"rental_uris":{"android":"levelo://app?vid=9cc86360-5eab-45ae-a458-952e8a91e43e","ios":"levelo://app?vid=9cc86360-5eab-45ae-a458-952e8a91e43e"},"vehicle_type_id":"4","last_reported":1729768067,"current_range_meters":16800,"station_id":"cpo3532slgdg3j2ikp40","pricing_plan_id":"cebpf4jnsgd1na2vs0mg"},{"bike_id":"f7a0de5f-0ab0-462c-9f8c-f233935f432b","system_id":"levelo_inurba_marseille","lat":43.23189,"lon":5.35556,"is_reserved":false,"is_disabled":false,"rental_uris":{"android":"levelo://app?vid=f7a0de5f-0ab0-462c-9f8c-f233935f432b","ios":"levelo://app?vid=f7a0de5f-0ab0-462c-9f8c-f233935f432b"},"vehicle_type_id":"4","last_reported":1729768067,"current_range_meters":34800,"station_id":"ce4bhu92rcd13ifvqi70","pricing_plan_id":"cebpf4jnsgd1na2vs0mg"},{"bike_id":"fdf0cd5c-860a-46bf-98f9-0b89fcc3adf2","system_id":"levelo_inurba_marseille","lat":43.272,"lon":5.39169,"is_reserved":false,"is_disabled":false,"rental_uris":{"android":"levelo://app?vid=fdf0cd5c-860a-46bf-98f9-0b89fcc3adf2","ios":"levelo://app?vid=fdf0cd5c-860a-46bf-98f9-0b89fcc3adf2"},"vehicle_type_id":"4","last_reported":1729768067,"current_range_meters":4800,"station_id":"ce4bhhp2rcd13ifvqfm0","pricing_plan_id":"cebpf4jnsgd1na2vs0mg"},{"bike_id":"6860251b-c810-4d16-b5cb-edf05a1698a5","system_id":"levelo_inurba_marseille","lat":43.27908,"lon":5.37989,"is_reserved":false,"is_disabled":false,"rental_uris":{"android":"levelo://app?vid=6860251b-c810-4d16-b5cb-edf05a1698a5","ios":"levelo://app?vid=6860251b-c810-4d16-b5cb-edf05a1698a5"},"vehicle_type_id":"4","last_reported":1729768067,"current_range_meters":29600,"station_id":"ce4bhf92rcd13ifvqf50","pricing_plan_id":"cebpf4jnsgd1na2vs0mg"},{"bike_id":"b2b83daf-9c55-434a-8c20-91a69bc6e564","system_id":"levelo_inurba_marseille","lat":43.3133,"lon":5.39697,"is_reserved":false,"is_disabled":false,"rental_uris":{"android":"levelo://app?vid=b2b83daf-9c55-434a-8c20-91a69bc6e564","ios":"levelo://app?vid=b2b83daf-9c55-434a-8c20-91a69bc6e564"},"vehicle_type_id":"4","last_reported":1729768067,"current_range_meters":28000,"station_id":"ce4bgvp2rcd13ifvqcu0","pricing_plan_id":"cebpf4jnsgd1na2vs0mg"},{"bike_id":"cd2f66d2-7685-4f10-9cb7-36fac7a68daf","system_id":"levelo_inurba_marseille","lat":43.28859,"lon":5.35856,"is_reserved":false,"is_disabled":false,"rental_uris":{"android":"levelo://app?vid=cd2f66d2-7685-4f10-9cb7-36fac7a68daf","ios":"levelo://app?vid=cd2f66d2-7685-4f10-9cb7-36fac7a68daf"},"vehicle_type_id":"4","last_reported":1729768067,"current_range_meters":27200,"station_id":"ce4bhb12rcd13ifvqem0","pricing_plan_id":"cebpf4jnsgd1na2vs0mg"},{"bike_id":"484f6353-c630-4b55-8b88-6f80ade67c05","system_id":"levelo_inurba_marseille","lat":43.32655,"lon":5.40992,"is_reserved":false,"is_disabled":false,"rental_uris":{"android":"levelo://app?vid=484f6353-c630-4b55-8b88-6f80ade67c05","ios":"levelo://app?vid=484f6353-c630-4b55-8b88-6f80ade67c05"},"vehicle_type_id":"4","last_reported":1729768067,"current_range_meters":39200,"station_id":"ce4bhpp2rcd13ifvqhgg","pricing_plan_id":"cebpf4jnsgd1na2vs0mg"},{"bike_id":"e8d0ac63-9341-4151-adb7-1e0c24619ff3","system_id":"levelo_inurba_marseille","lat":43.33609,"lon":5.41027,"is_reserved":false,"is_disabled":false,"rental_uris":{"android":"levelo://app?vid=e8d0ac63-9341-4151-adb7-1e0c24619ff3","ios":"levelo://app?vid=e8d0ac63-9341-4151-adb7-1e0c24619ff3"},"vehicle_type_id":"4","last_reported":1729768067,"current_range_meters":38800,"station_id":"ce4bhqh2rcd13ifvqhmg","pricing_plan_id":"cebpf4jnsgd1na2vs0mg"},{"bike_id":"7c13c3e8-f8bb-45ab-a5ad-926d67e7fa0f","system_id":"levelo_inurba_marseille","lat":43.29902,"lon":5.38141,"is_reserved":false,"is_disabled":false,"rental_uris":{"android":"levelo://app?vid=7c13c3e8-f8bb-45ab-a5ad-926d67e7fa0f","ios":"levelo://app?vid=7c13c3e8-f8bb-45ab-a5ad-926d67e7fa0f"},"vehicle_type_id":"4","last_reported":1729768067,"current_range_meters":35200,"station_id":"ce4bgj12rcd13ifvqbc0","pricing_plan_id":"cebpf4jnsgd1na2vs0mg"},{"bike_id":"cfcebfa7-3f59-4d32-a8f1-45e59f6e2f26","system_id":"levelo_inurba_marseille","lat":43.22932,"lon":5.35378,"is_reserved":false,"is_disabled":false,"rental_uris":{"android":"levelo://app?vid=cfcebfa7-3f59-4d32-a8f1-45e59f6e2f26","ios":"levelo://app?vid=cfcebfa7-3f59-4d32-a8f1-45e59f6e2f26"},"vehicle_type_id":"4","last_reported":1729768067,"current_range_meters":31200,"station_id":"cpo3532slgdg3j2ikp40","pricing_plan_id":"cebpf4jnsgd1na2vs0mg"},{"bike_id":"b8ec400a-2808-43cc-95a6-dea8cd5a18ba","system_id":"levelo_inurba_marseille","lat":43.320355,"lon":5.367664,"is_reserved":false,"is_disabled":false,"rental_uris":{"android":"levelo://app?vid=b8ec400a-2808-43cc-95a6-dea8cd5a18ba","ios":"levelo://app?vid=b8ec400a-2808-43cc-95a6-dea8cd5a18ba"},"vehicle_type_id":"4","last_reported":1729768067,"current_range_meters":24800,"station_id":"ce4bhrh2rcd13ifvqhug","pricing_plan_id":"cebpf4jnsgd1na2vs0mg"},{"bike_id":"3e381e9b-65a4-436a-a571-b4ba1ee13663","system_id":"levelo_inurba_marseille","lat":43.32485,"lon":5.36556,"is_reserved":false,"is_disabled":false,"rental_uris":{"android":"levelo://app?vid=3e381e9b-65a4-436a-a571-b4ba1ee13663","ios":"levelo://app?vid=3e381e9b-65a4-436a-a571-b4ba1ee13663"},"vehicle_type_id":"4","last_reported":1729768067,"current_range_meters":16800,"station_id":"ce4bhs12rcd13ifvqhvg","pricing_plan_id":"cebpf4jnsgd1na2vs0mg"},{"bike_id":"3a526fc6-5f14-429c-8829-287dc38ef285","system_id":"levelo_inurba_marseille","lat":43.22931,"lon":5.35374,"is_reserved":false,"is_disabled":false,"rental_uris":{"android":"levelo://app?vid=3a526fc6-5f14-429c-8829-287dc38ef285","ios":"levelo://app?vid=3a526fc6-5f14-429c-8829-287dc38ef285"},"vehicle_type_id":"4","last_reported":1729768067,"current_range_meters":32000,"station_id":"cpo3532slgdg3j2ikp40","pricing_plan_id":"cebpf4jnsgd1na2vs0mg"},{"bike_id":"9079fa00-9b19-4ef8-93f1-6fed62bce2cb","system_id":"levelo_inurba_marseille","lat":43.29557,"lon":5.42298,"is_reserved":false,"is_disabled":false,"rental_uris":{"android":"levelo://app?vid=9079fa00-9b19-4ef8-93f1-6fed62bce2cb","ios":"levelo://app?vid=9079fa00-9b19-4ef8-93f1-6fed62bce2cb"},"vehicle_type_id":"4","last_reported":1729768067,"current_range_meters":4000,"station_id":"ce4bhph2rcd13ifvqhdg","pricing_plan_id":"cebpf4jnsgd1na2vs0mg"},{"bike_id":"c171dc13-2139-4fd3-ab31-d029a5dc650b","system_id":"levelo_inurba_marseille","lat":43.25123,"lon":5.4032,"is_reserved":false,"is_disabled":false,"rental_uris":{"android":"levelo://app?vid=c171dc13-2139-4fd3-ab31-d029a5dc650b","ios":"levelo://app?vid=c171dc13-2139-4fd3-ab31-d029a5dc650b"},"vehicle_type_id":"4","last_reported":1729768067,"current_range_meters":14800,"station_id":"ce4bhlh2rcd13ifvqgig","pricing_plan_id":"cebpf4jnsgd1na2vs0mg"},{"bike_id":"365a5e76-e012-4983-b8a9-1a07480bde83","system_id":"levelo_inurba_marseille","lat":43.23192,"lon":5.35547,"is_reserved":false,"is_disabled":false,"rental_uris":{"android":"levelo://app?vid=365a5e76-e012-4983-b8a9-1a07480bde83","ios":"levelo://app?vid=365a5e76-e012-4983-b8a9-1a07480bde83"},"vehicle_type_id":"4","last_reported":1729768067,"current_range_meters":38800,"station_id":"ce4bhu92rcd13ifvqi70","pricing_plan_id":"cebpf4jnsgd1na2vs0mg"},{"bike_id":"6238641e-c4b1-47db-8e1c-3446ea1a80b0","system_id":"levelo_inurba_marseille","lat":43.30552,"lon":5.36532,"is_reserved":false,"is_disabled":false,"rental_uris":{"android":"levelo://app?vid=6238641e-c4b1-47db-8e1c-3446ea1a80b0","ios":"levelo://app?vid=6238641e-c4b1-47db-8e1c-3446ea1a80b0"},"vehicle_type_id":"4","last_reported":1729768067,"current_range_meters":32800,"station_id":"ce4bgs12rcd13ifvqcag","pricing_plan_id":"cebpf4jnsgd1na2vs0mg"},{"bike_id":"c0a2c481-fabb-4e11-a000-2c2c1e1749fa","system_id":"levelo_inurba_marseille","lat":43.22929,"lon":5.35375,"is_reserved":false,"is_disabled":false,"rental_uris":{"android":"levelo://app?vid=c0a2c481-fabb-4e11-a000-2c2c1e1749fa","ios":"levelo://app?vid=c0a2c481-fabb-4e11-a000-2c2c1e1749fa"},"vehicle_type_id":"4","last_reported":1729768067,"current_range_meters":18800,"station_id":"cpo3532slgdg3j2ikp40","pricing_plan_id":"cebpf4jnsgd1na2vs0mg"},{"bike_id":"591f5842-a96e-4203-9c25-a549cc9b48c8","system_id":"levelo_inurba_marseille","lat":43.28453,"lon":5.39201,"is_reserved":false,"is_disabled":false,"rental_uris":{"android":"levelo://app?vid=591f5842-a96e-4203-9c25-a549cc9b48c8","ios":"levelo://app?vid=591f5842-a96e-4203-9c25-a549cc9b48c8"},"vehicle_type_id":"4","last_reported":1729768067,"current_range_meters":34000,"station_id":"ce4bhoh2rcd13ifvqh5g","pricing_plan_id":"cebpf4jnsgd1na2vs0mg"},{"bike_id":"ab3b756e-d6b8-43c7-a159-6d2dc1126f8b","system_id":"levelo_inurba_marseille","lat":43.29312,"lon":5.37453,"is_reserved":false,"is_disabled":false,"rental_uris":{"android":"levelo://app?vid=ab3b756e-d6b8-43c7-a159-6d2dc1126f8b","ios":"levelo://app?vid=ab3b756e-d6b8-43c7-a159-6d2dc1126f8b"},"vehicle_type_id":"4","last_reported":1729768067,"current_range_meters":32800,"station_id":"ce4bgi12rcd13ifvqb70","pricing_plan_id":"cebpf4jnsgd1na2vs0mg"},{"bike_id":"3dc2eb7e-15a4-47fb-81be-d850bbd51ccf","system_id":"levelo_inurba_marseille","lat":43.337592,"lon":5.374579,"is_reserved":false,"is_disabled":false,"rental_uris":{"android":"levelo://app?vid=3dc2eb7e-15a4-47fb-81be-d850bbd51ccf","ios":"levelo://app?vid=3dc2eb7e-15a4-47fb-81be-d850bbd51ccf"},"vehicle_type_id":"4","last_reported":1729768067,"current_range_meters":38400,"station_id":"","pricing_plan_id":"cebpf4jnsgd1na2vs0mg"},{"bike_id":"48a71a10-4989-4826-a330-ad6a8c8edf29","system_id":"levelo_inurba_marseille","lat":43.30461,"lon":5.37897,"is_reserved":false,"is_disabled":false,"rental_uris":{"android":"levelo://app?vid=48a71a10-4989-4826-a330-ad6a8c8edf29","ios":"levelo://app?vid=48a71a10-4989-4826-a330-ad6a8c8edf29"},"vehicle_type_id":"4","last_reported":1729768067,"current_range_meters":38800,"station_id":"ce4bgup2rcd13ifvqcn0","pricing_plan_id":"cebpf4jnsgd1na2vs0mg"},{"bike_id":"8f20c90d-ac36-40d0-bb2f-f170a888d7d0","system_id":"levelo_inurba_marseille","lat":43.29894,"lon":5.43675,"is_reserved":false,"is_disabled":false,"rental_uris":{"android":"levelo://app?vid=8f20c90d-ac36-40d0-bb2f-f170a888d7d0","ios":"levelo://app?vid=8f20c90d-ac36-40d0-bb2f-f170a888d7d0"},"vehicle_type_id":"4","last_reported":1729768067,"current_range_meters":26800,"station_id":"ce4bhpp2rcd13ifvqhfg","pricing_plan_id":"cebpf4jnsgd1na2vs0mg"},{"bike_id":"ff9b0068-e30c-4d75-819f-3228b4db3432","system_id":"levelo_inurba_marseille","lat":43.28358,"lon":5.38107,"is_reserved":false,"is_disabled":false,"rental_uris":{"android":"levelo://app?vid=ff9b0068-e30c-4d75-819f-3228b4db3432","ios":"levelo://app?vid=ff9b0068-e30c-4d75-819f-3228b4db3432"},"vehicle_type_id":"4","last_reported":1729768067,"current_range_meters":28800,"station_id":"ce4bh412rcd13ifvqdr0","pricing_plan_id":"cebpf4jnsgd1na2vs0mg"},{"bike_id":"6ae03549-5478-4731-b9e3-9ceeba8b2934","system_id":"levelo_inurba_marseille","lat":43.32365,"lon":5.38878,"is_reserved":false,"is_disabled":false,"rental_uris":{"android":"levelo://app?vid=6ae03549-5478-4731-b9e3-9ceeba8b2934","ios":"levelo://app?vid=6ae03549-5478-4731-b9e3-9ceeba8b2934"},"vehicle_type_id":"4","last_reported":1729768067,"current_range_meters":18000,"station_id":"ce4bhqp2rcd13ifvqhog","pricing_plan_id":"cebpf4jnsgd1na2vs0mg"},{"bike_id":"49e1ce75-cbc0-40d8-b38b-24a6cbca7aba","system_id":"levelo_inurba_marseille","lat":43.29937,"lon":5.36547,"is_reserved":false,"is_disabled":false,"rental_uris":{"android":"levelo://app?vid=49e1ce75-cbc0-40d8-b38b-24a6cbca7aba","ios":"levelo://app?vid=49e1ce75-cbc0-40d8-b38b-24a6cbca7aba"},"vehicle_type_id":"4","last_reported":1729768067,"current_range_meters":25200,"station_id":"ce4bgm92rcd13ifvqbr0","pricing_plan_id":"cebpf4jnsgd1na2vs0mg"},{"bike_id":"0e8c46cb-9e07-4da6-a27d-ca289b012c5c","system_id":"levelo_inurba_marseille","lat":43.272858,"lon":5.391695,"is_reserved":false,"is_disabled":false,"rental_uris":{"android":"levelo://app?vid=0e8c46cb-9e07-4da6-a27d-ca289b012c5c","ios":"levelo://app?vid=0e8c46cb-9e07-4da6-a27d-ca289b012c5c"},"vehicle_type_id":"4","last_reported":1729768067,"current_range_meters":6000,"station_id":"ce4bhhp2rcd13ifvqfm0","pricing_plan_id":"cebpf4jnsgd1na2vs0mg"},{"bike_id":"6beeb515-76cb-4967-89dd-b3309dd1d68a","system_id":"levelo_inurba_marseille","lat":43.32365,"lon":5.38882,"is_reserved":false,"is_disabled":false,"rental_uris":{"android":"levelo://app?vid=6beeb515-76cb-4967-89dd-b3309dd1d68a","ios":"levelo://app?vid=6beeb515-76cb-4967-89dd-b3309dd1d68a"},"vehicle_type_id":"4","last_reported":1729768067,"current_range_meters":13600,"station_id":"ce4bhqp2rcd13ifvqhog","pricing_plan_id":"cebpf4jnsgd1na2vs0mg"},{"bike_id":"09cbc056-7ac4-4b3b-8b0f-811e84ea4022","system_id":"levelo_inurba_marseille","lat":43.30537,"lon":5.3655,"is_reserved":false,"is_disabled":false,"rental_uris":{"android":"levelo://app?vid=09cbc056-7ac4-4b3b-8b0f-811e84ea4022","ios":"levelo://app?vid=09cbc056-7ac4-4b3b-8b0f-811e84ea4022"},"vehicle_type_id":"4","last_reported":1729768067,"current_range_meters":39200,"station_id":"ce4bgs12rcd13ifvqcag","pricing_plan_id":"cebpf4jnsgd1na2vs0mg"},{"bike_id":"1d180020-2774-494a-9712-55fe63b19d77","system_id":"levelo_inurba_marseille","lat":43.25937,"lon":5.40897,"is_reserved":false,"is_disabled":false,"rental_uris":{"android":"levelo://app?vid=1d180020-2774-494a-9712-55fe63b19d77","ios":"levelo://app?vid=1d180020-2774-494a-9712-55fe63b19d77"},"vehicle_type_id":"4","last_reported":1729768067,"current_range_meters":12400,"station_id":"ce4bhm92rcd13ifvqglg","pricing_plan_id":"cebpf4jnsgd1na2vs0mg"},{"bike_id":"cf5c31bb-a6e7-40a5-afe8-7ef3601f3293","system_id":"levelo_inurba_marseille","lat":43.289154,"lon":5.387393,"is_reserved":false,"is_disabled":false,"rental_uris":{"android":"levelo://app?vid=cf5c31bb-a6e7-40a5-afe8-7ef3601f3293","ios":"levelo://app?vid=cf5c31bb-a6e7-40a5-afe8-7ef3601f3293"},"vehicle_type_id":"4","last_reported":1729768067,"current_range_meters":30000,"station_id":"ce4bh4p2rcd13ifvqe0g","pricing_plan_id":"cebpf4jnsgd1na2vs0mg"},{"bike_id":"f7049507-45c2-41d7-9262-0fb171be7c82","system_id":"levelo_inurba_marseille","lat":43.32478,"lon":5.36567,"is_reserved":false,"is_disabled":false,"rental_uris":{"android":"levelo://app?vid=f7049507-45c2-41d7-9262-0fb171be7c82","ios":"levelo://app?vid=f7049507-45c2-41d7-9262-0fb171be7c82"},"vehicle_type_id":"4","last_reported":1729768067,"current_range_meters":6800,"station_id":"ce4bhs12rcd13ifvqhvg","pricing_plan_id":"cebpf4jnsgd1na2vs0mg"},{"bike_id":"2511f73c-d1c3-493d-811e-a3412463ffc3","system_id":"levelo_inurba_marseille","lat":43.32545,"lon":5.41422,"is_reserved":false,"is_disabled":false,"rental_uris":{"android":"levelo://app?vid=2511f73c-d1c3-493d-811e-a3412463ffc3","ios":"levelo://app?vid=2511f73c-d1c3-493d-811e-a3412463ffc3"},"vehicle_type_id":"4","last_reported":1729768067,"current_range_meters":35600,"station_id":"ce4bhq12rcd13ifvqhhg","pricing_plan_id":"cebpf4jnsgd1na2vs0mg"},{"bike_id":"bef1f06b-12df-46cc-ab59-a6fed6408ed9","system_id":"levelo_inurba_marseille","lat":43.32534,"lon":5.41452,"is_reserved":false,"is_disabled":false,"rental_uris":{"android":"levelo://app?vid=bef1f06b-12df-46cc-ab59-a6fed6408ed9","ios":"levelo://app?vid=bef1f06b-12df-46cc-ab59-a6fed6408ed9"},"vehicle_type_id":"4","last_reported":1729768067,"current_range_meters":38800,"station_id":"ce4bhq12rcd13ifvqhhg","pricing_plan_id":"cebpf4jnsgd1na2vs0mg"},{"bike_id":"f380d3a4-3abc-4845-b60c-c424cba3f1ba","system_id":"levelo_inurba_marseille","lat":43.29974,"lon":5.37177,"is_reserved":false,"is_disabled":false,"rental_uris":{"android":"levelo://app?vid=f380d3a4-3abc-4845-b60c-c424cba3f1ba","ios":"levelo://app?vid=f380d3a4-3abc-4845-b60c-c424cba3f1ba"},"vehicle_type_id":"4","last_reported":1729768067,"current_range_meters":29600,"station_id":"ce4bgr92rcd13ifvqc7g","pricing_plan_id":"cebpf4jnsgd1na2vs0mg"},{"bike_id":"6ee5768b-9894-4264-802f-fc3a368c3400","system_id":"levelo_inurba_marseille","lat":43.28154,"lon":5.4264,"is_reserved":false,"is_disabled":false,"rental_uris":{"android":"levelo://app?vid=6ee5768b-9894-4264-802f-fc3a368c3400","ios":"levelo://app?vid=6ee5768b-9894-4264-802f-fc3a368c3400"},"vehicle_type_id":"4","last_reported":1729768067,"current_range_meters":38800,"station_id":"ce4bhnh2rcd13ifvqgug","pricing_plan_id":"cebpf4jnsgd1na2vs0mg"},{"bike_id":"e0163620-c05f-4e50-8562-0895c7459841","system_id":"levelo_inurba_marseille","lat":43.28458,"lon":5.38412,"is_reserved":false,"is_disabled":false,"rental_uris":{"android":"levelo://app?vid=e0163620-c05f-4e50-8562-0895c7459841","ios":"levelo://app?vid=e0163620-c05f-4e50-8562-0895c7459841"},"vehicle_type_id":"4","last_reported":1729768067,"current_range_meters":27600,"station_id":"ce4bh512rcd13ifvqe3g","pricing_plan_id":"cebpf4jnsgd1na2vs0mg"},{"bike_id":"3bef9eb6-cdea-46e9-a92f-d741e416b127","system_id":"levelo_inurba_marseille","lat":43.29707,"lon":5.37689,"is_reserved":false,"is_disabled":false,"rental_uris":{"android":"levelo://app?vid=3bef9eb6-cdea-46e9-a92f-d741e416b127","ios":"levelo://app?vid=3bef9eb6-cdea-46e9-a92f-d741e416b127"},"vehicle_type_id":"4","last_reported":1729768067,"current_range_meters":30800,"station_id":"ce4bgkh2rcd13ifvqbl0","pricing_plan_id":"cebpf4jnsgd1na2vs0mg"},{"bike_id":"2c4a684a-b69b-4a59-9f8f-3e61716fa58f","system_id":"levelo_inurba_marseille","lat":43.30534,"lon":5.36531,"is_reserved":false,"is_disabled":false,"rental_uris":{"android":"levelo://app?vid=2c4a684a-b69b-4a59-9f8f-3e61716fa58f","ios":"levelo://app?vid=2c4a684a-b69b-4a59-9f8f-3e61716fa58f"},"vehicle_type_id":"4","last_reported":1729768067,"current_range_meters":39200,"station_id":"ce4bgs12rcd13ifvqcag","pricing_plan_id":"cebpf4jnsgd1na2vs0mg"},{"bike_id":"94793ec5-0c57-43f9-95e3-1718656b8f3f","system_id":"levelo_inurba_marseille","lat":43.2958,"lon":5.36748,"is_reserved":false,"is_disabled":false,"rental_uris":{"android":"levelo://app?vid=94793ec5-0c57-43f9-95e3-1718656b8f3f","ios":"levelo://app?vid=94793ec5-0c57-43f9-95e3-1718656b8f3f"},"vehicle_type_id":"4","last_reported":1729768067,"current_range_meters":30000,"station_id":"ce4bgph2rcd13ifvqc2g","pricing_plan_id":"cebpf4jnsgd1na2vs0mg"},{"bike_id":"049e6b8b-6b24-416d-ada9-4a21fd898aad","system_id":"levelo_inurba_marseille","lat":43.25934,"lon":5.40913,"is_reserved":false,"is_disabled":false,"rental_uris":{"android":"levelo://app?vid=049e6b8b-6b24-416d-ada9-4a21fd898aad","ios":"levelo://app?vid=049e6b8b-6b24-416d-ada9-4a21fd898aad"},"vehicle_type_id":"4","last_reported":1729768067,"current_range_meters":26800,"station_id":"ce4bhm92rcd13ifvqglg","pricing_plan_id":"cebpf4jnsgd1na2vs0mg"},{"bike_id":"64b170f8-2500-48ef-96a3-25f7c0707542","system_id":"levelo_inurba_marseille","lat":43.337444,"lon":5.374475,"is_reserved":false,"is_disabled":false,"rental_uris":{"android":"levelo://app?vid=64b170f8-2500-48ef-96a3-25f7c0707542","ios":"levelo://app?vid=64b170f8-2500-48ef-96a3-25f7c0707542"},"vehicle_type_id":"4","last_reported":1729768067,"current_range_meters":7200,"station_id":"","pricing_plan_id":"cebpf4jnsgd1na2vs0mg"},{"bike_id":"316ea24d-f593-4042-9cf4-2e2584db247e","system_id":"levelo_inurba_marseille","lat":43.30544,"lon":5.36532,"is_reserved":false,"is_disabled":false,"rental_uris":{"android":"levelo://app?vid=316ea24d-f593-4042-9cf4-2e2584db247e","ios":"levelo://app?vid=316ea24d-f593-4042-9cf4-2e2584db247e"},"vehicle_type_id":"4","last_reported":1729768067,"current_range_meters":30000,"station_id":"ce4bgs12rcd13ifvqcag","pricing_plan_id":"cebpf4jnsgd1na2vs0mg"},{"bike_id":"4f409860-e0f7-4877-99ee-a24fed7f0e97","system_id":"levelo_inurba_marseille","lat":43.27818,"lon":5.40719,"is_reserved":false,"is_disabled":false,"rental_uris":{"android":"levelo://app?vid=4f409860-e0f7-4877-99ee-a24fed7f0e97","ios":"levelo://app?vid=4f409860-e0f7-4877-99ee-a24fed7f0e97"},"vehicle_type_id":"4","last_reported":1729768067,"current_range_meters":36800,"station_id":"ce4bhnh2rcd13ifvqgtg","pricing_plan_id":"cebpf4jnsgd1na2vs0mg"},{"bike_id":"5bb35adf-2cb2-48f1-b0e5-cc827ec35463","system_id":"levelo_inurba_marseille","lat":43.29291,"lon":5.3744,"is_reserved":false,"is_disabled":false,"rental_uris":{"android":"levelo://app?vid=5bb35adf-2cb2-48f1-b0e5-cc827ec35463","ios":"levelo://app?vid=5bb35adf-2cb2-48f1-b0e5-cc827ec35463"},"vehicle_type_id":"4","last_reported":1729768067,"current_range_meters":37600,"station_id":"ce4bgi12rcd13ifvqb70","pricing_plan_id":"cebpf4jnsgd1na2vs0mg"},{"bike_id":"8cae3e15-7e53-4124-a048-89e8765a307e","system_id":"levelo_inurba_marseille","lat":43.25869,"lon":5.39893,"is_reserved":false,"is_disabled":false,"rental_uris":{"android":"levelo://app?vid=8cae3e15-7e53-4124-a048-89e8765a307e","ios":"levelo://app?vid=8cae3e15-7e53-4124-a048-89e8765a307e"},"vehicle_type_id":"4","last_reported":1729768067,"current_range_meters":37600,"station_id":"ce4bhl92rcd13ifvqghg","pricing_plan_id":"cebpf4jnsgd1na2vs0mg"},{"bike_id":"595ef8fa-b99c-4d83-86c8-9df6954f4dbd","system_id":"levelo_inurba_marseille","lat":43.29554,"lon":5.42289,"is_reserved":false,"is_disabled":false,"rental_uris":{"android":"levelo://app?vid=595ef8fa-b99c-4d83-86c8-9df6954f4dbd","ios":"levelo://app?vid=595ef8fa-b99c-4d83-86c8-9df6954f4dbd"},"vehicle_type_id":"4","last_reported":1729768067,"current_range_meters":38400,"station_id":"ce4bhph2rcd13ifvqhdg","pricing_plan_id":"cebpf4jnsgd1na2vs0mg"},{"bike_id":"20de94ea-21fd-43e9-8b0d-789a6c52c27a","system_id":"levelo_inurba_marseille","lat":43.32546,"lon":5.41445,"is_reserved":false,"is_disabled":false,"rental_uris":{"android":"levelo://app?vid=20de94ea-21fd-43e9-8b0d-789a6c52c27a","ios":"levelo://app?vid=20de94ea-21fd-43e9-8b0d-789a6c52c27a"},"vehicle_type_id":"4","last_reported":1729768067,"current_range_meters":8400,"station_id":"ce4bhq12rcd13ifvqhhg","pricing_plan_id":"cebpf4jnsgd1na2vs0mg"},{"bike_id":"30f6c21c-93d5-4f51-9ca1-5f9d8e71cd1c","system_id":"levelo_inurba_marseille","lat":43.29223,"lon":5.36062,"is_reserved":false,"is_disabled":false,"rental_uris":{"android":"levelo://app?vid=30f6c21c-93d5-4f51-9ca1-5f9d8e71cd1c","ios":"levelo://app?vid=30f6c21c-93d5-4f51-9ca1-5f9d8e71cd1c"},"vehicle_type_id":"4","last_reported":1729768067,"current_range_meters":33600,"station_id":"ce4bhbh2rcd13ifvqeqg","pricing_plan_id":"cebpf4jnsgd1na2vs0mg"},{"bike_id":"caba1297-6df3-48a9-8ae4-d5cf850a8c57","system_id":"levelo_inurba_marseille","lat":43.28609,"lon":5.35104,"is_reserved":false,"is_disabled":false,"rental_uris":{"android":"levelo://app?vid=caba1297-6df3-48a9-8ae4-d5cf850a8c57","ios":"levelo://app?vid=caba1297-6df3-48a9-8ae4-d5cf850a8c57"},"vehicle_type_id":"4","last_reported":1729768067,"current_range_meters":32400,"station_id":"ce4bhch2rcd13ifvqeug","pricing_plan_id":"cebpf4jnsgd1na2vs0mg"},{"bike_id":"e2366167-088f-4160-af23-712c2655b22c","system_id":"levelo_inurba_marseille","lat":43.29292,"lon":5.37436,"is_reserved":false,"is_disabled":false,"rental_uris":{"android":"levelo://app?vid=e2366167-088f-4160-af23-712c2655b22c","ios":"levelo://app?vid=e2366167-088f-4160-af23-712c2655b22c"},"vehicle_type_id":"4","last_reported":1729768067,"current_range_meters":38800,"station_id":"ce4bgi12rcd13ifvqb70","pricing_plan_id":"cebpf4jnsgd1na2vs0mg"},{"bike_id":"b4e6ddf4-e94c-4cf2-9931-296d9ca0f55e","system_id":"levelo_inurba_marseille","lat":43.25937,"lon":5.40892,"is_reserved":false,"is_disabled":false,"rental_uris":{"android":"levelo://app?vid=b4e6ddf4-e94c-4cf2-9931-296d9ca0f55e","ios":"levelo://app?vid=b4e6ddf4-e94c-4cf2-9931-296d9ca0f55e"},"vehicle_type_id":"4","last_reported":1729768067,"current_range_meters":12800,"station_id":"ce4bhm92rcd13ifvqglg","pricing_plan_id":"cebpf4jnsgd1na2vs0mg"},{"bike_id":"873de0bc-1d8c-4f5d-8e73-3da5cfb3eacf","system_id":"levelo_inurba_marseille","lat":43.31998,"lon":5.38152,"is_reserved":false,"is_disabled":false,"rental_uris":{"android":"levelo://app?vid=873de0bc-1d8c-4f5d-8e73-3da5cfb3eacf","ios":"levelo://app?vid=873de0bc-1d8c-4f5d-8e73-3da5cfb3eacf"},"vehicle_type_id":"4","last_reported":1729768067,"current_range_meters":8000,"station_id":"ce4bhr12rcd13ifvqhpg","pricing_plan_id":"cebpf4jnsgd1na2vs0mg"},{"bike_id":"a4b0927f-71eb-473d-982e-a2d99a041e81","system_id":"levelo_inurba_marseille","lat":43.29041,"lon":5.3757,"is_reserved":false,"is_disabled":false,"rental_uris":{"android":"levelo://app?vid=a4b0927f-71eb-473d-982e-a2d99a041e81","ios":"levelo://app?vid=a4b0927f-71eb-473d-982e-a2d99a041e81"},"vehicle_type_id":"4","last_reported":1729768067,"current_range_meters":9200,"station_id":"ce4bh692rcd13ifvqe90","pricing_plan_id":"cebpf4jnsgd1na2vs0mg"},{"bike_id":"df65c891-0110-4155-bafa-d67db9bba8b4","system_id":"levelo_inurba_marseille","lat":43.30461,"lon":5.379,"is_reserved":false,"is_disabled":false,"rental_uris":{"android":"levelo://app?vid=df65c891-0110-4155-bafa-d67db9bba8b4","ios":"levelo://app?vid=df65c891-0110-4155-bafa-d67db9bba8b4"},"vehicle_type_id":"4","last_reported":1729768067,"current_range_meters":9200,"station_id":"ce4bgup2rcd13ifvqcn0","pricing_plan_id":"cebpf4jnsgd1na2vs0mg"},