{"last_updated":1701619695,"ttl":30,"version":"2.2","data":{"bikes":[{"bike_id":"9892a311-df63-4476-ae81-e798be24d5ec","system_id":"levelo_inurba_marseille","lat":43.312239,"lon":5.368562,"is_reserved":false,"is_disabled":false,"rental_uris":{"android":"levelo://app?vid=9892a311-df63-4476-ae81-e798be24d5ec","ios":"levelo://app?vid=9892a311-df63-4476-ae81-e798be24d5ec"},"vehicle_type_id":"4","last_reported":1701619695,"current_range_meters":6000,"station_id":"ce4bgl92rcd13ifvqbq0","pricing_plan_id":"free"},{"bike_id":"e8a55faf-db2b-4771-8f03-dcc375566f66","system_id":"levelo_inurba_marseille","lat":43.314811,"lon":5.373103,"is_reserved":false,"is_disabled":false,"rental_uris":{"android":"levelo://app?vid=e8a55faf-db2b-4771-8f03-dcc375566f66","ios":"levelo://app?vid=e8a55faf-db2b-4771-8f03-dcc375566f66"},"vehicle_type_id":"4","last_reported":1701619695,"current_range_meters":19200,"station_id":"ce4bgt12rcd13ifvqcd0","pricing_plan_id":"free"},{"bike_id":"2e7fa662-972a-4b0a-8444-7010b3015f1e","system_id":"levelo_inurba_marseille","lat":43.30613,"lon":5.37236,"is_reserved":false,"is_disabled":false,"rental_uris":{"android":"levelo://app?vid=2e7fa662-972a-4b0a-8444-7010b3015f1e","ios":"levelo://app?vid=2e7fa662-972a-4b0a-8444-7010b3015f1e"},"vehicle_type_id":"4","last_reported":1701619695,"current_range_meters":13200,"station_id":"ce4bgqh2rcd13ifvqc4g","pricing_plan_id":"free"},{"bike_id":"48b83b15-ba31-4d02-bb0e-0e980b680bd9","system_id":"levelo_inurba_marseille","lat":43.311125,"lon":5.377624,"is_reserved":false,"is_disabled":false,"rental_uris":{"android":"levelo://app?vid=48b83b15-ba31-4d02-bb0e-0e980b680bd9","ios":"levelo://app?vid=48b83b15-ba31-4d02-bb0e-0e980b680bd9"},"vehicle_type_id":"4","last_reported":1701619695,"current_range_meters":10000,"station_id":"ce4bgt92rcd13ifvqcg0","pricing_plan_id":"free"},{"bike_id":"342741f1-1199-431e-98e8-7af2386b3134","system_id":"levelo_inurba_marseille","lat":43.311131,"lon":5.377651,"is_reserved":false,"is_disabled":false,"rental_uris":{"android":"levelo://app?vid=342741f1-1199-431e-98e8-7af2386b3134","ios":"levelo://app?vid=342741f1-1199-431e-98e8-7af2386b3134"},"vehicle_type_id":"4","last_reported":1701619695,"current_range_meters":25600,"station_id":"ce4bgt92rcd13ifvqcg0","pricing_plan_id":"free"},{"bike_id":"5364e310-a941-4c6b-814e-fcf34ec2b0e9","system_id":"levelo_inurba_marseille","lat":43.307945,"lon":5.376487,"is_reserved":false,"is_disabled":false,"rental_uris":{"android":"levelo://app?vid=5364e310-a941-4c6b-814e-fcf34ec2b0e9","ios":"levelo://app?vid=5364e310-a941-4c6b-814e-fcf34ec2b0e9"},"vehicle_type_id":"4","last_reported":1701619695,"current_range_meters":30000,"station_id":"ce4bgv92rcd13ifvqcq0","pricing_plan_id":"free"},{"bike_id":"f427a2c3-6e4a-446b-ae2f-9be8aa7f4122","system_id":"levelo_inurba_marseille","lat":43.31719,"lon":5.376813,"is_reserved":false,"is_disabled":false,"rental_uris":{"android":"levelo://app?vid=f427a2c3-6e4a-446b-ae2f-9be8aa7f4122","ios":"levelo://app?vid=f427a2c3-6e4a-446b-ae2f-9be8aa7f4122"},"vehicle_type_id":"4","last_reported":1701619695,"current_range_meters":0,"station_id":"","pricing_plan_id":"free"},{"bike_id":"e913f328-1e31-4c22-bd87-f809ea246de4","system_id":"levelo_inurba_marseille","lat":43.317168,"lon":5.376883,"is_reserved":false,"is_disabled":false,"rental_uris":{"android":"levelo://app?vid=e913f328-1e31-4c22-bd87-f809ea246de4","ios":"levelo://app?vid=e913f328-1e31-4c22-bd87-f809ea246de4"},"vehicle_type_id":"4","last_reported":1701619695,"current_range_meters":0,"station_id":"","pricing_plan_id":"free"},{"bike_id":"fb6fd937-527b-4585-9058-0dfdc6436ac8","system_id":"levelo_inurba_marseille","lat":43.31351,"lon":5.37909,"is_reserved":false,"is_disabled":false,"rental_uris":{"android":"levelo://app?vid=fb6fd937-527b-4585-9058-0dfdc6436ac8","ios":"levelo://app?vid=fb6fd937-527b-4585-9058-0dfdc6436ac8"},"vehicle_type_id":"4","last_reported":1701619695,"current_range_meters":17200,"station_id":"","pricing_plan_id":"free"},{"bike_id":"3bea4916-9e7b-45a6-9ec9-787a01e6655e","system_id":"levelo_inurba_marseille","lat":43.303046,"lon":5.368981,"is_reserved":false,"is_disabled":false,"rental_uris":{"android":"levelo://app?vid=3bea4916-9e7b-45a6-9ec9-787a01e6655e","ios":"levelo://app?vid=3bea4916-9e7b-45a6-9ec9-787a01e6655e"},"vehicle_type_id":"4","last_reported":1701619695,"current_range_meters":19600,"station_id":"ce4bgqh2rcd13ifvqc5g","pricing_plan_id":"free"},{"bike_id":"c66550d8-1920-4306-b7f8-6b925aed9573","system_id":"levelo_inurba_marseille","lat":43.301939,"lon":5.366286,"is_reserved":false,"is_disabled":false,"rental_uris":{"android":"levelo://app?vid=c66550d8-1920-4306-b7f8-6b925aed9573","ios":"levelo://app?vid=c66550d8-1920-4306-b7f8-6b925aed9573"},"vehicle_type_id":"4","last_reported":1701619695,"current_range_meters":22400,"station_id":"ce4bgrh2rcd13ifvqc8g","pricing_plan_id":"free"},{"bike_id":"e56eb93b-2994-4e83-9444-d2a0c08573fa","system_id":"levelo_inurba_marseille","lat":43.31007,"lon":5.38183,"is_reserved":false,"is_disabled":false,"rental_uris":{"android":"levelo://app?vid=e56eb93b-2994-4e83-9444-d2a0c08573fa","ios":"levelo://app?vid=e56eb93b-2994-4e83-9444-d2a0c08573fa"},"vehicle_type_id":"4","last_reported":1701619695,"current_range_meters":14400,"station_id":"","pricing_plan_id":"free"},{"bike_id":"5e015f27-7c7f-4303-9d58-a09af437f6ed","system_id":"levelo_inurba_marseille","lat":43.308012,"lon":5.381511,"is_reserved":false,"is_disabled":false,"rental_uris":{"android":"levelo://app?vid=5e015f27-7c7f-4303-9d58-a09af437f6ed","ios":"levelo://app?vid=5e015f27-7c7f-4303-9d58-a09af437f6ed"},"vehicle_type_id":"4","last_reported":1701619695,"current_range_meters":7200,"station_id":"ce4bgt12rcd13ifvqce0","pricing_plan_id":"free"},{"bike_id":"2275aca5-3158-4c2c-8022-ca5d2714bc86","system_id":"levelo_inurba_marseille","lat":43.319997,"lon":5.381594,"is_reserved":false,"is_disabled":false,"rental_uris":{"android":"levelo://app?vid=2275aca5-3158-4c2c-8022-ca5d2714bc86","ios":"levelo://app?vid=2275aca5-3158-4c2c-8022-ca5d2714bc86"},"vehicle_type_id":"4","last_reported":1701619695,"current_range_meters":10800,"station_id":"ce4bhr12rcd13ifvqhpg","pricing_plan_id":"free"},{"bike_id":"dbe6c22b-c1ee-43ed-92d4-2d18930b7ddf","system_id":"levelo_inurba_marseille","lat":43.313571,"lon":5.384829,"is_reserved":false,"is_disabled":false,"rental_uris":{"android":"levelo://app?vid=dbe6c22b-c1ee-43ed-92d4-2d18930b7ddf","ios":"levelo://app?vid=dbe6c22b-c1ee-43ed-92d4-2d18930b7ddf"},"vehicle_type_id":"4","last_reported":1701619695,"current_range_meters":11600,"station_id":"ce4bgt92rcd13ifvqcf0","pricing_plan_id":"free"},{"bike_id":"9fdb7f97-586d-42d2-befd-15216ba2e422","system_id":"levelo_inurba_marseille","lat":43.31183,"lon":5.38523,"is_reserved":false,"is_disabled":false,"rental_uris":{"android":"levelo://app?vid=9fdb7f97-586d-42d2-befd-15216ba2e422","ios":"levelo://app?vid=9fdb7f97-586d-42d2-befd-15216ba2e422"},"vehicle_type_id":"4","last_reported":1701619695,"current_range_meters":0,"station_id":"","pricing_plan_id":"free"},{"bike_id":"748d12ab-8e09-4ecd-b2d2-cbe0ea9624f6","system_id":"levelo_inurba_marseille","lat":43.29904,"lon":5.36721,"is_reserved":false,"is_disabled":false,"rental_uris":{"android":"levelo://app?vid=748d12ab-8e09-4ecd-b2d2-cbe0ea9624f6","ios":"levelo://app?vid=748d12ab-8e09-4ecd-b2d2-cbe0ea9624f6"},"vehicle_type_id":"4","last_reported":1701619695,"current_range_meters":1200,"station_id":"","pricing_plan_id":"free"},{"bike_id":"8f471969-8e2d-4ef5-8d2e-654dab26d28a","system_id":"levelo_inurba_marseille","lat":43.312205,"lon":5.38651,"is_reserved":false,"is_disabled":false,"rental_uris":{"android":"levelo://app?vid=8f471969-8e2d-4ef5-8d2e-654dab26d28a","ios":"levelo://app?vid=8f471969-8e2d-4ef5-8d2e-654dab26d28a"},"vehicle_type_id":"4","last_reported":1701619695,"current_range_meters":20800,"station_id":"","pricing_plan_id":"free"},{"bike_id":"06bf1e44-9a16-4380-8433-996a4498e9f1","system_id":"levelo_inurba_marseille","lat":43.305364,"lon":5.384119,"is_reserved":false,"is_disabled":false,"rental_uris":{"android":"levelo://app?vid=06bf1e44-9a16-4380-8433-996a4498e9f1","ios":"levelo://app?vid=06bf1e44-9a16-4380-8433-996a4498e9f1"},"vehicle_type_id":"4","last_reported":1701619695,"current_range_meters":20800,"station_id":"ce4bgg92rcd13ifvqb30","pricing_plan_id":"free"},{"bike_id":"720e99d3-f90b-41bc-83a0-eb8127a20a24","system_id":"levelo_inurba_marseille","lat":43.311722,"lon":5.387247,"is_reserved":false,"is_disabled":false,"rental_uris":{"android":"levelo://app?vid=720e99d3-f90b-41bc-83a0-eb8127a20a24","ios":"levelo://app?vid=720e99d3-f90b-41bc-83a0-eb8127a20a24"},"vehicle_type_id":"4","last_reported":1701619695,"current_range_meters":21600,"station_id":"ce4bgv12rcd13ifvqcp0","pricing_plan_id":"free"},{"bike_id":"ed47d991-6ac1-44a0-b336-dc198db18682","system_id":"levelo_inurba_marseille","lat":43.311722,"lon":5.387247,"is_reserved":false,"is_disabled":false,"rental_uris":{"android":"levelo://app?vid=ed47d991-6ac1-44a0-b336-dc198db18682","ios":"levelo://app?vid=ed47d991-6ac1-44a0-b336-dc198db18682"},"vehicle_type_id":"4","last_reported":1701619695,"current_range_meters":27200,"station_id":"ce4bgv12rcd13ifvqcp0","pricing_plan_id":"free"},{"bike_id":"0a39dd03-261e-42e4-8565-1ecf12f7bfae","system_id":"levelo_inurba_marseille","lat":43.322929,"lon":5.382556,"is_reserved":false,"is_disabled":false,"rental_uris":{"android":"levelo://app?vid=0a39dd03-261e-42e4-8565-1ecf12f7bfae","ios":"levelo://app?vid=0a39dd03-261e-42e4-8565-1ecf12f7bfae"},"vehicle_type_id":"4","last_reported":1701619695,"current_range_meters":20400,"station_id":"ce4bhr12rcd13ifvqhqg","pricing_plan_id":"free"},{"bike_id":"08a721db-bf5d-46b3-9ba3-2a9c6c13bcf6","system_id":"levelo_inurba_marseille","lat":43.328256,"lon":5.366905,"is_reserved":false,"is_disabled":false,"rental_uris":{"android":"levelo://app?vid=08a721db-bf5d-46b3-9ba3-2a9c6c13bcf6","ios":"levelo://app?vid=08a721db-bf5d-46b3-9ba3-2a9c6c13bcf6"},"vehicle_type_id":"4","last_reported":1701619695,"current_range_meters":24400,"station_id":"","pricing_plan_id":"free"},{"bike_id":"56c27ac6-d3be-4b1b-a869-2d0f1759ad4a","system_id":"levelo_inurba_marseille","lat":43.298857,"lon":5.377147,"is_reserved":false,"is_disabled":false,"rental_uris":{"android":"levelo://app?vid=56c27ac6-d3be-4b1b-a869-2d0f1759ad4a","ios":"levelo://app?vid=56c27ac6-d3be-4b1b-a869-2d0f1759ad4a"},"vehicle_type_id":"4","last_reported":1701619695,"current_range_meters":0,"station_id":"","pricing_plan_id":"free"},{"bike_id":"eaa0e7e7-2390-47fa-909b-7b240952cbef","system_id":"levelo_inurba_marseille","lat":43.316511,"lon":5.3896,"is_reserved":false,"is_disabled":false,"rental_uris":{"android":"levelo://app?vid=eaa0e7e7-2390-47fa-909b-7b240952cbef","ios":"levelo://app?vid=eaa0e7e7-2390-47fa-909b-7b240952cbef"},"vehicle_type_id":"4","last_reported":1701619695,"current_range_meters":18400,"station_id":"","pricing_plan_id":"free"},{"bike_id":"4f5df2dc-48d3-4b68-b7f6-8440ebd368c2","system_id":"levelo_inurba_marseille","lat":43.29573,"lon":5.367355,"is_reserved":false,"is_disabled":false,"rental_uris":{"android":"levelo://app?vid=4f5df2dc-48d3-4b68-b7f6-8440ebd368c2","ios":"levelo://app?vid=4f5df2dc-48d3-4b68-b7f6-8440ebd368c2"},"vehicle_type_id":"4","last_reported":1701619695,"current_range_meters":9200,"station_id":"ce4bgph2rcd13ifvqc2g","pricing_plan_id":"free"},{"bike_id":"c15bd4db-7864-4351-8f8d-02b6c1bb831c","system_id":"levelo_inurba_marseille","lat":43.29573,"lon":5.367355,"is_reserved":false,"is_disabled":false,"rental_uris":{"android":"levelo://app?vid=c15bd4db-7864-4351-8f8d-02b6c1bb831c","ios":"levelo://app?vid=c15bd4db-7864-4351-8f8d-02b6c1bb831c"},"vehicle_type_id":"4","last_reported":1701619695,"current_range_meters":17200,"station_id":"ce4bgph2rcd13ifvqc2g","pricing_plan_id":"free"},{"bike_id":"6b71c83e-aebc-437f-965e-1d180b40178a","system_id":"levelo_inurba_marseille","lat":43.29573,"lon":5.367355,"is_reserved":false,"is_disabled":false,"rental_uris":{"android":"levelo://app?vid=6b71c83e-aebc-437f-965e-1d180b40178a","ios":"levelo://app?vid=6b71c83e-aebc-437f-965e-1d180b40178a"},"vehicle_type_id":"4","last_reported":1701619695,"current_range_meters":28000,"station_id":"ce4bgph2rcd13ifvqc2g","pricing_plan_id":"free"},{"bike_id":"50451858-4fd4-406d-badc-776a2e8a63c3","system_id":"levelo_inurba_marseille","lat":43.329713,"lon":5.36731,"is_reserved":false,"is_disabled":false,"rental_uris":{"android":"levelo://app?vid=50451858-4fd4-406d-badc-776a2e8a63c3","ios":"levelo://app?vid=50451858-4fd4-406d-badc-776a2e8a63c3"},"vehicle_type_id":"4","last_reported":1701619695,"current_range_meters":16800,"station_id":"","pricing_plan_id":"free"},{"bike_id":"5c26bdfb-7b7c-43fb-8a01-250128a1a6f8","system_id":"levelo_inurba_marseille","lat":43.32974,"lon":5.36729,"is_reserved":false,"is_disabled":false,"rental_uris":{"android":"levelo://app?vid=5c26bdfb-7b7c-43fb-8a01-250128a1a6f8","ios":"levelo://app?vid=5c26bdfb-7b7c-43fb-8a01-250128a1a6f8"},"vehicle_type_id":"4","last_reported":1701619695,"current_range_meters":18800,"station_id":"","pricing_plan_id":"free"},{"bike_id":"7ed34755-a67f-4699-b59f-b1e48b7c0f4c","system_id":"levelo_inurba_marseille","lat":43.296935,"lon":5.376544,"is_reserved":false,"is_disabled":false,"rental_uris":{"android":"levelo://app?vid=7ed34755-a67f-4699-b59f-b1e48b7c0f4c","ios":"levelo://app?vid=7ed34755-a67f-4699-b59f-b1e48b7c0f4c"},"vehicle_type_id":"4","last_reported":1701619695,"current_range_meters":26400,"station_id":"ce4bgkh2rcd13ifvqbl0","pricing_plan_id":"free"},{"bike_id":"596e950b-4a96-45c8-8bc2-548dbaa9a3c6","system_id":"levelo_inurba_marseille","lat":43.29955,"lon":5.38225,"is_reserved":false,"is_disabled":false,"rental_uris":{"android":"levelo://app?vid=596e950b-4a96-45c8-8bc2-548dbaa9a3c6","ios":"levelo://app?vid=596e950b-4a96-45c8-8bc2-548dbaa9a3c6"},"vehicle_type_id":"4","last_reported":1701619695,"current_range_meters":9600,"station_id":"","pricing_plan_id":"free"},{"bike_id":"5026c323-87ad-4f3e-93ad-16f8498564ab","system_id":"levelo_inurba_marseille","lat":43.296921,"lon":5.376579,"is_reserved":false,"is_disabled":false,"rental_uris":{"android":"levelo://app?vid=5026c323-87ad-4f3e-93ad-16f8498564ab","ios":"levelo://app?vid=5026c323-87ad-4f3e-93ad-16f8498564ab"},"vehicle_type_id":"4","last_reported":1701619695,"current_range_meters":5600,"station_id":"ce4bgkh2rcd13ifvqbl0","pricing_plan_id":"free"},{"bike_id":"22ec333d-eadc-4673-85e8-89ac9bcc79ed","system_id":"levelo_inurba_marseille","lat":43.295748,"lon":5.37522,"is_reserved":false,"is_disabled":false,"rental_uris":{"android":"levelo://app?vid=22ec333d-eadc-4673-85e8-89ac9bcc79ed","ios":"levelo://app?vid=22ec333d-eadc-4673-85e8-89ac9bcc79ed"},"vehicle_type_id":"4","last_reported":1701619695,"current_range_meters":29600,"station_id":"ce4bgh92rcd13ifvqb50","pricing_plan_id":"free"},{"bike_id":"ea1c9a08-b830-462b-a1db-1599c6ec7a10","system_id":"levelo_inurba_marseille","lat":43.299717,"lon":5.384845,"is_reserved":false,"is_disabled":false,"rental_uris":{"android":"levelo://app?vid=ea1c9a08-b830-462b-a1db-1599c6ec7a10","ios":"levelo://app?vid=ea1c9a08-b830-462b-a1db-1599c6ec7a10"},"vehicle_type_id":"4","last_reported":1701619695,"current_range_meters":10000,"station_id":"ce4bgj92rcd13ifvqbd0","pricing_plan_id":"free"},{"bike_id":"6dbe2398-f84c-4e15-8acb-d7684398d2c3","system_id":"levelo_inurba_marseille","lat":43.30193,"lon":5.38954,"is_reserved":false,"is_disabled":false,"rental_uris":{"android":"levelo://app?vid=6dbe2398-f84c-4e15-8acb-d7684398d2c3","ios":"levelo://app?vid=6dbe2398-f84c-4e15-8acb-d7684398d2c3"},"vehicle_type_id":"4","last_reported":1701619695,"current_range_meters":29600,"station_id":"","pricing_plan_id":"free"},{"bike_id":"5cd4274a-1611-4f61-a728-a72d7378d460","system_id":"levelo_inurba_marseille","lat":43.300852,"lon":5.390859,"is_reserved":false,"is_disabled":false,"rental_uris":{"android":"levelo://app?vid=5cd4274a-1611-4f61-a728-a72d7378d460","ios":"levelo://app?vid=5cd4274a-1611-4f61-a728-a72d7378d460"},"vehicle_type_id":"4","last_reported":1701619695,"current_range_meters":3200,"station_id":"ce4bh192rcd13ifvqdb0","pricing_plan_id":"free"},{"bike_id":"050df41f-ed47-4f67-9f58-9879409c85f5","system_id":"levelo_inurba_marseille","lat":43.29228,"lon":5.36056,"is_reserved":false,"is_disabled":false,"rental_uris":{"android":"levelo://app?vid=050df41f-ed47-4f67-9f58-9879409c85f5","ios":"levelo://app?vid=050df41f-ed47-4f67-9f58-9879409c85f5"},"vehicle_type_id":"4","last_reported":1701619695,"current_range_meters":13600,"station_id":"ce4bhbh2rcd13ifvqeqg","pricing_plan_id":"free"},{"bike_id":"4ac727a3-a94b-4daf-ad0c-3fabc22c11c4","system_id":"levelo_inurba_marseille","lat":43.300852,"lon":5.390859,"is_reserved":false,"is_disabled":false,"rental_uris":{"android":"levelo://app?vid=4ac727a3-a94b-4daf-ad0c-3fabc22c11c4","ios":"levelo://app?vid=4ac727a3-a94b-4daf-ad0c-3fabc22c11c4"},"vehicle_type_id":"4","last_reported":1701619695,"current_range_meters":0,"station_id":"ce4bh192rcd13ifvqdb0","pricing_plan_id":"free"},{"bike_id":"d32eccdb-dbd8-4ead-8eb8-7a39a7ad6fc4","system_id":"levelo_inurba_marseille","lat":43.291671,"lon":5.371575,"is_reserved":false,"is_disabled":false,"rental_uris":{"android":"levelo://app?vid=d32eccdb-dbd8-4ead-8eb8-7a39a7ad6fc4","ios":"levelo://app?vid=d32eccdb-dbd8-4ead-8eb8-7a39a7ad6fc4"},"vehicle_type_id":"4","last_reported":1701619695,"current_range_meters":24000,"station_id":"ce4bha92rcd13ifvqeh0","pricing_plan_id":"free"},{"bike_id":"abd6a68b-d5e7-4ade-a8d6-e85e21f25f23","system_id":"levelo_inurba_marseille","lat":43.29864,"lon":5.38904,"is_reserved":false,"is_disabled":false,"rental_uris":{"android":"levelo://app?vid=abd6a68b-d5e7-4ade-a8d6-e85e21f25f23","ios":"levelo://app?vid=abd6a68b-d5e7-4ade-a8d6-e85e21f25f23"},"vehicle_type_id":"4","last_reported":1701619695,"current_range_meters":22000,"station_id":"ce4bh392rcd13ifvqdl0","pricing_plan_id":"free"},{"bike_id":"5276a246-f440-4da9-aed1-8cf86a9d8cf0","system_id":"levelo_inurba_marseille","lat":43.291671,"lon":5.371575,"is_reserved":false,"is_disabled":false,"rental_uris":{"android":"levelo://app?vid=5276a246-f440-4da9-aed1-8cf86a9d8cf0","ios":"levelo://app?vid=5276a246-f440-4da9-aed1-8cf86a9d8cf0"},"vehicle_type_id":"4","last_reported":1701619695,"current_range_meters":14400,"station_id":"ce4bha92rcd13ifvqeh0","pricing_plan_id":"free"},{"bike_id":"cdf1259f-f783-457e-8dd4-aff9e1afa395","system_id":"levelo_inurba_marseille","lat":43.29195,"lon":5.35807,"is_reserved":false,"is_disabled":false,"rental_uris":{"android":"levelo://app?vid=cdf1259f-f783-457e-8dd4-aff9e1afa395","ios":"levelo://app?vid=cdf1259f-f783-457e-8dd4-aff9e1afa395"},"vehicle_type_id":"4","last_reported":1701619695,"current_range_meters":4800,"station_id":"ce4bhb12rcd13ifvqel0","pricing_plan_id":"free"},{"bike_id":"886aeaff-dd9e-4447-bda4-c0ab4bfcd71d","system_id":"levelo_inurba_marseille","lat":43.29529,"lon":5.385581,"is_reserved":false,"is_disabled":false,"rental_uris":{"android":"levelo://app?vid=886aeaff-dd9e-4447-bda4-c0ab4bfcd71d","ios":"levelo://app?vid=886aeaff-dd9e-4447-bda4-c0ab4bfcd71d"},"vehicle_type_id":"4","last_reported":1701619695,"current_range_meters":17600,"station_id":"ce4bgih2rcd13ifvqba0","pricing_plan_id":"free"},{"bike_id":"31723969-9797-4f43-b2c3-e78c8822cdad","system_id":"levelo_inurba_marseille","lat":43.290624,"lon":5.359245,"is_reserved":false,"is_disabled":false,"rental_uris":{"android":"levelo://app?vid=31723969-9797-4f43-b2c3-e78c8822cdad","ios":"levelo://app?vid=31723969-9797-4f43-b2c3-e78c8822cdad"},"vehicle_type_id":"4","last_reported":1701619695,"current_range_meters":9600,"station_id":"ce4bha92rcd13ifvqeg0","pricing_plan_id":"free"},{"bike_id":"2a7e04ab-4d06-4de9-89f8-7ca71f6921ff","system_id":"levelo_inurba_marseille","lat":43.294153,"lon":5.386305,"is_reserved":false,"is_disabled":false,"rental_uris":{"android":"levelo://app?vid=2a7e04ab-4d06-4de9-89f8-7ca71f6921ff","ios":"levelo://app?vid=2a7e04ab-4d06-4de9-89f8-7ca71f6921ff"},"vehicle_type_id":"4","last_reported":1701619695,"current_range_meters":0,"station_id":"ce4bh2h2rcd13ifvqdh0","pricing_plan_id":"free"},{"bike_id":"4398fb91-4520-4a11-b4b5-86ba6989b2e3","system_id":"levelo_inurba_marseille","lat":43.29039,"lon":5.37561,"is_reserved":false,"is_disabled":false,"rental_uris":{"android":"levelo://app?vid=4398fb91-4520-4a11-b4b5-86ba6989b2e3","ios":"levelo://app?vid=4398fb91-4520-4a11-b4b5-86ba6989b2e3"},"vehicle_type_id":"4","last_reported":1701619695,"current_range_meters":24000,"station_id":"ce4bh692rcd13ifvqe90","pricing_plan_id":"free"},{"bike_id":"914c401b-c308-49c0-a358-bdb213b9df4c","system_id":"levelo_inurba_marseille","lat":43.290104,"lon":5.356111,"is_reserved":false,"is_disabled":false,"rental_uris":{"android":"levelo://app?vid=914c401b-c308-49c0-a358-bdb213b9df4c","ios":"levelo://app?vid=914c401b-c308-49c0-a358-bdb213b9df4c"},"vehicle_type_id":"4","last_reported":1701619695,"current_range_meters":8400,"station_id":"ce4bhb92rcd13ifvqen0","pricing_plan_id":"free"},{"bike_id":"3796c098-fa51-4f70-aeeb-a782bda8716c","system_id":"levelo_inurba_marseille","lat":43.290104,"lon":5.356111,"is_reserved":false,"is_disabled":false,"rental_uris":{"android":"levelo://app?vid=3796c098-fa51-4f70-aeeb-a782bda8716c","ios":"levelo://app?vid=3796c098-fa51-4f70-aeeb-a782bda8716c"},"vehicle_type_id":"4","last_reported":1701619695,"current_range_meters":4400,"station_id":"ce4bhb92rcd13ifvqen0","pricing_plan_id":"free"},{"bike_id":"8f27e816-7bc5-4c50-9787-688054485d61","system_id":"levelo_inurba_marseille","lat":43.33042,"lon":5.38928,"is_reserved":false,"is_disabled":false,"rental_uris":{"android":"levelo://app?vid=8f27e816-7bc5-4c50-9787-688054485d61","ios":"levelo://app?vid=8f27e816-7bc5-4c50-9787-688054485d61"},"vehicle_type_id":"4","last_reported":1701619695,"current_range_meters":27600,"station_id":"ce4bhr92rcd13ifvqhrg","pricing_plan_id":"free"},{"bike_id":"4f53fa26-9a8d-4281-8136-74baa6a826c8","system_id":"levelo_inurba_marseille","lat":43.28979,"lon":5.37837,"is_reserved":false,"is_disabled":false,"rental_uris":{"android":"levelo://app?vid=4f53fa26-9a8d-4281-8136-74baa6a826c8","ios":"levelo://app?vid=4f53fa26-9a8d-4281-8136-74baa6a826c8"},"vehicle_type_id":"4","last_reported":1701619695,"current_range_meters":18400,"station_id":"ce4bh9p2rcd13ifvqed0","pricing_plan_id":"free"},{"bike_id":"e4ef69cd-030f-4340-85c9-e339eda620d7","system_id":"levelo_inurba_marseille","lat":43.31274,"lon":5.40176,"is_reserved":false,"is_disabled":false,"rental_uris":{"android":"levelo://app?vid=e4ef69cd-030f-4340-85c9-e339eda620d7","ios":"levelo://app?vid=e4ef69cd-030f-4340-85c9-e339eda620d7"},"vehicle_type_id":"4","last_reported":1701619695,"current_range_meters":23600,"station_id":"ce4bh092rcd13ifvqd30","pricing_plan_id":"free"},{"bike_id":"2e07fc64-4898-46c4-b42d-868a68df2e76","system_id":"levelo_inurba_marseille","lat":43.30926,"lon":5.40144,"is_reserved":false,"is_disabled":false,"rental_uris":{"android":"levelo://app?vid=2e07fc64-4898-46c4-b42d-868a68df2e76","ios":"levelo://app?vid=2e07fc64-4898-46c4-b42d-868a68df2e76"},"vehicle_type_id":"4","last_reported":1701619695,"current_range_meters":14800,"station_id":"ce4bgvp2rcd13ifvqct0","pricing_plan_id":"free"},{"bike_id":"fb3d4280-e997-4d72-a912-d9251d365ce2","system_id":"levelo_inurba_marseille","lat":43.31277,"lon":5.40178,"is_reserved":false,"is_disabled":false,"rental_uris":{"android":"levelo://app?vid=fb3d4280-e997-4d72-a912-d9251d365ce2","ios":"levelo://app?vid=fb3d4280-e997-4d72-a912-d9251d365ce2"},"vehicle_type_id":"4","last_reported":1701619695,"current_range_meters":12000,"station_id":"ce4bh092rcd13ifvqd30","pricing_plan_id":"free"},{"bike_id":"75cedf84-c6f5-4486-bd4f-61c5d0823ad6","system_id":"levelo_inurba_marseille","lat":43.301117,"lon":5.398795,"is_reserved":false,"is_disabled":false,"rental_uris":{"android":"levelo://app?vid=75cedf84-c6f5-4486-bd4f-61c5d0823ad6","ios":"levelo://app?vid=75cedf84-c6f5-4486-bd4f-61c5d0823ad6"},"vehicle_type_id":"4","last_reported":1701619695,"current_range_meters":17200,"station_id":"ce4bh0h2rcd13ifvqd40","pricing_plan_id":"free"},{"bike_id":"a9a749ee-0c4b-4bd4-8fc0-d5fa19269cbd","system_id":"levelo_inurba_marseille","lat":43.298681,"lon":5.397225,"is_reserved":false,"is_disabled":false,"rental_uris":{"android":"levelo://app?vid=a9a749ee-0c4b-4bd4-8fc0-d5fa19269cbd","ios":"levelo://app?vid=a9a749ee-0c4b-4bd4-8fc0-d5fa19269cbd"},"vehicle_type_id":"4","last_reported":1701619695,"current_range_meters":16000,"station_id":"ce4bh0h2rcd13ifvqd50","pricing_plan_id":"free"},{"bike_id":"b9b1245d-1481-48d7-8715-56f9be7b8bce","system_id":"levelo_inurba_marseille","lat":43.29863,"lon":5.39735,"is_reserved":false,"is_disabled":false,"rental_uris":{"android":"levelo://app?vid=b9b1245d-1481-48d7-8715-56f9be7b8bce","ios":"levelo://app?vid=b9b1245d-1481-48d7-8715-56f9be7b8bce"},"vehicle_type_id":"4","last_reported":1701619695,"current_range_meters":11600,"station_id":"ce4bh0h2rcd13ifvqd50","pricing_plan_id":"free"},{"bike_id":"e65aa2e3-955c-453e-9de0-5f0670909c09","system_id":"levelo_inurba_marseille","lat":43.286039,"lon":5.370679,"is_reserved":false,"is_disabled":false,"rental_uris":{"android":"levelo://app?vid=e65aa2e3-955c-453e-9de0-5f0670909c09","ios":"levelo://app?vid=e65aa2e3-955c-453e-9de0-5f0670909c09"},"vehicle_type_id":"4","last_reported":1701619695,"current_range_meters":24000,"station_id":"ce4bht12rcd13ifvqi60","pricing_plan_id":"free"},{"bike_id":"44a68992-48a5-4e5b-a4e6-c4a797ba063e","system_id":"levelo_inurba_marseille","lat":43.287184,"lon":5.37937,"is_reserved":false,"is_disabled":false,"rental_uris":{"android":"levelo://app?vid=44a68992-48a5-4e5b-a4e6-c4a797ba063e","ios":"levelo://app?vid=44a68992-48a5-4e5b-a4e6-c4a797ba063e"},"vehicle_type_id":"4","last_reported":1701619695,"current_range_meters":12400,"station_id":"ce4bh9p2rcd13ifvqec0","pricing_plan_id":"free"},{"bike_id":"edb5bee1-f340-4c12-998a-850f79ea2c97","system_id":"levelo_inurba_marseille","lat":43.287184,"lon":5.37937,"is_reserved":false,"is_disabled":false,"rental_uris":{"android":"levelo://app?vid=edb5bee1-f340-4c12-998a-850f79ea2c97","ios":"levelo://app?vid=edb5bee1-f340-4c12-998a-850f79ea2c97"},"vehicle_type_id":"4","last_reported":1701619695,"current_range_meters":26000,"station_id":"ce4bh9p2rcd13ifvqec0","pricing_plan_id":"free"},{"bike_id":"01d821c3-16bd-4bad-8048-ceb843886575","system_id":"levelo_inurba_marseille","lat":43.29213,"lon":5.39325,"is_reserved":false,"is_disabled":false,"rental_uris":{"android":"levelo://app?vid=01d821c3-16bd-4bad-8048-ceb843886575","ios":"levelo://app?vid=01d821c3-16bd-4bad-8048-ceb843886575"},"vehicle_type_id":"4","last_reported":1701619695,"current_range_meters":2000,"station_id":"ce4bh192rcd13ifvqdd0","pricing_plan_id":"free"},{"bike_id":"bcaca0d7-ed65-49b5-8cad-49bbc4210af6","system_id":"levelo_inurba_marseille","lat":43.284538,"lon":5.358657,"is_reserved":false,"is_disabled":false,"rental_uris":{"android":"levelo://app?vid=bcaca0d7-ed65-49b5-8cad-49bbc4210af6","ios":"levelo://app?vid=bcaca0d7-ed65-49b5-8cad-49bbc4210af6"},"vehicle_type_id":"4","last_reported":1701619695,"current_range_meters":17600,"station_id":"ce4bhah2rcd13ifvqei0","pricing_plan_id":"free"},{"bike_id":"a22f0efe-f997-4f08-9265-c1c563d0d2c0","system_id":"levelo_inurba_marseille","lat":43.295713,"lon":5.399639,"is_reserved":false,"is_disabled":false,"rental_uris":{"android":"levelo://app?vid=a22f0efe-f997-4f08-9265-c1c563d0d2c0","ios":"levelo://app?vid=a22f0efe-f997-4f08-9265-c1c563d0d2c0"},"vehicle_type_id":"4","last_reported":1701619695,"current_range_meters":4400,"station_id":"ce4bh312rcd13ifvqdj0","pricing_plan_id":"free"},{"bike_id":"75ee5a35-25e5-4210-a426-2d92cbb1b782","system_id":"levelo_inurba_marseille","lat":43.33189,"lon":5.39784,"is_reserved":false,"is_disabled":false,"rental_uris":{"android":"levelo://app?vid=75ee5a35-25e5-4210-a426-2d92cbb1b782","ios":"levelo://app?vid=75ee5a35-25e5-4210-a426-2d92cbb1b782"},"vehicle_type_id":"4","last_reported":1701619695,"current_range_meters":0,"station_id":"","pricing_plan_id":"free"},{"bike_id":"1ec0bb6b-c71a-487f-8fbe-7527bff03eaf","system_id":"levelo_inurba_marseille","lat":43.286595,"lon":5.386795,"is_reserved":false,"is_disabled":false,"rental_uris":{"android":"levelo://app?vid=1ec0bb6b-c71a-487f-8fbe-7527bff03eaf","ios":"levelo://app?vid=1ec0bb6b-c71a-487f-8fbe-7527bff03eaf"},"vehicle_type_id":"4","last_reported":1701619695,"current_range_meters":12000,"station_id":"ce4bh492rcd13ifvqdug","pricing_plan_id":"free"},{"bike_id":"7cf1e134-3f16-4b12-9983-649903e74bd8","system_id":"levelo_inurba_marseille","lat":43.286595,"lon":5.386795,"is_reserved":false,"is_disabled":false,"rental_uris":{"android":"levelo://app?vid=7cf1e134-3f16-4b12-9983-649903e74bd8","ios":"levelo://app?vid=7cf1e134-3f16-4b12-9983-649903e74bd8"},"vehicle_type_id":"4","last_reported":1701619695,"current_range_meters":17200,"station_id":"ce4bh492rcd13ifvqdug","pricing_plan_id":"free"},{"bike_id":"23a6e18e-5ad6-40cf-b6fb-7a4b1a6034c9","system_id":"levelo_inurba_marseille","lat":43.33745,"lon":5.39116,"is_reserved":false,"is_disabled":false,"rental_uris":{"android":"levelo://app?vid=23a6e18e-5ad6-40cf-b6fb-7a4b1a6034c9","ios":"levelo://app?vid=23a6e18e-5ad6-40cf-b6fb-7a4b1a6034c9"},"vehicle_type_id":"4","last_reported":1701619695,"current_range_meters":28000,"station_id":"","pricing_plan_id":"free"},{"bike_id":"5da488ef-4a64-4718-a513-b7cb19e37fee","system_id":"levelo_inurba_marseille","lat":43.284787,"lon":5.384116,"is_reserved":false,"is_disabled":false,"rental_uris":{"android":"levelo://app?vid=5da488ef-4a64-4718-a513-b7cb19e37fee","ios":"levelo://app?vid=5da488ef-4a64-4718-a513-b7cb19e37fee"},"vehicle_type_id":"4","last_reported":1701619695,"current_range_meters":19200,"station_id":"ce4bh512rcd13ifvqe3g","pricing_plan_id":"free"},{"bike_id":"07755574-30fe-4366-87af-64bb6feb769e","system_id":"levelo_inurba_marseille","lat":43.281044,"lon":5.378308,"is_reserved":false,"is_disabled":false,"rental_uris":{"android":"levelo://app?vid=07755574-30fe-4366-87af-64bb6feb769e","ios":"levelo://app?vid=07755574-30fe-4366-87af-64bb6feb769e"},"vehicle_type_id":"4","last_reported":1701619695,"current_range_meters":400,"station_id":"ce4bha12rcd13ifvqee0","pricing_plan_id":"free"},{"bike_id":"f50a5a03-4b81-4c75-8829-a2d979313098","system_id":"levelo_inurba_marseille","lat":43.279087,"lon":5.380114,"is_reserved":false,"is_disabled":false,"rental_uris":{"android":"levelo://app?vid=f50a5a03-4b81-4c75-8829-a2d979313098","ios":"levelo://app?vid=f50a5a03-4b81-4c75-8829-a2d979313098"},"vehicle_type_id":"4","last_reported":1701619695,"current_range_meters":17200,"station_id":"ce4bhf92rcd13ifvqf50","pricing_plan_id":"free"},{"bike_id":"c719a2ce-454e-4f9b-8859-0059bc899a07","system_id":"levelo_inurba_marseille","lat":43.279742,"lon":5.38744,"is_reserved":false,"is_disabled":false,"rental_uris":{"android":"levelo://app?vid=c719a2ce-454e-4f9b-8859-0059bc899a07","ios":"levelo://app?vid=c719a2ce-454e-4f9b-8859-0059bc899a07"},"vehicle_type_id":"4","last_reported":1701619695,"current_range_meters":10800,"station_id":"ce4bhg12rcd13ifvqf80","pricing_plan_id":"free"},{"bike_id":"534f137e-34fe-466f-9232-6f1393a0b373","system_id":"levelo_inurba_marseille","lat":43.292647,"lon":5.409162,"is_reserved":false,"is_disabled":false,"rental_uris":{"android":"levelo://app?vid=534f137e-34fe-466f-9232-6f1393a0b373","ios":"levelo://app?vid=534f137e-34fe-466f-9232-6f1393a0b373"},"vehicle_type_id":"4","last_reported":1701619695,"current_range_meters":15600,"station_id":"","pricing_plan_id":"free"},{"bike_id":"6f57a106-b042-404b-9c56-2be4b5633d80","system_id":"levelo_inurba_marseille","lat":43.2762,"lon":5.36101,"is_reserved":false,"is_disabled":false,"rental_uris":{"android":"levelo://app?vid=6f57a106-b042-404b-9c56-2be4b5633d80","ios":"levelo://app?vid=6f57a106-b042-404b-9c56-2be4b5633d80"},"vehicle_type_id":"4","last_reported":1701619695,"current_range_meters":2000,"station_id":"ce4bgj92rcd13ifvqbe0","pricing_plan_id":"free"},{"bike_id":"cccd1f6a-64fc-40c0-a9d4-fb3352aafc06","system_id":"levelo_inurba_marseille","lat":43.280784,"lon":5.396622,"is_reserved":false,"is_disabled":false,"rental_uris":{"android":"levelo://app?vid=cccd1f6a-64fc-40c0-a9d4-fb3352aafc06","ios":"levelo://app?vid=cccd1f6a-64fc-40c0-a9d4-fb3352aafc06"},"vehicle_type_id":"4","last_reported":1701619695,"current_range_meters":8000,"station_id":"ce4bho12rcd13ifvqh2g","pricing_plan_id":"free"},{"bike_id":"487ad7ad-ee7f-40ab-b43c-43d7d5434705","system_id":"levelo_inurba_marseille","lat":43.303837,"lon":5.418724,"is_reserved":false,"is_disabled":false,"rental_uris":{"android":"levelo://app?vid=487ad7ad-ee7f-40ab-b43c-43d7d5434705","ios":"levelo://app?vid=487ad7ad-ee7f-40ab-b43c-43d7d5434705"},"vehicle_type_id":"4","last_reported":1701619695,"current_range_meters":23600,"station_id":"ce4bhop2rcd13ifvqh7g","pricing_plan_id":"free"},{"bike_id":"2db9e5fa-014c-41f7-8420-1b2eee11ab2e","system_id":"levelo_inurba_marseille","lat":43.273613,"lon":5.362705,"is_reserved":false,"is_disabled":false,"rental_uris":{"android":"levelo://app?vid=2db9e5fa-014c-41f7-8420-1b2eee11ab2e","ios":"levelo://app?vid=2db9e5fa-014c-41f7-8420-1b2eee11ab2e"},"vehicle_type_id":"4","last_reported":1701619695,"current_range_meters":3200,"station_id":"ce4bhbh2rcd13ifvqeo0","pricing_plan_id":"free"},{"bike_id":"6aaaaa22-b6b5-4c44-b41e-fcacaeedb6b4","system_id":"levelo_inurba_marseille","lat":43.27371,"lon":5.3625,"is_reserved":false,"is_disabled":false,"rental_uris":{"android":"levelo://app?vid=6aaaaa22-b6b5-4c44-b41e-fcacaeedb6b4","ios":"levelo://app?vid=6aaaaa22-b6b5-4c44-b41e-fcacaeedb6b4"},"vehicle_type_id":"4","last_reported":1701619695,"current_range_meters":22000,"station_id":"ce4bhbh2rcd13ifvqeo0","pricing_plan_id":"free"},{"bike_id":"12c350cc-6f87-4125-b0ed-c77d288474f4","system_id":"levelo_inurba_marseille","lat":43.276768,"lon":5.388892,"is_reserved":false,"is_disabled":false,"rental_uris":{"android":"levelo://app?vid=12c350cc-6f87-4125-b0ed-c77d288474f4","ios":"levelo://app?vid=12c350cc-6f87-4125-b0ed-c77d288474f4"},"vehicle_type_id":"4","last_reported":1701619695,"current_range_meters":1200,"station_id":"","pricing_plan_id":"free"},{"bike_id":"c09b90ed-ae80-4068-af57-c1f425cf344d","system_id":"levelo_inurba_marseille","lat":43.276771,"lon":5.388799,"is_reserved":false,"is_disabled":false,"rental_uris":{"android":"levelo://app?vid=c09b90ed-ae80-4068-af57-c1f425cf344d","ios":"levelo://app?vid=c09b90ed-ae80-4068-af57-c1f425cf344d"},"vehicle_type_id":"4","last_reported":1701619695,"current_range_meters":21200,"station_id":"ce4bhi12rcd13ifvqfo0","pricing_plan_id":"free"},{"bike_id":"0c80b8b0-72b9-43d2-810d-415f33a8d9f5","system_id":"levelo_inurba_marseille","lat":43.279952,"lon":5.400085,"is_reserved":false,"is_disabled":false,"rental_uris":{"android":"levelo://app?vid=0c80b8b0-72b9-43d2-810d-415f33a8d9f5","ios":"levelo://app?vid=0c80b8b0-72b9-43d2-810d-415f33a8d9f5"},"vehicle_type_id":"4","last_reported":1701619695,"current_range_meters":22000,"station_id":"ce4bho92rcd13ifvqh4g","pricing_plan_id":"free"},{"bike_id":"9d9396fc-59e9-4fdc-841d-b91338a00ac5","system_id":"levelo_inurba_marseille","lat":43.310785,"lon":5.424305,"is_reserved":false,"is_disabled":false,"rental_uris":{"android":"levelo://app?vid=9d9396fc-59e9-4fdc-841d-b91338a00ac5","ios":"levelo://app?vid=9d9396fc-59e9-4fdc-841d-b91338a00ac5"},"vehicle_type_id":"4","last_reported":1701619695,"current_range_meters":28800,"station_id":"ce4bhp92rcd13ifvqhag","pricing_plan_id":"free"},{"bike_id":"910fd3aa-d2e0-4553-894a-6161d41c7fcd","system_id":"levelo_inurba_marseille","lat":43.27609,"lon":5.39475,"is_reserved":false,"is_disabled":false,"rental_uris":{"android":"levelo://app?vid=910fd3aa-d2e0-4553-894a-6161d41c7fcd","ios":"levelo://app?vid=910fd3aa-d2e0-4553-894a-6161d41c7fcd"},"vehicle_type_id":"4","last_reported":1701619695,"current_range_meters":14800,"station_id":"","pricing_plan_id":"free"},{"bike_id":"c61e904c-1fd2-4630-a952-4e345a64dcc4","system_id":"levelo_inurba_marseille","lat":43.274103,"lon":5.394016,"is_reserved":false,"is_disabled":false,"rental_uris":{"android":"levelo://app?vid=c61e904c-1fd2-4630-a952-4e345a64dcc4","ios":"levelo://app?vid=c61e904c-1fd2-4630-a952-4e345a64dcc4"},"vehicle_type_id":"4","last_reported":1701619695,"current_range_meters":16000,"station_id":"ce4bhdp2rcd13ifvqf20","pricing_plan_id":"free"},{"bike_id":"e83ebcb9-2f31-46bb-8c22-29a341b162d7","system_id":"levelo_inurba_marseille","lat":43.304088,"lon":5.425388,"is_reserved":false,"is_disabled":false,"rental_uris":{"android":"levelo://app?vid=e83ebcb9-2f31-46bb-8c22-29a341b162d7","ios":"levelo://app?vid=e83ebcb9-2f31-46bb-8c22-29a341b162d7"},"vehicle_type_id":"4","last_reported":1701619695,"current_range_meters":26400,"station_id":"ce4bhoh2rcd13ifvqh6g","pricing_plan_id":"free"},{"bike_id":"fe35ee49-e57b-4a8b-b92a-978fe50ee119","system_id":"levelo_inurba_marseille","lat":43.278128,"lon":5.407195,"is_reserved":false,"is_disabled":false,"rental_uris":{"android":"levelo://app?vid=fe35ee49-e57b-4a8b-b92a-978fe50ee119","ios":"levelo://app?vid=fe35ee49-e57b-4a8b-b92a-978fe50ee119"},"vehicle_type_id":"4","last_reported":1701619695,"current_range_meters":24800,"station_id":"ce4bhnh2rcd13ifvqgtg","pricing_plan_id":"free"},{"bike_id":"b5adc4b8-2043-49b0-a038-dcb0bad1c7de","system_id":"levelo_inurba_marseille","lat":43.265501,"lon":5.372859,"is_reserved":false,"is_disabled":false,"rental_uris":{"android":"levelo://app?vid=b5adc4b8-2043-49b0-a038-dcb0bad1c7de","ios":"levelo://app?vid=b5adc4b8-2043-49b0-a038-dcb0bad1c7de"},"vehicle_type_id":"4","last_reported":1701619695,"current_range_meters":17600,"station_id":"ce4bhg12rcd13ifvqf70","pricing_plan_id":"free"},{"bike_id":"6cff85a5-34a6-4a61-80b1-e2575c582391","system_id":"levelo_inurba_marseille","lat":43.26938,"lon":5.40254,"is_reserved":false,"is_disabled":false,"rental_uris":{"android":"levelo://app?vid=6cff85a5-34a6-4a61-80b1-e2575c582391","ios":"levelo://app?vid=6cff85a5-34a6-4a61-80b1-e2575c582391"},"vehicle_type_id":"4","last_reported":1701619695,"current_range_meters":3600,"station_id":"cjm6bp8fraef2m0cb0m0","pricing_plan_id":"free"},{"bike_id":"f9505c4b-c2ce-4bca-bead-e0efb1f24e15","system_id":"levelo_inurba_marseille","lat":43.271368,"lon":5.40928,"is_reserved":false,"is_disabled":false,"rental_uris":{"android":"levelo://app?vid=f9505c4b-c2ce-4bca-bead-e0efb1f24e15","ios":"levelo://app?vid=f9505c4b-c2ce-4bca-bead-e0efb1f24e15"},"vehicle_type_id":"4","last_reported":1701619695,"current_range_meters":29600,"station_id":"ce4bhl12rcd13ifvqgf0","pricing_plan_id":"free"},{"bike_id":"c1c7d1ee-a2cd-41c8-9ba8-2267d1b3b04e","system_id":"levelo_inurba_marseille","lat":43.260225,"lon":5.375455,"is_reserved":false,"is_disabled":false,"rental_uris":{"android":"levelo://app?vid=c1c7d1ee-a2cd-41c8-9ba8-2267d1b3b04e","ios":"levelo://app?vid=c1c7d1ee-a2cd-41c8-9ba8-2267d1b3b04e"},"vehicle_type_id":"4","last_reported":1701619695,"current_range_meters":31200,"station_id":"ce4bhgh2rcd13ifvqfa0","pricing_plan_id":"free"},{"bike_id":"19337c19-12ca-4f3b-a568-40a561779510","system_id":"levelo_inurba_marseille","lat":43.281664,"lon":5.425619,"is_reserved":false,"is_disabled":false,"rental_uris":{"android":"levelo://app?vid=19337c19-12ca-4f3b-a568-40a561779510","ios":"levelo://app?vid=19337c19-12ca-4f3b-a568-40a561779510"},"vehicle_type_id":"4","last_reported":1701619695,"current_range_meters":26000,"station_id":"","pricing_plan_id":"free"},{"bike_id":"29a520d0-38f3-4808-95aa-92cc0f49450e","system_id":"levelo_inurba_marseille","lat":43.281548,"lon":5.42643,"is_reserved":false,"is_disabled":false,"rental_uris":{"android":"levelo://app?vid=29a520d0-38f3-4808-95aa-92cc0f49450e","ios":"levelo://app?vid=29a520d0-38f3-4808-95aa-92cc0f49450e"},"vehicle_type_id":"4","last_reported":1701619695,"current_range_meters":20800,"station_id":"ce4bhnh2rcd13ifvqgug","pricing_plan_id":"free"},{"bike_id":"75af4fc9-77ed-4f9a-8845-21292a5c0929","system_id":"levelo_inurba_marseille","lat":43.281548,"lon":5.42643,"is_reserved":false,"is_disabled":false,"rental_uris":{"android":"levelo://app?vid=75af4fc9-77ed-4f9a-8845-21292a5c0929","ios":"levelo://app?vid=75af4fc9-77ed-4f9a-8845-21292a5c0929"},"vehicle_type_id":"4","last_reported":1701619695,"current_range_meters":20800,"station_id":"ce4bhnh2rcd13ifvqgug","pricing_plan_id":"free"},{"bike_id":"97ff2232-0bbb-4cf6-9a9f-81bc9e55c519","system_id":"levelo_inurba_marseille","lat":43.281548,"lon":5.42643,"is_reserved":false,"is_disabled":false,"rental_uris":{"android":"levelo://app?vid=97ff2232-0bbb-4cf6-9a9f-81bc9e55c519","ios":"levelo://app?vid=97ff2232-0bbb-4cf6-9a9f-81bc9e55c519"},"vehicle_type_id":"4","last_reported":1701619695,"current_range_meters":22400,"station_id":"ce4bhnh2rcd13ifvqgug","pricing_plan_id":"free"},{"bike_id":"95cf7edd-b25a-4b67-81b6-2215ed4c5e45","system_id":"levelo_inurba_marseille","lat":43.258224,"lon":5.394369,"is_reserved":false,"is_disabled":false,"rental_uris":{"android":"levelo://app?vid=95cf7edd-b25a-4b67-81b6-2215ed4c5e45","ios":"levelo://app?vid=95cf7edd-b25a-4b67-81b6-2215ed4c5e45"},"vehicle_type_id":"4","last_reported":1701619695,"current_range_meters":28800,"station_id":"ce4bhip2rcd13ifvqft0","pricing_plan_id":"free"},{"bike_id":"7d96482b-6a3e-45d8-b7ef-2d424ddf84d3","system_id":"levelo_inurba_marseille","lat":43.254947,"lon":5.376454,"is_reserved":false,"is_disabled":false,"rental_uris":{"android":"levelo://app?vid=7d96482b-6a3e-45d8-b7ef-2d424ddf84d3","ios":"levelo://app?vid=7d96482b-6a3e-45d8-b7ef-2d424ddf84d3"},"vehicle_type_id":"4","last_reported":1701619695,"current_range_meters":27200,"station_id":"ce4bhh12rcd13ifvqff0","pricing_plan_id":"free"},{"bike_id":"89ab2780-212c-4924-92ec-dc43b0c7bb18","system_id":"levelo_inurba_marseille","lat":43.254947,"lon":5.376454,"is_reserved":false,"is_disabled":false,"rental_uris":{"android":"levelo://app?vid=89ab2780-212c-4924-92ec-dc43b0c7bb18","ios":"levelo://app?vid=89ab2780-212c-4924-92ec-dc43b0c7bb18"},"vehicle_type_id":"4","last_reported":1701619695,"current_range_meters":31200,"station_id":"ce4bhh12rcd13ifvqff0","pricing_plan_id":"free"},{"bike_id":"1a26b2c1-37fc-43af-8006-fd27039dbb13","system_id":"levelo_inurba_marseille","lat":43.258658,"lon":5.398935,"is_reserved":false,"is_disabled":false,"rental_uris":{"android":"levelo://app?vid=1a26b2c1-37fc-43af-8006-fd27039dbb13","ios":"levelo://app?vid=1a26b2c1-37fc-43af-8006-fd27039dbb13"},"vehicle_type_id":"4","last_reported":1701619695,"current_range_meters":2400,"station_id":"ce4bhl92rcd13ifvqghg","pricing_plan_id":"free"},{"bike_id":"bdc72d7c-9d46-4016-8a92-851cd50823f9","system_id":"levelo_inurba_marseille","lat":43.25929,"lon":5.40906,"is_reserved":false,"is_disabled":false,"rental_uris":{"android":"levelo://app?vid=bdc72d7c-9d46-4016-8a92-851cd50823f9","ios":"levelo://app?vid=bdc72d7c-9d46-4016-8a92-851cd50823f9"},"vehicle_type_id":"4","last_reported":1701619695,"current_range_meters":23200,"station_id":"ce4bhm92rcd13ifvqglg","pricing_plan_id":"free"},{"bike_id":"53c32c9f-b2cc-465e-b5ca-3b802b15ed6f","system_id":"levelo_inurba_marseille","lat":43.257079,"lon":5.411051,"is_reserved":false,"is_disabled":false,"rental_uris":{"android":"levelo://app?vid=53c32c9f-b2cc-465e-b5ca-3b802b15ed6f","ios":"levelo://app?vid=53c32c9f-b2cc-465e-b5ca-3b802b15ed6f"},"vehicle_type_id":"4","last_reported":1701619695,"current_range_meters":10400,"station_id":"ce4bhkp2rcd13ifvqgd0","pricing_plan_id":"free"},{"bike_id":"05ffcfcb-20c3-4466-b79e-af248191fe78","system_id":"levelo_inurba_marseille","lat":43.257079,"lon":5.411051,"is_reserved":false,"is_disabled":false,"rental_uris":{"android":"levelo://app?vid=05ffcfcb-20c3-4466-b79e-af248191fe78","ios":"levelo://app?vid=05ffcfcb-20c3-4466-b79e-af248191fe78"},"vehicle_type_id":"4","last_reported":1701619695,"current_range_meters":30800,"station_id":"ce4bhkp2rcd13ifvqgd0","pricing_plan_id":"free"},{"bike_id":"762e4a82-09d9-43f7-9565-1b70bcb1df38","system_id":"levelo_inurba_marseille","lat":43.24813,"lon":5.37461,"is_reserved":false,"is_disabled":false,"rental_uris":{"android":"levelo://app?vid=762e4a82-09d9-43f7-9565-1b70bcb1df38","ios":"levelo://app?vid=762e4a82-09d9-43f7-9565-1b70bcb1df38"},"vehicle_type_id":"4","last_reported":1701619695,"current_range_meters":15600,"station_id":"ce4bhgh2rcd13ifvqfb0","pricing_plan_id":"free"},{"bike_id":"53732937-24f0-4e6a-8d2a-bf9a8a0e4edb","system_id":"levelo_inurba_marseille","lat":43.2479,"lon":5.374457,"is_reserved":false,"is_disabled":false,"rental_uris":{"android":"levelo://app?vid=53732937-24f0-4e6a-8d2a-bf9a8a0e4edb","ios":"levelo://app?vid=53732937-24f0-4e6a-8d2a-bf9a8a0e4edb"},"vehicle_type_id":"4","last_reported":1701619695,"current_range_meters":30800,"station_id":"ce4bhgh2rcd13ifvqfb0","pricing_plan_id":"free"},{"bike_id":"8d359b19-d1f5-46cf-bac8-c9702dbc65e3","system_id":"levelo_inurba_marseille","lat":43.250023,"lon":5.38919,"is_reserved":false,"is_disabled":false,"rental_uris":{"android":"levelo://app?vid=8d359b19-d1f5-46cf-bac8-c9702dbc65e3","ios":"levelo://app?vid=8d359b19-d1f5-46cf-bac8-c9702dbc65e3"},"vehicle_type_id":"4","last_reported":1701619695,"current_range_meters":5200,"station_id":"ce4bhgp2rcd13ifvqfd0","pricing_plan_id":"free"},{"bike_id":"d4432fb6-eaf0-4d53-b3aa-f892346c7a84","system_id":"levelo_inurba_marseille","lat":43.2479,"lon":5.374457,"is_reserved":false,"is_disabled":false,"rental_uris":{"android":"levelo://app?vid=d4432fb6-eaf0-4d53-b3aa-f892346c7a84","ios":"levelo://app?vid=d4432fb6-eaf0-4d53-b3aa-f892346c7a84"},"vehicle_type_id":"4","last_reported":1701619695,"current_range_meters":20800,"station_id":"ce4bhgh2rcd13ifvqfb0","pricing_plan_id":"free"},{"bike_id":"d9417757-5dca-4482-8bfb-d776aeacc3cb","system_id":"levelo_inurba_marseille","lat":43.2479,"lon":5.374457,"is_reserved":false,"is_disabled":false,"rental_uris":{"android":"levelo://app?vid=d9417757-5dca-4482-8bfb-d776aeacc3cb","ios":"levelo://app?vid=d9417757-5dca-4482-8bfb-d776aeacc3cb"},"vehicle_type_id":"4","last_reported":1701619695,"current_range_meters":20400,"station_id":"ce4bhgh2rcd13ifvqfb0","pricing_plan_id":"free"},{"bike_id":"1ae647e5-787a-44e8-a132-9667cc9d19a0","system_id":"levelo_inurba_marseille","lat":43.24693,"lon":5.382096,"is_reserved":false,"is_disabled":false,"rental_uris":{"android":"levelo://app?vid=1ae647e5-787a-44e8-a132-9667cc9d19a0","ios":"levelo://app?vid=1ae647e5-787a-44e8-a132-9667cc9d19a0"},"vehicle_type_id":"4","last_reported":1701619695,"current_range_meters":19600,"station_id":"ce4bhih2rcd13ifvqfr0","pricing_plan_id":"free"},{"bike_id":"b12dabe7-54c6-419a-82a7-714a5cb2cb6d","system_id":"levelo_inurba_marseille","lat":43.246461,"lon":5.389014,"is_reserved":false,"is_disabled":false,"rental_uris":{"android":"levelo://app?vid=b12dabe7-54c6-419a-82a7-714a5cb2cb6d","ios":"levelo://app?vid=b12dabe7-54c6-419a-82a7-714a5cb2cb6d"},"vehicle_type_id":"4","last_reported":1701619695,"current_range_meters":31200,"station_id":"ce4bhg12rcd13ifvqf60","pricing_plan_id":"free"},{"bike_id":"bcd42492-a192-4c04-8b30-8fe0c606060e","system_id":"levelo_inurba_marseille","lat":43.243884,"lon":5.370737,"is_reserved":false,"is_disabled":false,"rental_uris":{"android":"levelo://app?vid=bcd42492-a192-4c04-8b30-8fe0c606060e","ios":"levelo://app?vid=bcd42492-a192-4c04-8b30-8fe0c606060e"},"vehicle_type_id":"4","last_reported":1701619695,"current_range_meters":17200,"station_id":"ce4bhhh2rcd13ifvqfk0","pricing_plan_id":"free"},{"bike_id":"61a9e6b0-f435-4470-83bd-a67a85c1a979","system_id":"levelo_inurba_marseille","lat":43.243884,"lon":5.370736,"is_reserved":false,"is_disabled":false,"rental_uris":{"android":"levelo://app?vid=61a9e6b0-f435-4470-83bd-a67a85c1a979","ios":"levelo://app?vid=61a9e6b0-f435-4470-83bd-a67a85c1a979"},"vehicle_type_id":"4","last_reported":1701619695,"current_range_meters":31200,"station_id":"ce4bhhh2rcd13ifvqfk0","pricing_plan_id":"free"},{"bike_id":"463b63cc-9855-4065-9a8f-e0321e2b04d1","system_id":"levelo_inurba_marseille","lat":43.245581,"lon":5.395069,"is_reserved":false,"is_disabled":false,"rental_uris":{"android":"levelo://app?vid=463b63cc-9855-4065-9a8f-e0321e2b04d1","ios":"levelo://app?vid=463b63cc-9855-4065-9a8f-e0321e2b04d1"},"vehicle_type_id":"4","last_reported":1701619695,"current_range_meters":28400,"station_id":"ce4bhlp2rcd13ifvqgjg","pricing_plan_id":"free"},{"bike_id":"d8616eaf-cb48-464a-aeee-aeded39ec6a7","system_id":"levelo_inurba_marseille","lat":43.245581,"lon":5.395069,"is_reserved":false,"is_disabled":false,"rental_uris":{"android":"levelo://app?vid=d8616eaf-cb48-464a-aeee-aeded39ec6a7","ios":"levelo://app?vid=d8616eaf-cb48-464a-aeee-aeded39ec6a7"},"vehicle_type_id":"4","last_reported":1701619695,"current_range_meters":0,"station_id":"ce4bhlp2rcd13ifvqgjg","pricing_plan_id":"free"},{"bike_id":"8919dd41-10d3-48df-a451-a8c74cdf24c9","system_id":"levelo_inurba_marseille","lat":43.245581,"lon":5.395069,"is_reserved":false,"is_disabled":false,"rental_uris":{"android":"levelo://app?vid=8919dd41-10d3-48df-a451-a8c74cdf24c9","ios":"levelo://app?vid=8919dd41-10d3-48df-a451-a8c74cdf24c9"},"vehicle_type_id":"4","last_reported":1701619695,"current_range_meters":0,"station_id":"ce4bhlp2rcd13ifvqgjg","pricing_plan_id":"free"},{"bike_id":"cc953af1-b40a-44f1-a95d-0f3804ceeb8a","system_id":"levelo_inurba_marseille","lat":43.24076,"lon":5.37757,"is_reserved":false,"is_disabled":false,"rental_uris":{"android":"levelo://app?vid=cc953af1-b40a-44f1-a95d-0f3804ceeb8a","ios":"levelo://app?vid=cc953af1-b40a-44f1-a95d-0f3804ceeb8a"},"vehicle_type_id":"4","last_reported":1701619695,"current_range_meters":14000,"station_id":"ce4bhnp2rcd13ifvqgvg","pricing_plan_id":"free"},{"bike_id":"23917b98-9609-4102-a621-fa4d76b26075","system_id":"levelo_inurba_marseille","lat":43.23967,"lon":5.36627,"is_reserved":false,"is_disabled":false,"rental_uris":{"android":"levelo://app?vid=23917b98-9609-4102-a621-fa4d76b26075","ios":"levelo://app?vid=23917b98-9609-4102-a621-fa4d76b26075"},"vehicle_type_id":"4","last_reported":1701619695,"current_range_meters":27200,"station_id":"ce4bhi12rcd13ifvqfp0","pricing_plan_id":"free"},{"bike_id":"66d07158-1c05-469e-a266-b66692f04cb5","system_id":"levelo_inurba_marseille","lat":43.239588,"lon":5.366238,"is_reserved":false,"is_disabled":false,"rental_uris":{"android":"levelo://app?vid=66d07158-1c05-469e-a266-b66692f04cb5","ios":"levelo://app?vid=66d07158-1c05-469e-a266-b66692f04cb5"},"vehicle_type_id":"4","last_reported":1701619695,"current_range_meters":31200,"station_id":"ce4bhi12rcd13ifvqfp0","pricing_plan_id":"free"},{"bike_id":"b101f295-ac85-402a-8afe-c635c176f114","system_id":"levelo_inurba_marseille","lat":43.285313,"lon":5.46065,"is_reserved":false,"is_disabled":false,"rental_uris":{"android":"levelo://app?vid=b101f295-ac85-402a-8afe-c635c176f114","ios":"levelo://app?vid=b101f295-ac85-402a-8afe-c635c176f114"},"vehicle_type_id":"4","last_reported":1701619695,"current_range_meters":18800,"station_id":"","pricing_plan_id":"free"},{"bike_id":"384a17af-27e8-4164-b8c0-d8b51c5b0eac","system_id":"levelo_inurba_marseille","lat":43.231923,"lon":5.355545,"is_reserved":false,"is_disabled":false,"rental_uris":{"android":"levelo://app?vid=384a17af-27e8-4164-b8c0-d8b51c5b0eac","ios":"levelo://app?vid=384a17af-27e8-4164-b8c0-d8b51c5b0eac"},"vehicle_type_id":"4","last_reported":1701619695,"current_range_meters":6800,"station_id":"ce4bhu92rcd13ifvqi70","pricing_plan_id":"free"},{"bike_id":"6041d620-664b-4836-b597-a0e62593a032","system_id":"levelo_inurba_marseille","lat":43.231923,"lon":5.355545,"is_reserved":false,"is_disabled":false,"rental_uris":{"android":"levelo://app?vid=6041d620-664b-4836-b597-a0e62593a032","ios":"levelo://app?vid=6041d620-664b-4836-b597-a0e62593a032"},"vehicle_type_id":"4","last_reported":1701619695,"current_range_meters":28000,"station_id":"ce4bhu92rcd13ifvqi70","pricing_plan_id":"free"},{"bike_id":"4583a0a2-6ba9-4cd5-985c-7fc3fabe7c64","system_id":"levelo_inurba_marseille","lat":43.231919,"lon":5.355532,"is_reserved":false,"is_disabled":false,"rental_uris":{"android":"levelo://app?vid=4583a0a2-6ba9-4cd5-985c-7fc3fabe7c64","ios":"levelo://app?vid=4583a0a2-6ba9-4cd5-985c-7fc3fabe7c64"},"vehicle_type_id":"4","last_reported":1701619695,"current_range_meters":31200,"station_id":"ce4bhu92rcd13ifvqi70","pricing_plan_id":"free"},{"bike_id":"87815193-0a9e-4a5a-8f22-63817bf9d429","system_id":"levelo_inurba_marseille","lat":43.231971,"lon":5.355499,"is_reserved":false,"is_disabled":false,"rental_uris":{"android":"levelo://app?vid=87815193-0a9e-4a5a-8f22-63817bf9d429","ios":"levelo://app?vid=87815193-0a9e-4a5a-8f22-63817bf9d429"},"vehicle_type_id":"4","last_reported":1701619695,"current_range_meters":29600,"station_id":"ce4bhu92rcd13ifvqi70","pricing_plan_id":"free"},{"bike_id":"a2778a75-2f32-457d-810c-ad5c32010803","system_id":"levelo_inurba_marseille","lat":43.23195,"lon":5.3556,"is_reserved":false,"is_disabled":false,"rental_uris":{"android":"levelo://app?vid=a2778a75-2f32-457d-810c-ad5c32010803","ios":"levelo://app?vid=a2778a75-2f32-457d-810c-ad5c32010803"},"vehicle_type_id":"4","last_reported":1701619695,"current_range_meters":19600,"station_id":"ce4bhu92rcd13ifvqi70","pricing_plan_id":"free"},{"bike_id":"df76bb33-a4ef-4a36-a72d-84c57504fc7a","system_id":"levelo_inurba_marseille","lat":43.231958,"lon":5.355456,"is_reserved":false,"is_disabled":false,"rental_uris":{"android":"levelo://app?vid=df76bb33-a4ef-4a36-a72d-84c57504fc7a","ios":"levelo://app?vid=df76bb33-a4ef-4a36-a72d-84c57504fc7a"},"vehicle_type_id":"4","last_reported":1701619695,"current_range_meters":29200,"station_id":"ce4bhu92rcd13ifvqi70","pricing_plan_id":"free"},{"bike_id":"6573cb36-3c40-4042-8b0f-1356381ee019","system_id":"levelo_inurba_marseille","lat":43.231923,"lon":5.355545,"is_reserved":false,"is_disabled":false,"rental_uris":{"android":"levelo://app?vid=6573cb36-3c40-4042-8b0f-1356381ee019","ios":"levelo://app?vid=6573cb36-3c40-4042-8b0f-1356381ee019"},"vehicle_type_id":"4","last_reported":1701619695,"current_range_meters":28000,"station_id":"ce4bhu92rcd13ifvqi70","pricing_plan_id":"free"},{"bike_id":"58d4edcd-4441-486c-8457-28ebda4ac431","system_id":"levelo_inurba_marseille","lat":43.23194,"lon":5.35545,"is_reserved":false,"is_disabled":false,"rental_uris":{"android":"levelo://app?vid=58d4edcd-4441-486c-8457-28ebda4ac431","ios":"levelo://app?vid=58d4edcd-4441-486c-8457-28ebda4ac431"},"vehicle_type_id":"4","last_reported":1701619695,"current_range_meters":19600,"station_id":"ce4bhu92rcd13ifvqi70","pricing_plan_id":"free"},{"bike_id":"2b04708e-eed8-4471-916a-9fdeea01eec7","system_id":"levelo_inurba_marseille","lat":43.231923,"lon":5.355545,"is_reserved":false,"is_disabled":false,"rental_uris":{"android":"levelo://app?vid=2b04708e-eed8-4471-916a-9fdeea01eec7","ios":"levelo://app?vid=2b04708e-eed8-4471-916a-9fdeea01eec7"},"vehicle_type_id":"4","last_reported":1701619695,"current_range_meters":31200,"station_id":"ce4bhu92rcd13ifvqi70","pricing_plan_id":"free"},{"bike_id":"cf3102c4-88e0-4a41-86b7-69a76932d3e6","system_id":"levelo_inurba_marseille","lat":43.231923,"lon":5.355545,"is_reserved":false,"is_disabled":false,"rental_uris":{"android":"levelo://app?vid=cf3102c4-88e0-4a41-86b7-69a76932d3e6","ios":"levelo://app?vid=cf3102c4-88e0-4a41-86b7-69a76932d3e6"},"vehicle_type_id":"4","last_reported":1701619695,"current_range_meters":31200,"station_id":"ce4bhu92rcd13ifvqi70","pricing_plan_id":"free"},{"bike_id":"c5f58380-c0c2-4043-965b-6a38bd15d65b","system_id":"levelo_inurba_marseille","lat":43.23192,"lon":5.35553,"is_reserved":false,"is_disabled":false,"rental_uris":{"android":"levelo://app?vid=c5f58380-c0c2-4043-965b-6a38bd15d65b","ios":"levelo://app?vid=c5f58380-c0c2-4043-965b-6a38bd15d65b"},"vehicle_type_id":"4","last_reported":1701619695,"current_range_meters":8000,"station_id":"ce4bhu92rcd13ifvqi70","pricing_plan_id":"free"},{"bike_id":"9e01ee59-41e6-425c-ae1f-3e33312fefcd","system_id":"levelo_inurba_marseille","lat":43.231923,"lon":5.355545,"is_reserved":false,"is_disabled":false,"rental_uris":{"android":"levelo://app?vid=9e01ee59-41e6-425c-ae1f-3e33312fefcd","ios":"levelo://app?vid=9e01ee59-41e6-425c-ae1f-3e33312fefcd"},"vehicle_type_id":"4","last_reported":1701619695,"current_range_meters":15600,"station_id":"ce4bhu92rcd13ifvqi70","pricing_plan_id":"free"},{"bike_id":"177a82e2-68da-4975-a68b-b32649f3d1f2","system_id":"levelo_inurba_marseille","lat":43.231923,"lon":5.355545,"is_reserved":false,"is_disabled":false,"rental_uris":{"android":"levelo://app?vid=177a82e2-68da-4975-a68b-b32649f3d1f2","ios":"levelo://app?vid=177a82e2-68da-4975-a68b-b32649f3d1f2"},"vehicle_type_id":"4","last_reported":1701619695,"current_range_meters":7600,"station_id":"ce4bhu92rcd13ifvqi70","pricing_plan_id":"free"},{"bike_id":"c384cc79-d05c-49b7-9293-603bcf5d3796","system_id":"levelo_inurba_marseille","lat":43.231919,"lon":5.355532,"is_reserved":false,"is_disabled":false,"rental_uris":{"android":"levelo://app?vid=c384cc79-d05c-49b7-9293-603bcf5d3796","ios":"levelo://app?vid=c384cc79-d05c-49b7-9293-603bcf5d3796"},"vehicle_type_id":"4","last_reported":1701619695,"current_range_meters":6000,"station_id":"ce4bhu92rcd13ifvqi70","pricing_plan_id":"free"},{"bike_id":"22bd98e3-c33f-4c44-ae2b-f96729d36f4f","system_id":"levelo_inurba_marseille","lat":43.231793,"lon":5.400044,"is_reserved":false,"is_disabled":false,"rental_uris":{"android":"levelo://app?vid=22bd98e3-c33f-4c44-ae2b-f96729d36f4f","ios":"levelo://app?vid=22bd98e3-c33f-4c44-ae2b-f96729d36f4f"},"vehicle_type_id":"4","last_reported":1701619695,"current_range_meters":31600,"station_id":"ce4bhn12rcd13ifvqgqg","pricing_plan_id":"free"},{"bike_id":"d7955d6f-88ae-4e83-97c1-4a0668d076f6","system_id":"levelo_inurba_marseille","lat":43.23188,"lon":5.39986,"is_reserved":false,"is_disabled":false,"rental_uris":{"android":"levelo://app?vid=d7955d6f-88ae-4e83-97c1-4a0668d076f6","ios":"levelo://app?vid=d7955d6f-88ae-4e83-97c1-4a0668d076f6"},"vehicle_type_id":"4","last_reported":1701619695,"current_range_meters":18400,"station_id":"ce4bhn12rcd13ifvqgqg","pricing_plan_id":"free"},{"bike_id":"a926f4bb-1e59-4822-80ea-1d5ff6f2a5c5","system_id":"levelo_inurba_marseille","lat":43.23187,"lon":5.39984,"is_reserved":false,"is_disabled":false,"rental_uris":{"android":"levelo://app?vid=a926f4bb-1e59-4822-80ea-1d5ff6f2a5c5","ios":"levelo://app?vid=a926f4bb-1e59-4822-80ea-1d5ff6f2a5c5"},"vehicle_type_id":"4","last_reported":1701619695,"current_range_meters":14400,"station_id":"ce4bhn12rcd13ifvqgqg","pricing_plan_id":"free"},{"bike_id":"77b1a551-da7f-429a-980e-bfc6767a5958","system_id":"levelo_inurba_marseille","lat":43.231794,"lon":5.400052,"is_reserved":false,"is_disabled":false,"rental_uris":{"android":"levelo://app?vid=77b1a551-da7f-429a-980e-bfc6767a5958","ios":"levelo://app?vid=77b1a551-da7f-429a-980e-bfc6767a5958"},"vehicle_type_id":"4","last_reported":1701619695,"current_range_meters":31200,"station_id":"ce4bhn12rcd13ifvqgqg","pricing_plan_id":"free"},{"bike_id":"e47e98e0-4256-4c41-ae86-e531a41b9213","system_id":"levelo_inurba_marseille","lat":43.231794,"lon":5.400052,"is_reserved":false,"is_disabled":false,"rental_uris":{"android":"levelo://app?vid=e47e98e0-4256-4c41-ae86-e531a41b9213","ios":"levelo://app?vid=e47e98e0-4256-4c41-ae86-e531a41b9213"},"vehicle_type_id":"4","last_reported":1701619695,"current_range_meters":31200,"station_id":"ce4bhn12rcd13ifvqgqg","pricing_plan_id":"free"},{"bike_id":"88cf855f-bb31-40e0-8afc-686df3c193ab","system_id":"levelo_inurba_marseille","lat":43.231794,"lon":5.400052,"is_reserved":false,"is_disabled":false,"rental_uris":{"android":"levelo://app?vid=88cf855f-bb31-40e0-8afc-686df3c193ab","ios":"levelo://app?vid=88cf855f-bb31-40e0-8afc-686df3c193ab"},"vehicle_type_id":"4","last_reported":1701619695,"current_range_meters":29200,"station_id":"ce4bhn12rcd13ifvqgqg","pricing_plan_id":"free"},{"bike_id":"3fdd6789-d52a-4c7f-96f4-f754cbf436d6","system_id":"levelo_inurba_marseille","lat":43.23183,"lon":5.39977,"is_reserved":false,"is_disabled":false,"rental_uris":{"android":"levelo://app?vid=3fdd6789-d52a-4c7f-96f4-f754cbf436d6","ios":"levelo://app?vid=3fdd6789-d52a-4c7f-96f4-f754cbf436d6"},"vehicle_type_id":"4","last_reported":1701619695,"current_range_meters":31200,"station_id":"ce4bhn12rcd13ifvqgqg","pricing_plan_id":"free"},{"bike_id":"6bd9f065-50d9-4657-9ca0-a006f413d305","system_id":"levelo_inurba_marseille","lat":43.231794,"lon":5.400052,"is_reserved":false,"is_disabled":false,"rental_uris":{"android":"levelo://app?vid=6bd9f065-50d9-4657-9ca0-a006f413d305","ios":"levelo://app?vid=6bd9f065-50d9-4657-9ca0-a006f413d305"},"vehicle_type_id":"4","last_reported":1701619695,"current_range_meters":31200,"station_id":"ce4bhn12rcd13ifvqgqg","pricing_plan_id":"free"},{"bike_id":"118d4a35-86b4-49cc-8abc-987caa7ffe62","system_id":"levelo_inurba_marseille","lat":43.231853,"lon":5.399908,"is_reserved":false,"is_disabled":false,"rental_uris":{"android":"levelo://app?vid=118d4a35-86b4-49cc-8abc-987caa7ffe62","ios":"levelo://app?vid=118d4a35-86b4-49cc-8abc-987caa7ffe62"},"vehicle_type_id":"4","last_reported":1701619695,"current_range_meters":31200,"station_id":"ce4bhn12rcd13ifvqgqg","pricing_plan_id":"free"},{"bike_id":"0cf73e26-cfe4-495a-8675-6603ab968aec","system_id":"levelo_inurba_marseille","lat":43.231794,"lon":5.400052,"is_reserved":false,"is_disabled":false,"rental_uris":{"android":"levelo://app?vid=0cf73e26-cfe4-495a-8675-6603ab968aec","ios":"levelo://app?vid=0cf73e26-cfe4-495a-8675-6603ab968aec"},"vehicle_type_id":"4","last_reported":1701619695,"current_range_meters":13200,"station_id":"ce4bhn12rcd13ifvqgqg","pricing_plan_id":"free"},{"bike_id":"d8ad9864-eb6b-4faa-b8e1-e2e245ce7f97","system_id":"levelo_inurba_marseille","lat":43.231842,"lon":5.39991,"is_reserved":false,"is_disabled":false,"rental_uris":{"android":"levelo://app?vid=d8ad9864-eb6b-4faa-b8e1-e2e245ce7f97","ios":"levelo://app?vid=d8ad9864-eb6b-4faa-b8e1-e2e245ce7f97"},"vehicle_type_id":"4","last_reported":1701619695,"current_range_meters":15200,"station_id":"ce4bhn12rcd13ifvqgqg","pricing_plan_id":"free"},{"bike_id":"457c552c-8af5-4b7b-9f6b-8c901265a623","system_id":"levelo_inurba_marseille","lat":43.23183,"lon":5.39987,"is_reserved":false,"is_disabled":false,"rental_uris":{"android":"levelo://app?vid=457c552c-8af5-4b7b-9f6b-8c901265a623","ios":"levelo://app?vid=457c552c-8af5-4b7b-9f6b-8c901265a623"},"vehicle_type_id":"4","last_reported":1701619695,"current_range_meters":28000,"station_id":"ce4bhn12rcd13ifvqgqg","pricing_plan_id":"free"},{"bike_id":"7119d2ec-3a1f-47f1-97aa-a12f1d72912d","system_id":"levelo_inurba_marseille","lat":43.23182,"lon":5.39986,"is_reserved":false,"is_disabled":false,"rental_uris":{"android":"levelo://app?vid=7119d2ec-3a1f-47f1-97aa-a12f1d72912d","ios":"levelo://app?vid=7119d2ec-3a1f-47f1-97aa-a12f1d72912d"},"vehicle_type_id":"4","last_reported":1701619695,"current_range_meters":12400,"station_id":"ce4bhn12rcd13ifvqgqg","pricing_plan_id":"free"},{"bike_id":"ab5eae98-96ca-4718-91b7-353de917f40d","system_id":"levelo_inurba_marseille","lat":43.231793,"lon":5.400044,"is_reserved":false,"is_disabled":false,"rental_uris":{"android":"levelo://app?vid=ab5eae98-96ca-4718-91b7-353de917f40d","ios":"levelo://app?vid=ab5eae98-96ca-4718-91b7-353de917f40d"},"vehicle_type_id":"4","last_reported":1701619695,"current_range_meters":28000,"station_id":"ce4bhn12rcd13ifvqgqg","pricing_plan_id":"free"},{"bike_id":"df6c3251-c2c5-42e5-9867-fe0f24136657","system_id":"levelo_inurba_marseille","lat":43.231821,"lon":5.399981,"is_reserved":false,"is_disabled":false,"rental_uris":{"android":"levelo://app?vid=df6c3251-c2c5-42e5-9867-fe0f24136657","ios":"levelo://app?vid=df6c3251-c2c5-42e5-9867-fe0f24136657"},"vehicle_type_id":"4","last_reported":1701619695,"current_range_meters":3600,"station_id":"","pricing_plan_id":"free"},{"bike_id":"4ee99995-f63f-4ddb-ac4b-88a5ee23324c","system_id":"levelo_inurba_marseille","lat":43.23175,"lon":5.39989,"is_reserved":false,"is_disabled":false,"rental_uris":{"android":"levelo://app?vid=4ee99995-f63f-4ddb-ac4b-88a5ee23324c","ios":"levelo://app?vid=4ee99995-f63f-4ddb-ac4b-88a5ee23324c"},"vehicle_type_id":"4","last_reported":1701619695,"current_range_meters":12800,"station_id":"ce4bhn12rcd13ifvqgqg","pricing_plan_id":"free"}]}}