{"last_updated":1759079277,"ttl":60,"version":"2.2","data":{"bikes":[{"bike_id":"33956d90-95c1-431a-a553-b7fdc09c8160","system_id":"levelo_inurba_marseille","lat":43.284,"lon":5.37529,"is_reserved":false,"is_disabled":true,"rental_uris":{"android":"levelo://app?vid=33956d90-95c1-431a-a553-b7fdc09c8160","ios":"levelo://app?vid=33956d90-95c1-431a-a553-b7fdc09c8160"},"vehicle_type_id":"4","last_reported":1759079277,"current_range_meters":2800,"station_id":"ce4bh412rcd13ifvqds0","pricing_plan_id":"cebpf4jnsgd1na2vs0mg"},{"bike_id":"9e36120a-353e-472b-beb5-7a3307c798e4","system_id":"levelo_inurba_marseille","lat":43.30457,"lon":5.37912,"is_reserved":false,"is_disabled":false,"rental_uris":{"android":"levelo://app?vid=9e36120a-353e-472b-beb5-7a3307c798e4","ios":"levelo://app?vid=9e36120a-353e-472b-beb5-7a3307c798e4"},"vehicle_type_id":"4","last_reported":1759079277,"current_range_meters":2800,"station_id":"ce4bgup2rcd13ifvqcn0","pricing_plan_id":"cebpf4jnsgd1na2vs0mg"},{"bike_id":"4cf2b5e0-b508-4fc7-9e3c-0a1fb91f9a46","system_id":"levelo_inurba_marseille","lat":43.24808,"lon":5.37459,"is_reserved":false,"is_disabled":false,"rental_uris":{"android":"levelo://app?vid=4cf2b5e0-b508-4fc7-9e3c-0a1fb91f9a46","ios":"levelo://app?vid=4cf2b5e0-b508-4fc7-9e3c-0a1fb91f9a46"},"vehicle_type_id":"4","last_reported":1759079277,"current_range_meters":3200,"station_id":"ce4bhgh2rcd13ifvqfb0","pricing_plan_id":"cebpf4jnsgd1na2vs0mg"},{"bike_id":"c270bd2a-df7b-46a1-8837-f38d87e40dd8","system_id":"levelo_inurba_marseille","lat":43.29305,"lon":5.37175,"is_reserved":false,"is_disabled":false,"rental_uris":{"android":"levelo://app?vid=c270bd2a-df7b-46a1-8837-f38d87e40dd8","ios":"levelo://app?vid=c270bd2a-df7b-46a1-8837-f38d87e40dd8"},"vehicle_type_id":"4","last_reported":1759079277,"current_range_meters":3200,"station_id":"ce4bgh92rcd13ifvqb40","pricing_plan_id":"cebpf4jnsgd1na2vs0mg"},{"bike_id":"0e2b7acd-8c15-48c4-87fd-4c58966cb917","system_id":"levelo_inurba_marseille","lat":43.28601,"lon":5.3708,"is_reserved":false,"is_disabled":false,"rental_uris":{"android":"levelo://app?vid=0e2b7acd-8c15-48c4-87fd-4c58966cb917","ios":"levelo://app?vid=0e2b7acd-8c15-48c4-87fd-4c58966cb917"},"vehicle_type_id":"4","last_reported":1759079277,"current_range_meters":3200,"station_id":"ce4bht12rcd13ifvqi60","pricing_plan_id":"cebpf4jnsgd1na2vs0mg"},{"bike_id":"baf023a9-ffbd-4cfd-b7ab-1d48e480420b","system_id":"levelo_inurba_marseille","lat":43.28466,"lon":5.35878,"is_reserved":false,"is_disabled":false,"rental_uris":{"android":"levelo://app?vid=baf023a9-ffbd-4cfd-b7ab-1d48e480420b","ios":"levelo://app?vid=baf023a9-ffbd-4cfd-b7ab-1d48e480420b"},"vehicle_type_id":"4","last_reported":1759079277,"current_range_meters":3600,"station_id":"ce4bhah2rcd13ifvqei0","pricing_plan_id":"cebpf4jnsgd1na2vs0mg"},{"bike_id":"3d33f98c-e943-4e81-a7e7-c5cf9099dd3c","system_id":"levelo_inurba_marseille","lat":43.29792,"lon":5.381,"is_reserved":false,"is_disabled":false,"rental_uris":{"android":"levelo://app?vid=3d33f98c-e943-4e81-a7e7-c5cf9099dd3c","ios":"levelo://app?vid=3d33f98c-e943-4e81-a7e7-c5cf9099dd3c"},"vehicle_type_id":"4","last_reported":1759079277,"current_range_meters":3600,"station_id":"ce4bgip2rcd13ifvqbb0","pricing_plan_id":"cebpf4jnsgd1na2vs0mg"},{"bike_id":"6266bc05-bd87-4f31-b9c7-2b15c535a109","system_id":"levelo_inurba_marseille","lat":43.28259,"lon":5.3507,"is_reserved":false,"is_disabled":true,"rental_uris":{"android":"levelo://app?vid=6266bc05-bd87-4f31-b9c7-2b15c535a109","ios":"levelo://app?vid=6266bc05-bd87-4f31-b9c7-2b15c535a109"},"vehicle_type_id":"4","last_reported":1759079277,"current_range_meters":3600,"station_id":"ce4bhbp2rcd13ifvqerg","pricing_plan_id":"cebpf4jnsgd1na2vs0mg"},{"bike_id":"9a819dc8-447d-4df7-8b5f-0b18332a26a7","system_id":"levelo_inurba_marseille","lat":43.329631,"lon":5.37501,"is_reserved":false,"is_disabled":false,"rental_uris":{"android":"levelo://app?vid=9a819dc8-447d-4df7-8b5f-0b18332a26a7","ios":"levelo://app?vid=9a819dc8-447d-4df7-8b5f-0b18332a26a7"},"vehicle_type_id":"4","last_reported":1759079277,"current_range_meters":3600,"station_id":"","pricing_plan_id":"cebpf4jnsgd1na2vs0mg"},{"bike_id":"6d3a24a9-6180-47d6-9781-2a37e37fca3a","system_id":"levelo_inurba_marseille","lat":43.28618,"lon":5.36076,"is_reserved":false,"is_disabled":false,"rental_uris":{"android":"levelo://app?vid=6d3a24a9-6180-47d6-9781-2a37e37fca3a","ios":"levelo://app?vid=6d3a24a9-6180-47d6-9781-2a37e37fca3a"},"vehicle_type_id":"4","last_reported":1759079277,"current_range_meters":4000,"station_id":"ce4bhah2rcd13ifvqej0","pricing_plan_id":"cebpf4jnsgd1na2vs0mg"},{"bike_id":"3e7c632f-1bc3-4a93-95c2-f8c84940bc86","system_id":"levelo_inurba_marseille","lat":43.30422,"lon":5.39774,"is_reserved":false,"is_disabled":false,"rental_uris":{"android":"levelo://app?vid=3e7c632f-1bc3-4a93-95c2-f8c84940bc86","ios":"levelo://app?vid=3e7c632f-1bc3-4a93-95c2-f8c84940bc86"},"vehicle_type_id":"4","last_reported":1759079277,"current_range_meters":4000,"station_id":"ce4bh092rcd13ifvqd20","pricing_plan_id":"cebpf4jnsgd1na2vs0mg"},{"bike_id":"2336a081-3301-4818-b498-4e2b16a6631f","system_id":"levelo_inurba_marseille","lat":43.32361,"lon":5.44002,"is_reserved":false,"is_disabled":false,"rental_uris":{"android":"levelo://app?vid=2336a081-3301-4818-b498-4e2b16a6631f","ios":"levelo://app?vid=2336a081-3301-4818-b498-4e2b16a6631f"},"vehicle_type_id":"4","last_reported":1759079277,"current_range_meters":4000,"station_id":"","pricing_plan_id":"cebpf4jnsgd1na2vs0mg"},{"bike_id":"e279c1eb-a97a-4013-a35e-b5549645ad58","system_id":"levelo_inurba_marseille","lat":43.29197,"lon":5.39311,"is_reserved":false,"is_disabled":false,"rental_uris":{"android":"levelo://app?vid=e279c1eb-a97a-4013-a35e-b5549645ad58","ios":"levelo://app?vid=e279c1eb-a97a-4013-a35e-b5549645ad58"},"vehicle_type_id":"4","last_reported":1759079277,"current_range_meters":4000,"station_id":"ce4bh192rcd13ifvqdd0","pricing_plan_id":"cebpf4jnsgd1na2vs0mg"},{"bike_id":"08fe2b08-b3fa-43f8-ae73-04061f76318d","system_id":"levelo_inurba_marseille","lat":43.305552,"lon":5.365395,"is_reserved":false,"is_disabled":false,"rental_uris":{"android":"levelo://app?vid=08fe2b08-b3fa-43f8-ae73-04061f76318d","ios":"levelo://app?vid=08fe2b08-b3fa-43f8-ae73-04061f76318d"},"vehicle_type_id":"4","last_reported":1759079277,"current_range_meters":4000,"station_id":"","pricing_plan_id":"cebpf4jnsgd1na2vs0mg"},{"bike_id":"f8723556-6224-46a2-bbbb-f7110f35c59f","system_id":"levelo_inurba_marseille","lat":43.33766,"lon":5.37462,"is_reserved":false,"is_disabled":true,"rental_uris":{"android":"levelo://app?vid=f8723556-6224-46a2-bbbb-f7110f35c59f","ios":"levelo://app?vid=f8723556-6224-46a2-bbbb-f7110f35c59f"},"vehicle_type_id":"4","last_reported":1759079277,"current_range_meters":4000,"station_id":"","pricing_plan_id":"cebpf4jnsgd1na2vs0mg"},{"bike_id":"63785b75-838a-456f-8470-76ee196b0409","system_id":"levelo_inurba_marseille","lat":43.27059,"lon":5.40259,"is_reserved":false,"is_disabled":false,"rental_uris":{"android":"levelo://app?vid=63785b75-838a-456f-8470-76ee196b0409","ios":"levelo://app?vid=63785b75-838a-456f-8470-76ee196b0409"},"vehicle_type_id":"4","last_reported":1759079277,"current_range_meters":4000,"station_id":"ce4bhk92rcd13ifvqgc0","pricing_plan_id":"cebpf4jnsgd1na2vs0mg"},{"bike_id":"bdfc4850-de3f-42e0-b27a-b1a610372266","system_id":"levelo_inurba_marseille","lat":43.296324,"lon":5.374101,"is_reserved":false,"is_disabled":false,"rental_uris":{"android":"levelo://app?vid=bdfc4850-de3f-42e0-b27a-b1a610372266","ios":"levelo://app?vid=bdfc4850-de3f-42e0-b27a-b1a610372266"},"vehicle_type_id":"4","last_reported":1759079277,"current_range_meters":4000,"station_id":"","pricing_plan_id":"cebpf4jnsgd1na2vs0mg"},{"bike_id":"31149a16-95ad-46c4-afef-3c0b2232f7b3","system_id":"levelo_inurba_marseille","lat":43.30881,"lon":5.39652,"is_reserved":false,"is_disabled":false,"rental_uris":{"android":"levelo://app?vid=31149a16-95ad-46c4-afef-3c0b2232f7b3","ios":"levelo://app?vid=31149a16-95ad-46c4-afef-3c0b2232f7b3"},"vehicle_type_id":"4","last_reported":1759079277,"current_range_meters":4000,"station_id":"ce4bh012rcd13ifvqcv0","pricing_plan_id":"cebpf4jnsgd1na2vs0mg"},{"bike_id":"96c7c5cb-d48e-4e92-8d01-55d89773ff81","system_id":"levelo_inurba_marseille","lat":43.29967,"lon":5.37172,"is_reserved":false,"is_disabled":false,"rental_uris":{"android":"levelo://app?vid=96c7c5cb-d48e-4e92-8d01-55d89773ff81","ios":"levelo://app?vid=96c7c5cb-d48e-4e92-8d01-55d89773ff81"},"vehicle_type_id":"4","last_reported":1759079277,"current_range_meters":4400,"station_id":"ce4bgr92rcd13ifvqc7g","pricing_plan_id":"cebpf4jnsgd1na2vs0mg"},{"bike_id":"c71a3a90-2d9d-4b06-b91b-7309df6ed1f5","system_id":"levelo_inurba_marseille","lat":43.28858,"lon":5.42537,"is_reserved":false,"is_disabled":false,"rental_uris":{"android":"levelo://app?vid=c71a3a90-2d9d-4b06-b91b-7309df6ed1f5","ios":"levelo://app?vid=c71a3a90-2d9d-4b06-b91b-7309df6ed1f5"},"vehicle_type_id":"4","last_reported":1759079277,"current_range_meters":4400,"station_id":"st_d3b462108ojc7389ooeg","pricing_plan_id":"cebpf4jnsgd1na2vs0mg"},{"bike_id":"5279259c-45ab-425c-adc7-05d3e3b83f65","system_id":"levelo_inurba_marseille","lat":43.29913,"lon":5.38513,"is_reserved":false,"is_disabled":false,"rental_uris":{"android":"levelo://app?vid=5279259c-45ab-425c-adc7-05d3e3b83f65","ios":"levelo://app?vid=5279259c-45ab-425c-adc7-05d3e3b83f65"},"vehicle_type_id":"4","last_reported":1759079277,"current_range_meters":4400,"station_id":"","pricing_plan_id":"cebpf4jnsgd1na2vs0mg"},{"bike_id":"40a8fc0a-dad8-4041-bd99-413f802b93f2","system_id":"levelo_inurba_marseille","lat":43.28922,"lon":5.38372,"is_reserved":false,"is_disabled":false,"rental_uris":{"android":"levelo://app?vid=40a8fc0a-dad8-4041-bd99-413f802b93f2","ios":"levelo://app?vid=40a8fc0a-dad8-4041-bd99-413f802b93f2"},"vehicle_type_id":"4","last_reported":1759079277,"current_range_meters":4400,"station_id":"ce4bh612rcd13ifvqe6g","pricing_plan_id":"cebpf4jnsgd1na2vs0mg"},{"bike_id":"4cb5ddd8-56a5-45a4-94eb-ac3243a89c0a","system_id":"levelo_inurba_marseille","lat":43.31166,"lon":5.38728,"is_reserved":false,"is_disabled":false,"rental_uris":{"android":"levelo://app?vid=4cb5ddd8-56a5-45a4-94eb-ac3243a89c0a","ios":"levelo://app?vid=4cb5ddd8-56a5-45a4-94eb-ac3243a89c0a"},"vehicle_type_id":"4","last_reported":1759079277,"current_range_meters":4400,"station_id":"ce4bgv12rcd13ifvqcp0","pricing_plan_id":"cebpf4jnsgd1na2vs0mg"},{"bike_id":"fee74e98-eb52-4f66-a612-109c75f34aa6","system_id":"levelo_inurba_marseille","lat":43.29603,"lon":5.37984,"is_reserved":false,"is_disabled":false,"rental_uris":{"android":"levelo://app?vid=fee74e98-eb52-4f66-a612-109c75f34aa6","ios":"levelo://app?vid=fee74e98-eb52-4f66-a612-109c75f34aa6"},"vehicle_type_id":"4","last_reported":1759079277,"current_range_meters":4400,"station_id":"","pricing_plan_id":"cebpf4jnsgd1na2vs0mg"},{"bike_id":"eaff68d8-504b-4c32-b704-4aca1b9c864c","system_id":"levelo_inurba_marseille","lat":43.29584,"lon":5.36742,"is_reserved":false,"is_disabled":false,"rental_uris":{"android":"levelo://app?vid=eaff68d8-504b-4c32-b704-4aca1b9c864c","ios":"levelo://app?vid=eaff68d8-504b-4c32-b704-4aca1b9c864c"},"vehicle_type_id":"4","last_reported":1759079277,"current_range_meters":4800,"station_id":"ce4bgph2rcd13ifvqc2g","pricing_plan_id":"cebpf4jnsgd1na2vs0mg"},{"bike_id":"5b84c02a-85a5-4e61-bca9-bfa89da66b92","system_id":"levelo_inurba_marseille","lat":43.31068,"lon":5.38354,"is_reserved":false,"is_disabled":false,"rental_uris":{"android":"levelo://app?vid=5b84c02a-85a5-4e61-bca9-bfa89da66b92","ios":"levelo://app?vid=5b84c02a-85a5-4e61-bca9-bfa89da66b92"},"vehicle_type_id":"4","last_reported":1759079277,"current_range_meters":4800,"station_id":"ce4bgv92rcd13ifvqcr0","pricing_plan_id":"cebpf4jnsgd1na2vs0mg"},{"bike_id":"abbfd351-86a3-4d14-bd32-c1276b2e7926","system_id":"levelo_inurba_marseille","lat":43.2904,"lon":5.38661,"is_reserved":false,"is_disabled":false,"rental_uris":{"android":"levelo://app?vid=abbfd351-86a3-4d14-bd32-c1276b2e7926","ios":"levelo://app?vid=abbfd351-86a3-4d14-bd32-c1276b2e7926"},"vehicle_type_id":"4","last_reported":1759079277,"current_range_meters":4800,"station_id":"ce4bh4p2rcd13ifvqe0g","pricing_plan_id":"cebpf4jnsgd1na2vs0mg"},{"bike_id":"f7e69795-56ca-4a64-97c9-21a6fd38f993","system_id":"levelo_inurba_marseille","lat":43.28,"lon":5.40014,"is_reserved":false,"is_disabled":false,"rental_uris":{"android":"levelo://app?vid=f7e69795-56ca-4a64-97c9-21a6fd38f993","ios":"levelo://app?vid=f7e69795-56ca-4a64-97c9-21a6fd38f993"},"vehicle_type_id":"4","last_reported":1759079277,"current_range_meters":4800,"station_id":"ce4bho92rcd13ifvqh4g","pricing_plan_id":"cebpf4jnsgd1na2vs0mg"},{"bike_id":"b7ec1591-e523-4a3e-8575-158fdb28a87d","system_id":"levelo_inurba_marseille","lat":43.31711,"lon":5.37746,"is_reserved":false,"is_disabled":false,"rental_uris":{"android":"levelo://app?vid=b7ec1591-e523-4a3e-8575-158fdb28a87d","ios":"levelo://app?vid=b7ec1591-e523-4a3e-8575-158fdb28a87d"},"vehicle_type_id":"4","last_reported":1759079277,"current_range_meters":4800,"station_id":"ce4bgth2rcd13ifvqch0","pricing_plan_id":"cebpf4jnsgd1na2vs0mg"},{"bike_id":"5c66653e-fc7b-4cae-a508-609f678f4884","system_id":"levelo_inurba_marseille","lat":43.295319,"lon":5.385394,"is_reserved":false,"is_disabled":false,"rental_uris":{"android":"levelo://app?vid=5c66653e-fc7b-4cae-a508-609f678f4884","ios":"levelo://app?vid=5c66653e-fc7b-4cae-a508-609f678f4884"},"vehicle_type_id":"4","last_reported":1759079277,"current_range_meters":4800,"station_id":"ce4bgih2rcd13ifvqba0","pricing_plan_id":"cebpf4jnsgd1na2vs0mg"},{"bike_id":"40dcd7a1-3cf5-46d8-8660-dd82e9185038","system_id":"levelo_inurba_marseille","lat":43.30142,"lon":5.37423,"is_reserved":false,"is_disabled":false,"rental_uris":{"android":"levelo://app?vid=40dcd7a1-3cf5-46d8-8660-dd82e9185038","ios":"levelo://app?vid=40dcd7a1-3cf5-46d8-8660-dd82e9185038"},"vehicle_type_id":"4","last_reported":1759079277,"current_range_meters":4800,"station_id":"ce4bgs92rcd13ifvqcc0","pricing_plan_id":"cebpf4jnsgd1na2vs0mg"},{"bike_id":"cc10a393-c8ce-43fb-8334-7d6d68691d22","system_id":"levelo_inurba_marseille","lat":43.26915,"lon":5.36675,"is_reserved":false,"is_disabled":false,"rental_uris":{"android":"levelo://app?vid=cc10a393-c8ce-43fb-8334-7d6d68691d22","ios":"levelo://app?vid=cc10a393-c8ce-43fb-8334-7d6d68691d22"},"vehicle_type_id":"4","last_reported":1759079277,"current_range_meters":5600,"station_id":"","pricing_plan_id":"cebpf4jnsgd1na2vs0mg"},{"bike_id":"f4fff804-d6ae-4079-b2d2-c7818b282ace","system_id":"levelo_inurba_marseille","lat":43.29282,"lon":5.38428,"is_reserved":false,"is_disabled":false,"rental_uris":{"android":"levelo://app?vid=f4fff804-d6ae-4079-b2d2-c7818b282ace","ios":"levelo://app?vid=f4fff804-d6ae-4079-b2d2-c7818b282ace"},"vehicle_type_id":"4","last_reported":1759079277,"current_range_meters":5600,"station_id":"ce4bh692rcd13ifvqea0","pricing_plan_id":"cebpf4jnsgd1na2vs0mg"},{"bike_id":"ed5ef1f4-67ca-4499-8575-660b762d8025","system_id":"levelo_inurba_marseille","lat":43.24649,"lon":5.43134,"is_reserved":false,"is_disabled":false,"rental_uris":{"android":"levelo://app?vid=ed5ef1f4-67ca-4499-8575-660b762d8025","ios":"levelo://app?vid=ed5ef1f4-67ca-4499-8575-660b762d8025"},"vehicle_type_id":"4","last_reported":1759079277,"current_range_meters":5600,"station_id":"st_d2m6c4gdas8pm72e190g","pricing_plan_id":"cebpf4jnsgd1na2vs0mg"},{"bike_id":"dc9b109a-17d6-49cf-81d7-affc947f1e9a","system_id":"levelo_inurba_marseille","lat":43.29968,"lon":5.38499,"is_reserved":false,"is_disabled":false,"rental_uris":{"android":"levelo://app?vid=dc9b109a-17d6-49cf-81d7-affc947f1e9a","ios":"levelo://app?vid=dc9b109a-17d6-49cf-81d7-affc947f1e9a"},"vehicle_type_id":"4","last_reported":1759079277,"current_range_meters":5600,"station_id":"ce4bgj92rcd13ifvqbd0","pricing_plan_id":"cebpf4jnsgd1na2vs0mg"},{"bike_id":"4465e273-8d49-4b92-b81f-cd0b820cce9b","system_id":"levelo_inurba_marseille","lat":43.24393,"lon":5.37064,"is_reserved":false,"is_disabled":false,"rental_uris":{"android":"levelo://app?vid=4465e273-8d49-4b92-b81f-cd0b820cce9b","ios":"levelo://app?vid=4465e273-8d49-4b92-b81f-cd0b820cce9b"},"vehicle_type_id":"4","last_reported":1759079277,"current_range_meters":5600,"station_id":"ce4bhhh2rcd13ifvqfk0","pricing_plan_id":"cebpf4jnsgd1na2vs0mg"},{"bike_id":"59eebeee-ec1c-412f-91de-a4be03159140","system_id":"levelo_inurba_marseille","lat":43.29267,"lon":5.38444,"is_reserved":false,"is_disabled":false,"rental_uris":{"android":"levelo://app?vid=59eebeee-ec1c-412f-91de-a4be03159140","ios":"levelo://app?vid=59eebeee-ec1c-412f-91de-a4be03159140"},"vehicle_type_id":"4","last_reported":1759079277,"current_range_meters":5600,"station_id":"ce4bh692rcd13ifvqea0","pricing_plan_id":"cebpf4jnsgd1na2vs0mg"},{"bike_id":"f8dc3c8f-8413-4c3c-b156-064a40e3a52f","system_id":"levelo_inurba_marseille","lat":43.28852,"lon":5.39303,"is_reserved":false,"is_disabled":false,"rental_uris":{"android":"levelo://app?vid=f8dc3c8f-8413-4c3c-b156-064a40e3a52f","ios":"levelo://app?vid=f8dc3c8f-8413-4c3c-b156-064a40e3a52f"},"vehicle_type_id":"4","last_reported":1759079277,"current_range_meters":5600,"station_id":"ce4bh2p2rcd13ifvqdi0","pricing_plan_id":"cebpf4jnsgd1na2vs0mg"},{"bike_id":"ae362888-702d-4dfa-9676-74259ea4db60","system_id":"levelo_inurba_marseille","lat":43.300726,"lon":5.390758,"is_reserved":false,"is_disabled":false,"rental_uris":{"android":"levelo://app?vid=ae362888-702d-4dfa-9676-74259ea4db60","ios":"levelo://app?vid=ae362888-702d-4dfa-9676-74259ea4db60"},"vehicle_type_id":"4","last_reported":1759079277,"current_range_meters":5600,"station_id":"ce4bh192rcd13ifvqdb0","pricing_plan_id":"cebpf4jnsgd1na2vs0mg"},{"bike_id":"29a100a9-952e-4330-8fd6-844ce55e9f7f","system_id":"levelo_inurba_marseille","lat":43.27907,"lon":5.3959,"is_reserved":false,"is_disabled":false,"rental_uris":{"android":"levelo://app?vid=29a100a9-952e-4330-8fd6-844ce55e9f7f","ios":"levelo://app?vid=29a100a9-952e-4330-8fd6-844ce55e9f7f"},"vehicle_type_id":"4","last_reported":1759079277,"current_range_meters":6000,"station_id":"ce4bhf92rcd13ifvqf40","pricing_plan_id":"cebpf4jnsgd1na2vs0mg"},{"bike_id":"9bb4db31-0bf9-4171-bca1-76cb045f53a3","system_id":"levelo_inurba_marseille","lat":43.26924,"lon":5.389081,"is_reserved":false,"is_disabled":true,"rental_uris":{"android":"levelo://app?vid=9bb4db31-0bf9-4171-bca1-76cb045f53a3","ios":"levelo://app?vid=9bb4db31-0bf9-4171-bca1-76cb045f53a3"},"vehicle_type_id":"4","last_reported":1759079277,"current_range_meters":6000,"station_id":"ce4bhhh2rcd13ifvqfl0","pricing_plan_id":"cebpf4jnsgd1na2vs0mg"},{"bike_id":"1fe44ba1-3d92-424b-9e42-34c947824d4a","system_id":"levelo_inurba_marseille","lat":43.31651,"lon":5.42397,"is_reserved":false,"is_disabled":false,"rental_uris":{"android":"levelo://app?vid=1fe44ba1-3d92-424b-9e42-34c947824d4a","ios":"levelo://app?vid=1fe44ba1-3d92-424b-9e42-34c947824d4a"},"vehicle_type_id":"4","last_reported":1759079277,"current_range_meters":6400,"station_id":"","pricing_plan_id":"cebpf4jnsgd1na2vs0mg"},{"bike_id":"5365e873-98ea-45e2-9689-7e119051f22e","system_id":"levelo_inurba_marseille","lat":43.33103,"lon":5.35514,"is_reserved":false,"is_disabled":true,"rental_uris":{"android":"levelo://app?vid=5365e873-98ea-45e2-9689-7e119051f22e","ios":"levelo://app?vid=5365e873-98ea-45e2-9689-7e119051f22e"},"vehicle_type_id":"4","last_reported":1759079277,"current_range_meters":6400,"station_id":"","pricing_plan_id":"cebpf4jnsgd1na2vs0mg"},{"bike_id":"06c4c581-3961-412c-afed-4fcfc12e2471","system_id":"levelo_inurba_marseille","lat":43.29238,"lon":5.38454,"is_reserved":false,"is_disabled":false,"rental_uris":{"android":"levelo://app?vid=06c4c581-3961-412c-afed-4fcfc12e2471","ios":"levelo://app?vid=06c4c581-3961-412c-afed-4fcfc12e2471"},"vehicle_type_id":"4","last_reported":1759079277,"current_range_meters":6400,"station_id":"ce4bh692rcd13ifvqea0","pricing_plan_id":"cebpf4jnsgd1na2vs0mg"},{"bike_id":"fbef676b-8f42-450e-b448-da45ad596c28","system_id":"levelo_inurba_marseille","lat":43.28391,"lon":5.36322,"is_reserved":false,"is_disabled":false,"rental_uris":{"android":"levelo://app?vid=fbef676b-8f42-450e-b448-da45ad596c28","ios":"levelo://app?vid=fbef676b-8f42-450e-b448-da45ad596c28"},"vehicle_type_id":"4","last_reported":1759079277,"current_range_meters":6400,"station_id":"","pricing_plan_id":"cebpf4jnsgd1na2vs0mg"},{"bike_id":"31a2d647-5d12-4946-8020-186ea17768c2","system_id":"levelo_inurba_marseille","lat":43.30131,"lon":5.39846,"is_reserved":false,"is_disabled":false,"rental_uris":{"android":"levelo://app?vid=31a2d647-5d12-4946-8020-186ea17768c2","ios":"levelo://app?vid=31a2d647-5d12-4946-8020-186ea17768c2"},"vehicle_type_id":"4","last_reported":1759079277,"current_range_meters":6400,"station_id":"ce4bh0h2rcd13ifvqd40","pricing_plan_id":"cebpf4jnsgd1na2vs0mg"},{"bike_id":"01bf55f2-4ac6-46f6-8504-3267bf31e1a6","system_id":"levelo_inurba_marseille","lat":43.2973,"lon":5.381787,"is_reserved":false,"is_disabled":false,"rental_uris":{"android":"levelo://app?vid=01bf55f2-4ac6-46f6-8504-3267bf31e1a6","ios":"levelo://app?vid=01bf55f2-4ac6-46f6-8504-3267bf31e1a6"},"vehicle_type_id":"4","last_reported":1759079277,"current_range_meters":6400,"station_id":"","pricing_plan_id":"cebpf4jnsgd1na2vs0mg"},{"bike_id":"bbbdadb9-685d-467c-8784-5fe8a6a5f853","system_id":"levelo_inurba_marseille","lat":43.295789,"lon":5.367439,"is_reserved":false,"is_disabled":false,"rental_uris":{"android":"levelo://app?vid=bbbdadb9-685d-467c-8784-5fe8a6a5f853","ios":"levelo://app?vid=bbbdadb9-685d-467c-8784-5fe8a6a5f853"},"vehicle_type_id":"4","last_reported":1759079277,"current_range_meters":3600,"station_id":"ce4bgph2rcd13ifvqc2g","pricing_plan_id":"cebpf4jnsgd1na2vs0mg"},{"bike_id":"ee96a502-9b76-492e-840a-498b02aefe72","system_id":"levelo_inurba_marseille","lat":43.3234,"lon":5.39227,"is_reserved":false,"is_disabled":false,"rental_uris":{"android":"levelo://app?vid=ee96a502-9b76-492e-840a-498b02aefe72","ios":"levelo://app?vid=ee96a502-9b76-492e-840a-498b02aefe72"},"vehicle_type_id":"4","last_reported":1759079277,"current_range_meters":6400,"station_id":"","pricing_plan_id":"cebpf4jnsgd1na2vs0mg"},{"bike_id":"845f89fa-857d-4e7a-bbfd-419ec20d9e2a","system_id":"levelo_inurba_marseille","lat":43.31327,"lon":5.39697,"is_reserved":false,"is_disabled":false,"rental_uris":{"android":"levelo://app?vid=845f89fa-857d-4e7a-bbfd-419ec20d9e2a","ios":"levelo://app?vid=845f89fa-857d-4e7a-bbfd-419ec20d9e2a"},"vehicle_type_id":"4","last_reported":1759079277,"current_range_meters":6400,"station_id":"ce4bgvp2rcd13ifvqcu0","pricing_plan_id":"cebpf4jnsgd1na2vs0mg"},{"bike_id":"526ff56e-4133-4e6a-ab7c-157894ef219a","system_id":"levelo_inurba_marseille","lat":43.21183,"lon":5.3508,"is_reserved":false,"is_disabled":true,"rental_uris":{"android":"levelo://app?vid=526ff56e-4133-4e6a-ab7c-157894ef219a","ios":"levelo://app?vid=526ff56e-4133-4e6a-ab7c-157894ef219a"},"vehicle_type_id":"4","last_reported":1759079277,"current_range_meters":6400,"station_id":"st_cvj6sg6p6f1abm77japg","pricing_plan_id":"cebpf4jnsgd1na2vs0mg"},{"bike_id":"28072a77-eefd-4cfa-bd68-7696e02f507d","system_id":"levelo_inurba_marseille","lat":43.32504,"lon":5.36909,"is_reserved":false,"is_disabled":false,"rental_uris":{"android":"levelo://app?vid=28072a77-eefd-4cfa-bd68-7696e02f507d","ios":"levelo://app?vid=28072a77-eefd-4cfa-bd68-7696e02f507d"},"vehicle_type_id":"4","last_reported":1759079277,"current_range_meters":6800,"station_id":"","pricing_plan_id":"cebpf4jnsgd1na2vs0mg"},{"bike_id":"3f51e03c-3abb-4dde-8cdd-da596aa3252f","system_id":"levelo_inurba_marseille","lat":43.27718,"lon":5.38879,"is_reserved":false,"is_disabled":true,"rental_uris":{"android":"levelo://app?vid=3f51e03c-3abb-4dde-8cdd-da596aa3252f","ios":"levelo://app?vid=3f51e03c-3abb-4dde-8cdd-da596aa3252f"},"vehicle_type_id":"4","last_reported":1759079277,"current_range_meters":6800,"station_id":"ce4bhi12rcd13ifvqfo0","pricing_plan_id":"cebpf4jnsgd1na2vs0mg"},{"bike_id":"80618bb1-359e-44e4-b413-4efb07809b71","system_id":"levelo_inurba_marseille","lat":43.29965,"lon":5.38499,"is_reserved":false,"is_disabled":false,"rental_uris":{"android":"levelo://app?vid=80618bb1-359e-44e4-b413-4efb07809b71","ios":"levelo://app?vid=80618bb1-359e-44e4-b413-4efb07809b71"},"vehicle_type_id":"4","last_reported":1759079277,"current_range_meters":6800,"station_id":"ce4bgj92rcd13ifvqbd0","pricing_plan_id":"cebpf4jnsgd1na2vs0mg"},{"bike_id":"43c21255-da53-4f65-822d-cef779b9b071","system_id":"levelo_inurba_marseille","lat":43.29793,"lon":5.38115,"is_reserved":false,"is_disabled":false,"rental_uris":{"android":"levelo://app?vid=43c21255-da53-4f65-822d-cef779b9b071","ios":"levelo://app?vid=43c21255-da53-4f65-822d-cef779b9b071"},"vehicle_type_id":"4","last_reported":1759079277,"current_range_meters":6800,"station_id":"ce4bgip2rcd13ifvqbb0","pricing_plan_id":"cebpf4jnsgd1na2vs0mg"},{"bike_id":"21e5c243-7469-4bbe-8647-a0f1f8544f20","system_id":"levelo_inurba_marseille","lat":43.30532,"lon":5.36719,"is_reserved":false,"is_disabled":false,"rental_uris":{"android":"levelo://app?vid=21e5c243-7469-4bbe-8647-a0f1f8544f20","ios":"levelo://app?vid=21e5c243-7469-4bbe-8647-a0f1f8544f20"},"vehicle_type_id":"4","last_reported":1759079277,"current_range_meters":6800,"station_id":"ce4bgrp2rcd13ifvqc9g","pricing_plan_id":"cebpf4jnsgd1na2vs0mg"},{"bike_id":"a52c6e9e-cae8-458b-96e3-6d1bbb041429","system_id":"levelo_inurba_marseille","lat":43.29828,"lon":5.36982,"is_reserved":false,"is_disabled":false,"rental_uris":{"android":"levelo://app?vid=a52c6e9e-cae8-458b-96e3-6d1bbb041429","ios":"levelo://app?vid=a52c6e9e-cae8-458b-96e3-6d1bbb041429"},"vehicle_type_id":"4","last_reported":1759079277,"current_range_meters":6800,"station_id":"","pricing_plan_id":"cebpf4jnsgd1na2vs0mg"},{"bike_id":"2c1ac25b-5a15-42db-bd27-e719792248b7","system_id":"levelo_inurba_marseille","lat":43.30726,"lon":5.42443,"is_reserved":false,"is_disabled":false,"rental_uris":{"android":"levelo://app?vid=2c1ac25b-5a15-42db-bd27-e719792248b7","ios":"levelo://app?vid=2c1ac25b-5a15-42db-bd27-e719792248b7"},"vehicle_type_id":"4","last_reported":1759079277,"current_range_meters":6800,"station_id":"st_cvj6ca6bvosntc0bfgr0","pricing_plan_id":"cebpf4jnsgd1na2vs0mg"},{"bike_id":"96881cba-928f-4ab2-a52b-754ad516c551","system_id":"levelo_inurba_marseille","lat":43.31212,"lon":5.36854,"is_reserved":false,"is_disabled":false,"rental_uris":{"android":"levelo://app?vid=96881cba-928f-4ab2-a52b-754ad516c551","ios":"levelo://app?vid=96881cba-928f-4ab2-a52b-754ad516c551"},"vehicle_type_id":"4","last_reported":1759079277,"current_range_meters":6800,"station_id":"ce4bgl92rcd13ifvqbq0","pricing_plan_id":"cebpf4jnsgd1na2vs0mg"},{"bike_id":"e75ab1c2-a188-4af8-aced-b2f2818627d5","system_id":"levelo_inurba_marseille","lat":43.30584,"lon":5.37254,"is_reserved":false,"is_disabled":false,"rental_uris":{"android":"levelo://app?vid=e75ab1c2-a188-4af8-aced-b2f2818627d5","ios":"levelo://app?vid=e75ab1c2-a188-4af8-aced-b2f2818627d5"},"vehicle_type_id":"4","last_reported":1759079277,"current_range_meters":7200,"station_id":"ce4bgqh2rcd13ifvqc4g","pricing_plan_id":"cebpf4jnsgd1na2vs0mg"},{"bike_id":"f4700d7c-c4f4-4346-88f1-31c5451190d1","system_id":"levelo_inurba_marseille","lat":43.29303,"lon":5.37168,"is_reserved":false,"is_disabled":true,"rental_uris":{"android":"levelo://app?vid=f4700d7c-c4f4-4346-88f1-31c5451190d1","ios":"levelo://app?vid=f4700d7c-c4f4-4346-88f1-31c5451190d1"},"vehicle_type_id":"4","last_reported":1759079277,"current_range_meters":7200,"station_id":"ce4bgh92rcd13ifvqb40","pricing_plan_id":"cebpf4jnsgd1na2vs0mg"},{"bike_id":"934ea1ec-b7f6-49a1-9efa-287317d4eb22","system_id":"levelo_inurba_marseille","lat":43.29048,"lon":5.35914,"is_reserved":false,"is_disabled":false,"rental_uris":{"android":"levelo://app?vid=934ea1ec-b7f6-49a1-9efa-287317d4eb22","ios":"levelo://app?vid=934ea1ec-b7f6-49a1-9efa-287317d4eb22"},"vehicle_type_id":"4","last_reported":1759079277,"current_range_meters":7200,"station_id":"","pricing_plan_id":"cebpf4jnsgd1na2vs0mg"},{"bike_id":"8360fe96-8a6b-4a67-9ba4-0ef948b002e1","system_id":"levelo_inurba_marseille","lat":43.250043,"lon":5.389094,"is_reserved":false,"is_disabled":true,"rental_uris":{"android":"levelo://app?vid=8360fe96-8a6b-4a67-9ba4-0ef948b002e1","ios":"levelo://app?vid=8360fe96-8a6b-4a67-9ba4-0ef948b002e1"},"vehicle_type_id":"4","last_reported":1759079277,"current_range_meters":7200,"station_id":"ce4bhgp2rcd13ifvqfd0","pricing_plan_id":"cebpf4jnsgd1na2vs0mg"},{"bike_id":"353848bd-93e0-4940-944b-08fdb3ea3819","system_id":"levelo_inurba_marseille","lat":43.29969,"lon":5.38494,"is_reserved":false,"is_disabled":false,"rental_uris":{"android":"levelo://app?vid=353848bd-93e0-4940-944b-08fdb3ea3819","ios":"levelo://app?vid=353848bd-93e0-4940-944b-08fdb3ea3819"},"vehicle_type_id":"4","last_reported":1759079277,"current_range_meters":7200,"station_id":"ce4bgj92rcd13ifvqbd0","pricing_plan_id":"cebpf4jnsgd1na2vs0mg"},{"bike_id":"40588645-4b6f-4cb5-9303-d604ba943de9","system_id":"levelo_inurba_marseille","lat":43.27054,"lon":5.40251,"is_reserved":false,"is_disabled":false,"rental_uris":{"android":"levelo://app?vid=40588645-4b6f-4cb5-9303-d604ba943de9","ios":"levelo://app?vid=40588645-4b6f-4cb5-9303-d604ba943de9"},"vehicle_type_id":"4","last_reported":1759079277,"current_range_meters":7200,"station_id":"ce4bhk92rcd13ifvqgc0","pricing_plan_id":"cebpf4jnsgd1na2vs0mg"},{"bike_id":"dceb7d62-f3fa-46a5-a851-8759a78331b7","system_id":"levelo_inurba_marseille","lat":43.28348,"lon":5.38106,"is_reserved":false,"is_disabled":false,"rental_uris":{"android":"levelo://app?vid=dceb7d62-f3fa-46a5-a851-8759a78331b7","ios":"levelo://app?vid=dceb7d62-f3fa-46a5-a851-8759a78331b7"},"vehicle_type_id":"4","last_reported":1759079277,"current_range_meters":6800,"station_id":"ce4bh412rcd13ifvqdr0","pricing_plan_id":"cebpf4jnsgd1na2vs0mg"},{"bike_id":"3d689bbb-3aad-403d-80a5-3a184aff6886","system_id":"levelo_inurba_marseille","lat":43.305479,"lon":5.365618,"is_reserved":false,"is_disabled":true,"rental_uris":{"android":"levelo://app?vid=3d689bbb-3aad-403d-80a5-3a184aff6886","ios":"levelo://app?vid=3d689bbb-3aad-403d-80a5-3a184aff6886"},"vehicle_type_id":"4","last_reported":1759079277,"current_range_meters":8000,"station_id":"ce4bgs12rcd13ifvqcag","pricing_plan_id":"cebpf4jnsgd1na2vs0mg"},{"bike_id":"4431cbb7-14bd-49b3-b2b3-a9c49182888a","system_id":"levelo_inurba_marseille","lat":43.29734,"lon":5.38039,"is_reserved":false,"is_disabled":false,"rental_uris":{"android":"levelo://app?vid=4431cbb7-14bd-49b3-b2b3-a9c49182888a","ios":"levelo://app?vid=4431cbb7-14bd-49b3-b2b3-a9c49182888a"},"vehicle_type_id":"4","last_reported":1759079277,"current_range_meters":8000,"station_id":"","pricing_plan_id":"cebpf4jnsgd1na2vs0mg"},{"bike_id":"5eeb976e-70c7-4a54-b03d-7b3d46b65f01","system_id":"levelo_inurba_marseille","lat":43.31524,"lon":5.38039,"is_reserved":false,"is_disabled":false,"rental_uris":{"android":"levelo://app?vid=5eeb976e-70c7-4a54-b03d-7b3d46b65f01","ios":"levelo://app?vid=5eeb976e-70c7-4a54-b03d-7b3d46b65f01"},"vehicle_type_id":"4","last_reported":1759079277,"current_range_meters":8000,"station_id":"ce4bhsp2rcd13ifvqi50","pricing_plan_id":"cebpf4jnsgd1na2vs0mg"},{"bike_id":"76f0b3a2-c848-481d-a311-fbe83462ae48","system_id":"levelo_inurba_marseille","lat":43.30784,"lon":5.38172,"is_reserved":false,"is_disabled":false,"rental_uris":{"android":"levelo://app?vid=76f0b3a2-c848-481d-a311-fbe83462ae48","ios":"levelo://app?vid=76f0b3a2-c848-481d-a311-fbe83462ae48"},"vehicle_type_id":"4","last_reported":1759079277,"current_range_meters":8000,"station_id":"ce4bgt12rcd13ifvqce0","pricing_plan_id":"cebpf4jnsgd1na2vs0mg"},{"bike_id":"2ef46876-7d30-48eb-8cca-59f3bcc4b3b1","system_id":"levelo_inurba_marseille","lat":43.31325,"lon":5.39697,"is_reserved":false,"is_disabled":false,"rental_uris":{"android":"levelo://app?vid=2ef46876-7d30-48eb-8cca-59f3bcc4b3b1","ios":"levelo://app?vid=2ef46876-7d30-48eb-8cca-59f3bcc4b3b1"},"vehicle_type_id":"4","last_reported":1759079277,"current_range_meters":8400,"station_id":"ce4bgvp2rcd13ifvqcu0","pricing_plan_id":"cebpf4jnsgd1na2vs0mg"},{"bike_id":"a6438bca-911d-4e3a-ab14-283fcd67e3aa","system_id":"levelo_inurba_marseille","lat":43.23148,"lon":5.43724,"is_reserved":false,"is_disabled":false,"rental_uris":{"android":"levelo://app?vid=a6438bca-911d-4e3a-ab14-283fcd67e3aa","ios":"levelo://app?vid=a6438bca-911d-4e3a-ab14-283fcd67e3aa"},"vehicle_type_id":"4","last_reported":1759079277,"current_range_meters":8400,"station_id":"ce4bhmp2rcd13ifvqgog","pricing_plan_id":"cebpf4jnsgd1na2vs0mg"},{"bike_id":"f2fd2284-837d-45c8-8a92-163c2aa30979","system_id":"levelo_inurba_marseille","lat":43.26943,"lon":5.38922,"is_reserved":false,"is_disabled":true,"rental_uris":{"android":"levelo://app?vid=f2fd2284-837d-45c8-8a92-163c2aa30979","ios":"levelo://app?vid=f2fd2284-837d-45c8-8a92-163c2aa30979"},"vehicle_type_id":"4","last_reported":1759079277,"current_range_meters":8400,"station_id":"ce4bhhh2rcd13ifvqfl0","pricing_plan_id":"cebpf4jnsgd1na2vs0mg"},{"bike_id":"bbe6bb4c-94f0-4fe6-9812-efd2e0a0407d","system_id":"levelo_inurba_marseille","lat":43.287,"lon":5.3738,"is_reserved":false,"is_disabled":false,"rental_uris":{"android":"levelo://app?vid=bbe6bb4c-94f0-4fe6-9812-efd2e0a0407d","ios":"levelo://app?vid=bbe6bb4c-94f0-4fe6-9812-efd2e0a0407d"},"vehicle_type_id":"4","last_reported":1759079277,"current_range_meters":8400,"station_id":"ce4bh3p2rcd13ifvqdq0","pricing_plan_id":"cebpf4jnsgd1na2vs0mg"},{"bike_id":"720623f7-9148-4a0e-ade4-a205c6fa44f0","system_id":"levelo_inurba_marseille","lat":43.28978,"lon":5.4291,"is_reserved":false,"is_disabled":false,"rental_uris":{"android":"levelo://app?vid=720623f7-9148-4a0e-ade4-a205c6fa44f0","ios":"levelo://app?vid=720623f7-9148-4a0e-ade4-a205c6fa44f0"},"vehicle_type_id":"4","last_reported":1759079277,"current_range_meters":8400,"station_id":"","pricing_plan_id":"cebpf4jnsgd1na2vs0mg"},{"bike_id":"a157a8a6-0d7c-4924-9837-61d82c2c529d","system_id":"levelo_inurba_marseille","lat":43.29776,"lon":5.37105,"is_reserved":false,"is_disabled":false,"rental_uris":{"android":"levelo://app?vid=a157a8a6-0d7c-4924-9837-61d82c2c529d","ios":"levelo://app?vid=a157a8a6-0d7c-4924-9837-61d82c2c529d"},"vehicle_type_id":"4","last_reported":1759079277,"current_range_meters":8400,"station_id":"ce4bgop2rcd13ifvqc1g","pricing_plan_id":"cebpf4jnsgd1na2vs0mg"},{"bike_id":"80fa63aa-4455-4d5e-a715-7adb7f3588c9","system_id":"levelo_inurba_marseille","lat":43.32489,"lon":5.36563,"is_reserved":false,"is_disabled":false,"rental_uris":{"android":"levelo://app?vid=80fa63aa-4455-4d5e-a715-7adb7f3588c9","ios":"levelo://app?vid=80fa63aa-4455-4d5e-a715-7adb7f3588c9"},"vehicle_type_id":"4","last_reported":1759079277,"current_range_meters":8400,"station_id":"ce4bhs12rcd13ifvqhvg","pricing_plan_id":"cebpf4jnsgd1na2vs0mg"},{"bike_id":"3fd7c937-a838-4d6f-932e-9e3bccbc6d3b","system_id":"levelo_inurba_marseille","lat":43.29932,"lon":5.38225,"is_reserved":false,"is_disabled":false,"rental_uris":{"android":"levelo://app?vid=3fd7c937-a838-4d6f-932e-9e3bccbc6d3b","ios":"levelo://app?vid=3fd7c937-a838-4d6f-932e-9e3bccbc6d3b"},"vehicle_type_id":"4","last_reported":1759079277,"current_range_meters":8400,"station_id":"","pricing_plan_id":"cebpf4jnsgd1na2vs0mg"},{"bike_id":"449f19b2-990b-4bbe-9b1e-5c22c769af3d","system_id":"levelo_inurba_marseille","lat":43.3078,"lon":5.3765,"is_reserved":false,"is_disabled":false,"rental_uris":{"android":"levelo://app?vid=449f19b2-990b-4bbe-9b1e-5c22c769af3d","ios":"levelo://app?vid=449f19b2-990b-4bbe-9b1e-5c22c769af3d"},"vehicle_type_id":"4","last_reported":1759079277,"current_range_meters":8400,"station_id":"ce4bgv92rcd13ifvqcq0","pricing_plan_id":"cebpf4jnsgd1na2vs0mg"},{"bike_id":"4dd016d0-e46b-446d-8b05-e9134d8260dc","system_id":"levelo_inurba_marseille","lat":43.29267,"lon":5.3846,"is_reserved":false,"is_disabled":false,"rental_uris":{"android":"levelo://app?vid=4dd016d0-e46b-446d-8b05-e9134d8260dc","ios":"levelo://app?vid=4dd016d0-e46b-446d-8b05-e9134d8260dc"},"vehicle_type_id":"4","last_reported":1759079277,"current_range_meters":8400,"station_id":"ce4bh692rcd13ifvqea0","pricing_plan_id":"cebpf4jnsgd1na2vs0mg"},{"bike_id":"be49b4e1-1b0d-4000-9f8f-90d9172d05d1","system_id":"levelo_inurba_marseille","lat":43.29778,"lon":5.39348,"is_reserved":false,"is_disabled":false,"rental_uris":{"android":"levelo://app?vid=be49b4e1-1b0d-4000-9f8f-90d9172d05d1","ios":"levelo://app?vid=be49b4e1-1b0d-4000-9f8f-90d9172d05d1"},"vehicle_type_id":"4","last_reported":1759079277,"current_range_meters":8800,"station_id":"chh1huq6cuj3fo74tm60","pricing_plan_id":"cebpf4jnsgd1na2vs0mg"},{"bike_id":"508e0130-a652-4b34-bbd1-4938a9ef50c6","system_id":"levelo_inurba_marseille","lat":43.279994,"lon":5.400119,"is_reserved":false,"is_disabled":false,"rental_uris":{"android":"levelo://app?vid=508e0130-a652-4b34-bbd1-4938a9ef50c6","ios":"levelo://app?vid=508e0130-a652-4b34-bbd1-4938a9ef50c6"},"vehicle_type_id":"4","last_reported":1759079277,"current_range_meters":8800,"station_id":"ce4bho92rcd13ifvqh4g","pricing_plan_id":"cebpf4jnsgd1na2vs0mg"},{"bike_id":"fac09a6b-fd80-4c06-87e1-7921a484602b","system_id":"levelo_inurba_marseille","lat":43.29785,"lon":5.37108,"is_reserved":false,"is_disabled":false,"rental_uris":{"android":"levelo://app?vid=fac09a6b-fd80-4c06-87e1-7921a484602b","ios":"levelo://app?vid=fac09a6b-fd80-4c06-87e1-7921a484602b"},"vehicle_type_id":"4","last_reported":1759079277,"current_range_meters":8800,"station_id":"ce4bgop2rcd13ifvqc1g","pricing_plan_id":"cebpf4jnsgd1na2vs0mg"},{"bike_id":"68fa0b2d-5a01-4a5f-91ea-a724423f4fc0","system_id":"levelo_inurba_marseille","lat":43.297815,"lon":5.371185,"is_reserved":false,"is_disabled":false,"rental_uris":{"android":"levelo://app?vid=68fa0b2d-5a01-4a5f-91ea-a724423f4fc0","ios":"levelo://app?vid=68fa0b2d-5a01-4a5f-91ea-a724423f4fc0"},"vehicle_type_id":"4","last_reported":1759079277,"current_range_meters":8800,"station_id":"ce4bgop2rcd13ifvqc1g","pricing_plan_id":"cebpf4jnsgd1na2vs0mg"},{"bike_id":"0b10856b-3dad-4052-bc3a-2c17e6f16e23","system_id":"levelo_inurba_marseille","lat":43.27561,"lon":5.38457,"is_reserved":false,"is_disabled":true,"rental_uris":{"android":"levelo://app?vid=0b10856b-3dad-4052-bc3a-2c17e6f16e23","ios":"levelo://app?vid=0b10856b-3dad-4052-bc3a-2c17e6f16e23"},"vehicle_type_id":"4","last_reported":1759079277,"current_range_meters":8800,"station_id":"ce4bhh92rcd13ifvqfi0","pricing_plan_id":"cebpf4jnsgd1na2vs0mg"},{"bike_id":"232cb343-546b-434a-abc1-f1ad000083f1","system_id":"levelo_inurba_marseille","lat":43.310625,"lon":5.40097,"is_reserved":false,"is_disabled":false,"rental_uris":{"android":"levelo://app?vid=232cb343-546b-434a-abc1-f1ad000083f1","ios":"levelo://app?vid=232cb343-546b-434a-abc1-f1ad000083f1"},"vehicle_type_id":"4","last_reported":1759079277,"current_range_meters":8800,"station_id":"ce4bhp92rcd13ifvqhcg","pricing_plan_id":"cebpf4jnsgd1na2vs0mg"},{"bike_id":"d0e5f5e7-2f91-4cd0-a206-8d360d6c5475","system_id":"levelo_inurba_marseille","lat":43.29444,"lon":5.39727,"is_reserved":false,"is_disabled":false,"rental_uris":{"android":"levelo://app?vid=d0e5f5e7-2f91-4cd0-a206-8d360d6c5475","ios":"levelo://app?vid=d0e5f5e7-2f91-4cd0-a206-8d360d6c5475"},"vehicle_type_id":"4","last_reported":1759079277,"current_range_meters":8800,"station_id":"ce4bh3h2rcd13ifvqdo0","pricing_plan_id":"cebpf4jnsgd1na2vs0mg"},{"bike_id":"579526e6-1a96-4dcb-9bab-181bf678c4cb","system_id":"levelo_inurba_marseille","lat":43.24182,"lon":5.39713,"is_reserved":false,"is_disabled":true,"rental_uris":{"android":"levelo://app?vid=579526e6-1a96-4dcb-9bab-181bf678c4cb","ios":"levelo://app?vid=579526e6-1a96-4dcb-9bab-181bf678c4cb"},"vehicle_type_id":"4","last_reported":1759079277,"current_range_meters":8800,"station_id":"ce4bhn12rcd13ifvqgpg","pricing_plan_id":"cebpf4jnsgd1na2vs0mg"},{"bike_id":"34a09174-79f3-4515-9308-e7872853590d","system_id":"levelo_inurba_marseille","lat":43.30463,"lon":5.37527,"is_reserved":false,"is_disabled":false,"rental_uris":{"android":"levelo://app?vid=34a09174-79f3-4515-9308-e7872853590d","ios":"levelo://app?vid=34a09174-79f3-4515-9308-e7872853590d"},"vehicle_type_id":"4","last_reported":1759079277,"current_range_meters":8800,"station_id":"","pricing_plan_id":"cebpf4jnsgd1na2vs0mg"},{"bike_id":"367a0d02-0bba-4a71-9b99-619e8864a2c8","system_id":"levelo_inurba_marseille","lat":43.30888,"lon":5.37197,"is_reserved":false,"is_disabled":false,"rental_uris":{"android":"levelo://app?vid=367a0d02-0bba-4a71-9b99-619e8864a2c8","ios":"levelo://app?vid=367a0d02-0bba-4a71-9b99-619e8864a2c8"},"vehicle_type_id":"4","last_reported":1759079277,"current_range_meters":8400,"station_id":"ce4bguh2rcd13ifvqckg","pricing_plan_id":"cebpf4jnsgd1na2vs0mg"},{"bike_id":"de1b26c1-d0d4-4c91-83d4-fad5477984da","system_id":"levelo_inurba_marseille","lat":43.294699,"lon":5.386596,"is_reserved":false,"is_disabled":false,"rental_uris":{"android":"levelo://app?vid=de1b26c1-d0d4-4c91-83d4-fad5477984da","ios":"levelo://app?vid=de1b26c1-d0d4-4c91-83d4-fad5477984da"},"vehicle_type_id":"4","last_reported":1759079277,"current_range_meters":8800,"station_id":"ce4bgih2rcd13ifvqba0","pricing_plan_id":"cebpf4jnsgd1na2vs0mg"},{"bike_id":"76ee6278-a542-4950-b99b-0f34f47e0f7c","system_id":"levelo_inurba_marseille","lat":43.27059,"lon":5.40265,"is_reserved":false,"is_disabled":false,"rental_uris":{"android":"levelo://app?vid=76ee6278-a542-4950-b99b-0f34f47e0f7c","ios":"levelo://app?vid=76ee6278-a542-4950-b99b-0f34f47e0f7c"},"vehicle_type_id":"4","last_reported":1759079277,"current_range_meters":8800,"station_id":"ce4bhk92rcd13ifvqgc0","pricing_plan_id":"cebpf4jnsgd1na2vs0mg"},{"bike_id":"695662ab-65fe-4c59-81b6-3dceb9f5066d","system_id":"levelo_inurba_marseille","lat":43.2556,"lon":5.38257,"is_reserved":false,"is_disabled":true,"rental_uris":{"android":"levelo://app?vid=695662ab-65fe-4c59-81b6-3dceb9f5066d","ios":"levelo://app?vid=695662ab-65fe-4c59-81b6-3dceb9f5066d"},"vehicle_type_id":"4","last_reported":1759079277,"current_range_meters":8800,"station_id":"ce4bhih2rcd13ifvqfs0","pricing_plan_id":"cebpf4jnsgd1na2vs0mg"},{"bike_id":"c4dd378a-5f03-454e-bff0-e68803698053","system_id":"levelo_inurba_marseille","lat":43.31079,"lon":5.42437,"is_reserved":false,"is_disabled":false,"rental_uris":{"android":"levelo://app?vid=c4dd378a-5f03-454e-bff0-e68803698053","ios":"levelo://app?vid=c4dd378a-5f03-454e-bff0-e68803698053"},"vehicle_type_id":"4","last_reported":1759079277,"current_range_meters":8800,"station_id":"ce4bhp92rcd13ifvqhag","pricing_plan_id":"cebpf4jnsgd1na2vs0mg"},{"bike_id":"03350417-1098-4d6c-b8fe-9e64358744bf","system_id":"levelo_inurba_marseille","lat":43.30813,"lon":5.37524,"is_reserved":false,"is_disabled":false,"rental_uris":{"android":"levelo://app?vid=03350417-1098-4d6c-b8fe-9e64358744bf","ios":"levelo://app?vid=03350417-1098-4d6c-b8fe-9e64358744bf"},"vehicle_type_id":"4","last_reported":1759079277,"current_range_meters":8800,"station_id":"","pricing_plan_id":"cebpf4jnsgd1na2vs0mg"},{"bike_id":"4f718842-fb00-42a3-b314-e0ea514cd70f","system_id":"levelo_inurba_marseille","lat":43.31532,"lon":5.38002,"is_reserved":false,"is_disabled":false,"rental_uris":{"android":"levelo://app?vid=4f718842-fb00-42a3-b314-e0ea514cd70f","ios":"levelo://app?vid=4f718842-fb00-42a3-b314-e0ea514cd70f"},"vehicle_type_id":"4","last_reported":1759079277,"current_range_meters":8800,"station_id":"ce4bhsp2rcd13ifvqi50","pricing_plan_id":"cebpf4jnsgd1na2vs0mg"},{"bike_id":"83b90777-6a4a-4dd9-8125-35693f4cd34e","system_id":"levelo_inurba_marseille","lat":43.308845,"lon":5.37188,"is_reserved":false,"is_disabled":false,"rental_uris":{"android":"levelo://app?vid=83b90777-6a4a-4dd9-8125-35693f4cd34e","ios":"levelo://app?vid=83b90777-6a4a-4dd9-8125-35693f4cd34e"},"vehicle_type_id":"4","last_reported":1759079277,"current_range_meters":8400,"station_id":"ce4bguh2rcd13ifvqckg","pricing_plan_id":"cebpf4jnsgd1na2vs0mg"},{"bike_id":"147b0d1c-5aec-4216-9bb3-9877154ce459","system_id":"levelo_inurba_marseille","lat":43.28685,"lon":5.40015,"is_reserved":false,"is_disabled":false,"rental_uris":{"android":"levelo://app?vid=147b0d1c-5aec-4216-9bb3-9877154ce459","ios":"levelo://app?vid=147b0d1c-5aec-4216-9bb3-9877154ce459"},"vehicle_type_id":"4","last_reported":1759079277,"current_range_meters":9200,"station_id":"ce4bho92rcd13ifvqh3g","pricing_plan_id":"cebpf4jnsgd1na2vs0mg"},{"bike_id":"dc4883ea-8f06-44d1-8b3d-6660e39a87ec","system_id":"levelo_inurba_marseille","lat":43.229369,"lon":5.353723,"is_reserved":false,"is_disabled":true,"rental_uris":{"android":"levelo://app?vid=dc4883ea-8f06-44d1-8b3d-6660e39a87ec","ios":"levelo://app?vid=dc4883ea-8f06-44d1-8b3d-6660e39a87ec"},"vehicle_type_id":"4","last_reported":1759079277,"current_range_meters":9200,"station_id":"cpo3532slgdg3j2ikp40","pricing_plan_id":"cebpf4jnsgd1na2vs0mg"},{"bike_id":"1218ca7f-cb42-4eb4-8591-2ff27161e13e","system_id":"levelo_inurba_marseille","lat":43.30537,"lon":5.3842,"is_reserved":false,"is_disabled":false,"rental_uris":{"android":"levelo://app?vid=1218ca7f-cb42-4eb4-8591-2ff27161e13e","ios":"levelo://app?vid=1218ca7f-cb42-4eb4-8591-2ff27161e13e"},"vehicle_type_id":"4","last_reported":1759079277,"current_range_meters":9200,"station_id":"ce4bgg92rcd13ifvqb30","pricing_plan_id":"cebpf4jnsgd1na2vs0mg"},{"bike_id":"db9ce362-8980-4bb5-8280-48f8dcd9be84","system_id":"levelo_inurba_marseille","lat":43.28246,"lon":5.35068,"is_reserved":false,"is_disabled":true,"rental_uris":{"android":"levelo://app?vid=db9ce362-8980-4bb5-8280-48f8dcd9be84","ios":"levelo://app?vid=db9ce362-8980-4bb5-8280-48f8dcd9be84"},"vehicle_type_id":"4","last_reported":1759079277,"current_range_meters":9200,"station_id":"ce4bhbp2rcd13ifvqerg","pricing_plan_id":"cebpf4jnsgd1na2vs0mg"},{"bike_id":"35405f41-2497-43f1-8123-2c295ae68690","system_id":"levelo_inurba_marseille","lat":43.295304,"lon":5.385444,"is_reserved":false,"is_disabled":false,"rental_uris":{"android":"levelo://app?vid=35405f41-2497-43f1-8123-2c295ae68690","ios":"levelo://app?vid=35405f41-2497-43f1-8123-2c295ae68690"},"vehicle_type_id":"4","last_reported":1759079277,"current_range_meters":8800,"station_id":"ce4bgih2rcd13ifvqba0","pricing_plan_id":"cebpf4jnsgd1na2vs0mg"},{"bike_id":"d0a1960c-09b4-4ed5-a2b8-3530417445c4","system_id":"levelo_inurba_marseille","lat":43.29201,"lon":5.38463,"is_reserved":false,"is_disabled":false,"rental_uris":{"android":"levelo://app?vid=d0a1960c-09b4-4ed5-a2b8-3530417445c4","ios":"levelo://app?vid=d0a1960c-09b4-4ed5-a2b8-3530417445c4"},"vehicle_type_id":"4","last_reported":1759079277,"current_range_meters":9200,"station_id":"ce4bh692rcd13ifvqea0","pricing_plan_id":"cebpf4jnsgd1na2vs0mg"},{"bike_id":"36009a19-6a02-428c-8259-50cb172da67e","system_id":"levelo_inurba_marseille","lat":43.32421,"lon":5.38838,"is_reserved":false,"is_disabled":false,"rental_uris":{"android":"levelo://app?vid=36009a19-6a02-428c-8259-50cb172da67e","ios":"levelo://app?vid=36009a19-6a02-428c-8259-50cb172da67e"},"vehicle_type_id":"4","last_reported":1759079277,"current_range_meters":9600,"station_id":"ce4bhqp2rcd13ifvqhog","pricing_plan_id":"cebpf4jnsgd1na2vs0mg"},{"bike_id":"ac0bac81-3283-4987-b8cc-6e454eecde03","system_id":"levelo_inurba_marseille","lat":43.29969,"lon":5.38491,"is_reserved":false,"is_disabled":false,"rental_uris":{"android":"levelo://app?vid=ac0bac81-3283-4987-b8cc-6e454eecde03","ios":"levelo://app?vid=ac0bac81-3283-4987-b8cc-6e454eecde03"},"vehicle_type_id":"4","last_reported":1759079277,"current_range_meters":9600,"station_id":"ce4bgj92rcd13ifvqbd0","pricing_plan_id":"cebpf4jnsgd1na2vs0mg"},{"bike_id":"d731859b-5ba0-4908-9d10-cb60ba975540","system_id":"levelo_inurba_marseille","lat":43.28619,"lon":5.35118,"is_reserved":false,"is_disabled":false,"rental_uris":{"android":"levelo://app?vid=d731859b-5ba0-4908-9d10-cb60ba975540","ios":"levelo://app?vid=d731859b-5ba0-4908-9d10-cb60ba975540"},"vehicle_type_id":"4","last_reported":1759079277,"current_range_meters":9600,"station_id":"ce4bhch2rcd13ifvqeug","pricing_plan_id":"cebpf4jnsgd1na2vs0mg"},{"bike_id":"5b6c4f55-eacb-4adf-91c7-3da6cda71ca0","system_id":"levelo_inurba_marseille","lat":43.29238,"lon":5.408804,"is_reserved":false,"is_disabled":true,"rental_uris":{"android":"levelo://app?vid=5b6c4f55-eacb-4adf-91c7-3da6cda71ca0","ios":"levelo://app?vid=5b6c4f55-eacb-4adf-91c7-3da6cda71ca0"},"vehicle_type_id":"4","last_reported":1759079277,"current_range_meters":9600,"station_id":"ce4bgj92rcd13ifvqbd0","pricing_plan_id":"cebpf4jnsgd1na2vs0mg"},{"bike_id":"ee88e3d2-9ddd-48a9-b76c-6ca76b9ba577","system_id":"levelo_inurba_marseille","lat":43.30104,"lon":5.37486,"is_reserved":false,"is_disabled":false,"rental_uris":{"android":"levelo://app?vid=ee88e3d2-9ddd-48a9-b76c-6ca76b9ba577","ios":"levelo://app?vid=ee88e3d2-9ddd-48a9-b76c-6ca76b9ba577"},"vehicle_type_id":"4","last_reported":1759079277,"current_range_meters":9600,"station_id":"","pricing_plan_id":"cebpf4jnsgd1na2vs0mg"},{"bike_id":"b1e03f26-0fd5-4ed3-8c6c-5bf9f854b50f","system_id":"levelo_inurba_marseille","lat":43.30315,"lon":5.36894,"is_reserved":false,"is_disabled":false,"rental_uris":{"android":"levelo://app?vid=b1e03f26-0fd5-4ed3-8c6c-5bf9f854b50f","ios":"levelo://app?vid=b1e03f26-0fd5-4ed3-8c6c-5bf9f854b50f"},"vehicle_type_id":"4","last_reported":1759079277,"current_range_meters":9600,"station_id":"ce4bgqh2rcd13ifvqc5g","pricing_plan_id":"cebpf4jnsgd1na2vs0mg"},{"bike_id":"710dfcf0-04c4-4704-89b7-56dbb8103e66","system_id":"levelo_inurba_marseille","lat":43.29066,"lon":5.37151,"is_reserved":false,"is_disabled":true,"rental_uris":{"android":"levelo://app?vid=710dfcf0-04c4-4704-89b7-56dbb8103e66","ios":"levelo://app?vid=710dfcf0-04c4-4704-89b7-56dbb8103e66"},"vehicle_type_id":"4","last_reported":1759079277,"current_range_meters":9600,"station_id":"ce4bh5p2rcd13ifvqe4g","pricing_plan_id":"cebpf4jnsgd1na2vs0mg"},{"bike_id":"4afe5d0b-8fdf-4466-b9c5-48457b949427","system_id":"levelo_inurba_marseille","lat":43.28039,"lon":5.369432,"is_reserved":false,"is_disabled":false,"rental_uris":{"android":"levelo://app?vid=4afe5d0b-8fdf-4466-b9c5-48457b949427","ios":"levelo://app?vid=4afe5d0b-8fdf-4466-b9c5-48457b949427"},"vehicle_type_id":"4","last_reported":1759079277,"current_range_meters":9600,"station_id":"ce4bha12rcd13ifvqef0","pricing_plan_id":"cebpf4jnsgd1na2vs0mg"},{"bike_id":"9fdbea8e-e2ee-448c-9383-a20462fab0f2","system_id":"levelo_inurba_marseille","lat":43.29098,"lon":5.38131,"is_reserved":false,"is_disabled":false,"rental_uris":{"android":"levelo://app?vid=9fdbea8e-e2ee-448c-9383-a20462fab0f2","ios":"levelo://app?vid=9fdbea8e-e2ee-448c-9383-a20462fab0f2"},"vehicle_type_id":"4","last_reported":1759079277,"current_range_meters":9600,"station_id":"ce4bh512rcd13ifvqe2g","pricing_plan_id":"cebpf4jnsgd1na2vs0mg"},{"bike_id":"096c311a-e31f-4e60-ab8c-de0b76354103","system_id":"levelo_inurba_marseille","lat":43.27176,"lon":5.41007,"is_reserved":false,"is_disabled":true,"rental_uris":{"android":"levelo://app?vid=096c311a-e31f-4e60-ab8c-de0b76354103","ios":"levelo://app?vid=096c311a-e31f-4e60-ab8c-de0b76354103"},"vehicle_type_id":"4","last_reported":1759079277,"current_range_meters":10000,"station_id":"ce4bhl12rcd13ifvqgf0","pricing_plan_id":"cebpf4jnsgd1na2vs0mg"},{"bike_id":"5b00c6c7-7a8f-4ef4-b017-2be7e2c3f7b2","system_id":"levelo_inurba_marseille","lat":43.2927,"lon":5.38445,"is_reserved":false,"is_disabled":false,"rental_uris":{"android":"levelo://app?vid=5b00c6c7-7a8f-4ef4-b017-2be7e2c3f7b2","ios":"levelo://app?vid=5b00c6c7-7a8f-4ef4-b017-2be7e2c3f7b2"},"vehicle_type_id":"4","last_reported":1759079277,"current_range_meters":10000,"station_id":"ce4bh692rcd13ifvqea0","pricing_plan_id":"cebpf4jnsgd1na2vs0mg"},{"bike_id":"6d98ab21-1faa-4b15-97b2-a1dd6f53a5a7","system_id":"levelo_inurba_marseille","lat":43.27413,"lon":5.39422,"is_reserved":false,"is_disabled":true,"rental_uris":{"android":"levelo://app?vid=6d98ab21-1faa-4b15-97b2-a1dd6f53a5a7","ios":"levelo://app?vid=6d98ab21-1faa-4b15-97b2-a1dd6f53a5a7"},"vehicle_type_id":"4","last_reported":1759079277,"current_range_meters":10000,"station_id":"ce4bhdp2rcd13ifvqf20","pricing_plan_id":"cebpf4jnsgd1na2vs0mg"},{"bike_id":"d0d5978f-6eaf-443a-b14f-05d22a3cc40b","system_id":"levelo_inurba_marseille","lat":43.29529,"lon":5.38547,"is_reserved":false,"is_disabled":false,"rental_uris":{"android":"levelo://app?vid=d0d5978f-6eaf-443a-b14f-05d22a3cc40b","ios":"levelo://app?vid=d0d5978f-6eaf-443a-b14f-05d22a3cc40b"},"vehicle_type_id":"4","last_reported":1759079277,"current_range_meters":10000,"station_id":"ce4bgih2rcd13ifvqba0","pricing_plan_id":"cebpf4jnsgd1na2vs0mg"},{"bike_id":"679d568b-bdd0-4d16-abb3-77734379477e","system_id":"levelo_inurba_marseille","lat":43.26939,"lon":5.40255,"is_reserved":false,"is_disabled":false,"rental_uris":{"android":"levelo://app?vid=679d568b-bdd0-4d16-abb3-77734379477e","ios":"levelo://app?vid=679d568b-bdd0-4d16-abb3-77734379477e"},"vehicle_type_id":"4","last_reported":1759079277,"current_range_meters":10000,"station_id":"cjm6bp8fraef2m0cb0m0","pricing_plan_id":"cebpf4jnsgd1na2vs0mg"},{"bike_id":"9bbaa50a-f627-4611-bf2d-f75bb31f6bc4","system_id":"levelo_inurba_marseille","lat":43.29582,"lon":5.38098,"is_reserved":false,"is_disabled":false,"rental_uris":{"android":"levelo://app?vid=9bbaa50a-f627-4611-bf2d-f75bb31f6bc4","ios":"levelo://app?vid=9bbaa50a-f627-4611-bf2d-f75bb31f6bc4"},"vehicle_type_id":"4","last_reported":1759079277,"current_range_meters":10000,"station_id":"ce4bgl12rcd13ifvqbo0","pricing_plan_id":"cebpf4jnsgd1na2vs0mg"},{"bike_id":"21555f78-8047-4137-9ef2-a18f17fd54c2","system_id":"levelo_inurba_marseille","lat":43.29247,"lon":5.38456,"is_reserved":false,"is_disabled":false,"rental_uris":{"android":"levelo://app?vid=21555f78-8047-4137-9ef2-a18f17fd54c2","ios":"levelo://app?vid=21555f78-8047-4137-9ef2-a18f17fd54c2"},"vehicle_type_id":"4","last_reported":1759079277,"current_range_meters":10000,"station_id":"ce4bh692rcd13ifvqea0","pricing_plan_id":"cebpf4jnsgd1na2vs0mg"},{"bike_id":"91294361-dbf9-48b9-82eb-320e2d5562fb","system_id":"levelo_inurba_marseille","lat":43.28357,"lon":5.38634,"is_reserved":false,"is_disabled":false,"rental_uris":{"android":"levelo://app?vid=91294361-dbf9-48b9-82eb-320e2d5562fb","ios":"levelo://app?vid=91294361-dbf9-48b9-82eb-320e2d5562fb"},"vehicle_type_id":"4","last_reported":1759079277,"current_range_meters":10000,"station_id":"ce4bh492rcd13ifvqdvg","pricing_plan_id":"cebpf4jnsgd1na2vs0mg"},{"bike_id":"8e4a9828-f11e-4326-8780-808d50e9b5a0","system_id":"levelo_inurba_marseille","lat":43.29624,"lon":5.37733,"is_reserved":false,"is_disabled":false,"rental_uris":{"android":"levelo://app?vid=8e4a9828-f11e-4326-8780-808d50e9b5a0","ios":"levelo://app?vid=8e4a9828-f11e-4326-8780-808d50e9b5a0"},"vehicle_type_id":"4","last_reported":1759079277,"current_range_meters":9200,"station_id":"ce4bgi92rcd13ifvqb90","pricing_plan_id":"cebpf4jnsgd1na2vs0mg"},{"bike_id":"2243febf-ebaf-474b-8e3e-799410e4c867","system_id":"levelo_inurba_marseille","lat":43.32558,"lon":5.36351,"is_reserved":false,"is_disabled":false,"rental_uris":{"android":"levelo://app?vid=2243febf-ebaf-474b-8e3e-799410e4c867","ios":"levelo://app?vid=2243febf-ebaf-474b-8e3e-799410e4c867"},"vehicle_type_id":"4","last_reported":1759079277,"current_range_meters":11200,"station_id":"","pricing_plan_id":"cebpf4jnsgd1na2vs0mg"},{"bike_id":"4c02c545-ad59-45b1-9b9c-d3678a5922c7","system_id":"levelo_inurba_marseille","lat":43.337444,"lon":5.374475,"is_reserved":false,"is_disabled":false,"rental_uris":{"android":"levelo://app?vid=4c02c545-ad59-45b1-9b9c-d3678a5922c7","ios":"levelo://app?vid=4c02c545-ad59-45b1-9b9c-d3678a5922c7"},"vehicle_type_id":"4","last_reported":1759079277,"current_range_meters":10800,"station_id":"","pricing_plan_id":"cebpf4jnsgd1na2vs0mg"},{"bike_id":"3720c043-b7eb-4157-b615-40f09943036d","system_id":"levelo_inurba_marseille","lat":43.27919,"lon":5.39578,"is_reserved":false,"is_disabled":false,"rental_uris":{"android":"levelo://app?vid=3720c043-b7eb-4157-b615-40f09943036d","ios":"levelo://app?vid=3720c043-b7eb-4157-b615-40f09943036d"},"vehicle_type_id":"4","last_reported":1759079277,"current_range_meters":10800,"station_id":"ce4bhf92rcd13ifvqf40","pricing_plan_id":"cebpf4jnsgd1na2vs0mg"},{"bike_id":"c097f066-7651-435e-913f-a8a7838aba88","system_id":"levelo_inurba_marseille","lat":43.33722,"lon":5.37459,"is_reserved":false,"is_disabled":false,"rental_uris":{"android":"levelo://app?vid=c097f066-7651-435e-913f-a8a7838aba88","ios":"levelo://app?vid=c097f066-7651-435e-913f-a8a7838aba88"},"vehicle_type_id":"4","last_reported":1759079277,"current_range_meters":10800,"station_id":"","pricing_plan_id":"cebpf4jnsgd1na2vs0mg"},{"bike_id":"635acc7b-759a-4490-a1fa-8fd50bd99875","system_id":"levelo_inurba_marseille","lat":43.29261,"lon":5.38449,"is_reserved":false,"is_disabled":false,"rental_uris":{"android":"levelo://app?vid=635acc7b-759a-4490-a1fa-8fd50bd99875","ios":"levelo://app?vid=635acc7b-759a-4490-a1fa-8fd50bd99875"},"vehicle_type_id":"4","last_reported":1759079277,"current_range_meters":10800,"station_id":"ce4bh692rcd13ifvqea0","pricing_plan_id":"cebpf4jnsgd1na2vs0mg"},{"bike_id":"3701b5f4-483a-40c0-a999-1204f32a8f27","system_id":"levelo_inurba_marseille","lat":43.2953,"lon":5.39056,"is_reserved":false,"is_disabled":false,"rental_uris":{"android":"levelo://app?vid=3701b5f4-483a-40c0-a999-1204f32a8f27","ios":"levelo://app?vid=3701b5f4-483a-40c0-a999-1204f32a8f27"},"vehicle_type_id":"4","last_reported":1759079277,"current_range_meters":10000,"station_id":"ce4bh3p2rcd13ifvqdp0","pricing_plan_id":"cebpf4jnsgd1na2vs0mg"},{"bike_id":"1cbaca76-74a9-4e0f-aa37-b1c675b7d14a","system_id":"levelo_inurba_marseille","lat":43.290374,"lon":5.375529,"is_reserved":false,"is_disabled":false,"rental_uris":{"android":"levelo://app?vid=1cbaca76-74a9-4e0f-aa37-b1c675b7d14a","ios":"levelo://app?vid=1cbaca76-74a9-4e0f-aa37-b1c675b7d14a"},"vehicle_type_id":"4","last_reported":1759079277,"current_range_meters":11200,"station_id":"ce4bh5p2rcd13ifvqe4g","pricing_plan_id":"cebpf4jnsgd1na2vs0mg"},{"bike_id":"3460c87b-7b5f-40be-bc46-a6635825063f","system_id":"levelo_inurba_marseille","lat":43.290204,"lon":5.386477,"is_reserved":false,"is_disabled":false,"rental_uris":{"android":"levelo://app?vid=3460c87b-7b5f-40be-bc46-a6635825063f","ios":"levelo://app?vid=3460c87b-7b5f-40be-bc46-a6635825063f"},"vehicle_type_id":"4","last_reported":1759079277,"current_range_meters":11200,"station_id":"ce4bh4p2rcd13ifvqe0g","pricing_plan_id":"cebpf4jnsgd1na2vs0mg"},{"bike_id":"27414b1c-a57d-4ff3-a7f5-df813af937ca","system_id":"levelo_inurba_marseille","lat":43.30303,"lon":5.39217,"is_reserved":false,"is_disabled":false,"rental_uris":{"android":"levelo://app?vid=27414b1c-a57d-4ff3-a7f5-df813af937ca","ios":"levelo://app?vid=27414b1c-a57d-4ff3-a7f5-df813af937ca"},"vehicle_type_id":"4","last_reported":1759079277,"current_range_meters":11200,"station_id":"ce4bgkh2rcd13ifvqbk0","pricing_plan_id":"cebpf4jnsgd1na2vs0mg"},{"bike_id":"72c47d07-f4a8-4f58-b6bc-b8c6013ac540","system_id":"levelo_inurba_marseille","lat":43.31396,"lon":5.3914,"is_reserved":false,"is_disabled":false,"rental_uris":{"android":"levelo://app?vid=72c47d07-f4a8-4f58-b6bc-b8c6013ac540","ios":"levelo://app?vid=72c47d07-f4a8-4f58-b6bc-b8c6013ac540"},"vehicle_type_id":"4","last_reported":1759079277,"current_range_meters":11200,"station_id":"","pricing_plan_id":"cebpf4jnsgd1na2vs0mg"},{"bike_id":"99f8e706-cfb0-4eb6-929e-527298f2a0db","system_id":"levelo_inurba_marseille","lat":43.28353,"lon":5.37654,"is_reserved":false,"is_disabled":false,"rental_uris":{"android":"levelo://app?vid=99f8e706-cfb0-4eb6-929e-527298f2a0db","ios":"levelo://app?vid=99f8e706-cfb0-4eb6-929e-527298f2a0db"},"vehicle_type_id":"4","last_reported":1759079277,"current_range_meters":11600,"station_id":"","pricing_plan_id":"cebpf4jnsgd1na2vs0mg"},{"bike_id":"9bd73081-5942-4584-b43d-22ea05228049","system_id":"levelo_inurba_marseille","lat":43.29431,"lon":5.39756,"is_reserved":false,"is_disabled":false,"rental_uris":{"android":"levelo://app?vid=9bd73081-5942-4584-b43d-22ea05228049","ios":"levelo://app?vid=9bd73081-5942-4584-b43d-22ea05228049"},"vehicle_type_id":"4","last_reported":1759079277,"current_range_meters":6800,"station_id":"ce4bh3h2rcd13ifvqdo0","pricing_plan_id":"cebpf4jnsgd1na2vs0mg"},{"bike_id":"e8c14ff3-811e-46ad-8349-45b95c1403ad","system_id":"levelo_inurba_marseille","lat":43.31984,"lon":5.38167,"is_reserved":false,"is_disabled":false,"rental_uris":{"android":"levelo://app?vid=e8c14ff3-811e-46ad-8349-45b95c1403ad","ios":"levelo://app?vid=e8c14ff3-811e-46ad-8349-45b95c1403ad"},"vehicle_type_id":"4","last_reported":1759079277,"current_range_meters":11200,"station_id":"ce4bhr12rcd13ifvqhpg","pricing_plan_id":"cebpf4jnsgd1na2vs0mg"},{"bike_id":"0c1b4f9e-a8b3-49ca-9c30-10a751563074","system_id":"levelo_inurba_marseille","lat":43.29185,"lon":5.39329,"is_reserved":false,"is_disabled":false,"rental_uris":{"android":"levelo://app?vid=0c1b4f9e-a8b3-49ca-9c30-10a751563074","ios":"levelo://app?vid=0c1b4f9e-a8b3-49ca-9c30-10a751563074"},"vehicle_type_id":"4","last_reported":1759079277,"current_range_meters":11200,"station_id":"ce4bh192rcd13ifvqdd0","pricing_plan_id":"cebpf4jnsgd1na2vs0mg"},{"bike_id":"de78a63d-55e5-418e-a97f-4e9f1666efa7","system_id":"levelo_inurba_marseille","lat":43.2925,"lon":5.38444,"is_reserved":false,"is_disabled":false,"rental_uris":{"android":"levelo://app?vid=de78a63d-55e5-418e-a97f-4e9f1666efa7","ios":"levelo://app?vid=de78a63d-55e5-418e-a97f-4e9f1666efa7"},"vehicle_type_id":"4","last_reported":1759079277,"current_range_meters":11200,"station_id":"ce4bh692rcd13ifvqea0","pricing_plan_id":"cebpf4jnsgd1na2vs0mg"},{"bike_id":"f62fe733-90ac-444a-a20a-73d227678ff7","system_id":"levelo_inurba_marseille","lat":43.29607,"lon":5.37715,"is_reserved":false,"is_disabled":true,"rental_uris":{"android":"levelo://app?vid=f62fe733-90ac-444a-a20a-73d227678ff7","ios":"levelo://app?vid=f62fe733-90ac-444a-a20a-73d227678ff7"},"vehicle_type_id":"4","last_reported":1759079277,"current_range_meters":11600,"station_id":"ce4bgi92rcd13ifvqb90","pricing_plan_id":"cebpf4jnsgd1na2vs0mg"},{"bike_id":"95bafeb0-6c7b-407a-a73b-a6569ff5cb66","system_id":"levelo_inurba_marseille","lat":43.33742,"lon":5.37507,"is_reserved":false,"is_disabled":false,"rental_uris":{"android":"levelo://app?vid=95bafeb0-6c7b-407a-a73b-a6569ff5cb66","ios":"levelo://app?vid=95bafeb0-6c7b-407a-a73b-a6569ff5cb66"},"vehicle_type_id":"4","last_reported":1759079277,"current_range_meters":11600,"station_id":"","pricing_plan_id":"cebpf4jnsgd1na2vs0mg"},{"bike_id":"c9916796-5f07-4d22-aceb-87882fb08ac5","system_id":"levelo_inurba_marseille","lat":43.30581,"lon":5.36574,"is_reserved":false,"is_disabled":false,"rental_uris":{"android":"levelo://app?vid=c9916796-5f07-4d22-aceb-87882fb08ac5","ios":"levelo://app?vid=c9916796-5f07-4d22-aceb-87882fb08ac5"},"vehicle_type_id":"4","last_reported":1759079277,"current_range_meters":11600,"station_id":"ce4bgs12rcd13ifvqcag","pricing_plan_id":"cebpf4jnsgd1na2vs0mg"},{"bike_id":"33cbd8fb-809d-4d40-9856-390e625b6c41","system_id":"levelo_inurba_marseille","lat":43.25904,"lon":5.40939,"is_reserved":false,"is_disabled":false,"rental_uris":{"android":"levelo://app?vid=33cbd8fb-809d-4d40-9856-390e625b6c41","ios":"levelo://app?vid=33cbd8fb-809d-4d40-9856-390e625b6c41"},"vehicle_type_id":"4","last_reported":1759079277,"current_range_meters":11600,"station_id":"ce4bhm92rcd13ifvqglg","pricing_plan_id":"cebpf4jnsgd1na2vs0mg"},{"bike_id":"d16f46f5-3d43-4933-b088-bc397093924a","system_id":"levelo_inurba_marseille","lat":43.29844,"lon":5.36318,"is_reserved":false,"is_disabled":true,"rental_uris":{"android":"levelo://app?vid=d16f46f5-3d43-4933-b088-bc397093924a","ios":"levelo://app?vid=d16f46f5-3d43-4933-b088-bc397093924a"},"vehicle_type_id":"4","last_reported":1759079277,"current_range_meters":11600,"station_id":"ce4bgpp2rcd13ifvqc3g","pricing_plan_id":"cebpf4jnsgd1na2vs0mg"},{"bike_id":"672770f7-59ec-4fe5-83f7-d2f78dba4e14","system_id":"levelo_inurba_marseille","lat":43.225322,"lon":5.34834,"is_reserved":false,"is_disabled":false,"rental_uris":{"android":"levelo://app?vid=672770f7-59ec-4fe5-83f7-d2f78dba4e14","ios":"levelo://app?vid=672770f7-59ec-4fe5-83f7-d2f78dba4e14"},"vehicle_type_id":"4","last_reported":1759079277,"current_range_meters":11600,"station_id":"","pricing_plan_id":"cebpf4jnsgd1na2vs0mg"},{"bike_id":"7ac81eae-aed2-4f3f-a100-b35f399befc9","system_id":"levelo_inurba_marseille","lat":43.25112,"lon":5.4034,"is_reserved":false,"is_disabled":false,"rental_uris":{"android":"levelo://app?vid=7ac81eae-aed2-4f3f-a100-b35f399befc9","ios":"levelo://app?vid=7ac81eae-aed2-4f3f-a100-b35f399befc9"},"vehicle_type_id":"4","last_reported":1759079277,"current_range_meters":11600,"station_id":"ce4bhlh2rcd13ifvqgig","pricing_plan_id":"cebpf4jnsgd1na2vs0mg"},{"bike_id":"8ba5e33b-48f1-42b5-a531-76085f7229c8","system_id":"levelo_inurba_marseille","lat":43.24628,"lon":5.43152,"is_reserved":false,"is_disabled":false,"rental_uris":{"android":"levelo://app?vid=8ba5e33b-48f1-42b5-a531-76085f7229c8","ios":"levelo://app?vid=8ba5e33b-48f1-42b5-a531-76085f7229c8"},"vehicle_type_id":"4","last_reported":1759079277,"current_range_meters":11600,"station_id":"st_d2m6c4gdas8pm72e190g","pricing_plan_id":"cebpf4jnsgd1na2vs0mg"},{"bike_id":"a3430f17-131a-458a-ac5d-c088f42d3e0d","system_id":"levelo_inurba_marseille","lat":43.31216,"lon":5.36867,"is_reserved":false,"is_disabled":false,"rental_uris":{"android":"levelo://app?vid=a3430f17-131a-458a-ac5d-c088f42d3e0d","ios":"levelo://app?vid=a3430f17-131a-458a-ac5d-c088f42d3e0d"},"vehicle_type_id":"4","last_reported":1759079277,"current_range_meters":11600,"station_id":"ce4bgl92rcd13ifvqbq0","pricing_plan_id":"cebpf4jnsgd1na2vs0mg"},{"bike_id":"258ab053-1083-4ca9-a32a-1e85f085fc22","system_id":"levelo_inurba_marseille","lat":43.337444,"lon":5.374475,"is_reserved":false,"is_disabled":false,"rental_uris":{"android":"levelo://app?vid=258ab053-1083-4ca9-a32a-1e85f085fc22","ios":"levelo://app?vid=258ab053-1083-4ca9-a32a-1e85f085fc22"},"vehicle_type_id":"4","last_reported":1759079277,"current_range_meters":11600,"station_id":"","pricing_plan_id":"cebpf4jnsgd1na2vs0mg"},{"bike_id":"44b4667d-aab2-4524-9598-de8fee561c30","system_id":"levelo_inurba_marseille","lat":43.30088,"lon":5.39074,"is_reserved":false,"is_disabled":false,"rental_uris":{"android":"levelo://app?vid=44b4667d-aab2-4524-9598-de8fee561c30","ios":"levelo://app?vid=44b4667d-aab2-4524-9598-de8fee561c30"},"vehicle_type_id":"4","last_reported":1759079277,"current_range_meters":12000,"station_id":"ce4bh192rcd13ifvqdb0","pricing_plan_id":"cebpf4jnsgd1na2vs0mg"},{"bike_id":"f4c53ff4-73a4-4134-bb3f-bbf464878afb","system_id":"levelo_inurba_marseille","lat":43.2417,"lon":5.36338,"is_reserved":false,"is_disabled":true,"rental_uris":{"android":"levelo://app?vid=f4c53ff4-73a4-4134-bb3f-bbf464878afb","ios":"levelo://app?vid=f4c53ff4-73a4-4134-bb3f-bbf464878afb"},"vehicle_type_id":"4","last_reported":1759079277,"current_range_meters":12000,"station_id":"cpo36qri1sfpv3e86is0","pricing_plan_id":"cebpf4jnsgd1na2vs0mg"},{"bike_id":"454e363a-ae22-4379-b9c1-b61cbf2024fa","system_id":"levelo_inurba_marseille","lat":43.29188,"lon":5.39324,"is_reserved":false,"is_disabled":false,"rental_uris":{"android":"levelo://app?vid=454e363a-ae22-4379-b9c1-b61cbf2024fa","ios":"levelo://app?vid=454e363a-ae22-4379-b9c1-b61cbf2024fa"},"vehicle_type_id":"4","last_reported":1759079277,"current_range_meters":12000,"station_id":"ce4bh192rcd13ifvqdd0","pricing_plan_id":"cebpf4jnsgd1na2vs0mg"},{"bike_id":"360c0746-c854-4629-884f-7c911de53d9d","system_id":"levelo_inurba_marseille","lat":43.30813,"lon":5.37516,"is_reserved":false,"is_disabled":true,"rental_uris":{"android":"levelo://app?vid=360c0746-c854-4629-884f-7c911de53d9d","ios":"levelo://app?vid=360c0746-c854-4629-884f-7c911de53d9d"},"vehicle_type_id":"4","last_reported":1759079277,"current_range_meters":12000,"station_id":"","pricing_plan_id":"cebpf4jnsgd1na2vs0mg"},{"bike_id":"a2a842f6-fc46-40d7-b7a6-d9d5a8c99dfa","system_id":"levelo_inurba_marseille","lat":43.31992,"lon":5.38164,"is_reserved":false,"is_disabled":true,"rental_uris":{"android":"levelo://app?vid=a2a842f6-fc46-40d7-b7a6-d9d5a8c99dfa","ios":"levelo://app?vid=a2a842f6-fc46-40d7-b7a6-d9d5a8c99dfa"},"vehicle_type_id":"4","last_reported":1759079277,"current_range_meters":12000,"station_id":"ce4bhr12rcd13ifvqhpg","pricing_plan_id":"cebpf4jnsgd1na2vs0mg"},{"bike_id":"e3fe1c25-77d6-4c99-a172-35c670f24da9","system_id":"levelo_inurba_marseille","lat":43.28611,"lon":5.35115,"is_reserved":false,"is_disabled":true,"rental_uris":{"android":"levelo://app?vid=e3fe1c25-77d6-4c99-a172-35c670f24da9","ios":"levelo://app?vid=e3fe1c25-77d6-4c99-a172-35c670f24da9"},"vehicle_type_id":"4","last_reported":1759079277,"current_range_meters":12400,"station_id":"ce4bhch2rcd13ifvqeug","pricing_plan_id":"cebpf4jnsgd1na2vs0mg"},{"bike_id":"afb3a0b1-c807-4eff-8fb4-4964910f49c8","system_id":"levelo_inurba_marseille","lat":43.21743,"lon":5.34616,"is_reserved":false,"is_disabled":true,"rental_uris":{"android":"levelo://app?vid=afb3a0b1-c807-4eff-8fb4-4964910f49c8","ios":"levelo://app?vid=afb3a0b1-c807-4eff-8fb4-4964910f49c8"},"vehicle_type_id":"4","last_reported":1759079277,"current_range_meters":12000,"station_id":"st_cvj6r9ubvosntc0bgbag","pricing_plan_id":"cebpf4jnsgd1na2vs0mg"},{"bike_id":"149db885-bb92-47f1-ba6f-ba2c4bc851c6","system_id":"levelo_inurba_marseille","lat":43.23189,"lon":5.35568,"is_reserved":false,"is_disabled":false,"rental_uris":{"android":"levelo://app?vid=149db885-bb92-47f1-ba6f-ba2c4bc851c6","ios":"levelo://app?vid=149db885-bb92-47f1-ba6f-ba2c4bc851c6"},"vehicle_type_id":"4","last_reported":1759079277,"current_range_meters":11600,"station_id":"ce4bhu92rcd13ifvqi70","pricing_plan_id":"cebpf4jnsgd1na2vs0mg"},{"bike_id":"5fe7f407-3191-4d84-bcf8-5bce6d58e56d","system_id":"levelo_inurba_marseille","lat":43.22916,"lon":5.3539,"is_reserved":false,"is_disabled":false,"rental_uris":{"android":"levelo://app?vid=5fe7f407-3191-4d84-bcf8-5bce6d58e56d","ios":"levelo://app?vid=5fe7f407-3191-4d84-bcf8-5bce6d58e56d"},"vehicle_type_id":"4","last_reported":1759079277,"current_range_meters":12800,"station_id":"cpo3532slgdg3j2ikp40","pricing_plan_id":"cebpf4jnsgd1na2vs0mg"},{"bike_id":"f12c1c9a-5ec0-4d16-b161-288c3eaaa062","system_id":"levelo_inurba_marseille","lat":43.25334,"lon":5.42176,"is_reserved":false,"is_disabled":false,"rental_uris":{"android":"levelo://app?vid=f12c1c9a-5ec0-4d16-b161-288c3eaaa062","ios":"levelo://app?vid=f12c1c9a-5ec0-4d16-b161-288c3eaaa062"},"vehicle_type_id":"4","last_reported":1759079277,"current_range_meters":12400,"station_id":"st_d2m65c5bi1j21697t3ng","pricing_plan_id":"cebpf4jnsgd1na2vs0mg"},{"bike_id":"1dad2113-89e2-44fc-a0b6-ddd6a09baff1","system_id":"levelo_inurba_marseille","lat":43.337444,"lon":5.374475,"is_reserved":false,"is_disabled":false,"rental_uris":{"android":"levelo://app?vid=1dad2113-89e2-44fc-a0b6-ddd6a09baff1","ios":"levelo://app?vid=1dad2113-89e2-44fc-a0b6-ddd6a09baff1"},"vehicle_type_id":"4","last_reported":1759079277,"current_range_meters":12800,"station_id":"","pricing_plan_id":"cebpf4jnsgd1na2vs0mg"},{"bike_id":"4351743f-531c-4fe7-9a10-2fffd795cf44","system_id":"levelo_inurba_marseille","lat":43.295715,"lon":5.39996,"is_reserved":false,"is_disabled":false,"rental_uris":{"android":"levelo://app?vid=4351743f-531c-4fe7-9a10-2fffd795cf44","ios":"levelo://app?vid=4351743f-531c-4fe7-9a10-2fffd795cf44"},"vehicle_type_id":"4","last_reported":1759079277,"current_range_meters":12800,"station_id":"ce4bh312rcd13ifvqdj0","pricing_plan_id":"cebpf4jnsgd1na2vs0mg"},{"bike_id":"2c6518be-b3f0-42d2-93c9-c1de9e54885f","system_id":"levelo_inurba_marseille","lat":43.29227,"lon":5.38219,"is_reserved":false,"is_disabled":false,"rental_uris":{"android":"levelo://app?vid=2c6518be-b3f0-42d2-93c9-c1de9e54885f","ios":"levelo://app?vid=2c6518be-b3f0-42d2-93c9-c1de9e54885f"},"vehicle_type_id":"4","last_reported":1759079277,"current_range_meters":12800,"station_id":"","pricing_plan_id":"cebpf4jnsgd1na2vs0mg"},{"bike_id":"3cb1dae7-6bcd-41e5-b1b7-c1d25c751a99","system_id":"levelo_inurba_marseille","lat":43.337635,"lon":5.374385,"is_reserved":false,"is_disabled":false,"rental_uris":{"android":"levelo://app?vid=3cb1dae7-6bcd-41e5-b1b7-c1d25c751a99","ios":"levelo://app?vid=3cb1dae7-6bcd-41e5-b1b7-c1d25c751a99"},"vehicle_type_id":"4","last_reported":1759079277,"current_range_meters":12800,"station_id":"","pricing_plan_id":"cebpf4jnsgd1na2vs0mg"},{"bike_id":"80c3297d-7eb5-49f1-a9a6-9af6092a3c58","system_id":"levelo_inurba_marseille","lat":43.292713,"lon":5.368473,"is_reserved":false,"is_disabled":false,"rental_uris":{"android":"levelo://app?vid=80c3297d-7eb5-49f1-a9a6-9af6092a3c58","ios":"levelo://app?vid=80c3297d-7eb5-49f1-a9a6-9af6092a3c58"},"vehicle_type_id":"4","last_reported":1759079277,"current_range_meters":12800,"station_id":"ce4bhbp2rcd13ifvqesg","pricing_plan_id":"cebpf4jnsgd1na2vs0mg"},{"bike_id":"d58ddcbe-70d7-4259-abad-73cc43b8b8b9","system_id":"levelo_inurba_marseille","lat":43.23041,"lon":5.35523,"is_reserved":false,"is_disabled":true,"rental_uris":{"android":"levelo://app?vid=d58ddcbe-70d7-4259-abad-73cc43b8b8b9","ios":"levelo://app?vid=d58ddcbe-70d7-4259-abad-73cc43b8b8b9"},"vehicle_type_id":"4","last_reported":1759079277,"current_range_meters":12800,"station_id":"cpo3342slgdg3j2ifvpg","pricing_plan_id":"cebpf4jnsgd1na2vs0mg"},{"bike_id":"8b923d1e-6e6a-4d59-8c63-59cd521529da","system_id":"levelo_inurba_marseille","lat":43.3013,"lon":5.39869,"is_reserved":false,"is_disabled":false,"rental_uris":{"android":"levelo://app?vid=8b923d1e-6e6a-4d59-8c63-59cd521529da","ios":"levelo://app?vid=8b923d1e-6e6a-4d59-8c63-59cd521529da"},"vehicle_type_id":"4","last_reported":1759079277,"current_range_meters":12800,"station_id":"ce4bh0h2rcd13ifvqd40","pricing_plan_id":"cebpf4jnsgd1na2vs0mg"},{"bike_id":"02fb4eb6-9203-431e-bd5c-fe9dd3847cf2","system_id":"levelo_inurba_marseille","lat":43.240507,"lon":5.364887,"is_reserved":false,"is_disabled":false,"rental_uris":{"android":"levelo://app?vid=02fb4eb6-9203-431e-bd5c-fe9dd3847cf2","ios":"levelo://app?vid=02fb4eb6-9203-431e-bd5c-fe9dd3847cf2"},"vehicle_type_id":"4","last_reported":1759079277,"current_range_meters":12800,"station_id":"cpo36qri1sfpv3e86is0","pricing_plan_id":"cebpf4jnsgd1na2vs0mg"},{"bike_id":"28007bbf-96ae-4c6c-8aa8-20267fb4d667","system_id":"levelo_inurba_marseille","lat":43.286633,"lon":5.363503,"is_reserved":false,"is_disabled":false,"rental_uris":{"android":"levelo://app?vid=28007bbf-96ae-4c6c-8aa8-20267fb4d667","ios":"levelo://app?vid=28007bbf-96ae-4c6c-8aa8-20267fb4d667"},"vehicle_type_id":"4","last_reported":1759079277,"current_range_meters":12800,"station_id":"ce4bhah2rcd13ifvqej0","pricing_plan_id":"cebpf4jnsgd1na2vs0mg"},{"bike_id":"9882411d-0f1b-4974-8723-8be010db2360","system_id":"levelo_inurba_marseille","lat":43.29023,"lon":5.38649,"is_reserved":false,"is_disabled":false,"rental_uris":{"android":"levelo://app?vid=9882411d-0f1b-4974-8723-8be010db2360","ios":"levelo://app?vid=9882411d-0f1b-4974-8723-8be010db2360"},"vehicle_type_id":"4","last_reported":1759079277,"current_range_meters":12800,"station_id":"ce4bh4p2rcd13ifvqe0g","pricing_plan_id":"cebpf4jnsgd1na2vs0mg"},{"bike_id":"876cce6f-db92-46dc-8cb8-56d29ce417f5","system_id":"levelo_inurba_marseille","lat":43.31312,"lon":5.39714,"is_reserved":false,"is_disabled":false,"rental_uris":{"android":"levelo://app?vid=876cce6f-db92-46dc-8cb8-56d29ce417f5","ios":"levelo://app?vid=876cce6f-db92-46dc-8cb8-56d29ce417f5"},"vehicle_type_id":"4","last_reported":1759079277,"current_range_meters":12800,"station_id":"ce4bgvp2rcd13ifvqcu0","pricing_plan_id":"cebpf4jnsgd1na2vs0mg"},{"bike_id":"6f0c1749-517c-4897-91c9-50c589e202de","system_id":"levelo_inurba_marseille","lat":43.34116,"lon":5.40955,"is_reserved":false,"is_disabled":true,"rental_uris":{"android":"levelo://app?vid=6f0c1749-517c-4897-91c9-50c589e202de","ios":"levelo://app?vid=6f0c1749-517c-4897-91c9-50c589e202de"},"vehicle_type_id":"4","last_reported":1759079277,"current_range_meters":13600,"station_id":"ce4bhqh2rcd13ifvqhlg","pricing_plan_id":"cebpf4jnsgd1na2vs0mg"},{"bike_id":"a1e2b7f3-f53e-4b6a-b8f1-27b0fbf9634d","system_id":"levelo_inurba_marseille","lat":43.315898,"lon":5.375817,"is_reserved":false,"is_disabled":false,"rental_uris":{"android":"levelo://app?vid=a1e2b7f3-f53e-4b6a-b8f1-27b0fbf9634d","ios":"levelo://app?vid=a1e2b7f3-f53e-4b6a-b8f1-27b0fbf9634d"},"vehicle_type_id":"4","last_reported":1759079277,"current_range_meters":13600,"station_id":"","pricing_plan_id":"cebpf4jnsgd1na2vs0mg"},{"bike_id":"91e1bde1-9b48-4214-ace0-91019f9528d8","system_id":"levelo_inurba_marseille","lat":43.31352,"lon":5.38505,"is_reserved":false,"is_disabled":false,"rental_uris":{"android":"levelo://app?vid=91e1bde1-9b48-4214-ace0-91019f9528d8","ios":"levelo://app?vid=91e1bde1-9b48-4214-ace0-91019f9528d8"},"vehicle_type_id":"4","last_reported":1759079277,"current_range_meters":13600,"station_id":"ce4bgt92rcd13ifvqcf0","pricing_plan_id":"cebpf4jnsgd1na2vs0mg"},{"bike_id":"151d75a0-434c-41d6-a3a8-42bc6a9a604c","system_id":"levelo_inurba_marseille","lat":43.31757,"lon":5.39017,"is_reserved":false,"is_disabled":false,"rental_uris":{"android":"levelo://app?vid=151d75a0-434c-41d6-a3a8-42bc6a9a604c","ios":"levelo://app?vid=151d75a0-434c-41d6-a3a8-42bc6a9a604c"},"vehicle_type_id":"4","last_reported":1759079277,"current_range_meters":13600,"station_id":"ce4bgt92rcd13ifvqcf0","pricing_plan_id":"cebpf4jnsgd1na2vs0mg"},{"bike_id":"0c38051c-a803-44c4-90a1-151a4109583c","system_id":"levelo_inurba_marseille","lat":43.286705,"lon":5.386597,"is_reserved":false,"is_disabled":true,"rental_uris":{"android":"levelo://app?vid=0c38051c-a803-44c4-90a1-151a4109583c","ios":"levelo://app?vid=0c38051c-a803-44c4-90a1-151a4109583c"},"vehicle_type_id":"4","last_reported":1759079277,"current_range_meters":13600,"station_id":"ce4bh492rcd13ifvqdug","pricing_plan_id":"cebpf4jnsgd1na2vs0mg"},{"bike_id":"c2473dcb-5740-4598-b86b-b3d6d5a4f714","system_id":"levelo_inurba_marseille","lat":43.2926,"lon":5.38436,"is_reserved":false,"is_disabled":false,"rental_uris":{"android":"levelo://app?vid=c2473dcb-5740-4598-b86b-b3d6d5a4f714","ios":"levelo://app?vid=c2473dcb-5740-4598-b86b-b3d6d5a4f714"},"vehicle_type_id":"4","last_reported":1759079277,"current_range_meters":13600,"station_id":"ce4bh692rcd13ifvqea0","pricing_plan_id":"cebpf4jnsgd1na2vs0mg"},{"bike_id":"d7d09523-34bb-44d2-9695-02f0abea9b47","system_id":"levelo_inurba_marseille","lat":43.29733,"lon":5.37912,"is_reserved":false,"is_disabled":false,"rental_uris":{"android":"levelo://app?vid=d7d09523-34bb-44d2-9695-02f0abea9b47","ios":"levelo://app?vid=d7d09523-34bb-44d2-9695-02f0abea9b47"},"vehicle_type_id":"4","last_reported":1759079277,"current_range_meters":13600,"station_id":"","pricing_plan_id":"cebpf4jnsgd1na2vs0mg"},{"bike_id":"af1d4da3-8233-4350-bfba-821fbc50678e","system_id":"levelo_inurba_marseille","lat":43.26682,"lon":5.38273,"is_reserved":false,"is_disabled":false,"rental_uris":{"android":"levelo://app?vid=af1d4da3-8233-4350-bfba-821fbc50678e","ios":"levelo://app?vid=af1d4da3-8233-4350-bfba-821fbc50678e"},"vehicle_type_id":"4","last_reported":1759079277,"current_range_meters":12800,"station_id":"ce4bhg92rcd13ifvqf90","pricing_plan_id":"cebpf4jnsgd1na2vs0mg"},{"bike_id":"20c1c77a-f4d0-45da-bf37-9dfdc8268d18","system_id":"levelo_inurba_marseille","lat":43.31987,"lon":5.38175,"is_reserved":false,"is_disabled":false,"rental_uris":{"android":"levelo://app?vid=20c1c77a-f4d0-45da-bf37-9dfdc8268d18","ios":"levelo://app?vid=20c1c77a-f4d0-45da-bf37-9dfdc8268d18"},"vehicle_type_id":"4","last_reported":1759079277,"current_range_meters":14000,"station_id":"ce4bhr12rcd13ifvqhpg","pricing_plan_id":"cebpf4jnsgd1na2vs0mg"},{"bike_id":"01e260f5-828c-4df2-9bc4-ca80e799f979","system_id":"levelo_inurba_marseille","lat":43.241629,"lon":5.364068,"is_reserved":false,"is_disabled":true,"rental_uris":{"android":"levelo://app?vid=01e260f5-828c-4df2-9bc4-ca80e799f979","ios":"levelo://app?vid=01e260f5-828c-4df2-9bc4-ca80e799f979"},"vehicle_type_id":"4","last_reported":1759079277,"current_range_meters":14000,"station_id":"cpo36qri1sfpv3e86is0","pricing_plan_id":"cebpf4jnsgd1na2vs0mg"},{"bike_id":"35e8f722-b82a-4247-beb8-7e2827829ce6","system_id":"levelo_inurba_marseille","lat":43.32405,"lon":5.3911,"is_reserved":false,"is_disabled":false,"rental_uris":{"android":"levelo://app?vid=35e8f722-b82a-4247-beb8-7e2827829ce6","ios":"levelo://app?vid=35e8f722-b82a-4247-beb8-7e2827829ce6"},"vehicle_type_id":"4","last_reported":1759079277,"current_range_meters":14000,"station_id":"","pricing_plan_id":"cebpf4jnsgd1na2vs0mg"},{"bike_id":"b824141f-d103-404c-bc0c-e27708d4f489","system_id":"levelo_inurba_marseille","lat":43.28672,"lon":5.40033,"is_reserved":false,"is_disabled":false,"rental_uris":{"android":"levelo://app?vid=b824141f-d103-404c-bc0c-e27708d4f489","ios":"levelo://app?vid=b824141f-d103-404c-bc0c-e27708d4f489"},"vehicle_type_id":"4","last_reported":1759079277,"current_range_meters":14000,"station_id":"","pricing_plan_id":"cebpf4jnsgd1na2vs0mg"},{"bike_id":"e26bdd49-4bb1-44a5-bff0-3a165280c183","system_id":"levelo_inurba_marseille","lat":43.24179,"lon":5.397312,"is_reserved":false,"is_disabled":false,"rental_uris":{"android":"levelo://app?vid=e26bdd49-4bb1-44a5-bff0-3a165280c183","ios":"levelo://app?vid=e26bdd49-4bb1-44a5-bff0-3a165280c183"},"vehicle_type_id":"4","last_reported":1759079277,"current_range_meters":14000,"station_id":"ce4bhn12rcd13ifvqgpg","pricing_plan_id":"cebpf4jnsgd1na2vs0mg"},{"bike_id":"e5378695-fba9-432a-9cfb-3b5b05e40fec","system_id":"levelo_inurba_marseille","lat":43.337986,"lon":5.374304,"is_reserved":false,"is_disabled":false,"rental_uris":{"android":"levelo://app?vid=e5378695-fba9-432a-9cfb-3b5b05e40fec","ios":"levelo://app?vid=e5378695-fba9-432a-9cfb-3b5b05e40fec"},"vehicle_type_id":"4","last_reported":1759079277,"current_range_meters":14000,"station_id":"","pricing_plan_id":"cebpf4jnsgd1na2vs0mg"},{"bike_id":"6f8d96a8-d2c5-475e-9692-49428d9d8dae","system_id":"levelo_inurba_marseille","lat":43.30177,"lon":5.36633,"is_reserved":false,"is_disabled":false,"rental_uris":{"android":"levelo://app?vid=6f8d96a8-d2c5-475e-9692-49428d9d8dae","ios":"levelo://app?vid=6f8d96a8-d2c5-475e-9692-49428d9d8dae"},"vehicle_type_id":"4","last_reported":1759079277,"current_range_meters":14400,"station_id":"ce4bgrh2rcd13ifvqc8g","pricing_plan_id":"cebpf4jnsgd1na2vs0mg"},{"bike_id":"d65194e3-cfad-490c-942a-f2670d1b34c2","system_id":"levelo_inurba_marseille","lat":43.313217,"lon":5.396903,"is_reserved":false,"is_disabled":false,"rental_uris":{"android":"levelo://app?vid=d65194e3-cfad-490c-942a-f2670d1b34c2","ios":"levelo://app?vid=d65194e3-cfad-490c-942a-f2670d1b34c2"},"vehicle_type_id":"4","last_reported":1759079277,"current_range_meters":14400,"station_id":"ce4bgvp2rcd13ifvqcu0","pricing_plan_id":"cebpf4jnsgd1na2vs0mg"},{"bike_id":"1f106747-9a75-4bb6-a484-3f72c7fd59c1","system_id":"levelo_inurba_marseille","lat":43.29018,"lon":5.38135,"is_reserved":false,"is_disabled":false,"rental_uris":{"android":"levelo://app?vid=1f106747-9a75-4bb6-a484-3f72c7fd59c1","ios":"levelo://app?vid=1f106747-9a75-4bb6-a484-3f72c7fd59c1"},"vehicle_type_id":"4","last_reported":1759079277,"current_range_meters":14400,"station_id":"ce4bh4p2rcd13ifvqe1g","pricing_plan_id":"cebpf4jnsgd1na2vs0mg"},{"bike_id":"d1607a37-7a06-451d-93aa-af4983210155","system_id":"levelo_inurba_marseille","lat":43.31216,"lon":5.36893,"is_reserved":false,"is_disabled":false,"rental_uris":{"android":"levelo://app?vid=d1607a37-7a06-451d-93aa-af4983210155","ios":"levelo://app?vid=d1607a37-7a06-451d-93aa-af4983210155"},"vehicle_type_id":"4","last_reported":1759079277,"current_range_meters":14400,"station_id":"ce4bgl92rcd13ifvqbq0","pricing_plan_id":"cebpf4jnsgd1na2vs0mg"},{"bike_id":"e5cca1d3-7b83-4815-adc1-45ead40eb28d","system_id":"levelo_inurba_marseille","lat":43.32105,"lon":5.36772,"is_reserved":false,"is_disabled":false,"rental_uris":{"android":"levelo://app?vid=e5cca1d3-7b83-4815-adc1-45ead40eb28d","ios":"levelo://app?vid=e5cca1d3-7b83-4815-adc1-45ead40eb28d"},"vehicle_type_id":"4","last_reported":1759079277,"current_range_meters":14400,"station_id":"ce4bhrh2rcd13ifvqhug","pricing_plan_id":"cebpf4jnsgd1na2vs0mg"},{"bike_id":"452181b3-da35-4f9f-9eb4-10bffda73c95","system_id":"levelo_inurba_marseille","lat":43.29259,"lon":5.3845,"is_reserved":false,"is_disabled":false,"rental_uris":{"android":"levelo://app?vid=452181b3-da35-4f9f-9eb4-10bffda73c95","ios":"levelo://app?vid=452181b3-da35-4f9f-9eb4-10bffda73c95"},"vehicle_type_id":"4","last_reported":1759079277,"current_range_meters":14400,"station_id":"ce4bh692rcd13ifvqea0","pricing_plan_id":"cebpf4jnsgd1na2vs0mg"},{"bike_id":"327c041e-5c9e-4b0d-a97c-a2dbaab036ae","system_id":"levelo_inurba_marseille","lat":43.32813,"lon":5.4113,"is_reserved":false,"is_disabled":false,"rental_uris":{"android":"levelo://app?vid=327c041e-5c9e-4b0d-a97c-a2dbaab036ae","ios":"levelo://app?vid=327c041e-5c9e-4b0d-a97c-a2dbaab036ae"},"vehicle_type_id":"4","last_reported":1759079277,"current_range_meters":14800,"station_id":"","pricing_plan_id":"cebpf4jnsgd1na2vs0mg"},{"bike_id":"c3b059ba-1eb5-4e47-8b62-058859817c99","system_id":"levelo_inurba_marseille","lat":43.28679,"lon":5.40012,"is_reserved":false,"is_disabled":false,"rental_uris":{"android":"levelo://app?vid=c3b059ba-1eb5-4e47-8b62-058859817c99","ios":"levelo://app?vid=c3b059ba-1eb5-4e47-8b62-058859817c99"},"vehicle_type_id":"4","last_reported":1759079277,"current_range_meters":14800,"station_id":"ce4bho92rcd13ifvqh3g","pricing_plan_id":"cebpf4jnsgd1na2vs0mg"},{"bike_id":"aef170f6-3306-46fe-9dab-25f26114ab13","system_id":"levelo_inurba_marseille","lat":43.32353,"lon":5.36738,"is_reserved":false,"is_disabled":false,"rental_uris":{"android":"levelo://app?vid=aef170f6-3306-46fe-9dab-25f26114ab13","ios":"levelo://app?vid=aef170f6-3306-46fe-9dab-25f26114ab13"},"vehicle_type_id":"4","last_reported":1759079277,"current_range_meters":14800,"station_id":"ce4bhsh2rcd13ifvqi2g","pricing_plan_id":"cebpf4jnsgd1na2vs0mg"},{"bike_id":"3d1366bd-08b1-4968-a0fb-a9d1b77e0ba2","system_id":"levelo_inurba_marseille","lat":43.29095,"lon":5.38126,"is_reserved":false,"is_disabled":false,"rental_uris":{"android":"levelo://app?vid=3d1366bd-08b1-4968-a0fb-a9d1b77e0ba2","ios":"levelo://app?vid=3d1366bd-08b1-4968-a0fb-a9d1b77e0ba2"},"vehicle_type_id":"4","last_reported":1759079277,"current_range_meters":14800,"station_id":"ce4bh512rcd13ifvqe2g","pricing_plan_id":"cebpf4jnsgd1na2vs0mg"},{"bike_id":"4822dd99-56ec-44f6-a9b9-ee0ae5dcc1bf","system_id":"levelo_inurba_marseille","lat":43.30009,"lon":5.39994,"is_reserved":false,"is_disabled":false,"rental_uris":{"android":"levelo://app?vid=4822dd99-56ec-44f6-a9b9-ee0ae5dcc1bf","ios":"levelo://app?vid=4822dd99-56ec-44f6-a9b9-ee0ae5dcc1bf"},"vehicle_type_id":"4","last_reported":1759079277,"current_range_meters":14800,"station_id":"ce4bh0h2rcd13ifvqd40","pricing_plan_id":"cebpf4jnsgd1na2vs0mg"},{"bike_id":"8e45fe19-fd9f-4428-b871-ce43cf04e5b9","system_id":"levelo_inurba_marseille","lat":43.29031,"lon":5.3757,"is_reserved":false,"is_disabled":false,"rental_uris":{"android":"levelo://app?vid=8e45fe19-fd9f-4428-b871-ce43cf04e5b9","ios":"levelo://app?vid=8e45fe19-fd9f-4428-b871-ce43cf04e5b9"},"vehicle_type_id":"4","last_reported":1759079277,"current_range_meters":14800,"station_id":"ce4bh692rcd13ifvqe90","pricing_plan_id":"cebpf4jnsgd1na2vs0mg"},{"bike_id":"ecf30250-2485-493a-a887-94e05fa088f6","system_id":"levelo_inurba_marseille","lat":43.29268,"lon":5.38402,"is_reserved":false,"is_disabled":false,"rental_uris":{"android":"levelo://app?vid=ecf30250-2485-493a-a887-94e05fa088f6","ios":"levelo://app?vid=ecf30250-2485-493a-a887-94e05fa088f6"},"vehicle_type_id":"4","last_reported":1759079277,"current_range_meters":14800,"station_id":"ce4bh692rcd13ifvqea0","pricing_plan_id":"cebpf4jnsgd1na2vs0mg"},{"bike_id":"0656741e-4baa-4804-921b-3ed5233045aa","system_id":"levelo_inurba_marseille","lat":43.24632,"lon":5.43145,"is_reserved":false,"is_disabled":false,"rental_uris":{"android":"levelo://app?vid=0656741e-4baa-4804-921b-3ed5233045aa","ios":"levelo://app?vid=0656741e-4baa-4804-921b-3ed5233045aa"},"vehicle_type_id":"4","last_reported":1759079277,"current_range_meters":14800,"station_id":"st_d2m6c4gdas8pm72e190g","pricing_plan_id":"cebpf4jnsgd1na2vs0mg"},{"bike_id":"83394bf3-6930-4e32-a12b-beea187cc68c","system_id":"levelo_inurba_marseille","lat":43.30457,"lon":5.37912,"is_reserved":false,"is_disabled":false,"rental_uris":{"android":"levelo://app?vid=83394bf3-6930-4e32-a12b-beea187cc68c","ios":"levelo://app?vid=83394bf3-6930-4e32-a12b-beea187cc68c"},"vehicle_type_id":"4","last_reported":1759079277,"current_range_meters":14400,"station_id":"ce4bgup2rcd13ifvqcn0","pricing_plan_id":"cebpf4jnsgd1na2vs0mg"},{"bike_id":"2c6c6f0f-0246-4f04-9f70-834792a2a1db","system_id":"levelo_inurba_marseille","lat":43.24661,"lon":5.38162,"is_reserved":false,"is_disabled":false,"rental_uris":{"android":"levelo://app?vid=2c6c6f0f-0246-4f04-9f70-834792a2a1db","ios":"levelo://app?vid=2c6c6f0f-0246-4f04-9f70-834792a2a1db"},"vehicle_type_id":"4","last_reported":1759079277,"current_range_meters":14800,"station_id":"ce4bhih2rcd13ifvqfr0","pricing_plan_id":"cebpf4jnsgd1na2vs0mg"},{"bike_id":"677a0b1c-d5ca-4154-a464-cd0c0a8279d2","system_id":"levelo_inurba_marseille","lat":43.28981,"lon":5.35604,"is_reserved":false,"is_disabled":true,"rental_uris":{"android":"levelo://app?vid=677a0b1c-d5ca-4154-a464-cd0c0a8279d2","ios":"levelo://app?vid=677a0b1c-d5ca-4154-a464-cd0c0a8279d2"},"vehicle_type_id":"4","last_reported":1759079277,"current_range_meters":15200,"station_id":"ce4bhb92rcd13ifvqen0","pricing_plan_id":"cebpf4jnsgd1na2vs0mg"},{"bike_id":"e0e9194b-710d-4981-ad65-ba5929d7512b","system_id":"levelo_inurba_marseille","lat":43.306022,"lon":5.384559,"is_reserved":false,"is_disabled":false,"rental_uris":{"android":"levelo://app?vid=e0e9194b-710d-4981-ad65-ba5929d7512b","ios":"levelo://app?vid=e0e9194b-710d-4981-ad65-ba5929d7512b"},"vehicle_type_id":"4","last_reported":1759079277,"current_range_meters":15200,"station_id":"","pricing_plan_id":"cebpf4jnsgd1na2vs0mg"},{"bike_id":"3b530333-201c-4f53-a98d-ce6c8fa2e551","system_id":"levelo_inurba_marseille","lat":43.260279,"lon":5.375515,"is_reserved":false,"is_disabled":true,"rental_uris":{"android":"levelo://app?vid=3b530333-201c-4f53-a98d-ce6c8fa2e551","ios":"levelo://app?vid=3b530333-201c-4f53-a98d-ce6c8fa2e551"},"vehicle_type_id":"4","last_reported":1759079277,"current_range_meters":15200,"station_id":"ce4bhgh2rcd13ifvqfa0","pricing_plan_id":"cebpf4jnsgd1na2vs0mg"},{"bike_id":"80b98ce0-3233-47ce-84db-722943723d1e","system_id":"levelo_inurba_marseille","lat":43.269329,"lon":5.38928,"is_reserved":false,"is_disabled":false,"rental_uris":{"android":"levelo://app?vid=80b98ce0-3233-47ce-84db-722943723d1e","ios":"levelo://app?vid=80b98ce0-3233-47ce-84db-722943723d1e"},"vehicle_type_id":"4","last_reported":1759079277,"current_range_meters":15200,"station_id":"","pricing_plan_id":"cebpf4jnsgd1na2vs0mg"},{"bike_id":"3ecab9fb-ebd1-48b2-bfce-30928b04fa5e","system_id":"levelo_inurba_marseille","lat":43.26279,"lon":5.39887,"is_reserved":false,"is_disabled":false,"rental_uris":{"android":"levelo://app?vid=3ecab9fb-ebd1-48b2-bfce-30928b04fa5e","ios":"levelo://app?vid=3ecab9fb-ebd1-48b2-bfce-30928b04fa5e"},"vehicle_type_id":"4","last_reported":1759079277,"current_range_meters":15200,"station_id":"","pricing_plan_id":"cebpf4jnsgd1na2vs0mg"},{"bike_id":"69e9c3c6-7977-451b-be20-ac1a22a4fba6","system_id":"levelo_inurba_marseille","lat":43.29886,"lon":5.4365,"is_reserved":false,"is_disabled":false,"rental_uris":{"android":"levelo://app?vid=69e9c3c6-7977-451b-be20-ac1a22a4fba6","ios":"levelo://app?vid=69e9c3c6-7977-451b-be20-ac1a22a4fba6"},"vehicle_type_id":"4","last_reported":1759079277,"current_range_meters":15200,"station_id":"ce4bhpp2rcd13ifvqhfg","pricing_plan_id":"cebpf4jnsgd1na2vs0mg"},{"bike_id":"09677688-1321-4019-90ea-97e361b98a54","system_id":"levelo_inurba_marseille","lat":43.27996,"lon":5.4001,"is_reserved":false,"is_disabled":false,"rental_uris":{"android":"levelo://app?vid=09677688-1321-4019-90ea-97e361b98a54","ios":"levelo://app?vid=09677688-1321-4019-90ea-97e361b98a54"},"vehicle_type_id":"4","last_reported":1759079277,"current_range_meters":15200,"station_id":"ce4bho92rcd13ifvqh4g","pricing_plan_id":"cebpf4jnsgd1na2vs0mg"},{"bike_id":"01d71389-0b80-4650-affd-c19dc5c27b50","system_id":"levelo_inurba_marseille","lat":43.2397,"lon":5.36631,"is_reserved":false,"is_disabled":true,"rental_uris":{"android":"levelo://app?vid=01d71389-0b80-4650-affd-c19dc5c27b50","ios":"levelo://app?vid=01d71389-0b80-4650-affd-c19dc5c27b50"},"vehicle_type_id":"4","last_reported":1759079277,"current_range_meters":15200,"station_id":"ce4bhi12rcd13ifvqfp0","pricing_plan_id":"cebpf4jnsgd1na2vs0mg"},{"bike_id":"8f7a72f4-bf26-4764-8b32-ba627a2383af","system_id":"levelo_inurba_marseille","lat":43.27604,"lon":5.36119,"is_reserved":false,"is_disabled":false,"rental_uris":{"android":"levelo://app?vid=8f7a72f4-bf26-4764-8b32-ba627a2383af","ios":"levelo://app?vid=8f7a72f4-bf26-4764-8b32-ba627a2383af"},"vehicle_type_id":"4","last_reported":1759079277,"current_range_meters":15200,"station_id":"ce4bgj92rcd13ifvqbe0","pricing_plan_id":"cebpf4jnsgd1na2vs0mg"},{"bike_id":"1d65299e-cf34-435b-a60a-0ba0d66bcde6","system_id":"levelo_inurba_marseille","lat":43.28395,"lon":5.3755,"is_reserved":false,"is_disabled":true,"rental_uris":{"android":"levelo://app?vid=1d65299e-cf34-435b-a60a-0ba0d66bcde6","ios":"levelo://app?vid=1d65299e-cf34-435b-a60a-0ba0d66bcde6"},"vehicle_type_id":"4","last_reported":1759079277,"current_range_meters":16000,"station_id":"ce4bh412rcd13ifvqds0","pricing_plan_id":"cebpf4jnsgd1na2vs0mg"},{"bike_id":"73bbd8a8-62e4-4a7e-9641-f59dbff0423a","system_id":"levelo_inurba_marseille","lat":43.30193,"lon":5.39472,"is_reserved":false,"is_disabled":true,"rental_uris":{"android":"levelo://app?vid=73bbd8a8-62e4-4a7e-9641-f59dbff0423a","ios":"levelo://app?vid=73bbd8a8-62e4-4a7e-9641-f59dbff0423a"},"vehicle_type_id":"4","last_reported":1759079277,"current_range_meters":16000,"station_id":"ce4bh0p2rcd13ifvqd70","pricing_plan_id":"cebpf4jnsgd1na2vs0mg"},{"bike_id":"4e096928-e1a4-4d11-ab0b-2ca715085e29","system_id":"levelo_inurba_marseille","lat":43.28229,"lon":5.3907,"is_reserved":false,"is_disabled":false,"rental_uris":{"android":"levelo://app?vid=4e096928-e1a4-4d11-ab0b-2ca715085e29","ios":"levelo://app?vid=4e096928-e1a4-4d11-ab0b-2ca715085e29"},"vehicle_type_id":"4","last_reported":1759079277,"current_range_meters":16000,"station_id":"ce4bhn92rcd13ifvqgsg","pricing_plan_id":"cebpf4jnsgd1na2vs0mg"},{"bike_id":"96d753a3-f35e-4904-b1bb-0ffbe41cce59","system_id":"levelo_inurba_marseille","lat":43.290307,"lon":5.386525,"is_reserved":false,"is_disabled":false,"rental_uris":{"android":"levelo://app?vid=96d753a3-f35e-4904-b1bb-0ffbe41cce59","ios":"levelo://app?vid=96d753a3-f35e-4904-b1bb-0ffbe41cce59"},"vehicle_type_id":"4","last_reported":1759079277,"current_range_meters":16000,"station_id":"ce4bh4p2rcd13ifvqe0g","pricing_plan_id":"cebpf4jnsgd1na2vs0mg"},{"bike_id":"c8eb7660-6046-4e9c-8c85-8306cbdbfdf8","system_id":"levelo_inurba_marseille","lat":43.24618,"lon":5.43159,"is_reserved":false,"is_disabled":false,"rental_uris":{"android":"levelo://app?vid=c8eb7660-6046-4e9c-8c85-8306cbdbfdf8","ios":"levelo://app?vid=c8eb7660-6046-4e9c-8c85-8306cbdbfdf8"},"vehicle_type_id":"4","last_reported":1759079277,"current_range_meters":16000,"station_id":"st_d2m6c4gdas8pm72e190g","pricing_plan_id":"cebpf4jnsgd1na2vs0mg"},{"bike_id":"f4bc1f7f-7210-48f7-a6c2-5bb4941ac693","system_id":"levelo_inurba_marseille","lat":43.27208,"lon":5.39192,"is_reserved":false,"is_disabled":true,"rental_uris":{"android":"levelo://app?vid=f4bc1f7f-7210-48f7-a6c2-5bb4941ac693","ios":"levelo://app?vid=f4bc1f7f-7210-48f7-a6c2-5bb4941ac693"},"vehicle_type_id":"4","last_reported":1759079277,"current_range_meters":16000,"station_id":"ce4bhhp2rcd13ifvqfm0","pricing_plan_id":"cebpf4jnsgd1na2vs0mg"},{"bike_id":"43bc358b-b5c1-406f-8a3a-b73ddd9577f2","system_id":"levelo_inurba_marseille","lat":43.28935,"lon":5.36632,"is_reserved":false,"is_disabled":false,"rental_uris":{"android":"levelo://app?vid=43bc358b-b5c1-406f-8a3a-b73ddd9577f2","ios":"levelo://app?vid=43bc358b-b5c1-406f-8a3a-b73ddd9577f2"},"vehicle_type_id":"4","last_reported":1759079277,"current_range_meters":15200,"station_id":"ce4bhap2rcd13ifvqek0","pricing_plan_id":"cebpf4jnsgd1na2vs0mg"},{"bike_id":"9c4235da-d3d0-4056-aa6b-c6aa6e8e7367","system_id":"levelo_inurba_marseille","lat":43.306772,"lon":5.375225,"is_reserved":false,"is_disabled":false,"rental_uris":{"android":"levelo://app?vid=9c4235da-d3d0-4056-aa6b-c6aa6e8e7367","ios":"levelo://app?vid=9c4235da-d3d0-4056-aa6b-c6aa6e8e7367"},"vehicle_type_id":"4","last_reported":1759079277,"current_range_meters":16000,"station_id":"","pricing_plan_id":"cebpf4jnsgd1na2vs0mg"},{"bike_id":"f060d515-f268-4371-95a2-f04eea0ad05f","system_id":"levelo_inurba_marseille","lat":43.24637,"lon":5.43153,"is_reserved":false,"is_disabled":false,"rental_uris":{"android":"levelo://app?vid=f060d515-f268-4371-95a2-f04eea0ad05f","ios":"levelo://app?vid=f060d515-f268-4371-95a2-f04eea0ad05f"},"vehicle_type_id":"4","last_reported":1759079277,"current_range_meters":16000,"station_id":"st_d2m6c4gdas8pm72e190g","pricing_plan_id":"cebpf4jnsgd1na2vs0mg"},{"bike_id":"f8a96ee1-8d2d-48d0-a95e-027d16e747d8","system_id":"levelo_inurba_marseille","lat":43.27067,"lon":5.42281,"is_reserved":false,"is_disabled":false,"rental_uris":{"android":"levelo://app?vid=f8a96ee1-8d2d-48d0-a95e-027d16e747d8","ios":"levelo://app?vid=f8a96ee1-8d2d-48d0-a95e-027d16e747d8"},"vehicle_type_id":"4","last_reported":1759079277,"current_range_meters":16000,"station_id":"ce4bhk92rcd13ifvqgb0","pricing_plan_id":"cebpf4jnsgd1na2vs0mg"},{"bike_id":"7703c260-bd06-4ed3-be1a-114908230987","system_id":"levelo_inurba_marseille","lat":43.321115,"lon":5.435444,"is_reserved":false,"is_disabled":false,"rental_uris":{"android":"levelo://app?vid=7703c260-bd06-4ed3-be1a-114908230987","ios":"levelo://app?vid=7703c260-bd06-4ed3-be1a-114908230987"},"vehicle_type_id":"4","last_reported":1759079277,"current_range_meters":15200,"station_id":"ce4bhp92rcd13ifvqhbg","pricing_plan_id":"cebpf4jnsgd1na2vs0mg"},{"bike_id":"db54ae1e-766a-4881-94b4-a4cf26d411ba","system_id":"levelo_inurba_marseille","lat":43.29268,"lon":5.38434,"is_reserved":false,"is_disabled":true,"rental_uris":{"android":"levelo://app?vid=db54ae1e-766a-4881-94b4-a4cf26d411ba","ios":"levelo://app?vid=db54ae1e-766a-4881-94b4-a4cf26d411ba"},"vehicle_type_id":"4","last_reported":1759079277,"current_range_meters":16400,"station_id":"ce4bh692rcd13ifvqea0","pricing_plan_id":"cebpf4jnsgd1na2vs0mg"},{"bike_id":"09ce95cc-36f1-4533-bea0-7d19c1dab97a","system_id":"levelo_inurba_marseille","lat":43.28077,"lon":5.37873,"is_reserved":false,"is_disabled":false,"rental_uris":{"android":"levelo://app?vid=09ce95cc-36f1-4533-bea0-7d19c1dab97a","ios":"levelo://app?vid=09ce95cc-36f1-4533-bea0-7d19c1dab97a"},"vehicle_type_id":"4","last_reported":1759079277,"current_range_meters":16400,"station_id":"ce4bha12rcd13ifvqee0","pricing_plan_id":"cebpf4jnsgd1na2vs0mg"},{"bike_id":"89fe513c-a434-4cf8-a56c-ee0844b2f3be","system_id":"levelo_inurba_marseille","lat":43.299728,"lon":5.384899,"is_reserved":false,"is_disabled":true,"rental_uris":{"android":"levelo://app?vid=89fe513c-a434-4cf8-a56c-ee0844b2f3be","ios":"levelo://app?vid=89fe513c-a434-4cf8-a56c-ee0844b2f3be"},"vehicle_type_id":"4","last_reported":1759079277,"current_range_meters":16400,"station_id":"ce4bgj92rcd13ifvqbd0","pricing_plan_id":"cebpf4jnsgd1na2vs0mg"},{"bike_id":"e444e92c-ea6c-4b2a-a3ab-d823e6469357","system_id":"levelo_inurba_marseille","lat":43.30128,"lon":5.39846,"is_reserved":false,"is_disabled":false,"rental_uris":{"android":"levelo://app?vid=e444e92c-ea6c-4b2a-a3ab-d823e6469357","ios":"levelo://app?vid=e444e92c-ea6c-4b2a-a3ab-d823e6469357"},