{"last_updated":1684595138,"ttl":30,"version":"2.2","data":{"bikes":[{"bike_id":"a1c981e9-b61a-4f92-9da3-bc88edc1cf4a","system_id":"levelo_inurba_marseille","lat":43.31341,"lon":5.367098,"is_reserved":false,"is_disabled":false,"rental_uris":{"android":"levelo://app?vid=a1c981e9-b61a-4f92-9da3-bc88edc1cf4a","ios":"levelo://app?vid=a1c981e9-b61a-4f92-9da3-bc88edc1cf4a"},"vehicle_type_id":"4","last_reported":1684595138,"current_range_meters":29600,"station_id":"ce4bgr92rcd13ifvqc6g","pricing_plan_id":"free"},{"bike_id":"32b74d7b-e2eb-4609-add9-6dc4e28a0ff3","system_id":"levelo_inurba_marseille","lat":43.313391,"lon":5.36706,"is_reserved":false,"is_disabled":false,"rental_uris":{"android":"levelo://app?vid=32b74d7b-e2eb-4609-add9-6dc4e28a0ff3","ios":"levelo://app?vid=32b74d7b-e2eb-4609-add9-6dc4e28a0ff3"},"vehicle_type_id":"4","last_reported":1684595138,"current_range_meters":26800,"station_id":"ce4bgr92rcd13ifvqc6g","pricing_plan_id":"free"},{"bike_id":"31a6a8f8-35fd-49f7-9a38-8e1123c1c126","system_id":"levelo_inurba_marseille","lat":43.31341,"lon":5.367098,"is_reserved":false,"is_disabled":false,"rental_uris":{"android":"levelo://app?vid=31a6a8f8-35fd-49f7-9a38-8e1123c1c126","ios":"levelo://app?vid=31a6a8f8-35fd-49f7-9a38-8e1123c1c126"},"vehicle_type_id":"4","last_reported":1684595138,"current_range_meters":28800,"station_id":"ce4bgr92rcd13ifvqc6g","pricing_plan_id":"free"},{"bike_id":"423051dc-23e3-41ae-a453-4e9c309d34ab","system_id":"levelo_inurba_marseille","lat":43.31341,"lon":5.367098,"is_reserved":false,"is_disabled":false,"rental_uris":{"android":"levelo://app?vid=423051dc-23e3-41ae-a453-4e9c309d34ab","ios":"levelo://app?vid=423051dc-23e3-41ae-a453-4e9c309d34ab"},"vehicle_type_id":"4","last_reported":1684595138,"current_range_meters":31200,"station_id":"ce4bgr92rcd13ifvqc6g","pricing_plan_id":"free"},{"bike_id":"7bdf4c5f-5855-4aae-93f1-1f2abb30b761","system_id":"levelo_inurba_marseille","lat":43.31341,"lon":5.367098,"is_reserved":false,"is_disabled":false,"rental_uris":{"android":"levelo://app?vid=7bdf4c5f-5855-4aae-93f1-1f2abb30b761","ios":"levelo://app?vid=7bdf4c5f-5855-4aae-93f1-1f2abb30b761"},"vehicle_type_id":"4","last_reported":1684595138,"current_range_meters":31200,"station_id":"ce4bgr92rcd13ifvqc6g","pricing_plan_id":"free"},{"bike_id":"c11e8c0d-8f2e-4468-9d4a-529348fce7ac","system_id":"levelo_inurba_marseille","lat":43.31341,"lon":5.367098,"is_reserved":false,"is_disabled":false,"rental_uris":{"android":"levelo://app?vid=c11e8c0d-8f2e-4468-9d4a-529348fce7ac","ios":"levelo://app?vid=c11e8c0d-8f2e-4468-9d4a-529348fce7ac"},"vehicle_type_id":"4","last_reported":1684595138,"current_range_meters":30400,"station_id":"ce4bgr92rcd13ifvqc6g","pricing_plan_id":"free"},{"bike_id":"20fde61d-aed5-41e0-9434-8916e3d5604c","system_id":"levelo_inurba_marseille","lat":43.31229,"lon":5.36845,"is_reserved":false,"is_disabled":false,"rental_uris":{"android":"levelo://app?vid=20fde61d-aed5-41e0-9434-8916e3d5604c","ios":"levelo://app?vid=20fde61d-aed5-41e0-9434-8916e3d5604c"},"vehicle_type_id":"4","last_reported":1684595138,"current_range_meters":31200,"station_id":"ce4bgl92rcd13ifvqbq0","pricing_plan_id":"free"},{"bike_id":"bd3fba54-2a2a-4476-867f-d6a483911997","system_id":"levelo_inurba_marseille","lat":43.312239,"lon":5.368562,"is_reserved":false,"is_disabled":false,"rental_uris":{"android":"levelo://app?vid=bd3fba54-2a2a-4476-867f-d6a483911997","ios":"levelo://app?vid=bd3fba54-2a2a-4476-867f-d6a483911997"},"vehicle_type_id":"4","last_reported":1684595138,"current_range_meters":28400,"station_id":"ce4bgl92rcd13ifvqbq0","pricing_plan_id":"free"},{"bike_id":"79dc37ee-0d88-4a2b-81de-8f86b0985009","system_id":"levelo_inurba_marseille","lat":43.312239,"lon":5.368562,"is_reserved":false,"is_disabled":false,"rental_uris":{"android":"levelo://app?vid=79dc37ee-0d88-4a2b-81de-8f86b0985009","ios":"levelo://app?vid=79dc37ee-0d88-4a2b-81de-8f86b0985009"},"vehicle_type_id":"4","last_reported":1684595138,"current_range_meters":31200,"station_id":"ce4bgl92rcd13ifvqbq0","pricing_plan_id":"free"},{"bike_id":"299ed06d-6905-4456-9dcd-f5b7994d2bf4","system_id":"levelo_inurba_marseille","lat":43.309076,"lon":5.368465,"is_reserved":false,"is_disabled":false,"rental_uris":{"android":"levelo://app?vid=299ed06d-6905-4456-9dcd-f5b7994d2bf4","ios":"levelo://app?vid=299ed06d-6905-4456-9dcd-f5b7994d2bf4"},"vehicle_type_id":"4","last_reported":1684595138,"current_range_meters":31200,"station_id":"ce4bgn92rcd13ifvqbvg","pricing_plan_id":"free"},{"bike_id":"686f6868-6048-4068-a64e-9bfcece3c84d","system_id":"levelo_inurba_marseille","lat":43.309076,"lon":5.368465,"is_reserved":false,"is_disabled":false,"rental_uris":{"android":"levelo://app?vid=686f6868-6048-4068-a64e-9bfcece3c84d","ios":"levelo://app?vid=686f6868-6048-4068-a64e-9bfcece3c84d"},"vehicle_type_id":"4","last_reported":1684595138,"current_range_meters":31200,"station_id":"ce4bgn92rcd13ifvqbvg","pricing_plan_id":"free"},{"bike_id":"a1e027ab-53cb-46c9-8aeb-56818a5c110b","system_id":"levelo_inurba_marseille","lat":43.309076,"lon":5.368465,"is_reserved":false,"is_disabled":false,"rental_uris":{"android":"levelo://app?vid=a1e027ab-53cb-46c9-8aeb-56818a5c110b","ios":"levelo://app?vid=a1e027ab-53cb-46c9-8aeb-56818a5c110b"},"vehicle_type_id":"4","last_reported":1684595138,"current_range_meters":16000,"station_id":"ce4bgn92rcd13ifvqbvg","pricing_plan_id":"free"},{"bike_id":"e91937b0-da17-46d0-ba39-a4caf0133c9c","system_id":"levelo_inurba_marseille","lat":43.309076,"lon":5.368465,"is_reserved":false,"is_disabled":false,"rental_uris":{"android":"levelo://app?vid=e91937b0-da17-46d0-ba39-a4caf0133c9c","ios":"levelo://app?vid=e91937b0-da17-46d0-ba39-a4caf0133c9c"},"vehicle_type_id":"4","last_reported":1684595138,"current_range_meters":29200,"station_id":"ce4bgn92rcd13ifvqbvg","pricing_plan_id":"free"},{"bike_id":"9820f348-462d-4496-85b8-7b07396693b9","system_id":"levelo_inurba_marseille","lat":43.3091,"lon":5.36847,"is_reserved":false,"is_disabled":false,"rental_uris":{"android":"levelo://app?vid=9820f348-462d-4496-85b8-7b07396693b9","ios":"levelo://app?vid=9820f348-462d-4496-85b8-7b07396693b9"},"vehicle_type_id":"4","last_reported":1684595138,"current_range_meters":22800,"station_id":"ce4bgn92rcd13ifvqbvg","pricing_plan_id":"free"},{"bike_id":"216d5b2c-006a-476d-b0b4-4dee0ac788c7","system_id":"levelo_inurba_marseille","lat":43.314811,"lon":5.373103,"is_reserved":false,"is_disabled":false,"rental_uris":{"android":"levelo://app?vid=216d5b2c-006a-476d-b0b4-4dee0ac788c7","ios":"levelo://app?vid=216d5b2c-006a-476d-b0b4-4dee0ac788c7"},"vehicle_type_id":"4","last_reported":1684595138,"current_range_meters":31200,"station_id":"ce4bgt12rcd13ifvqcd0","pricing_plan_id":"free"},{"bike_id":"d734d8f3-6c46-49d1-9671-0ad92bcd2953","system_id":"levelo_inurba_marseille","lat":43.314811,"lon":5.373103,"is_reserved":false,"is_disabled":false,"rental_uris":{"android":"levelo://app?vid=d734d8f3-6c46-49d1-9671-0ad92bcd2953","ios":"levelo://app?vid=d734d8f3-6c46-49d1-9671-0ad92bcd2953"},"vehicle_type_id":"4","last_reported":1684595138,"current_range_meters":30800,"station_id":"ce4bgt12rcd13ifvqcd0","pricing_plan_id":"free"},{"bike_id":"46a958db-deea-4536-9495-95f4bcdc056c","system_id":"levelo_inurba_marseille","lat":43.314811,"lon":5.373103,"is_reserved":false,"is_disabled":false,"rental_uris":{"android":"levelo://app?vid=46a958db-deea-4536-9495-95f4bcdc056c","ios":"levelo://app?vid=46a958db-deea-4536-9495-95f4bcdc056c"},"vehicle_type_id":"4","last_reported":1684595138,"current_range_meters":31600,"station_id":"ce4bgt12rcd13ifvqcd0","pricing_plan_id":"free"},{"bike_id":"76c859a9-43fe-4dfd-b4c0-cb5d7c555379","system_id":"levelo_inurba_marseille","lat":43.314811,"lon":5.373103,"is_reserved":false,"is_disabled":false,"rental_uris":{"android":"levelo://app?vid=76c859a9-43fe-4dfd-b4c0-cb5d7c555379","ios":"levelo://app?vid=76c859a9-43fe-4dfd-b4c0-cb5d7c555379"},"vehicle_type_id":"4","last_reported":1684595138,"current_range_meters":31600,"station_id":"ce4bgt12rcd13ifvqcd0","pricing_plan_id":"free"},{"bike_id":"6ca69b6f-42e7-45a5-a4a3-1d63b3381e4b","system_id":"levelo_inurba_marseille","lat":43.314811,"lon":5.373104,"is_reserved":false,"is_disabled":false,"rental_uris":{"android":"levelo://app?vid=6ca69b6f-42e7-45a5-a4a3-1d63b3381e4b","ios":"levelo://app?vid=6ca69b6f-42e7-45a5-a4a3-1d63b3381e4b"},"vehicle_type_id":"4","last_reported":1684595138,"current_range_meters":31200,"station_id":"ce4bgt12rcd13ifvqcd0","pricing_plan_id":"free"},{"bike_id":"a859eca8-c92d-499c-b94d-3fa3b6fe3d94","system_id":"levelo_inurba_marseille","lat":43.314811,"lon":5.373104,"is_reserved":false,"is_disabled":false,"rental_uris":{"android":"levelo://app?vid=a859eca8-c92d-499c-b94d-3fa3b6fe3d94","ios":"levelo://app?vid=a859eca8-c92d-499c-b94d-3fa3b6fe3d94"},"vehicle_type_id":"4","last_reported":1684595138,"current_range_meters":31200,"station_id":"ce4bgt12rcd13ifvqcd0","pricing_plan_id":"free"},{"bike_id":"9d24faaf-5c29-4e94-896c-1ae6942c7ab3","system_id":"levelo_inurba_marseille","lat":43.314811,"lon":5.373103,"is_reserved":false,"is_disabled":false,"rental_uris":{"android":"levelo://app?vid=9d24faaf-5c29-4e94-896c-1ae6942c7ab3","ios":"levelo://app?vid=9d24faaf-5c29-4e94-896c-1ae6942c7ab3"},"vehicle_type_id":"4","last_reported":1684595138,"current_range_meters":31200,"station_id":"ce4bgt12rcd13ifvqcd0","pricing_plan_id":"free"},{"bike_id":"9fb31f67-25a5-4ed0-a561-b971e76c31f6","system_id":"levelo_inurba_marseille","lat":43.314811,"lon":5.373103,"is_reserved":false,"is_disabled":false,"rental_uris":{"android":"levelo://app?vid=9fb31f67-25a5-4ed0-a561-b971e76c31f6","ios":"levelo://app?vid=9fb31f67-25a5-4ed0-a561-b971e76c31f6"},"vehicle_type_id":"4","last_reported":1684595138,"current_range_meters":23600,"station_id":"ce4bgt12rcd13ifvqcd0","pricing_plan_id":"free"},{"bike_id":"f1430af0-7f1d-41ac-a330-5ec023bd4fa5","system_id":"levelo_inurba_marseille","lat":43.314811,"lon":5.373103,"is_reserved":false,"is_disabled":false,"rental_uris":{"android":"levelo://app?vid=f1430af0-7f1d-41ac-a330-5ec023bd4fa5","ios":"levelo://app?vid=f1430af0-7f1d-41ac-a330-5ec023bd4fa5"},"vehicle_type_id":"4","last_reported":1684595138,"current_range_meters":12400,"station_id":"ce4bgt12rcd13ifvqcd0","pricing_plan_id":"free"},{"bike_id":"306387f1-7539-458d-9c7c-1d3f902480fc","system_id":"levelo_inurba_marseille","lat":43.314811,"lon":5.373103,"is_reserved":false,"is_disabled":false,"rental_uris":{"android":"levelo://app?vid=306387f1-7539-458d-9c7c-1d3f902480fc","ios":"levelo://app?vid=306387f1-7539-458d-9c7c-1d3f902480fc"},"vehicle_type_id":"4","last_reported":1684595138,"current_range_meters":19200,"station_id":"ce4bgt12rcd13ifvqcd0","pricing_plan_id":"free"},{"bike_id":"07257d4a-4414-467a-9b29-b7a10a3b35b4","system_id":"levelo_inurba_marseille","lat":43.308614,"lon":5.372098,"is_reserved":false,"is_disabled":false,"rental_uris":{"android":"levelo://app?vid=07257d4a-4414-467a-9b29-b7a10a3b35b4","ios":"levelo://app?vid=07257d4a-4414-467a-9b29-b7a10a3b35b4"},"vehicle_type_id":"4","last_reported":1684595138,"current_range_meters":16400,"station_id":"ce4bguh2rcd13ifvqckg","pricing_plan_id":"free"},{"bike_id":"acc655be-1ac8-44c3-bfe5-4d7c50c74af0","system_id":"levelo_inurba_marseille","lat":43.30538,"lon":5.36689,"is_reserved":false,"is_disabled":false,"rental_uris":{"android":"levelo://app?vid=acc655be-1ac8-44c3-bfe5-4d7c50c74af0","ios":"levelo://app?vid=acc655be-1ac8-44c3-bfe5-4d7c50c74af0"},"vehicle_type_id":"4","last_reported":1684595138,"current_range_meters":9600,"station_id":"","pricing_plan_id":"free"},{"bike_id":"a1fde5e7-b1a8-4319-9b71-58f98b3e3ae2","system_id":"levelo_inurba_marseille","lat":43.30542,"lon":5.36557,"is_reserved":false,"is_disabled":false,"rental_uris":{"android":"levelo://app?vid=a1fde5e7-b1a8-4319-9b71-58f98b3e3ae2","ios":"levelo://app?vid=a1fde5e7-b1a8-4319-9b71-58f98b3e3ae2"},"vehicle_type_id":"4","last_reported":1684595138,"current_range_meters":23200,"station_id":"","pricing_plan_id":"free"},{"bike_id":"c2d5b29b-5894-450c-89bc-d48feb8d795f","system_id":"levelo_inurba_marseille","lat":43.311131,"lon":5.377651,"is_reserved":false,"is_disabled":false,"rental_uris":{"android":"levelo://app?vid=c2d5b29b-5894-450c-89bc-d48feb8d795f","ios":"levelo://app?vid=c2d5b29b-5894-450c-89bc-d48feb8d795f"},"vehicle_type_id":"4","last_reported":1684595138,"current_range_meters":12000,"station_id":"ce4bgt92rcd13ifvqcg0","pricing_plan_id":"free"},{"bike_id":"e58fedb9-a57d-4be1-8ab0-757e8b5b800f","system_id":"levelo_inurba_marseille","lat":43.31709,"lon":5.37653,"is_reserved":false,"is_disabled":false,"rental_uris":{"android":"levelo://app?vid=e58fedb9-a57d-4be1-8ab0-757e8b5b800f","ios":"levelo://app?vid=e58fedb9-a57d-4be1-8ab0-757e8b5b800f"},"vehicle_type_id":"4","last_reported":1684595138,"current_range_meters":4400,"station_id":"","pricing_plan_id":"free"},{"bike_id":"3fdf3590-377d-4457-aec6-c56425f43c68","system_id":"levelo_inurba_marseille","lat":43.31719,"lon":5.37664,"is_reserved":false,"is_disabled":false,"rental_uris":{"android":"levelo://app?vid=3fdf3590-377d-4457-aec6-c56425f43c68","ios":"levelo://app?vid=3fdf3590-377d-4457-aec6-c56425f43c68"},"vehicle_type_id":"4","last_reported":1684595138,"current_range_meters":400,"station_id":"","pricing_plan_id":"free"},{"bike_id":"906de340-506a-4f05-9639-8551c35c3cf4","system_id":"levelo_inurba_marseille","lat":43.317075,"lon":5.377367,"is_reserved":false,"is_disabled":false,"rental_uris":{"android":"levelo://app?vid=906de340-506a-4f05-9639-8551c35c3cf4","ios":"levelo://app?vid=906de340-506a-4f05-9639-8551c35c3cf4"},"vehicle_type_id":"4","last_reported":1684595138,"current_range_meters":26400,"station_id":"ce4bgth2rcd13ifvqch0","pricing_plan_id":"free"},{"bike_id":"c27523af-0050-40ba-86ce-6f147ab29d86","system_id":"levelo_inurba_marseille","lat":43.317075,"lon":5.377367,"is_reserved":false,"is_disabled":false,"rental_uris":{"android":"levelo://app?vid=c27523af-0050-40ba-86ce-6f147ab29d86","ios":"levelo://app?vid=c27523af-0050-40ba-86ce-6f147ab29d86"},"vehicle_type_id":"4","last_reported":1684595138,"current_range_meters":12800,"station_id":"ce4bgth2rcd13ifvqch0","pricing_plan_id":"free"},{"bike_id":"9f53324e-4118-4eb1-ae1f-c18ea90a6e62","system_id":"levelo_inurba_marseille","lat":43.31716,"lon":5.37742,"is_reserved":false,"is_disabled":false,"rental_uris":{"android":"levelo://app?vid=9f53324e-4118-4eb1-ae1f-c18ea90a6e62","ios":"levelo://app?vid=9f53324e-4118-4eb1-ae1f-c18ea90a6e62"},"vehicle_type_id":"4","last_reported":1684595138,"current_range_meters":28400,"station_id":"ce4bgth2rcd13ifvqch0","pricing_plan_id":"free"},{"bike_id":"1882916f-80f8-41b8-b1de-6c334bcf1f0b","system_id":"levelo_inurba_marseille","lat":43.317075,"lon":5.377367,"is_reserved":false,"is_disabled":false,"rental_uris":{"android":"levelo://app?vid=1882916f-80f8-41b8-b1de-6c334bcf1f0b","ios":"levelo://app?vid=1882916f-80f8-41b8-b1de-6c334bcf1f0b"},"vehicle_type_id":"4","last_reported":1684595138,"current_range_meters":31200,"station_id":"ce4bgth2rcd13ifvqch0","pricing_plan_id":"free"},{"bike_id":"0078ed9e-b1d3-4be5-b1d3-1bb4b000cc58","system_id":"levelo_inurba_marseille","lat":43.303046,"lon":5.368981,"is_reserved":false,"is_disabled":false,"rental_uris":{"android":"levelo://app?vid=0078ed9e-b1d3-4be5-b1d3-1bb4b000cc58","ios":"levelo://app?vid=0078ed9e-b1d3-4be5-b1d3-1bb4b000cc58"},"vehicle_type_id":"4","last_reported":1684595138,"current_range_meters":19600,"station_id":"ce4bgqh2rcd13ifvqc5g","pricing_plan_id":"free"},{"bike_id":"5192cc1a-7ddf-413c-9e2e-1b16a3fad126","system_id":"levelo_inurba_marseille","lat":43.303046,"lon":5.368981,"is_reserved":false,"is_disabled":false,"rental_uris":{"android":"levelo://app?vid=5192cc1a-7ddf-413c-9e2e-1b16a3fad126","ios":"levelo://app?vid=5192cc1a-7ddf-413c-9e2e-1b16a3fad126"},"vehicle_type_id":"4","last_reported":1684595138,"current_range_meters":29600,"station_id":"ce4bgqh2rcd13ifvqc5g","pricing_plan_id":"free"},{"bike_id":"752d47ae-6d5c-4077-8a80-524f92481ff9","system_id":"levelo_inurba_marseille","lat":43.30312,"lon":5.36915,"is_reserved":false,"is_disabled":false,"rental_uris":{"android":"levelo://app?vid=752d47ae-6d5c-4077-8a80-524f92481ff9","ios":"levelo://app?vid=752d47ae-6d5c-4077-8a80-524f92481ff9"},"vehicle_type_id":"4","last_reported":1684595138,"current_range_meters":26800,"station_id":"ce4bgqh2rcd13ifvqc5g","pricing_plan_id":"free"},{"bike_id":"ab20cd49-961a-48e1-846d-65b515192c98","system_id":"levelo_inurba_marseille","lat":43.315289,"lon":5.380349,"is_reserved":false,"is_disabled":false,"rental_uris":{"android":"levelo://app?vid=ab20cd49-961a-48e1-846d-65b515192c98","ios":"levelo://app?vid=ab20cd49-961a-48e1-846d-65b515192c98"},"vehicle_type_id":"4","last_reported":1684595138,"current_range_meters":31200,"station_id":"ce4bhsp2rcd13ifvqi50","pricing_plan_id":"free"},{"bike_id":"d99c0da1-bfcd-4841-9f15-53b8169a05fe","system_id":"levelo_inurba_marseille","lat":43.315289,"lon":5.380349,"is_reserved":false,"is_disabled":false,"rental_uris":{"android":"levelo://app?vid=d99c0da1-bfcd-4841-9f15-53b8169a05fe","ios":"levelo://app?vid=d99c0da1-bfcd-4841-9f15-53b8169a05fe"},"vehicle_type_id":"4","last_reported":1684595138,"current_range_meters":9600,"station_id":"ce4bhsp2rcd13ifvqi50","pricing_plan_id":"free"},{"bike_id":"6cef0f68-c55e-4c13-ac0e-9ddb93e38dd6","system_id":"levelo_inurba_marseille","lat":43.315289,"lon":5.380349,"is_reserved":false,"is_disabled":false,"rental_uris":{"android":"levelo://app?vid=6cef0f68-c55e-4c13-ac0e-9ddb93e38dd6","ios":"levelo://app?vid=6cef0f68-c55e-4c13-ac0e-9ddb93e38dd6"},"vehicle_type_id":"4","last_reported":1684595138,"current_range_meters":19600,"station_id":"ce4bhsp2rcd13ifvqi50","pricing_plan_id":"free"},{"bike_id":"759d092a-9aee-4e39-8d64-c1b7b866e975","system_id":"levelo_inurba_marseille","lat":43.315293,"lon":5.380349,"is_reserved":false,"is_disabled":false,"rental_uris":{"android":"levelo://app?vid=759d092a-9aee-4e39-8d64-c1b7b866e975","ios":"levelo://app?vid=759d092a-9aee-4e39-8d64-c1b7b866e975"},"vehicle_type_id":"4","last_reported":1684595138,"current_range_meters":25200,"station_id":"ce4bhsp2rcd13ifvqi50","pricing_plan_id":"free"},{"bike_id":"3e98a62f-abff-482a-8455-88ddd6d662f4","system_id":"levelo_inurba_marseille","lat":43.301939,"lon":5.366286,"is_reserved":false,"is_disabled":false,"rental_uris":{"android":"levelo://app?vid=3e98a62f-abff-482a-8455-88ddd6d662f4","ios":"levelo://app?vid=3e98a62f-abff-482a-8455-88ddd6d662f4"},"vehicle_type_id":"4","last_reported":1684595138,"current_range_meters":27600,"station_id":"ce4bgrh2rcd13ifvqc8g","pricing_plan_id":"free"},{"bike_id":"c0fc9ba2-97ca-44ad-94ee-801e394fc084","system_id":"levelo_inurba_marseille","lat":43.301939,"lon":5.366286,"is_reserved":false,"is_disabled":false,"rental_uris":{"android":"levelo://app?vid=c0fc9ba2-97ca-44ad-94ee-801e394fc084","ios":"levelo://app?vid=c0fc9ba2-97ca-44ad-94ee-801e394fc084"},"vehicle_type_id":"4","last_reported":1684595138,"current_range_meters":29200,"station_id":"ce4bgrh2rcd13ifvqc8g","pricing_plan_id":"free"},{"bike_id":"df634721-f2a3-4f9d-8197-d7da6eee01c7","system_id":"levelo_inurba_marseille","lat":43.30474,"lon":5.379,"is_reserved":false,"is_disabled":false,"rental_uris":{"android":"levelo://app?vid=df634721-f2a3-4f9d-8197-d7da6eee01c7","ios":"levelo://app?vid=df634721-f2a3-4f9d-8197-d7da6eee01c7"},"vehicle_type_id":"4","last_reported":1684595138,"current_range_meters":27200,"station_id":"ce4bgup2rcd13ifvqcn0","pricing_plan_id":"free"},{"bike_id":"e764740a-f089-4ab0-a09b-911654ea93b2","system_id":"levelo_inurba_marseille","lat":43.304606,"lon":5.379026,"is_reserved":false,"is_disabled":false,"rental_uris":{"android":"levelo://app?vid=e764740a-f089-4ab0-a09b-911654ea93b2","ios":"levelo://app?vid=e764740a-f089-4ab0-a09b-911654ea93b2"},"vehicle_type_id":"4","last_reported":1684595138,"current_range_meters":27600,"station_id":"ce4bgup2rcd13ifvqcn0","pricing_plan_id":"free"},{"bike_id":"43eab4f9-af4a-44d1-80c2-9adf6ea8dc4e","system_id":"levelo_inurba_marseille","lat":43.304606,"lon":5.379026,"is_reserved":false,"is_disabled":false,"rental_uris":{"android":"levelo://app?vid=43eab4f9-af4a-44d1-80c2-9adf6ea8dc4e","ios":"levelo://app?vid=43eab4f9-af4a-44d1-80c2-9adf6ea8dc4e"},"vehicle_type_id":"4","last_reported":1684595138,"current_range_meters":23200,"station_id":"ce4bgup2rcd13ifvqcn0","pricing_plan_id":"free"},{"bike_id":"2fd9f21d-a6b9-46e0-9381-3d23c8bc9076","system_id":"levelo_inurba_marseille","lat":43.304606,"lon":5.379026,"is_reserved":false,"is_disabled":false,"rental_uris":{"android":"levelo://app?vid=2fd9f21d-a6b9-46e0-9381-3d23c8bc9076","ios":"levelo://app?vid=2fd9f21d-a6b9-46e0-9381-3d23c8bc9076"},"vehicle_type_id":"4","last_reported":1684595138,"current_range_meters":13600,"station_id":"ce4bgup2rcd13ifvqcn0","pricing_plan_id":"free"},{"bike_id":"6e51f503-ac6e-432c-bd63-6498705dcf5d","system_id":"levelo_inurba_marseille","lat":43.304606,"lon":5.379026,"is_reserved":false,"is_disabled":false,"rental_uris":{"android":"levelo://app?vid=6e51f503-ac6e-432c-bd63-6498705dcf5d","ios":"levelo://app?vid=6e51f503-ac6e-432c-bd63-6498705dcf5d"},"vehicle_type_id":"4","last_reported":1684595138,"current_range_meters":31200,"station_id":"ce4bgup2rcd13ifvqcn0","pricing_plan_id":"free"},{"bike_id":"75847864-15af-4d0c-92e0-844695cbad5f","system_id":"levelo_inurba_marseille","lat":43.304606,"lon":5.379026,"is_reserved":false,"is_disabled":false,"rental_uris":{"android":"levelo://app?vid=75847864-15af-4d0c-92e0-844695cbad5f","ios":"levelo://app?vid=75847864-15af-4d0c-92e0-844695cbad5f"},"vehicle_type_id":"4","last_reported":1684595138,"current_range_meters":8400,"station_id":"ce4bgup2rcd13ifvqcn0","pricing_plan_id":"free"},{"bike_id":"c6026e33-3ee3-4a3b-bc2a-4537b79089c6","system_id":"levelo_inurba_marseille","lat":43.304606,"lon":5.379026,"is_reserved":false,"is_disabled":false,"rental_uris":{"android":"levelo://app?vid=c6026e33-3ee3-4a3b-bc2a-4537b79089c6","ios":"levelo://app?vid=c6026e33-3ee3-4a3b-bc2a-4537b79089c6"},"vehicle_type_id":"4","last_reported":1684595138,"current_range_meters":14800,"station_id":"ce4bgup2rcd13ifvqcn0","pricing_plan_id":"free"},{"bike_id":"f085e24f-df6d-4190-82c8-5a5a81653ac8","system_id":"levelo_inurba_marseille","lat":43.29941,"lon":5.36538,"is_reserved":false,"is_disabled":false,"rental_uris":{"android":"levelo://app?vid=f085e24f-df6d-4190-82c8-5a5a81653ac8","ios":"levelo://app?vid=f085e24f-df6d-4190-82c8-5a5a81653ac8"},"vehicle_type_id":"4","last_reported":1684595138,"current_range_meters":14800,"station_id":"ce4bgm92rcd13ifvqbr0","pricing_plan_id":"free"},{"bike_id":"05173ab3-25d6-4130-92dd-e49c73352df7","system_id":"levelo_inurba_marseille","lat":43.299222,"lon":5.365554,"is_reserved":false,"is_disabled":false,"rental_uris":{"android":"levelo://app?vid=05173ab3-25d6-4130-92dd-e49c73352df7","ios":"levelo://app?vid=05173ab3-25d6-4130-92dd-e49c73352df7"},"vehicle_type_id":"4","last_reported":1684595138,"current_range_meters":10000,"station_id":"ce4bgm92rcd13ifvqbr0","pricing_plan_id":"free"},{"bike_id":"80f05152-3bba-48fb-8357-a5ce030743be","system_id":"levelo_inurba_marseille","lat":43.298433,"lon":5.362774,"is_reserved":false,"is_disabled":false,"rental_uris":{"android":"levelo://app?vid=80f05152-3bba-48fb-8357-a5ce030743be","ios":"levelo://app?vid=80f05152-3bba-48fb-8357-a5ce030743be"},"vehicle_type_id":"4","last_reported":1684595138,"current_range_meters":29200,"station_id":"ce4bgpp2rcd13ifvqc3g","pricing_plan_id":"free"},{"bike_id":"1fdf51f9-0d2b-4577-8763-3c0505551c83","system_id":"levelo_inurba_marseille","lat":43.305364,"lon":5.384119,"is_reserved":false,"is_disabled":false,"rental_uris":{"android":"levelo://app?vid=1fdf51f9-0d2b-4577-8763-3c0505551c83","ios":"levelo://app?vid=1fdf51f9-0d2b-4577-8763-3c0505551c83"},"vehicle_type_id":"4","last_reported":1684595138,"current_range_meters":21600,"station_id":"ce4bgg92rcd13ifvqb30","pricing_plan_id":"free"},{"bike_id":"aa7ff445-8562-4b4b-b18c-16a6ff539ecf","system_id":"levelo_inurba_marseille","lat":43.29852,"lon":5.36284,"is_reserved":false,"is_disabled":false,"rental_uris":{"android":"levelo://app?vid=aa7ff445-8562-4b4b-b18c-16a6ff539ecf","ios":"levelo://app?vid=aa7ff445-8562-4b4b-b18c-16a6ff539ecf"},"vehicle_type_id":"4","last_reported":1684595138,"current_range_meters":23600,"station_id":"ce4bgpp2rcd13ifvqc3g","pricing_plan_id":"free"},{"bike_id":"320ab738-dfa6-4ea6-9993-531b5553048f","system_id":"levelo_inurba_marseille","lat":43.298433,"lon":5.362774,"is_reserved":false,"is_disabled":false,"rental_uris":{"android":"levelo://app?vid=320ab738-dfa6-4ea6-9993-531b5553048f","ios":"levelo://app?vid=320ab738-dfa6-4ea6-9993-531b5553048f"},"vehicle_type_id":"4","last_reported":1684595138,"current_range_meters":31600,"station_id":"ce4bgpp2rcd13ifvqc3g","pricing_plan_id":"free"},{"bike_id":"45636394-3052-4d23-9f48-d9b6bb2ec109","system_id":"levelo_inurba_marseille","lat":43.298433,"lon":5.362774,"is_reserved":false,"is_disabled":false,"rental_uris":{"android":"levelo://app?vid=45636394-3052-4d23-9f48-d9b6bb2ec109","ios":"levelo://app?vid=45636394-3052-4d23-9f48-d9b6bb2ec109"},"vehicle_type_id":"4","last_reported":1684595138,"current_range_meters":23600,"station_id":"ce4bgpp2rcd13ifvqc3g","pricing_plan_id":"free"},{"bike_id":"ed8d5811-c415-478c-b30e-895653ab7ccc","system_id":"levelo_inurba_marseille","lat":43.298433,"lon":5.362774,"is_reserved":false,"is_disabled":false,"rental_uris":{"android":"levelo://app?vid=ed8d5811-c415-478c-b30e-895653ab7ccc","ios":"levelo://app?vid=ed8d5811-c415-478c-b30e-895653ab7ccc"},"vehicle_type_id":"4","last_reported":1684595138,"current_range_meters":31200,"station_id":"ce4bgpp2rcd13ifvqc3g","pricing_plan_id":"free"},{"bike_id":"6a37c2f6-9a0c-4fce-9917-dd86d0698391","system_id":"levelo_inurba_marseille","lat":43.298433,"lon":5.362774,"is_reserved":false,"is_disabled":false,"rental_uris":{"android":"levelo://app?vid=6a37c2f6-9a0c-4fce-9917-dd86d0698391","ios":"levelo://app?vid=6a37c2f6-9a0c-4fce-9917-dd86d0698391"},"vehicle_type_id":"4","last_reported":1684595138,"current_range_meters":31200,"station_id":"ce4bgpp2rcd13ifvqc3g","pricing_plan_id":"free"},{"bike_id":"d5949ea9-e3ae-4689-b3d2-1ca3f20029d5","system_id":"levelo_inurba_marseille","lat":43.298433,"lon":5.362774,"is_reserved":false,"is_disabled":false,"rental_uris":{"android":"levelo://app?vid=d5949ea9-e3ae-4689-b3d2-1ca3f20029d5","ios":"levelo://app?vid=d5949ea9-e3ae-4689-b3d2-1ca3f20029d5"},"vehicle_type_id":"4","last_reported":1684595138,"current_range_meters":28000,"station_id":"ce4bgpp2rcd13ifvqc3g","pricing_plan_id":"free"},{"bike_id":"8e32c54d-e60e-4b31-a1ba-3e43487b6396","system_id":"levelo_inurba_marseille","lat":43.298433,"lon":5.362774,"is_reserved":false,"is_disabled":false,"rental_uris":{"android":"levelo://app?vid=8e32c54d-e60e-4b31-a1ba-3e43487b6396","ios":"levelo://app?vid=8e32c54d-e60e-4b31-a1ba-3e43487b6396"},"vehicle_type_id":"4","last_reported":1684595138,"current_range_meters":14400,"station_id":"ce4bgpp2rcd13ifvqc3g","pricing_plan_id":"free"},{"bike_id":"01e96c95-256d-4b6d-bc1f-ffa12e6f4e5c","system_id":"levelo_inurba_marseille","lat":43.305364,"lon":5.384119,"is_reserved":false,"is_disabled":false,"rental_uris":{"android":"levelo://app?vid=01e96c95-256d-4b6d-bc1f-ffa12e6f4e5c","ios":"levelo://app?vid=01e96c95-256d-4b6d-bc1f-ffa12e6f4e5c"},"vehicle_type_id":"4","last_reported":1684595138,"current_range_meters":20000,"station_id":"ce4bgg92rcd13ifvqb30","pricing_plan_id":"free"},{"bike_id":"037c7774-6d20-43de-96ba-8dda1ef805be","system_id":"levelo_inurba_marseille","lat":43.299243,"lon":5.37481,"is_reserved":false,"is_disabled":false,"rental_uris":{"android":"levelo://app?vid=037c7774-6d20-43de-96ba-8dda1ef805be","ios":"levelo://app?vid=037c7774-6d20-43de-96ba-8dda1ef805be"},"vehicle_type_id":"4","last_reported":1684595138,"current_range_meters":30400,"station_id":"ce4bgjh2rcd13ifvqbg0","pricing_plan_id":"free"},{"bike_id":"a31aff0a-c4e7-4d22-a2f7-60a11282f7ea","system_id":"levelo_inurba_marseille","lat":43.298433,"lon":5.362774,"is_reserved":false,"is_disabled":false,"rental_uris":{"android":"levelo://app?vid=a31aff0a-c4e7-4d22-a2f7-60a11282f7ea","ios":"levelo://app?vid=a31aff0a-c4e7-4d22-a2f7-60a11282f7ea"},"vehicle_type_id":"4","last_reported":1684595138,"current_range_meters":20400,"station_id":"ce4bgpp2rcd13ifvqc3g","pricing_plan_id":"free"},{"bike_id":"50712111-04a1-497c-8d47-3898ce4a48a7","system_id":"levelo_inurba_marseille","lat":43.298433,"lon":5.362774,"is_reserved":false,"is_disabled":false,"rental_uris":{"android":"levelo://app?vid=50712111-04a1-497c-8d47-3898ce4a48a7","ios":"levelo://app?vid=50712111-04a1-497c-8d47-3898ce4a48a7"},"vehicle_type_id":"4","last_reported":1684595138,"current_range_meters":24000,"station_id":"ce4bgpp2rcd13ifvqc3g","pricing_plan_id":"free"},{"bike_id":"38bf2caf-492c-420a-8f64-c673a10130f0","system_id":"levelo_inurba_marseille","lat":43.298433,"lon":5.362774,"is_reserved":false,"is_disabled":false,"rental_uris":{"android":"levelo://app?vid=38bf2caf-492c-420a-8f64-c673a10130f0","ios":"levelo://app?vid=38bf2caf-492c-420a-8f64-c673a10130f0"},"vehicle_type_id":"4","last_reported":1684595138,"current_range_meters":31200,"station_id":"ce4bgpp2rcd13ifvqc3g","pricing_plan_id":"free"},{"bike_id":"ee20782b-ef17-43fe-8e50-6b751cc7e9f1","system_id":"levelo_inurba_marseille","lat":43.299243,"lon":5.37481,"is_reserved":false,"is_disabled":false,"rental_uris":{"android":"levelo://app?vid=ee20782b-ef17-43fe-8e50-6b751cc7e9f1","ios":"levelo://app?vid=ee20782b-ef17-43fe-8e50-6b751cc7e9f1"},"vehicle_type_id":"4","last_reported":1684595138,"current_range_meters":28800,"station_id":"ce4bgjh2rcd13ifvqbg0","pricing_plan_id":"free"},{"bike_id":"17758178-c0e1-4742-a332-e2df57be5107","system_id":"levelo_inurba_marseille","lat":43.29917,"lon":5.37472,"is_reserved":false,"is_disabled":false,"rental_uris":{"android":"levelo://app?vid=17758178-c0e1-4742-a332-e2df57be5107","ios":"levelo://app?vid=17758178-c0e1-4742-a332-e2df57be5107"},"vehicle_type_id":"4","last_reported":1684595138,"current_range_meters":24000,"station_id":"ce4bgjh2rcd13ifvqbg0","pricing_plan_id":"free"},{"bike_id":"baccddb9-da8e-42fc-958a-9e99316a1d47","system_id":"levelo_inurba_marseille","lat":43.299243,"lon":5.37481,"is_reserved":false,"is_disabled":false,"rental_uris":{"android":"levelo://app?vid=baccddb9-da8e-42fc-958a-9e99316a1d47","ios":"levelo://app?vid=baccddb9-da8e-42fc-958a-9e99316a1d47"},"vehicle_type_id":"4","last_reported":1684595138,"current_range_meters":31200,"station_id":"ce4bgjh2rcd13ifvqbg0","pricing_plan_id":"free"},{"bike_id":"03f61aa8-dd38-4b6b-b039-96ac3fa905c4","system_id":"levelo_inurba_marseille","lat":43.299243,"lon":5.37481,"is_reserved":false,"is_disabled":false,"rental_uris":{"android":"levelo://app?vid=03f61aa8-dd38-4b6b-b039-96ac3fa905c4","ios":"levelo://app?vid=03f61aa8-dd38-4b6b-b039-96ac3fa905c4"},"vehicle_type_id":"4","last_reported":1684595138,"current_range_meters":26000,"station_id":"ce4bgjh2rcd13ifvqbg0","pricing_plan_id":"free"},{"bike_id":"23477cfb-954f-4ffd-8830-dd97ca27b188","system_id":"levelo_inurba_marseille","lat":43.298433,"lon":5.362774,"is_reserved":false,"is_disabled":false,"rental_uris":{"android":"levelo://app?vid=23477cfb-954f-4ffd-8830-dd97ca27b188","ios":"levelo://app?vid=23477cfb-954f-4ffd-8830-dd97ca27b188"},"vehicle_type_id":"4","last_reported":1684595138,"current_range_meters":1600,"station_id":"ce4bgpp2rcd13ifvqc3g","pricing_plan_id":"free"},{"bike_id":"9c0ded32-e85d-497c-98fb-6e6b16fbf002","system_id":"levelo_inurba_marseille","lat":43.311722,"lon":5.387247,"is_reserved":false,"is_disabled":false,"rental_uris":{"android":"levelo://app?vid=9c0ded32-e85d-497c-98fb-6e6b16fbf002","ios":"levelo://app?vid=9c0ded32-e85d-497c-98fb-6e6b16fbf002"},"vehicle_type_id":"4","last_reported":1684595138,"current_range_meters":1600,"station_id":"ce4bgv12rcd13ifvqcp0","pricing_plan_id":"free"},{"bike_id":"9e378d0f-f50e-4b68-901b-f9db900d227a","system_id":"levelo_inurba_marseille","lat":43.311722,"lon":5.387247,"is_reserved":false,"is_disabled":false,"rental_uris":{"android":"levelo://app?vid=9e378d0f-f50e-4b68-901b-f9db900d227a","ios":"levelo://app?vid=9e378d0f-f50e-4b68-901b-f9db900d227a"},"vehicle_type_id":"4","last_reported":1684595138,"current_range_meters":22000,"station_id":"ce4bgv12rcd13ifvqcp0","pricing_plan_id":"free"},{"bike_id":"71a7cd51-c98e-4b63-902f-c2f5a808a065","system_id":"levelo_inurba_marseille","lat":43.32769,"lon":5.36697,"is_reserved":false,"is_disabled":false,"rental_uris":{"android":"levelo://app?vid=71a7cd51-c98e-4b63-902f-c2f5a808a065","ios":"levelo://app?vid=71a7cd51-c98e-4b63-902f-c2f5a808a065"},"vehicle_type_id":"4","last_reported":1684595138,"current_range_meters":22400,"station_id":"","pricing_plan_id":"free"},{"bike_id":"5cf7ffc9-a389-4209-a251-5b3b341d543c","system_id":"levelo_inurba_marseille","lat":43.297794,"lon":5.370888,"is_reserved":false,"is_disabled":false,"rental_uris":{"android":"levelo://app?vid=5cf7ffc9-a389-4209-a251-5b3b341d543c","ios":"levelo://app?vid=5cf7ffc9-a389-4209-a251-5b3b341d543c"},"vehicle_type_id":"4","last_reported":1684595138,"current_range_meters":31200,"station_id":"ce4bgop2rcd13ifvqc1g","pricing_plan_id":"free"},{"bike_id":"1d06c517-0229-436f-ac7c-513e5c37a3e1","system_id":"levelo_inurba_marseille","lat":43.29794,"lon":5.37105,"is_reserved":false,"is_disabled":false,"rental_uris":{"android":"levelo://app?vid=1d06c517-0229-436f-ac7c-513e5c37a3e1","ios":"levelo://app?vid=1d06c517-0229-436f-ac7c-513e5c37a3e1"},"vehicle_type_id":"4","last_reported":1684595138,"current_range_meters":4000,"station_id":"ce4bgop2rcd13ifvqc1g","pricing_plan_id":"free"},{"bike_id":"3a71f41b-23a8-4407-ba65-e6ca37d7f313","system_id":"levelo_inurba_marseille","lat":43.29793,"lon":5.37105,"is_reserved":false,"is_disabled":false,"rental_uris":{"android":"levelo://app?vid=3a71f41b-23a8-4407-ba65-e6ca37d7f313","ios":"levelo://app?vid=3a71f41b-23a8-4407-ba65-e6ca37d7f313"},"vehicle_type_id":"4","last_reported":1684595138,"current_range_meters":28000,"station_id":"ce4bgop2rcd13ifvqc1g","pricing_plan_id":"free"},{"bike_id":"f3dca833-0d78-473c-8932-aba6100d2cc4","system_id":"levelo_inurba_marseille","lat":43.2979,"lon":5.37108,"is_reserved":false,"is_disabled":false,"rental_uris":{"android":"levelo://app?vid=f3dca833-0d78-473c-8932-aba6100d2cc4","ios":"levelo://app?vid=f3dca833-0d78-473c-8932-aba6100d2cc4"},"vehicle_type_id":"4","last_reported":1684595138,"current_range_meters":22400,"station_id":"ce4bgop2rcd13ifvqc1g","pricing_plan_id":"free"},{"bike_id":"c93f1c63-b12b-4280-a8de-ee4084296d56","system_id":"levelo_inurba_marseille","lat":43.29786,"lon":5.37094,"is_reserved":false,"is_disabled":false,"rental_uris":{"android":"levelo://app?vid=c93f1c63-b12b-4280-a8de-ee4084296d56","ios":"levelo://app?vid=c93f1c63-b12b-4280-a8de-ee4084296d56"},"vehicle_type_id":"4","last_reported":1684595138,"current_range_meters":22000,"station_id":"ce4bgop2rcd13ifvqc1g","pricing_plan_id":"free"},{"bike_id":"f6125cd9-9865-47e7-b252-332a74b0e971","system_id":"levelo_inurba_marseille","lat":43.29787,"lon":5.37101,"is_reserved":false,"is_disabled":false,"rental_uris":{"android":"levelo://app?vid=f6125cd9-9865-47e7-b252-332a74b0e971","ios":"levelo://app?vid=f6125cd9-9865-47e7-b252-332a74b0e971"},"vehicle_type_id":"4","last_reported":1684595138,"current_range_meters":29600,"station_id":"ce4bgop2rcd13ifvqc1g","pricing_plan_id":"free"},{"bike_id":"b170e83f-556e-424f-a7a2-974cb62ee2e7","system_id":"levelo_inurba_marseille","lat":43.29784,"lon":5.37105,"is_reserved":false,"is_disabled":false,"rental_uris":{"android":"levelo://app?vid=b170e83f-556e-424f-a7a2-974cb62ee2e7","ios":"levelo://app?vid=b170e83f-556e-424f-a7a2-974cb62ee2e7"},"vehicle_type_id":"4","last_reported":1684595138,"current_range_meters":20400,"station_id":"ce4bgop2rcd13ifvqc1g","pricing_plan_id":"free"},{"bike_id":"5a5b6c01-5dbd-46cb-b139-b617309fc836","system_id":"levelo_inurba_marseille","lat":43.29783,"lon":5.37105,"is_reserved":false,"is_disabled":false,"rental_uris":{"android":"levelo://app?vid=5a5b6c01-5dbd-46cb-b139-b617309fc836","ios":"levelo://app?vid=5a5b6c01-5dbd-46cb-b139-b617309fc836"},"vehicle_type_id":"4","last_reported":1684595138,"current_range_meters":14400,"station_id":"ce4bgop2rcd13ifvqc1g","pricing_plan_id":"free"},{"bike_id":"41a2b8f0-2bb4-48af-b01a-5624103b582f","system_id":"levelo_inurba_marseille","lat":43.2978,"lon":5.37093,"is_reserved":false,"is_disabled":false,"rental_uris":{"android":"levelo://app?vid=41a2b8f0-2bb4-48af-b01a-5624103b582f","ios":"levelo://app?vid=41a2b8f0-2bb4-48af-b01a-5624103b582f"},"vehicle_type_id":"4","last_reported":1684595138,"current_range_meters":22400,"station_id":"ce4bgop2rcd13ifvqc1g","pricing_plan_id":"free"},{"bike_id":"64001894-e867-49a0-b7c1-d2b4e50b966d","system_id":"levelo_inurba_marseille","lat":43.29779,"lon":5.37101,"is_reserved":false,"is_disabled":false,"rental_uris":{"android":"levelo://app?vid=64001894-e867-49a0-b7c1-d2b4e50b966d","ios":"levelo://app?vid=64001894-e867-49a0-b7c1-d2b4e50b966d"},"vehicle_type_id":"4","last_reported":1684595138,"current_range_meters":13600,"station_id":"ce4bgop2rcd13ifvqc1g","pricing_plan_id":"free"},{"bike_id":"411c53dc-8a67-493a-b123-b1e299cae53c","system_id":"levelo_inurba_marseille","lat":43.328371,"lon":5.366909,"is_reserved":false,"is_disabled":false,"rental_uris":{"android":"levelo://app?vid=411c53dc-8a67-493a-b123-b1e299cae53c","ios":"levelo://app?vid=411c53dc-8a67-493a-b123-b1e299cae53c"},"vehicle_type_id":"4","last_reported":1684595138,"current_range_meters":31200,"station_id":"ce4bhs92rcd13ifvqi0g","pricing_plan_id":"free"},{"bike_id":"fccfd339-db22-4277-bdd0-196f87e474ac","system_id":"levelo_inurba_marseille","lat":43.328371,"lon":5.366909,"is_reserved":false,"is_disabled":false,"rental_uris":{"android":"levelo://app?vid=fccfd339-db22-4277-bdd0-196f87e474ac","ios":"levelo://app?vid=fccfd339-db22-4277-bdd0-196f87e474ac"},"vehicle_type_id":"4","last_reported":1684595138,"current_range_meters":22800,"station_id":"ce4bhs92rcd13ifvqi0g","pricing_plan_id":"free"},{"bike_id":"a7fb6a73-9ebf-4b56-938e-67995ffda768","system_id":"levelo_inurba_marseille","lat":43.328371,"lon":5.366909,"is_reserved":false,"is_disabled":false,"rental_uris":{"android":"levelo://app?vid=a7fb6a73-9ebf-4b56-938e-67995ffda768","ios":"levelo://app?vid=a7fb6a73-9ebf-4b56-938e-67995ffda768"},"vehicle_type_id":"4","last_reported":1684595138,"current_range_meters":31200,"station_id":"ce4bhs92rcd13ifvqi0g","pricing_plan_id":"free"},{"bike_id":"9d891959-73d6-4c5c-ad12-227228d64e9d","system_id":"levelo_inurba_marseille","lat":43.328371,"lon":5.366909,"is_reserved":false,"is_disabled":false,"rental_uris":{"android":"levelo://app?vid=9d891959-73d6-4c5c-ad12-227228d64e9d","ios":"levelo://app?vid=9d891959-73d6-4c5c-ad12-227228d64e9d"},"vehicle_type_id":"4","last_reported":1684595138,"current_range_meters":20800,"station_id":"ce4bhs92rcd13ifvqi0g","pricing_plan_id":"free"},{"bike_id":"548efb9d-91f7-4f61-af0e-8e48476c6371","system_id":"levelo_inurba_marseille","lat":43.328371,"lon":5.366909,"is_reserved":false,"is_disabled":false,"rental_uris":{"android":"levelo://app?vid=548efb9d-91f7-4f61-af0e-8e48476c6371","ios":"levelo://app?vid=548efb9d-91f7-4f61-af0e-8e48476c6371"},"vehicle_type_id":"4","last_reported":1684595138,"current_range_meters":17600,"station_id":"ce4bhs92rcd13ifvqi0g","pricing_plan_id":"free"},{"bike_id":"fb24a851-46e9-40c8-914f-4c0bfc6aa435","system_id":"levelo_inurba_marseille","lat":43.328371,"lon":5.366909,"is_reserved":false,"is_disabled":false,"rental_uris":{"android":"levelo://app?vid=fb24a851-46e9-40c8-914f-4c0bfc6aa435","ios":"levelo://app?vid=fb24a851-46e9-40c8-914f-4c0bfc6aa435"},"vehicle_type_id":"4","last_reported":1684595138,"current_range_meters":2400,"station_id":"ce4bhs92rcd13ifvqi0g","pricing_plan_id":"free"},{"bike_id":"de338054-150d-4f92-8ba2-f43c70283500","system_id":"levelo_inurba_marseille","lat":43.328371,"lon":5.366909,"is_reserved":false,"is_disabled":false,"rental_uris":{"android":"levelo://app?vid=de338054-150d-4f92-8ba2-f43c70283500","ios":"levelo://app?vid=de338054-150d-4f92-8ba2-f43c70283500"},"vehicle_type_id":"4","last_reported":1684595138,"current_range_meters":20400,"station_id":"ce4bhs92rcd13ifvqi0g","pricing_plan_id":"free"},{"bike_id":"bd0cd171-ddc8-443f-ad52-c3c60e0946fd","system_id":"levelo_inurba_marseille","lat":43.29715,"lon":5.36616,"is_reserved":false,"is_disabled":false,"rental_uris":{"android":"levelo://app?vid=bd0cd171-ddc8-443f-ad52-c3c60e0946fd","ios":"levelo://app?vid=bd0cd171-ddc8-443f-ad52-c3c60e0946fd"},"vehicle_type_id":"4","last_reported":1684595138,"current_range_meters":4000,"station_id":"","pricing_plan_id":"free"},{"bike_id":"bced0c1a-95c2-4986-b6d9-e055a1331248","system_id":"levelo_inurba_marseille","lat":43.328371,"lon":5.366909,"is_reserved":false,"is_disabled":false,"rental_uris":{"android":"levelo://app?vid=bced0c1a-95c2-4986-b6d9-e055a1331248","ios":"levelo://app?vid=bced0c1a-95c2-4986-b6d9-e055a1331248"},"vehicle_type_id":"4","last_reported":1684595138,"current_range_meters":31600,"station_id":"ce4bhs92rcd13ifvqi0g","pricing_plan_id":"free"},{"bike_id":"31cd6cc1-64a5-4cbb-97ce-a28159e08724","system_id":"levelo_inurba_marseille","lat":43.29709,"lon":5.3661,"is_reserved":false,"is_disabled":false,"rental_uris":{"android":"levelo://app?vid=31cd6cc1-64a5-4cbb-97ce-a28159e08724","ios":"levelo://app?vid=31cd6cc1-64a5-4cbb-97ce-a28159e08724"},"vehicle_type_id":"4","last_reported":1684595138,"current_range_meters":4800,"station_id":"","pricing_plan_id":"free"},{"bike_id":"7177c238-b634-4673-afd7-106280721fc5","system_id":"levelo_inurba_marseille","lat":43.29706,"lon":5.36615,"is_reserved":false,"is_disabled":false,"rental_uris":{"android":"levelo://app?vid=7177c238-b634-4673-afd7-106280721fc5","ios":"levelo://app?vid=7177c238-b634-4673-afd7-106280721fc5"},"vehicle_type_id":"4","last_reported":1684595138,"current_range_meters":25600,"station_id":"","pricing_plan_id":"free"},{"bike_id":"27955cc2-1f6e-4990-84bb-52646cbea3f5","system_id":"levelo_inurba_marseille","lat":43.29705,"lon":5.36607,"is_reserved":false,"is_disabled":false,"rental_uris":{"android":"levelo://app?vid=27955cc2-1f6e-4990-84bb-52646cbea3f5","ios":"levelo://app?vid=27955cc2-1f6e-4990-84bb-52646cbea3f5"},"vehicle_type_id":"4","last_reported":1684595138,"current_range_meters":18400,"station_id":"","pricing_plan_id":"free"},{"bike_id":"dc66bf27-ad6e-4a96-bef9-1f4f3b737a8d","system_id":"levelo_inurba_marseille","lat":43.29703,"lon":5.36615,"is_reserved":false,"is_disabled":false,"rental_uris":{"android":"levelo://app?vid=dc66bf27-ad6e-4a96-bef9-1f4f3b737a8d","ios":"levelo://app?vid=dc66bf27-ad6e-4a96-bef9-1f4f3b737a8d"},"vehicle_type_id":"4","last_reported":1684595138,"current_range_meters":20000,"station_id":"","pricing_plan_id":"free"},{"bike_id":"5cd7b71f-c4c6-429f-88a7-e63ae86ec05d","system_id":"levelo_inurba_marseille","lat":43.29703,"lon":5.36598,"is_reserved":false,"is_disabled":false,"rental_uris":{"android":"levelo://app?vid=5cd7b71f-c4c6-429f-88a7-e63ae86ec05d","ios":"levelo://app?vid=5cd7b71f-c4c6-429f-88a7-e63ae86ec05d"},"vehicle_type_id":"4","last_reported":1684595138,"current_range_meters":23600,"station_id":"","pricing_plan_id":"free"},{"bike_id":"6bab12c8-ef23-4aaa-a574-f4a05ca63eb0","system_id":"levelo_inurba_marseille","lat":43.2968,"lon":5.37291,"is_reserved":false,"is_disabled":false,"rental_uris":{"android":"levelo://app?vid=6bab12c8-ef23-4aaa-a574-f4a05ca63eb0","ios":"levelo://app?vid=6bab12c8-ef23-4aaa-a574-f4a05ca63eb0"},"vehicle_type_id":"4","last_reported":1684595138,"current_range_meters":31200,"station_id":"ce4bgk12rcd13ifvqbj0","pricing_plan_id":"free"},{"bike_id":"8fd9343a-2fcc-420f-86ef-27715ca38bbc","system_id":"levelo_inurba_marseille","lat":43.2968,"lon":5.37291,"is_reserved":false,"is_disabled":false,"rental_uris":{"android":"levelo://app?vid=8fd9343a-2fcc-420f-86ef-27715ca38bbc","ios":"levelo://app?vid=8fd9343a-2fcc-420f-86ef-27715ca38bbc"},"vehicle_type_id":"4","last_reported":1684595138,"current_range_meters":26800,"station_id":"ce4bgk12rcd13ifvqbj0","pricing_plan_id":"free"},{"bike_id":"a10d20a8-090c-4977-8302-b75d6d4c0794","system_id":"levelo_inurba_marseille","lat":43.2968,"lon":5.37291,"is_reserved":false,"is_disabled":false,"rental_uris":{"android":"levelo://app?vid=a10d20a8-090c-4977-8302-b75d6d4c0794","ios":"levelo://app?vid=a10d20a8-090c-4977-8302-b75d6d4c0794"},"vehicle_type_id":"4","last_reported":1684595138,"current_range_meters":31200,"station_id":"ce4bgk12rcd13ifvqbj0","pricing_plan_id":"free"},{"bike_id":"0217cea3-1210-4f38-a7bd-3c15dcd8a9b9","system_id":"levelo_inurba_marseille","lat":43.2968,"lon":5.37291,"is_reserved":false,"is_disabled":false,"rental_uris":{"android":"levelo://app?vid=0217cea3-1210-4f38-a7bd-3c15dcd8a9b9","ios":"levelo://app?vid=0217cea3-1210-4f38-a7bd-3c15dcd8a9b9"},"vehicle_type_id":"4","last_reported":1684595138,"current_range_meters":21600,"station_id":"ce4bgk12rcd13ifvqbj0","pricing_plan_id":"free"},{"bike_id":"947db61d-be67-4fc6-be8f-920973f33b76","system_id":"levelo_inurba_marseille","lat":43.2968,"lon":5.37291,"is_reserved":false,"is_disabled":false,"rental_uris":{"android":"levelo://app?vid=947db61d-be67-4fc6-be8f-920973f33b76","ios":"levelo://app?vid=947db61d-be67-4fc6-be8f-920973f33b76"},"vehicle_type_id":"4","last_reported":1684595138,"current_range_meters":18800,"station_id":"ce4bgk12rcd13ifvqbj0","pricing_plan_id":"free"},{"bike_id":"018b85d9-1f3f-4e4b-8baa-c745c0b04bb0","system_id":"levelo_inurba_marseille","lat":43.2968,"lon":5.37291,"is_reserved":false,"is_disabled":false,"rental_uris":{"android":"levelo://app?vid=018b85d9-1f3f-4e4b-8baa-c745c0b04bb0","ios":"levelo://app?vid=018b85d9-1f3f-4e4b-8baa-c745c0b04bb0"},"vehicle_type_id":"4","last_reported":1684595138,"current_range_meters":28800,"station_id":"ce4bgk12rcd13ifvqbj0","pricing_plan_id":"free"},{"bike_id":"14060c1f-51a9-426a-86f0-e4083e7e25f7","system_id":"levelo_inurba_marseille","lat":43.296131,"lon":5.370791,"is_reserved":false,"is_disabled":false,"rental_uris":{"android":"levelo://app?vid=14060c1f-51a9-426a-86f0-e4083e7e25f7","ios":"levelo://app?vid=14060c1f-51a9-426a-86f0-e4083e7e25f7"},"vehicle_type_id":"4","last_reported":1684595138,"current_range_meters":31200,"station_id":"ce4bgnh2rcd13ifvqc0g","pricing_plan_id":"free"},{"bike_id":"9428382f-f8d8-43ea-8dce-6c96c2d3e1a1","system_id":"levelo_inurba_marseille","lat":43.296266,"lon":5.371582,"is_reserved":false,"is_disabled":false,"rental_uris":{"android":"levelo://app?vid=9428382f-f8d8-43ea-8dce-6c96c2d3e1a1","ios":"levelo://app?vid=9428382f-f8d8-43ea-8dce-6c96c2d3e1a1"},"vehicle_type_id":"4","last_reported":1684595138,"current_range_meters":12800,"station_id":"","pricing_plan_id":"free"},{"bike_id":"1a70e888-756f-4b2b-8101-40121b4fd2d5","system_id":"levelo_inurba_marseille","lat":43.296129,"lon":5.370777,"is_reserved":false,"is_disabled":false,"rental_uris":{"android":"levelo://app?vid=1a70e888-756f-4b2b-8101-40121b4fd2d5","ios":"levelo://app?vid=1a70e888-756f-4b2b-8101-40121b4fd2d5"},"vehicle_type_id":"4","last_reported":1684595138,"current_range_meters":30400,"station_id":"ce4bgnh2rcd13ifvqc0g","pricing_plan_id":"free"},{"bike_id":"6dbde9a3-2bd1-4af4-ac15-87072668b57a","system_id":"levelo_inurba_marseille","lat":43.296131,"lon":5.370773,"is_reserved":false,"is_disabled":false,"rental_uris":{"android":"levelo://app?vid=6dbde9a3-2bd1-4af4-ac15-87072668b57a","ios":"levelo://app?vid=6dbde9a3-2bd1-4af4-ac15-87072668b57a"},"vehicle_type_id":"4","last_reported":1684595138,"current_range_meters":16400,"station_id":"ce4bgnh2rcd13ifvqc0g","pricing_plan_id":"free"},{"bike_id":"50d173d1-18ff-41f7-9eb8-ae9dc916a04c","system_id":"levelo_inurba_marseille","lat":43.296131,"lon":5.370791,"is_reserved":false,"is_disabled":false,"rental_uris":{"android":"levelo://app?vid=50d173d1-18ff-41f7-9eb8-ae9dc916a04c","ios":"levelo://app?vid=50d173d1-18ff-41f7-9eb8-ae9dc916a04c"},"vehicle_type_id":"4","last_reported":1684595138,"current_range_meters":27200,"station_id":"ce4bgnh2rcd13ifvqc0g","pricing_plan_id":"free"},{"bike_id":"ee6619ff-faea-4d23-a990-697445c25ee4","system_id":"levelo_inurba_marseille","lat":43.296131,"lon":5.370773,"is_reserved":false,"is_disabled":false,"rental_uris":{"android":"levelo://app?vid=ee6619ff-faea-4d23-a990-697445c25ee4","ios":"levelo://app?vid=ee6619ff-faea-4d23-a990-697445c25ee4"},"vehicle_type_id":"4","last_reported":1684595138,"current_range_meters":10000,"station_id":"ce4bgnh2rcd13ifvqc0g","pricing_plan_id":"free"},{"bike_id":"8cb3327b-b1d9-45b2-a8ec-a509cdc59380","system_id":"levelo_inurba_marseille","lat":43.296129,"lon":5.370777,"is_reserved":false,"is_disabled":false,"rental_uris":{"android":"levelo://app?vid=8cb3327b-b1d9-45b2-a8ec-a509cdc59380","ios":"levelo://app?vid=8cb3327b-b1d9-45b2-a8ec-a509cdc59380"},"vehicle_type_id":"4","last_reported":1684595138,"current_range_meters":28000,"station_id":"ce4bgnh2rcd13ifvqc0g","pricing_plan_id":"free"},{"bike_id":"b569ec74-d11d-481e-9e33-1df8b84cca6b","system_id":"levelo_inurba_marseille","lat":43.29573,"lon":5.367355,"is_reserved":false,"is_disabled":false,"rental_uris":{"android":"levelo://app?vid=b569ec74-d11d-481e-9e33-1df8b84cca6b","ios":"levelo://app?vid=b569ec74-d11d-481e-9e33-1df8b84cca6b"},"vehicle_type_id":"4","last_reported":1684595138,"current_range_meters":31600,"station_id":"ce4bgph2rcd13ifvqc2g","pricing_plan_id":"free"},{"bike_id":"1d0998d3-da8c-4aed-96f0-608a1f7a49d9","system_id":"levelo_inurba_marseille","lat":43.29573,"lon":5.367355,"is_reserved":false,"is_disabled":false,"rental_uris":{"android":"levelo://app?vid=1d0998d3-da8c-4aed-96f0-608a1f7a49d9","ios":"levelo://app?vid=1d0998d3-da8c-4aed-96f0-608a1f7a49d9"},"vehicle_type_id":"4","last_reported":1684595138,"current_range_meters":31600,"station_id":"ce4bgph2rcd13ifvqc2g","pricing_plan_id":"free"},{"bike_id":"961d69b5-7e0e-44c4-a861-e1ee014eb732","system_id":"levelo_inurba_marseille","lat":43.29573,"lon":5.367355,"is_reserved":false,"is_disabled":false,"rental_uris":{"android":"levelo://app?vid=961d69b5-7e0e-44c4-a861-e1ee014eb732","ios":"levelo://app?vid=961d69b5-7e0e-44c4-a861-e1ee014eb732"},"vehicle_type_id":"4","last_reported":1684595138,"current_range_meters":31200,"station_id":"ce4bgph2rcd13ifvqc2g","pricing_plan_id":"free"},{"bike_id":"d9f4a730-247b-4d76-ac4f-34f3fe8ff6b2","system_id":"levelo_inurba_marseille","lat":43.29573,"lon":5.367355,"is_reserved":false,"is_disabled":false,"rental_uris":{"android":"levelo://app?vid=d9f4a730-247b-4d76-ac4f-34f3fe8ff6b2","ios":"levelo://app?vid=d9f4a730-247b-4d76-ac4f-34f3fe8ff6b2"},"vehicle_type_id":"4","last_reported":1684595138,"current_range_meters":18000,"station_id":"ce4bgph2rcd13ifvqc2g","pricing_plan_id":"free"},{"bike_id":"d0ffa209-c60a-48f3-a217-0feb077dcc4e","system_id":"levelo_inurba_marseille","lat":43.29573,"lon":5.367355,"is_reserved":false,"is_disabled":false,"rental_uris":{"android":"levelo://app?vid=d0ffa209-c60a-48f3-a217-0feb077dcc4e","ios":"levelo://app?vid=d0ffa209-c60a-48f3-a217-0feb077dcc4e"},"vehicle_type_id":"4","last_reported":1684595138,"current_range_meters":29200,"station_id":"ce4bgph2rcd13ifvqc2g","pricing_plan_id":"free"},{"bike_id":"61cf38cf-6c3e-42a7-ad5f-1d01dc2eef53","system_id":"levelo_inurba_marseille","lat":43.296921,"lon":5.376579,"is_reserved":false,"is_disabled":false,"rental_uris":{"android":"levelo://app?vid=61cf38cf-6c3e-42a7-ad5f-1d01dc2eef53","ios":"levelo://app?vid=61cf38cf-6c3e-42a7-ad5f-1d01dc2eef53"},"vehicle_type_id":"4","last_reported":1684595138,"current_range_meters":32000,"station_id":"ce4bgkh2rcd13ifvqbl0","pricing_plan_id":"free"},{"bike_id":"0a9a9b62-9b35-4271-ab6c-f0dc692e1503","system_id":"levelo_inurba_marseille","lat":43.296935,"lon":5.376544,"is_reserved":false,"is_disabled":false,"rental_uris":{"android":"levelo://app?vid=0a9a9b62-9b35-4271-ab6c-f0dc692e1503","ios":"levelo://app?vid=0a9a9b62-9b35-4271-ab6c-f0dc692e1503"},"vehicle_type_id":"4","last_reported":1684595138,"current_range_meters":31600,"station_id":"ce4bgkh2rcd13ifvqbl0","pricing_plan_id":"free"},{"bike_id":"4494bcf4-d6fb-4eee-8798-521c234710e0","system_id":"levelo_inurba_marseille","lat":43.296921,"lon":5.376579,"is_reserved":false,"is_disabled":false,"rental_uris":{"android":"levelo://app?vid=4494bcf4-d6fb-4eee-8798-521c234710e0","ios":"levelo://app?vid=4494bcf4-d6fb-4eee-8798-521c234710e0"},"vehicle_type_id":"4","last_reported":1684595138,"current_range_meters":28800,"station_id":"ce4bgkh2rcd13ifvqbl0","pricing_plan_id":"free"},{"bike_id":"5f6e5d8a-779d-43e4-b1d1-d2590d148ade","system_id":"levelo_inurba_marseille","lat":43.296935,"lon":5.376544,"is_reserved":false,"is_disabled":false,"rental_uris":{"android":"levelo://app?vid=5f6e5d8a-779d-43e4-b1d1-d2590d148ade","ios":"levelo://app?vid=5f6e5d8a-779d-43e4-b1d1-d2590d148ade"},"vehicle_type_id":"4","last_reported":1684595138,"current_range_meters":12400,"station_id":"ce4bgkh2rcd13ifvqbl0","pricing_plan_id":"free"},{"bike_id":"261df8dd-2166-4bae-a925-4ec8492a03c2","system_id":"levelo_inurba_marseille","lat":43.299028,"lon":5.381509,"is_reserved":false,"is_disabled":false,"rental_uris":{"android":"levelo://app?vid=261df8dd-2166-4bae-a925-4ec8492a03c2","ios":"levelo://app?vid=261df8dd-2166-4bae-a925-4ec8492a03c2"},"vehicle_type_id":"4","last_reported":1684595138,"current_range_meters":22400,"station_id":"ce4bgj12rcd13ifvqbc0","pricing_plan_id":"free"},{"bike_id":"ab992af7-5a03-4e90-bbd7-f7a5f1d63b1f","system_id":"levelo_inurba_marseille","lat":43.296921,"lon":5.376579,"is_reserved":false,"is_disabled":false,"rental_uris":{"android":"levelo://app?vid=ab992af7-5a03-4e90-bbd7-f7a5f1d63b1f","ios":"levelo://app?vid=ab992af7-5a03-4e90-bbd7-f7a5f1d63b1f"},"vehicle_type_id":"4","last_reported":1684595138,"current_range_meters":28000,"station_id":"ce4bgkh2rcd13ifvqbl0","pricing_plan_id":"free"},{"bike_id":"4c43b9df-1378-4faa-991d-5d68d5667638","system_id":"levelo_inurba_marseille","lat":43.299028,"lon":5.381509,"is_reserved":false,"is_disabled":false,"rental_uris":{"android":"levelo://app?vid=4c43b9df-1378-4faa-991d-5d68d5667638","ios":"levelo://app?vid=4c43b9df-1378-4faa-991d-5d68d5667638"},"vehicle_type_id":"4","last_reported":1684595138,"current_range_meters":20800,"station_id":"ce4bgj12rcd13ifvqbc0","pricing_plan_id":"free"},{"bike_id":"dd894810-0e72-4b13-8244-d1a2ab9a9ef7","system_id":"levelo_inurba_marseille","lat":43.299028,"lon":5.381509,"is_reserved":false,"is_disabled":false,"rental_uris":{"android":"levelo://app?vid=dd894810-0e72-4b13-8244-d1a2ab9a9ef7","ios":"levelo://app?vid=dd894810-0e72-4b13-8244-d1a2ab9a9ef7"},"vehicle_type_id":"4","last_reported":1684595138,"current_range_meters":14800,"station_id":"ce4bgj12rcd13ifvqbc0","pricing_plan_id":"free"},{"bike_id":"43b8be44-b4bb-43b0-8092-667eccc66022","system_id":"levelo_inurba_marseille","lat":43.296921,"lon":5.376579,"is_reserved":false,"is_disabled":false,"rental_uris":{"android":"levelo://app?vid=43b8be44-b4bb-43b0-8092-667eccc66022","ios":"levelo://app?vid=43b8be44-b4bb-43b0-8092-667eccc66022"},"vehicle_type_id":"4","last_reported":1684595138,"current_range_meters":22400,"station_id":"ce4bgkh2rcd13ifvqbl0","pricing_plan_id":"free"},{"bike_id":"fb93c5a0-9bd3-4259-a605-c6520d0c8359","system_id":"levelo_inurba_marseille","lat":43.31758,"lon":5.39013,"is_reserved":false,"is_disabled":false,"rental_uris":{"android":"levelo://app?vid=fb93c5a0-9bd3-4259-a605-c6520d0c8359","ios":"levelo://app?vid=fb93c5a0-9bd3-4259-a605-c6520d0c8359"},"vehicle_type_id":"4","last_reported":1684595138,"current_range_meters":26000,"station_id":"ce4bhqp2rcd13ifvqhng","pricing_plan_id":"free"},{"bike_id":"c71bdbf5-c60f-4aec-b07e-90c6350730af","system_id":"levelo_inurba_marseille","lat":43.317557,"lon":5.390173,"is_reserved":false,"is_disabled":false,"rental_uris":{"android":"levelo://app?vid=c71bdbf5-c60f-4aec-b07e-90c6350730af","ios":"levelo://app?vid=c71bdbf5-c60f-4aec-b07e-90c6350730af"},"vehicle_type_id":"4","last_reported":1684595138,"current_range_meters":17200,"station_id":"ce4bhqp2rcd13ifvqhng","pricing_plan_id":"free"},{"bike_id":"7ccdf964-879f-4af8-bcb9-0bfc70a2cad2","system_id":"levelo_inurba_marseille","lat":43.317557,"lon":5.390173,"is_reserved":false,"is_disabled":false,"rental_uris":{"android":"levelo://app?vid=7ccdf964-879f-4af8-bcb9-0bfc70a2cad2","ios":"levelo://app?vid=7ccdf964-879f-4af8-bcb9-0bfc70a2cad2"},"vehicle_type_id":"4","last_reported":1684595138,"current_range_meters":22800,"station_id":"ce4bhqp2rcd13ifvqhng","pricing_plan_id":"free"},{"bike_id":"e4053292-5222-41bd-82e1-22699b26d48e","system_id":"levelo_inurba_marseille","lat":43.317557,"lon":5.390173,"is_reserved":false,"is_disabled":false,"rental_uris":{"android":"levelo://app?vid=e4053292-5222-41bd-82e1-22699b26d48e","ios":"levelo://app?vid=e4053292-5222-41bd-82e1-22699b26d48e"},"vehicle_type_id":"4","last_reported":1684595138,"current_range_meters":15200,"station_id":"ce4bhqp2rcd13ifvqhng","pricing_plan_id":"free"},{"bike_id":"c75ae7b1-907b-4191-8d1d-2c9dab2b6cb1","system_id":"levelo_inurba_marseille","lat":43.298037,"lon":5.381066,"is_reserved":false,"is_disabled":false,"rental_uris":{"android":"levelo://app?vid=c75ae7b1-907b-4191-8d1d-2c9dab2b6cb1","ios":"levelo://app?vid=c75ae7b1-907b-4191-8d1d-2c9dab2b6cb1"},"vehicle_type_id":"4","last_reported":1684595138,"current_range_meters":28800,"station_id":"ce4bgip2rcd13ifvqbb0","pricing_plan_id":"free"},{"bike_id":"6d7cb2ba-a6cd-4403-8071-93ba42a5c5bb","system_id":"levelo_inurba_marseille","lat":43.298037,"lon":5.381066,"is_reserved":false,"is_disabled":false,"rental_uris":{"android":"levelo://app?vid=6d7cb2ba-a6cd-4403-8071-93ba42a5c5bb","ios":"levelo://app?vid=6d7cb2ba-a6cd-4403-8071-93ba42a5c5bb"},"vehicle_type_id":"4","last_reported":1684595138,"current_range_meters":30000,"station_id":"ce4bgip2rcd13ifvqbb0","pricing_plan_id":"free"},{"bike_id":"b81aeee4-a083-4b8d-94b7-006b6f4ac65f","system_id":"levelo_inurba_marseille","lat":43.298037,"lon":5.381066,"is_reserved":false,"is_disabled":false,"rental_uris":{"android":"levelo://app?vid=b81aeee4-a083-4b8d-94b7-006b6f4ac65f","ios":"levelo://app?vid=b81aeee4-a083-4b8d-94b7-006b6f4ac65f"},"vehicle_type_id":"4","last_reported":1684595138,"current_range_meters":30800,"station_id":"ce4bgip2rcd13ifvqbb0","pricing_plan_id":"free"},{"bike_id":"308b9c79-bd84-4e52-8df1-b9e114b2c86d","system_id":"levelo_inurba_marseille","lat":43.298037,"lon":5.381066,"is_reserved":false,"is_disabled":false,"rental_uris":{"android":"levelo://app?vid=308b9c79-bd84-4e52-8df1-b9e114b2c86d","ios":"levelo://app?vid=308b9c79-bd84-4e52-8df1-b9e114b2c86d"},"vehicle_type_id":"4","last_reported":1684595138,"current_range_meters":16000,"station_id":"ce4bgip2rcd13ifvqbb0","pricing_plan_id":"free"},{"bike_id":"cd200062-53e4-4753-bf86-c3c1a99349ca","system_id":"levelo_inurba_marseille","lat":43.298037,"lon":5.381066,"is_reserved":false,"is_disabled":false,"rental_uris":{"android":"levelo://app?vid=cd200062-53e4-4753-bf86-c3c1a99349ca","ios":"levelo://app?vid=cd200062-53e4-4753-bf86-c3c1a99349ca"},"vehicle_type_id":"4","last_reported":1684595138,"current_range_meters":25200,"station_id":"ce4bgip2rcd13ifvqbb0","pricing_plan_id":"free"},{"bike_id":"f17270d8-90bd-41c6-ac13-95766e9635e6","system_id":"levelo_inurba_marseille","lat":43.296277,"lon":5.377108,"is_reserved":false,"is_disabled":false,"rental_uris":{"android":"levelo://app?vid=f17270d8-90bd-41c6-ac13-95766e9635e6","ios":"levelo://app?vid=f17270d8-90bd-41c6-ac13-95766e9635e6"},"vehicle_type_id":"4","last_reported":1684595138,"current_range_meters":24400,"station_id":"ce4bgi92rcd13ifvqb90","pricing_plan_id":"free"},{"bike_id":"33a4287e-b849-4e09-aae1-f2e87573b752","system_id":"levelo_inurba_marseille","lat":43.298037,"lon":5.381066,"is_reserved":false,"is_disabled":false,"rental_uris":{"android":"levelo://app?vid=33a4287e-b849-4e09-aae1-f2e87573b752","ios":"levelo://app?vid=33a4287e-b849-4e09-aae1-f2e87573b752"},"vehicle_type_id":"4","last_reported":1684595138,"current_range_meters":25200,"station_id":"ce4bgip2rcd13ifvqbb0","pricing_plan_id":"free"},{"bike_id":"f635f0ef-1480-4566-87b2-f0d790c0d06a","system_id":"levelo_inurba_marseille","lat":43.298037,"lon":5.381066,"is_reserved":false,"is_disabled":false,"rental_uris":{"android":"levelo://app?vid=f635f0ef-1480-4566-87b2-f0d790c0d06a","ios":"levelo://app?vid=f635f0ef-1480-4566-87b2-f0d790c0d06a"},"vehicle_type_id":"4","last_reported":1684595138,"current_range_meters":31600,"station_id":"ce4bgip2rcd13ifvqbb0","pricing_plan_id":"free"},{"bike_id":"797e4f6c-649b-46bb-8757-be7e64b45c32","system_id":"levelo_inurba_marseille","lat":43.298037,"lon":5.381066,"is_reserved":false,"is_disabled":false,"rental_uris":{"android":"levelo://app?vid=797e4f6c-649b-46bb-8757-be7e64b45c32","ios":"levelo://app?vid=797e4f6c-649b-46bb-8757-be7e64b45c32"},"vehicle_type_id":"4","last_reported":1684595138,"current_range_meters":27600,"station_id":"ce4bgip2rcd13ifvqbb0","pricing_plan_id":"free"},{"bike_id":"15700fbe-8a24-4f46-bb43-15f53bab47c4","system_id":"levelo_inurba_marseille","lat":43.298037,"lon":5.381066,"is_reserved":false,"is_disabled":false,"rental_uris":{"android":"levelo://app?vid=15700fbe-8a24-4f46-bb43-15f53bab47c4","ios":"levelo://app?vid=15700fbe-8a24-4f46-bb43-15f53bab47c4"},"vehicle_type_id":"4","last_reported":1684595138,"current_range_meters":20000,"station_id":"ce4bgip2rcd13ifvqbb0","pricing_plan_id":"free"},{"bike_id":"3e1e5f63-fc58-4ebc-b87a-495846d38d21","system_id":"levelo_inurba_marseille","lat":43.298037,"lon":5.381066,"is_reserved":false,"is_disabled":false,"rental_uris":{"android":"levelo://app?vid=3e1e5f63-fc58-4ebc-b87a-495846d38d21","ios":"levelo://app?vid=3e1e5f63-fc58-4ebc-b87a-495846d38d21"},"vehicle_type_id":"4","last_reported":1684595138,"current_range_meters":22400,"station_id":"ce4bgip2rcd13ifvqbb0","pricing_plan_id":"free"},{"bike_id":"46005e90-dd28-4ea0-adcc-81d63274430a","system_id":"levelo_inurba_marseille","lat":43.304278,"lon":5.388868,"is_reserved":false,"is_disabled":false,"rental_uris":{"android":"levelo://app?vid=46005e90-dd28-4ea0-adcc-81d63274430a","ios":"levelo://app?vid=46005e90-dd28-4ea0-adcc-81d63274430a"},"vehicle_type_id":"4","last_reported":1684595138,"current_range_meters":20400,"station_id":"ce4bgk12rcd13ifvqbi0","pricing_plan_id":"free"},{"bike_id":"42304c75-d442-4cf4-bdc0-f7072fd00b6a","system_id":"levelo_inurba_marseille","lat":43.296277,"lon":5.377108,"is_reserved":false,"is_disabled":false,"rental_uris":{"android":"levelo://app?vid=42304c75-d442-4cf4-bdc0-f7072fd00b6a","ios":"levelo://app?vid=42304c75-d442-4cf4-bdc0-f7072fd00b6a"},"vehicle_type_id":"4","last_reported":1684595138,"current_range_meters":20800,"station_id":"ce4bgi92rcd13ifvqb90","pricing_plan_id":"free"},{"bike_id":"612e54a6-6e2a-41c7-94cc-1c17c6054fdf","system_id":"levelo_inurba_marseille","lat":43.304278,"lon":5.388868,"is_reserved":false,"is_disabled":false,"rental_uris":{"android":"levelo://app?vid=612e54a6-6e2a-41c7-94cc-1c17c6054fdf","ios":"levelo://app?vid=612e54a6-6e2a-41c7-94cc-1c17c6054fdf"},"vehicle_type_id":"4","last_reported":1684595138,"current_range_meters":25600,"station_id":"ce4bgk12rcd13ifvqbi0","pricing_plan_id":"free"},{"bike_id":"33f5b0f0-e053-4e7a-a789-8972031750b5","system_id":"levelo_inurba_marseille","lat":43.296263,"lon":5.377094,"is_reserved":false,"is_disabled":false,"rental_uris":{"android":"levelo://app?vid=33f5b0f0-e053-4e7a-a789-8972031750b5","ios":"levelo://app?vid=33f5b0f0-e053-4e7a-a789-8972031750b5"},"vehicle_type_id":"4","last_reported":1684595138,"current_range_meters":20000,"station_id":"ce4bgi92rcd13ifvqb90","pricing_plan_id":"free"},{"bike_id":"971b273f-7329-4c38-9fa8-e9d3e1f9c76e","system_id":"levelo_inurba_marseille","lat":43.30435,"lon":5.38903,"is_reserved":false,"is_disabled":false,"rental_uris":{"android":"levelo://app?vid=971b273f-7329-4c38-9fa8-e9d3e1f9c76e","ios":"levelo://app?vid=971b273f-7329-4c38-9fa8-e9d3e1f9c76e"},"vehicle_type_id":"4","last_reported":1684595138,"current_range_meters":20800,"station_id":"ce4bgk12rcd13ifvqbi0","pricing_plan_id":"free"},{"bike_id":"452aa8b8-a3ea-4de3-8dbe-696ab48e8069","system_id":"levelo_inurba_marseille","lat":43.296263,"lon":5.377094,"is_reserved":false,"is_disabled":false,"rental_uris":{"android":"levelo://app?vid=452aa8b8-a3ea-4de3-8dbe-696ab48e8069","ios":"levelo://app?vid=452aa8b8-a3ea-4de3-8dbe-696ab48e8069"},"vehicle_type_id":"4","last_reported":1684595138,"current_range_meters":26800,"station_id":"ce4bgi92rcd13ifvqb90","pricing_plan_id":"free"},{"bike_id":"cdaafd20-5dbd-436c-8bdc-f9b2322cb1b6","system_id":"levelo_inurba_marseille","lat":43.29556,"lon":5.37543,"is_reserved":false,"is_disabled":false,"rental_uris":{"android":"levelo://app?vid=cdaafd20-5dbd-436c-8bdc-f9b2322cb1b6","ios":"levelo://app?vid=cdaafd20-5dbd-436c-8bdc-f9b2322cb1b6"},"vehicle_type_id":"4","last_reported":1684595138,"current_range_meters":27600,"station_id":"","pricing_plan_id":"free"},{"bike_id":"bc8eddb5-c1f0-4443-9a2e-3f615a7e9e30","system_id":"levelo_inurba_marseille","lat":43.29539,"lon":5.37502,"is_reserved":false,"is_disabled":false,"rental_uris":{"android":"levelo://app?vid=bc8eddb5-c1f0-4443-9a2e-3f615a7e9e30","ios":"levelo://app?vid=bc8eddb5-c1f0-4443-9a2e-3f615a7e9e30"},"vehicle_type_id":"4","last_reported":1684595138,"current_range_meters":23600,"station_id":"ce4bgkp2rcd13ifvqbmg","pricing_plan_id":"free"},{"bike_id":"584b2422-bd9e-4ba5-88f4-f220773a4778","system_id":"levelo_inurba_marseille","lat":43.299707,"lon":5.384859,"is_reserved":false,"is_disabled":false,"rental_uris":{"android":"levelo://app?vid=584b2422-bd9e-4ba5-88f4-f220773a4778","ios":"levelo://app?vid=584b2422-bd9e-4ba5-88f4-f220773a4778"},"vehicle_type_id":"4","last_reported":1684595138,"current_range_meters":29200,"station_id":"ce4bgj92rcd13ifvqbd0","pricing_plan_id":"free"},{"bike_id":"14274225-05c5-467a-9df3-e11850780ac9","system_id":"levelo_inurba_marseille","lat":43.299717,"lon":5.384845,"is_reserved":false,"is_disabled":false,"rental_uris":{"android":"levelo://app?vid=14274225-05c5-467a-9df3-e11850780ac9","ios":"levelo://app?vid=14274225-05c5-467a-9df3-e11850780ac9"},"vehicle_type_id":"4","last_reported":1684595138,"current_range_meters":24400,"station_id":"ce4bgj92rcd13ifvqbd0","pricing_plan_id":"free"},{"bike_id":"2ab21b4f-ff5f-4a49-aba7-81e3a790fa8c","system_id":"levelo_inurba_marseille","lat":43.299717,"lon":5.384845,"is_reserved":false,"is_disabled":false,"rental_uris":{"android":"levelo://app?vid=2ab21b4f-ff5f-4a49-aba7-81e3a790fa8c","ios":"levelo://app?vid=2ab21b4f-ff5f-4a49-aba7-81e3a790fa8c"},"vehicle_type_id":"4","last_reported":1684595138,"current_range_meters":27200,"station_id":"ce4bgj92rcd13ifvqbd0","pricing_plan_id":"free"},{"bike_id":"5ca9e1cb-3479-47af-967b-997d1d1dc65c","system_id":"levelo_inurba_marseille","lat":43.299724,"lon":5.384848,"is_reserved":false,"is_disabled":false,"rental_uris":{"android":"levelo://app?vid=5ca9e1cb-3479-47af-967b-997d1d1dc65c","ios":"levelo://app?vid=5ca9e1cb-3479-47af-967b-997d1d1dc65c"},"vehicle_type_id":"4","last_reported":1684595138,"current_range_meters":19200,"station_id":"ce4bgj92rcd13ifvqbd0","pricing_plan_id":"free"},{"bike_id":"03adc49b-18b3-4c28-a1d0-14b8a6559dc8","system_id":"levelo_inurba_marseille","lat":43.299724,"lon":5.384848,"is_reserved":false,"is_disabled":false,"rental_uris":{"android":"levelo://app?vid=03adc49b-18b3-4c28-a1d0-14b8a6559dc8","ios":"levelo://app?vid=03adc49b-18b3-4c28-a1d0-14b8a6559dc8"},"vehicle_type_id":"4","last_reported":1684595138,"current_range_meters":400,"station_id":"ce4bgj92rcd13ifvqbd0","pricing_plan_id":"free"},{"bike_id":"9b97d552-ec71-4ba4-83b3-42ca3d100bb7","system_id":"levelo_inurba_marseille","lat":43.299724,"lon":5.384848,"is_reserved":false,"is_disabled":false,"rental_uris":{"android":"levelo://app?vid=9b97d552-ec71-4ba4-83b3-42ca3d100bb7","ios":"levelo://app?vid=9b97d552-ec71-4ba4-83b3-42ca3d100bb7"},"vehicle_type_id":"4","last_reported":1684595138,"current_range_meters":19600,"station_id":"ce4bgj92rcd13ifvqbd0","pricing_plan_id":"free"},{"bike_id":"dbeb94a8-ca41-4e2e-971b-a72e9363a722","system_id":"levelo_inurba_marseille","lat":43.299724,"lon":5.384848,"is_reserved":false,"is_disabled":false,"rental_uris":{"android":"levelo://app?vid=dbeb94a8-ca41-4e2e-971b-a72e9363a722","ios":"levelo://app?vid=dbeb94a8-ca41-4e2e-971b-a72e9363a722"},"vehicle_type_id":"4","last_reported":1684595138,"current_range_meters":11200,"station_id":"ce4bgj92rcd13ifvqbd0","pricing_plan_id":"free"},{"bike_id":"e8f92355-1751-48f1-9009-ce20d1dfd819","system_id":"levelo_inurba_marseille","lat":43.32362,"lon":5.38878,"is_reserved":false,"is_disabled":false,"rental_uris":{"android":"levelo://app?vid=e8f92355-1751-48f1-9009-ce20d1dfd819","ios":"levelo://app?vid=e8f92355-1751-48f1-9009-ce20d1dfd819"},"vehicle_type_id":"4","last_reported":1684595138,"current_range_meters":21200,"station_id":"ce4bhqp2rcd13ifvqhog","pricing_plan_id":"free"},{"bike_id":"e267f340-98f6-4e1c-9dff-034ba5864fb0","system_id":"levelo_inurba_marseille","lat":43.32365,"lon":5.38876,"is_reserved":false,"is_disabled":false,"rental_uris":{"android":"levelo://app?vid=e267f340-98f6-4e1c-9dff-034ba5864fb0","ios":"levelo://app?vid=e267f340-98f6-4e1c-9dff-034ba5864fb0"},"vehicle_type_id":"4","last_reported":1684595138,"current_range_meters":7600,"station_id":"ce4bhqp2rcd13ifvqhog","pricing_plan_id":"free"},{"bike_id":"4ac8d894-44aa-44fe-a5bc-75ed68bed853","system_id":"levelo_inurba_marseille","lat":43.32363,"lon":5.38878,"is_reserved":false,"is_disabled":false,"rental_uris":{"android":"levelo://app?vid=4ac8d894-44aa-44fe-a5bc-75ed68bed853","ios":"levelo://app?vid=4ac8d894-44aa-44fe-a5bc-75ed68bed853"},"vehicle_type_id":"4","last_reported":1684595138,"current_range_meters":20800,"station_id":"ce4bhqp2rcd13ifvqhog","pricing_plan_id":"free"},{"bike_id":"5aa8bf14-824f-4a38-a4b7-43747be759d9","system_id":"levelo_inurba_marseille","lat":43.32363,"lon":5.3888,"is_reserved":false,"is_disabled":false,"rental_uris":{"android":"levelo://app?vid=5aa8bf14-824f-4a38-a4b7-43747be759d9","ios":"levelo://app?vid=5aa8bf14-824f-4a38-a4b7-43747be759d9"},"vehicle_type_id":"4","last_reported":1684595138,"current_range_meters":26800,"station_id":"ce4bhqp2rcd13ifvqhog","pricing_plan_id":"free"},{"bike_id":"841a3943-2dfc-4de3-89ba-cc35a41e6f96","system_id":"levelo_inurba_marseille","lat":43.29601,"lon":5.381084,"is_reserved":false,"is_disabled":false,"rental_uris":{"android":"levelo://app?vid=841a3943-2dfc-4de3-89ba-cc35a41e6f96","ios":"levelo://app?vid=841a3943-2dfc-4de3-89ba-cc35a41e6f96"},"vehicle_type_id":"4","last_reported":1684595138,"current_range_meters":20400,"station_id":"ce4bgl12rcd13ifvqbo0","pricing_plan_id":"free"},{"bike_id":"6e08ddc6-4a2d-41da-ad3a-29eed0a7772b","system_id":"levelo_inurba_marseille","lat":43.29601,"lon":5.381084,"is_reserved":false,"is_disabled":false,"rental_uris":{"android":"levelo://app?vid=6e08ddc6-4a2d-41da-ad3a-29eed0a7772b","ios":"levelo://app?vid=6e08ddc6-4a2d-41da-ad3a-29eed0a7772b"},"vehicle_type_id":"4","last_reported":1684595138,"current_range_meters":25200,"station_id":"ce4bgl12rcd13ifvqbo0","pricing_plan_id":"free"},{"bike_id":"46ef847f-4559-4e5b-ad03-9d076c4f2477","system_id":"levelo_inurba_marseille","lat":43.29602,"lon":5.381084,"is_reserved":false,"is_disabled":false,"rental_uris":{"android":"levelo://app?vid=46ef847f-4559-4e5b-ad03-9d076c4f2477","ios":"levelo://app?vid=46ef847f-4559-4e5b-ad03-9d076c4f2477"},"vehicle_type_id":"4","last_reported":1684595138,"current_range_meters":1200,"station_id":"ce4bgl12rcd13ifvqbo0","pricing_plan_id":"free"},{"bike_id":"048ad76f-cf49-443f-97fe-53eaef1a6394","system_id":"levelo_inurba_marseille","lat":43.29601,"lon":5.381084,"is_reserved":false,"is_disabled":false,"rental_uris":{"android":"levelo://app?vid=048ad76f-cf49-443f-97fe-53eaef1a6394","ios":"levelo://app?vid=048ad76f-cf49-443f-97fe-53eaef1a6394"},"vehicle_type_id":"4","last_reported":1684595138,"current_range_meters":23600,"station_id":"ce4bgl12rcd13ifvqbo0","pricing_plan_id":"free"},{"bike_id":"215bedff-a316-4949-ac9c-85974188ad5a","system_id":"levelo_inurba_marseille","lat":43.293249,"lon":5.371578,"is_reserved":false,"is_disabled":false,"rental_uris":{"android":"levelo://app?vid=215bedff-a316-4949-ac9c-85974188ad5a","ios":"levelo://app?vid=215bedff-a316-4949-ac9c-85974188ad5a"},"vehicle_type_id":"4","last_reported":1684595138,"current_range_meters":20000,"station_id":"ce4bgh92rcd13ifvqb40","pricing_plan_id":"free"},{"bike_id":"9d4a523c-4236-4d29-a467-a285d6b1a309","system_id":"levelo_inurba_marseille","lat":43.293249,"lon":5.371578,"is_reserved":false,"is_disabled":false,"rental_uris":{"android":"levelo://app?vid=9d4a523c-4236-4d29-a467-a285d6b1a309","ios":"levelo://app?vid=9d4a523c-4236-4d29-a467-a285d6b1a309"},"vehicle_type_id":"4","last_reported":1684595138,"current_range_meters":16000,"station_id":"ce4bgh92rcd13ifvqb40","pricing_plan_id":"free"},{"bike_id":"9eca7d51-e25c-4726-9f9f-ec8e12bd4a16","system_id":"levelo_inurba_marseille","lat":43.292749,"lon":5.368398,"is_reserved":false,"is_disabled":false,"rental_uris":{"android":"levelo://app?vid=9eca7d51-e25c-4726-9f9f-ec8e12bd4a16","ios":"levelo://app?vid=9eca7d51-e25c-4726-9f9f-ec8e12bd4a16"},"vehicle_type_id":"4","last_reported":1684595138,"current_range_meters":25200,"station_id":"ce4bhbp2rcd13ifvqesg","pricing_plan_id":"free"},{"bike_id":"a0b835e4-59fc-4d21-88e7-8519be1766b1","system_id":"levelo_inurba_marseille","lat":43.305994,"lon":5.393687,"is_reserved":false,"is_disabled":false,"rental_uris":{"android":"levelo://app?vid=a0b835e4-59fc-4d21-88e7-8519be1766b1","ios":"levelo://app?vid=a0b835e4-59fc-4d21-88e7-8519be1766b1"},"vehicle_type_id":"4","last_reported":1684595138,"current_range_meters":8000,"station_id":"ce4bh0p2rcd13ifvqd80","pricing_plan_id":"free"},{"bike_id":"43515104-e4f3-4ca8-a2ff-42d8c690df67","system_id":"levelo_inurba_marseille","lat":43.305994,"lon":5.393687,"is_reserved":false,"is_disabled":false,"rental_uris":{"android":"levelo://app?vid=43515104-e4f3-4ca8-a2ff-42d8c690df67","ios":"levelo://app?vid=43515104-e4f3-4ca8-a2ff-42d8c690df67"},"vehicle_type_id":"4","last_reported":1684595138,"current_range_meters":800,"station_id":"ce4bh0p2rcd13ifvqd80","pricing_plan_id":"free"},{"bike_id":"adedb0ab-ebf2-4f56-bfdd-28c5fc109df9","system_id":"levelo_inurba_marseille","lat":43.305994,"lon":5.393687,"is_reserved":false,"is_disabled":false,"rental_uris":{"android":"levelo://app?vid=adedb0ab-ebf2-4f56-bfdd-28c5fc109df9","ios":"levelo://app?vid=adedb0ab-ebf2-4f56-bfdd-28c5fc109df9"},"vehicle_type_id":"4","last_reported":1684595138,"current_range_meters":18400,"station_id":"ce4bh0p2rcd13ifvqd80","pricing_plan_id":"free"},{"bike_id":"4288f2b7-35a8-408e-ab7b-68e39de7df48","system_id":"levelo_inurba_marseille","lat":43.305994,"lon":5.393687,"is_reserved":false,"is_disabled":false,"rental_uris":{"android":"levelo://app?vid=4288f2b7-35a8-408e-ab7b-68e39de7df48","ios":"levelo://app?vid=4288f2b7-35a8-408e-ab7b-68e39de7df48"},"vehicle_type_id":"4","last_reported":1684595138,"current_range_meters":22800,"station_id":"ce4bh0p2rcd13ifvqd80","pricing_plan_id":"free"},{"bike_id":"89c4af9f-3f49-49d3-86ac-946cab1e208d","system_id":"levelo_inurba_marseille","lat":43.305994,"lon":5.393687,"is_reserved":false,"is_disabled":false,"rental_uris":{"android":"levelo://app?vid=89c4af9f-3f49-49d3-86ac-946cab1e208d","ios":"levelo://app?vid=89c4af9f-3f49-49d3-86ac-946cab1e208d"},"vehicle_type_id":"4","last_reported":1684595138,"current_range_meters":13600,"station_id":"ce4bh0p2rcd13ifvqd80","pricing_plan_id":"free"},{"bike_id":"afcdefd2-07b7-4268-8a27-c613d6e438ae","system_id":"levelo_inurba_marseille","lat":43.305994,"lon":5.393687,"is_reserved":false,"is_disabled":false,"rental_uris":{"android":"levelo://app?vid=afcdefd2-07b7-4268-8a27-c613d6e438ae","ios":"levelo://app?vid=afcdefd2-07b7-4268-8a27-c613d6e438ae"},"vehicle_type_id":"4","last_reported":1684595138,"current_range_meters":24000,"station_id":"ce4bh0p2rcd13ifvqd80","pricing_plan_id":"free"},{"bike_id":"31ba607c-cf6c-4113-90a3-b65575c5fcce","system_id":"levelo_inurba_marseille","lat":43.302992,"lon":5.392136,"is_reserved":false,"is_disabled":false,"rental_uris":{"android":"levelo://app?vid=31ba607c-cf6c-4113-90a3-b65575c5fcce","ios":"levelo://app?vid=31ba607c-cf6c-4113-90a3-b65575c5fcce"},"vehicle_type_id":"4","last_reported":1684595138,"current_range_meters":31200,"station_id":"ce4bgkh2rcd13ifvqbk0","pricing_plan_id":"free"},{"bike_id":"eb4d0981-ca67-45ad-b33e-011e9b94b7c7","system_id":"levelo_inurba_marseille","lat":43.29235,"lon":5.36188,"is_reserved":false,"is_disabled":false,"rental_uris":{"android":"levelo://app?vid=eb4d0981-ca67-45ad-b33e-011e9b94b7c7","ios":"levelo://app?vid=eb4d0981-ca67-45ad-b33e-011e9b94b7c7"},"vehicle_type_id":"4","last_reported":1684595138,"current_range_meters":30800,"station_id":"","pricing_plan_id":"free"},{"bike_id":"9f143d8c-6570-4edd-a0f4-e03c957890d2","system_id":"levelo_inurba_marseille","lat":43.302992,"lon":5.392136,"is_reserved":false,"is_disabled":false,"rental_uris":{"android":"levelo://app?vid=9f143d8c-6570-4edd-a0f4-e03c957890d2","ios":"levelo://app?vid=9f143d8c-6570-4edd-a0f4-e03c957890d2"},"vehicle_type_id":"4","last_reported":1684595138,"current_range_meters":23200,"station_id":"ce4bgkh2rcd13ifvqbk0","pricing_plan_id":"free"},{"bike_id":"df81c9f7-85cf-41e5-8f92-02112c8dcb5f","system_id":"levelo_inurba_marseille","lat":43.302992,"lon":5.392136,"is_reserved":false,"is_disabled":false,"rental_uris":{"android":"levelo://app?vid=df81c9f7-85cf-41e5-8f92-02112c8dcb5f","ios":"levelo://app?vid=df81c9f7-85cf-41e5-8f92-02112c8dcb5f"},"vehicle_type_id":"4","last_reported":1684595138,"current_range_meters":16000,"station_id":"ce4bgkh2rcd13ifvqbk0","pricing_plan_id":"free"},{"bike_id":"3973048a-351d-4180-b2b2-f6a58a9b0f41","system_id":"levelo_inurba_marseille","lat":43.302992,"lon":5.392136,"is_reserved":false,"is_disabled":false,"rental_uris":{"android":"levelo://app?vid=3973048a-351d-4180-b2b2-f6a58a9b0f41","ios":"levelo://app?vid=3973048a-351d-4180-b2b2-f6a58a9b0f41"},"vehicle_type_id":"4","last_reported":1684595138,"current_range_meters":15600,"station_id":"ce4bgkh2rcd13ifvqbk0","pricing_plan_id":"free"},{"bike_id":"bf933622-abb5-48aa-b4a4-8caf4023933c","system_id":"levelo_inurba_marseille","lat":43.302997,"lon":5.392217,"is_reserved":false,"is_disabled":false,"rental_uris":{"android":"levelo://app?vid=bf933622-abb5-48aa-b4a4-8caf4023933c","ios":"levelo://app?vid=bf933622-abb5-48aa-b4a4-8caf4023933c"},"vehicle_type_id":"4","last_reported":1684595138,"current_range_meters":24400,"station_id":"ce4bgkh2rcd13ifvqbk0","pricing_plan_id":"free"},{"bike_id":"6c9b281a-dcaf-47d0-aff1-582228173fb2","system_id":"levelo_inurba_marseille","lat":43.300852,"lon":5.390859,"is_reserved":false,"is_disabled":false,"rental_uris":{"android":"levelo://app?vid=6c9b281a-dcaf-47d0-aff1-582228173fb2","ios":"levelo://app?vid=6c9b281a-dcaf-47d0-aff1-582228173fb2"},"vehicle_type_id":"4","last_reported":1684595138,"current_range_meters":26400,"station_id":"ce4bh192rcd13ifvqdb0","pricing_plan_id":"free"},{"bike_id":"46dea940-8542-4dd1-a032-0854d4ba8046","system_id":"levelo_inurba_marseille","lat":43.300852,"lon":5.390859,"is_reserved":false,"is_disabled":false,"rental_uris":{"android":"levelo://app?vid=46dea940-8542-4dd1-a032-0854d4ba8046","ios":"levelo://app?vid=46dea940-8542-4dd1-a032-0854d4ba8046"},"vehicle_type_id":"4","last_reported":1684595138,"current_range_meters":28000,"station_id":"ce4bh192rcd13ifvqdb0","pricing_plan_id":"free"},{"bike_id":"86c1a5fc-0144-4cea-a104-dc194e19642d","system_id":"levelo_inurba_marseille","lat":43.298764,"lon":5.388973,"is_reserved":false,"is_disabled":false,"rental_uris":{"android":"levelo://app?vid=86c1a5fc-0144-4cea-a104-dc194e19642d","ios":"levelo://app?vid=86c1a5fc-0144-4cea-a104-dc194e19642d"},"vehicle_type_id":"4","last_reported":1684595138,"current_range_meters":18400,"station_id":"ce4bh392rcd13ifvqdl0","pricing_plan_id":"free"},{"bike_id":"01704fd9-2056-4e12-826b-ac9aad11d676","system_id":"levelo_inurba_marseille","lat":43.291671,"lon":5.371575,"is_reserved":false,"is_disabled":false,"rental_uris":{"android":"levelo://app?vid=01704fd9-2056-4e12-826b-ac9aad11d676","ios":"levelo://app?vid=01704fd9-2056-4e12-826b-ac9aad11d676"},"vehicle_type_id":"4","last_reported":1684595138,"current_range_meters":6400,"station_id":"ce4bha92rcd13ifvqeh0","pricing_plan_id":"free"},{"bike_id":"2355e77e-837e-4f36-947a-4d27e5cd6400","system_id":"levelo_inurba_marseille","lat":43.291675,"lon":5.371583,"is_reserved":false,"is_disabled":false,"rental_uris":{"android":"levelo://app?vid=2355e77e-837e-4f36-947a-4d27e5cd6400","ios":"levelo://app?vid=2355e77e-837e-4f36-947a-4d27e5cd6400"},"vehicle_type_id":"4","last_reported":1684595138,"current_range_meters":28000,"station_id":"ce4bha92rcd13ifvqeh0","pricing_plan_id":"free"},{"bike_id":"277d0ef9-8202-4f24-b4a4-a89d43b5f795","system_id":"levelo_inurba_marseille","lat":43.29207,"lon":5.358,"is_reserved":false,"is_disabled":false,"rental_uris":{"android":"levelo://app?vid=277d0ef9-8202-4f24-b4a4-a89d43b5f795","ios":"levelo://app?vid=277d0ef9-8202-4f24-b4a4-a89d43b5f795"},"vehicle_type_id":"4","last_reported":1684595138,"current_range_meters":20800,"station_id":"ce4bhb12rcd13ifvqel0","pricing_plan_id":"free"},{"bike_id":"fc95a73f-2b29-4064-9525-fee00b2ed7ea","system_id":"levelo_inurba_marseille","lat":43.291994,"lon":5.357886,"is_reserved":false,"is_disabled":false,"rental_uris":{"android":"levelo://app?vid=fc95a73f-2b29-4064-9525-fee00b2ed7ea","ios":"levelo://app?vid=fc95a73f-2b29-4064-9525-fee00b2ed7ea"},"vehicle_type_id":"4","last_reported":1684595138,"current_range_meters":26400,"station_id":"ce4bhb12rcd13ifvqel0","pricing_plan_id":"free"},{"bike_id":"b6f65e72-0ab1-404b-9924-9b34906d392e","system_id":"levelo_inurba_marseille","lat":43.291994,"lon":5.357886,"is_reserved":false,"is_disabled":false,"rental_uris":{"android":"levelo://app?vid=b6f65e72-0ab1-404b-9924-9b34906d392e","ios":"levelo://app?vid=b6f65e72-0ab1-404b-9924-9b34906d392e"},"vehicle_type_id":"4","last_reported":1684595138,"current_range_meters":18000,"station_id":"ce4bhb12rcd13ifvqel0","pricing_plan_id":"free"},{"bike_id":"7bd616d9-1de0-4f44-beec-c18f87869800","system_id":"levelo_inurba_marseille","lat":43.30888,"lon":5.39641,"is_reserved":false,"is_disabled":false,"rental_uris":{"android":"levelo://app?vid=7bd616d9-1de0-4f44-beec-c18f87869800","ios":"levelo://app?vid=7bd616d9-1de0-4f44-beec-c18f87869800"},"vehicle_type_id":"4","last_reported":1684595138,"current_range_meters":31600,"station_id":"ce4bh012rcd13ifvqcv0","pricing_plan_id":"free"},{"bike_id":"2b15815c-8301-4c7c-9ef7-e46bbd30ee94","system_id":"levelo_inurba_marseille","lat":43.291994,"lon":5.357886,"is_reserved":false,"is_disabled":false,"rental_uris":{"android":"levelo://app?vid=2b15815c-8301-4c7c-9ef7-e46bbd30ee94","ios":"levelo://app?vid=2b15815c-8301-4c7c-9ef7-e46bbd30ee94"},"vehicle_type_id":"4","last_reported":1684595138,"current_range_meters":29200,"station_id":"ce4bhb12rcd13ifvqel0","pricing_plan_id":"free"},{"bike_id":"ecc16877-74ab-4d01-a0cb-e79a366524a9","system_id":"levelo_inurba_marseille","lat":43.309038,"lon":5.396546,"is_reserved":false,"is_disabled":false,"rental_uris":{"android":"levelo://app?vid=ecc16877-74ab-4d01-a0cb-e79a366524a9","ios":"levelo://app?vid=ecc16877-74ab-4d01-a0cb-e79a366524a9"},"vehicle_type_id":"4","last_reported":1684595138,"current_range_meters":28400,"station_id":"ce4bh012rcd13ifvqcv0","pricing_plan_id":"free"},{"bike_id":"655308f3-f53d-4ff7-8177-35031161d832","system_id":"levelo_inurba_marseille","lat":43.31331,"lon":5.39693,"is_reserved":false,"is_disabled":false,"rental_uris":{"android":"levelo://app?vid=655308f3-f53d-4ff7-8177-35031161d832","ios":"levelo://app?vid=655308f3-f53d-4ff7-8177-35031161d832"},"vehicle_type_id":"4","last_reported":1684595138,"current_range_meters":22000,"station_id":"ce4bgvp2rcd13ifvqcu0","pricing_plan_id":"free"},{"bike_id":"83a54c1f-be2d-4315-8a6e-c23d1dea63b0","system_id":"levelo_inurba_marseille","lat":43.309038,"lon":5.396546,"is_reserved":false,"is_disabled":false,"rental_uris":{"android":"levelo://app?vid=83a54c1f-be2d-4315-8a6e-c23d1dea63b0","ios":"levelo://app?vid=83a54c1f-be2d-4315-8a6e-c23d1dea63b0"},"vehicle_type_id":"4","last_reported":1684595138,"current_range_meters":19200,"station_id":"ce4bh012rcd13ifvqcv0","pricing_plan_id":"free"},{"bike_id":"ac2cc8b2-4002-4f9a-9dcd-aaa975980d37","system_id":"levelo_inurba_marseille","lat":43.313291,"lon":5.396838,"is_reserved":false,"is_disabled":false,"rental_uris":{"android":"levelo://app?vid=ac2cc8b2-4002-4f9a-9dcd-aaa975980d37","ios":"levelo://app?vid=ac2cc8b2-4002-4f9a-9dcd-aaa975980d37"},"vehicle_type_id":"4","last_reported":1684595138,"current_range_meters":16800,"station_id":"ce4bgvp2rcd13ifvqcu0","pricing_plan_id":"free"},{"bike_id":"787bc6aa-87b0-4eb3-8a4d-3d8e0daf70a3","system_id":"levelo_inurba_marseille","lat":43.30891,"lon":5.39651,"is_reserved":false,"is_disabled":false,"rental_uris":{"android":"levelo://app?vid=787bc6aa-87b0-4eb3-8a4d-3d8e0daf70a3","ios":"levelo://app?vid=787bc6aa-87b0-4eb3-8a4d-3d8e0daf70a3"},"vehicle_type_id":"4","last_reported":1684595138,"current_range_meters":29600,"station_id":"ce4bh012rcd13ifvqcv0","pricing_plan_id":"free"},{"bike_id":"d2ae3085-2478-4856-a3eb-d79b11f9f3f2","system_id":"levelo_inurba_marseille","lat":43.30896,"lon":5.39653,"is_reserved":false,"is_disabled":false,"rental_uris":{"android":"levelo://app?vid=d2ae3085-2478-4856-a3eb-d79b11f9f3f2","ios":"levelo://app?vid=d2ae3085-2478-4856-a3eb-d79b11f9f3f2"},"vehicle_type_id":"4","last_reported":1684595138,"current_range_meters":4000,"station_id":"ce4bh012rcd13ifvqcv0","pricing_plan_id":"free"},{"bike_id":"560fb464-6bff-4314-aa59-c1cb6143d36c","system_id":"levelo_inurba_marseille","lat":43.309038,"lon":5.396546,"is_reserved":false,"is_disabled":false,"rental_uris":{"android":"levelo://app?vid=560fb464-6bff-4314-aa59-c1cb6143d36c","ios":"levelo://app?vid=560fb464-6bff-4314-aa59-c1cb6143d36c"},"vehicle_type_id":"4","last_reported":1684595138,"current_range_meters":23200,"station_id":"ce4bh012rcd13ifvqcv0","pricing_plan_id":"free"},{"bike_id":"4eb0beed-14be-4983-88d9-dfc09b440871","system_id":"levelo_inurba_marseille","lat":43.29536,"lon":5.38529,"is_reserved":false,"is_disabled":false,"rental_uris":{"android":"levelo://app?vid=4eb0beed-14be-4983-88d9-dfc09b440871","ios":"levelo://app?vid=4eb0beed-14be-4983-88d9-dfc09b440871"},"vehicle_type_id":"4","last_reported":1684595138,"current_range_meters":31200,"station_id":"ce4bgih2rcd13ifvqba0","pricing_plan_id":"free"},{"bike_id":"00b4637a-42e4-41c2-b306-4969effcc106","system_id":"levelo_inurba_marseille","lat":43.30898,"lon":5.39663,"is_reserved":false,"is_disabled":false,"rental_uris":{"android":"levelo://app?vid=00b4637a-42e4-41c2-b306-4969effcc106","ios":"levelo://app?vid=00b4637a-42e4-41c2-b306-4969effcc106"},"vehicle_type_id":"4","last_reported":1684595138,"current_range_meters":31200,"station_id":"ce4bh012rcd13ifvqcv0","pricing_plan_id":"free"},{"bike_id":"566e0094-d1c0-416d-8cc5-c6be50a1aac0","system_id":"levelo_inurba_marseille","lat":43.29537,"lon":5.38537,"is_reserved":false,"is_disabled":false,"rental_uris":{"android":"levelo://app?vid=566e0094-d1c0-416d-8cc5-c6be50a1aac0","ios":"levelo://app?vid=566e0094-d1c0-416d-8cc5-c6be50a1aac0"},"vehicle_type_id":"4","last_reported":1684595138,"current_range_meters":30800,"station_id":"ce4bgih2rcd13ifvqba0","pricing_plan_id":"free"},{"bike_id":"e08975c3-239f-4ef2-a1d8-851aa1feea44","system_id":"levelo_inurba_marseille","lat":43.313291,"lon":5.396838,"is_reserved":false,"is_disabled":false,"rental_uris":{"android":"levelo://app?vid=e08975c3-239f-4ef2-a1d8-851aa1feea44","ios":"levelo://app?vid=e08975c3-239f-4ef2-a1d8-851aa1feea44"},"vehicle_type_id":"4","last_reported":1684595138,"current_range_meters":6000,"station_id":"ce4bgvp2rcd13ifvqcu0","pricing_plan_id":"free"},{"bike_id":"5cceda14-0f37-4ad3-98af-caf2857f84c5","system_id":"levelo_inurba_marseille","lat":43.29529,"lon":5.385581,"is_reserved":false,"is_disabled":false,"rental_uris":{"android":"levelo://app?vid=5cceda14-0f37-4ad3-98af-caf2857f84c5","ios":"levelo://app?vid=5cceda14-0f37-4ad3-98af-caf2857f84c5"},"vehicle_type_id":"4","last_reported":1684595138,"current_range_meters":29600,"station_id":"ce4bgih2rcd13ifvqba0","pricing_plan_id":"free"},{"bike_id":"f3268f09-d994-406a-9340-8e1c7f831eb0","system_id":"levelo_inurba_marseille","lat":43.29529,"lon":5.385581,"is_reserved":false,"is_disabled":false,"rental_uris":{"android":"levelo://app?vid=f3268f09-d994-406a-9340-8e1c7f831eb0","ios":"levelo://app?vid=f3268f09-d994-406a-9340-8e1c7f831eb0"},"vehicle_type_id":"4","last_reported":1684595138,"current_range_meters":31200,"station_id":"ce4bgih2rcd13ifvqba0","pricing_plan_id":"free"},{"bike_id":"bb8ea98a-28b9-4be7-95a5-4c82a7e01094","system_id":"levelo_inurba_marseille","lat":43.29529,"lon":5.385581,"is_reserved":false,"is_disabled":false,"rental_uris":{"android":"levelo://app?vid=bb8ea98a-28b9-4be7-95a5-4c82a7e01094","ios":"levelo://app?vid=bb8ea98a-28b9-4be7-95a5-4c82a7e01094"},"vehicle_type_id":"4","last_reported":1684595138,"current_range_meters":23200,"station_id":"ce4bgih2rcd13ifvqba0","pricing_plan_id":"free"},{"bike_id":"c7e495be-dde8-4533-9b29-383fe64c00d3","system_id":"levelo_inurba_marseille","lat":43.290624,"lon":5.359245,"is_reserved":false,"is_disabled":false,"rental_uris":{"android":"levelo://app?vid=c7e495be-dde8-4533-9b29-383fe64c00d3","ios":"levelo://app?vid=c7e495be-dde8-4533-9b29-383fe64c00d3"},"vehicle_type_id":"4","last_reported":1684595138,"current_range_meters":27200,"station_id":"ce4bha92rcd13ifvqeg0","pricing_plan_id":"free"},{"bike_id":"3aa0a35d-d90c-4ffc-80d6-8510999a1970","system_id":"levelo_inurba_marseille","lat":43.289468,"lon":5.363719,"is_reserved":false,"is_disabled":false,"rental_uris":{"android":"levelo://app?vid=3aa0a35d-d90c-4ffc-80d6-8510999a1970","ios":"levelo://app?vid=3aa0a35d-d90c-4ffc-80d6-8510999a1970"},"vehicle_type_id":"4","last_reported":1684595138,"current_range_meters":10800,"station_id":"ce4bhc92rcd13ifvqetg","pricing_plan_id":"free"},{"bike_id":"5833e316-1f2b-4291-b03c-97297f02dd66","system_id":"levelo_inurba_marseille","lat":43.289184,"lon":5.366408,"is_reserved":false,"is_disabled":false,"rental_uris":{"android":"levelo://app?vid=5833e316-1f2b-4291-b03c-97297f02dd66","ios":"levelo://app?vid=5833e316-1f2b-4291-b03c-97297f02dd66"},"vehicle_type_id":"4","last_reported":1684595138,"current_range_meters":13200,"station_id":"ce4bhap2rcd13ifvqek0","pricing_plan_id":"free"},{"bike_id":"a7caeb7d-a460-4d20-b7f0-f1b194a94772","system_id":"levelo_inurba_marseille","lat":43.289184,"lon":5.366408,"is_reserved":false,"is_disabled":false,"rental_uris":{"android":"levelo://app?vid=a7caeb7d-a460-4d20-b7f0-f1b194a94772","ios":"levelo://app?vid=a7caeb7d-a460-4d20-b7f0-f1b194a94772"},"vehicle_type_id":"4","last_reported":1684595138,"current_range_meters":30800,"station_id":"ce4bhap2rcd13ifvqek0","pricing_plan_id":"free"},{"bike_id":"a0ded132-fa3b-49bb-aaf5-2e13865aa982","system_id":"levelo_inurba_marseille","lat":43.289468,"lon":5.363719,"is_reserved":false,"is_disabled":false,"rental_uris":{"android":"levelo://app?vid=a0ded132-fa3b-49bb-aaf5-2e13865aa982","ios":"levelo://app?vid=a0ded132-fa3b-49bb-aaf5-2e13865aa982"},"vehicle_type_id":"4","last_reported":1684595138,"current_range_meters":20400,"station_id":"ce4bhc92rcd13ifvqetg","pricing_plan_id":"free"},{"bike_id":"eb51c12e-c943-4393-a076-5072ea2f413a","system_id":"levelo_inurba_marseille","lat":43.292644,"lon":5.384257,"is_reserved":false,"is_disabled":false,"rental_uris":{"android":"levelo://app?vid=eb51c12e-c943-4393-a076-5072ea2f413a","ios":"levelo://app?vid=eb51c12e-c943-4393-a076-5072ea2f413a"},"vehicle_type_id":"4","last_reported":1684595138,"current_range_meters":24000,"station_id":"ce4bh692rcd13ifvqea0","pricing_plan_id":"free"},{"bike_id":"6150a666-dbc7-4cda-a8cb-485d0a24a127","system_id":"levelo_inurba_marseille","lat":43.292642,"lon":5.384254,"is_reserved":false,"is_disabled":false,"rental_uris":{"android":"levelo://app?vid=6150a666-dbc7-4cda-a8cb-485d0a24a127","ios":"levelo://app?vid=6150a666-dbc7-4cda-a8cb-485d0a24a127"},"vehicle_type_id":"4","last_reported":1684595138,"current_range_meters":31200,"station_id":"ce4bh692rcd13ifvqea0","pricing_plan_id":"free"},{"bike_id":"591e6375-1644-4653-8e20-9d1af4cd5ac5","system_id":"levelo_inurba_marseille","lat":43.292642,"lon":5.384254,"is_reserved":false,"is_disabled":false,"rental_uris":{"android":"levelo://app?vid=591e6375-1644-4653-8e20-9d1af4cd5ac5","ios":"levelo://app?vid=591e6375-1644-4653-8e20-9d1af4cd5ac5"},"vehicle_type_id":"4","last_reported":1684595138,"current_range_meters":18800,"station_id":"ce4bh692rcd13ifvqea0","pricing_plan_id":"free"},{"bike_id":"cbf50f5b-7907-462f-8e8b-1bfad2b318f6","system_id":"levelo_inurba_marseille","lat":43.29269,"lon":5.38455,"is_reserved":false,"is_disabled":false,"rental_uris":{"android":"levelo://app?vid=cbf50f5b-7907-462f-8e8b-1bfad2b318f6","ios":"levelo://app?vid=cbf50f5b-7907-462f-8e8b-1bfad2b318f6"},"vehicle_type_id":"4","last_reported":1684595138,"current_range_meters":26800,"station_id":"ce4bh692rcd13ifvqea0","pricing_plan_id":"free"},{"bike_id":"4fddac79-b8a0-47a9-9c6e-2d3755c608db","system_id":"levelo_inurba_marseille","lat":43.33041,"lon":5.38917,"is_reserved":false,"is_disabled":false,"rental_uris":{"android":"levelo://app?vid=4fddac79-b8a0-47a9-9c6e-2d3755c608db","ios":"levelo://app?vid=4fddac79-b8a0-47a9-9c6e-2d3755c608db"},"vehicle_type_id":"4","last_reported":1684595138,"current_range_meters":18400,"station_id":"ce4bhr92rcd13ifvqhrg","pricing_plan_id":"free"},{"bike_id":"8781731e-f833-46a4-bb91-30f8e336c4dc","system_id":"levelo_inurba_marseille","lat":43.33041,"lon":5.38919,"is_reserved":false,"is_disabled":false,"rental_uris":{"android":"levelo://app?vid=8781731e-f833-46a4-bb91-30f8e336c4dc","ios":"levelo://app?vid=8781731e-f833-46a4-bb91-30f8e336c4dc"},"vehicle_type_id":"4","last_reported":1684595138,"current_range_meters":31200,"station_id":"ce4bhr92rcd13ifvqhrg","pricing_plan_id":"free"},{"bike_id":"96e0b596-e6f6-47a0-8171-9b893f754b00","system_id":"levelo_inurba_marseille","lat":43.33041,"lon":5.38919,"is_reserved":false,"is_disabled":false,"rental_uris":{"android":"levelo://app?vid=96e0b596-e6f6-47a0-8171-9b893f754b00","ios":"levelo://app?vid=96e0b596-e6f6-47a0-8171-9b893f754b00"},"vehicle_type_id":"4","last_reported":1684595138,"current_range_meters":14800,"station_id":"ce4bhr92rcd13ifvqhrg","pricing_plan_id":"free"},{"bike_id":"62dd3d9e-5195-47aa-bca0-3c538d4b633b","system_id":"levelo_inurba_marseille","lat":43.33042,"lon":5.38918,"is_reserved":false,"is_disabled":false,"rental_uris":{"android":"levelo://app?vid=62dd3d9e-5195-47aa-bca0-3c538d4b633b","ios":"levelo://app?vid=62dd3d9e-5195-47aa-bca0-3c538d4b633b"},"vehicle_type_id":"4","last_reported":1684595138,"current_range_meters":18800,"station_id":"ce4bhr92rcd13ifvqhrg","pricing_plan_id":"free"},{"bike_id":"8b16e323-4f74-41b8-940c-5be9fb253fe1","system_id":"levelo_inurba_marseille","lat":43.33044,"lon":5.38921,"is_reserved":false,"is_disabled":false,"rental_uris":{"android":"levelo://app?vid=8b16e323-4f74-41b8-940c-5be9fb253fe1","ios":"levelo://app?vid=8b16e323-4f74-41b8-940c-5be9fb253fe1"},"vehicle_type_id":"4","last_reported":1684595138,"current_range_meters":20800,"station_id":"ce4bhr92rcd13ifvqhrg","pricing_plan_id":"free"},{"bike_id":"0a6873dd-1e1a-44f7-98ca-bba49f513f42","system_id":"levelo_inurba_marseille","lat":43.290048,"lon":5.356172,"is_reserved":false,"is_disabled":false,"rental_uris":{"android":"levelo://app?vid=0a6873dd-1e1a-44f7-98ca-bba49f513f42","ios":"levelo://app?vid=0a6873dd-1e1a-44f7-98ca-bba49f513f42"},"vehicle_type_id":"4","last_reported":1684595138,"current_range_meters":27200,"station_id":"ce4bhbp2rcd13ifvqerg","pricing_plan_id":"free"},{"bike_id":"a370176b-62ca-4524-a3a9-d5698318adc5","system_id":"levelo_inurba_marseille","lat":43.33043,"lon":5.38924,"is_reserved":false,"is_disabled":false,"rental_uris":{"android":"levelo://app?vid=a370176b-62ca-4524-a3a9-d5698318adc5","ios":"levelo://app?vid=a370176b-62ca-4524-a3a9-d5698318adc5"},"vehicle_type_id":"4","last_reported":1684595138,"current_range_meters":14800,"station_id":"ce4bhr92rcd13ifvqhrg","pricing_plan_id":"free"},{"bike_id":"414e54ce-ba22-4a4d-9806-b6e5e79532c5","system_id":"levelo_inurba_marseille","lat":43.33046,"lon":5.3892,"is_reserved":false,"is_disabled":false,"rental_uris":{"android":"levelo://app?vid=414e54ce-ba22-4a4d-9806-b6e5e79532c5","ios":"levelo://app?vid=414e54ce-ba22-4a4d-9806-b6e5e79532c5"},"vehicle_type_id":"4","last_reported":1684595138,"current_range_meters":24000,"station_id":"ce4bhr92rcd13ifvqhrg","pricing_plan_id":"free"},{"bike_id":"dc561eec-74b8-4a9d-8360-fde7940ea8ed","system_id":"levelo_inurba_marseille","lat":43.33046,"lon":5.38921,"is_reserved":false,"is_disabled":false,"rental_uris":{"android":"levelo://app?vid=dc561eec-74b8-4a9d-8360-fde7940ea8ed","ios":"levelo://app?vid=dc561eec-74b8-4a9d-8360-fde7940ea8ed"},"vehicle_type_id":"4","last_reported":1684595138,"current_range_meters":18400,"station_id":"ce4bhr92rcd13ifvqhrg","pricing_plan_id":"free"},{"bike_id":"2d04834a-69a2-413f-9f4a-d7f214aac159","system_id":"levelo_inurba_marseille","lat":43.33048,"lon":5.3892,"is_reserved":false,"is_disabled":false,"rental_uris":{"android":"levelo://app?vid=2d04834a-69a2-413f-9f4a-d7f214aac159","ios":"levelo://app?vid=2d04834a-69a2-413f-9f4a-d7f214aac159"},"vehicle_type_id":"4","last_reported":1684595138,"current_range_meters":28000,"station_id":"ce4bhr92rcd13ifvqhrg","pricing_plan_id":"free"},{"bike_id":"05a1e531-ebee-446c-af95-2265e0e54ad0","system_id":"levelo_inurba_marseille","lat":43.297814,"lon":5.393513,"is_reserved":false,"is_disabled":false,"rental_uris":{"android":"levelo://app?vid=05a1e531-ebee-446c-af95-2265e0e54ad0","ios":"levelo://app?vid=05a1e531-ebee-446c-af95-2265e0e54ad0"},"vehicle_type_id":"4","last_reported":1684595138,"current_range_meters":800,"station_id":"chh1huq6cuj3fo74tm60","pricing_plan_id":"free"},{"bike_id":"1ab594d0-979f-4ea7-9bfd-75f220005e4b","system_id":"levelo_inurba_marseille","lat":43.295169,"lon":5.390426,"is_reserved":false,"is_disabled":false,"rental_uris":{"android":"levelo://app?vid=1ab594d0-979f-4ea7-9bfd-75f220005e4b","ios":"levelo://app?vid=1ab594d0-979f-4ea7-9bfd-75f220005e4b"},"vehicle_type_id":"4","last_reported":1684595138,"current_range_meters":24400,"station_id":"ce4bh3p2rcd13ifvqdp0","pricing_plan_id":"free"},{"bike_id":"485b0504-c8fd-400e-a927-f575c4f9d97f","system_id":"levelo_inurba_marseille","lat":43.295169,"lon":5.390426,"is_reserved":false,"is_disabled":false,"rental_uris":{"android":"levelo://app?vid=485b0504-c8fd-400e-a927-f575c4f9d97f","ios":"levelo://app?vid=485b0504-c8fd-400e-a927-f575c4f9d97f"},"vehicle_type_id":"4","last_reported":1684595138,"current_range_meters":28400,"station_id":"ce4bh3p2rcd13ifvqdp0","pricing_plan_id":"free"},{"bike_id":"336326c7-6370-4f9c-a106-f70f68f2b08b","system_id":"levelo_inurba_marseille","lat":43.295169,"lon":5.390426,"is_reserved":false,"is_disabled":false,"rental_uris":{"android":"levelo://app?vid=336326c7-6370-4f9c-a106-f70f68f2b08b","ios":"levelo://app?vid=336326c7-6370-4f9c-a106-f70f68f2b08b"},"vehicle_type_id":"4","last_reported":1684595138,"current_range_meters":26000,"station_id":"ce4bh3p2rcd13ifvqdp0","pricing_plan_id":"free"},{"bike_id":"16fd87f3-72c6-48ff-a8dc-db3d8e59bb00","system_id":"levelo_inurba_marseille","lat":43.30508,"lon":5.39921,"is_reserved":false,"is_disabled":false,"rental_uris":{"android":"levelo://app?vid=16fd87f3-72c6-48ff-a8dc-db3d8e59bb00","ios":"levelo://app?vid=16fd87f3-72c6-48ff-a8dc-db3d8e59bb00"},"vehicle_type_id":"4","last_reported":1684595138,"current_range_meters":17200,"station_id":"","pricing_plan_id":"free"},