{"last_updated":1714583250,"ttl":30,"version":"2.2","data":{"bikes":[{"bike_id":"8bb11d24-7ba2-43fd-b2dc-b88255f25ec4","system_id":"levelo_inurba_marseille","lat":43.31341,"lon":5.367098,"is_reserved":false,"is_disabled":false,"rental_uris":{"android":"levelo://app?vid=8bb11d24-7ba2-43fd-b2dc-b88255f25ec4","ios":"levelo://app?vid=8bb11d24-7ba2-43fd-b2dc-b88255f25ec4"},"vehicle_type_id":"4","last_reported":1714583250,"current_range_meters":800,"station_id":"ce4bgr92rcd13ifvqc6g","pricing_plan_id":"cebpf4jnsgd1na2vs0mg"},{"bike_id":"70bf028e-f787-4cdf-91e3-65cf05eaabef","system_id":"levelo_inurba_marseille","lat":43.31341,"lon":5.367098,"is_reserved":false,"is_disabled":false,"rental_uris":{"android":"levelo://app?vid=70bf028e-f787-4cdf-91e3-65cf05eaabef","ios":"levelo://app?vid=70bf028e-f787-4cdf-91e3-65cf05eaabef"},"vehicle_type_id":"4","last_reported":1714583250,"current_range_meters":15200,"station_id":"ce4bgr92rcd13ifvqc6g","pricing_plan_id":"cebpf4jnsgd1na2vs0mg"},{"bike_id":"b4e68743-8c81-4414-8c15-a413ebe65e71","system_id":"levelo_inurba_marseille","lat":43.31341,"lon":5.367098,"is_reserved":false,"is_disabled":false,"rental_uris":{"android":"levelo://app?vid=b4e68743-8c81-4414-8c15-a413ebe65e71","ios":"levelo://app?vid=b4e68743-8c81-4414-8c15-a413ebe65e71"},"vehicle_type_id":"4","last_reported":1714583250,"current_range_meters":30800,"station_id":"ce4bgr92rcd13ifvqc6g","pricing_plan_id":"cebpf4jnsgd1na2vs0mg"},{"bike_id":"371445c8-a44f-485a-a7c2-f06d783d9390","system_id":"levelo_inurba_marseille","lat":43.31341,"lon":5.367098,"is_reserved":false,"is_disabled":false,"rental_uris":{"android":"levelo://app?vid=371445c8-a44f-485a-a7c2-f06d783d9390","ios":"levelo://app?vid=371445c8-a44f-485a-a7c2-f06d783d9390"},"vehicle_type_id":"4","last_reported":1714583250,"current_range_meters":23600,"station_id":"ce4bgr92rcd13ifvqc6g","pricing_plan_id":"cebpf4jnsgd1na2vs0mg"},{"bike_id":"18266c9b-436c-485b-9d02-c25f4c81f4af","system_id":"levelo_inurba_marseille","lat":43.31341,"lon":5.367098,"is_reserved":false,"is_disabled":false,"rental_uris":{"android":"levelo://app?vid=18266c9b-436c-485b-9d02-c25f4c81f4af","ios":"levelo://app?vid=18266c9b-436c-485b-9d02-c25f4c81f4af"},"vehicle_type_id":"4","last_reported":1714583250,"current_range_meters":19200,"station_id":"ce4bgr92rcd13ifvqc6g","pricing_plan_id":"cebpf4jnsgd1na2vs0mg"},{"bike_id":"a27f2a16-099b-4550-8354-dfa89c452f99","system_id":"levelo_inurba_marseille","lat":43.31363,"lon":5.36702,"is_reserved":false,"is_disabled":false,"rental_uris":{"android":"levelo://app?vid=a27f2a16-099b-4550-8354-dfa89c452f99","ios":"levelo://app?vid=a27f2a16-099b-4550-8354-dfa89c452f99"},"vehicle_type_id":"4","last_reported":1714583250,"current_range_meters":25200,"station_id":"ce4bgr92rcd13ifvqc6g","pricing_plan_id":"cebpf4jnsgd1na2vs0mg"},{"bike_id":"c7902e60-dba4-4305-a381-5bdff66d590b","system_id":"levelo_inurba_marseille","lat":43.312361,"lon":5.368527,"is_reserved":false,"is_disabled":false,"rental_uris":{"android":"levelo://app?vid=c7902e60-dba4-4305-a381-5bdff66d590b","ios":"levelo://app?vid=c7902e60-dba4-4305-a381-5bdff66d590b"},"vehicle_type_id":"4","last_reported":1714583250,"current_range_meters":20800,"station_id":"ce4bgl92rcd13ifvqbq0","pricing_plan_id":"cebpf4jnsgd1na2vs0mg"},{"bike_id":"f1aed7f1-5ee4-4ee5-bb81-8f55a34141f9","system_id":"levelo_inurba_marseille","lat":43.309076,"lon":5.368465,"is_reserved":false,"is_disabled":false,"rental_uris":{"android":"levelo://app?vid=f1aed7f1-5ee4-4ee5-bb81-8f55a34141f9","ios":"levelo://app?vid=f1aed7f1-5ee4-4ee5-bb81-8f55a34141f9"},"vehicle_type_id":"4","last_reported":1714583250,"current_range_meters":31200,"station_id":"ce4bgn92rcd13ifvqbvg","pricing_plan_id":"cebpf4jnsgd1na2vs0mg"},{"bike_id":"6d4e9566-4a05-4dfb-8acc-cc56cafdd2fb","system_id":"levelo_inurba_marseille","lat":43.309076,"lon":5.368465,"is_reserved":false,"is_disabled":false,"rental_uris":{"android":"levelo://app?vid=6d4e9566-4a05-4dfb-8acc-cc56cafdd2fb","ios":"levelo://app?vid=6d4e9566-4a05-4dfb-8acc-cc56cafdd2fb"},"vehicle_type_id":"4","last_reported":1714583250,"current_range_meters":18000,"station_id":"ce4bgn92rcd13ifvqbvg","pricing_plan_id":"cebpf4jnsgd1na2vs0mg"},{"bike_id":"98b56e52-1199-4f3a-86c3-813362aaa05c","system_id":"levelo_inurba_marseille","lat":43.309076,"lon":5.368465,"is_reserved":false,"is_disabled":false,"rental_uris":{"android":"levelo://app?vid=98b56e52-1199-4f3a-86c3-813362aaa05c","ios":"levelo://app?vid=98b56e52-1199-4f3a-86c3-813362aaa05c"},"vehicle_type_id":"4","last_reported":1714583250,"current_range_meters":17200,"station_id":"ce4bgn92rcd13ifvqbvg","pricing_plan_id":"cebpf4jnsgd1na2vs0mg"},{"bike_id":"8a664701-de7b-4d3e-b5c3-ec9f446e3506","system_id":"levelo_inurba_marseille","lat":43.309076,"lon":5.368465,"is_reserved":false,"is_disabled":false,"rental_uris":{"android":"levelo://app?vid=8a664701-de7b-4d3e-b5c3-ec9f446e3506","ios":"levelo://app?vid=8a664701-de7b-4d3e-b5c3-ec9f446e3506"},"vehicle_type_id":"4","last_reported":1714583250,"current_range_meters":400,"station_id":"ce4bgn92rcd13ifvqbvg","pricing_plan_id":"cebpf4jnsgd1na2vs0mg"},{"bike_id":"0ba311ff-df67-45b1-8c67-d55cdbd5ea38","system_id":"levelo_inurba_marseille","lat":43.314811,"lon":5.373103,"is_reserved":false,"is_disabled":false,"rental_uris":{"android":"levelo://app?vid=0ba311ff-df67-45b1-8c67-d55cdbd5ea38","ios":"levelo://app?vid=0ba311ff-df67-45b1-8c67-d55cdbd5ea38"},"vehicle_type_id":"4","last_reported":1714583250,"current_range_meters":800,"station_id":"ce4bgt12rcd13ifvqcd0","pricing_plan_id":"cebpf4jnsgd1na2vs0mg"},{"bike_id":"83595469-5843-4c51-be62-848347a4414e","system_id":"levelo_inurba_marseille","lat":43.314811,"lon":5.373104,"is_reserved":false,"is_disabled":false,"rental_uris":{"android":"levelo://app?vid=83595469-5843-4c51-be62-848347a4414e","ios":"levelo://app?vid=83595469-5843-4c51-be62-848347a4414e"},"vehicle_type_id":"4","last_reported":1714583250,"current_range_meters":24000,"station_id":"ce4bgt12rcd13ifvqcd0","pricing_plan_id":"cebpf4jnsgd1na2vs0mg"},{"bike_id":"5b02c3dd-d94d-4d6d-86a9-d25639147933","system_id":"levelo_inurba_marseille","lat":43.314811,"lon":5.373103,"is_reserved":false,"is_disabled":false,"rental_uris":{"android":"levelo://app?vid=5b02c3dd-d94d-4d6d-86a9-d25639147933","ios":"levelo://app?vid=5b02c3dd-d94d-4d6d-86a9-d25639147933"},"vehicle_type_id":"4","last_reported":1714583250,"current_range_meters":12800,"station_id":"ce4bgt12rcd13ifvqcd0","pricing_plan_id":"cebpf4jnsgd1na2vs0mg"},{"bike_id":"c0b20e31-73d8-45e1-bf40-07194171a4b7","system_id":"levelo_inurba_marseille","lat":43.309034,"lon":5.371783,"is_reserved":false,"is_disabled":false,"rental_uris":{"android":"levelo://app?vid=c0b20e31-73d8-45e1-bf40-07194171a4b7","ios":"levelo://app?vid=c0b20e31-73d8-45e1-bf40-07194171a4b7"},"vehicle_type_id":"4","last_reported":1714583250,"current_range_meters":18800,"station_id":"ce4bguh2rcd13ifvqckg","pricing_plan_id":"cebpf4jnsgd1na2vs0mg"},{"bike_id":"30609b32-4cc5-4fc3-a2ca-fef958e0a571","system_id":"levelo_inurba_marseille","lat":43.309039,"lon":5.371797,"is_reserved":false,"is_disabled":false,"rental_uris":{"android":"levelo://app?vid=30609b32-4cc5-4fc3-a2ca-fef958e0a571","ios":"levelo://app?vid=30609b32-4cc5-4fc3-a2ca-fef958e0a571"},"vehicle_type_id":"4","last_reported":1714583250,"current_range_meters":5600,"station_id":"ce4bguh2rcd13ifvqckg","pricing_plan_id":"cebpf4jnsgd1na2vs0mg"},{"bike_id":"9bf09cfe-c2db-4536-8936-c4f3bf375986","system_id":"levelo_inurba_marseille","lat":43.305706,"lon":5.365654,"is_reserved":false,"is_disabled":false,"rental_uris":{"android":"levelo://app?vid=9bf09cfe-c2db-4536-8936-c4f3bf375986","ios":"levelo://app?vid=9bf09cfe-c2db-4536-8936-c4f3bf375986"},"vehicle_type_id":"4","last_reported":1714583250,"current_range_meters":2000,"station_id":"ce4bgs12rcd13ifvqcag","pricing_plan_id":"cebpf4jnsgd1na2vs0mg"},{"bike_id":"1c947f81-d192-4142-bd8c-39a47302dda1","system_id":"levelo_inurba_marseille","lat":43.305714,"lon":5.365633,"is_reserved":false,"is_disabled":false,"rental_uris":{"android":"levelo://app?vid=1c947f81-d192-4142-bd8c-39a47302dda1","ios":"levelo://app?vid=1c947f81-d192-4142-bd8c-39a47302dda1"},"vehicle_type_id":"4","last_reported":1714583250,"current_range_meters":17600,"station_id":"ce4bgs12rcd13ifvqcag","pricing_plan_id":"cebpf4jnsgd1na2vs0mg"},{"bike_id":"fbe05777-4a21-4dc1-87ab-a94490bf884e","system_id":"levelo_inurba_marseille","lat":43.305714,"lon":5.365633,"is_reserved":false,"is_disabled":false,"rental_uris":{"android":"levelo://app?vid=fbe05777-4a21-4dc1-87ab-a94490bf884e","ios":"levelo://app?vid=fbe05777-4a21-4dc1-87ab-a94490bf884e"},"vehicle_type_id":"4","last_reported":1714583250,"current_range_meters":5200,"station_id":"ce4bgs12rcd13ifvqcag","pricing_plan_id":"cebpf4jnsgd1na2vs0mg"},{"bike_id":"9342317a-5d32-4f7c-aa79-578db10d9f37","system_id":"levelo_inurba_marseille","lat":43.305706,"lon":5.365654,"is_reserved":false,"is_disabled":false,"rental_uris":{"android":"levelo://app?vid=9342317a-5d32-4f7c-aa79-578db10d9f37","ios":"levelo://app?vid=9342317a-5d32-4f7c-aa79-578db10d9f37"},"vehicle_type_id":"4","last_reported":1714583250,"current_range_meters":29200,"station_id":"ce4bgs12rcd13ifvqcag","pricing_plan_id":"cebpf4jnsgd1na2vs0mg"},{"bike_id":"b2016577-ae59-4f63-b974-babf4c672591","system_id":"levelo_inurba_marseille","lat":43.305989,"lon":5.37225,"is_reserved":false,"is_disabled":false,"rental_uris":{"android":"levelo://app?vid=b2016577-ae59-4f63-b974-babf4c672591","ios":"levelo://app?vid=b2016577-ae59-4f63-b974-babf4c672591"},"vehicle_type_id":"4","last_reported":1714583250,"current_range_meters":6000,"station_id":"ce4bgqh2rcd13ifvqc4g","pricing_plan_id":"cebpf4jnsgd1na2vs0mg"},{"bike_id":"6520f4c7-08a5-49eb-9213-9704f5a644e1","system_id":"levelo_inurba_marseille","lat":43.311125,"lon":5.377624,"is_reserved":false,"is_disabled":false,"rental_uris":{"android":"levelo://app?vid=6520f4c7-08a5-49eb-9213-9704f5a644e1","ios":"levelo://app?vid=6520f4c7-08a5-49eb-9213-9704f5a644e1"},"vehicle_type_id":"4","last_reported":1714583250,"current_range_meters":0,"station_id":"ce4bgt92rcd13ifvqcg0","pricing_plan_id":"cebpf4jnsgd1na2vs0mg"},{"bike_id":"5a1299e0-3614-41de-9a1c-2238121fda54","system_id":"levelo_inurba_marseille","lat":43.311125,"lon":5.377624,"is_reserved":false,"is_disabled":false,"rental_uris":{"android":"levelo://app?vid=5a1299e0-3614-41de-9a1c-2238121fda54","ios":"levelo://app?vid=5a1299e0-3614-41de-9a1c-2238121fda54"},"vehicle_type_id":"4","last_reported":1714583250,"current_range_meters":0,"station_id":"ce4bgt92rcd13ifvqcg0","pricing_plan_id":"cebpf4jnsgd1na2vs0mg"},{"bike_id":"1da7745d-6aa3-48b2-8a1b-c074265850df","system_id":"levelo_inurba_marseille","lat":43.311125,"lon":5.377624,"is_reserved":false,"is_disabled":false,"rental_uris":{"android":"levelo://app?vid=1da7745d-6aa3-48b2-8a1b-c074265850df","ios":"levelo://app?vid=1da7745d-6aa3-48b2-8a1b-c074265850df"},"vehicle_type_id":"4","last_reported":1714583250,"current_range_meters":0,"station_id":"ce4bgt92rcd13ifvqcg0","pricing_plan_id":"cebpf4jnsgd1na2vs0mg"},{"bike_id":"3d0d8cb0-1a8d-4279-8fe7-b15ea8c557ee","system_id":"levelo_inurba_marseille","lat":43.307945,"lon":5.376487,"is_reserved":false,"is_disabled":false,"rental_uris":{"android":"levelo://app?vid=3d0d8cb0-1a8d-4279-8fe7-b15ea8c557ee","ios":"levelo://app?vid=3d0d8cb0-1a8d-4279-8fe7-b15ea8c557ee"},"vehicle_type_id":"4","last_reported":1714583250,"current_range_meters":22800,"station_id":"ce4bgv92rcd13ifvqcq0","pricing_plan_id":"cebpf4jnsgd1na2vs0mg"},{"bike_id":"7bf26cd0-4b2e-4e83-9bdf-152c6c4d9a98","system_id":"levelo_inurba_marseille","lat":43.307841,"lon":5.376496,"is_reserved":false,"is_disabled":false,"rental_uris":{"android":"levelo://app?vid=7bf26cd0-4b2e-4e83-9bdf-152c6c4d9a98","ios":"levelo://app?vid=7bf26cd0-4b2e-4e83-9bdf-152c6c4d9a98"},"vehicle_type_id":"4","last_reported":1714583250,"current_range_meters":0,"station_id":"","pricing_plan_id":"cebpf4jnsgd1na2vs0mg"},{"bike_id":"6c0db364-08b2-479d-8417-b1eff8ac01e3","system_id":"levelo_inurba_marseille","lat":43.30788,"lon":5.37656,"is_reserved":false,"is_disabled":false,"rental_uris":{"android":"levelo://app?vid=6c0db364-08b2-479d-8417-b1eff8ac01e3","ios":"levelo://app?vid=6c0db364-08b2-479d-8417-b1eff8ac01e3"},"vehicle_type_id":"4","last_reported":1714583250,"current_range_meters":0,"station_id":"","pricing_plan_id":"cebpf4jnsgd1na2vs0mg"},{"bike_id":"98d580f9-42ca-4e12-9d14-2cd9b6caf836","system_id":"levelo_inurba_marseille","lat":43.31716,"lon":5.37779,"is_reserved":false,"is_disabled":false,"rental_uris":{"android":"levelo://app?vid=98d580f9-42ca-4e12-9d14-2cd9b6caf836","ios":"levelo://app?vid=98d580f9-42ca-4e12-9d14-2cd9b6caf836"},"vehicle_type_id":"4","last_reported":1714583250,"current_range_meters":4400,"station_id":"ce4bgth2rcd13ifvqch0","pricing_plan_id":"cebpf4jnsgd1na2vs0mg"},{"bike_id":"73d6b833-c5f2-4ce7-9fb4-07f4b7e85809","system_id":"levelo_inurba_marseille","lat":43.303046,"lon":5.368981,"is_reserved":false,"is_disabled":false,"rental_uris":{"android":"levelo://app?vid=73d6b833-c5f2-4ce7-9fb4-07f4b7e85809","ios":"levelo://app?vid=73d6b833-c5f2-4ce7-9fb4-07f4b7e85809"},"vehicle_type_id":"4","last_reported":1714583250,"current_range_meters":800,"station_id":"ce4bgqh2rcd13ifvqc5g","pricing_plan_id":"cebpf4jnsgd1na2vs0mg"},{"bike_id":"9c23cc21-2b22-4b1f-9cef-6798abaab02d","system_id":"levelo_inurba_marseille","lat":43.303046,"lon":5.368981,"is_reserved":false,"is_disabled":false,"rental_uris":{"android":"levelo://app?vid=9c23cc21-2b22-4b1f-9cef-6798abaab02d","ios":"levelo://app?vid=9c23cc21-2b22-4b1f-9cef-6798abaab02d"},"vehicle_type_id":"4","last_reported":1714583250,"current_range_meters":12000,"station_id":"ce4bgqh2rcd13ifvqc5g","pricing_plan_id":"cebpf4jnsgd1na2vs0mg"},{"bike_id":"462d40a2-108e-4f64-846f-75b104d0d7a4","system_id":"levelo_inurba_marseille","lat":43.303046,"lon":5.368981,"is_reserved":false,"is_disabled":false,"rental_uris":{"android":"levelo://app?vid=462d40a2-108e-4f64-846f-75b104d0d7a4","ios":"levelo://app?vid=462d40a2-108e-4f64-846f-75b104d0d7a4"},"vehicle_type_id":"4","last_reported":1714583250,"current_range_meters":24800,"station_id":"ce4bgqh2rcd13ifvqc5g","pricing_plan_id":"cebpf4jnsgd1na2vs0mg"},{"bike_id":"97ef39f5-0215-4ebc-856f-da512d46c5a4","system_id":"levelo_inurba_marseille","lat":43.303046,"lon":5.368981,"is_reserved":false,"is_disabled":false,"rental_uris":{"android":"levelo://app?vid=97ef39f5-0215-4ebc-856f-da512d46c5a4","ios":"levelo://app?vid=97ef39f5-0215-4ebc-856f-da512d46c5a4"},"vehicle_type_id":"4","last_reported":1714583250,"current_range_meters":0,"station_id":"ce4bgqh2rcd13ifvqc5g","pricing_plan_id":"cebpf4jnsgd1na2vs0mg"},{"bike_id":"55f036df-8acb-4996-8966-51fa5370205b","system_id":"levelo_inurba_marseille","lat":43.315289,"lon":5.380349,"is_reserved":false,"is_disabled":false,"rental_uris":{"android":"levelo://app?vid=55f036df-8acb-4996-8966-51fa5370205b","ios":"levelo://app?vid=55f036df-8acb-4996-8966-51fa5370205b"},"vehicle_type_id":"4","last_reported":1714583250,"current_range_meters":9600,"station_id":"ce4bhsp2rcd13ifvqi50","pricing_plan_id":"cebpf4jnsgd1na2vs0mg"},{"bike_id":"229eacbb-7aa0-462d-84b8-e39b54ca4537","system_id":"levelo_inurba_marseille","lat":43.315293,"lon":5.380349,"is_reserved":false,"is_disabled":false,"rental_uris":{"android":"levelo://app?vid=229eacbb-7aa0-462d-84b8-e39b54ca4537","ios":"levelo://app?vid=229eacbb-7aa0-462d-84b8-e39b54ca4537"},"vehicle_type_id":"4","last_reported":1714583250,"current_range_meters":29600,"station_id":"ce4bhsp2rcd13ifvqi50","pricing_plan_id":"cebpf4jnsgd1na2vs0mg"},{"bike_id":"e45a2247-e6e0-47df-8be3-50b6f9519f4d","system_id":"levelo_inurba_marseille","lat":43.315289,"lon":5.380349,"is_reserved":false,"is_disabled":false,"rental_uris":{"android":"levelo://app?vid=e45a2247-e6e0-47df-8be3-50b6f9519f4d","ios":"levelo://app?vid=e45a2247-e6e0-47df-8be3-50b6f9519f4d"},"vehicle_type_id":"4","last_reported":1714583250,"current_range_meters":4400,"station_id":"ce4bhsp2rcd13ifvqi50","pricing_plan_id":"cebpf4jnsgd1na2vs0mg"},{"bike_id":"6cecd45a-75bb-497b-91df-a3c6497689f6","system_id":"levelo_inurba_marseille","lat":43.301939,"lon":5.366286,"is_reserved":false,"is_disabled":false,"rental_uris":{"android":"levelo://app?vid=6cecd45a-75bb-497b-91df-a3c6497689f6","ios":"levelo://app?vid=6cecd45a-75bb-497b-91df-a3c6497689f6"},"vehicle_type_id":"4","last_reported":1714583250,"current_range_meters":14400,"station_id":"ce4bgrh2rcd13ifvqc8g","pricing_plan_id":"cebpf4jnsgd1na2vs0mg"},{"bike_id":"09d92cc1-8f21-4347-875e-bb87d2ed7f89","system_id":"levelo_inurba_marseille","lat":43.301939,"lon":5.366286,"is_reserved":false,"is_disabled":false,"rental_uris":{"android":"levelo://app?vid=09d92cc1-8f21-4347-875e-bb87d2ed7f89","ios":"levelo://app?vid=09d92cc1-8f21-4347-875e-bb87d2ed7f89"},"vehicle_type_id":"4","last_reported":1714583250,"current_range_meters":23600,"station_id":"ce4bgrh2rcd13ifvqc8g","pricing_plan_id":"cebpf4jnsgd1na2vs0mg"},{"bike_id":"1838917b-2bef-4383-91d2-74a0df38a58c","system_id":"levelo_inurba_marseille","lat":43.301939,"lon":5.366286,"is_reserved":false,"is_disabled":false,"rental_uris":{"android":"levelo://app?vid=1838917b-2bef-4383-91d2-74a0df38a58c","ios":"levelo://app?vid=1838917b-2bef-4383-91d2-74a0df38a58c"},"vehicle_type_id":"4","last_reported":1714583250,"current_range_meters":26000,"station_id":"ce4bgrh2rcd13ifvqc8g","pricing_plan_id":"cebpf4jnsgd1na2vs0mg"},{"bike_id":"7eb4a802-b190-43e2-b299-64c53364be52","system_id":"levelo_inurba_marseille","lat":43.301939,"lon":5.366286,"is_reserved":false,"is_disabled":false,"rental_uris":{"android":"levelo://app?vid=7eb4a802-b190-43e2-b299-64c53364be52","ios":"levelo://app?vid=7eb4a802-b190-43e2-b299-64c53364be52"},"vehicle_type_id":"4","last_reported":1714583250,"current_range_meters":14800,"station_id":"ce4bgrh2rcd13ifvqc8g","pricing_plan_id":"cebpf4jnsgd1na2vs0mg"},{"bike_id":"6fc7fbc5-230e-413c-b034-ae6552f9f8df","system_id":"levelo_inurba_marseille","lat":43.302784,"lon":5.377158,"is_reserved":false,"is_disabled":false,"rental_uris":{"android":"levelo://app?vid=6fc7fbc5-230e-413c-b034-ae6552f9f8df","ios":"levelo://app?vid=6fc7fbc5-230e-413c-b034-ae6552f9f8df"},"vehicle_type_id":"4","last_reported":1714583250,"current_range_meters":15600,"station_id":"ce4bguh2rcd13ifvqcj0","pricing_plan_id":"cebpf4jnsgd1na2vs0mg"},{"bike_id":"a21654e0-e8aa-4445-8dfc-9e2ac3edabc0","system_id":"levelo_inurba_marseille","lat":43.307825,"lon":5.381706,"is_reserved":false,"is_disabled":false,"rental_uris":{"android":"levelo://app?vid=a21654e0-e8aa-4445-8dfc-9e2ac3edabc0","ios":"levelo://app?vid=a21654e0-e8aa-4445-8dfc-9e2ac3edabc0"},"vehicle_type_id":"4","last_reported":1714583250,"current_range_meters":0,"station_id":"ce4bgt12rcd13ifvqce0","pricing_plan_id":"cebpf4jnsgd1na2vs0mg"},{"bike_id":"97e5fddc-061a-45d1-904f-f56288e218f6","system_id":"levelo_inurba_marseille","lat":43.304606,"lon":5.379026,"is_reserved":false,"is_disabled":false,"rental_uris":{"android":"levelo://app?vid=97e5fddc-061a-45d1-904f-f56288e218f6","ios":"levelo://app?vid=97e5fddc-061a-45d1-904f-f56288e218f6"},"vehicle_type_id":"4","last_reported":1714583250,"current_range_meters":0,"station_id":"ce4bgup2rcd13ifvqcn0","pricing_plan_id":"cebpf4jnsgd1na2vs0mg"},{"bike_id":"da3c6d5b-3111-4489-bbba-380dbecf7633","system_id":"levelo_inurba_marseille","lat":43.304606,"lon":5.379026,"is_reserved":false,"is_disabled":false,"rental_uris":{"android":"levelo://app?vid=da3c6d5b-3111-4489-bbba-380dbecf7633","ios":"levelo://app?vid=da3c6d5b-3111-4489-bbba-380dbecf7633"},"vehicle_type_id":"4","last_reported":1714583250,"current_range_meters":0,"station_id":"ce4bgup2rcd13ifvqcn0","pricing_plan_id":"cebpf4jnsgd1na2vs0mg"},{"bike_id":"cb5035c4-9e66-46e5-baea-a68bc4206adf","system_id":"levelo_inurba_marseille","lat":43.324762,"lon":5.365762,"is_reserved":false,"is_disabled":false,"rental_uris":{"android":"levelo://app?vid=cb5035c4-9e66-46e5-baea-a68bc4206adf","ios":"levelo://app?vid=cb5035c4-9e66-46e5-baea-a68bc4206adf"},"vehicle_type_id":"4","last_reported":1714583250,"current_range_meters":16000,"station_id":"ce4bhs12rcd13ifvqhvg","pricing_plan_id":"cebpf4jnsgd1na2vs0mg"},{"bike_id":"e560c9f7-9a68-4c7c-a574-1ae51de44590","system_id":"levelo_inurba_marseille","lat":43.324771,"lon":5.36557,"is_reserved":false,"is_disabled":false,"rental_uris":{"android":"levelo://app?vid=e560c9f7-9a68-4c7c-a574-1ae51de44590","ios":"levelo://app?vid=e560c9f7-9a68-4c7c-a574-1ae51de44590"},"vehicle_type_id":"4","last_reported":1714583250,"current_range_meters":31200,"station_id":"ce4bhs12rcd13ifvqhvg","pricing_plan_id":"cebpf4jnsgd1na2vs0mg"},{"bike_id":"ff14dfe6-78af-413d-a3ea-3b224d7ea33d","system_id":"levelo_inurba_marseille","lat":43.324771,"lon":5.36557,"is_reserved":false,"is_disabled":false,"rental_uris":{"android":"levelo://app?vid=ff14dfe6-78af-413d-a3ea-3b224d7ea33d","ios":"levelo://app?vid=ff14dfe6-78af-413d-a3ea-3b224d7ea33d"},"vehicle_type_id":"4","last_reported":1714583250,"current_range_meters":19200,"station_id":"ce4bhs12rcd13ifvqhvg","pricing_plan_id":"cebpf4jnsgd1na2vs0mg"},{"bike_id":"1c9411c0-d42f-4c9c-954b-623621242b42","system_id":"levelo_inurba_marseille","lat":43.324771,"lon":5.36557,"is_reserved":false,"is_disabled":false,"rental_uris":{"android":"levelo://app?vid=1c9411c0-d42f-4c9c-954b-623621242b42","ios":"levelo://app?vid=1c9411c0-d42f-4c9c-954b-623621242b42"},"vehicle_type_id":"4","last_reported":1714583250,"current_range_meters":8400,"station_id":"ce4bhs12rcd13ifvqhvg","pricing_plan_id":"cebpf4jnsgd1na2vs0mg"},{"bike_id":"505c9fc0-49c3-4c39-ab88-1ba2555dbf58","system_id":"levelo_inurba_marseille","lat":43.3248,"lon":5.36582,"is_reserved":false,"is_disabled":false,"rental_uris":{"android":"levelo://app?vid=505c9fc0-49c3-4c39-ab88-1ba2555dbf58","ios":"levelo://app?vid=505c9fc0-49c3-4c39-ab88-1ba2555dbf58"},"vehicle_type_id":"4","last_reported":1714583250,"current_range_meters":6800,"station_id":"ce4bhs12rcd13ifvqhvg","pricing_plan_id":"cebpf4jnsgd1na2vs0mg"},{"bike_id":"06ac2027-09f1-4680-aa1f-6ab726213cb9","system_id":"levelo_inurba_marseille","lat":43.324771,"lon":5.36557,"is_reserved":false,"is_disabled":false,"rental_uris":{"android":"levelo://app?vid=06ac2027-09f1-4680-aa1f-6ab726213cb9","ios":"levelo://app?vid=06ac2027-09f1-4680-aa1f-6ab726213cb9"},"vehicle_type_id":"4","last_reported":1714583250,"current_range_meters":15600,"station_id":"ce4bhs12rcd13ifvqhvg","pricing_plan_id":"cebpf4jnsgd1na2vs0mg"},{"bike_id":"a220ad8e-30f9-4404-aa2e-6db3aa6afb45","system_id":"levelo_inurba_marseille","lat":43.324771,"lon":5.36557,"is_reserved":false,"is_disabled":false,"rental_uris":{"android":"levelo://app?vid=a220ad8e-30f9-4404-aa2e-6db3aa6afb45","ios":"levelo://app?vid=a220ad8e-30f9-4404-aa2e-6db3aa6afb45"},"vehicle_type_id":"4","last_reported":1714583250,"current_range_meters":30800,"station_id":"ce4bhs12rcd13ifvqhvg","pricing_plan_id":"cebpf4jnsgd1na2vs0mg"},{"bike_id":"51b7c40f-72b8-4c8d-9344-83420c22fcac","system_id":"levelo_inurba_marseille","lat":43.324813,"lon":5.365705,"is_reserved":false,"is_disabled":false,"rental_uris":{"android":"levelo://app?vid=51b7c40f-72b8-4c8d-9344-83420c22fcac","ios":"levelo://app?vid=51b7c40f-72b8-4c8d-9344-83420c22fcac"},"vehicle_type_id":"4","last_reported":1714583250,"current_range_meters":13200,"station_id":"ce4bhs12rcd13ifvqhvg","pricing_plan_id":"cebpf4jnsgd1na2vs0mg"},{"bike_id":"c309f7ba-6ad6-4d3f-a1a7-a3843971cf8b","system_id":"levelo_inurba_marseille","lat":43.324771,"lon":5.36557,"is_reserved":false,"is_disabled":false,"rental_uris":{"android":"levelo://app?vid=c309f7ba-6ad6-4d3f-a1a7-a3843971cf8b","ios":"levelo://app?vid=c309f7ba-6ad6-4d3f-a1a7-a3843971cf8b"},"vehicle_type_id":"4","last_reported":1714583250,"current_range_meters":19600,"station_id":"ce4bhs12rcd13ifvqhvg","pricing_plan_id":"cebpf4jnsgd1na2vs0mg"},{"bike_id":"caadc003-ff39-41d7-a207-143cea53cb36","system_id":"levelo_inurba_marseille","lat":43.32483,"lon":5.36572,"is_reserved":false,"is_disabled":false,"rental_uris":{"android":"levelo://app?vid=caadc003-ff39-41d7-a207-143cea53cb36","ios":"levelo://app?vid=caadc003-ff39-41d7-a207-143cea53cb36"},"vehicle_type_id":"4","last_reported":1714583250,"current_range_meters":26000,"station_id":"ce4bhs12rcd13ifvqhvg","pricing_plan_id":"cebpf4jnsgd1na2vs0mg"},{"bike_id":"b542f8ad-0de0-40a1-9ef7-53b385381a12","system_id":"levelo_inurba_marseille","lat":43.324771,"lon":5.36557,"is_reserved":false,"is_disabled":false,"rental_uris":{"android":"levelo://app?vid=b542f8ad-0de0-40a1-9ef7-53b385381a12","ios":"levelo://app?vid=b542f8ad-0de0-40a1-9ef7-53b385381a12"},"vehicle_type_id":"4","last_reported":1714583250,"current_range_meters":29600,"station_id":"ce4bhs12rcd13ifvqhvg","pricing_plan_id":"cebpf4jnsgd1na2vs0mg"},{"bike_id":"e241a4ea-bebf-4b92-b285-45ceaec40dd8","system_id":"levelo_inurba_marseille","lat":43.324771,"lon":5.36557,"is_reserved":false,"is_disabled":false,"rental_uris":{"android":"levelo://app?vid=e241a4ea-bebf-4b92-b285-45ceaec40dd8","ios":"levelo://app?vid=e241a4ea-bebf-4b92-b285-45ceaec40dd8"},"vehicle_type_id":"4","last_reported":1714583250,"current_range_meters":16800,"station_id":"ce4bhs12rcd13ifvqhvg","pricing_plan_id":"cebpf4jnsgd1na2vs0mg"},{"bike_id":"775b5193-55cb-42f1-b0fa-acd6f40ef433","system_id":"levelo_inurba_marseille","lat":43.324771,"lon":5.36557,"is_reserved":false,"is_disabled":false,"rental_uris":{"android":"levelo://app?vid=775b5193-55cb-42f1-b0fa-acd6f40ef433","ios":"levelo://app?vid=775b5193-55cb-42f1-b0fa-acd6f40ef433"},"vehicle_type_id":"4","last_reported":1714583250,"current_range_meters":25200,"station_id":"ce4bhs12rcd13ifvqhvg","pricing_plan_id":"cebpf4jnsgd1na2vs0mg"},{"bike_id":"b22ab42e-8a3a-4ec7-97c5-d3fb72660fea","system_id":"levelo_inurba_marseille","lat":43.324771,"lon":5.36557,"is_reserved":false,"is_disabled":false,"rental_uris":{"android":"levelo://app?vid=b22ab42e-8a3a-4ec7-97c5-d3fb72660fea","ios":"levelo://app?vid=b22ab42e-8a3a-4ec7-97c5-d3fb72660fea"},"vehicle_type_id":"4","last_reported":1714583250,"current_range_meters":31200,"station_id":"ce4bhs12rcd13ifvqhvg","pricing_plan_id":"cebpf4jnsgd1na2vs0mg"},{"bike_id":"b21ae7ee-dd87-4fb7-a859-109931d2977d","system_id":"levelo_inurba_marseille","lat":43.324846,"lon":5.365614,"is_reserved":false,"is_disabled":false,"rental_uris":{"android":"levelo://app?vid=b21ae7ee-dd87-4fb7-a859-109931d2977d","ios":"levelo://app?vid=b21ae7ee-dd87-4fb7-a859-109931d2977d"},"vehicle_type_id":"4","last_reported":1714583250,"current_range_meters":14000,"station_id":"ce4bhs12rcd13ifvqhvg","pricing_plan_id":"cebpf4jnsgd1na2vs0mg"},{"bike_id":"0a4a6ca4-0474-4f68-b089-af26c0c8b25a","system_id":"levelo_inurba_marseille","lat":43.324771,"lon":5.36557,"is_reserved":false,"is_disabled":false,"rental_uris":{"android":"levelo://app?vid=0a4a6ca4-0474-4f68-b089-af26c0c8b25a","ios":"levelo://app?vid=0a4a6ca4-0474-4f68-b089-af26c0c8b25a"},"vehicle_type_id":"4","last_reported":1714583250,"current_range_meters":15200,"station_id":"ce4bhs12rcd13ifvqhvg","pricing_plan_id":"cebpf4jnsgd1na2vs0mg"},{"bike_id":"ec9ad42d-7bf5-43ef-a2cf-ce73f78031d9","system_id":"levelo_inurba_marseille","lat":43.324771,"lon":5.36557,"is_reserved":false,"is_disabled":false,"rental_uris":{"android":"levelo://app?vid=ec9ad42d-7bf5-43ef-a2cf-ce73f78031d9","ios":"levelo://app?vid=ec9ad42d-7bf5-43ef-a2cf-ce73f78031d9"},"vehicle_type_id":"4","last_reported":1714583250,"current_range_meters":18800,"station_id":"ce4bhs12rcd13ifvqhvg","pricing_plan_id":"cebpf4jnsgd1na2vs0mg"},{"bike_id":"6b85554c-f195-4dc5-977f-2b7beb5ffe88","system_id":"levelo_inurba_marseille","lat":43.32487,"lon":5.36576,"is_reserved":false,"is_disabled":false,"rental_uris":{"android":"levelo://app?vid=6b85554c-f195-4dc5-977f-2b7beb5ffe88","ios":"levelo://app?vid=6b85554c-f195-4dc5-977f-2b7beb5ffe88"},"vehicle_type_id":"4","last_reported":1714583250,"current_range_meters":20000,"station_id":"ce4bhs12rcd13ifvqhvg","pricing_plan_id":"cebpf4jnsgd1na2vs0mg"},{"bike_id":"8ccf011a-799a-4e35-b9db-259dbe404c33","system_id":"levelo_inurba_marseille","lat":43.31069,"lon":5.3834,"is_reserved":false,"is_disabled":false,"rental_uris":{"android":"levelo://app?vid=8ccf011a-799a-4e35-b9db-259dbe404c33","ios":"levelo://app?vid=8ccf011a-799a-4e35-b9db-259dbe404c33"},"vehicle_type_id":"4","last_reported":1714583250,"current_range_meters":12400,"station_id":"ce4bgv92rcd13ifvqcr0","pricing_plan_id":"cebpf4jnsgd1na2vs0mg"},{"bike_id":"9be55c1a-cb3b-4d2b-ad3d-b651bcb18556","system_id":"levelo_inurba_marseille","lat":43.313571,"lon":5.384829,"is_reserved":false,"is_disabled":false,"rental_uris":{"android":"levelo://app?vid=9be55c1a-cb3b-4d2b-ad3d-b651bcb18556","ios":"levelo://app?vid=9be55c1a-cb3b-4d2b-ad3d-b651bcb18556"},"vehicle_type_id":"4","last_reported":1714583250,"current_range_meters":3600,"station_id":"ce4bgt92rcd13ifvqcf0","pricing_plan_id":"cebpf4jnsgd1na2vs0mg"},{"bike_id":"f0da008e-c303-4534-86e1-2f8d9b832abc","system_id":"levelo_inurba_marseille","lat":43.324771,"lon":5.36557,"is_reserved":false,"is_disabled":false,"rental_uris":{"android":"levelo://app?vid=f0da008e-c303-4534-86e1-2f8d9b832abc","ios":"levelo://app?vid=f0da008e-c303-4534-86e1-2f8d9b832abc"},"vehicle_type_id":"4","last_reported":1714583250,"current_range_meters":18000,"station_id":"ce4bhs12rcd13ifvqhvg","pricing_plan_id":"cebpf4jnsgd1na2vs0mg"},{"bike_id":"fca0512a-e514-43b3-a37e-665741369b77","system_id":"levelo_inurba_marseille","lat":43.324771,"lon":5.36557,"is_reserved":false,"is_disabled":false,"rental_uris":{"android":"levelo://app?vid=fca0512a-e514-43b3-a37e-665741369b77","ios":"levelo://app?vid=fca0512a-e514-43b3-a37e-665741369b77"},"vehicle_type_id":"4","last_reported":1714583250,"current_range_meters":13600,"station_id":"ce4bhs12rcd13ifvqhvg","pricing_plan_id":"cebpf4jnsgd1na2vs0mg"},{"bike_id":"321f9d28-ee7f-4afa-a28c-be53e03f8d73","system_id":"levelo_inurba_marseille","lat":43.310804,"lon":5.38359,"is_reserved":false,"is_disabled":false,"rental_uris":{"android":"levelo://app?vid=321f9d28-ee7f-4afa-a28c-be53e03f8d73","ios":"levelo://app?vid=321f9d28-ee7f-4afa-a28c-be53e03f8d73"},"vehicle_type_id":"4","last_reported":1714583250,"current_range_meters":0,"station_id":"ce4bgv92rcd13ifvqcr0","pricing_plan_id":"cebpf4jnsgd1na2vs0mg"},{"bike_id":"f008f77f-4fa9-4fb9-b447-a83c703f3529","system_id":"levelo_inurba_marseille","lat":43.310698,"lon":5.383496,"is_reserved":false,"is_disabled":false,"rental_uris":{"android":"levelo://app?vid=f008f77f-4fa9-4fb9-b447-a83c703f3529","ios":"levelo://app?vid=f008f77f-4fa9-4fb9-b447-a83c703f3529"},"vehicle_type_id":"4","last_reported":1714583250,"current_range_meters":28400,"station_id":"ce4bgv92rcd13ifvqcr0","pricing_plan_id":"cebpf4jnsgd1na2vs0mg"},{"bike_id":"692741d9-348f-48d1-a642-964ae52a41c0","system_id":"levelo_inurba_marseille","lat":43.310804,"lon":5.38359,"is_reserved":false,"is_disabled":false,"rental_uris":{"android":"levelo://app?vid=692741d9-348f-48d1-a642-964ae52a41c0","ios":"levelo://app?vid=692741d9-348f-48d1-a642-964ae52a41c0"},"vehicle_type_id":"4","last_reported":1714583250,"current_range_meters":24000,"station_id":"ce4bgv92rcd13ifvqcr0","pricing_plan_id":"cebpf4jnsgd1na2vs0mg"},{"bike_id":"314ff1cc-f494-4905-bb66-fca0d47b8dab","system_id":"levelo_inurba_marseille","lat":43.302784,"lon":5.377158,"is_reserved":false,"is_disabled":false,"rental_uris":{"android":"levelo://app?vid=314ff1cc-f494-4905-bb66-fca0d47b8dab","ios":"levelo://app?vid=314ff1cc-f494-4905-bb66-fca0d47b8dab"},"vehicle_type_id":"4","last_reported":1714583250,"current_range_meters":15200,"station_id":"ce4bguh2rcd13ifvqcj0","pricing_plan_id":"cebpf4jnsgd1na2vs0mg"},{"bike_id":"7469c1fa-139c-411b-bd4c-f7161e5b3e32","system_id":"levelo_inurba_marseille","lat":43.310804,"lon":5.38359,"is_reserved":false,"is_disabled":false,"rental_uris":{"android":"levelo://app?vid=7469c1fa-139c-411b-bd4c-f7161e5b3e32","ios":"levelo://app?vid=7469c1fa-139c-411b-bd4c-f7161e5b3e32"},"vehicle_type_id":"4","last_reported":1714583250,"current_range_meters":400,"station_id":"ce4bgv92rcd13ifvqcr0","pricing_plan_id":"cebpf4jnsgd1na2vs0mg"},{"bike_id":"c43716b3-a7f7-4f3f-b261-9e8bf81c90b5","system_id":"levelo_inurba_marseille","lat":43.310804,"lon":5.38359,"is_reserved":false,"is_disabled":false,"rental_uris":{"android":"levelo://app?vid=c43716b3-a7f7-4f3f-b261-9e8bf81c90b5","ios":"levelo://app?vid=c43716b3-a7f7-4f3f-b261-9e8bf81c90b5"},"vehicle_type_id":"4","last_reported":1714583250,"current_range_meters":12000,"station_id":"ce4bgv92rcd13ifvqcr0","pricing_plan_id":"cebpf4jnsgd1na2vs0mg"},{"bike_id":"3bedbede-c746-41d8-9c70-c89ad7971b87","system_id":"levelo_inurba_marseille","lat":43.302784,"lon":5.377158,"is_reserved":false,"is_disabled":false,"rental_uris":{"android":"levelo://app?vid=3bedbede-c746-41d8-9c70-c89ad7971b87","ios":"levelo://app?vid=3bedbede-c746-41d8-9c70-c89ad7971b87"},"vehicle_type_id":"4","last_reported":1714583250,"current_range_meters":1200,"station_id":"ce4bguh2rcd13ifvqcj0","pricing_plan_id":"cebpf4jnsgd1na2vs0mg"},{"bike_id":"0289819b-b6a6-4e1d-b0e6-ef94f3695b45","system_id":"levelo_inurba_marseille","lat":43.30143,"lon":5.37413,"is_reserved":false,"is_disabled":false,"rental_uris":{"android":"levelo://app?vid=0289819b-b6a6-4e1d-b0e6-ef94f3695b45","ios":"levelo://app?vid=0289819b-b6a6-4e1d-b0e6-ef94f3695b45"},"vehicle_type_id":"4","last_reported":1714583250,"current_range_meters":5600,"station_id":"ce4bgs92rcd13ifvqcc0","pricing_plan_id":"cebpf4jnsgd1na2vs0mg"},{"bike_id":"6b9f3464-f2c7-4bde-a31f-ee0bbe1eff34","system_id":"levelo_inurba_marseille","lat":43.319988,"lon":5.381082,"is_reserved":false,"is_disabled":false,"rental_uris":{"android":"levelo://app?vid=6b9f3464-f2c7-4bde-a31f-ee0bbe1eff34","ios":"levelo://app?vid=6b9f3464-f2c7-4bde-a31f-ee0bbe1eff34"},"vehicle_type_id":"4","last_reported":1714583250,"current_range_meters":16800,"station_id":"ce4bhr12rcd13ifvqhpg","pricing_plan_id":"cebpf4jnsgd1na2vs0mg"},{"bike_id":"c9817573-c263-4b46-ab2c-8374936cd9bf","system_id":"levelo_inurba_marseille","lat":43.302784,"lon":5.377158,"is_reserved":false,"is_disabled":false,"rental_uris":{"android":"levelo://app?vid=c9817573-c263-4b46-ab2c-8374936cd9bf","ios":"levelo://app?vid=c9817573-c263-4b46-ab2c-8374936cd9bf"},"vehicle_type_id":"4","last_reported":1714583250,"current_range_meters":0,"station_id":"ce4bguh2rcd13ifvqcj0","pricing_plan_id":"cebpf4jnsgd1na2vs0mg"},{"bike_id":"5b05b681-df72-40f4-9098-f00424acfd96","system_id":"levelo_inurba_marseille","lat":43.305426,"lon":5.381191,"is_reserved":false,"is_disabled":false,"rental_uris":{"android":"levelo://app?vid=5b05b681-df72-40f4-9098-f00424acfd96","ios":"levelo://app?vid=5b05b681-df72-40f4-9098-f00424acfd96"},"vehicle_type_id":"4","last_reported":1714583250,"current_range_meters":22000,"station_id":"","pricing_plan_id":"cebpf4jnsgd1na2vs0mg"},{"bike_id":"4eabf273-d6ab-4f69-aa17-5ce3078e9cfa","system_id":"levelo_inurba_marseille","lat":43.31997,"lon":5.38148,"is_reserved":false,"is_disabled":false,"rental_uris":{"android":"levelo://app?vid=4eabf273-d6ab-4f69-aa17-5ce3078e9cfa","ios":"levelo://app?vid=4eabf273-d6ab-4f69-aa17-5ce3078e9cfa"},"vehicle_type_id":"4","last_reported":1714583250,"current_range_meters":8400,"station_id":"ce4bhr12rcd13ifvqhpg","pricing_plan_id":"cebpf4jnsgd1na2vs0mg"},{"bike_id":"952baf88-6145-4f3f-b32f-66ddd2b06b56","system_id":"levelo_inurba_marseille","lat":43.319935,"lon":5.381699,"is_reserved":false,"is_disabled":false,"rental_uris":{"android":"levelo://app?vid=952baf88-6145-4f3f-b32f-66ddd2b06b56","ios":"levelo://app?vid=952baf88-6145-4f3f-b32f-66ddd2b06b56"},"vehicle_type_id":"4","last_reported":1714583250,"current_range_meters":2800,"station_id":"ce4bhr12rcd13ifvqhpg","pricing_plan_id":"cebpf4jnsgd1na2vs0mg"},{"bike_id":"4b678404-bcb7-469e-8217-1687e76be9e0","system_id":"levelo_inurba_marseille","lat":43.319935,"lon":5.381699,"is_reserved":false,"is_disabled":false,"rental_uris":{"android":"levelo://app?vid=4b678404-bcb7-469e-8217-1687e76be9e0","ios":"levelo://app?vid=4b678404-bcb7-469e-8217-1687e76be9e0"},"vehicle_type_id":"4","last_reported":1714583250,"current_range_meters":19600,"station_id":"ce4bhr12rcd13ifvqhpg","pricing_plan_id":"cebpf4jnsgd1na2vs0mg"},{"bike_id":"4e077c06-8129-4076-8350-f156e28a9f5f","system_id":"levelo_inurba_marseille","lat":43.31999,"lon":5.38158,"is_reserved":false,"is_disabled":false,"rental_uris":{"android":"levelo://app?vid=4e077c06-8129-4076-8350-f156e28a9f5f","ios":"levelo://app?vid=4e077c06-8129-4076-8350-f156e28a9f5f"},"vehicle_type_id":"4","last_reported":1714583250,"current_range_meters":22400,"station_id":"ce4bhr12rcd13ifvqhpg","pricing_plan_id":"cebpf4jnsgd1na2vs0mg"},{"bike_id":"2cba1f59-533c-4c4f-b586-e047df1c4329","system_id":"levelo_inurba_marseille","lat":43.32003,"lon":5.38169,"is_reserved":false,"is_disabled":false,"rental_uris":{"android":"levelo://app?vid=2cba1f59-533c-4c4f-b586-e047df1c4329","ios":"levelo://app?vid=2cba1f59-533c-4c4f-b586-e047df1c4329"},"vehicle_type_id":"4","last_reported":1714583250,"current_range_meters":11200,"station_id":"ce4bhr12rcd13ifvqhpg","pricing_plan_id":"cebpf4jnsgd1na2vs0mg"},{"bike_id":"ececac45-447b-47b4-b5cf-34a85141274b","system_id":"levelo_inurba_marseille","lat":43.313571,"lon":5.384829,"is_reserved":false,"is_disabled":false,"rental_uris":{"android":"levelo://app?vid=ececac45-447b-47b4-b5cf-34a85141274b","ios":"levelo://app?vid=ececac45-447b-47b4-b5cf-34a85141274b"},"vehicle_type_id":"4","last_reported":1714583250,"current_range_meters":29200,"station_id":"ce4bgt92rcd13ifvqcf0","pricing_plan_id":"cebpf4jnsgd1na2vs0mg"},{"bike_id":"5bbd4233-d6d3-4176-b478-47dd8d32a1b0","system_id":"levelo_inurba_marseille","lat":43.313571,"lon":5.384829,"is_reserved":false,"is_disabled":false,"rental_uris":{"android":"levelo://app?vid=5bbd4233-d6d3-4176-b478-47dd8d32a1b0","ios":"levelo://app?vid=5bbd4233-d6d3-4176-b478-47dd8d32a1b0"},"vehicle_type_id":"4","last_reported":1714583250,"current_range_meters":14800,"station_id":"ce4bgt92rcd13ifvqcf0","pricing_plan_id":"cebpf4jnsgd1na2vs0mg"},{"bike_id":"bca23003-9269-48cf-8fb7-f056e14423d5","system_id":"levelo_inurba_marseille","lat":43.313571,"lon":5.384829,"is_reserved":false,"is_disabled":false,"rental_uris":{"android":"levelo://app?vid=bca23003-9269-48cf-8fb7-f056e14423d5","ios":"levelo://app?vid=bca23003-9269-48cf-8fb7-f056e14423d5"},"vehicle_type_id":"4","last_reported":1714583250,"current_range_meters":19600,"station_id":"ce4bgt92rcd13ifvqcf0","pricing_plan_id":"cebpf4jnsgd1na2vs0mg"},{"bike_id":"be2e61c3-508e-4e99-9d0e-b7f333bc70c8","system_id":"levelo_inurba_marseille","lat":43.313571,"lon":5.384829,"is_reserved":false,"is_disabled":false,"rental_uris":{"android":"levelo://app?vid=be2e61c3-508e-4e99-9d0e-b7f333bc70c8","ios":"levelo://app?vid=be2e61c3-508e-4e99-9d0e-b7f333bc70c8"},"vehicle_type_id":"4","last_reported":1714583250,"current_range_meters":23600,"station_id":"ce4bgt92rcd13ifvqcf0","pricing_plan_id":"cebpf4jnsgd1na2vs0mg"},{"bike_id":"7e8da267-87d6-4362-b683-0ec5d0a66dde","system_id":"levelo_inurba_marseille","lat":43.313571,"lon":5.384829,"is_reserved":false,"is_disabled":false,"rental_uris":{"android":"levelo://app?vid=7e8da267-87d6-4362-b683-0ec5d0a66dde","ios":"levelo://app?vid=7e8da267-87d6-4362-b683-0ec5d0a66dde"},"vehicle_type_id":"4","last_reported":1714583250,"current_range_meters":16400,"station_id":"ce4bgt92rcd13ifvqcf0","pricing_plan_id":"cebpf4jnsgd1na2vs0mg"},{"bike_id":"510d1182-87eb-4824-a2e8-b5179a4c6fbe","system_id":"levelo_inurba_marseille","lat":43.299791,"lon":5.371874,"is_reserved":false,"is_disabled":false,"rental_uris":{"android":"levelo://app?vid=510d1182-87eb-4824-a2e8-b5179a4c6fbe","ios":"levelo://app?vid=510d1182-87eb-4824-a2e8-b5179a4c6fbe"},"vehicle_type_id":"4","last_reported":1714583250,"current_range_meters":16800,"station_id":"ce4bgr92rcd13ifvqc7g","pricing_plan_id":"cebpf4jnsgd1na2vs0mg"},{"bike_id":"7653f7c7-0d96-463f-87d0-73f70c85a9db","system_id":"levelo_inurba_marseille","lat":43.299222,"lon":5.365554,"is_reserved":false,"is_disabled":false,"rental_uris":{"android":"levelo://app?vid=7653f7c7-0d96-463f-87d0-73f70c85a9db","ios":"levelo://app?vid=7653f7c7-0d96-463f-87d0-73f70c85a9db"},"vehicle_type_id":"4","last_reported":1714583250,"current_range_meters":6400,"station_id":"ce4bgm92rcd13ifvqbr0","pricing_plan_id":"cebpf4jnsgd1na2vs0mg"},{"bike_id":"37335149-c568-46e3-8562-169b87902871","system_id":"levelo_inurba_marseille","lat":43.298433,"lon":5.362774,"is_reserved":false,"is_disabled":false,"rental_uris":{"android":"levelo://app?vid=37335149-c568-46e3-8562-169b87902871","ios":"levelo://app?vid=37335149-c568-46e3-8562-169b87902871"},"vehicle_type_id":"4","last_reported":1714583250,"current_range_meters":31200,"station_id":"ce4bgpp2rcd13ifvqc3g","pricing_plan_id":"cebpf4jnsgd1na2vs0mg"},{"bike_id":"c0bdc288-7b61-4ee9-8dfb-85797c6062cb","system_id":"levelo_inurba_marseille","lat":43.299243,"lon":5.374807,"is_reserved":false,"is_disabled":false,"rental_uris":{"android":"levelo://app?vid=c0bdc288-7b61-4ee9-8dfb-85797c6062cb","ios":"levelo://app?vid=c0bdc288-7b61-4ee9-8dfb-85797c6062cb"},"vehicle_type_id":"4","last_reported":1714583250,"current_range_meters":10000,"station_id":"ce4bgjh2rcd13ifvqbg0","pricing_plan_id":"cebpf4jnsgd1na2vs0mg"},{"bike_id":"9d6d7775-4218-47bb-a627-6802c543ec70","system_id":"levelo_inurba_marseille","lat":43.298433,"lon":5.362774,"is_reserved":false,"is_disabled":false,"rental_uris":{"android":"levelo://app?vid=9d6d7775-4218-47bb-a627-6802c543ec70","ios":"levelo://app?vid=9d6d7775-4218-47bb-a627-6802c543ec70"},"vehicle_type_id":"4","last_reported":1714583250,"current_range_meters":31200,"station_id":"ce4bgpp2rcd13ifvqc3g","pricing_plan_id":"cebpf4jnsgd1na2vs0mg"},{"bike_id":"20e0b06a-25d4-4137-9fd3-d07bb00f838c","system_id":"levelo_inurba_marseille","lat":43.322872,"lon":5.382756,"is_reserved":false,"is_disabled":false,"rental_uris":{"android":"levelo://app?vid=20e0b06a-25d4-4137-9fd3-d07bb00f838c","ios":"levelo://app?vid=20e0b06a-25d4-4137-9fd3-d07bb00f838c"},"vehicle_type_id":"4","last_reported":1714583250,"current_range_meters":1600,"station_id":"ce4bhr12rcd13ifvqhqg","pricing_plan_id":"cebpf4jnsgd1na2vs0mg"},{"bike_id":"d3164f71-4ea3-4d30-96c4-efc8e72f05fd","system_id":"levelo_inurba_marseille","lat":43.298433,"lon":5.362774,"is_reserved":false,"is_disabled":false,"rental_uris":{"android":"levelo://app?vid=d3164f71-4ea3-4d30-96c4-efc8e72f05fd","ios":"levelo://app?vid=d3164f71-4ea3-4d30-96c4-efc8e72f05fd"},"vehicle_type_id":"4","last_reported":1714583250,"current_range_meters":30000,"station_id":"ce4bgpp2rcd13ifvqc3g","pricing_plan_id":"cebpf4jnsgd1na2vs0mg"},{"bike_id":"0f3f808a-26c3-4964-9aab-3dbe8c727e58","system_id":"levelo_inurba_marseille","lat":43.2991,"lon":5.37448,"is_reserved":false,"is_disabled":false,"rental_uris":{"android":"levelo://app?vid=0f3f808a-26c3-4964-9aab-3dbe8c727e58","ios":"levelo://app?vid=0f3f808a-26c3-4964-9aab-3dbe8c727e58"},"vehicle_type_id":"4","last_reported":1714583250,"current_range_meters":0,"station_id":"ce4bgjh2rcd13ifvqbg0","pricing_plan_id":"cebpf4jnsgd1na2vs0mg"},{"bike_id":"6563f4aa-ef46-484f-b6b1-09a518c79938","system_id":"levelo_inurba_marseille","lat":43.299243,"lon":5.374807,"is_reserved":false,"is_disabled":false,"rental_uris":{"android":"levelo://app?vid=6563f4aa-ef46-484f-b6b1-09a518c79938","ios":"levelo://app?vid=6563f4aa-ef46-484f-b6b1-09a518c79938"},"vehicle_type_id":"4","last_reported":1714583250,"current_range_meters":8400,"station_id":"ce4bgjh2rcd13ifvqbg0","pricing_plan_id":"cebpf4jnsgd1na2vs0mg"},{"bike_id":"c46946d8-1caa-498f-acf4-388e899536b1","system_id":"levelo_inurba_marseille","lat":43.311722,"lon":5.387247,"is_reserved":false,"is_disabled":false,"rental_uris":{"android":"levelo://app?vid=c46946d8-1caa-498f-acf4-388e899536b1","ios":"levelo://app?vid=c46946d8-1caa-498f-acf4-388e899536b1"},"vehicle_type_id":"4","last_reported":1714583250,"current_range_meters":0,"station_id":"ce4bgv12rcd13ifvqcp0","pricing_plan_id":"cebpf4jnsgd1na2vs0mg"},{"bike_id":"d15c365d-48f4-41ec-8a15-8c93a9cf008b","system_id":"levelo_inurba_marseille","lat":43.322872,"lon":5.382756,"is_reserved":false,"is_disabled":false,"rental_uris":{"android":"levelo://app?vid=d15c365d-48f4-41ec-8a15-8c93a9cf008b","ios":"levelo://app?vid=d15c365d-48f4-41ec-8a15-8c93a9cf008b"},"vehicle_type_id":"4","last_reported":1714583250,"current_range_meters":4400,"station_id":"ce4bhr12rcd13ifvqhqg","pricing_plan_id":"cebpf4jnsgd1na2vs0mg"},{"bike_id":"31eb22cf-ec73-49a7-95f9-f1ffdeb101bd","system_id":"levelo_inurba_marseille","lat":43.29921,"lon":5.37639,"is_reserved":false,"is_disabled":false,"rental_uris":{"android":"levelo://app?vid=31eb22cf-ec73-49a7-95f9-f1ffdeb101bd","ios":"levelo://app?vid=31eb22cf-ec73-49a7-95f9-f1ffdeb101bd"},"vehicle_type_id":"4","last_reported":1714583250,"current_range_meters":5600,"station_id":"","pricing_plan_id":"cebpf4jnsgd1na2vs0mg"},{"bike_id":"e23ed569-2d51-4868-8854-96b1ba6db5b5","system_id":"levelo_inurba_marseille","lat":43.297794,"lon":5.370888,"is_reserved":false,"is_disabled":false,"rental_uris":{"android":"levelo://app?vid=e23ed569-2d51-4868-8854-96b1ba6db5b5","ios":"levelo://app?vid=e23ed569-2d51-4868-8854-96b1ba6db5b5"},"vehicle_type_id":"4","last_reported":1714583250,"current_range_meters":6400,"station_id":"ce4bgop2rcd13ifvqc1g","pricing_plan_id":"cebpf4jnsgd1na2vs0mg"},{"bike_id":"6d367a68-bcc4-4df1-9b31-42f9a77e8ac9","system_id":"levelo_inurba_marseille","lat":43.322872,"lon":5.382756,"is_reserved":false,"is_disabled":false,"rental_uris":{"android":"levelo://app?vid=6d367a68-bcc4-4df1-9b31-42f9a77e8ac9","ios":"levelo://app?vid=6d367a68-bcc4-4df1-9b31-42f9a77e8ac9"},"vehicle_type_id":"4","last_reported":1714583250,"current_range_meters":4400,"station_id":"ce4bhr12rcd13ifvqhqg","pricing_plan_id":"cebpf4jnsgd1na2vs0mg"},{"bike_id":"e97a3a45-c510-4ee6-93db-0150edabb7f1","system_id":"levelo_inurba_marseille","lat":43.297163,"lon":5.365866,"is_reserved":false,"is_disabled":false,"rental_uris":{"android":"levelo://app?vid=e97a3a45-c510-4ee6-93db-0150edabb7f1","ios":"levelo://app?vid=e97a3a45-c510-4ee6-93db-0150edabb7f1"},"vehicle_type_id":"4","last_reported":1714583250,"current_range_meters":10000,"station_id":"ce4bgn12rcd13ifvqbt0","pricing_plan_id":"cebpf4jnsgd1na2vs0mg"},{"bike_id":"b29dd608-b90b-4591-8bb0-7c149cbc710b","system_id":"levelo_inurba_marseille","lat":43.297163,"lon":5.365866,"is_reserved":false,"is_disabled":false,"rental_uris":{"android":"levelo://app?vid=b29dd608-b90b-4591-8bb0-7c149cbc710b","ios":"levelo://app?vid=b29dd608-b90b-4591-8bb0-7c149cbc710b"},"vehicle_type_id":"4","last_reported":1714583250,"current_range_meters":4000,"station_id":"ce4bgn12rcd13ifvqbt0","pricing_plan_id":"cebpf4jnsgd1na2vs0mg"},{"bike_id":"aa6250d4-d874-4f45-9c80-14d8ab7d6884","system_id":"levelo_inurba_marseille","lat":43.297163,"lon":5.365866,"is_reserved":false,"is_disabled":false,"rental_uris":{"android":"levelo://app?vid=aa6250d4-d874-4f45-9c80-14d8ab7d6884","ios":"levelo://app?vid=aa6250d4-d874-4f45-9c80-14d8ab7d6884"},"vehicle_type_id":"4","last_reported":1714583250,"current_range_meters":5200,"station_id":"ce4bgn12rcd13ifvqbt0","pricing_plan_id":"cebpf4jnsgd1na2vs0mg"},{"bike_id":"4ae2af5d-102f-4188-bf3d-2bf45d4356fa","system_id":"levelo_inurba_marseille","lat":43.297163,"lon":5.365866,"is_reserved":false,"is_disabled":false,"rental_uris":{"android":"levelo://app?vid=4ae2af5d-102f-4188-bf3d-2bf45d4356fa","ios":"levelo://app?vid=4ae2af5d-102f-4188-bf3d-2bf45d4356fa"},"vehicle_type_id":"4","last_reported":1714583250,"current_range_meters":18800,"station_id":"ce4bgn12rcd13ifvqbt0","pricing_plan_id":"cebpf4jnsgd1na2vs0mg"},{"bike_id":"77132d86-7b41-4058-a1f0-fc213b275cba","system_id":"levelo_inurba_marseille","lat":43.305364,"lon":5.384119,"is_reserved":false,"is_disabled":false,"rental_uris":{"android":"levelo://app?vid=77132d86-7b41-4058-a1f0-fc213b275cba","ios":"levelo://app?vid=77132d86-7b41-4058-a1f0-fc213b275cba"},"vehicle_type_id":"4","last_reported":1714583250,"current_range_meters":15200,"station_id":"ce4bgg92rcd13ifvqb30","pricing_plan_id":"cebpf4jnsgd1na2vs0mg"},{"bike_id":"52ebf14a-544e-4a42-ae2a-9785a6cafda2","system_id":"levelo_inurba_marseille","lat":43.297163,"lon":5.365866,"is_reserved":false,"is_disabled":false,"rental_uris":{"android":"levelo://app?vid=52ebf14a-544e-4a42-ae2a-9785a6cafda2","ios":"levelo://app?vid=52ebf14a-544e-4a42-ae2a-9785a6cafda2"},"vehicle_type_id":"4","last_reported":1714583250,"current_range_meters":14800,"station_id":"ce4bgn12rcd13ifvqbt0","pricing_plan_id":"cebpf4jnsgd1na2vs0mg"},{"bike_id":"881b1309-78d3-4511-b93e-1ec25d2fd778","system_id":"levelo_inurba_marseille","lat":43.296131,"lon":5.370791,"is_reserved":false,"is_disabled":false,"rental_uris":{"android":"levelo://app?vid=881b1309-78d3-4511-b93e-1ec25d2fd778","ios":"levelo://app?vid=881b1309-78d3-4511-b93e-1ec25d2fd778"},"vehicle_type_id":"4","last_reported":1714583250,"current_range_meters":12800,"station_id":"ce4bgnh2rcd13ifvqc0g","pricing_plan_id":"cebpf4jnsgd1na2vs0mg"},{"bike_id":"56a45ed2-9ff0-4a73-90d9-68073cd3852e","system_id":"levelo_inurba_marseille","lat":43.296131,"lon":5.370791,"is_reserved":false,"is_disabled":false,"rental_uris":{"android":"levelo://app?vid=56a45ed2-9ff0-4a73-90d9-68073cd3852e","ios":"levelo://app?vid=56a45ed2-9ff0-4a73-90d9-68073cd3852e"},"vehicle_type_id":"4","last_reported":1714583250,"current_range_meters":24000,"station_id":"ce4bgnh2rcd13ifvqc0g","pricing_plan_id":"cebpf4jnsgd1na2vs0mg"},{"bike_id":"a3d1d048-4f4c-42fc-b94f-136c098033c3","system_id":"levelo_inurba_marseille","lat":43.296041,"lon":5.370587,"is_reserved":false,"is_disabled":false,"rental_uris":{"android":"levelo://app?vid=a3d1d048-4f4c-42fc-b94f-136c098033c3","ios":"levelo://app?vid=a3d1d048-4f4c-42fc-b94f-136c098033c3"},"vehicle_type_id":"4","last_reported":1714583250,"current_range_meters":16400,"station_id":"","pricing_plan_id":"cebpf4jnsgd1na2vs0mg"},{"bike_id":"a3db3a65-41a1-46f6-b835-f09695913b25","system_id":"levelo_inurba_marseille","lat":43.296921,"lon":5.376579,"is_reserved":false,"is_disabled":false,"rental_uris":{"android":"levelo://app?vid=a3db3a65-41a1-46f6-b835-f09695913b25","ios":"levelo://app?vid=a3db3a65-41a1-46f6-b835-f09695913b25"},"vehicle_type_id":"4","last_reported":1714583250,"current_range_meters":800,"station_id":"ce4bgkh2rcd13ifvqbl0","pricing_plan_id":"cebpf4jnsgd1na2vs0mg"},{"bike_id":"befa0761-041c-415b-b24f-afda0713e38b","system_id":"levelo_inurba_marseille","lat":43.299028,"lon":5.381509,"is_reserved":false,"is_disabled":false,"rental_uris":{"android":"levelo://app?vid=befa0761-041c-415b-b24f-afda0713e38b","ios":"levelo://app?vid=befa0761-041c-415b-b24f-afda0713e38b"},"vehicle_type_id":"4","last_reported":1714583250,"current_range_meters":13200,"station_id":"ce4bgj12rcd13ifvqbc0","pricing_plan_id":"cebpf4jnsgd1na2vs0mg"},{"bike_id":"82e4fb94-294f-4c2c-bc2a-a3371d755a7f","system_id":"levelo_inurba_marseille","lat":43.299075,"lon":5.381531,"is_reserved":false,"is_disabled":false,"rental_uris":{"android":"levelo://app?vid=82e4fb94-294f-4c2c-bc2a-a3371d755a7f","ios":"levelo://app?vid=82e4fb94-294f-4c2c-bc2a-a3371d755a7f"},"vehicle_type_id":"4","last_reported":1714583250,"current_range_meters":0,"station_id":"","pricing_plan_id":"cebpf4jnsgd1na2vs0mg"},{"bike_id":"22365052-e164-409d-be4a-311f38817ede","system_id":"levelo_inurba_marseille","lat":43.296921,"lon":5.376579,"is_reserved":false,"is_disabled":false,"rental_uris":{"android":"levelo://app?vid=22365052-e164-409d-be4a-311f38817ede","ios":"levelo://app?vid=22365052-e164-409d-be4a-311f38817ede"},"vehicle_type_id":"4","last_reported":1714583250,"current_range_meters":4000,"station_id":"ce4bgkh2rcd13ifvqbl0","pricing_plan_id":"cebpf4jnsgd1na2vs0mg"},{"bike_id":"d29862bf-1bf4-4c53-a2bf-a418541f7a0e","system_id":"levelo_inurba_marseille","lat":43.31754,"lon":5.39004,"is_reserved":false,"is_disabled":false,"rental_uris":{"android":"levelo://app?vid=d29862bf-1bf4-4c53-a2bf-a418541f7a0e","ios":"levelo://app?vid=d29862bf-1bf4-4c53-a2bf-a418541f7a0e"},"vehicle_type_id":"4","last_reported":1714583250,"current_range_meters":9200,"station_id":"ce4bhqp2rcd13ifvqhng","pricing_plan_id":"cebpf4jnsgd1na2vs0mg"},{"bike_id":"07cda65c-ee8a-46a8-9b43-5ee071dd6d03","system_id":"levelo_inurba_marseille","lat":43.299176,"lon":5.382164,"is_reserved":false,"is_disabled":false,"rental_uris":{"android":"levelo://app?vid=07cda65c-ee8a-46a8-9b43-5ee071dd6d03","ios":"levelo://app?vid=07cda65c-ee8a-46a8-9b43-5ee071dd6d03"},"vehicle_type_id":"4","last_reported":1714583250,"current_range_meters":20400,"station_id":"","pricing_plan_id":"cebpf4jnsgd1na2vs0mg"},{"bike_id":"16227458-1903-4958-9f5d-852ad595ecd8","system_id":"levelo_inurba_marseille","lat":43.31762,"lon":5.39008,"is_reserved":false,"is_disabled":false,"rental_uris":{"android":"levelo://app?vid=16227458-1903-4958-9f5d-852ad595ecd8","ios":"levelo://app?vid=16227458-1903-4958-9f5d-852ad595ecd8"},"vehicle_type_id":"4","last_reported":1714583250,"current_range_meters":16800,"station_id":"ce4bhqp2rcd13ifvqhng","pricing_plan_id":"cebpf4jnsgd1na2vs0mg"},{"bike_id":"160120ba-f068-445d-b9bd-561cc5fe6e33","system_id":"levelo_inurba_marseille","lat":43.3176,"lon":5.3901,"is_reserved":false,"is_disabled":false,"rental_uris":{"android":"levelo://app?vid=160120ba-f068-445d-b9bd-561cc5fe6e33","ios":"levelo://app?vid=160120ba-f068-445d-b9bd-561cc5fe6e33"},"vehicle_type_id":"4","last_reported":1714583250,"current_range_meters":13200,"station_id":"ce4bhqp2rcd13ifvqhng","pricing_plan_id":"cebpf4jnsgd1na2vs0mg"},{"bike_id":"e7f7f8c6-3502-40da-b88a-452fc9534ddc","system_id":"levelo_inurba_marseille","lat":43.31765,"lon":5.3901,"is_reserved":false,"is_disabled":false,"rental_uris":{"android":"levelo://app?vid=e7f7f8c6-3502-40da-b88a-452fc9534ddc","ios":"levelo://app?vid=e7f7f8c6-3502-40da-b88a-452fc9534ddc"},"vehicle_type_id":"4","last_reported":1714583250,"current_range_meters":22800,"station_id":"ce4bhqp2rcd13ifvqhng","pricing_plan_id":"cebpf4jnsgd1na2vs0mg"},{"bike_id":"0aef9f46-a872-4800-887c-1b470256494a","system_id":"levelo_inurba_marseille","lat":43.31765,"lon":5.39012,"is_reserved":false,"is_disabled":false,"rental_uris":{"android":"levelo://app?vid=0aef9f46-a872-4800-887c-1b470256494a","ios":"levelo://app?vid=0aef9f46-a872-4800-887c-1b470256494a"},"vehicle_type_id":"4","last_reported":1714583250,"current_range_meters":24400,"station_id":"ce4bhqp2rcd13ifvqhng","pricing_plan_id":"cebpf4jnsgd1na2vs0mg"},{"bike_id":"3e90fa85-c942-47c4-a797-7ff343ed3b41","system_id":"levelo_inurba_marseille","lat":43.317557,"lon":5.390173,"is_reserved":false,"is_disabled":false,"rental_uris":{"android":"levelo://app?vid=3e90fa85-c942-47c4-a797-7ff343ed3b41","ios":"levelo://app?vid=3e90fa85-c942-47c4-a797-7ff343ed3b41"},"vehicle_type_id":"4","last_reported":1714583250,"current_range_meters":32000,"station_id":"ce4bhqp2rcd13ifvqhng","pricing_plan_id":"cebpf4jnsgd1na2vs0mg"},{"bike_id":"88b24db4-632b-4045-a01f-3d312d3ba27d","system_id":"levelo_inurba_marseille","lat":43.317557,"lon":5.390173,"is_reserved":false,"is_disabled":false,"rental_uris":{"android":"levelo://app?vid=88b24db4-632b-4045-a01f-3d312d3ba27d","ios":"levelo://app?vid=88b24db4-632b-4045-a01f-3d312d3ba27d"},"vehicle_type_id":"4","last_reported":1714583250,"current_range_meters":15600,"station_id":"ce4bhqp2rcd13ifvqhng","pricing_plan_id":"cebpf4jnsgd1na2vs0mg"},{"bike_id":"b1addad9-e6b9-42db-aafc-ca3fa67234a4","system_id":"levelo_inurba_marseille","lat":43.317557,"lon":5.390173,"is_reserved":false,"is_disabled":false,"rental_uris":{"android":"levelo://app?vid=b1addad9-e6b9-42db-aafc-ca3fa67234a4","ios":"levelo://app?vid=b1addad9-e6b9-42db-aafc-ca3fa67234a4"},"vehicle_type_id":"4","last_reported":1714583250,"current_range_meters":24800,"station_id":"ce4bhqp2rcd13ifvqhng","pricing_plan_id":"cebpf4jnsgd1na2vs0mg"},{"bike_id":"28081874-df1d-4609-8567-e8537b908183","system_id":"levelo_inurba_marseille","lat":43.295279,"lon":5.375048,"is_reserved":false,"is_disabled":false,"rental_uris":{"android":"levelo://app?vid=28081874-df1d-4609-8567-e8537b908183","ios":"levelo://app?vid=28081874-df1d-4609-8567-e8537b908183"},"vehicle_type_id":"4","last_reported":1714583250,"current_range_meters":26800,"station_id":"ce4bgkp2rcd13ifvqbmg","pricing_plan_id":"cebpf4jnsgd1na2vs0mg"},{"bike_id":"481293bb-39a7-4ac9-a54e-2b54c6d9b4ec","system_id":"levelo_inurba_marseille","lat":43.304274,"lon":5.388873,"is_reserved":false,"is_disabled":false,"rental_uris":{"android":"levelo://app?vid=481293bb-39a7-4ac9-a54e-2b54c6d9b4ec","ios":"levelo://app?vid=481293bb-39a7-4ac9-a54e-2b54c6d9b4ec"},"vehicle_type_id":"4","last_reported":1714583250,"current_range_meters":16000,"station_id":"ce4bgk12rcd13ifvqbi0","pricing_plan_id":"cebpf4jnsgd1na2vs0mg"},{"bike_id":"4ca83aa6-7b94-4685-ac2d-a9db821ec51c","system_id":"levelo_inurba_marseille","lat":43.29812,"lon":5.38079,"is_reserved":false,"is_disabled":false,"rental_uris":{"android":"levelo://app?vid=4ca83aa6-7b94-4685-ac2d-a9db821ec51c","ios":"levelo://app?vid=4ca83aa6-7b94-4685-ac2d-a9db821ec51c"},"vehicle_type_id":"4","last_reported":1714583250,"current_range_meters":14400,"station_id":"","pricing_plan_id":"cebpf4jnsgd1na2vs0mg"},{"bike_id":"9e8bd7cb-7dd9-49d1-9619-a4b3fa61daa3","system_id":"levelo_inurba_marseille","lat":43.296921,"lon":5.376579,"is_reserved":false,"is_disabled":false,"rental_uris":{"android":"levelo://app?vid=9e8bd7cb-7dd9-49d1-9619-a4b3fa61daa3","ios":"levelo://app?vid=9e8bd7cb-7dd9-49d1-9619-a4b3fa61daa3"},"vehicle_type_id":"4","last_reported":1714583250,"current_range_meters":0,"station_id":"ce4bgkh2rcd13ifvqbl0","pricing_plan_id":"cebpf4jnsgd1na2vs0mg"},{"bike_id":"5e7520f6-f41c-41ad-91c7-14c864085bc9","system_id":"levelo_inurba_marseille","lat":43.298037,"lon":5.381066,"is_reserved":false,"is_disabled":false,"rental_uris":{"android":"levelo://app?vid=5e7520f6-f41c-41ad-91c7-14c864085bc9","ios":"levelo://app?vid=5e7520f6-f41c-41ad-91c7-14c864085bc9"},"vehicle_type_id":"4","last_reported":1714583250,"current_range_meters":30400,"station_id":"ce4bgip2rcd13ifvqbb0","pricing_plan_id":"cebpf4jnsgd1na2vs0mg"},{"bike_id":"3b607ccd-c648-443b-8cb6-c9babefbeb55","system_id":"levelo_inurba_marseille","lat":43.298037,"lon":5.381066,"is_reserved":false,"is_disabled":false,"rental_uris":{"android":"levelo://app?vid=3b607ccd-c648-443b-8cb6-c9babefbeb55","ios":"levelo://app?vid=3b607ccd-c648-443b-8cb6-c9babefbeb55"},"vehicle_type_id":"4","last_reported":1714583250,"current_range_meters":20400,"station_id":"ce4bgip2rcd13ifvqbb0","pricing_plan_id":"cebpf4jnsgd1na2vs0mg"},{"bike_id":"7e8370bc-e11c-45ef-a61e-266a48ad4685","system_id":"levelo_inurba_marseille","lat":43.298037,"lon":5.381066,"is_reserved":false,"is_disabled":false,"rental_uris":{"android":"levelo://app?vid=7e8370bc-e11c-45ef-a61e-266a48ad4685","ios":"levelo://app?vid=7e8370bc-e11c-45ef-a61e-266a48ad4685"},"vehicle_type_id":"4","last_reported":1714583250,"current_range_meters":24000,"station_id":"ce4bgip2rcd13ifvqbb0","pricing_plan_id":"cebpf4jnsgd1na2vs0mg"},{"bike_id":"8cda4276-e333-48e8-954a-83bdfe02a634","system_id":"levelo_inurba_marseille","lat":43.298037,"lon":5.381066,"is_reserved":false,"is_disabled":false,"rental_uris":{"android":"levelo://app?vid=8cda4276-e333-48e8-954a-83bdfe02a634","ios":"levelo://app?vid=8cda4276-e333-48e8-954a-83bdfe02a634"},"vehicle_type_id":"4","last_reported":1714583250,"current_range_meters":18000,"station_id":"ce4bgip2rcd13ifvqbb0","pricing_plan_id":"cebpf4jnsgd1na2vs0mg"},{"bike_id":"5016ec1e-5ff0-492e-bcf7-8a1fe238bac6","system_id":"levelo_inurba_marseille","lat":43.298037,"lon":5.381066,"is_reserved":false,"is_disabled":false,"rental_uris":{"android":"levelo://app?vid=5016ec1e-5ff0-492e-bcf7-8a1fe238bac6","ios":"levelo://app?vid=5016ec1e-5ff0-492e-bcf7-8a1fe238bac6"},"vehicle_type_id":"4","last_reported":1714583250,"current_range_meters":7600,"station_id":"ce4bgip2rcd13ifvqbb0","pricing_plan_id":"cebpf4jnsgd1na2vs0mg"},{"bike_id":"8ca57973-2abd-4a32-946a-8f31e10821aa","system_id":"levelo_inurba_marseille","lat":43.298037,"lon":5.381066,"is_reserved":false,"is_disabled":false,"rental_uris":{"android":"levelo://app?vid=8ca57973-2abd-4a32-946a-8f31e10821aa","ios":"levelo://app?vid=8ca57973-2abd-4a32-946a-8f31e10821aa"},"vehicle_type_id":"4","last_reported":1714583250,"current_range_meters":23600,"station_id":"ce4bgip2rcd13ifvqbb0","pricing_plan_id":"cebpf4jnsgd1na2vs0mg"},{"bike_id":"5bf9062d-fba1-454a-a4d6-90b289fa2270","system_id":"levelo_inurba_marseille","lat":43.298037,"lon":5.381066,"is_reserved":false,"is_disabled":false,"rental_uris":{"android":"levelo://app?vid=5bf9062d-fba1-454a-a4d6-90b289fa2270","ios":"levelo://app?vid=5bf9062d-fba1-454a-a4d6-90b289fa2270"},"vehicle_type_id":"4","last_reported":1714583250,"current_range_meters":31200,"station_id":"ce4bgip2rcd13ifvqbb0","pricing_plan_id":"cebpf4jnsgd1na2vs0mg"},{"bike_id":"53328827-635a-4754-bbdc-9d7b9e53a096","system_id":"levelo_inurba_marseille","lat":43.298037,"lon":5.381066,"is_reserved":false,"is_disabled":false,"rental_uris":{"android":"levelo://app?vid=53328827-635a-4754-bbdc-9d7b9e53a096","ios":"levelo://app?vid=53328827-635a-4754-bbdc-9d7b9e53a096"},"vehicle_type_id":"4","last_reported":1714583250,"current_range_meters":21600,"station_id":"ce4bgip2rcd13ifvqbb0","pricing_plan_id":"cebpf4jnsgd1na2vs0mg"},{"bike_id":"2e2fb711-f421-4735-a461-bdcec104b5d0","system_id":"levelo_inurba_marseille","lat":43.298037,"lon":5.381066,"is_reserved":false,"is_disabled":false,"rental_uris":{"android":"levelo://app?vid=2e2fb711-f421-4735-a461-bdcec104b5d0","ios":"levelo://app?vid=2e2fb711-f421-4735-a461-bdcec104b5d0"},"vehicle_type_id":"4","last_reported":1714583250,"current_range_meters":27600,"station_id":"ce4bgip2rcd13ifvqbb0","pricing_plan_id":"cebpf4jnsgd1na2vs0mg"},{"bike_id":"a5279390-037d-4e1b-b705-54137ad51cc9","system_id":"levelo_inurba_marseille","lat":43.298037,"lon":5.381066,"is_reserved":false,"is_disabled":false,"rental_uris":{"android":"levelo://app?vid=a5279390-037d-4e1b-b705-54137ad51cc9","ios":"levelo://app?vid=a5279390-037d-4e1b-b705-54137ad51cc9"},"vehicle_type_id":"4","last_reported":1714583250,"current_range_meters":23600,"station_id":"ce4bgip2rcd13ifvqbb0","pricing_plan_id":"cebpf4jnsgd1na2vs0mg"},{"bike_id":"d4c9da0e-83c7-468f-8a44-73cbe1ca8e0b","system_id":"levelo_inurba_marseille","lat":43.298037,"lon":5.381066,"is_reserved":false,"is_disabled":false,"rental_uris":{"android":"levelo://app?vid=d4c9da0e-83c7-468f-8a44-73cbe1ca8e0b","ios":"levelo://app?vid=d4c9da0e-83c7-468f-8a44-73cbe1ca8e0b"},"vehicle_type_id":"4","last_reported":1714583250,"current_range_meters":11600,"station_id":"ce4bgip2rcd13ifvqbb0","pricing_plan_id":"cebpf4jnsgd1na2vs0mg"},{"bike_id":"7254dea4-9ca1-4e9a-bb25-bb7ca5fab4f5","system_id":"levelo_inurba_marseille","lat":43.298037,"lon":5.381066,"is_reserved":false,"is_disabled":false,"rental_uris":{"android":"levelo://app?vid=7254dea4-9ca1-4e9a-bb25-bb7ca5fab4f5","ios":"levelo://app?vid=7254dea4-9ca1-4e9a-bb25-bb7ca5fab4f5"},"vehicle_type_id":"4","last_reported":1714583250,"current_range_meters":14800,"station_id":"ce4bgip2rcd13ifvqbb0","pricing_plan_id":"cebpf4jnsgd1na2vs0mg"},{"bike_id":"a50fde82-cecb-4972-9766-b3dd192a9f5b","system_id":"levelo_inurba_marseille","lat":43.30435,"lon":5.3889,"is_reserved":false,"is_disabled":false,"rental_uris":{"android":"levelo://app?vid=a50fde82-cecb-4972-9766-b3dd192a9f5b","ios":"levelo://app?vid=a50fde82-cecb-4972-9766-b3dd192a9f5b"},"vehicle_type_id":"4","last_reported":1714583250,"current_range_meters":10800,"station_id":"ce4bgk12rcd13ifvqbi0","pricing_plan_id":"cebpf4jnsgd1na2vs0mg"},{"bike_id":"ba128bb1-9912-4788-a2a8-905f5a9f6c59","system_id":"levelo_inurba_marseille","lat":43.29573,"lon":5.367355,"is_reserved":false,"is_disabled":false,"rental_uris":{"android":"levelo://app?vid=ba128bb1-9912-4788-a2a8-905f5a9f6c59","ios":"levelo://app?vid=ba128bb1-9912-4788-a2a8-905f5a9f6c59"},"vehicle_type_id":"4","last_reported":1714583250,"current_range_meters":12400,"station_id":"ce4bgph2rcd13ifvqc2g","pricing_plan_id":"cebpf4jnsgd1na2vs0mg"},{"bike_id":"ac297634-c2cc-41f7-b3d0-7c58c1f56720","system_id":"levelo_inurba_marseille","lat":43.298037,"lon":5.381066,"is_reserved":false,"is_disabled":false,"rental_uris":{"android":"levelo://app?vid=ac297634-c2cc-41f7-b3d0-7c58c1f56720","ios":"levelo://app?vid=ac297634-c2cc-41f7-b3d0-7c58c1f56720"},"vehicle_type_id":"4","last_reported":1714583250,"current_range_meters":4800,"station_id":"ce4bgip2rcd13ifvqbb0","pricing_plan_id":"cebpf4jnsgd1na2vs0mg"},{"bike_id":"d4c86884-0346-46a5-99a5-a4a064f1d97f","system_id":"levelo_inurba_marseille","lat":43.296263,"lon":5.377094,"is_reserved":false,"is_disabled":false,"rental_uris":{"android":"levelo://app?vid=d4c86884-0346-46a5-99a5-a4a064f1d97f","ios":"levelo://app?vid=d4c86884-0346-46a5-99a5-a4a064f1d97f"},"vehicle_type_id":"4","last_reported":1714583250,"current_range_meters":0,"station_id":"ce4bgi92rcd13ifvqb90","pricing_plan_id":"cebpf4jnsgd1na2vs0mg"},{"bike_id":"1023925d-214c-4aad-8595-52b2501dfc22","system_id":"levelo_inurba_marseille","lat":43.296277,"lon":5.377108,"is_reserved":false,"is_disabled":false,"rental_uris":{"android":"levelo://app?vid=1023925d-214c-4aad-8595-52b2501dfc22","ios":"levelo://app?vid=1023925d-214c-4aad-8595-52b2501dfc22"},"vehicle_type_id":"4","last_reported":1714583250,"current_range_meters":10800,"station_id":"ce4bgi92rcd13ifvqb90","pricing_plan_id":"cebpf4jnsgd1na2vs0mg"},{"bike_id":"fdae0c93-ca4a-4703-b324-1209f5cdd3ae","system_id":"levelo_inurba_marseille","lat":43.295748,"lon":5.37522,"is_reserved":false,"is_disabled":false,"rental_uris":{"android":"levelo://app?vid=fdae0c93-ca4a-4703-b324-1209f5cdd3ae","ios":"levelo://app?vid=fdae0c93-ca4a-4703-b324-1209f5cdd3ae"},"vehicle_type_id":"4","last_reported":1714583250,"current_range_meters":5600,"station_id":"ce4bgh92rcd13ifvqb50","pricing_plan_id":"cebpf4jnsgd1na2vs0mg"},{"bike_id":"0f56d5dd-a6ce-40e0-94b4-22011c3cd76d","system_id":"levelo_inurba_marseille","lat":43.296263,"lon":5.377094,"is_reserved":false,"is_disabled":false,"rental_uris":{"android":"levelo://app?vid=0f56d5dd-a6ce-40e0-94b4-22011c3cd76d","ios":"levelo://app?vid=0f56d5dd-a6ce-40e0-94b4-22011c3cd76d"},"vehicle_type_id":"4","last_reported":1714583250,"current_range_meters":400,"station_id":"ce4bgi92rcd13ifvqb90","pricing_plan_id":"cebpf4jnsgd1na2vs0mg"},{"bike_id":"cc6ebd45-8a09-41bf-8a8e-69cc6459aba0","system_id":"levelo_inurba_marseille","lat":43.296263,"lon":5.377094,"is_reserved":false,"is_disabled":false,"rental_uris":{"android":"levelo://app?vid=cc6ebd45-8a09-41bf-8a8e-69cc6459aba0","ios":"levelo://app?vid=cc6ebd45-8a09-41bf-8a8e-69cc6459aba0"},"vehicle_type_id":"4","last_reported":1714583250,"current_range_meters":400,"station_id":"ce4bgi92rcd13ifvqb90","pricing_plan_id":"cebpf4jnsgd1na2vs0mg"},{"bike_id":"71624fd3-3f35-4711-990a-816ed9a5919c","system_id":"levelo_inurba_marseille","lat":43.296263,"lon":5.377094,"is_reserved":false,"is_disabled":false,"rental_uris":{"android":"levelo://app?vid=71624fd3-3f35-4711-990a-816ed9a5919c","ios":"levelo://app?vid=71624fd3-3f35-4711-990a-816ed9a5919c"},"vehicle_type_id":"4","last_reported":1714583250,"current_range_meters":5200,"station_id":"ce4bgi92rcd13ifvqb90","pricing_plan_id":"cebpf4jnsgd1na2vs0mg"},{"bike_id":"e1bc1d35-2eda-42b5-a846-ff5a573651ca","system_id":"levelo_inurba_marseille","lat":43.295465,"lon":5.375287,"is_reserved":false,"is_disabled":false,"rental_uris":{"android":"levelo://app?vid=e1bc1d35-2eda-42b5-a846-ff5a573651ca","ios":"levelo://app?vid=e1bc1d35-2eda-42b5-a846-ff5a573651ca"},"vehicle_type_id":"4","last_reported":1714583250,"current_range_meters":0,"station_id":"ce4bgkp2rcd13ifvqbmg","pricing_plan_id":"cebpf4jnsgd1na2vs0mg"},{"bike_id":"d376d4cf-6904-4179-a160-3ec5a169f700","system_id":"levelo_inurba_marseille","lat":43.29984,"lon":5.38489,"is_reserved":false,"is_disabled":false,"rental_uris":{"android":"levelo://app?vid=d376d4cf-6904-4179-a160-3ec5a169f700","ios":"levelo://app?vid=d376d4cf-6904-4179-a160-3ec5a169f700"},"vehicle_type_id":"4","last_reported":1714583250,"current_range_meters":14000,"station_id":"ce4bgj92rcd13ifvqbd0","pricing_plan_id":"cebpf4jnsgd1na2vs0mg"},{"bike_id":"d8d3aa98-312a-4e1d-a5a5-ba272162fed9","system_id":"levelo_inurba_marseille","lat":43.299717,"lon":5.384845,"is_reserved":false,"is_disabled":false,"rental_uris":{"android":"levelo://app?vid=d8d3aa98-312a-4e1d-a5a5-ba272162fed9","ios":"levelo://app?vid=d8d3aa98-312a-4e1d-a5a5-ba272162fed9"},"vehicle_type_id":"4","last_reported":1714583250,"current_range_meters":31200,"station_id":"ce4bgj92rcd13ifvqbd0","pricing_plan_id":"cebpf4jnsgd1na2vs0mg"},{"bike_id":"69484016-a82c-485e-b2db-bb18745f46e5","system_id":"levelo_inurba_marseille","lat":43.29976,"lon":5.38483,"is_reserved":false,"is_disabled":false,"rental_uris":{"android":"levelo://app?vid=69484016-a82c-485e-b2db-bb18745f46e5","ios":"levelo://app?vid=69484016-a82c-485e-b2db-bb18745f46e5"},"vehicle_type_id":"4","last_reported":1714583250,"current_range_meters":14000,"station_id":"ce4bgj92rcd13ifvqbd0","pricing_plan_id":"cebpf4jnsgd1na2vs0mg"},{"bike_id":"e789625b-ab0c-4528-89fc-17e3ffc0d5bb","system_id":"levelo_inurba_marseille","lat":43.299717,"lon":5.384845,"is_reserved":false,"is_disabled":false,"rental_uris":{"android":"levelo://app?vid=e789625b-ab0c-4528-89fc-17e3ffc0d5bb","ios":"levelo://app?vid=e789625b-ab0c-4528-89fc-17e3ffc0d5bb"},"vehicle_type_id":"4","last_reported":1714583250,"current_range_meters":26400,"station_id":"ce4bgj92rcd13ifvqbd0","pricing_plan_id":"cebpf4jnsgd1na2vs0mg"},{"bike_id":"6cfa15f2-df87-46f0-a486-6cbf4e452c29","system_id":"levelo_inurba_marseille","lat":43.299765,"lon":5.384916,"is_reserved":false,"is_disabled":false,"rental_uris":{"android":"levelo://app?vid=6cfa15f2-df87-46f0-a486-6cbf4e452c29","ios":"levelo://app?vid=6cfa15f2-df87-46f0-a486-6cbf4e452c29"},"vehicle_type_id":"4","last_reported":1714583250,"current_range_meters":16000,"station_id":"ce4bgj92rcd13ifvqbd0","pricing_plan_id":"cebpf4jnsgd1na2vs0mg"},{"bike_id":"7539b468-05eb-4aca-9dd9-88501c35b37e","system_id":"levelo_inurba_marseille","lat":43.299724,"lon":5.384848,"is_reserved":false,"is_disabled":false,"rental_uris":{"android":"levelo://app?vid=7539b468-05eb-4aca-9dd9-88501c35b37e","ios":"levelo://app?vid=7539b468-05eb-4aca-9dd9-88501c35b37e"},"vehicle_type_id":"4","last_reported":1714583250,"current_range_meters":18000,"station_id":"ce4bgj92rcd13ifvqbd0","pricing_plan_id":"cebpf4jnsgd1na2vs0mg"},{"bike_id":"7d37f3be-955c-4763-afba-c11e97553d9f","system_id":"levelo_inurba_marseille","lat":43.299752,"lon":5.384929,"is_reserved":false,"is_disabled":false,"rental_uris":{"android":"levelo://app?vid=7d37f3be-955c-4763-afba-c11e97553d9f","ios":"levelo://app?vid=7d37f3be-955c-4763-afba-c11e97553d9f"},"vehicle_type_id":"4","last_reported":1714583250,"current_range_meters":6400,"station_id":"ce4bgj92rcd13ifvqbd0","pricing_plan_id":"cebpf4jnsgd1na2vs0mg"},{"bike_id":"16e9bbf4-9dff-4347-80b2-7444fca15a04","system_id":"levelo_inurba_marseille","lat":43.299724,"lon":5.384848,"is_reserved":false,"is_disabled":false,"rental_uris":{"android":"levelo://app?vid=16e9bbf4-9dff-4347-80b2-7444fca15a04","ios":"levelo://app?vid=16e9bbf4-9dff-4347-80b2-7444fca15a04"},"vehicle_type_id":"4","last_reported":1714583250,"current_range_meters":27200,"station_id":"ce4bgj92rcd13ifvqbd0","pricing_plan_id":"cebpf4jnsgd1na2vs0mg"},{"bike_id":"386bc68d-e0d7-4e59-be82-299d7f04cd02","system_id":"levelo_inurba_marseille","lat":43.299724,"lon":5.384848,"is_reserved":false,"is_disabled":false,"rental_uris":{"android":"levelo://app?vid=386bc68d-e0d7-4e59-be82-299d7f04cd02","ios":"levelo://app?vid=386bc68d-e0d7-4e59-be82-299d7f04cd02"},"vehicle_type_id":"4","last_reported":1714583250,"current_range_meters":0,"station_id":"ce4bgj92rcd13ifvqbd0","pricing_plan_id":"cebpf4jnsgd1na2vs0mg"},{"bike_id":"15aa84f8-0967-4aad-b359-14a47155647e","system_id":"levelo_inurba_marseille","lat":43.299638,"lon":5.38495,"is_reserved":false,"is_disabled":false,"rental_uris":{"android":"levelo://app?vid=15aa84f8-0967-4aad-b359-14a47155647e","ios":"levelo://app?vid=15aa84f8-0967-4aad-b359-14a47155647e"},"vehicle_type_id":"4","last_reported":1714583250,"current_range_meters":13600,"station_id":"ce4bgj92rcd13ifvqbd0","pricing_plan_id":"cebpf4jnsgd1na2vs0mg"},{"bike_id":"0222e03c-c2bf-4af2-a5f3-864444525b31","system_id":"levelo_inurba_marseille","lat":43.295279,"lon":5.375048,"is_reserved":false,"is_disabled":false,"rental_uris":{"android":"levelo://app?vid=0222e03c-c2bf-4af2-a5f3-864444525b31","ios":"levelo://app?vid=0222e03c-c2bf-4af2-a5f3-864444525b31"},"vehicle_type_id":"4","last_reported":1714583250,"current_range_meters":800,"station_id":"ce4bgkp2rcd13ifvqbmg","pricing_plan_id":"cebpf4jnsgd1na2vs0mg"},{"bike_id":"cb85a40e-7ad7-49d7-8344-15fbfbfcf23a","system_id":"levelo_inurba_marseille","lat":43.29969,"lon":5.38504,"is_reserved":false,"is_disabled":false,"rental_uris":{"android":"levelo://app?vid=cb85a40e-7ad7-49d7-8344-15fbfbfcf23a","ios":"levelo://app?vid=cb85a40e-7ad7-49d7-8344-15fbfbfcf23a"},"vehicle_type_id":"4","last_reported":1714583250,"current_range_meters":0,"station_id":"ce4bgj92rcd13ifvqbd0","pricing_plan_id":"cebpf4jnsgd1na2vs0mg"},{"bike_id":"e7a729fe-7551-48f8-a179-f9b27fc682b5","system_id":"levelo_inurba_marseille","lat":43.299724,"lon":5.384848,"is_reserved":false,"is_disabled":false,"rental_uris":{"android":"levelo://app?vid=e7a729fe-7551-48f8-a179-f9b27fc682b5","ios":"levelo://app?vid=e7a729fe-7551-48f8-a179-f9b27fc682b5"},"vehicle_type_id":"4","last_reported":1714583250,"current_range_meters":4400,"station_id":"ce4bgj92rcd13ifvqbd0","pricing_plan_id":"cebpf4jnsgd1na2vs0mg"},{"bike_id":"5f30d746-a3d7-49ea-b022-f06dbcb0d60a","system_id":"levelo_inurba_marseille","lat":43.29962,"lon":5.38498,"is_reserved":false,"is_disabled":false,"rental_uris":{"android":"levelo://app?vid=5f30d746-a3d7-49ea-b022-f06dbcb0d60a","ios":"levelo://app?vid=5f30d746-a3d7-49ea-b022-f06dbcb0d60a"},"vehicle_type_id":"4","last_reported":1714583250,"current_range_meters":0,"station_id":"ce4bgj92rcd13ifvqbd0","pricing_plan_id":"cebpf4jnsgd1na2vs0mg"},{"bike_id":"19df304b-fff1-480f-9259-dd51a411a88a","system_id":"levelo_inurba_marseille","lat":43.299724,"lon":5.384848,"is_reserved":false,"is_disabled":false,"rental_uris":{"android":"levelo://app?vid=19df304b-fff1-480f-9259-dd51a411a88a","ios":"levelo://app?vid=19df304b-fff1-480f-9259-dd51a411a88a"},"vehicle_type_id":"4","last_reported":1714583250,"current_range_meters":20000,"station_id":"ce4bgj92rcd13ifvqbd0","pricing_plan_id":"cebpf4jnsgd1na2vs0mg"},{"bike_id":"45c12416-45f7-4bd2-be4b-69878f8feb51","system_id":"levelo_inurba_marseille","lat":43.299519,"lon":5.385042,"is_reserved":false,"is_disabled":false,"rental_uris":{"android":"levelo://app?vid=45c12416-45f7-4bd2-be4b-69878f8feb51","ios":"levelo://app?vid=45c12416-45f7-4bd2-be4b-69878f8feb51"},"vehicle_type_id":"4","last_reported":1714583250,"current_range_meters":4000,"station_id":"ce4bgj92rcd13ifvqbd0","pricing_plan_id":"cebpf4jnsgd1na2vs0mg"},{"bike_id":"06097a19-1c72-49a2-bd16-a0a08e5a2450","system_id":"levelo_inurba_marseille","lat":43.295279,"lon":5.375048,"is_reserved":false,"is_disabled":false,"rental_uris":{"android":"levelo://app?vid=06097a19-1c72-49a2-bd16-a0a08e5a2450","ios":"levelo://app?vid=06097a19-1c72-49a2-bd16-a0a08e5a2450"},"vehicle_type_id":"4","last_reported":1714583250,"current_range_meters":8400,"station_id":"ce4bgkp2rcd13ifvqbmg","pricing_plan_id":"cebpf4jnsgd1na2vs0mg"},{"bike_id":"543730fd-0a4e-4146-8086-cff9148ff2dc","system_id":"levelo_inurba_marseille","lat":43.299033,"lon":5.38485,"is_reserved":false,"is_disabled":false,"rental_uris":{"android":"levelo://app?vid=543730fd-0a4e-4146-8086-cff9148ff2dc","ios":"levelo://app?vid=543730fd-0a4e-4146-8086-cff9148ff2dc"},"vehicle_type_id":"4","last_reported":1714583250,"current_range_meters":400,"station_id":"","pricing_plan_id":"cebpf4jnsgd1na2vs0mg"},{"bike_id":"87681131-2997-44b8-85dc-7c620fce1a1f","system_id":"levelo_inurba_marseille","lat":43.32367,"lon":5.388836,"is_reserved":false,"is_disabled":false,"rental_uris":{"android":"levelo://app?vid=87681131-2997-44b8-85dc-7c620fce1a1f","ios":"levelo://app?vid=87681131-2997-44b8-85dc-7c620fce1a1f"},"vehicle_type_id":"4","last_reported":1714583250,"current_range_meters":12400,"station_id":"ce4bhqp2rcd13ifvqhog","pricing_plan_id":"cebpf4jnsgd1na2vs0mg"},{"bike_id":"cd0becf5-8943-4f11-b5e2-6e90b79d991c","system_id":"levelo_inurba_marseille","lat":43.323664,"lon":5.388859,"is_reserved":false,"is_disabled":false,"rental_uris":{"android":"levelo://app?vid=cd0becf5-8943-4f11-b5e2-6e90b79d991c","ios":"levelo://app?vid=cd0becf5-8943-4f11-b5e2-6e90b79d991c"},"vehicle_type_id":"4","last_reported":1714583250,"current_range_meters":4000,"station_id":"ce4bhqp2rcd13ifvqhog","pricing_plan_id":"cebpf4jnsgd1na2vs0mg"},{"bike_id":"a8119658-616f-471f-8fc4-6ee23dcd0b67","system_id":"levelo_inurba_marseille","lat":43.32367,"lon":5.388836,"is_reserved":false,"is_disabled":false,"rental_uris":{"android":"levelo://app?vid=a8119658-616f-471f-8fc4-6ee23dcd0b67","ios":"levelo://app?vid=a8119658-616f-471f-8fc4-6ee23dcd0b67"},"vehicle_type_id":"4","last_reported":1714583250,"current_range_meters":2800,"station_id":"ce4bhqp2rcd13ifvqhog","pricing_plan_id":"cebpf4jnsgd1na2vs0mg"},{"bike_id":"6fb6c379-9cde-4e6d-a719-04be5c2781bb","system_id":"levelo_inurba_marseille","lat":43.29602,"lon":5.381084,"is_reserved":false,"is_disabled":false,"rental_uris":{"android":"levelo://app?vid=6fb6c379-9cde-4e6d-a719-04be5c2781bb","ios":"levelo://app?vid=6fb6c379-9cde-4e6d-a719-04be5c2781bb"},"vehicle_type_id":"4","last_reported":1714583250,"current_range_meters":27600,"station_id":"ce4bgl12rcd13ifvqbo0","pricing_plan_id":"cebpf4jnsgd1na2vs0mg"},{"bike_id":"12edcca5-40c6-48d6-997e-3c71d1e21bb6","system_id":"levelo_inurba_marseille","lat":43.29602,"lon":5.381084,"is_reserved":false,"is_disabled":false,"rental_uris":{"android":"levelo://app?vid=12edcca5-40c6-48d6-997e-3c71d1e21bb6","ios":"levelo://app?vid=12edcca5-40c6-48d6-997e-3c71d1e21bb6"},"vehicle_type_id":"4","last_reported":1714583250,"current_range_meters":12000,"station_id":"ce4bgl12rcd13ifvqbo0","pricing_plan_id":"cebpf4jnsgd1na2vs0mg"},{"bike_id":"00f26c8e-b97f-4199-b9e4-6bd5a24e4d25","system_id":"levelo_inurba_marseille","lat":43.296035,"lon":5.380951,"is_reserved":false,"is_disabled":false,"rental_uris":{"android":"levelo://app?vid=00f26c8e-b97f-4199-b9e4-6bd5a24e4d25","ios":"levelo://app?vid=00f26c8e-b97f-4199-b9e4-6bd5a24e4d25"},"vehicle_type_id":"4","last_reported":1714583250,"current_range_meters":9600,"station_id":"ce4bgl12rcd13ifvqbo0","pricing_plan_id":"cebpf4jnsgd1na2vs0mg"},{"bike_id":"156c91ba-cc28-4a4a-82be-9925a88c0765","system_id":"levelo_inurba_marseille","lat":43.296015,"lon":5.38094,"is_reserved":false,"is_disabled":false,"rental_uris":{"android":"levelo://app?vid=156c91ba-cc28-4a4a-82be-9925a88c0765","ios":"levelo://app?vid=156c91ba-cc28-4a4a-82be-9925a88c0765"},"vehicle_type_id":"4","last_reported":1714583250,"current_range_meters":11200,"station_id":"ce4bgl12rcd13ifvqbo0","pricing_plan_id":"cebpf4jnsgd1na2vs0mg"},{"bike_id":"493492d6-1b27-44de-996d-debaa2fb874c","system_id":"levelo_inurba_marseille","lat":43.29604,"lon":5.38101,"is_reserved":false,"is_disabled":false,"rental_uris":{"android":"levelo://app?vid=493492d6-1b27-44de-996d-debaa2fb874c","ios":"levelo://app?vid=493492d6-1b27-44de-996d-debaa2fb874c"},"vehicle_type_id":"4","last_reported":1714583250,"current_range_meters":0,"station_id":"ce4bgl12rcd13ifvqbo0","pricing_plan_id":"cebpf4jnsgd1na2vs0mg"},{"bike_id":"e366be59-8255-4d0b-922c-ba9c5cf0fc8a","system_id":"levelo_inurba_marseille","lat":43.296024,"lon":5.380976,"is_reserved":false,"is_disabled":false,"rental_uris":{"android":"levelo://app?vid=e366be59-8255-4d0b-922c-ba9c5cf0fc8a","ios":"levelo://app?vid=e366be59-8255-4d0b-922c-ba9c5cf0fc8a"},"vehicle_type_id":"4","last_reported":1714583250,"current_range_meters":1200,"station_id":"ce4bgl12rcd13ifvqbo0","pricing_plan_id":"cebpf4jnsgd1na2vs0mg"},{"bike_id":"874a50dc-8b96-4573-a397-aaf6f2b8a2bc","system_id":"levelo_inurba_marseille","lat":43.29601,"lon":5.381084,"is_reserved":false,"is_disabled":false,"rental_uris":{"android":"levelo://app?vid=874a50dc-8b96-4573-a397-aaf6f2b8a2bc","ios":"levelo://app?vid=874a50dc-8b96-4573-a397-aaf6f2b8a2bc"},"vehicle_type_id":"4","last_reported":1714583250,"current_range_meters":0,"station_id":"ce4bgl12rcd13ifvqbo0","pricing_plan_id":"cebpf4jnsgd1na2vs0mg"},{"bike_id":"5dde619d-9a4a-4b03-a471-a0122299093d","system_id":"levelo_inurba_marseille","lat":43.29602,"lon":5.381084,"is_reserved":false,"is_disabled":false,"rental_uris":{"android":"levelo://app?vid=5dde619d-9a4a-4b03-a471-a0122299093d","ios":"levelo://app?vid=5dde619d-9a4a-4b03-a471-a0122299093d"},"vehicle_type_id":"4","last_reported":1714583250,"current_range_meters":22800,"station_id":"ce4bgl12rcd13ifvqbo0","pricing_plan_id":"cebpf4jnsgd1na2vs0mg"},{"bike_id":"44b5108c-e667-41da-bcc8-aa9ad51b01ec","system_id":"levelo_inurba_marseille","lat":43.29602,"lon":5.381084,"is_reserved":false,"is_disabled":false,"rental_uris":{"android":"levelo://app?vid=44b5108c-e667-41da-bcc8-aa9ad51b01ec","ios":"levelo://app?vid=44b5108c-e667-41da-bcc8-aa9ad51b01ec"},"vehicle_type_id":"4","last_reported":1714583250,"current_range_meters":4800,"station_id":"ce4bgl12rcd13ifvqbo0","pricing_plan_id":"cebpf4jnsgd1na2vs0mg"},{"bike_id":"0cdc718c-ab7d-42da-9cc4-71c8fb6a5d7e","system_id":"levelo_inurba_marseille","lat":43.29601,"lon":5.38105,"is_reserved":false,"is_disabled":false,"rental_uris":{"android":"levelo://app?vid=0cdc718c-ab7d-42da-9cc4-71c8fb6a5d7e","ios":"levelo://app?vid=0cdc718c-ab7d-42da-9cc4-71c8fb6a5d7e"},"vehicle_type_id":"4","last_reported":1714583250,"current_range_meters":15600,"station_id":"ce4bgl12rcd13ifvqbo0","pricing_plan_id":"cebpf4jnsgd1na2vs0mg"},{"bike_id":"32a968c8-9ce8-4bb7-a2c9-8ffecdfc29ee","system_id":"levelo_inurba_marseille","lat":43.29599,"lon":5.38104,"is_reserved":false,"is_disabled":false,"rental_uris":{"android":"levelo://app?vid=32a968c8-9ce8-4bb7-a2c9-8ffecdfc29ee","ios":"levelo://app?vid=32a968c8-9ce8-4bb7-a2c9-8ffecdfc29ee"},"vehicle_type_id":"4","last_reported":1714583250,"current_range_meters":11200,"station_id":"ce4bgl12rcd13ifvqbo0","pricing_plan_id":"cebpf4jnsgd1na2vs0mg"},{"bike_id":"5bbfb5e7-4b9b-47d6-b44a-bb48f6a0951d","system_id":"levelo_inurba_marseille","lat":43.29597,"lon":5.38102,"is_reserved":false,"is_disabled":false,"rental_uris":{"android":"levelo://app?vid=5bbfb5e7-4b9b-47d6-b44a-bb48f6a0951d","ios":"levelo://app?vid=5bbfb5e7-4b9b-47d6-b44a-bb48f6a0951d"},"vehicle_type_id":"4","last_reported":1714583250,"current_range_meters":26000,"station_id":"ce4bgl12rcd13ifvqbo0","pricing_plan_id":"cebpf4jnsgd1na2vs0mg"},{"bike_id":"d73d7ea7-5af2-429f-9d34-8f057f9b5ac5","system_id":"levelo_inurba_marseille","lat":43.296,"lon":5.3811,"is_reserved":false,"is_disabled":false,"rental_uris":{"android":"levelo://app?vid=d73d7ea7-5af2-429f-9d34-8f057f9b5ac5","ios":"levelo://app?vid=d73d7ea7-5af2-429f-9d34-8f057f9b5ac5"},"vehicle_type_id":"4","last_reported":1714583250,"current_range_meters":27200,"station_id":"ce4bgl12rcd13ifvqbo0","pricing_plan_id":"cebpf4jnsgd1na2vs0mg"},{"bike_id":"ab169a47-7a09-473f-8ced-27bf07e5d8cd","system_id":"levelo_inurba_marseille","lat":43.29602,"lon":5.381084,"is_reserved":false,"is_disabled":false,"rental_uris":{"android":"levelo://app?vid=ab169a47-7a09-473f-8ced-27bf07e5d8cd","ios":"levelo://app?vid=ab169a47-7a09-473f-8ced-27bf07e5d8cd"},"vehicle_type_id":"4","last_reported":1714583250,"current_range_meters":8400,"station_id":"ce4bgl12rcd13ifvqbo0","pricing_plan_id":"cebpf4jnsgd1na2vs0mg"},{"bike_id":"e4b36c70-09a6-4afa-bce2-a63b2ea7e382","system_id":"levelo_inurba_marseille","lat":43.293174,"lon":5.371637,"is_reserved":false,"is_disabled":false,"rental_uris":{"android":"levelo://app?vid=e4b36c70-09a6-4afa-bce2-a63b2ea7e382","ios":"levelo://app?vid=e4b36c70-09a6-4afa-bce2-a63b2ea7e382"},"vehicle_type_id":"4","last_reported":1714583250,"current_range_meters":21600,"station_id":"ce4bgh92rcd13ifvqb40","pricing_plan_id":"cebpf4jnsgd1na2vs0mg"},{"bike_id":"e67488c2-8b7e-4374-af5a-27dd95746a79","system_id":"levelo_inurba_marseille","lat":43.293259,"lon":5.371586,"is_reserved":false,"is_disabled":false,"rental_uris":{"android":"levelo://app?vid=e67488c2-8b7e-4374-af5a-27dd95746a79","ios":"levelo://app?vid=e67488c2-8b7e-4374-af5a-27dd95746a79"},"vehicle_type_id":"4","last_reported":1714583250,"current_range_meters":10800,"station_id":"ce4bgh92rcd13ifvqb40","pricing_plan_id":"cebpf4jnsgd1na2vs0mg"},{"bike_id":"e735cadc-cf2c-40b4-b6e5-2b40d667fd2e","system_id":"levelo_inurba_marseille","lat":43.292749,"lon":5.368402,"is_reserved":false,"is_disabled":false,"rental_uris":{"android":"levelo://app?vid=e735cadc-cf2c-40b4-b6e5-2b40d667fd2e","ios":"levelo://app?vid=e735cadc-cf2c-40b4-b6e5-2b40d667fd2e"},"vehicle_type_id":"4","last_reported":1714583250,"current_range_meters":28400,"station_id":"ce4bhbp2rcd13ifvqesg","pricing_plan_id":"cebpf4jnsgd1na2vs0mg"},{"bike_id":"9f73ac23-c28a-47ec-9073-d69e07132e07","system_id":"levelo_inurba_marseille","lat":43.292749,"lon":5.368402,"is_reserved":false,"is_disabled":false,"rental_uris":{"android":"levelo://app?vid=9f73ac23-c28a-47ec-9073-d69e07132e07","ios":"levelo://app?vid=9f73ac23-c28a-47ec-9073-d69e07132e07"},"vehicle_type_id":"4","last_reported":1714583250,"current_range_meters":28800,"station_id":"ce4bhbp2rcd13ifvqesg","pricing_plan_id":"cebpf4jnsgd1na2vs0mg"},{"bike_id":"b8ea564d-4980-4f53-8556-e69962c06014","system_id":"levelo_inurba_marseille","lat":43.292749,"lon":5.368402,"is_reserved":false,"is_disabled":false,"rental_uris":{"android":"levelo://app?vid=b8ea564d-4980-4f53-8556-e69962c06014","ios":"levelo://app?vid=b8ea564d-4980-4f53-8556-e69962c06014"},"vehicle_type_id":"4","last_reported":1714583250,"current_range_meters":17600,"station_id":"ce4bhbp2rcd13ifvqesg","pricing_plan_id":"cebpf4jnsgd1na2vs0mg"},{"bike_id":"baa4974c-e924-4663-8cb1-392e4ab52520","system_id":"levelo_inurba_marseille","lat":43.293259,"lon":5.371586,"is_reserved":false,"is_disabled":false,"rental_uris":{"android":"levelo://app?vid=baa4974c-e924-4663-8cb1-392e4ab52520","ios":"levelo://app?vid=baa4974c-e924-4663-8cb1-392e4ab52520"},"vehicle_type_id":"4","last_reported":1714583250,"current_range_meters":800,"station_id":"ce4bgh92rcd13ifvqb40","pricing_plan_id":"cebpf4jnsgd1na2vs0mg"},{"bike_id":"cac7ec20-283b-43de-9a82-4894b497e72a","system_id":"levelo_inurba_marseille","lat":43.292749,"lon":5.368402,"is_reserved":false,"is_disabled":false,"rental_uris":{"android":"levelo://app?vid=cac7ec20-283b-43de-9a82-4894b497e72a","ios":"levelo://app?vid=cac7ec20-283b-43de-9a82-4894b497e72a"},"vehicle_type_id":"4","last_reported":1714583250,"current_range_meters":0,"station_id":"ce4bhbp2rcd13ifvqesg","pricing_plan_id":"cebpf4jnsgd1na2vs0mg"},{"bike_id":"09f7cb5d-9edd-47d2-a04e-f1b90dc48fc4","system_id":"levelo_inurba_marseille","lat":43.292749,"lon":5.368402,"is_reserved":false,"is_disabled":false,"rental_uris":{"android":"levelo://app?vid=09f7cb5d-9edd-47d2-a04e-f1b90dc48fc4","ios":"levelo://app?vid=09f7cb5d-9edd-47d2-a04e-f1b90dc48fc4"},"vehicle_type_id":"4","last_reported":1714583250,"current_range_meters":16000,"station_id":"ce4bhbp2rcd13ifvqesg","pricing_plan_id":"cebpf4jnsgd1na2vs0mg"},{"bike_id":"94ae6a52-385a-42b6-ae19-0bea43ef8170","system_id":"levelo_inurba_marseille","lat":43.293009,"lon":5.374584,"is_reserved":false,"is_disabled":false,"rental_uris":{"android":"levelo://app?vid=94ae6a52-385a-42b6-ae19-0bea43ef8170","ios":"levelo://app?vid=94ae6a52-385a-42b6-ae19-0bea43ef8170"},"vehicle_type_id":"4","last_reported":1714583250,"current_range_meters":12400,"station_id":"ce4bgi12rcd13ifvqb70","pricing_plan_id":"cebpf4jnsgd1na2vs0mg"},{"bike_id":"6a6c5f82-0bdd-417d-abd3-fd64bc106b11","system_id":"levelo_inurba_marseille","lat":43.305994,"lon":5.393687,"is_reserved":false,"is_disabled":false,"rental_uris":{"android":"levelo://app?vid=6a6c5f82-0bdd-417d-abd3-fd64bc106b11","ios":"levelo://app?vid=6a6c5f82-0bdd-417d-abd3-fd64bc106b11"},"vehicle_type_id":"4","last_reported":1714583250,"current_range_meters":5200,"station_id":"ce4bh0p2rcd13ifvqd80","pricing_plan_id":"cebpf4jnsgd1na2vs0mg"},{"bike_id":"54f2b579-44ee-46fd-8dfe-a330053ae759","system_id":"levelo_inurba_marseille","lat":43.313291,"lon":5.396838,"is_reserved":false,"is_disabled":false,"rental_uris":{"android":"levelo://app?vid=54f2b579-44ee-46fd-8dfe-a330053ae759","ios":"levelo://app?vid=54f2b579-44ee-46fd-8dfe-a330053ae759"},"vehicle_type_id":"4","last_reported":1714583250,"current_range_meters":18400,"station_id":"ce4bgvp2rcd13ifvqcu0","pricing_plan_id":"cebpf4jnsgd1na2vs0mg"},{"bike_id":"66fc5923-3a23-4636-9a17-2950ad7d6e66","system_id":"levelo_inurba_marseille","lat":43.298764,"lon":5.388973,"is_reserved":false,"is_disabled":false,"rental_uris":{"android":"levelo://app?vid=66fc5923-3a23-4636-9a17-2950ad7d6e66","ios":"levelo://app?vid=66fc5923-3a23-4636-9a17-2950ad7d6e66"},"vehicle_type_id":"4","last_reported":1714583250,"current_range_meters":0,"station_id":"ce4bh392rcd13ifvqdl0","pricing_plan_id":"cebpf4jnsgd1na2vs0mg"},{"bike_id":"87d8947e-84e2-482b-b7dd-b7d0bb44aac2","system_id":"levelo_inurba_marseille","lat":43.2936,"lon":5.37835,"is_reserved":false,"is_disabled":false,"rental_uris":{"android":"levelo://app?vid=87d8947e-84e2-482b-b7dd-b7d0bb44aac2","ios":"levelo://app?vid=87d8947e-84e2-482b-b7dd-b7d0bb44aac2"},"vehicle_type_id":"4","last_reported":1714583250,"current_range_meters":12400,"station_id":"ce4bgjh2rcd13ifvqbf0","pricing_plan_id":"cebpf4jnsgd1na2vs0mg"},{"bike_id":"17cb342a-dc35-4d05-8f44-af1474a3f982","system_id":"levelo_inurba_marseille","lat":43.2936,"lon":5.37835,"is_reserved":false,"is_disabled":false,"rental_uris":{"android":"levelo://app?vid=17cb342a-dc35-4d05-8f44-af1474a3f982","ios":"levelo://app?vid=17cb342a-dc35-4d05-8f44-af1474a3f982"},"vehicle_type_id":"4","last_reported":1714583250,"current_range_meters":25600,"station_id":"ce4bgjh2rcd13ifvqbf0","pricing_plan_id":"cebpf4jnsgd1na2vs0mg"},{"bike_id":"6909aac3-d39f-488c-9eb3-acb0de32c357","system_id":"levelo_inurba_marseille","lat":43.298764,"lon":5.388973,"is_reserved":false,"is_disabled":false,"rental_uris":{"android":"levelo://app?vid=6909aac3-d39f-488c-9eb3-acb0de32c357","ios":"levelo://app?vid=6909aac3-d39f-488c-9eb3-acb0de32c357"},"vehicle_type_id":"4","last_reported":1714583250,"current_range_meters":15200,"station_id":"ce4bh392rcd13ifvqdl0","pricing_plan_id":"cebpf4jnsgd1na2vs0mg"},{"bike_id":"60da7da9-9426-4b59-820f-5ae47bd2a01e","system_id":"levelo_inurba_marseille","lat":43.298764,"lon":5.388973,"is_reserved":false,"is_disabled":false,"rental_uris":{"android":"levelo://app?vid=60da7da9-9426-4b59-820f-5ae47bd2a01e","ios":"levelo://app?vid=60da7da9-9426-4b59-820f-5ae47bd2a01e"},"vehicle_type_id":"4","last_reported":1714583250,"current_range_meters":400,"station_id":"ce4bh392rcd13ifvqdl0","pricing_plan_id":"cebpf4jnsgd1na2vs0mg"},{"bike_id":"dc9ecaed-8411-4ec8-ae4a-5118cf509f14","system_id":"levelo_inurba_marseille","lat":43.291712,"lon":5.371807,"is_reserved":false,"is_disabled":false,"rental_uris":{"android":"levelo://app?vid=dc9ecaed-8411-4ec8-ae4a-5118cf509f14","ios":"levelo://app?vid=dc9ecaed-8411-4ec8-ae4a-5118cf509f14"},"vehicle_type_id":"4","last_reported":1714583250,"current_range_meters":18400,"station_id":"ce4bha92rcd13ifvqeh0","pricing_plan_id":"cebpf4jnsgd1na2vs0mg"},{"bike_id":"57713d8d-32b0-4faf-9f12-f02dfb315d82","system_id":"levelo_inurba_marseille","lat":43.292005,"lon":5.357875,"is_reserved":false,"is_disabled":false,"rental_uris":{"android":"levelo://app?vid=57713d8d-32b0-4faf-9f12-f02dfb315d82","ios":"levelo://app?vid=57713d8d-32b0-4faf-9f12-f02dfb315d82"},"vehicle_type_id":"4","last_reported":1714583250,"current_range_meters":29200,"station_id":"ce4bhb12rcd13ifvqel0","pricing_plan_id":"cebpf4jnsgd1na2vs0mg"},{"bike_id":"1d661c34-d393-459e-8cbc-c8596fdc28eb","system_id":"levelo_inurba_marseille","lat":43.292025,"lon":5.358427,"is_reserved":false,"is_disabled":false,"rental_uris":{"android":"levelo://app?vid=1d661c34-d393-459e-8cbc-c8596fdc28eb","ios":"levelo://app?vid=1d661c34-d393-459e-8cbc-c8596fdc28eb"},"vehicle_type_id":"4","last_reported":1714583250,"current_range_meters":7200,"station_id":"ce4bhb12rcd13ifvqel0","pricing_plan_id":"cebpf4jnsgd1na2vs0mg"},{"bike_id":"ccc82493-f4ab-4dde-99cc-079111550f5c","system_id":"levelo_inurba_marseille","lat":43.29529,"lon":5.385581,"is_reserved":false,"is_disabled":false,"rental_uris":{"android":"levelo://app?vid=ccc82493-f4ab-4dde-99cc-079111550f5c","ios":"levelo://app?vid=ccc82493-f4ab-4dde-99cc-079111550f5c"},"vehicle_type_id":"4","last_reported":1714583250,"current_range_meters":400,"station_id":"ce4bgih2rcd13ifvqba0","pricing_plan_id":"cebpf4jnsgd1na2vs0mg"},{"bike_id":"4d2e40b9-573b-440a-b455-e68b557de489","system_id":"levelo_inurba_marseille","lat":43.29529,"lon":5.385581,"is_reserved":false,"is_disabled":false,"rental_uris":{"android":"levelo://app?vid=4d2e40b9-573b-440a-b455-e68b557de489","ios":"levelo://app?vid=4d2e40b9-573b-440a-b455-e68b557de489"},"vehicle_type_id":"4","last_reported":1714583250,"current_range_meters":22400,"station_id":"ce4bgih2rcd13ifvqba0","pricing_plan_id":"cebpf4jnsgd1na2vs0mg"},{"bike_id":"63069ed7-7257-4b53-9e66-3da1e94e006e","system_id":"levelo_inurba_marseille","lat":43.309038,"lon":5.396546,"is_reserved":false,"is_disabled":false,"rental_uris":{"android":"levelo://app?vid=63069ed7-7257-4b53-9e66-3da1e94e006e","ios":"levelo://app?vid=63069ed7-7257-4b53-9e66-3da1e94e006e"},"vehicle_type_id":"4","last_reported":1714583250,"current_range_meters":12000,"station_id":"ce4bh012rcd13ifvqcv0","pricing_plan_id":"cebpf4jnsgd1na2vs0mg"},{"bike_id":"17dcd10a-d62b-45e9-b6b8-3c4124b911ea","system_id":"levelo_inurba_marseille","lat":43.29529,"lon":5.385581,"is_reserved":false,"is_disabled":false,"rental_uris":{"android":"levelo://app?vid=17dcd10a-d62b-45e9-b6b8-3c4124b911ea","ios":"levelo://app?vid=17dcd10a-d62b-45e9-b6b8-3c4124b911ea"},"vehicle_type_id":"4","last_reported":1714583250,"current_range_meters":5200,"station_id":"ce4bgih2rcd13ifvqba0","pricing_plan_id":"cebpf4jnsgd1na2vs0mg"},{"bike_id":"da3b74dd-e353-4b8b-a7d4-8665d69366a5","system_id":"levelo_inurba_marseille","lat":43.29529,"lon":5.385581,"is_reserved":false,"is_disabled":false,"rental_uris":{"android":"levelo://app?vid=da3b74dd-e353-4b8b-a7d4-8665d69366a5","ios":"levelo://app?vid=da3b74dd-e353-4b8b-a7d4-8665d69366a5"},"vehicle_type_id":"4","last_reported":1714583250,"current_range_meters":0,"station_id":"ce4bgih2rcd13ifvqba0","pricing_plan_id":"cebpf4jnsgd1na2vs0mg"},{"bike_id":"4371cfba-2265-4130-ab97-30043aaaca92","system_id":"levelo_inurba_marseille","lat":43.313291,"lon":5.396838,"is_reserved":false,"is_disabled":false,"rental_uris":{"android":"levelo://app?vid=4371cfba-2265-4130-ab97-30043aaaca92","ios":"levelo://app?vid=4371cfba-2265-4130-ab97-30043aaaca92"},"vehicle_type_id":"4","last_reported":1714583250,"current_range_meters":19600,"station_id":"ce4bgvp2rcd13ifvqcu0","pricing_plan_id":"cebpf4jnsgd1na2vs0mg"},{"bike_id":"7e47a452-ea71-4e97-a99d-c2bb2d575ea0","system_id":"levelo_inurba_marseille","lat":43.313291,"lon":5.396838,"is_reserved":false,"is_disabled":false,"rental_uris":{"android":"levelo://app?vid=7e47a452-ea71-4e97-a99d-c2bb2d575ea0","ios":"levelo://app?vid=7e47a452-ea71-4e97-a99d-c2bb2d575ea0"},"vehicle_type_id":"4","last_reported":1714583250,"current_range_meters":16400,"station_id":"ce4bgvp2rcd13ifvqcu0","pricing_plan_id":"cebpf4jnsgd1na2vs0mg"},{"bike_id":"849411a1-49ed-4c33-a1ab-0a8810fd958e","system_id":"levelo_inurba_marseille","lat":43.31327,"lon":5.3969,"is_reserved":false,"is_disabled":false,"rental_uris":{"android":"levelo://app?vid=849411a1-49ed-4c33-a1ab-0a8810fd958e","ios":"levelo://app?vid=849411a1-49ed-4c33-a1ab-0a8810fd958e"},"vehicle_type_id":"4","last_reported":1714583250,"current_range_meters":400,"station_id":"ce4bgvp2rcd13ifvqcu0","pricing_plan_id":"cebpf4jnsgd1na2vs0mg"},{"bike_id":"5fc39b33-ee56-4284-8652-33c8e441ed00","system_id":"levelo_inurba_marseille","lat":43.3133,"lon":5.39691,"is_reserved":false,"is_disabled":false,"rental_uris":{"android":"levelo://app?vid=5fc39b33-ee56-4284-8652-33c8e441ed00","ios":"levelo://app?vid=5fc39b33-ee56-4284-8652-33c8e441ed00"},"vehicle_type_id":"4","last_reported":1714583250,"current_range_meters":4800,"station_id":"ce4bgvp2rcd13ifvqcu0","pricing_plan_id":"cebpf4jnsgd1na2vs0mg"},{"bike_id":"0b3592ef-0753-4343-88b1-c5f4f5256e1a","system_id":"levelo_inurba_marseille","lat":43.29529,"lon":5.385581,"is_reserved":false,"is_disabled":false,"rental_uris":{"android":"levelo://app?vid=0b3592ef-0753-4343-88b1-c5f4f5256e1a","ios":"levelo://app?vid=0b3592ef-0753-4343-88b1-c5f4f5256e1a"},"vehicle_type_id":"4","last_reported":1714583250,"current_range_meters":14400,"station_id":"ce4bgih2rcd13ifvqba0","pricing_plan_id":"cebpf4jnsgd1na2vs0mg"},{"bike_id":"e152ed9b-6769-4cc3-acfa-e12e74678e9d","system_id":"levelo_inurba_marseille","lat":43.309038,"lon":5.396546,"is_reserved":false,"is_disabled":false,"rental_uris":{"android":"levelo://app?vid=e152ed9b-6769-4cc3-acfa-e12e74678e9d","ios":"levelo://app?vid=e152ed9b-6769-4cc3-acfa-e12e74678e9d"},"vehicle_type_id":"4","last_reported":1714583250,"current_range_meters":0,"station_id":"ce4bh012rcd13ifvqcv0","pricing_plan_id":"cebpf4jnsgd1na2vs0mg"},{"bike_id":"e0fe91d6-abb8-4f71-939a-a8dc8e750a82","system_id":"levelo_inurba_marseille","lat":43.309038,"lon":5.396546,"is_reserved":false,"is_disabled":false,"rental_uris":{"android":"levelo://app?vid=e0fe91d6-abb8-4f71-939a-a8dc8e750a82","ios":"levelo://app?vid=e0fe91d6-abb8-4f71-939a-a8dc8e750a82"},"vehicle_type_id":"4","last_reported":1714583250,"current_range_meters":11200,"station_id":"ce4bh012rcd13ifvqcv0","pricing_plan_id":"cebpf4jnsgd1na2vs0mg"},{"bike_id":"37e69fee-d7ac-4b04-b8a4-c4b7c95e67a8","system_id":"levelo_inurba_marseille","lat":43.30886,"lon":5.39655,"is_reserved":false,"is_disabled":false,"rental_uris":{"android":"levelo://app?vid=37e69fee-d7ac-4b04-b8a4-c4b7c95e67a8","ios":"levelo://app?vid=37e69fee-d7ac-4b04-b8a4-c4b7c95e67a8"},"vehicle_type_id":"4","last_reported":1714583250,"current_range_meters":21600,"station_id":"ce4bh012rcd13ifvqcv0","pricing_plan_id":"cebpf4jnsgd1na2vs0mg"},{"bike_id":"43e93fb9-40b3-4f7a-961d-f129d76f2a88","system_id":"levelo_inurba_marseille","lat":43.29529,"lon":5.385581,"is_reserved":false,"is_disabled":false,"rental_uris":{"android":"levelo://app?vid=43e93fb9-40b3-4f7a-961d-f129d76f2a88","ios":"levelo://app?vid=43e93fb9-40b3-4f7a-961d-f129d76f2a88"},"vehicle_type_id":"4","last_reported":1714583250,"current_range_meters":28000,"station_id":"ce4bgih2rcd13ifvqba0","pricing_plan_id":"cebpf4jnsgd1na2vs0mg"},{"bike_id":"c6036984-b5e5-42d9-a099-061e4fbc395e","system_id":"levelo_inurba_marseille","lat":43.29529,"lon":5.385581,"is_reserved":false,"is_disabled":false,"rental_uris":{"android":"levelo://app?vid=c6036984-b5e5-42d9-a099-061e4fbc395e","ios":"levelo://app?vid=c6036984-b5e5-42d9-a099-061e4fbc395e"},"vehicle_type_id":"4","last_reported":1714583250,"current_range_meters":28000,"station_id":"ce4bgih2rcd13ifvqba0","pricing_plan_id":"cebpf4jnsgd1na2vs0mg"},{"bike_id":"86371c82-3873-4a8f-bc04-d0290d541d49","system_id":"levelo_inurba_marseille","lat":43.29529,"lon":5.385581,"is_reserved":false,"is_disabled":false,"rental_uris":{"android":"levelo://app?vid=86371c82-3873-4a8f-bc04-d0290d541d49","ios":"levelo://app?vid=86371c82-3873-4a8f-bc04-d0290d541d49"},"vehicle_type_id":"4","last_reported":1714583250,"current_range_meters":8000,"station_id":"ce4bgih2rcd13ifvqba0","pricing_plan_id":"cebpf4jnsgd1na2vs0mg"},{"bike_id":"c35c9c51-999e-4fb2-b8e1-2f71f6c5cd8f","system_id":"levelo_inurba_marseille","lat":43.29529,"lon":5.385581,"is_reserved":false,"is_disabled":false,"rental_uris":{"android":"levelo://app?vid=c35c9c51-999e-4fb2-b8e1-2f71f6c5cd8f","ios":"levelo://app?vid=c35c9c51-999e-4fb2-b8e1-2f71f6c5cd8f"},