{"last_updated":1758644007,"ttl":60,"version":"2.2","data":{"bikes":[{"bike_id":"0a180d74-6c54-4b05-8a8c-71ffa6161064","system_id":"levelo_inurba_marseille","lat":43.28155,"lon":5.42644,"is_reserved":false,"is_disabled":false,"rental_uris":{"android":"levelo://app?vid=0a180d74-6c54-4b05-8a8c-71ffa6161064","ios":"levelo://app?vid=0a180d74-6c54-4b05-8a8c-71ffa6161064"},"vehicle_type_id":"4","last_reported":1758644007,"current_range_meters":2800,"station_id":"ce4bhnh2rcd13ifvqgug","pricing_plan_id":"cebpf4jnsgd1na2vs0mg"},{"bike_id":"db894916-19c3-4c85-8dd4-608ab0503829","system_id":"levelo_inurba_marseille","lat":43.26555,"lon":5.37287,"is_reserved":false,"is_disabled":false,"rental_uris":{"android":"levelo://app?vid=db894916-19c3-4c85-8dd4-608ab0503829","ios":"levelo://app?vid=db894916-19c3-4c85-8dd4-608ab0503829"},"vehicle_type_id":"4","last_reported":1758644007,"current_range_meters":2800,"station_id":"ce4bhg12rcd13ifvqf70","pricing_plan_id":"cebpf4jnsgd1na2vs0mg"},{"bike_id":"925c6b45-92c6-4c3c-8020-5b19caab6c6c","system_id":"levelo_inurba_marseille","lat":43.30131,"lon":5.39863,"is_reserved":false,"is_disabled":false,"rental_uris":{"android":"levelo://app?vid=925c6b45-92c6-4c3c-8020-5b19caab6c6c","ios":"levelo://app?vid=925c6b45-92c6-4c3c-8020-5b19caab6c6c"},"vehicle_type_id":"4","last_reported":1758644007,"current_range_meters":2800,"station_id":"ce4bh0h2rcd13ifvqd40","pricing_plan_id":"cebpf4jnsgd1na2vs0mg"},{"bike_id":"bd2040e8-32d4-4d6f-bf17-f67fd5d4f75a","system_id":"levelo_inurba_marseille","lat":43.25868,"lon":5.39895,"is_reserved":false,"is_disabled":false,"rental_uris":{"android":"levelo://app?vid=bd2040e8-32d4-4d6f-bf17-f67fd5d4f75a","ios":"levelo://app?vid=bd2040e8-32d4-4d6f-bf17-f67fd5d4f75a"},"vehicle_type_id":"4","last_reported":1758644007,"current_range_meters":2800,"station_id":"ce4bhl92rcd13ifvqghg","pricing_plan_id":"cebpf4jnsgd1na2vs0mg"},{"bike_id":"05977a29-4492-4e42-b026-696e72e1cc93","system_id":"levelo_inurba_marseille","lat":43.28262,"lon":5.37265,"is_reserved":false,"is_disabled":false,"rental_uris":{"android":"levelo://app?vid=05977a29-4492-4e42-b026-696e72e1cc93","ios":"levelo://app?vid=05977a29-4492-4e42-b026-696e72e1cc93"},"vehicle_type_id":"4","last_reported":1758644007,"current_range_meters":3200,"station_id":"","pricing_plan_id":"cebpf4jnsgd1na2vs0mg"},{"bike_id":"a0d9cb33-16cb-4b8f-9e6e-8a661d233b3e","system_id":"levelo_inurba_marseille","lat":43.2606,"lon":5.39397,"is_reserved":false,"is_disabled":false,"rental_uris":{"android":"levelo://app?vid=a0d9cb33-16cb-4b8f-9e6e-8a661d233b3e","ios":"levelo://app?vid=a0d9cb33-16cb-4b8f-9e6e-8a661d233b3e"},"vehicle_type_id":"4","last_reported":1758644007,"current_range_meters":3200,"station_id":"ce4bhh92rcd13ifvqfj0","pricing_plan_id":"cebpf4jnsgd1na2vs0mg"},{"bike_id":"da36f3fd-2413-4b6e-9ac0-5a814876b1a6","system_id":"levelo_inurba_marseille","lat":43.26959,"lon":5.38638,"is_reserved":false,"is_disabled":false,"rental_uris":{"android":"levelo://app?vid=da36f3fd-2413-4b6e-9ac0-5a814876b1a6","ios":"levelo://app?vid=da36f3fd-2413-4b6e-9ac0-5a814876b1a6"},"vehicle_type_id":"4","last_reported":1758644007,"current_range_meters":3200,"station_id":"ce4bhh92rcd13ifvqfh0","pricing_plan_id":"cebpf4jnsgd1na2vs0mg"},{"bike_id":"72df89cb-7746-46e6-b269-fbddd2d473fe","system_id":"levelo_inurba_marseille","lat":43.32105,"lon":5.36759,"is_reserved":false,"is_disabled":false,"rental_uris":{"android":"levelo://app?vid=72df89cb-7746-46e6-b269-fbddd2d473fe","ios":"levelo://app?vid=72df89cb-7746-46e6-b269-fbddd2d473fe"},"vehicle_type_id":"4","last_reported":1758644007,"current_range_meters":3200,"station_id":"ce4bhrh2rcd13ifvqhug","pricing_plan_id":"cebpf4jnsgd1na2vs0mg"},{"bike_id":"6493b432-43f9-429a-961a-3dd9a9caca34","system_id":"levelo_inurba_marseille","lat":43.28461,"lon":5.38456,"is_reserved":false,"is_disabled":false,"rental_uris":{"android":"levelo://app?vid=6493b432-43f9-429a-961a-3dd9a9caca34","ios":"levelo://app?vid=6493b432-43f9-429a-961a-3dd9a9caca34"},"vehicle_type_id":"4","last_reported":1758644007,"current_range_meters":3200,"station_id":"ce4bh512rcd13ifvqe3g","pricing_plan_id":"cebpf4jnsgd1na2vs0mg"},{"bike_id":"6c3b2b47-145a-4b73-85a7-21c62b7e4e7b","system_id":"levelo_inurba_marseille","lat":43.31256,"lon":5.36834,"is_reserved":false,"is_disabled":false,"rental_uris":{"android":"levelo://app?vid=6c3b2b47-145a-4b73-85a7-21c62b7e4e7b","ios":"levelo://app?vid=6c3b2b47-145a-4b73-85a7-21c62b7e4e7b"},"vehicle_type_id":"4","last_reported":1758644007,"current_range_meters":2800,"station_id":"ce4bgl92rcd13ifvqbq0","pricing_plan_id":"cebpf4jnsgd1na2vs0mg"},{"bike_id":"f0d87b93-7946-479e-a443-9f1859f5f7b4","system_id":"levelo_inurba_marseille","lat":43.29528,"lon":5.38548,"is_reserved":false,"is_disabled":false,"rental_uris":{"android":"levelo://app?vid=f0d87b93-7946-479e-a443-9f1859f5f7b4","ios":"levelo://app?vid=f0d87b93-7946-479e-a443-9f1859f5f7b4"},"vehicle_type_id":"4","last_reported":1758644007,"current_range_meters":3600,"station_id":"ce4bgih2rcd13ifvqba0","pricing_plan_id":"cebpf4jnsgd1na2vs0mg"},{"bike_id":"a6648429-627c-4a24-b612-27bec441aca6","system_id":"levelo_inurba_marseille","lat":43.30306,"lon":5.36903,"is_reserved":false,"is_disabled":false,"rental_uris":{"android":"levelo://app?vid=a6648429-627c-4a24-b612-27bec441aca6","ios":"levelo://app?vid=a6648429-627c-4a24-b612-27bec441aca6"},"vehicle_type_id":"4","last_reported":1758644007,"current_range_meters":3600,"station_id":"ce4bgqh2rcd13ifvqc5g","pricing_plan_id":"cebpf4jnsgd1na2vs0mg"},{"bike_id":"5e7c8d57-fa9b-44e9-859f-4a98e57b96ea","system_id":"levelo_inurba_marseille","lat":43.27997,"lon":5.41665,"is_reserved":false,"is_disabled":false,"rental_uris":{"android":"levelo://app?vid=5e7c8d57-fa9b-44e9-859f-4a98e57b96ea","ios":"levelo://app?vid=5e7c8d57-fa9b-44e9-859f-4a98e57b96ea"},"vehicle_type_id":"4","last_reported":1758644007,"current_range_meters":3600,"station_id":"ce4bho12rcd13ifvqh1g","pricing_plan_id":"cebpf4jnsgd1na2vs0mg"},{"bike_id":"54502de0-09ba-43cd-a1f2-9f84e6e6c1cb","system_id":"levelo_inurba_marseille","lat":43.290149,"lon":5.381283,"is_reserved":false,"is_disabled":false,"rental_uris":{"android":"levelo://app?vid=54502de0-09ba-43cd-a1f2-9f84e6e6c1cb","ios":"levelo://app?vid=54502de0-09ba-43cd-a1f2-9f84e6e6c1cb"},"vehicle_type_id":"4","last_reported":1758644007,"current_range_meters":3600,"station_id":"","pricing_plan_id":"cebpf4jnsgd1na2vs0mg"},{"bike_id":"88ed722b-3304-404c-b89f-a3222027e940","system_id":"levelo_inurba_marseille","lat":43.28095,"lon":5.39691,"is_reserved":false,"is_disabled":false,"rental_uris":{"android":"levelo://app?vid=88ed722b-3304-404c-b89f-a3222027e940","ios":"levelo://app?vid=88ed722b-3304-404c-b89f-a3222027e940"},"vehicle_type_id":"4","last_reported":1758644007,"current_range_meters":3600,"station_id":"ce4bho12rcd13ifvqh2g","pricing_plan_id":"cebpf4jnsgd1na2vs0mg"},{"bike_id":"1b790372-5d34-489f-a29a-5f2319ad70e0","system_id":"levelo_inurba_marseille","lat":43.28261,"lon":5.35048,"is_reserved":false,"is_disabled":true,"rental_uris":{"android":"levelo://app?vid=1b790372-5d34-489f-a29a-5f2319ad70e0","ios":"levelo://app?vid=1b790372-5d34-489f-a29a-5f2319ad70e0"},"vehicle_type_id":"4","last_reported":1758644007,"current_range_meters":3600,"station_id":"ce4bhbp2rcd13ifvqerg","pricing_plan_id":"cebpf4jnsgd1na2vs0mg"},{"bike_id":"e89b4882-a351-4193-9d47-f6479514a644","system_id":"levelo_inurba_marseille","lat":43.28428,"lon":5.35003,"is_reserved":false,"is_disabled":false,"rental_uris":{"android":"levelo://app?vid=e89b4882-a351-4193-9d47-f6479514a644","ios":"levelo://app?vid=e89b4882-a351-4193-9d47-f6479514a644"},"vehicle_type_id":"4","last_reported":1758644007,"current_range_meters":3600,"station_id":"ce4bhbh2rcd13ifvqepg","pricing_plan_id":"cebpf4jnsgd1na2vs0mg"},{"bike_id":"32116e98-ab44-4787-bbc9-7f85adb0bb58","system_id":"levelo_inurba_marseille","lat":43.291219,"lon":5.377725,"is_reserved":false,"is_disabled":false,"rental_uris":{"android":"levelo://app?vid=32116e98-ab44-4787-bbc9-7f85adb0bb58","ios":"levelo://app?vid=32116e98-ab44-4787-bbc9-7f85adb0bb58"},"vehicle_type_id":"4","last_reported":1758644007,"current_range_meters":3600,"station_id":"ce4bha92rcd13ifvqeh0","pricing_plan_id":"cebpf4jnsgd1na2vs0mg"},{"bike_id":"0bfd8089-28d8-492c-a858-c23ac6b52fbb","system_id":"levelo_inurba_marseille","lat":43.2991,"lon":5.38143,"is_reserved":false,"is_disabled":false,"rental_uris":{"android":"levelo://app?vid=0bfd8089-28d8-492c-a858-c23ac6b52fbb","ios":"levelo://app?vid=0bfd8089-28d8-492c-a858-c23ac6b52fbb"},"vehicle_type_id":"4","last_reported":1758644007,"current_range_meters":4000,"station_id":"ce4bgj12rcd13ifvqbc0","pricing_plan_id":"cebpf4jnsgd1na2vs0mg"},{"bike_id":"55e753fb-9867-4289-a106-eae5181f0bfc","system_id":"levelo_inurba_marseille","lat":43.28854,"lon":5.35854,"is_reserved":false,"is_disabled":false,"rental_uris":{"android":"levelo://app?vid=55e753fb-9867-4289-a106-eae5181f0bfc","ios":"levelo://app?vid=55e753fb-9867-4289-a106-eae5181f0bfc"},"vehicle_type_id":"4","last_reported":1758644007,"current_range_meters":4000,"station_id":"ce4bhb12rcd13ifvqem0","pricing_plan_id":"cebpf4jnsgd1na2vs0mg"},{"bike_id":"c5d33327-ca9c-4498-b3fb-78372c5f0824","system_id":"levelo_inurba_marseille","lat":43.30317,"lon":5.40447,"is_reserved":false,"is_disabled":false,"rental_uris":{"android":"levelo://app?vid=c5d33327-ca9c-4498-b3fb-78372c5f0824","ios":"levelo://app?vid=c5d33327-ca9c-4498-b3fb-78372c5f0824"},"vehicle_type_id":"4","last_reported":1758644007,"current_range_meters":4000,"station_id":"ce4bh012rcd13ifvqd10","pricing_plan_id":"cebpf4jnsgd1na2vs0mg"},{"bike_id":"fefacbfa-07a7-498f-bebb-553f80d90cea","system_id":"levelo_inurba_marseille","lat":43.27371,"lon":5.36263,"is_reserved":false,"is_disabled":false,"rental_uris":{"android":"levelo://app?vid=fefacbfa-07a7-498f-bebb-553f80d90cea","ios":"levelo://app?vid=fefacbfa-07a7-498f-bebb-553f80d90cea"},"vehicle_type_id":"4","last_reported":1758644007,"current_range_meters":4000,"station_id":"ce4bhbh2rcd13ifvqeo0","pricing_plan_id":"cebpf4jnsgd1na2vs0mg"},{"bike_id":"9b43b96b-ec49-44f3-9b78-9dba18cda1f3","system_id":"levelo_inurba_marseille","lat":43.26211,"lon":5.37445,"is_reserved":false,"is_disabled":false,"rental_uris":{"android":"levelo://app?vid=9b43b96b-ec49-44f3-9b78-9dba18cda1f3","ios":"levelo://app?vid=9b43b96b-ec49-44f3-9b78-9dba18cda1f3"},"vehicle_type_id":"4","last_reported":1758644007,"current_range_meters":4400,"station_id":"ce4bhgp2rcd13ifvqfc0","pricing_plan_id":"cebpf4jnsgd1na2vs0mg"},{"bike_id":"b1012383-041f-4e38-9bf8-b9097c1d3a6f","system_id":"levelo_inurba_marseille","lat":43.27619,"lon":5.36107,"is_reserved":false,"is_disabled":false,"rental_uris":{"android":"levelo://app?vid=b1012383-041f-4e38-9bf8-b9097c1d3a6f","ios":"levelo://app?vid=b1012383-041f-4e38-9bf8-b9097c1d3a6f"},"vehicle_type_id":"4","last_reported":1758644007,"current_range_meters":4400,"station_id":"ce4bgj92rcd13ifvqbe0","pricing_plan_id":"cebpf4jnsgd1na2vs0mg"},{"bike_id":"2407e83c-e277-4b8a-8147-b6c293530dd5","system_id":"levelo_inurba_marseille","lat":43.31266,"lon":5.40172,"is_reserved":false,"is_disabled":false,"rental_uris":{"android":"levelo://app?vid=2407e83c-e277-4b8a-8147-b6c293530dd5","ios":"levelo://app?vid=2407e83c-e277-4b8a-8147-b6c293530dd5"},"vehicle_type_id":"4","last_reported":1758644007,"current_range_meters":4400,"station_id":"ce4bh092rcd13ifvqd30","pricing_plan_id":"cebpf4jnsgd1na2vs0mg"},{"bike_id":"f2b383a7-0315-4d07-a264-548adbf41b66","system_id":"levelo_inurba_marseille","lat":43.30139,"lon":5.38782,"is_reserved":false,"is_disabled":false,"rental_uris":{"android":"levelo://app?vid=f2b383a7-0315-4d07-a264-548adbf41b66","ios":"levelo://app?vid=f2b383a7-0315-4d07-a264-548adbf41b66"},"vehicle_type_id":"4","last_reported":1758644007,"current_range_meters":4400,"station_id":"ce4bghh2rcd13ifvqb60","pricing_plan_id":"cebpf4jnsgd1na2vs0mg"},{"bike_id":"96cba122-6cd5-435d-8b79-73be0c7433c6","system_id":"levelo_inurba_marseille","lat":43.30441,"lon":5.38951,"is_reserved":false,"is_disabled":false,"rental_uris":{"android":"levelo://app?vid=96cba122-6cd5-435d-8b79-73be0c7433c6","ios":"levelo://app?vid=96cba122-6cd5-435d-8b79-73be0c7433c6"},"vehicle_type_id":"4","last_reported":1758644007,"current_range_meters":4400,"station_id":"ce4bgk12rcd13ifvqbi0","pricing_plan_id":"cebpf4jnsgd1na2vs0mg"},{"bike_id":"443fecad-42e1-4e8e-a312-1ee9c6b15342","system_id":"levelo_inurba_marseille","lat":43.24167,"lon":5.36395,"is_reserved":false,"is_disabled":false,"rental_uris":{"android":"levelo://app?vid=443fecad-42e1-4e8e-a312-1ee9c6b15342","ios":"levelo://app?vid=443fecad-42e1-4e8e-a312-1ee9c6b15342"},"vehicle_type_id":"4","last_reported":1758644007,"current_range_meters":4400,"station_id":"cpo36qri1sfpv3e86is0","pricing_plan_id":"cebpf4jnsgd1na2vs0mg"},{"bike_id":"779a5819-2e27-438a-af62-0d22f37b4831","system_id":"levelo_inurba_marseille","lat":43.2841,"lon":5.37511,"is_reserved":false,"is_disabled":false,"rental_uris":{"android":"levelo://app?vid=779a5819-2e27-438a-af62-0d22f37b4831","ios":"levelo://app?vid=779a5819-2e27-438a-af62-0d22f37b4831"},"vehicle_type_id":"4","last_reported":1758644007,"current_range_meters":4400,"station_id":"ce4bh412rcd13ifvqds0","pricing_plan_id":"cebpf4jnsgd1na2vs0mg"},{"bike_id":"be814d61-308f-4330-8d61-deb894fada68","system_id":"levelo_inurba_marseille","lat":43.32047,"lon":5.415489,"is_reserved":false,"is_disabled":false,"rental_uris":{"android":"levelo://app?vid=be814d61-308f-4330-8d61-deb894fada68","ios":"levelo://app?vid=be814d61-308f-4330-8d61-deb894fada68"},"vehicle_type_id":"4","last_reported":1758644007,"current_range_meters":4800,"station_id":"","pricing_plan_id":"cebpf4jnsgd1na2vs0mg"},{"bike_id":"9176512c-2cc1-4df2-a8e0-6be514fbcdbf","system_id":"levelo_inurba_marseille","lat":43.33748,"lon":5.37465,"is_reserved":false,"is_disabled":false,"rental_uris":{"android":"levelo://app?vid=9176512c-2cc1-4df2-a8e0-6be514fbcdbf","ios":"levelo://app?vid=9176512c-2cc1-4df2-a8e0-6be514fbcdbf"},"vehicle_type_id":"4","last_reported":1758644007,"current_range_meters":4800,"station_id":"","pricing_plan_id":"cebpf4jnsgd1na2vs0mg"},{"bike_id":"4394fe31-11f2-467c-b598-3641d985a7e1","system_id":"levelo_inurba_marseille","lat":43.28157,"lon":5.42645,"is_reserved":false,"is_disabled":false,"rental_uris":{"android":"levelo://app?vid=4394fe31-11f2-467c-b598-3641d985a7e1","ios":"levelo://app?vid=4394fe31-11f2-467c-b598-3641d985a7e1"},"vehicle_type_id":"4","last_reported":1758644007,"current_range_meters":4800,"station_id":"ce4bhnh2rcd13ifvqgug","pricing_plan_id":"cebpf4jnsgd1na2vs0mg"},{"bike_id":"438ead59-de14-4fa0-a61d-03a70a4122ae","system_id":"levelo_inurba_marseille","lat":43.97285,"lon":4.89134,"is_reserved":false,"is_disabled":true,"rental_uris":{"android":"levelo://app?vid=438ead59-de14-4fa0-a61d-03a70a4122ae","ios":"levelo://app?vid=438ead59-de14-4fa0-a61d-03a70a4122ae"},"vehicle_type_id":"4","last_reported":1758644007,"current_range_meters":4800,"station_id":"","pricing_plan_id":"cebpf4jnsgd1na2vs0mg"},{"bike_id":"e56aea41-e109-410a-9422-684b02045196","system_id":"levelo_inurba_marseille","lat":43.28422,"lon":5.3498,"is_reserved":false,"is_disabled":false,"rental_uris":{"android":"levelo://app?vid=e56aea41-e109-410a-9422-684b02045196","ios":"levelo://app?vid=e56aea41-e109-410a-9422-684b02045196"},"vehicle_type_id":"4","last_reported":1758644007,"current_range_meters":4800,"station_id":"ce4bhbh2rcd13ifvqepg","pricing_plan_id":"cebpf4jnsgd1na2vs0mg"},{"bike_id":"6ab4a66e-7a65-4f29-b789-936dd211b77a","system_id":"levelo_inurba_marseille","lat":43.30924,"lon":5.3788,"is_reserved":false,"is_disabled":false,"rental_uris":{"android":"levelo://app?vid=6ab4a66e-7a65-4f29-b789-936dd211b77a","ios":"levelo://app?vid=6ab4a66e-7a65-4f29-b789-936dd211b77a"},"vehicle_type_id":"4","last_reported":1758644007,"current_range_meters":5600,"station_id":"","pricing_plan_id":"cebpf4jnsgd1na2vs0mg"},{"bike_id":"2289a0ff-9c3e-4f79-ad38-4b41158d6057","system_id":"levelo_inurba_marseille","lat":43.29882,"lon":5.37911,"is_reserved":false,"is_disabled":false,"rental_uris":{"android":"levelo://app?vid=2289a0ff-9c3e-4f79-ad38-4b41158d6057","ios":"levelo://app?vid=2289a0ff-9c3e-4f79-ad38-4b41158d6057"},"vehicle_type_id":"4","last_reported":1758644007,"current_range_meters":5600,"station_id":"","pricing_plan_id":"cebpf4jnsgd1na2vs0mg"},{"bike_id":"9cbfebb2-79c8-4115-a982-4af76475c895","system_id":"levelo_inurba_marseille","lat":43.29896,"lon":5.38799,"is_reserved":false,"is_disabled":false,"rental_uris":{"android":"levelo://app?vid=9cbfebb2-79c8-4115-a982-4af76475c895","ios":"levelo://app?vid=9cbfebb2-79c8-4115-a982-4af76475c895"},"vehicle_type_id":"4","last_reported":1758644007,"current_range_meters":5600,"station_id":"ce4bh392rcd13ifvqdl0","pricing_plan_id":"cebpf4jnsgd1na2vs0mg"},{"bike_id":"86b11743-c52a-4d86-a7f0-def3dacdb7eb","system_id":"levelo_inurba_marseille","lat":43.28704,"lon":5.37396,"is_reserved":false,"is_disabled":false,"rental_uris":{"android":"levelo://app?vid=86b11743-c52a-4d86-a7f0-def3dacdb7eb","ios":"levelo://app?vid=86b11743-c52a-4d86-a7f0-def3dacdb7eb"},"vehicle_type_id":"4","last_reported":1758644007,"current_range_meters":6000,"station_id":"ce4bh3p2rcd13ifvqdq0","pricing_plan_id":"cebpf4jnsgd1na2vs0mg"},{"bike_id":"ed350ed4-afd2-4bb6-b6fe-5c1f98f46b62","system_id":"levelo_inurba_marseille","lat":43.261786,"lon":5.379026,"is_reserved":false,"is_disabled":false,"rental_uris":{"android":"levelo://app?vid=ed350ed4-afd2-4bb6-b6fe-5c1f98f46b62","ios":"levelo://app?vid=ed350ed4-afd2-4bb6-b6fe-5c1f98f46b62"},"vehicle_type_id":"4","last_reported":1758644007,"current_range_meters":6000,"station_id":"ce4bhjp2rcd13ifvqg90","pricing_plan_id":"cebpf4jnsgd1na2vs0mg"},{"bike_id":"9300dd98-e7f2-42bf-8c57-c0ce3a3f4735","system_id":"levelo_inurba_marseille","lat":43.31765,"lon":5.39013,"is_reserved":false,"is_disabled":false,"rental_uris":{"android":"levelo://app?vid=9300dd98-e7f2-42bf-8c57-c0ce3a3f4735","ios":"levelo://app?vid=9300dd98-e7f2-42bf-8c57-c0ce3a3f4735"},"vehicle_type_id":"4","last_reported":1758644007,"current_range_meters":6000,"station_id":"ce4bhqp2rcd13ifvqhng","pricing_plan_id":"cebpf4jnsgd1na2vs0mg"},{"bike_id":"698a1659-1be4-4464-8e40-0054e6845364","system_id":"levelo_inurba_marseille","lat":43.294,"lon":5.4039,"is_reserved":false,"is_disabled":false,"rental_uris":{"android":"levelo://app?vid=698a1659-1be4-4464-8e40-0054e6845364","ios":"levelo://app?vid=698a1659-1be4-4464-8e40-0054e6845364"},"vehicle_type_id":"4","last_reported":1758644007,"current_range_meters":6400,"station_id":"","pricing_plan_id":"cebpf4jnsgd1na2vs0mg"},{"bike_id":"6ea3e0ce-29b0-4b08-881d-ec13a41e32ba","system_id":"levelo_inurba_marseille","lat":43.282686,"lon":5.350491,"is_reserved":false,"is_disabled":false,"rental_uris":{"android":"levelo://app?vid=6ea3e0ce-29b0-4b08-881d-ec13a41e32ba","ios":"levelo://app?vid=6ea3e0ce-29b0-4b08-881d-ec13a41e32ba"},"vehicle_type_id":"4","last_reported":1758644007,"current_range_meters":6400,"station_id":"","pricing_plan_id":"cebpf4jnsgd1na2vs0mg"},{"bike_id":"cf255ac9-bcf9-43b3-929d-0058d06ca849","system_id":"levelo_inurba_marseille","lat":43.31545,"lon":5.38,"is_reserved":false,"is_disabled":false,"rental_uris":{"android":"levelo://app?vid=cf255ac9-bcf9-43b3-929d-0058d06ca849","ios":"levelo://app?vid=cf255ac9-bcf9-43b3-929d-0058d06ca849"},"vehicle_type_id":"4","last_reported":1758644007,"current_range_meters":6800,"station_id":"ce4bhsp2rcd13ifvqi50","pricing_plan_id":"cebpf4jnsgd1na2vs0mg"},{"bike_id":"4853dc32-447f-4afe-b3ca-9115330e8151","system_id":"levelo_inurba_marseille","lat":43.284241,"lon":5.375169,"is_reserved":false,"is_disabled":false,"rental_uris":{"android":"levelo://app?vid=4853dc32-447f-4afe-b3ca-9115330e8151","ios":"levelo://app?vid=4853dc32-447f-4afe-b3ca-9115330e8151"},"vehicle_type_id":"4","last_reported":1758644007,"current_range_meters":6800,"station_id":"ce4bh412rcd13ifvqds0","pricing_plan_id":"cebpf4jnsgd1na2vs0mg"},{"bike_id":"3d3616ae-55ab-4319-9346-2104e95c171f","system_id":"levelo_inurba_marseille","lat":43.30978,"lon":5.37958,"is_reserved":false,"is_disabled":false,"rental_uris":{"android":"levelo://app?vid=3d3616ae-55ab-4319-9346-2104e95c171f","ios":"levelo://app?vid=3d3616ae-55ab-4319-9346-2104e95c171f"},"vehicle_type_id":"4","last_reported":1758644007,"current_range_meters":6800,"station_id":"","pricing_plan_id":"cebpf4jnsgd1na2vs0mg"},{"bike_id":"cc322940-83f8-4a1f-8a57-8a58d7cade5c","system_id":"levelo_inurba_marseille","lat":43.265548,"lon":5.403276,"is_reserved":false,"is_disabled":false,"rental_uris":{"android":"levelo://app?vid=cc322940-83f8-4a1f-8a57-8a58d7cade5c","ios":"levelo://app?vid=cc322940-83f8-4a1f-8a57-8a58d7cade5c"},"vehicle_type_id":"4","last_reported":1758644007,"current_range_meters":6800,"station_id":"ce4bhmp2rcd13ifvqgng","pricing_plan_id":"cebpf4jnsgd1na2vs0mg"},{"bike_id":"902c7bfe-4d6e-44a5-8219-72b29ff24378","system_id":"levelo_inurba_marseille","lat":43.27916,"lon":5.3958,"is_reserved":false,"is_disabled":false,"rental_uris":{"android":"levelo://app?vid=902c7bfe-4d6e-44a5-8219-72b29ff24378","ios":"levelo://app?vid=902c7bfe-4d6e-44a5-8219-72b29ff24378"},"vehicle_type_id":"4","last_reported":1758644007,"current_range_meters":6800,"station_id":"ce4bhf92rcd13ifvqf40","pricing_plan_id":"cebpf4jnsgd1na2vs0mg"},{"bike_id":"af29bd4a-51c0-47f1-bce0-b9ca138339ea","system_id":"levelo_inurba_marseille","lat":43.31701,"lon":5.43713,"is_reserved":false,"is_disabled":false,"rental_uris":{"android":"levelo://app?vid=af29bd4a-51c0-47f1-bce0-b9ca138339ea","ios":"levelo://app?vid=af29bd4a-51c0-47f1-bce0-b9ca138339ea"},"vehicle_type_id":"4","last_reported":1758644007,"current_range_meters":7200,"station_id":"ce4bhp92rcd13ifvqhcg","pricing_plan_id":"cebpf4jnsgd1na2vs0mg"},{"bike_id":"7fd14ad2-a454-423d-bbfa-04d2678cc6ac","system_id":"levelo_inurba_marseille","lat":43.29769,"lon":5.381,"is_reserved":false,"is_disabled":false,"rental_uris":{"android":"levelo://app?vid=7fd14ad2-a454-423d-bbfa-04d2678cc6ac","ios":"levelo://app?vid=7fd14ad2-a454-423d-bbfa-04d2678cc6ac"},"vehicle_type_id":"4","last_reported":1758644007,"current_range_meters":7200,"station_id":"ce4bgip2rcd13ifvqbb0","pricing_plan_id":"cebpf4jnsgd1na2vs0mg"},{"bike_id":"ca000825-5d13-495e-af19-915ae846db43","system_id":"levelo_inurba_marseille","lat":43.33018,"lon":5.39034,"is_reserved":false,"is_disabled":false,"rental_uris":{"android":"levelo://app?vid=ca000825-5d13-495e-af19-915ae846db43","ios":"levelo://app?vid=ca000825-5d13-495e-af19-915ae846db43"},"vehicle_type_id":"4","last_reported":1758644007,"current_range_meters":7200,"station_id":"ce4bhr92rcd13ifvqhrg","pricing_plan_id":"cebpf4jnsgd1na2vs0mg"},{"bike_id":"6f23324b-b0d6-4f3c-b4ef-7abb564ad1d5","system_id":"levelo_inurba_marseille","lat":43.29558,"lon":5.38174,"is_reserved":false,"is_disabled":false,"rental_uris":{"android":"levelo://app?vid=6f23324b-b0d6-4f3c-b4ef-7abb564ad1d5","ios":"levelo://app?vid=6f23324b-b0d6-4f3c-b4ef-7abb564ad1d5"},"vehicle_type_id":"4","last_reported":1758644007,"current_range_meters":7200,"station_id":"","pricing_plan_id":"cebpf4jnsgd1na2vs0mg"},{"bike_id":"f240ad0b-fa6f-4dc5-bbd5-660b02752406","system_id":"levelo_inurba_marseille","lat":43.29035,"lon":5.39964,"is_reserved":false,"is_disabled":false,"rental_uris":{"android":"levelo://app?vid=f240ad0b-fa6f-4dc5-bbd5-660b02752406","ios":"levelo://app?vid=f240ad0b-fa6f-4dc5-bbd5-660b02752406"},"vehicle_type_id":"4","last_reported":1758644007,"current_range_meters":9200,"station_id":"ce4bh392rcd13ifvqdm0","pricing_plan_id":"cebpf4jnsgd1na2vs0mg"},{"bike_id":"5d6de702-44c2-460e-892f-0c4796aec6c4","system_id":"levelo_inurba_marseille","lat":43.32345,"lon":5.40621,"is_reserved":false,"is_disabled":false,"rental_uris":{"android":"levelo://app?vid=5d6de702-44c2-460e-892f-0c4796aec6c4","ios":"levelo://app?vid=5d6de702-44c2-460e-892f-0c4796aec6c4"},"vehicle_type_id":"4","last_reported":1758644007,"current_range_meters":8000,"station_id":"ce4bhq92rcd13ifvqhjg","pricing_plan_id":"cebpf4jnsgd1na2vs0mg"},{"bike_id":"8e7df27b-5b40-42b9-8e7a-a8fe4749e562","system_id":"levelo_inurba_marseille","lat":43.28082,"lon":5.39663,"is_reserved":false,"is_disabled":false,"rental_uris":{"android":"levelo://app?vid=8e7df27b-5b40-42b9-8e7a-a8fe4749e562","ios":"levelo://app?vid=8e7df27b-5b40-42b9-8e7a-a8fe4749e562"},"vehicle_type_id":"4","last_reported":1758644007,"current_range_meters":8400,"station_id":"ce4bho12rcd13ifvqh2g","pricing_plan_id":"cebpf4jnsgd1na2vs0mg"},{"bike_id":"dcf73aa4-53c5-4afc-b45c-d4c2482be691","system_id":"levelo_inurba_marseille","lat":43.21723,"lon":5.34605,"is_reserved":false,"is_disabled":false,"rental_uris":{"android":"levelo://app?vid=dcf73aa4-53c5-4afc-b45c-d4c2482be691","ios":"levelo://app?vid=dcf73aa4-53c5-4afc-b45c-d4c2482be691"},"vehicle_type_id":"4","last_reported":1758644007,"current_range_meters":8400,"station_id":"ce4bhg92rcd13ifvqf90","pricing_plan_id":"cebpf4jnsgd1na2vs0mg"},{"bike_id":"de07f31c-cec3-408c-99d8-402cacbbdf3d","system_id":"levelo_inurba_marseille","lat":43.28155,"lon":5.42645,"is_reserved":false,"is_disabled":false,"rental_uris":{"android":"levelo://app?vid=de07f31c-cec3-408c-99d8-402cacbbdf3d","ios":"levelo://app?vid=de07f31c-cec3-408c-99d8-402cacbbdf3d"},"vehicle_type_id":"4","last_reported":1758644007,"current_range_meters":8400,"station_id":"ce4bhnh2rcd13ifvqgug","pricing_plan_id":"cebpf4jnsgd1na2vs0mg"},{"bike_id":"515e3557-dc91-4891-88cb-17a92dc63a02","system_id":"levelo_inurba_marseille","lat":43.32105,"lon":5.36794,"is_reserved":false,"is_disabled":false,"rental_uris":{"android":"levelo://app?vid=515e3557-dc91-4891-88cb-17a92dc63a02","ios":"levelo://app?vid=515e3557-dc91-4891-88cb-17a92dc63a02"},"vehicle_type_id":"4","last_reported":1758644007,"current_range_meters":8400,"station_id":"ce4bhrh2rcd13ifvqhug","pricing_plan_id":"cebpf4jnsgd1na2vs0mg"},{"bike_id":"5096dd44-bb08-49f1-8f58-9d9dfb1faf50","system_id":"levelo_inurba_marseille","lat":43.33429,"lon":5.40057,"is_reserved":false,"is_disabled":false,"rental_uris":{"android":"levelo://app?vid=5096dd44-bb08-49f1-8f58-9d9dfb1faf50","ios":"levelo://app?vid=5096dd44-bb08-49f1-8f58-9d9dfb1faf50"},"vehicle_type_id":"4","last_reported":1758644007,"current_range_meters":8400,"station_id":"","pricing_plan_id":"cebpf4jnsgd1na2vs0mg"},{"bike_id":"631e92f1-1d25-46a3-9d6f-11b28339494d","system_id":"levelo_inurba_marseille","lat":43.280484,"lon":5.369229,"is_reserved":false,"is_disabled":false,"rental_uris":{"android":"levelo://app?vid=631e92f1-1d25-46a3-9d6f-11b28339494d","ios":"levelo://app?vid=631e92f1-1d25-46a3-9d6f-11b28339494d"},"vehicle_type_id":"4","last_reported":1758644007,"current_range_meters":8400,"station_id":"ce4bha12rcd13ifvqef0","pricing_plan_id":"cebpf4jnsgd1na2vs0mg"},{"bike_id":"0b2230e3-adb9-421c-91b1-c113eb397705","system_id":"levelo_inurba_marseille","lat":43.289,"lon":5.37661,"is_reserved":false,"is_disabled":false,"rental_uris":{"android":"levelo://app?vid=0b2230e3-adb9-421c-91b1-c113eb397705","ios":"levelo://app?vid=0b2230e3-adb9-421c-91b1-c113eb397705"},"vehicle_type_id":"4","last_reported":1758644007,"current_range_meters":8800,"station_id":"","pricing_plan_id":"cebpf4jnsgd1na2vs0mg"},{"bike_id":"c3e48ccc-65c6-4ebf-8cf7-ad2b8d3ed03f","system_id":"levelo_inurba_marseille","lat":43.28847,"lon":5.35852,"is_reserved":false,"is_disabled":false,"rental_uris":{"android":"levelo://app?vid=c3e48ccc-65c6-4ebf-8cf7-ad2b8d3ed03f","ios":"levelo://app?vid=c3e48ccc-65c6-4ebf-8cf7-ad2b8d3ed03f"},"vehicle_type_id":"4","last_reported":1758644007,"current_range_meters":8800,"station_id":"ce4bhb12rcd13ifvqem0","pricing_plan_id":"cebpf4jnsgd1na2vs0mg"},{"bike_id":"eed2cf9a-36d5-4639-8402-2398b6fbd4cf","system_id":"levelo_inurba_marseille","lat":43.21732,"lon":5.3462,"is_reserved":false,"is_disabled":false,"rental_uris":{"android":"levelo://app?vid=eed2cf9a-36d5-4639-8402-2398b6fbd4cf","ios":"levelo://app?vid=eed2cf9a-36d5-4639-8402-2398b6fbd4cf"},"vehicle_type_id":"4","last_reported":1758644007,"current_range_meters":8800,"station_id":"st_cvj6r9ubvosntc0bgbag","pricing_plan_id":"cebpf4jnsgd1na2vs0mg"},{"bike_id":"83ad6d2c-ed17-4aa6-9094-411b8060a06c","system_id":"levelo_inurba_marseille","lat":43.255782,"lon":5.382294,"is_reserved":false,"is_disabled":false,"rental_uris":{"android":"levelo://app?vid=83ad6d2c-ed17-4aa6-9094-411b8060a06c","ios":"levelo://app?vid=83ad6d2c-ed17-4aa6-9094-411b8060a06c"},"vehicle_type_id":"4","last_reported":1758644007,"current_range_meters":8800,"station_id":"ce4bhih2rcd13ifvqfs0","pricing_plan_id":"cebpf4jnsgd1na2vs0mg"},{"bike_id":"d46536c1-b7ad-4df6-a9a1-6c4b8943878b","system_id":"levelo_inurba_marseille","lat":43.32366,"lon":5.38887,"is_reserved":false,"is_disabled":false,"rental_uris":{"android":"levelo://app?vid=d46536c1-b7ad-4df6-a9a1-6c4b8943878b","ios":"levelo://app?vid=d46536c1-b7ad-4df6-a9a1-6c4b8943878b"},"vehicle_type_id":"4","last_reported":1758644007,"current_range_meters":8800,"station_id":"ce4bhqp2rcd13ifvqhog","pricing_plan_id":"cebpf4jnsgd1na2vs0mg"},{"bike_id":"cfa3b279-db34-4bb5-b70c-36c855997ad9","system_id":"levelo_inurba_marseille","lat":43.31364,"lon":5.38487,"is_reserved":false,"is_disabled":false,"rental_uris":{"android":"levelo://app?vid=cfa3b279-db34-4bb5-b70c-36c855997ad9","ios":"levelo://app?vid=cfa3b279-db34-4bb5-b70c-36c855997ad9"},"vehicle_type_id":"4","last_reported":1758644007,"current_range_meters":8800,"station_id":"ce4bgt92rcd13ifvqcf0","pricing_plan_id":"cebpf4jnsgd1na2vs0mg"},{"bike_id":"e96b5196-63ca-49f5-b3cb-f43ccb169512","system_id":"levelo_inurba_marseille","lat":43.28479,"lon":5.38407,"is_reserved":false,"is_disabled":false,"rental_uris":{"android":"levelo://app?vid=e96b5196-63ca-49f5-b3cb-f43ccb169512","ios":"levelo://app?vid=e96b5196-63ca-49f5-b3cb-f43ccb169512"},"vehicle_type_id":"4","last_reported":1758644007,"current_range_meters":9200,"station_id":"ce4bh512rcd13ifvqe3g","pricing_plan_id":"cebpf4jnsgd1na2vs0mg"},{"bike_id":"c5c96d4e-b627-428c-ba5f-9228dc3f0147","system_id":"levelo_inurba_marseille","lat":43.23197,"lon":5.35559,"is_reserved":false,"is_disabled":false,"rental_uris":{"android":"levelo://app?vid=c5c96d4e-b627-428c-ba5f-9228dc3f0147","ios":"levelo://app?vid=c5c96d4e-b627-428c-ba5f-9228dc3f0147"},"vehicle_type_id":"4","last_reported":1758644007,"current_range_meters":9200,"station_id":"ce4bhu92rcd13ifvqi70","pricing_plan_id":"cebpf4jnsgd1na2vs0mg"},{"bike_id":"e66bb1a4-7799-4cde-9f64-29b6f4eda452","system_id":"levelo_inurba_marseille","lat":43.30321,"lon":5.40442,"is_reserved":false,"is_disabled":false,"rental_uris":{"android":"levelo://app?vid=e66bb1a4-7799-4cde-9f64-29b6f4eda452","ios":"levelo://app?vid=e66bb1a4-7799-4cde-9f64-29b6f4eda452"},"vehicle_type_id":"4","last_reported":1758644007,"current_range_meters":9200,"station_id":"ce4bh012rcd13ifvqd10","pricing_plan_id":"cebpf4jnsgd1na2vs0mg"},{"bike_id":"b073c68d-230e-40b2-a8ea-0ce8e6690f1f","system_id":"levelo_inurba_marseille","lat":43.31993,"lon":5.38166,"is_reserved":false,"is_disabled":false,"rental_uris":{"android":"levelo://app?vid=b073c68d-230e-40b2-a8ea-0ce8e6690f1f","ios":"levelo://app?vid=b073c68d-230e-40b2-a8ea-0ce8e6690f1f"},"vehicle_type_id":"4","last_reported":1758644007,"current_range_meters":9200,"station_id":"ce4bhr12rcd13ifvqhpg","pricing_plan_id":"cebpf4jnsgd1na2vs0mg"},{"bike_id":"50375795-7bd9-4982-ab7f-ff1c20f58ea4","system_id":"levelo_inurba_marseille","lat":43.2842,"lon":5.34985,"is_reserved":false,"is_disabled":false,"rental_uris":{"android":"levelo://app?vid=50375795-7bd9-4982-ab7f-ff1c20f58ea4","ios":"levelo://app?vid=50375795-7bd9-4982-ab7f-ff1c20f58ea4"},"vehicle_type_id":"4","last_reported":1758644007,"current_range_meters":9600,"station_id":"ce4bhbh2rcd13ifvqepg","pricing_plan_id":"cebpf4jnsgd1na2vs0mg"},{"bike_id":"48adc988-dc79-49b4-8a54-54deb7c603ba","system_id":"levelo_inurba_marseille","lat":43.26061,"lon":5.39388,"is_reserved":false,"is_disabled":false,"rental_uris":{"android":"levelo://app?vid=48adc988-dc79-49b4-8a54-54deb7c603ba","ios":"levelo://app?vid=48adc988-dc79-49b4-8a54-54deb7c603ba"},"vehicle_type_id":"4","last_reported":1758644007,"current_range_meters":9600,"station_id":"ce4bhh92rcd13ifvqfj0","pricing_plan_id":"cebpf4jnsgd1na2vs0mg"},{"bike_id":"1c8e2e04-5c46-4988-a11a-b5fc19800ee3","system_id":"levelo_inurba_marseille","lat":43.31755,"lon":5.39013,"is_reserved":false,"is_disabled":false,"rental_uris":{"android":"levelo://app?vid=1c8e2e04-5c46-4988-a11a-b5fc19800ee3","ios":"levelo://app?vid=1c8e2e04-5c46-4988-a11a-b5fc19800ee3"},"vehicle_type_id":"4","last_reported":1758644007,"current_range_meters":9600,"station_id":"ce4bhqp2rcd13ifvqhng","pricing_plan_id":"cebpf4jnsgd1na2vs0mg"},{"bike_id":"154622e7-5eef-491b-877c-4bd2c12b1ef4","system_id":"levelo_inurba_marseille","lat":43.24948,"lon":5.40495,"is_reserved":false,"is_disabled":true,"rental_uris":{"android":"levelo://app?vid=154622e7-5eef-491b-877c-4bd2c12b1ef4","ios":"levelo://app?vid=154622e7-5eef-491b-877c-4bd2c12b1ef4"},"vehicle_type_id":"4","last_reported":1758644007,"current_range_meters":9600,"station_id":"st_d2ngiaodas8pm72gd1h0","pricing_plan_id":"cebpf4jnsgd1na2vs0mg"},{"bike_id":"160e85d1-01db-4b45-86e9-e97e12e57b52","system_id":"levelo_inurba_marseille","lat":43.25003,"lon":5.38926,"is_reserved":false,"is_disabled":false,"rental_uris":{"android":"levelo://app?vid=160e85d1-01db-4b45-86e9-e97e12e57b52","ios":"levelo://app?vid=160e85d1-01db-4b45-86e9-e97e12e57b52"},"vehicle_type_id":"4","last_reported":1758644007,"current_range_meters":10000,"station_id":"ce4bhgp2rcd13ifvqfd0","pricing_plan_id":"cebpf4jnsgd1na2vs0mg"},{"bike_id":"94354612-2b6e-4a66-b8d1-6de516ea0047","system_id":"levelo_inurba_marseille","lat":43.29526,"lon":5.37506,"is_reserved":false,"is_disabled":false,"rental_uris":{"android":"levelo://app?vid=94354612-2b6e-4a66-b8d1-6de516ea0047","ios":"levelo://app?vid=94354612-2b6e-4a66-b8d1-6de516ea0047"},"vehicle_type_id":"4","last_reported":1758644007,"current_range_meters":10000,"station_id":"ce4bgkp2rcd13ifvqbmg","pricing_plan_id":"cebpf4jnsgd1na2vs0mg"},{"bike_id":"41690445-2688-42de-9a85-1a873ec1c4a7","system_id":"levelo_inurba_marseille","lat":43.28415,"lon":5.34982,"is_reserved":false,"is_disabled":false,"rental_uris":{"android":"levelo://app?vid=41690445-2688-42de-9a85-1a873ec1c4a7","ios":"levelo://app?vid=41690445-2688-42de-9a85-1a873ec1c4a7"},"vehicle_type_id":"4","last_reported":1758644007,"current_range_meters":10000,"station_id":"ce4bhbh2rcd13ifvqepg","pricing_plan_id":"cebpf4jnsgd1na2vs0mg"},{"bike_id":"fd8603f6-0f95-40aa-8c02-c74cd8326cb5","system_id":"levelo_inurba_marseille","lat":43.22568,"lon":5.41635,"is_reserved":false,"is_disabled":false,"rental_uris":{"android":"levelo://app?vid=fd8603f6-0f95-40aa-8c02-c74cd8326cb5","ios":"levelo://app?vid=fd8603f6-0f95-40aa-8c02-c74cd8326cb5"},"vehicle_type_id":"4","last_reported":1758644007,"current_range_meters":10000,"station_id":"st_d2o4gvlbi1j2169b742g","pricing_plan_id":"cebpf4jnsgd1na2vs0mg"},{"bike_id":"c1fe661e-0ccb-440b-92a2-86f724825f59","system_id":"levelo_inurba_marseille","lat":43.287,"lon":5.3998,"is_reserved":false,"is_disabled":false,"rental_uris":{"android":"levelo://app?vid=c1fe661e-0ccb-440b-92a2-86f724825f59","ios":"levelo://app?vid=c1fe661e-0ccb-440b-92a2-86f724825f59"},"vehicle_type_id":"4","last_reported":1758644007,"current_range_meters":10000,"station_id":"ce4bho92rcd13ifvqh3g","pricing_plan_id":"cebpf4jnsgd1na2vs0mg"},{"bike_id":"94d430e6-52b3-4d21-80c9-c6dd4519a8fb","system_id":"levelo_inurba_marseille","lat":43.31778,"lon":5.3828,"is_reserved":false,"is_disabled":false,"rental_uris":{"android":"levelo://app?vid=94d430e6-52b3-4d21-80c9-c6dd4519a8fb","ios":"levelo://app?vid=94d430e6-52b3-4d21-80c9-c6dd4519a8fb"},"vehicle_type_id":"4","last_reported":1758644007,"current_range_meters":10000,"station_id":"","pricing_plan_id":"cebpf4jnsgd1na2vs0mg"},{"bike_id":"31b2caa6-caf0-40d0-8f64-278d39b2dcb7","system_id":"levelo_inurba_marseille","lat":43.280052,"lon":5.400071,"is_reserved":false,"is_disabled":false,"rental_uris":{"android":"levelo://app?vid=31b2caa6-caf0-40d0-8f64-278d39b2dcb7","ios":"levelo://app?vid=31b2caa6-caf0-40d0-8f64-278d39b2dcb7"},"vehicle_type_id":"4","last_reported":1758644007,"current_range_meters":10000,"station_id":"ce4bho92rcd13ifvqh4g","pricing_plan_id":"cebpf4jnsgd1na2vs0mg"},{"bike_id":"285ac12b-9ede-42db-a9fd-f958b937d784","system_id":"levelo_inurba_marseille","lat":43.26022,"lon":5.37555,"is_reserved":false,"is_disabled":false,"rental_uris":{"android":"levelo://app?vid=285ac12b-9ede-42db-a9fd-f958b937d784","ios":"levelo://app?vid=285ac12b-9ede-42db-a9fd-f958b937d784"},"vehicle_type_id":"4","last_reported":1758644007,"current_range_meters":10000,"station_id":"ce4bhgh2rcd13ifvqfa0","pricing_plan_id":"cebpf4jnsgd1na2vs0mg"},{"bike_id":"7d7a0abe-83b8-4067-92d1-8adad0b45209","system_id":"levelo_inurba_marseille","lat":43.27067,"lon":5.42278,"is_reserved":false,"is_disabled":false,"rental_uris":{"android":"levelo://app?vid=7d7a0abe-83b8-4067-92d1-8adad0b45209","ios":"levelo://app?vid=7d7a0abe-83b8-4067-92d1-8adad0b45209"},"vehicle_type_id":"4","last_reported":1758644007,"current_range_meters":10800,"station_id":"ce4bhk92rcd13ifvqgb0","pricing_plan_id":"cebpf4jnsgd1na2vs0mg"},{"bike_id":"1efddf8d-578f-4e4c-8c3f-e3a8bd592ba4","system_id":"levelo_inurba_marseille","lat":43.299799,"lon":5.374399,"is_reserved":false,"is_disabled":false,"rental_uris":{"android":"levelo://app?vid=1efddf8d-578f-4e4c-8c3f-e3a8bd592ba4","ios":"levelo://app?vid=1efddf8d-578f-4e4c-8c3f-e3a8bd592ba4"},"vehicle_type_id":"4","last_reported":1758644007,"current_range_meters":10800,"station_id":"","pricing_plan_id":"cebpf4jnsgd1na2vs0mg"},{"bike_id":"002d6264-c1ee-4379-aad6-c343ca56d46b","system_id":"levelo_inurba_marseille","lat":43.26945,"lon":5.40249,"is_reserved":false,"is_disabled":false,"rental_uris":{"android":"levelo://app?vid=002d6264-c1ee-4379-aad6-c343ca56d46b","ios":"levelo://app?vid=002d6264-c1ee-4379-aad6-c343ca56d46b"},"vehicle_type_id":"4","last_reported":1758644007,"current_range_meters":10800,"station_id":"cjm6bp8fraef2m0cb0m0","pricing_plan_id":"cebpf4jnsgd1na2vs0mg"},{"bike_id":"0f9539df-509f-487e-82d0-16c840f4e781","system_id":"levelo_inurba_marseille","lat":43.31363,"lon":5.3849,"is_reserved":false,"is_disabled":false,"rental_uris":{"android":"levelo://app?vid=0f9539df-509f-487e-82d0-16c840f4e781","ios":"levelo://app?vid=0f9539df-509f-487e-82d0-16c840f4e781"},"vehicle_type_id":"4","last_reported":1758644007,"current_range_meters":10800,"station_id":"ce4bgt92rcd13ifvqcf0","pricing_plan_id":"cebpf4jnsgd1na2vs0mg"},{"bike_id":"80856785-6c18-4764-86a3-85c59ca20582","system_id":"levelo_inurba_marseille","lat":43.30556,"lon":5.36557,"is_reserved":false,"is_disabled":false,"rental_uris":{"android":"levelo://app?vid=80856785-6c18-4764-86a3-85c59ca20582","ios":"levelo://app?vid=80856785-6c18-4764-86a3-85c59ca20582"},"vehicle_type_id":"4","last_reported":1758644007,"current_range_meters":10800,"station_id":"ce4bgs12rcd13ifvqcag","pricing_plan_id":"cebpf4jnsgd1na2vs0mg"},{"bike_id":"4b7ec541-fcc2-4711-981a-91af3749baa3","system_id":"levelo_inurba_marseille","lat":43.28154,"lon":5.42635,"is_reserved":false,"is_disabled":false,"rental_uris":{"android":"levelo://app?vid=4b7ec541-fcc2-4711-981a-91af3749baa3","ios":"levelo://app?vid=4b7ec541-fcc2-4711-981a-91af3749baa3"},"vehicle_type_id":"4","last_reported":1758644007,"current_range_meters":9200,"station_id":"ce4bhnh2rcd13ifvqgug","pricing_plan_id":"cebpf4jnsgd1na2vs0mg"},{"bike_id":"79067c77-d317-4ed9-b279-27672217e397","system_id":"levelo_inurba_marseille","lat":43.287033,"lon":5.399868,"is_reserved":false,"is_disabled":false,"rental_uris":{"android":"levelo://app?vid=79067c77-d317-4ed9-b279-27672217e397","ios":"levelo://app?vid=79067c77-d317-4ed9-b279-27672217e397"},"vehicle_type_id":"4","last_reported":1758644007,"current_range_meters":10800,"station_id":"ce4bho92rcd13ifvqh3g","pricing_plan_id":"cebpf4jnsgd1na2vs0mg"},{"bike_id":"4fb00daa-8241-4a76-8fcd-d78ef7487bae","system_id":"levelo_inurba_marseille","lat":43.30357,"lon":5.4189,"is_reserved":false,"is_disabled":false,"rental_uris":{"android":"levelo://app?vid=4fb00daa-8241-4a76-8fcd-d78ef7487bae","ios":"levelo://app?vid=4fb00daa-8241-4a76-8fcd-d78ef7487bae"},"vehicle_type_id":"4","last_reported":1758644007,"current_range_meters":10800,"station_id":"ce4bhop2rcd13ifvqh7g","pricing_plan_id":"cebpf4jnsgd1na2vs0mg"},{"bike_id":"8d243e83-cc74-44d3-bf18-f20421549672","system_id":"levelo_inurba_marseille","lat":43.28938,"lon":5.35924,"is_reserved":false,"is_disabled":false,"rental_uris":{"android":"levelo://app?vid=8d243e83-cc74-44d3-bf18-f20421549672","ios":"levelo://app?vid=8d243e83-cc74-44d3-bf18-f20421549672"},"vehicle_type_id":"4","last_reported":1758644007,"current_range_meters":10800,"station_id":"","pricing_plan_id":"cebpf4jnsgd1na2vs0mg"},{"bike_id":"6dd432c7-92a1-44a4-a9ba-97b153f5ffe2","system_id":"levelo_inurba_marseille","lat":43.28461,"lon":5.35896,"is_reserved":false,"is_disabled":false,"rental_uris":{"android":"levelo://app?vid=6dd432c7-92a1-44a4-a9ba-97b153f5ffe2","ios":"levelo://app?vid=6dd432c7-92a1-44a4-a9ba-97b153f5ffe2"},"vehicle_type_id":"4","last_reported":1758644007,"current_range_meters":10800,"station_id":"ce4bhah2rcd13ifvqei0","pricing_plan_id":"cebpf4jnsgd1na2vs0mg"},{"bike_id":"80284225-a05b-46ad-af7c-598caf7a1449","system_id":"levelo_inurba_marseille","lat":43.29035,"lon":5.38645,"is_reserved":false,"is_disabled":false,"rental_uris":{"android":"levelo://app?vid=80284225-a05b-46ad-af7c-598caf7a1449","ios":"levelo://app?vid=80284225-a05b-46ad-af7c-598caf7a1449"},"vehicle_type_id":"4","last_reported":1758644007,"current_range_meters":11200,"station_id":"ce4bh4p2rcd13ifvqe0g","pricing_plan_id":"cebpf4jnsgd1na2vs0mg"},{"bike_id":"a567c709-78bf-41a4-9fec-a328a2cb60ef","system_id":"levelo_inurba_marseille","lat":43.28619,"lon":5.35087,"is_reserved":false,"is_disabled":false,"rental_uris":{"android":"levelo://app?vid=a567c709-78bf-41a4-9fec-a328a2cb60ef","ios":"levelo://app?vid=a567c709-78bf-41a4-9fec-a328a2cb60ef"},"vehicle_type_id":"4","last_reported":1758644007,"current_range_meters":11600,"station_id":"ce4bhch2rcd13ifvqeug","pricing_plan_id":"cebpf4jnsgd1na2vs0mg"},{"bike_id":"203aa9c0-a443-4f2c-aad2-7b29b39703ee","system_id":"levelo_inurba_marseille","lat":43.29191,"lon":5.39314,"is_reserved":false,"is_disabled":false,"rental_uris":{"android":"levelo://app?vid=203aa9c0-a443-4f2c-aad2-7b29b39703ee","ios":"levelo://app?vid=203aa9c0-a443-4f2c-aad2-7b29b39703ee"},"vehicle_type_id":"4","last_reported":1758644007,"current_range_meters":11600,"station_id":"ce4bh192rcd13ifvqdd0","pricing_plan_id":"cebpf4jnsgd1na2vs0mg"},{"bike_id":"6875e661-a2e3-423d-a4f5-d79cdbcc11b6","system_id":"levelo_inurba_marseille","lat":43.29587,"lon":5.36745,"is_reserved":false,"is_disabled":false,"rental_uris":{"android":"levelo://app?vid=6875e661-a2e3-423d-a4f5-d79cdbcc11b6","ios":"levelo://app?vid=6875e661-a2e3-423d-a4f5-d79cdbcc11b6"},"vehicle_type_id":"4","last_reported":1758644007,"current_range_meters":11600,"station_id":"ce4bgph2rcd13ifvqc2g","pricing_plan_id":"cebpf4jnsgd1na2vs0mg"},{"bike_id":"2a2f1ce0-5eb2-4ab6-a692-64d9649dcb94","system_id":"levelo_inurba_marseille","lat":43.22566,"lon":5.41598,"is_reserved":false,"is_disabled":false,"rental_uris":{"android":"levelo://app?vid=2a2f1ce0-5eb2-4ab6-a692-64d9649dcb94","ios":"levelo://app?vid=2a2f1ce0-5eb2-4ab6-a692-64d9649dcb94"},"vehicle_type_id":"4","last_reported":1758644007,"current_range_meters":11600,"station_id":"st_d2o4gvlbi1j2169b742g","pricing_plan_id":"cebpf4jnsgd1na2vs0mg"},{"bike_id":"4f98222a-e006-48be-80e4-8a97c1691154","system_id":"levelo_inurba_marseille","lat":43.316838,"lon":5.404702,"is_reserved":false,"is_disabled":false,"rental_uris":{"android":"levelo://app?vid=4f98222a-e006-48be-80e4-8a97c1691154","ios":"levelo://app?vid=4f98222a-e006-48be-80e4-8a97c1691154"},"vehicle_type_id":"4","last_reported":1758644007,"current_range_meters":11600,"station_id":"ce4bh012rcd13ifvqd00","pricing_plan_id":"cebpf4jnsgd1na2vs0mg"},{"bike_id":"0947e5b9-55ff-47e1-946a-ecbaefe45daa","system_id":"levelo_inurba_marseille","lat":43.29202,"lon":5.39319,"is_reserved":false,"is_disabled":false,"rental_uris":{"android":"levelo://app?vid=0947e5b9-55ff-47e1-946a-ecbaefe45daa","ios":"levelo://app?vid=0947e5b9-55ff-47e1-946a-ecbaefe45daa"},"vehicle_type_id":"4","last_reported":1758644007,"current_range_meters":11600,"station_id":"ce4bh192rcd13ifvqdd0","pricing_plan_id":"cebpf4jnsgd1na2vs0mg"},{"bike_id":"81512a92-c5ae-4129-921d-94a199ed3ea4","system_id":"levelo_inurba_marseille","lat":43.28037,"lon":5.36943,"is_reserved":false,"is_disabled":false,"rental_uris":{"android":"levelo://app?vid=81512a92-c5ae-4129-921d-94a199ed3ea4","ios":"levelo://app?vid=81512a92-c5ae-4129-921d-94a199ed3ea4"},"vehicle_type_id":"4","last_reported":1758644007,"current_range_meters":12000,"station_id":"ce4bha12rcd13ifvqef0","pricing_plan_id":"cebpf4jnsgd1na2vs0mg"},{"bike_id":"c4dff74d-8dd4-482a-81d8-fee830b4c5f3","system_id":"levelo_inurba_marseille","lat":43.27899,"lon":5.38023,"is_reserved":false,"is_disabled":false,"rental_uris":{"android":"levelo://app?vid=c4dff74d-8dd4-482a-81d8-fee830b4c5f3","ios":"levelo://app?vid=c4dff74d-8dd4-482a-81d8-fee830b4c5f3"},"vehicle_type_id":"4","last_reported":1758644007,"current_range_meters":12000,"station_id":"ce4bhf92rcd13ifvqf50","pricing_plan_id":"cebpf4jnsgd1na2vs0mg"},{"bike_id":"39e96fb7-1cc6-4104-a0db-9ca53e9d46ba","system_id":"levelo_inurba_marseille","lat":43.29894,"lon":5.39735,"is_reserved":false,"is_disabled":false,"rental_uris":{"android":"levelo://app?vid=39e96fb7-1cc6-4104-a0db-9ca53e9d46ba","ios":"levelo://app?vid=39e96fb7-1cc6-4104-a0db-9ca53e9d46ba"},"vehicle_type_id":"4","last_reported":1758644007,"current_range_meters":12000,"station_id":"ce4bh0h2rcd13ifvqd50","pricing_plan_id":"cebpf4jnsgd1na2vs0mg"},{"bike_id":"60285176-2bd2-4b1d-b03d-22e6f7605b74","system_id":"levelo_inurba_marseille","lat":43.251117,"lon":5.403232,"is_reserved":false,"is_disabled":false,"rental_uris":{"android":"levelo://app?vid=60285176-2bd2-4b1d-b03d-22e6f7605b74","ios":"levelo://app?vid=60285176-2bd2-4b1d-b03d-22e6f7605b74"},"vehicle_type_id":"4","last_reported":1758644007,"current_range_meters":12000,"station_id":"ce4bhlh2rcd13ifvqgig","pricing_plan_id":"cebpf4jnsgd1na2vs0mg"},{"bike_id":"3f9f9546-01d5-4d78-b7a2-84023d8ad6e4","system_id":"levelo_inurba_marseille","lat":43.27956,"lon":5.38716,"is_reserved":false,"is_disabled":true,"rental_uris":{"android":"levelo://app?vid=3f9f9546-01d5-4d78-b7a2-84023d8ad6e4","ios":"levelo://app?vid=3f9f9546-01d5-4d78-b7a2-84023d8ad6e4"},"vehicle_type_id":"4","last_reported":1758644007,"current_range_meters":12400,"station_id":"ce4bhg12rcd13ifvqf80","pricing_plan_id":"cebpf4jnsgd1na2vs0mg"},{"bike_id":"b8d5189b-e24e-410c-ad30-b0a7b724ca19","system_id":"levelo_inurba_marseille","lat":43.27904,"lon":5.38017,"is_reserved":false,"is_disabled":false,"rental_uris":{"android":"levelo://app?vid=b8d5189b-e24e-410c-ad30-b0a7b724ca19","ios":"levelo://app?vid=b8d5189b-e24e-410c-ad30-b0a7b724ca19"},"vehicle_type_id":"4","last_reported":1758644007,"current_range_meters":12400,"station_id":"ce4bhf92rcd13ifvqf50","pricing_plan_id":"cebpf4jnsgd1na2vs0mg"},{"bike_id":"deed7152-7a31-430c-8b26-c38aec87f470","system_id":"levelo_inurba_marseille","lat":43.2823,"lon":5.39075,"is_reserved":false,"is_disabled":false,"rental_uris":{"android":"levelo://app?vid=deed7152-7a31-430c-8b26-c38aec87f470","ios":"levelo://app?vid=deed7152-7a31-430c-8b26-c38aec87f470"},"vehicle_type_id":"4","last_reported":1758644007,"current_range_meters":12400,"station_id":"ce4bhn92rcd13ifvqgsg","pricing_plan_id":"cebpf4jnsgd1na2vs0mg"},{"bike_id":"0d93d80f-23fc-4b4f-918d-28fde704208b","system_id":"levelo_inurba_marseille","lat":43.24175,"lon":5.36398,"is_reserved":false,"is_disabled":false,"rental_uris":{"android":"levelo://app?vid=0d93d80f-23fc-4b4f-918d-28fde704208b","ios":"levelo://app?vid=0d93d80f-23fc-4b4f-918d-28fde704208b"},"vehicle_type_id":"4","last_reported":1758644007,"current_range_meters":12400,"station_id":"cpo36qri1sfpv3e86is0","pricing_plan_id":"cebpf4jnsgd1na2vs0mg"},{"bike_id":"5c6070a0-0fa7-40a1-bae4-90214c4809f1","system_id":"levelo_inurba_marseille","lat":43.28586,"lon":5.35097,"is_reserved":false,"is_disabled":false,"rental_uris":{"android":"levelo://app?vid=5c6070a0-0fa7-40a1-bae4-90214c4809f1","ios":"levelo://app?vid=5c6070a0-0fa7-40a1-bae4-90214c4809f1"},"vehicle_type_id":"4","last_reported":1758644007,"current_range_meters":12400,"station_id":"ce4bhch2rcd13ifvqeug","pricing_plan_id":"cebpf4jnsgd1na2vs0mg"},{"bike_id":"51b93413-1342-426f-8416-856b80eac246","system_id":"levelo_inurba_marseille","lat":43.2828,"lon":5.3507,"is_reserved":false,"is_disabled":false,"rental_uris":{"android":"levelo://app?vid=51b93413-1342-426f-8416-856b80eac246","ios":"levelo://app?vid=51b93413-1342-426f-8416-856b80eac246"},"vehicle_type_id":"4","last_reported":1758644007,"current_range_meters":12800,"station_id":"ce4bhbp2rcd13ifvqerg","pricing_plan_id":"cebpf4jnsgd1na2vs0mg"},{"bike_id":"9195057c-e460-4e8c-a254-3274332458f6","system_id":"levelo_inurba_marseille","lat":43.27994,"lon":5.40039,"is_reserved":false,"is_disabled":false,"rental_uris":{"android":"levelo://app?vid=9195057c-e460-4e8c-a254-3274332458f6","ios":"levelo://app?vid=9195057c-e460-4e8c-a254-3274332458f6"},"vehicle_type_id":"4","last_reported":1758644007,"current_range_meters":12800,"station_id":"ce4bho92rcd13ifvqh4g","pricing_plan_id":"cebpf4jnsgd1na2vs0mg"},{"bike_id":"cae6967d-7560-4db7-a702-49690b9444c0","system_id":"levelo_inurba_marseille","lat":43.21195,"lon":5.35073,"is_reserved":false,"is_disabled":false,"rental_uris":{"android":"levelo://app?vid=cae6967d-7560-4db7-a702-49690b9444c0","ios":"levelo://app?vid=cae6967d-7560-4db7-a702-49690b9444c0"},"vehicle_type_id":"4","last_reported":1758644007,"current_range_meters":12800,"station_id":"st_cvj6sg6p6f1abm77japg","pricing_plan_id":"cebpf4jnsgd1na2vs0mg"},{"bike_id":"f2956c6f-9c04-4951-8255-bfa3bf2eb784","system_id":"levelo_inurba_marseille","lat":43.29617,"lon":5.37728,"is_reserved":false,"is_disabled":false,"rental_uris":{"android":"levelo://app?vid=f2956c6f-9c04-4951-8255-bfa3bf2eb784","ios":"levelo://app?vid=f2956c6f-9c04-4951-8255-bfa3bf2eb784"},"vehicle_type_id":"4","last_reported":1758644007,"current_range_meters":12800,"station_id":"ce4bgi92rcd13ifvqb90","pricing_plan_id":"cebpf4jnsgd1na2vs0mg"},{"bike_id":"6ac17a81-0487-4557-9f83-8f554f6e083e","system_id":"levelo_inurba_marseille","lat":43.32026,"lon":5.3714,"is_reserved":false,"is_disabled":false,"rental_uris":{"android":"levelo://app?vid=6ac17a81-0487-4557-9f83-8f554f6e083e","ios":"levelo://app?vid=6ac17a81-0487-4557-9f83-8f554f6e083e"},"vehicle_type_id":"4","last_reported":1758644007,"current_range_meters":12800,"station_id":"","pricing_plan_id":"cebpf4jnsgd1na2vs0mg"},{"bike_id":"aec20ecf-41c9-41a2-bd08-b31b93b7d6e0","system_id":"levelo_inurba_marseille","lat":43.29971,"lon":5.38493,"is_reserved":false,"is_disabled":false,"rental_uris":{"android":"levelo://app?vid=aec20ecf-41c9-41a2-bd08-b31b93b7d6e0","ios":"levelo://app?vid=aec20ecf-41c9-41a2-bd08-b31b93b7d6e0"},"vehicle_type_id":"4","last_reported":1758644007,"current_range_meters":12800,"station_id":"ce4bgj92rcd13ifvqbd0","pricing_plan_id":"cebpf4jnsgd1na2vs0mg"},{"bike_id":"0e6420be-4372-4143-a3cd-06e736de68f3","system_id":"levelo_inurba_marseille","lat":43.287014,"lon":5.373776,"is_reserved":false,"is_disabled":false,"rental_uris":{"android":"levelo://app?vid=0e6420be-4372-4143-a3cd-06e736de68f3","ios":"levelo://app?vid=0e6420be-4372-4143-a3cd-06e736de68f3"},"vehicle_type_id":"4","last_reported":1758644007,"current_range_meters":12800,"station_id":"ce4bh3p2rcd13ifvqdq0","pricing_plan_id":"cebpf4jnsgd1na2vs0mg"},{"bike_id":"01e7f81a-d711-42a0-b589-d77cbb274c4a","system_id":"levelo_inurba_marseille","lat":43.28156,"lon":5.42637,"is_reserved":false,"is_disabled":false,"rental_uris":{"android":"levelo://app?vid=01e7f81a-d711-42a0-b589-d77cbb274c4a","ios":"levelo://app?vid=01e7f81a-d711-42a0-b589-d77cbb274c4a"},"vehicle_type_id":"4","last_reported":1758644007,"current_range_meters":12400,"station_id":"ce4bhnh2rcd13ifvqgug","pricing_plan_id":"cebpf4jnsgd1na2vs0mg"},{"bike_id":"67b97e29-7ecb-4018-a464-041bbd85ed0b","system_id":"levelo_inurba_marseille","lat":43.28414,"lon":5.34986,"is_reserved":false,"is_disabled":false,"rental_uris":{"android":"levelo://app?vid=67b97e29-7ecb-4018-a464-041bbd85ed0b","ios":"levelo://app?vid=67b97e29-7ecb-4018-a464-041bbd85ed0b"},"vehicle_type_id":"4","last_reported":1758644007,"current_range_meters":12800,"station_id":"ce4bhbh2rcd13ifvqepg","pricing_plan_id":"cebpf4jnsgd1na2vs0mg"},{"bike_id":"5c7a1253-70c3-4765-a76c-b9783a598243","system_id":"levelo_inurba_marseille","lat":43.32052,"lon":5.41573,"is_reserved":false,"is_disabled":false,"rental_uris":{"android":"levelo://app?vid=5c7a1253-70c3-4765-a76c-b9783a598243","ios":"levelo://app?vid=5c7a1253-70c3-4765-a76c-b9783a598243"},"vehicle_type_id":"4","last_reported":1758644007,"current_range_meters":13600,"station_id":"ce4bhq92rcd13ifvqhkg","pricing_plan_id":"cebpf4jnsgd1na2vs0mg"},{"bike_id":"31e2918c-dc06-4f8d-b458-d96af3bb8e32","system_id":"levelo_inurba_marseille","lat":43.28722,"lon":5.36068,"is_reserved":false,"is_disabled":false,"rental_uris":{"android":"levelo://app?vid=31e2918c-dc06-4f8d-b458-d96af3bb8e32","ios":"levelo://app?vid=31e2918c-dc06-4f8d-b458-d96af3bb8e32"},"vehicle_type_id":"4","last_reported":1758644007,"current_range_meters":13600,"station_id":"cki0cbj6b192h4jlfktg","pricing_plan_id":"cebpf4jnsgd1na2vs0mg"},{"bike_id":"14ec62f3-5264-4e21-9170-4f1084b30e4c","system_id":"levelo_inurba_marseille","lat":43.30094,"lon":5.39084,"is_reserved":false,"is_disabled":false,"rental_uris":{"android":"levelo://app?vid=14ec62f3-5264-4e21-9170-4f1084b30e4c","ios":"levelo://app?vid=14ec62f3-5264-4e21-9170-4f1084b30e4c"},"vehicle_type_id":"4","last_reported":1758644007,"current_range_meters":13600,"station_id":"ce4bh192rcd13ifvqdb0","pricing_plan_id":"cebpf4jnsgd1na2vs0mg"},{"bike_id":"062882c0-6810-4134-94b1-d58221c157d0","system_id":"levelo_inurba_marseille","lat":43.25338,"lon":5.42166,"is_reserved":false,"is_disabled":false,"rental_uris":{"android":"levelo://app?vid=062882c0-6810-4134-94b1-d58221c157d0","ios":"levelo://app?vid=062882c0-6810-4134-94b1-d58221c157d0"},"vehicle_type_id":"4","last_reported":1758644007,"current_range_meters":13600,"station_id":"st_d2m65c5bi1j21697t3ng","pricing_plan_id":"cebpf4jnsgd1na2vs0mg"},{"bike_id":"8105a01f-23ae-43a9-aaed-1717d3393078","system_id":"levelo_inurba_marseille","lat":43.27374,"lon":5.36253,"is_reserved":false,"is_disabled":false,"rental_uris":{"android":"levelo://app?vid=8105a01f-23ae-43a9-aaed-1717d3393078","ios":"levelo://app?vid=8105a01f-23ae-43a9-aaed-1717d3393078"},"vehicle_type_id":"4","last_reported":1758644007,"current_range_meters":13600,"station_id":"ce4bhbh2rcd13ifvqeo0","pricing_plan_id":"cebpf4jnsgd1na2vs0mg"},{"bike_id":"adcdf390-455e-4b11-a7c8-65c487a9a568","system_id":"levelo_inurba_marseille","lat":43.28011,"lon":5.41691,"is_reserved":false,"is_disabled":false,"rental_uris":{"android":"levelo://app?vid=adcdf390-455e-4b11-a7c8-65c487a9a568","ios":"levelo://app?vid=adcdf390-455e-4b11-a7c8-65c487a9a568"},"vehicle_type_id":"4","last_reported":1758644007,"current_range_meters":14000,"station_id":"ce4bho12rcd13ifvqh1g","pricing_plan_id":"cebpf4jnsgd1na2vs0mg"},{"bike_id":"7c0482c3-9253-4d1b-b4f3-be55cdb7721d","system_id":"levelo_inurba_marseille","lat":43.33757,"lon":5.37466,"is_reserved":false,"is_disabled":false,"rental_uris":{"android":"levelo://app?vid=7c0482c3-9253-4d1b-b4f3-be55cdb7721d","ios":"levelo://app?vid=7c0482c3-9253-4d1b-b4f3-be55cdb7721d"},"vehicle_type_id":"4","last_reported":1758644007,"current_range_meters":14000,"station_id":"","pricing_plan_id":"cebpf4jnsgd1na2vs0mg"},{"bike_id":"8e1f10f9-3306-49d9-b61a-5b9d6b653acb","system_id":"levelo_inurba_marseille","lat":43.27377,"lon":5.36255,"is_reserved":false,"is_disabled":false,"rental_uris":{"android":"levelo://app?vid=8e1f10f9-3306-49d9-b61a-5b9d6b653acb","ios":"levelo://app?vid=8e1f10f9-3306-49d9-b61a-5b9d6b653acb"},"vehicle_type_id":"4","last_reported":1758644007,"current_range_meters":14000,"station_id":"ce4bhbh2rcd13ifvqeo0","pricing_plan_id":"cebpf4jnsgd1na2vs0mg"},{"bike_id":"44819dd0-256b-4462-8a10-9fd1dd338f2f","system_id":"levelo_inurba_marseille","lat":43.287091,"lon":5.400066,"is_reserved":false,"is_disabled":false,"rental_uris":{"android":"levelo://app?vid=44819dd0-256b-4462-8a10-9fd1dd338f2f","ios":"levelo://app?vid=44819dd0-256b-4462-8a10-9fd1dd338f2f"},"vehicle_type_id":"4","last_reported":1758644007,"current_range_meters":14000,"station_id":"ce4bho92rcd13ifvqh3g","pricing_plan_id":"cebpf4jnsgd1na2vs0mg"},{"bike_id":"109b1194-fc7c-4db6-b2eb-6c93d4cd22fc","system_id":"levelo_inurba_marseille","lat":43.25336,"lon":5.42174,"is_reserved":false,"is_disabled":false,"rental_uris":{"android":"levelo://app?vid=109b1194-fc7c-4db6-b2eb-6c93d4cd22fc","ios":"levelo://app?vid=109b1194-fc7c-4db6-b2eb-6c93d4cd22fc"},"vehicle_type_id":"4","last_reported":1758644007,"current_range_meters":14000,"station_id":"st_d2m65c5bi1j21697t3ng","pricing_plan_id":"cebpf4jnsgd1na2vs0mg"},{"bike_id":"064744f1-b5cd-41e9-b136-ab542c48f63e","system_id":"levelo_inurba_marseille","lat":43.28277,"lon":5.35067,"is_reserved":false,"is_disabled":false,"rental_uris":{"android":"levelo://app?vid=064744f1-b5cd-41e9-b136-ab542c48f63e","ios":"levelo://app?vid=064744f1-b5cd-41e9-b136-ab542c48f63e"},"vehicle_type_id":"4","last_reported":1758644007,"current_range_meters":14000,"station_id":"ce4bhbp2rcd13ifvqerg","pricing_plan_id":"cebpf4jnsgd1na2vs0mg"},{"bike_id":"43d57fd4-047e-4ac8-97e5-ec9b96239472","system_id":"levelo_inurba_marseille","lat":43.33231,"lon":5.39821,"is_reserved":false,"is_disabled":false,"rental_uris":{"android":"levelo://app?vid=43d57fd4-047e-4ac8-97e5-ec9b96239472","ios":"levelo://app?vid=43d57fd4-047e-4ac8-97e5-ec9b96239472"},"vehicle_type_id":"4","last_reported":1758644007,"current_range_meters":14000,"station_id":"","pricing_plan_id":"cebpf4jnsgd1na2vs0mg"},{"bike_id":"ada2d619-bc66-47dc-83fb-e5083bb863b5","system_id":"levelo_inurba_marseille","lat":43.2923,"lon":5.38487,"is_reserved":false,"is_disabled":false,"rental_uris":{"android":"levelo://app?vid=ada2d619-bc66-47dc-83fb-e5083bb863b5","ios":"levelo://app?vid=ada2d619-bc66-47dc-83fb-e5083bb863b5"},"vehicle_type_id":"4","last_reported":1758644007,"current_range_meters":14000,"station_id":"","pricing_plan_id":"cebpf4jnsgd1na2vs0mg"},{"bike_id":"9c7a180f-bee6-48c2-9ad2-181dea55ce36","system_id":"levelo_inurba_marseille","lat":43.31713,"lon":5.43713,"is_reserved":false,"is_disabled":false,"rental_uris":{"android":"levelo://app?vid=9c7a180f-bee6-48c2-9ad2-181dea55ce36","ios":"levelo://app?vid=9c7a180f-bee6-48c2-9ad2-181dea55ce36"},"vehicle_type_id":"4","last_reported":1758644007,"current_range_meters":14400,"station_id":"ce4bhp92rcd13ifvqhcg","pricing_plan_id":"cebpf4jnsgd1na2vs0mg"},{"bike_id":"0a93b7fa-898f-46ce-bd76-143a1182be97","system_id":"levelo_inurba_marseille","lat":43.27421,"lon":5.39417,"is_reserved":false,"is_disabled":true,"rental_uris":{"android":"levelo://app?vid=0a93b7fa-898f-46ce-bd76-143a1182be97","ios":"levelo://app?vid=0a93b7fa-898f-46ce-bd76-143a1182be97"},"vehicle_type_id":"4","last_reported":1758644007,"current_range_meters":14400,"station_id":"ce4bhdp2rcd13ifvqf20","pricing_plan_id":"cebpf4jnsgd1na2vs0mg"},{"bike_id":"0e9ff54b-d824-4877-b014-0ae46d42608a","system_id":"levelo_inurba_marseille","lat":43.293052,"lon":5.371898,"is_reserved":false,"is_disabled":false,"rental_uris":{"android":"levelo://app?vid=0e9ff54b-d824-4877-b014-0ae46d42608a","ios":"levelo://app?vid=0e9ff54b-d824-4877-b014-0ae46d42608a"},"vehicle_type_id":"4","last_reported":1758644007,"current_range_meters":14400,"station_id":"ce4bgh92rcd13ifvqb40","pricing_plan_id":"cebpf4jnsgd1na2vs0mg"},{"bike_id":"06a24bce-028d-4b4a-b4a3-d45296145db5","system_id":"levelo_inurba_marseille","lat":43.28425,"lon":5.34991,"is_reserved":false,"is_disabled":true,"rental_uris":{"android":"levelo://app?vid=06a24bce-028d-4b4a-b4a3-d45296145db5","ios":"levelo://app?vid=06a24bce-028d-4b4a-b4a3-d45296145db5"},"vehicle_type_id":"4","last_reported":1758644007,"current_range_meters":14400,"station_id":"ce4bhch2rcd13ifvqeug","pricing_plan_id":"cebpf4jnsgd1na2vs0mg"},{"bike_id":"fb34b511-e4fe-4a8d-b9b2-b9e7d486ef0f","system_id":"levelo_inurba_marseille","lat":43.29961,"lon":5.41326,"is_reserved":false,"is_disabled":false,"rental_uris":{"android":"levelo://app?vid=fb34b511-e4fe-4a8d-b9b2-b9e7d486ef0f","ios":"levelo://app?vid=fb34b511-e4fe-4a8d-b9b2-b9e7d486ef0f"},"vehicle_type_id":"4","last_reported":1758644007,"current_range_meters":14400,"station_id":"ce4bhp12rcd13ifvqh9g","pricing_plan_id":"cebpf4jnsgd1na2vs0mg"},{"bike_id":"dd8ea2b3-2c6e-413d-bdd6-2a36bb70ebde","system_id":"levelo_inurba_marseille","lat":43.28705,"lon":5.39987,"is_reserved":false,"is_disabled":false,"rental_uris":{"android":"levelo://app?vid=dd8ea2b3-2c6e-413d-bdd6-2a36bb70ebde","ios":"levelo://app?vid=dd8ea2b3-2c6e-413d-bdd6-2a36bb70ebde"},"vehicle_type_id":"4","last_reported":1758644007,"current_range_meters":14800,"station_id":"ce4bho92rcd13ifvqh3g","pricing_plan_id":"cebpf4jnsgd1na2vs0mg"},{"bike_id":"3a4bb8c7-912e-4fc0-8d4e-6251dc9a0b04","system_id":"levelo_inurba_marseille","lat":43.28617,"lon":5.35106,"is_reserved":false,"is_disabled":false,"rental_uris":{"android":"levelo://app?vid=3a4bb8c7-912e-4fc0-8d4e-6251dc9a0b04","ios":"levelo://app?vid=3a4bb8c7-912e-4fc0-8d4e-6251dc9a0b04"},"vehicle_type_id":"4","last_reported":1758644007,"current_range_meters":15200,"station_id":"ce4bhch2rcd13ifvqeug","pricing_plan_id":"cebpf4jnsgd1na2vs0mg"},{"bike_id":"95d16914-13ba-469e-8b19-a20e083cad71","system_id":"levelo_inurba_marseille","lat":43.29599,"lon":5.37713,"is_reserved":false,"is_disabled":false,"rental_uris":{"android":"levelo://app?vid=95d16914-13ba-469e-8b19-a20e083cad71","ios":"levelo://app?vid=95d16914-13ba-469e-8b19-a20e083cad71"},"vehicle_type_id":"4","last_reported":1758644007,"current_range_meters":15200,"station_id":"ce4bgi92rcd13ifvqb90","pricing_plan_id":"cebpf4jnsgd1na2vs0mg"},{"bike_id":"3e9360bc-b1a4-42d0-814b-9de7f819e25a","system_id":"levelo_inurba_marseille","lat":43.31356,"lon":5.38493,"is_reserved":false,"is_disabled":false,"rental_uris":{"android":"levelo://app?vid=3e9360bc-b1a4-42d0-814b-9de7f819e25a","ios":"levelo://app?vid=3e9360bc-b1a4-42d0-814b-9de7f819e25a"},"vehicle_type_id":"4","last_reported":1758644007,"current_range_meters":15200,"station_id":"ce4bgt92rcd13ifvqcf0","pricing_plan_id":"cebpf4jnsgd1na2vs0mg"},{"bike_id":"aeb210d1-d893-4162-9b85-83121db737e0","system_id":"levelo_inurba_marseille","lat":43.30134,"lon":5.39867,"is_reserved":false,"is_disabled":false,"rental_uris":{"android":"levelo://app?vid=aeb210d1-d893-4162-9b85-83121db737e0","ios":"levelo://app?vid=aeb210d1-d893-4162-9b85-83121db737e0"},"vehicle_type_id":"4","last_reported":1758644007,"current_range_meters":15200,"station_id":"ce4bh0h2rcd13ifvqd40","pricing_plan_id":"cebpf4jnsgd1na2vs0mg"},{"bike_id":"f4045e0b-d9d2-4dd2-aa33-1dac9f51293b","system_id":"levelo_inurba_marseille","lat":43.2971,"lon":5.36623,"is_reserved":false,"is_disabled":false,"rental_uris":{"android":"levelo://app?vid=f4045e0b-d9d2-4dd2-aa33-1dac9f51293b","ios":"levelo://app?vid=f4045e0b-d9d2-4dd2-aa33-1dac9f51293b"},"vehicle_type_id":"4","last_reported":1758644007,"current_range_meters":15200,"station_id":"ce4bgn12rcd13ifvqbt0","pricing_plan_id":"cebpf4jnsgd1na2vs0mg"},{"bike_id":"be1b20df-4287-450b-aaa7-fe2a8aa1fa1f","system_id":"levelo_inurba_marseille","lat":43.28658,"lon":5.36358,"is_reserved":false,"is_disabled":false,"rental_uris":{"android":"levelo://app?vid=be1b20df-4287-450b-aaa7-fe2a8aa1fa1f","ios":"levelo://app?vid=be1b20df-4287-450b-aaa7-fe2a8aa1fa1f"},"vehicle_type_id":"4","last_reported":1758644007,"current_range_meters":15200,"station_id":"ce4bhah2rcd13ifvqej0","pricing_plan_id":"cebpf4jnsgd1na2vs0mg"},{"bike_id":"073247c5-8596-413a-b0ef-43e0616f0429","system_id":"levelo_inurba_marseille","lat":43.304592,"lon":5.379054,"is_reserved":false,"is_disabled":false,"rental_uris":{"android":"levelo://app?vid=073247c5-8596-413a-b0ef-43e0616f0429","ios":"levelo://app?vid=073247c5-8596-413a-b0ef-43e0616f0429"},"vehicle_type_id":"4","last_reported":1758644007,"current_range_meters":16000,"station_id":"ce4bgup2rcd13ifvqcn0","pricing_plan_id":"cebpf4jnsgd1na2vs0mg"},{"bike_id":"efc4e667-7384-497f-b00d-317141c4d100","system_id":"levelo_inurba_marseille","lat":43.29263,"lon":5.38449,"is_reserved":false,"is_disabled":false,"rental_uris":{"android":"levelo://app?vid=efc4e667-7384-497f-b00d-317141c4d100","ios":"levelo://app?vid=efc4e667-7384-497f-b00d-317141c4d100"},"vehicle_type_id":"4","last_reported":1758644007,"current_range_meters":16000,"station_id":"ce4bh692rcd13ifvqea0","pricing_plan_id":"cebpf4jnsgd1na2vs0mg"},{"bike_id":"4c0b651b-953c-4759-a0f7-0074f59a45eb","system_id":"levelo_inurba_marseille","lat":43.25791,"lon":5.39288,"is_reserved":false,"is_disabled":false,"rental_uris":{"android":"levelo://app?vid=4c0b651b-953c-4759-a0f7-0074f59a45eb","ios":"levelo://app?vid=4c0b651b-953c-4759-a0f7-0074f59a45eb"},"vehicle_type_id":"4","last_reported":1758644007,"current_range_meters":16000,"station_id":"","pricing_plan_id":"cebpf4jnsgd1na2vs0mg"},{"bike_id":"30db941d-f361-4de4-af70-c1567fdbe3c4","system_id":"levelo_inurba_marseille","lat":43.281313,"lon":5.378507,"is_reserved":false,"is_disabled":false,"rental_uris":{"android":"levelo://app?vid=30db941d-f361-4de4-af70-c1567fdbe3c4","ios":"levelo://app?vid=30db941d-f361-4de4-af70-c1567fdbe3c4"},"vehicle_type_id":"4","last_reported":1758644007,"current_range_meters":16000,"station_id":"ce4bha12rcd13ifvqee0","pricing_plan_id":"cebpf4jnsgd1na2vs0mg"},{"bike_id":"ab271253-512d-44b8-8e58-d22f59253c18","system_id":"levelo_inurba_marseille","lat":43.295318,"lon":5.385661,"is_reserved":false,"is_disabled":false,"rental_uris":{"android":"levelo://app?vid=ab271253-512d-44b8-8e58-d22f59253c18","ios":"levelo://app?vid=ab271253-512d-44b8-8e58-d22f59253c18"},"vehicle_type_id":"4","last_reported":1758644007,"current_range_meters":16000,"station_id":"ce4bgih2rcd13ifvqba0","pricing_plan_id":"cebpf4jnsgd1na2vs0mg"},{"bike_id":"e35dc3d8-0dfe-4bd4-87f7-5d3ca8bee4e5","system_id":"levelo_inurba_marseille","lat":43.25008,"lon":5.42633,"is_reserved":false,"is_disabled":false,"rental_uris":{"android":"levelo://app?vid=e35dc3d8-0dfe-4bd4-87f7-5d3ca8bee4e5","ios":"levelo://app?vid=e35dc3d8-0dfe-4bd4-87f7-5d3ca8bee4e5"},"vehicle_type_id":"4","last_reported":1758644007,"current_range_meters":16000,"station_id":"","pricing_plan_id":"cebpf4jnsgd1na2vs0mg"},{"bike_id":"dddca5ef-4a33-499b-936a-6d8e6136a417","system_id":"levelo_inurba_marseille","lat":43.22923,"lon":5.35367,"is_reserved":false,"is_disabled":false,"rental_uris":{"android":"levelo://app?vid=dddca5ef-4a33-499b-936a-6d8e6136a417","ios":"levelo://app?vid=dddca5ef-4a33-499b-936a-6d8e6136a417"},"vehicle_type_id":"4","last_reported":1758644007,"current_range_meters":16000,"station_id":"cpo3532slgdg3j2ikp40","pricing_plan_id":"cebpf4jnsgd1na2vs0mg"},{"bike_id":"547121a6-ed50-4d48-bad3-f73539aaa9d7","system_id":"levelo_inurba_marseille","lat":43.2119,"lon":5.35086,"is_reserved":false,"is_disabled":false,"rental_uris":{"android":"levelo://app?vid=547121a6-ed50-4d48-bad3-f73539aaa9d7","ios":"levelo://app?vid=547121a6-ed50-4d48-bad3-f73539aaa9d7"},"vehicle_type_id":"4","last_reported":1758644007,"current_range_meters":16000,"station_id":"st_cvj6sg6p6f1abm77japg","pricing_plan_id":"cebpf4jnsgd1na2vs0mg"},{"bike_id":"adc9b767-fa5a-487c-b17d-fb3c376c3f08","system_id":"levelo_inurba_marseille","lat":43.29773,"lon":5.37713,"is_reserved":false,"is_disabled":false,"rental_uris":{"android":"levelo://app?vid=adc9b767-fa5a-487c-b17d-fb3c376c3f08","ios":"levelo://app?vid=adc9b767-fa5a-487c-b17d-fb3c376c3f08"},"vehicle_type_id":"4","last_reported":1758644007,"current_range_meters":16400,"station_id":"","pricing_plan_id":"cebpf4jnsgd1na2vs0mg"},{"bike_id":"cbafa734-e750-490c-97a6-f5727c8d63c0","system_id":"levelo_inurba_marseille","lat":43.29803,"lon":5.38119,"is_reserved":false,"is_disabled":false,"rental_uris":{"android":"levelo://app?vid=cbafa734-e750-490c-97a6-f5727c8d63c0","ios":"levelo://app?vid=cbafa734-e750-490c-97a6-f5727c8d63c0"},"vehicle_type_id":"4","last_reported":1758644007,"current_range_meters":16400,"station_id":"ce4bgip2rcd13ifvqbb0","pricing_plan_id":"cebpf4jnsgd1na2vs0mg"},{"bike_id":"d9592429-b2c2-4927-b2d7-39e934bcf00a","system_id":"levelo_inurba_marseille","lat":43.24811,"lon":5.3746,"is_reserved":false,"is_disabled":false,"rental_uris":{"android":"levelo://app?vid=d9592429-b2c2-4927-b2d7-39e934bcf00a","ios":"levelo://app?vid=d9592429-b2c2-4927-b2d7-39e934bcf00a"},"vehicle_type_id":"4","last_reported":1758644007,"current_range_meters":16000,"station_id":"ce4bhgh2rcd13ifvqfb0","pricing_plan_id":"cebpf4jnsgd1na2vs0mg"},{"bike_id":"8ab0971d-c449-412a-bd81-96f3910d1a97","system_id":"levelo_inurba_marseille","lat":43.33018,"lon":5.39058,"is_reserved":false,"is_disabled":false,"rental_uris":{"android":"levelo://app?vid=8ab0971d-c449-412a-bd81-96f3910d1a97","ios":"levelo://app?vid=8ab0971d-c449-412a-bd81-96f3910d1a97"},"vehicle_type_id":"4","last_reported":1758644007,"current_range_meters":16400,"station_id":"ce4bhr92rcd13ifvqhrg","pricing_plan_id":"cebpf4jnsgd1na2vs0mg"},{"bike_id":"c8f3c8da-edc9-4118-a2a2-80f74b9d6e48","system_id":"levelo_inurba_marseille","lat":43.25063,"lon":5.3958,"is_reserved":false,"is_disabled":false,"rental_uris":{"android":"levelo://app?vid=c8f3c8da-edc9-4118-a2a2-80f74b9d6e48","ios":"levelo://app?vid=c8f3c8da-edc9-4118-a2a2-80f74b9d6e48"},"vehicle_type_id":"4","last_reported":1758644007,"current_range_meters":16400,"station_id":"","pricing_plan_id":"cebpf4jnsgd1na2vs0mg"},{"bike_id":"b4f2cf22-fc08-44c1-b1df-67b5ef113244","system_id":"levelo_inurba_marseille","lat":43.25344,"lon":5.42173,"is_reserved":false,"is_disabled":false,"rental_uris":{"android":"levelo://app?vid=b4f2cf22-fc08-44c1-b1df-67b5ef113244","ios":"levelo://app?vid=b4f2cf22-fc08-44c1-b1df-67b5ef113244"},"vehicle_type_id":"4","last_reported":1758644007,"current_range_meters":16400,"station_id":"st_d2m65c5bi1j21697t3ng","pricing_plan_id":"cebpf4jnsgd1na2vs0mg"},{"bike_id":"751c74b5-abdd-49a5-91db-390c5655c8a5","system_id":"levelo_inurba_marseille","lat":43.30087,"lon":5.39101,"is_reserved":false,"is_disabled":false,"rental_uris":{"android":"levelo://app?vid=751c74b5-abdd-49a5-91db-390c5655c8a5","ios":"levelo://app?vid=751c74b5-abdd-49a5-91db-390c5655c8a5"},"vehicle_type_id":"4","last_reported":1758644007,"current_range_meters":16400,"station_id":"ce4bh192rcd13ifvqdb0","pricing_plan_id":"cebpf4jnsgd1na2vs0mg"},{"bike_id":"9feb0e0f-24fa-4463-b0f3-30472830c043","system_id":"levelo_inurba_marseille","lat":43.31757,"lon":5.39002,"is_reserved":false,"is_disabled":false,"rental_uris":{"android":"levelo://app?vid=9feb0e0f-24fa-4463-b0f3-30472830c043","ios":"levelo://app?vid=9feb0e0f-24fa-4463-b0f3-30472830c043"},"vehicle_type_id":"4","last_reported":1758644007,"current_range_meters":16800,"station_id":"ce4bhqp2rcd13ifvqhng","pricing_plan_id":"cebpf4jnsgd1na2vs0mg"},{"bike_id":"a60abba9-f9b8-477b-8786-175fc2b6218b","system_id":"levelo_inurba_marseille","lat":43.30846,"lon":5.37176,"is_reserved":false,"is_disabled":false,"rental_uris":{"android":"levelo://app?vid=a60abba9-f9b8-477b-8786-175fc2b6218b","ios":"levelo://app?vid=a60abba9-f9b8-477b-8786-175fc2b6218b"},"vehicle_type_id":"4","last_reported":1758644007,"current_range_meters":16800,"station_id":"","pricing_plan_id":"cebpf4jnsgd1na2vs0mg"},{"bike_id":"02d29753-dc8c-4a72-b9bc-ef34851078f4","system_id":"levelo_inurba_marseille","lat":43.295299,"lon":5.38549,"is_reserved":false,"is_disabled":false,"rental_uris":{"android":"levelo://app?vid=02d29753-dc8c-4a72-b9bc-ef34851078f4","ios":"levelo://app?vid=02d29753-dc8c-4a72-b9bc-ef34851078f4"},"vehicle_type_id":"4","last_reported":1758644007,"current_range_meters":16800,"station_id":"ce4bgih2rcd13ifvqba0","pricing_plan_id":"cebpf4jnsgd1na2vs0mg"},{"bike_id":"ae140a32-5f79-427f-90a7-d410e17b7823","system_id":"levelo_inurba_marseille","lat":43.266847,"lon":5.382804,"is_reserved":false,"is_disabled":true,"rental_uris":{"android":"levelo://app?vid=ae140a32-5f79-427f-90a7-d410e17b7823","ios":"levelo://app?vid=ae140a32-5f79-427f-90a7-d410e17b7823"},"vehicle_type_id":"4","last_reported":1758644007,"current_range_meters":16800,"station_id":"ce4bhg92rcd13ifvqf90","pricing_plan_id":"cebpf4jnsgd1na2vs0mg"},{"bike_id":"6e16c2b2-d40d-46e0-b682-1444156e1048","system_id":"levelo_inurba_marseille","lat":43.2842,"lon":5.34978,"is_reserved":false,"is_disabled":false,"rental_uris":{"android":"levelo://app?vid=6e16c2b2-d40d-46e0-b682-1444156e1048","ios":"levelo://app?vid=6e16c2b2-d40d-46e0-b682-1444156e1048"},"vehicle_type_id":"4","last_reported":1758644007,"current_range_meters":16800,"station_id":"ce4bhbh2rcd13ifvqepg","pricing_plan_id":"cebpf4jnsgd1na2vs0mg"},{"bike_id":"93f8abc5-7bf2-42ae-a85e-b4a1a5de88d5","system_id":"levelo_inurba_marseille","lat":43.337444,"lon":5.374475,"is_reserved":false,"is_disabled":false,"rental_uris":{"android":"levelo://app?vid=93f8abc5-7bf2-42ae-a85e-b4a1a5de88d5","ios":"levelo://app?vid=93f8abc5-7bf2-42ae-a85e-b4a1a5de88d5"},"vehicle_type_id":"4","last_reported":1758644007,"current_range_meters":16800,"station_id":"","pricing_plan_id":"cebpf4jnsgd1na2vs0mg"},{"bike_id":"878212e1-9f3a-4147-b86c-65eaf928a45d","system_id":"levelo_inurba_marseille","lat":43.2175,"lon":5.34599,"is_reserved":false,"is_disabled":false,"rental_uris":{"android":"levelo://app?vid=878212e1-9f3a-4147-b86c-65eaf928a45d","ios":"levelo://app?vid=878212e1-9f3a-4147-b86c-65eaf928a45d"},"vehicle_type_id":"4","last_reported":1758644007,"current_range_meters":16800,"station_id":"","pricing_plan_id":"cebpf4jnsgd1na2vs0mg"},{"bike_id":"a851cae0-b395-441e-9dd1-21300baf3396","system_id":"levelo_inurba_marseille","lat":43.31502,"lon":5.38703,"is_reserved":false,"is_disabled":false,"rental_uris":{"android":"levelo://app?vid=a851cae0-b395-441e-9dd1-21300baf3396","ios":"levelo://app?vid=a851cae0-b395-441e-9dd1-21300baf3396"},"vehicle_type_id":"4","last_reported":1758644007,"current_range_meters":16800,"station_id":"","pricing_plan_id":"cebpf4jnsgd1na2vs0mg"},{"bike_id":"997780d2-a53d-4d9f-a340-da2dd38b5f94","system_id":"levelo_inurba_marseille","lat":43.23184,"lon":5.39986,"is_reserved":false,"is_disabled":false,"rental_uris":{"android":"levelo://app?vid=997780d2-a53d-4d9f-a340-da2dd38b5f94","ios":"levelo://app?vid=997780d2-a53d-4d9f-a340-da2dd38b5f94"},"vehicle_type_id":"4","last_reported":1758644007,"current_range_meters":16800,"station_id":"ce4bhn12rcd13ifvqgqg","pricing_plan_id":"cebpf4jnsgd1na2vs0mg"},{"bike_id":"7ee54a5a-c571-463d-baff-80a1a8ed87ce","system_id":"levelo_inurba_marseille","lat":43.25339,"lon":5.42176,"is_reserved":false,"is_disabled":false,"rental_uris":{"android":"levelo://app?vid=7ee54a5a-c571-463d-baff-80a1a8ed87ce","ios":"levelo://app?vid=7ee54a5a-c571-463d-baff-80a1a8ed87ce"},"vehicle_type_id":"4","last_reported":1758644007,"current_range_meters":16800,"station_id":"st_d2m65c5bi1j21697t3ng","pricing_plan_id":"cebpf4jnsgd1na2vs0mg"},{"bike_id":"ac1631d3-aa1c-46f3-bd84-b200b080d0c6","system_id":"levelo_inurba_marseille","lat":43.28619,"lon":5.35109,"is_reserved":false,"is_disabled":false,"rental_uris":{"android":"levelo://app?vid=ac1631d3-aa1c-46f3-bd84-b200b080d0c6","ios":"levelo://app?vid=ac1631d3-aa1c-46f3-bd84-b200b080d0c6"},"vehicle_type_id":"4","last_reported":1758644007,"current_range_meters":17200,"station_id":"ce4bhch2rcd13ifvqeug","pricing_plan_id":"cebpf4jnsgd1na2vs0mg"},{"bike_id":"cbc901c2-251b-4e68-88f1-2afcf000fdc4","system_id":"levelo_inurba_marseille","lat":43.26205,"lon":5.37927,"is_reserved":false,"is_disabled":false,"rental_uris":{"android":"levelo://app?vid=cbc901c2-251b-4e68-88f1-2afcf000fdc4","ios":"levelo://app?vid=cbc901c2-251b-4e68-88f1-2afcf000fdc4"},"vehicle_type_id":"4","last_reported":1758644007,"current_range_meters":17200,"station_id":"ce4bhjp2rcd13ifvqg90","pricing_plan_id":"cebpf4jnsgd1na2vs0mg"},{"bike_id":"94948d9f-994b-4dbf-adda-75e204eca2e6","system_id":"levelo_inurba_marseille","lat":43.24805,"lon":5.37454,"is_reserved":false,"is_disabled":false,"rental_uris":{"android":"levelo://app?vid=94948d9f-994b-4dbf-adda-75e204eca2e6","ios":"levelo://app?vid=94948d9f-994b-4dbf-adda-75e204eca2e6"},"vehicle_type_id":"4","last_reported":1758644007,"current_range_meters":17200,"station_id":"ce4bhgh2rcd13ifvqfb0","pricing_plan_id":"cebpf4jnsgd1na2vs0mg"},{"bike_id":"401439dc-cac5-4165-a137-85be071a6a53","system_id":"levelo_inurba_marseille","lat":43.31263,"lon":5.40171,"is_reserved":false,"is_disabled":false,"rental_uris":{"android":"levelo://app?vid=401439dc-cac5-4165-a137-85be071a6a53","ios":"levelo://app?vid=401439dc-cac5-4165-a137-85be071a6a53"},"vehicle_type_id":"4","last_reported":1758644007,"current_range_meters":17200,"station_id":"ce4bh092rcd13ifvqd30","pricing_plan_id":"cebpf4jnsgd1na2vs0mg"},{"bike_id":"b5097eea-9912-4be2-9cf9-14c224c5fab6","system_id":"levelo_inurba_marseille","lat":43.23205,"lon":5.35554,"is_reserved":false,"is_disabled":false,"rental_uris":{"android":"levelo://app?vid=b5097eea-9912-4be2-9cf9-14c224c5fab6","ios":"levelo://app?vid=b5097eea-9912-4be2-9cf9-14c224c5fab6"},"vehicle_type_id":"4","last_reported":1758644007,"current_range_meters":17200,"station_id":"ce4bhu92rcd13ifvqi70","pricing_plan_id":"cebpf4jnsgd1na2vs0mg"},{"bike_id":"36d9ac7e-672f-4b32-baac-3848c2e62fe7","system_id":"levelo_inurba_marseille","lat":43.25105,"lon":5.40307,"is_reserved":false,"is_disabled":false,"rental_uris":{"android":"levelo://app?vid=36d9ac7e-672f-4b32-baac-3848c2e62fe7","ios":"levelo://app?vid=36d9ac7e-672f-4b32-baac-3848c2e62fe7"},"vehicle_type_id":"4","last_reported":1758644007,"current_range_meters":17200,"station_id":"ce4bhlh2rcd13ifvqgig","pricing_plan_id":"cebpf4jnsgd1na2vs0mg"},{"bike_id":"3e49cb77-34e7-4569-97ab-7b77819249ee","system_id":"levelo_inurba_marseille","lat":43.279534,"lon":5.387017,"is_reserved":false,"is_disabled":false,"rental_uris":{"android":"levelo://app?vid=3e49cb77-34e7-4569-97ab-7b77819249ee","ios":"levelo://app?vid=3e49cb77-34e7-4569-97ab-7b77819249ee"},"vehicle_type_id":"4","last_reported":1758644007,"current_range_meters":17200,"station_id":"ce4bhjp2rcd13ifvqga0","pricing_plan_id":"cebpf4jnsgd1na2vs0mg"},{"bike_id":"c7f6a08b-c655-4213-b2ba-7d02e7f382fe","system_id":"levelo_inurba_marseille","lat":43.28139,"lon":5.39257,"is_reserved":false,"is_disabled":false,"rental_uris":{"android":"levelo://app?vid=c7f6a08b-c655-4213-b2ba-7d02e7f382fe","ios":"levelo://app?vid=c7f6a08b-c655-4213-b2ba-7d02e7f382fe"},"vehicle_type_id":"4","last_reported":1758644007,"current_range_meters":17200,"station_id":"","pricing_plan_id":"cebpf4jnsgd1na2vs0mg"},{"bike_id":"e65f73d7-da5a-4016-9db2-a209ce44d327","system_id":"levelo_inurba_marseille","lat":43.2862,"lon":5.35105,"is_reserved":false,"is_disabled":false,"rental_uris":{"android":"levelo://app?vid=e65f73d7-da5a-4016-9db2-a209ce44d327","ios":"levelo://app?vid=e65f73d7-da5a-4016-9db2-a209ce44d327"},"vehicle_type_id":"4","last_reported":1758644007,"current_range_meters":17200,"station_id":"ce4bhch2rcd13ifvqeug","pricing_plan_id":"cebpf4jnsgd1na2vs0mg"},{"bike_id":"7ce9420d-3ff5-496e-b60a-daa54b0823b2","system_id":"levelo_inurba_marseille","lat":43.3211,"lon":5.36777,"is_reserved":false,"is_disabled":false,"rental_uris":{"android":"levelo://app?vid=7ce9420d-3ff5-496e-b60a-daa54b0823b2","ios":"levelo://app?vid=7ce9420d-3ff5-496e-b60a-daa54b0823b2"},"vehicle_type_id":"4","last_reported":1758644007,"current_range_meters":17600,"station_id":"ce4bhrh2rcd13ifvqhug","pricing_plan_id":"cebpf4jnsgd1na2vs0mg"},{"bike_id":"939caf77-e07e-4575-9b4e-9024bf1bf5db","system_id":"levelo_inurba_marseille","lat":43.29171,"lon":5.37156,"is_reserved":false,"is_disabled":false,"rental_uris":{"android":"levelo://app?vid=939caf77-e07e-4575-9b4e-9024bf1bf5db","ios":"levelo://app?vid=939caf77-e07e-4575-9b4e-9024bf1bf5db"},"vehicle_type_id":"4","last_reported":1758644007,"current_range_meters":17600,"station_id":"ce4bha92rcd13ifvqeh0","pricing_plan_id":"cebpf4jnsgd1na2vs0mg"},{"bike_id":"db83d6f1-5f01-4597-8b39-1d19fa5fc09c","system_id":"levelo_inurba_marseille","lat":43.28417,"lon":5.34981,"is_reserved":false,"is_disabled":false,"rental_uris":{"android":"levelo://app?vid=db83d6f1-5f01-4597-8b39-1d19fa5fc09c","ios":"levelo://app?vid=db83d6f1-5f01-4597-8b39-1d19fa5fc09c"},"vehicle_type_id":"4","last_reported":1758644007,"current_range_meters":17600,"station_id":"ce4bhbh2rcd13ifvqepg","pricing_plan_id":"cebpf4jnsgd1na2vs0mg"},{"bike_id":"6ffa68ca-bec1-4c02-b51f-273509bf785b","system_id":"levelo_inurba_marseille","lat":43.29939,"lon":5.36535,"is_reserved":false,"is_disabled":false,"rental_uris":{"android":"levelo://app?vid=6ffa68ca-bec1-4c02-b51f-273509bf785b","ios":"levelo://app?vid=6ffa68ca-bec1-4c02-b51f-273509bf785b"},"vehicle_type_id":"4","last_reported":1758644007,"current_range_meters":17600,"station_id":"ce4bgm92rcd13ifvqbr0","pricing_plan_id":"cebpf4jnsgd1na2vs0mg"},{"bike_id":"df60cb58-381d-46bc-ac5a-01fefe2744ac","system_id":"levelo_inurba_marseille","lat":43.27999,"lon":5.41669,"is_reserved":false,"is_disabled":false,"rental_uris":{"android":"levelo://app?vid=df60cb58-381d-46bc-ac5a-01fefe2744ac","ios":"levelo://app?vid=df60cb58-381d-46bc-ac5a-01fefe2744ac"},"vehicle_type_id":"4","last_reported":1758644007,"current_range_meters":17600,"station_id":"ce4bho12rcd13ifvqh1g","pricing_plan_id":"cebpf4jnsgd1na2vs0mg"},{"bike_id":"d68b9cdd-055c-48e6-b5c7-c6c683b923e5","system_id":"levelo_inurba_marseille","lat":43.28604,"lon":5.35098,"is_reserved":false,"is_disabled":true,"rental_uris":{"android":"levelo://app?vid=d68b9cdd-055c-48e6-b5c7-c6c683b923e5","ios":"levelo://app?vid=d68b9cdd-055c-48e6-b5c7-c6c683b923e5"},"vehicle_type_id":"4","last_reported":1758644007,"current_range_meters":17600,"station_id":"ce4bhch2rcd13ifvqeug","pricing_plan_id":"cebpf4jnsgd1na2vs0mg"},{"bike_id":"a94b82c5-1972-4dea-9cec-f9c79e6570d9","system_id":"levelo_inurba_marseille","lat":43.26574,"lon":5.39003,"is_reserved":false,"is_disabled":false,"rental_uris":{"android":"levelo://app?vid=a94b82c5-1972-4dea-9cec-f9c79e6570d9","ios":"levelo://app?vid=a94b82c5-1972-4dea-9cec-f9c79e6570d9"},"vehicle_type_id":"4","last_reported":1758644007,"current_range_meters":17600,"station_id":"ce4bhe12rcd13ifvqf30","pricing_plan_id":"cebpf4jnsgd1na2vs0mg"},{"bike_id":"ec93ac24-f00c-42a2-b178-6f2b42f93cec","system_id":"levelo_inurba_marseille","lat":43.29711,"lon":5.36611,"is_reserved":false,"is_disabled":false,"rental_uris":{"android":"levelo://app?vid=ec93ac24-f00c-42a2-b178-6f2b42f93cec","ios":"levelo://app?vid=ec93ac24-f00c-42a2-b178-6f2b42f93cec"},"vehicle_type_id":"4","last_reported":1758644007,"current_range_meters":17600,"station_id":"ce4bgn12rcd13ifvqbt0","pricing_plan_id":"cebpf4jnsgd1na2vs0mg"},{"bike_id":"458a2d37-7181-44f8-b08d-82515864a48d","system_id":"levelo_inurba_marseille","lat":43.28729,"lon":5.36084,"is_reserved":false,"is_disabled":false,"rental_uris":{"android":"levelo://app?vid=458a2d37-7181-44f8-b08d-82515864a48d","ios":"levelo://app?vid=458a2d37-7181-44f8-b08d-82515864a48d"},"vehicle_type_id":"4","last_reported":1758644007,"current_range_meters":17600,"station_id":"cki0cbj6b192h4jlfktg","pricing_plan_id":"cebpf4jnsgd1na2vs0mg"},{"bike_id":"f216bb74-9168-4f05-99df-843dddda3be3","system_id":"levelo_inurba_marseille","lat":43.282656,"lon":5.350657,"is_reserved":false,"is_disabled":false,"rental_uris":{"android":"levelo://app?vid=f216bb74-9168-4f05-99df-843dddda3be3","ios":"levelo://app?vid=f216bb74-9168-4f05-99df-843dddda3be3"},"vehicle_type_id":"4","last_reported":1758644007,"current_range_meters":18000,"station_id":"ce4bhbp2rcd13ifvqerg","pricing_plan_id":"cebpf4jnsgd1na2vs0mg"},{"bike_id":"ef00c611-56e3-4d87-83a8-6fad9627913a","system_id":"levelo_inurba_marseille","lat":43.308894,"lon":5.371943,"is_reserved":false,"is_disabled":false,"rental_uris":{"android":"levelo://app?vid=ef00c611-56e3-4d87-83a8-6fad9627913a","ios":"levelo://app?vid=ef00c611-56e3-4d87-83a8-6fad9627913a"},"vehicle_type_id":"4","last_reported":1758644007,"current_range_meters":18000,"station_id":"ce4bguh2rcd13ifvqckg","pricing_plan_id":"cebpf4jnsgd1na2vs0mg"},{"bike_id":"4d1696d1-fee5-4cbb-b6cf-473bb9852d90","system_id":"levelo_inurba_marseille","lat":43.29757,"lon":5.37694,"is_reserved":false,"is_disabled":false,"rental_uris":{"android":"levelo://app?vid=4d1696d1-fee5-4cbb-b6cf-473bb9852d90","ios":"levelo://app?vid=4d1696d1-fee5-4cbb-b6cf-473bb9852d90"},"vehicle_type_id":"4","last_reported":1758644007,"current_range_meters":18000,"station_id":"","pricing_plan_id":"cebpf4jnsgd1na2vs0mg"},{"bike_id":"0ee7c44f-23ce-458a-9e87-469204bb5d2d","system_id":"levelo_inurba_marseille","lat":43.29991,"lon":5.40109,"is_reserved":false,"is_disabled":false,"rental_uris":{"android":"levelo://app?vid=0ee7c44f-23ce-458a-9e87-469204bb5d2d","ios":"levelo://app?vid=0ee7c44f-23ce-458a-9e87-469204bb5d2d"},"vehicle_type_id":"4","last_reported":1758644007,"current_range_meters":18000,"station_id":"","pricing_plan_id":"cebpf4jnsgd1na2vs0mg"},{"bike_id":"d4d04057-4d5c-454a-8c55-9aa6a62b05ff","system_id":"levelo_inurba_marseille","lat":43.27999,"lon":5.41668,"is_reserved":false,"is_disabled":false,"rental_uris":{"android":"levelo://app?vid=d4d04057-4d5c-454a-8c55-9aa6a62b05ff","ios":"levelo://app?vid=d4d04057-4d5c-454a-8c55-9aa6a62b05ff"},"vehicle_type_id":"4","last_reported":1758644007,"current_range_meters":18000,"station_id":"ce4bho12rcd13ifvqh1g","pricing_plan_id":"cebpf4jnsgd1na2vs0mg"},{"bike_id":"8a17f23a-9d0e-4b44-8716-1ee4559f7eef","system_id":"levelo_inurba_marseille","lat":43.281159,"lon":5.391583,"is_reserved":false,"is_disabled":false,"rental_uris":{"android":"levelo://app?vid=8a17f23a-9d0e-4b44-8716-1ee4559f7eef","ios":"levelo://app?vid=8a17f23a-9d0e-4b44-8716-1ee4559f7eef"},"vehicle_type_id":"4","last_reported":1758644007,"current_range_meters":18000,"station_id":"ce4bhn92rcd13ifvqgsg","pricing_plan_id":"cebpf4jnsgd1na2vs0mg"},{"bike_id":"4a9a978a-712d-4a16-907b-c03240f6abbd","system_id":"levelo_inurba_marseille","lat":43.23053,"lon":5.35505,"is_reserved":false,"is_disabled":false,"rental_uris":{"android":"levelo://app?vid=4a9a978a-712d-4a16-907b-c03240f6abbd","ios":"levelo://app?vid=4a9a978a-712d-4a16-907b-c03240f6abbd"},"vehicle_type_id":"4","last_reported":1758644007,"current_range_meters":18000,"station_id":"cpo3342slgdg3j2ifvpg","pricing_plan_id":"cebpf4jnsgd1na2vs0mg"},{"bike_id":"b617b363-61a9-4474-99ff-1065008b5bc0","system_id":"levelo_inurba_marseille","lat":43.29872,"lon":5.39737,"is_reserved":false,"is_disabled":false,"rental_uris":{"android":"levelo://app?vid=b617b363-61a9-4474-99ff-1065008b5bc0","ios":"levelo://app?vid=b617b363-61a9-4474-99ff-1065008b5bc0"},"vehicle_type_id":"4","last_reported":1758644007,"current_range_meters":18000,"station_id":"ce4bh0h2rcd13ifvqd50","pricing_plan_id":"cebpf4jnsgd1na2vs0mg"},{"bike_id":"f46b9806-b0c0-4e5e-9703-6682f4eeb8ed","system_id":"levelo_inurba_marseille","lat":43.260634,"lon":5.394014,"is_reserved":false,"is_disabled":false,"rental_uris":{"android":"levelo://app?vid=f46b9806-b0c0-4e5e-9703-6682f4eeb8ed","ios":"levelo://app?vid=f46b9806-b0c0-4e5e-9703-6682f4eeb8ed"},"vehicle_type_id":"4","last_reported":1758644007,"current_range_meters":18000,"station_id":"ce4bhh92rcd13ifvqfj0","pricing_plan_id":"cebpf4jnsgd1na2vs0mg"},{"bike_id":"87e7fafc-9407-45b7-b596-8ec00e9e157b","system_id":"levelo_inurba_marseille","lat":43.27373,"lon":5.3626,"is_reserved":false,"is_disabled":false,"rental_uris":{"android":"levelo://app?vid=87e7fafc-9407-45b7-b596-8ec00e9e157b","ios":"levelo://app?vid=87e7fafc-9407-45b7-b596-8ec00e9e157b"},"vehicle_type_id":"4","last_reported":1758644007,"current_range_meters":18000,"station_id":"ce4bhbh2rcd13ifvqeo0","pricing_plan_id":"cebpf4jnsgd1na2vs0mg"},{"bike_id":"a09d29c1-21c7-4d0d-a327-1acad4670edd","system_id":"levelo_inurba_marseille","lat":43.258241,"lon":5.39439,"is_reserved":false,"is_disabled":false,"rental_uris":{"android":"levelo://app?vid=a09d29c1-21c7-4d0d-a327-1acad4670edd","ios":"levelo://app?vid=a09d29c1-21c7-4d0d-a327-1acad4670edd"},"vehicle_type_id":"4","last_reported":1758644007,"current_range_meters":18000,"station_id":"ce4bhip2rcd13ifvqft0","pricing_plan_id":"cebpf4jnsgd1na2vs0mg"},{"bike_id":"36b070bb-df09-4433-b99c-aab79ada22d5","system_id":"levelo_inurba_marseille","lat":43.29287,"lon":5.3744,"is_reserved":false,"is_disabled":false,"rental_uris":{"android":"levelo://app?vid=36b070bb-df09-4433-b99c-aab79ada22d5","ios":"levelo://app?vid=36b070bb-df09-4433-b99c-aab79ada22d5"},"vehicle_type_id":"4","last_reported":1758644007,"current_range_meters":18000,"station_id":"","pricing_plan_id":"cebpf4jnsgd1na2vs0mg"},{"bike_id":"f5725c8a-95e5-4ac3-b0bc-dc70a295a398","system_id":"levelo_inurba_marseille","lat":43.32108,"lon":5.36762,"is_reserved":false,"is_disabled":false,"rental_uris":{"android":"levelo://app?vid=f5725c8a-95e5-4ac3-b0bc-dc70a295a398","ios":"levelo://app?vid=f5725c8a-95e5-4ac3-b0bc-dc70a295a398"},"vehicle_type_id":"4","last_reported":1758644007,"current_range_meters":18000,"station_id":"ce4bhrh2rcd13ifvqhug","pricing_plan_id":"cebpf4jnsgd1na2vs0mg"},{"bike_id":"f8c06f7d-03bd-4462-954a-b00f606bc63d","system_id":"levelo_inurba_marseille","lat":43.25344,"lon":5.42178,"is_reserved":false,"is_disabled":false,"rental_uris":{"android":"levelo://app?vid=f8c06f7d-03bd-4462-954a-b00f606bc63d","ios":"levelo://app?vid=f8c06f7d-03bd-4462-954a-b00f606bc63d"},"vehicle_type_id":"4","last_reported":1758644007,"current_range_meters":18800,"station_id":"st_d2m65c5bi1j21697t3ng","pricing_plan_id":"cebpf4jnsgd1na2vs0mg"},{"bike_id":"29c5fb85-be05-41c2-9c7c-0cbc08e4857a","system_id":"levelo_inurba_marseille","lat":43.323615,"lon":5.367422,"is_reserved":false,"is_disabled":false,"rental_uris":{"android":"levelo://app?vid=29c5fb85-be05-41c2-9c7c-0cbc08e4857a","ios":"levelo://app?vid=29c5fb85-be05-41c2-9c7c-0cbc08e4857a"},"vehicle_type_id":"4","last_reported":1758644007,"current_range_meters":18800,"station_id":"ce4bhsh2rcd13ifvqi2g","pricing_plan_id":"cebpf4jnsgd1na2vs0mg"},{"bike_id":"e2017298-7010-4fcc-9644-9ccfb0f46125","system_id":"levelo_inurba_marseille","lat":43.30101,"lon":5.41531,"is_reserved":false,"is_disabled":false,"rental_uris":{"android":"levelo://app?vid=e2017298-7010-4fcc-9644-9ccfb0f46125","ios":"levelo://app?vid=e2017298-7010-4fcc-9644-9ccfb0f46125"},"vehicle_type_id":"4","last_reported":1758644007,"current_range_meters":18800,"station_id":"","pricing_plan_id":"cebpf4jnsgd1na2vs0mg"},{"bike_id":"8c0227e3-55e8-4994-aa0c-9b6ee99b7e26","system_id":"levelo_inurba_marseille","lat":43.23049,"lon":5.35497,"is_reserved":false,"is_disabled":false,"rental_uris":{"android":"levelo://app?vid=8c0227e3-55e8-4994-aa0c-9b6ee99b7e26","ios":"levelo://app?vid=8c0227e3-55e8-4994-aa0c-9b6ee99b7e26"},"vehicle_type_id":"4","last_reported":1758644007,"current_range_meters":19200,"station_id":"cpo3342slgdg3j2ifvpg","pricing_plan_id":"cebpf4jnsgd1na2vs0mg"},{"bike_id":"57b14c92-2a17-45b3-beb1-cbb460ef441b","system_id":"levelo_inurba_marseille","lat":43.2319,"lon":5.39987,"is_reserved":false,"is_disabled":false,"rental_uris":{"android":"levelo://app?vid=57b14c92-2a17-45b3-beb1-cbb460ef441b","ios":"levelo://app?vid=57b14c92-2a17-45b3-beb1-cbb460ef441b"},"vehicle_type_id":"4","last_reported":1758644007,"current_range_meters":19200,"station_id":"ce4bhn12rcd13ifvqgqg","pricing_plan_id":"cebpf4jnsgd1na2vs0mg"},{"bike_id":"c8420257-6e75-47b5-bcee-edf1d48f2af8","system_id":"levelo_inurba_marseille","lat":43.297943,"lon":5.381076,"is_reserved":false,"is_disabled":false,"rental_uris":{"android":"levelo://app?vid=c8420257-6e75-47b5-bcee-edf1d48f2af8","ios":"levelo://app?vid=c8420257-6e75-47b5-bcee-edf1d48f2af8"},"vehicle_type_id":"4","last_reported":1758644007,"current_range_meters":19200,"station_id":"ce4bgip2rcd13ifvqbb0","pricing_plan_id":"cebpf4jnsgd1na2vs0mg"},{"bike_id":"513c06b6-803a-46ef-91ff-f5be4a865385","system_id":"levelo_inurba_marseille","lat":43.28447,"lon":5.38465,"is_reserved":false,"is_disabled":false,"rental_uris":{"android":"levelo://app?vid=513c06b6-803a-46ef-91ff-f5be4a865385","ios":"levelo://app?vid=513c06b6-803a-46ef-91ff-f5be4a865385"},"vehicle_type_id":"4","last_reported":1758644007,"current_range_meters":19200,"station_id":"ce4bh512rcd13ifvqe3g","pricing_plan_id":"cebpf4jnsgd1na2vs0mg"},{"bike_id":"574fbd75-2e98-423b-b672-ce8c03a83b5c","system_id":"levelo_inurba_marseille","lat":43.28496,"lon":5.37877,"is_reserved":false,"is_disabled":false,"rental_uris":{"android":"levelo://app?vid=574fbd75-2e98-423b-b672-ce8c03a83b5c","ios":"levelo://app?vid=574fbd75-2e98-423b-b672-ce8c03a83b5c"},"vehicle_type_id":"4","last_reported":1758644007,"current_range_meters":19200,"station_id":"","pricing_plan_id":"cebpf4jnsgd1na2vs0mg"},{"bike_id":"79e4e131-a021-4c2d-86ea-e4feeaa3a460","system_id":"levelo_inurba_marseille","lat":43.21737,"lon":5.34629,"is_reserved":false,"is_disabled":false,"rental_uris":{"android":"levelo://app?vid=79e4e131-a021-4c2d-86ea-e4feeaa3a460","ios":"levelo://app?vid=79e4e131-a021-4c2d-86ea-e4feeaa3a460"},"vehicle_type_id":"4","last_reported":1758644007,"current_range_meters":19200,"station_id":"st_cvj6r9ubvosntc0bgbag","pricing_plan_id":"cebpf4jnsgd1na2vs0mg"},{"bike_id":"a40cd6b6-c1b1-46dc-9ea9-da40c1111ce2","system_id":"levelo_inurba_marseille","lat":43.29865,"lon":5.39737,"is_reserved":false,"is_disabled":false,"rental_uris":{"android":"levelo://app?vid=a40cd6b6-c1b1-46dc-9ea9-da40c1111ce2","ios":"levelo://app?vid=a40cd6b6-c1b1-46dc-9ea9-da40c1111ce2"},"vehicle_type_id":"4","last_reported":1758644007,"current_range_meters":19200,"station_id":"ce4bh0h2rcd13ifvqd50","pricing_plan_id":"cebpf4jnsgd1na2vs0mg"},{"bike_id":"e19472f1-87e0-4943-97f3-e785d2a10054","system_id":"levelo_inurba_marseille","lat":43.2887,"lon":5.42607,"is_reserved":false,"is_disabled":false,"rental_uris":{"android":"levelo://app?vid=e19472f1-87e0-4943-97f3-e785d2a10054","ios":"levelo://app?vid=e19472f1-87e0-4943-97f3-e785d2a10054"},"vehicle_type_id":"4","last_reported":1758644007,"current_range_meters":19200,"station_id":"","pricing_plan_id":"cebpf4jnsgd1na2vs0mg"},{"bike_id":"61851431-6f03-4717-bd4f-25d9bfaa3fb3","system_id":"levelo_inurba_marseille","lat":43.2957,"lon":5.37531,"is_reserved":false,"is_disabled":false,"rental_uris":{"android":"levelo://app?vid=61851431-6f03-4717-bd4f-25d9bfaa3fb3","ios":"levelo://app?vid=61851431-6f03-4717-bd4f-25d9bfaa3fb3"},"vehicle_type_id":"4","last_reported":1758644007,"current_range_meters":19600,"station_id":"ce4bgh92rcd13ifvqb50","pricing_plan_id":"cebpf4jnsgd1na2vs0mg"},{"bike_id":"7c128555-23df-4cc9-a2ef-6f4cd89c4b84","system_id":"levelo_inurba_marseille","lat":43.32365,"lon":5.38895,"is_reserved":false,"is_disabled":false,"rental_uris":{"android":"levelo://app?vid=7c128555-23df-4cc9-a2ef-6f4cd89c4b84","ios":"levelo://app?vid=7c128555-23df-4cc9-a2ef-6f4cd89c4b84"},"vehicle_type_id":"4","last_reported":1758644007,"current_range_meters":19600,"station_id":"ce4bhqp2rcd13ifvqhog","pricing_plan_id":"cebpf4jnsgd1na2vs0mg"},{"bike_id":"d448b74b-b8f7-4053-955b-1df9c58f6926","system_id":"levelo_inurba_marseille","lat":43.27852,"lon":5.38536,"is_reserved":false,"is_disabled":false,"rental_uris":{"android":"levelo://app?vid=d448b74b-b8f7-4053-955b-1df9c58f6926","ios":"levelo://app?vid=d448b74b-b8f7-4053-955b-1df9c58f6926"},"vehicle_type_id":"4","last_reported":1758644007,"current_range_meters":19600,"station_id":"","pricing_plan_id":"cebpf4jnsgd1na2vs0mg"},{"bike_id":"71f52369-ce2e-49b6-bc6b-30fc1debd316","system_id":"levelo_inurba_marseille","lat":43.24389,"lon":5.37061,"is_reserved":false,"is_disabled":false,"rental_uris":{"android":"levelo://app?vid=71f52369-ce2e-49b6-bc6b-30fc1debd316","ios":"levelo://app?vid=71f52369-ce2e-49b6-bc6b-30fc1debd316"},"vehicle_type_id":"4","last_reported":1758644007,"current_range_meters":19200,"station_id":"ce4bhhh2rcd13ifvqfk0","pricing_plan_id":"cebpf4jnsgd1na2vs0mg"},{"bike_id":"3cb1dae7-6bcd-41e5-b1b7-c1d25c751a99","system_id":"levelo_inurba_marseille","lat":43.337594,"lon":5.374419,"is_reserved":false,"is_disabled":false,"rental_uris":{"android":"levelo://app?vid=3cb1dae7-6bcd-41e5-b1b7-c1d25c751a99","ios":"levelo://app?vid=3cb1dae7-6bcd-41e5-b1b7-c1d25c751a99"},"vehicle_type_id":"4","last_reported":1758644007,"current_range_meters":19600,"station_id":"","pricing_plan_id":"cebpf4jnsgd1na2vs0mg"},{"bike_id":"bfc37411-c964-42c7-85a1-9a219697bc92","system_id":"levelo_inurba_marseille","lat":43.29529,"lon":5.38539,"is_reserved":false,"is_disabled":false,"rental_uris":{"android":"levelo://app?vid=bfc37411-c964-42c7-85a1-9a219697bc92","ios":"levelo://app?vid=bfc37411-c964-42c7-85a1-9a219697bc92"},"vehicle_type_id":"4","last_reported":1758644007,"current_range_meters":19600,"station_id":"ce4bgih2rcd13ifvqba0","pricing_plan_id":"cebpf4jnsgd1na2vs0mg"},{"bike_id":"92085d91-3c17-49c3-8fcd-43f1ab4d0615","system_id":"levelo_inurba_marseille","lat":43.22934,"lon":5.35351,"is_reserved":false,"is_disabled":false,"rental_uris":{"android":"levelo://app?vid=92085d91-3c17-49c3-8fcd-43f1ab4d0615","ios":"levelo://app?vid=92085d91-3c17-49c3-8fcd-43f1ab4d0615"},"vehicle_type_id":"4","last_reported":1758644007,"current_range_meters":19600,"station_id":"cpo3532slgdg3j2ikp40","pricing_plan_id":"cebpf4jnsgd1na2vs0mg"},{"bike_id":"178af37d-dd54-4cf7-b80a-b996e0f2a163","system_id":"levelo_inurba_marseille","lat":43.21192,"lon":5.35083,"is_reserved":false,"is_disabled":false,"rental_uris":{"android":"levelo://app?vid=178af37d-dd54-4cf7-b80a-b996e0f2a163","ios":"levelo://app?vid=178af37d-dd54-4cf7-b80a-b996e0f2a163"},"vehicle_type_id":"4","last_reported":1758644007,"current_range_meters":19600,"station_id":"st_cvj6sg6p6f1abm77japg","pricing_plan_id":"cebpf4jnsgd1na2vs0mg"},{"bike_id":"129c8450-4cca-4e9f-b9f6-538b0080ad49","system_id":"levelo_inurba_marseille","lat":43.32552,"lon":5.38876,"is_reserved":false,"is_disabled":false,"rental_uris":{"android":"levelo://app?vid=129c8450-4cca-4e9f-b9f6-538b0080ad49","ios":"levelo://app?vid=129c8450-4cca-4e9f-b9f6-538b0080ad49"},"vehicle_type_id":"4","last_reported":1758644007,"current_range_meters":19600,"station_id":"","pricing_plan_id":"cebpf4jnsgd1na2vs0mg"},{"bike_id":"2a01d6ea-8eba-4588-97cd-97a5bbd9bde4","system_id":"levelo_inurba_marseille","lat":43.30801,"lon":5.43524,"is_reserved":false,"is_disabled":false,"rental_uris":{"android":"levelo://app?vid=2a01d6ea-8eba-4588-97cd-97a5bbd9bde4","ios":"levelo://app?vid=2a01d6ea-8eba-4588-97cd-97a5bbd9bde4"},"vehicle_type_id":"4","last_reported":1758644007,"current_range_meters":19600,"station_id":"ce4bhph2rcd13ifvqheg","pricing_plan_id":"cebpf4jnsgd1na2vs0mg"},{"bike_id":"02f8f0dd-f6c9-4a1f-8bdf-33a56a1c0100","system_id":"levelo_inurba_marseille","lat":43.29644,"lon":5.3777,"is_reserved":false,"is_disabled":false,"rental_uris":{"android":"levelo://app?vid=02f8f0dd-f6c9-4a1f-8bdf-33a56a1c0100","ios":"levelo://app?vid=02f8f0dd-f6c9-4a1f-8bdf-33a56a1c0100"},"vehicle_type_id":"4","last_reported":1758644007,"current_range_meters":19600,"station_id":"","pricing_plan_id":"cebpf4jnsgd1na2vs0mg"},{"bike_id":"ac43a14a-feba-4e86-b514-9e1c22bf99be","system_id":"levelo_inurba_marseille","lat":43.283506,"lon":5.381074,"is_reserved":false,"is_disabled":false,"rental_uris":{"android":"levelo://app?vid=ac43a14a-feba-4e86-b514-9e1c22bf99be","ios":"levelo://app?vid=ac43a14a-feba-4e86-b514-9e1c22bf99be"},"vehicle_type_id":"4","last_reported":1758644007,"current_range_meters":20000,"station_id":"ce4bh3p2rcd13ifvqdq0","pricing_plan_id":"cebpf4jnsgd1na2vs0mg"},