{"last_updated":1749903501,"ttl":60,"version":"2.2","data":{"bikes":[{"bike_id":"b31f0139-170f-4194-984f-4386218a1e9d","system_id":"levelo_inurba_marseille","lat":43.33771,"lon":5.37424,"is_reserved":false,"is_disabled":true,"rental_uris":{"android":"levelo://app?vid=b31f0139-170f-4194-984f-4386218a1e9d","ios":"levelo://app?vid=b31f0139-170f-4194-984f-4386218a1e9d"},"vehicle_type_id":"4","last_reported":1749903501,"current_range_meters":0,"station_id":"","pricing_plan_id":"cebpf4jnsgd1na2vs0mg"},{"bike_id":"1acfb620-cad7-48c0-8901-d7a5b74a5b65","system_id":"levelo_inurba_marseille","lat":43.33751,"lon":5.37456,"is_reserved":false,"is_disabled":true,"rental_uris":{"android":"levelo://app?vid=1acfb620-cad7-48c0-8901-d7a5b74a5b65","ios":"levelo://app?vid=1acfb620-cad7-48c0-8901-d7a5b74a5b65"},"vehicle_type_id":"4","last_reported":1749903501,"current_range_meters":0,"station_id":"","pricing_plan_id":"cebpf4jnsgd1na2vs0mg"},{"bike_id":"9fcd9c2e-8610-4d87-a883-a5baec28d1dc","system_id":"levelo_inurba_marseille","lat":43.262,"lon":5.37941,"is_reserved":false,"is_disabled":true,"rental_uris":{"android":"levelo://app?vid=9fcd9c2e-8610-4d87-a883-a5baec28d1dc","ios":"levelo://app?vid=9fcd9c2e-8610-4d87-a883-a5baec28d1dc"},"vehicle_type_id":"4","last_reported":1749903501,"current_range_meters":0,"station_id":"","pricing_plan_id":"cebpf4jnsgd1na2vs0mg"},{"bike_id":"bf89d78c-eb96-40d5-beb0-f402ef102cc1","system_id":"levelo_inurba_marseille","lat":43.337444,"lon":5.374475,"is_reserved":false,"is_disabled":true,"rental_uris":{"android":"levelo://app?vid=bf89d78c-eb96-40d5-beb0-f402ef102cc1","ios":"levelo://app?vid=bf89d78c-eb96-40d5-beb0-f402ef102cc1"},"vehicle_type_id":"4","last_reported":1749903501,"current_range_meters":0,"station_id":"","pricing_plan_id":"cebpf4jnsgd1na2vs0mg"},{"bike_id":"5077581b-cebb-46fc-ba69-4fa8272d4810","system_id":"levelo_inurba_marseille","lat":43.21363,"lon":5.35516,"is_reserved":false,"is_disabled":true,"rental_uris":{"android":"levelo://app?vid=5077581b-cebb-46fc-ba69-4fa8272d4810","ios":"levelo://app?vid=5077581b-cebb-46fc-ba69-4fa8272d4810"},"vehicle_type_id":"4","last_reported":1749903501,"current_range_meters":0,"station_id":"","pricing_plan_id":"cebpf4jnsgd1na2vs0mg"},{"bike_id":"ebf89cec-3e1a-4275-9cd0-a3d19d69b5cf","system_id":"levelo_inurba_marseille","lat":43.27992,"lon":5.38499,"is_reserved":false,"is_disabled":true,"rental_uris":{"android":"levelo://app?vid=ebf89cec-3e1a-4275-9cd0-a3d19d69b5cf","ios":"levelo://app?vid=ebf89cec-3e1a-4275-9cd0-a3d19d69b5cf"},"vehicle_type_id":"4","last_reported":1749903501,"current_range_meters":0,"station_id":"","pricing_plan_id":"cebpf4jnsgd1na2vs0mg"},{"bike_id":"492f4bbd-1190-4ef2-b66a-479ffe91b09b","system_id":"levelo_inurba_marseille","lat":43.337444,"lon":5.374475,"is_reserved":false,"is_disabled":true,"rental_uris":{"android":"levelo://app?vid=492f4bbd-1190-4ef2-b66a-479ffe91b09b","ios":"levelo://app?vid=492f4bbd-1190-4ef2-b66a-479ffe91b09b"},"vehicle_type_id":"4","last_reported":1749903501,"current_range_meters":0,"station_id":"","pricing_plan_id":"cebpf4jnsgd1na2vs0mg"},{"bike_id":"a9b6bf99-4070-4437-bb20-72962ae30b90","system_id":"levelo_inurba_marseille","lat":43.27461,"lon":5.36398,"is_reserved":false,"is_disabled":true,"rental_uris":{"android":"levelo://app?vid=a9b6bf99-4070-4437-bb20-72962ae30b90","ios":"levelo://app?vid=a9b6bf99-4070-4437-bb20-72962ae30b90"},"vehicle_type_id":"4","last_reported":1749903501,"current_range_meters":0,"station_id":"","pricing_plan_id":"cebpf4jnsgd1na2vs0mg"},{"bike_id":"053df611-3aec-4f46-9f9b-6c4a874428c6","system_id":"levelo_inurba_marseille","lat":43.29971,"lon":5.38496,"is_reserved":false,"is_disabled":true,"rental_uris":{"android":"levelo://app?vid=053df611-3aec-4f46-9f9b-6c4a874428c6","ios":"levelo://app?vid=053df611-3aec-4f46-9f9b-6c4a874428c6"},"vehicle_type_id":"4","last_reported":1749903501,"current_range_meters":0,"station_id":"ce4bgj92rcd13ifvqbd0","pricing_plan_id":"cebpf4jnsgd1na2vs0mg"},{"bike_id":"facad708-ac2e-4647-8c52-a1e2e89ee9aa","system_id":"levelo_inurba_marseille","lat":43.3066,"lon":5.40108,"is_reserved":false,"is_disabled":true,"rental_uris":{"android":"levelo://app?vid=facad708-ac2e-4647-8c52-a1e2e89ee9aa","ios":"levelo://app?vid=facad708-ac2e-4647-8c52-a1e2e89ee9aa"},"vehicle_type_id":"4","last_reported":1749903501,"current_range_meters":0,"station_id":"ce4bh112rcd13ifvqda0","pricing_plan_id":"cebpf4jnsgd1na2vs0mg"},{"bike_id":"b7576bf8-b900-4631-b861-b6090a3b4ee3","system_id":"levelo_inurba_marseille","lat":43.27371,"lon":5.36254,"is_reserved":false,"is_disabled":true,"rental_uris":{"android":"levelo://app?vid=b7576bf8-b900-4631-b861-b6090a3b4ee3","ios":"levelo://app?vid=b7576bf8-b900-4631-b861-b6090a3b4ee3"},"vehicle_type_id":"4","last_reported":1749903501,"current_range_meters":0,"station_id":"ce4bhbh2rcd13ifvqeo0","pricing_plan_id":"cebpf4jnsgd1na2vs0mg"},{"bike_id":"762bab15-3815-4efe-9115-1a2b973ce7b5","system_id":"levelo_inurba_marseille","lat":43.28418,"lon":5.34984,"is_reserved":false,"is_disabled":true,"rental_uris":{"android":"levelo://app?vid=762bab15-3815-4efe-9115-1a2b973ce7b5","ios":"levelo://app?vid=762bab15-3815-4efe-9115-1a2b973ce7b5"},"vehicle_type_id":"4","last_reported":1749903501,"current_range_meters":0,"station_id":"ce4bhbh2rcd13ifvqepg","pricing_plan_id":"cebpf4jnsgd1na2vs0mg"},{"bike_id":"b4c01d0a-ad83-4336-8661-5837a8ab605a","system_id":"levelo_inurba_marseille","lat":43.28615,"lon":5.35104,"is_reserved":false,"is_disabled":true,"rental_uris":{"android":"levelo://app?vid=b4c01d0a-ad83-4336-8661-5837a8ab605a","ios":"levelo://app?vid=b4c01d0a-ad83-4336-8661-5837a8ab605a"},"vehicle_type_id":"4","last_reported":1749903501,"current_range_meters":0,"station_id":"ce4bhch2rcd13ifvqeug","pricing_plan_id":"cebpf4jnsgd1na2vs0mg"},{"bike_id":"d0e8e1e6-aa3f-4ec0-b927-7ea547245aaf","system_id":"levelo_inurba_marseille","lat":43.26561,"lon":5.37281,"is_reserved":false,"is_disabled":true,"rental_uris":{"android":"levelo://app?vid=d0e8e1e6-aa3f-4ec0-b927-7ea547245aaf","ios":"levelo://app?vid=d0e8e1e6-aa3f-4ec0-b927-7ea547245aaf"},"vehicle_type_id":"4","last_reported":1749903501,"current_range_meters":0,"station_id":"ce4bhg12rcd13ifvqf70","pricing_plan_id":"cebpf4jnsgd1na2vs0mg"},{"bike_id":"68f305f3-5302-4267-b1b0-4f770374b595","system_id":"levelo_inurba_marseille","lat":43.26679,"lon":5.38272,"is_reserved":false,"is_disabled":true,"rental_uris":{"android":"levelo://app?vid=68f305f3-5302-4267-b1b0-4f770374b595","ios":"levelo://app?vid=68f305f3-5302-4267-b1b0-4f770374b595"},"vehicle_type_id":"4","last_reported":1749903501,"current_range_meters":0,"station_id":"ce4bhg92rcd13ifvqf90","pricing_plan_id":"cebpf4jnsgd1na2vs0mg"},{"bike_id":"4fd93a75-1a72-48d2-82dc-60f470adc4ed","system_id":"levelo_inurba_marseille","lat":43.26211,"lon":5.37442,"is_reserved":false,"is_disabled":true,"rental_uris":{"android":"levelo://app?vid=4fd93a75-1a72-48d2-82dc-60f470adc4ed","ios":"levelo://app?vid=4fd93a75-1a72-48d2-82dc-60f470adc4ed"},"vehicle_type_id":"4","last_reported":1749903501,"current_range_meters":0,"station_id":"ce4bhgp2rcd13ifvqfc0","pricing_plan_id":"cebpf4jnsgd1na2vs0mg"},{"bike_id":"cd7052b8-c6de-42a1-9f65-1ea2cc471e73","system_id":"levelo_inurba_marseille","lat":43.25863,"lon":5.3991,"is_reserved":false,"is_disabled":true,"rental_uris":{"android":"levelo://app?vid=cd7052b8-c6de-42a1-9f65-1ea2cc471e73","ios":"levelo://app?vid=cd7052b8-c6de-42a1-9f65-1ea2cc471e73"},"vehicle_type_id":"4","last_reported":1749903501,"current_range_meters":0,"station_id":"ce4bhl92rcd13ifvqghg","pricing_plan_id":"cebpf4jnsgd1na2vs0mg"},{"bike_id":"7d55c521-4228-4651-993a-31015265590c","system_id":"levelo_inurba_marseille","lat":43.258665,"lon":5.398975,"is_reserved":false,"is_disabled":true,"rental_uris":{"android":"levelo://app?vid=7d55c521-4228-4651-993a-31015265590c","ios":"levelo://app?vid=7d55c521-4228-4651-993a-31015265590c"},"vehicle_type_id":"4","last_reported":1749903501,"current_range_meters":0,"station_id":"ce4bhl92rcd13ifvqghg","pricing_plan_id":"cebpf4jnsgd1na2vs0mg"},{"bike_id":"c6bb65fb-ba87-41ce-a3bc-03ff6d3bbf5c","system_id":"levelo_inurba_marseille","lat":43.23133,"lon":5.43708,"is_reserved":false,"is_disabled":true,"rental_uris":{"android":"levelo://app?vid=c6bb65fb-ba87-41ce-a3bc-03ff6d3bbf5c","ios":"levelo://app?vid=c6bb65fb-ba87-41ce-a3bc-03ff6d3bbf5c"},"vehicle_type_id":"4","last_reported":1749903501,"current_range_meters":0,"station_id":"ce4bhmp2rcd13ifvqgog","pricing_plan_id":"cebpf4jnsgd1na2vs0mg"},{"bike_id":"442be05d-b25d-4a8f-8f0c-2b10cb7b3826","system_id":"levelo_inurba_marseille","lat":43.30414,"lon":5.41295,"is_reserved":false,"is_disabled":true,"rental_uris":{"android":"levelo://app?vid=442be05d-b25d-4a8f-8f0c-2b10cb7b3826","ios":"levelo://app?vid=442be05d-b25d-4a8f-8f0c-2b10cb7b3826"},"vehicle_type_id":"4","last_reported":1749903501,"current_range_meters":0,"station_id":"ce4bhop2rcd13ifvqh8g","pricing_plan_id":"cebpf4jnsgd1na2vs0mg"},{"bike_id":"5b4907c8-e5b7-4561-8935-4f7beb31708a","system_id":"levelo_inurba_marseille","lat":43.3234,"lon":5.40623,"is_reserved":false,"is_disabled":true,"rental_uris":{"android":"levelo://app?vid=5b4907c8-e5b7-4561-8935-4f7beb31708a","ios":"levelo://app?vid=5b4907c8-e5b7-4561-8935-4f7beb31708a"},"vehicle_type_id":"4","last_reported":1749903501,"current_range_meters":0,"station_id":"ce4bhq92rcd13ifvqhjg","pricing_plan_id":"cebpf4jnsgd1na2vs0mg"},{"bike_id":"bbb02913-c6bc-48cc-9429-24d0d9829817","system_id":"levelo_inurba_marseille","lat":43.32361,"lon":5.4062,"is_reserved":false,"is_disabled":true,"rental_uris":{"android":"levelo://app?vid=bbb02913-c6bc-48cc-9429-24d0d9829817","ios":"levelo://app?vid=bbb02913-c6bc-48cc-9429-24d0d9829817"},"vehicle_type_id":"4","last_reported":1749903501,"current_range_meters":0,"station_id":"ce4bhq92rcd13ifvqhjg","pricing_plan_id":"cebpf4jnsgd1na2vs0mg"},{"bike_id":"0f50c2eb-d288-4d90-a9a3-cd0743222590","system_id":"levelo_inurba_marseille","lat":43.22507,"lon":5.34779,"is_reserved":false,"is_disabled":true,"rental_uris":{"android":"levelo://app?vid=0f50c2eb-d288-4d90-a9a3-cd0743222590","ios":"levelo://app?vid=0f50c2eb-d288-4d90-a9a3-cd0743222590"},"vehicle_type_id":"4","last_reported":1749903501,"current_range_meters":0,"station_id":"st_cvj5dfep6f1abm77gieg","pricing_plan_id":"cebpf4jnsgd1na2vs0mg"},{"bike_id":"e4ab0cbe-c9ee-426b-a89d-4698af4c3230","system_id":"levelo_inurba_marseille","lat":43.21191,"lon":5.35078,"is_reserved":false,"is_disabled":true,"rental_uris":{"android":"levelo://app?vid=e4ab0cbe-c9ee-426b-a89d-4698af4c3230","ios":"levelo://app?vid=e4ab0cbe-c9ee-426b-a89d-4698af4c3230"},"vehicle_type_id":"4","last_reported":1749903501,"current_range_meters":0,"station_id":"st_cvj6sg6p6f1abm77japg","pricing_plan_id":"cebpf4jnsgd1na2vs0mg"},{"bike_id":"fe909eec-57cb-4f6d-9797-191bc789bd7d","system_id":"levelo_inurba_marseille","lat":43.31216,"lon":5.36865,"is_reserved":false,"is_disabled":true,"rental_uris":{"android":"levelo://app?vid=fe909eec-57cb-4f6d-9797-191bc789bd7d","ios":"levelo://app?vid=fe909eec-57cb-4f6d-9797-191bc789bd7d"},"vehicle_type_id":"4","last_reported":1749903501,"current_range_meters":400,"station_id":"ce4bgl92rcd13ifvqbq0","pricing_plan_id":"cebpf4jnsgd1na2vs0mg"},{"bike_id":"20cdf9a8-72cf-49ef-b897-3911f79e8013","system_id":"levelo_inurba_marseille","lat":43.28262,"lon":5.35069,"is_reserved":false,"is_disabled":true,"rental_uris":{"android":"levelo://app?vid=20cdf9a8-72cf-49ef-b897-3911f79e8013","ios":"levelo://app?vid=20cdf9a8-72cf-49ef-b897-3911f79e8013"},"vehicle_type_id":"4","last_reported":1749903501,"current_range_meters":400,"station_id":"ce4bhbp2rcd13ifvqerg","pricing_plan_id":"cebpf4jnsgd1na2vs0mg"},{"bike_id":"7e55265f-af08-4274-a924-78b7fea6ed7d","system_id":"levelo_inurba_marseille","lat":43.31715,"lon":5.43706,"is_reserved":false,"is_disabled":true,"rental_uris":{"android":"levelo://app?vid=7e55265f-af08-4274-a924-78b7fea6ed7d","ios":"levelo://app?vid=7e55265f-af08-4274-a924-78b7fea6ed7d"},"vehicle_type_id":"4","last_reported":1749903501,"current_range_meters":400,"station_id":"ce4bhp92rcd13ifvqhcg","pricing_plan_id":"cebpf4jnsgd1na2vs0mg"},{"bike_id":"c7ba63e3-a335-4ff1-a8d3-5e3ed88a9c9e","system_id":"levelo_inurba_marseille","lat":43.25088,"lon":5.39521,"is_reserved":false,"is_disabled":true,"rental_uris":{"android":"levelo://app?vid=c7ba63e3-a335-4ff1-a8d3-5e3ed88a9c9e","ios":"levelo://app?vid=c7ba63e3-a335-4ff1-a8d3-5e3ed88a9c9e"},"vehicle_type_id":"4","last_reported":1749903501,"current_range_meters":800,"station_id":"ce4bhm12rcd13ifvqgkg","pricing_plan_id":"cebpf4jnsgd1na2vs0mg"},{"bike_id":"19c11e37-af56-4aef-9a21-eb9950abd1c8","system_id":"levelo_inurba_marseille","lat":43.293693,"lon":5.37855,"is_reserved":false,"is_disabled":true,"rental_uris":{"android":"levelo://app?vid=19c11e37-af56-4aef-9a21-eb9950abd1c8","ios":"levelo://app?vid=19c11e37-af56-4aef-9a21-eb9950abd1c8"},"vehicle_type_id":"4","last_reported":1749903501,"current_range_meters":1200,"station_id":"ce4bgjh2rcd13ifvqbf0","pricing_plan_id":"cebpf4jnsgd1na2vs0mg"},{"bike_id":"848aca78-a4c8-43c1-93e8-0acba678baae","system_id":"levelo_inurba_marseille","lat":43.31322,"lon":5.397,"is_reserved":false,"is_disabled":true,"rental_uris":{"android":"levelo://app?vid=848aca78-a4c8-43c1-93e8-0acba678baae","ios":"levelo://app?vid=848aca78-a4c8-43c1-93e8-0acba678baae"},"vehicle_type_id":"4","last_reported":1749903501,"current_range_meters":1200,"station_id":"ce4bgvp2rcd13ifvqcu0","pricing_plan_id":"cebpf4jnsgd1na2vs0mg"},{"bike_id":"1c99c150-f3b1-47b1-bf17-b824afb138e4","system_id":"levelo_inurba_marseille","lat":43.28422,"lon":5.34985,"is_reserved":false,"is_disabled":true,"rental_uris":{"android":"levelo://app?vid=1c99c150-f3b1-47b1-bf17-b824afb138e4","ios":"levelo://app?vid=1c99c150-f3b1-47b1-bf17-b824afb138e4"},"vehicle_type_id":"4","last_reported":1749903501,"current_range_meters":1200,"station_id":"ce4bhbh2rcd13ifvqepg","pricing_plan_id":"cebpf4jnsgd1na2vs0mg"},{"bike_id":"9b3ef77b-8b01-462f-804b-38ca164a1bb5","system_id":"levelo_inurba_marseille","lat":43.26556,"lon":5.37282,"is_reserved":false,"is_disabled":true,"rental_uris":{"android":"levelo://app?vid=9b3ef77b-8b01-462f-804b-38ca164a1bb5","ios":"levelo://app?vid=9b3ef77b-8b01-462f-804b-38ca164a1bb5"},"vehicle_type_id":"4","last_reported":1749903501,"current_range_meters":1200,"station_id":"ce4bhg12rcd13ifvqf70","pricing_plan_id":"cebpf4jnsgd1na2vs0mg"},{"bike_id":"f0c72add-3883-4663-a9a9-7391d0fa1531","system_id":"levelo_inurba_marseille","lat":43.22938,"lon":5.35365,"is_reserved":false,"is_disabled":true,"rental_uris":{"android":"levelo://app?vid=f0c72add-3883-4663-a9a9-7391d0fa1531","ios":"levelo://app?vid=f0c72add-3883-4663-a9a9-7391d0fa1531"},"vehicle_type_id":"4","last_reported":1749903501,"current_range_meters":1200,"station_id":"cpo3532slgdg3j2ikp40","pricing_plan_id":"cebpf4jnsgd1na2vs0mg"},{"bike_id":"7be62569-a898-4611-92c2-ab5ef44f1723","system_id":"levelo_inurba_marseille","lat":43.22937,"lon":5.35376,"is_reserved":false,"is_disabled":true,"rental_uris":{"android":"levelo://app?vid=7be62569-a898-4611-92c2-ab5ef44f1723","ios":"levelo://app?vid=7be62569-a898-4611-92c2-ab5ef44f1723"},"vehicle_type_id":"4","last_reported":1749903501,"current_range_meters":1200,"station_id":"cpo3532slgdg3j2ikp40","pricing_plan_id":"cebpf4jnsgd1na2vs0mg"},{"bike_id":"10321504-fe2f-4f57-89c7-53263238f16c","system_id":"levelo_inurba_marseille","lat":43.30243,"lon":5.40064,"is_reserved":false,"is_disabled":false,"rental_uris":{"android":"levelo://app?vid=10321504-fe2f-4f57-89c7-53263238f16c","ios":"levelo://app?vid=10321504-fe2f-4f57-89c7-53263238f16c"},"vehicle_type_id":"4","last_reported":1749903501,"current_range_meters":1600,"station_id":"ce4bgvh2rcd13ifvqcs0","pricing_plan_id":"cebpf4jnsgd1na2vs0mg"},{"bike_id":"6a5e1aed-762e-4f62-8456-fa74d7daae60","system_id":"levelo_inurba_marseille","lat":43.27791,"lon":5.40712,"is_reserved":false,"is_disabled":true,"rental_uris":{"android":"levelo://app?vid=6a5e1aed-762e-4f62-8456-fa74d7daae60","ios":"levelo://app?vid=6a5e1aed-762e-4f62-8456-fa74d7daae60"},"vehicle_type_id":"4","last_reported":1749903501,"current_range_meters":1600,"station_id":"ce4bhnh2rcd13ifvqgtg","pricing_plan_id":"cebpf4jnsgd1na2vs0mg"},{"bike_id":"2b5aaf49-0c04-4cc9-9c89-7d1bd2c24544","system_id":"levelo_inurba_marseille","lat":43.28274,"lon":5.35118,"is_reserved":false,"is_disabled":true,"rental_uris":{"android":"levelo://app?vid=2b5aaf49-0c04-4cc9-9c89-7d1bd2c24544","ios":"levelo://app?vid=2b5aaf49-0c04-4cc9-9c89-7d1bd2c24544"},"vehicle_type_id":"4","last_reported":1749903501,"current_range_meters":2000,"station_id":"","pricing_plan_id":"cebpf4jnsgd1na2vs0mg"},{"bike_id":"8a633210-497c-40be-bdbd-cd11b97563cd","system_id":"levelo_inurba_marseille","lat":43.298737,"lon":5.365173,"is_reserved":false,"is_disabled":true,"rental_uris":{"android":"levelo://app?vid=8a633210-497c-40be-bdbd-cd11b97563cd","ios":"levelo://app?vid=8a633210-497c-40be-bdbd-cd11b97563cd"},"vehicle_type_id":"4","last_reported":1749903501,"current_range_meters":2000,"station_id":"ce4bgm92rcd13ifvqbr0","pricing_plan_id":"cebpf4jnsgd1na2vs0mg"},{"bike_id":"b9c665ea-fb4f-471e-a039-956518a03c0a","system_id":"levelo_inurba_marseille","lat":43.29036,"lon":5.39964,"is_reserved":false,"is_disabled":true,"rental_uris":{"android":"levelo://app?vid=b9c665ea-fb4f-471e-a039-956518a03c0a","ios":"levelo://app?vid=b9c665ea-fb4f-471e-a039-956518a03c0a"},"vehicle_type_id":"4","last_reported":1749903501,"current_range_meters":2000,"station_id":"ce4bh392rcd13ifvqdm0","pricing_plan_id":"cebpf4jnsgd1na2vs0mg"},{"bike_id":"9e2cdb5f-9d83-4e20-aab2-b5e1d2298e68","system_id":"levelo_inurba_marseille","lat":43.28649,"lon":5.38666,"is_reserved":false,"is_disabled":true,"rental_uris":{"android":"levelo://app?vid=9e2cdb5f-9d83-4e20-aab2-b5e1d2298e68","ios":"levelo://app?vid=9e2cdb5f-9d83-4e20-aab2-b5e1d2298e68"},"vehicle_type_id":"4","last_reported":1749903501,"current_range_meters":2000,"station_id":"ce4bh492rcd13ifvqdug","pricing_plan_id":"cebpf4jnsgd1na2vs0mg"},{"bike_id":"8d60347d-541c-40fb-90ca-203bf6bd520a","system_id":"levelo_inurba_marseille","lat":43.27144,"lon":5.36382,"is_reserved":false,"is_disabled":false,"rental_uris":{"android":"levelo://app?vid=8d60347d-541c-40fb-90ca-203bf6bd520a","ios":"levelo://app?vid=8d60347d-541c-40fb-90ca-203bf6bd520a"},"vehicle_type_id":"4","last_reported":1749903501,"current_range_meters":2800,"station_id":"","pricing_plan_id":"cebpf4jnsgd1na2vs0mg"},{"bike_id":"cc001746-def4-4a66-85a7-0d2136b2211e","system_id":"levelo_inurba_marseille","lat":43.2904,"lon":5.39959,"is_reserved":false,"is_disabled":false,"rental_uris":{"android":"levelo://app?vid=cc001746-def4-4a66-85a7-0d2136b2211e","ios":"levelo://app?vid=cc001746-def4-4a66-85a7-0d2136b2211e"},"vehicle_type_id":"4","last_reported":1749903501,"current_range_meters":2800,"station_id":"ce4bh392rcd13ifvqdm0","pricing_plan_id":"cebpf4jnsgd1na2vs0mg"},{"bike_id":"3ccbdc80-ca9b-49a6-a976-c2a3bee0bd6d","system_id":"levelo_inurba_marseille","lat":43.234119,"lon":5.436339,"is_reserved":false,"is_disabled":false,"rental_uris":{"android":"levelo://app?vid=3ccbdc80-ca9b-49a6-a976-c2a3bee0bd6d","ios":"levelo://app?vid=3ccbdc80-ca9b-49a6-a976-c2a3bee0bd6d"},"vehicle_type_id":"4","last_reported":1749903501,"current_range_meters":2800,"station_id":"ce4bhmp2rcd13ifvqgog","pricing_plan_id":"cebpf4jnsgd1na2vs0mg"},{"bike_id":"18fbe5cd-487f-4a45-8922-4c1074ba2a14","system_id":"levelo_inurba_marseille","lat":43.23161,"lon":5.43715,"is_reserved":false,"is_disabled":false,"rental_uris":{"android":"levelo://app?vid=18fbe5cd-487f-4a45-8922-4c1074ba2a14","ios":"levelo://app?vid=18fbe5cd-487f-4a45-8922-4c1074ba2a14"},"vehicle_type_id":"4","last_reported":1749903501,"current_range_meters":2800,"station_id":"ce4bhmp2rcd13ifvqgog","pricing_plan_id":"cebpf4jnsgd1na2vs0mg"},{"bike_id":"2dc8b6b8-5d4c-42f1-bfef-12fddefd5c20","system_id":"levelo_inurba_marseille","lat":43.30616,"lon":5.39376,"is_reserved":false,"is_disabled":false,"rental_uris":{"android":"levelo://app?vid=2dc8b6b8-5d4c-42f1-bfef-12fddefd5c20","ios":"levelo://app?vid=2dc8b6b8-5d4c-42f1-bfef-12fddefd5c20"},"vehicle_type_id":"4","last_reported":1749903501,"current_range_meters":3200,"station_id":"ce4bh0p2rcd13ifvqd80","pricing_plan_id":"cebpf4jnsgd1na2vs0mg"},{"bike_id":"441a8848-c5be-462f-ad81-561ffe785a64","system_id":"levelo_inurba_marseille","lat":43.28711,"lon":5.37944,"is_reserved":false,"is_disabled":false,"rental_uris":{"android":"levelo://app?vid=441a8848-c5be-462f-ad81-561ffe785a64","ios":"levelo://app?vid=441a8848-c5be-462f-ad81-561ffe785a64"},"vehicle_type_id":"4","last_reported":1749903501,"current_range_meters":3200,"station_id":"ce4bh9p2rcd13ifvqec0","pricing_plan_id":"cebpf4jnsgd1na2vs0mg"},{"bike_id":"acef737a-f869-4e40-b939-3108eeffc1e9","system_id":"levelo_inurba_marseille","lat":43.30867,"lon":5.39655,"is_reserved":false,"is_disabled":false,"rental_uris":{"android":"levelo://app?vid=acef737a-f869-4e40-b939-3108eeffc1e9","ios":"levelo://app?vid=acef737a-f869-4e40-b939-3108eeffc1e9"},"vehicle_type_id":"4","last_reported":1749903501,"current_range_meters":3600,"station_id":"ce4bh012rcd13ifvqcv0","pricing_plan_id":"cebpf4jnsgd1na2vs0mg"},{"bike_id":"97421c04-2630-4fc1-9da9-b17d88602c5f","system_id":"levelo_inurba_marseille","lat":43.337682,"lon":5.374519,"is_reserved":false,"is_disabled":false,"rental_uris":{"android":"levelo://app?vid=97421c04-2630-4fc1-9da9-b17d88602c5f","ios":"levelo://app?vid=97421c04-2630-4fc1-9da9-b17d88602c5f"},"vehicle_type_id":"4","last_reported":1749903501,"current_range_meters":4000,"station_id":"","pricing_plan_id":"cebpf4jnsgd1na2vs0mg"},{"bike_id":"d69b76c1-cad2-4eb8-97b2-b80ec2daa5c4","system_id":"levelo_inurba_marseille","lat":43.21746,"lon":5.34602,"is_reserved":false,"is_disabled":false,"rental_uris":{"android":"levelo://app?vid=d69b76c1-cad2-4eb8-97b2-b80ec2daa5c4","ios":"levelo://app?vid=d69b76c1-cad2-4eb8-97b2-b80ec2daa5c4"},"vehicle_type_id":"4","last_reported":1749903501,"current_range_meters":4000,"station_id":"st_cvj6r9ubvosntc0bgbag","pricing_plan_id":"cebpf4jnsgd1na2vs0mg"},{"bike_id":"f937e6c0-b8c0-4092-a993-6103d4ae4fb5","system_id":"levelo_inurba_marseille","lat":43.24075,"lon":5.37754,"is_reserved":false,"is_disabled":false,"rental_uris":{"android":"levelo://app?vid=f937e6c0-b8c0-4092-a993-6103d4ae4fb5","ios":"levelo://app?vid=f937e6c0-b8c0-4092-a993-6103d4ae4fb5"},"vehicle_type_id":"4","last_reported":1749903501,"current_range_meters":4400,"station_id":"ce4bhnp2rcd13ifvqgvg","pricing_plan_id":"cebpf4jnsgd1na2vs0mg"},{"bike_id":"8be579a0-ba98-4390-815f-02a6fea233b5","system_id":"levelo_inurba_marseille","lat":43.28699,"lon":5.39982,"is_reserved":false,"is_disabled":false,"rental_uris":{"android":"levelo://app?vid=8be579a0-ba98-4390-815f-02a6fea233b5","ios":"levelo://app?vid=8be579a0-ba98-4390-815f-02a6fea233b5"},"vehicle_type_id":"4","last_reported":1749903501,"current_range_meters":4400,"station_id":"ce4bho92rcd13ifvqh3g","pricing_plan_id":"cebpf4jnsgd1na2vs0mg"},{"bike_id":"d9be8431-1098-4c2d-b533-c5666589794d","system_id":"levelo_inurba_marseille","lat":43.30413,"lon":5.41292,"is_reserved":false,"is_disabled":false,"rental_uris":{"android":"levelo://app?vid=d9be8431-1098-4c2d-b533-c5666589794d","ios":"levelo://app?vid=d9be8431-1098-4c2d-b533-c5666589794d"},"vehicle_type_id":"4","last_reported":1749903501,"current_range_meters":4400,"station_id":"ce4bhop2rcd13ifvqh8g","pricing_plan_id":"cebpf4jnsgd1na2vs0mg"},{"bike_id":"2e99a5fb-a2c2-44ef-ab87-5391b788b560","system_id":"levelo_inurba_marseille","lat":43.225028,"lon":5.347838,"is_reserved":false,"is_disabled":false,"rental_uris":{"android":"levelo://app?vid=2e99a5fb-a2c2-44ef-ab87-5391b788b560","ios":"levelo://app?vid=2e99a5fb-a2c2-44ef-ab87-5391b788b560"},"vehicle_type_id":"4","last_reported":1749903501,"current_range_meters":4800,"station_id":"","pricing_plan_id":"cebpf4jnsgd1na2vs0mg"},{"bike_id":"1915255f-ff05-448b-bd5c-bcd55b7449d7","system_id":"levelo_inurba_marseille","lat":43.28774,"lon":5.37358,"is_reserved":false,"is_disabled":false,"rental_uris":{"android":"levelo://app?vid=1915255f-ff05-448b-bd5c-bcd55b7449d7","ios":"levelo://app?vid=1915255f-ff05-448b-bd5c-bcd55b7449d7"},"vehicle_type_id":"4","last_reported":1749903501,"current_range_meters":4800,"station_id":"","pricing_plan_id":"cebpf4jnsgd1na2vs0mg"},{"bike_id":"229b5df1-6614-467d-8c7c-bd3ba3b3b25c","system_id":"levelo_inurba_marseille","lat":43.31758,"lon":5.39012,"is_reserved":false,"is_disabled":false,"rental_uris":{"android":"levelo://app?vid=229b5df1-6614-467d-8c7c-bd3ba3b3b25c","ios":"levelo://app?vid=229b5df1-6614-467d-8c7c-bd3ba3b3b25c"},"vehicle_type_id":"4","last_reported":1749903501,"current_range_meters":4800,"station_id":"ce4bhqp2rcd13ifvqhng","pricing_plan_id":"cebpf4jnsgd1na2vs0mg"},{"bike_id":"362bf9f9-a073-42a9-ba10-441becac2974","system_id":"levelo_inurba_marseille","lat":43.21179,"lon":5.35073,"is_reserved":false,"is_disabled":false,"rental_uris":{"android":"levelo://app?vid=362bf9f9-a073-42a9-ba10-441becac2974","ios":"levelo://app?vid=362bf9f9-a073-42a9-ba10-441becac2974"},"vehicle_type_id":"4","last_reported":1749903501,"current_range_meters":4800,"station_id":"st_cvj6sg6p6f1abm77japg","pricing_plan_id":"cebpf4jnsgd1na2vs0mg"},{"bike_id":"dbbb347a-e7e1-43bb-accd-e1655b32f963","system_id":"levelo_inurba_marseille","lat":43.31486,"lon":5.37313,"is_reserved":false,"is_disabled":false,"rental_uris":{"android":"levelo://app?vid=dbbb347a-e7e1-43bb-accd-e1655b32f963","ios":"levelo://app?vid=dbbb347a-e7e1-43bb-accd-e1655b32f963"},"vehicle_type_id":"4","last_reported":1749903501,"current_range_meters":5600,"station_id":"ce4bgt12rcd13ifvqcd0","pricing_plan_id":"cebpf4jnsgd1na2vs0mg"},{"bike_id":"57e083fd-88fc-45f8-8933-99062e5d10bb","system_id":"levelo_inurba_marseille","lat":43.28855,"lon":5.35856,"is_reserved":false,"is_disabled":false,"rental_uris":{"android":"levelo://app?vid=57e083fd-88fc-45f8-8933-99062e5d10bb","ios":"levelo://app?vid=57e083fd-88fc-45f8-8933-99062e5d10bb"},"vehicle_type_id":"4","last_reported":1749903501,"current_range_meters":6000,"station_id":"","pricing_plan_id":"cebpf4jnsgd1na2vs0mg"},{"bike_id":"21a6cada-694a-4b72-98b3-741610d56a9f","system_id":"levelo_inurba_marseille","lat":43.28289,"lon":5.35063,"is_reserved":false,"is_disabled":false,"rental_uris":{"android":"levelo://app?vid=21a6cada-694a-4b72-98b3-741610d56a9f","ios":"levelo://app?vid=21a6cada-694a-4b72-98b3-741610d56a9f"},"vehicle_type_id":"4","last_reported":1749903501,"current_range_meters":6000,"station_id":"ce4bhbp2rcd13ifvqerg","pricing_plan_id":"cebpf4jnsgd1na2vs0mg"},{"bike_id":"3089b353-1920-466b-bceb-f6b341022e3c","system_id":"levelo_inurba_marseille","lat":43.26225,"lon":5.40448,"is_reserved":false,"is_disabled":false,"rental_uris":{"android":"levelo://app?vid=3089b353-1920-466b-bceb-f6b341022e3c","ios":"levelo://app?vid=3089b353-1920-466b-bceb-f6b341022e3c"},"vehicle_type_id":"4","last_reported":1749903501,"current_range_meters":6000,"station_id":"ce4bhmh2rcd13ifvqgmg","pricing_plan_id":"cebpf4jnsgd1na2vs0mg"},{"bike_id":"f8d79491-bdca-404d-ac6d-85856e0daf48","system_id":"levelo_inurba_marseille","lat":43.30421,"lon":5.41282,"is_reserved":false,"is_disabled":false,"rental_uris":{"android":"levelo://app?vid=f8d79491-bdca-404d-ac6d-85856e0daf48","ios":"levelo://app?vid=f8d79491-bdca-404d-ac6d-85856e0daf48"},"vehicle_type_id":"4","last_reported":1749903501,"current_range_meters":6000,"station_id":"ce4bhop2rcd13ifvqh8g","pricing_plan_id":"cebpf4jnsgd1na2vs0mg"},{"bike_id":"38abd818-76f4-475e-8e57-a192d9bb7714","system_id":"levelo_inurba_marseille","lat":43.25493,"lon":5.37644,"is_reserved":false,"is_disabled":false,"rental_uris":{"android":"levelo://app?vid=38abd818-76f4-475e-8e57-a192d9bb7714","ios":"levelo://app?vid=38abd818-76f4-475e-8e57-a192d9bb7714"},"vehicle_type_id":"4","last_reported":1749903501,"current_range_meters":6400,"station_id":"ce4bhh12rcd13ifvqff0","pricing_plan_id":"cebpf4jnsgd1na2vs0mg"},{"bike_id":"2aaf2205-7518-413f-b8a5-97f1c1695d4c","system_id":"levelo_inurba_marseille","lat":43.23143,"lon":5.4373,"is_reserved":false,"is_disabled":false,"rental_uris":{"android":"levelo://app?vid=2aaf2205-7518-413f-b8a5-97f1c1695d4c","ios":"levelo://app?vid=2aaf2205-7518-413f-b8a5-97f1c1695d4c"},"vehicle_type_id":"4","last_reported":1749903501,"current_range_meters":6400,"station_id":"ce4bhmp2rcd13ifvqgog","pricing_plan_id":"cebpf4jnsgd1na2vs0mg"},{"bike_id":"f5b2ffae-c086-4e1b-b0fd-043d6026a577","system_id":"levelo_inurba_marseille","lat":43.33717,"lon":5.39176,"is_reserved":false,"is_disabled":false,"rental_uris":{"android":"levelo://app?vid=f5b2ffae-c086-4e1b-b0fd-043d6026a577","ios":"levelo://app?vid=f5b2ffae-c086-4e1b-b0fd-043d6026a577"},"vehicle_type_id":"4","last_reported":1749903501,"current_range_meters":6400,"station_id":"ce4bhr92rcd13ifvqhsg","pricing_plan_id":"cebpf4jnsgd1na2vs0mg"},{"bike_id":"ab67db2e-29dc-4aa1-ad47-cf91458ba682","system_id":"levelo_inurba_marseille","lat":43.23197,"lon":5.35558,"is_reserved":false,"is_disabled":false,"rental_uris":{"android":"levelo://app?vid=ab67db2e-29dc-4aa1-ad47-cf91458ba682","ios":"levelo://app?vid=ab67db2e-29dc-4aa1-ad47-cf91458ba682"},"vehicle_type_id":"4","last_reported":1749903501,"current_range_meters":6400,"station_id":"ce4bhu92rcd13ifvqi70","pricing_plan_id":"cebpf4jnsgd1na2vs0mg"},{"bike_id":"ab5c85d8-579e-4dd9-84ba-3af3a96518ad","system_id":"levelo_inurba_marseille","lat":43.21192,"lon":5.35072,"is_reserved":false,"is_disabled":false,"rental_uris":{"android":"levelo://app?vid=ab5c85d8-579e-4dd9-84ba-3af3a96518ad","ios":"levelo://app?vid=ab5c85d8-579e-4dd9-84ba-3af3a96518ad"},"vehicle_type_id":"4","last_reported":1749903501,"current_range_meters":6400,"station_id":"st_cvj6sg6p6f1abm77japg","pricing_plan_id":"cebpf4jnsgd1na2vs0mg"},{"bike_id":"05d48a39-7517-4063-b93d-80be4e472241","system_id":"levelo_inurba_marseille","lat":43.3164,"lon":5.40515,"is_reserved":false,"is_disabled":false,"rental_uris":{"android":"levelo://app?vid=05d48a39-7517-4063-b93d-80be4e472241","ios":"levelo://app?vid=05d48a39-7517-4063-b93d-80be4e472241"},"vehicle_type_id":"4","last_reported":1749903501,"current_range_meters":6800,"station_id":"","pricing_plan_id":"cebpf4jnsgd1na2vs0mg"},{"bike_id":"e49fb349-10f0-4406-ac8a-76de68b428f5","system_id":"levelo_inurba_marseille","lat":43.29423,"lon":5.39399,"is_reserved":false,"is_disabled":false,"rental_uris":{"android":"levelo://app?vid=e49fb349-10f0-4406-ac8a-76de68b428f5","ios":"levelo://app?vid=e49fb349-10f0-4406-ac8a-76de68b428f5"},"vehicle_type_id":"4","last_reported":1749903501,"current_range_meters":6800,"station_id":"","pricing_plan_id":"cebpf4jnsgd1na2vs0mg"},{"bike_id":"d432d44a-eb84-4238-9a30-4214751926e4","system_id":"levelo_inurba_marseille","lat":43.28734,"lon":5.37939,"is_reserved":false,"is_disabled":false,"rental_uris":{"android":"levelo://app?vid=d432d44a-eb84-4238-9a30-4214751926e4","ios":"levelo://app?vid=d432d44a-eb84-4238-9a30-4214751926e4"},"vehicle_type_id":"4","last_reported":1749903501,"current_range_meters":6800,"station_id":"ce4bh9p2rcd13ifvqec0","pricing_plan_id":"cebpf4jnsgd1na2vs0mg"},{"bike_id":"b80b56b7-db50-4ede-8864-e0dd55bb9642","system_id":"levelo_inurba_marseille","lat":43.28257,"lon":5.3507,"is_reserved":false,"is_disabled":false,"rental_uris":{"android":"levelo://app?vid=b80b56b7-db50-4ede-8864-e0dd55bb9642","ios":"levelo://app?vid=b80b56b7-db50-4ede-8864-e0dd55bb9642"},"vehicle_type_id":"4","last_reported":1749903501,"current_range_meters":6800,"station_id":"ce4bhbp2rcd13ifvqerg","pricing_plan_id":"cebpf4jnsgd1na2vs0mg"},{"bike_id":"5ed57907-0485-4fe1-8c45-5dc9c80992f8","system_id":"levelo_inurba_marseille","lat":43.28607,"lon":5.35101,"is_reserved":false,"is_disabled":false,"rental_uris":{"android":"levelo://app?vid=5ed57907-0485-4fe1-8c45-5dc9c80992f8","ios":"levelo://app?vid=5ed57907-0485-4fe1-8c45-5dc9c80992f8"},"vehicle_type_id":"4","last_reported":1749903501,"current_range_meters":6800,"station_id":"ce4bhch2rcd13ifvqeug","pricing_plan_id":"cebpf4jnsgd1na2vs0mg"},{"bike_id":"4c80ec6b-2610-40c0-b64d-ea273164c7d9","system_id":"levelo_inurba_marseille","lat":43.24387,"lon":5.3706,"is_reserved":false,"is_disabled":false,"rental_uris":{"android":"levelo://app?vid=4c80ec6b-2610-40c0-b64d-ea273164c7d9","ios":"levelo://app?vid=4c80ec6b-2610-40c0-b64d-ea273164c7d9"},"vehicle_type_id":"4","last_reported":1749903501,"current_range_meters":6800,"station_id":"ce4bhhh2rcd13ifvqfk0","pricing_plan_id":"cebpf4jnsgd1na2vs0mg"},{"bike_id":"0c94f3f7-de7f-4b8f-9d09-6c1be57e9809","system_id":"levelo_inurba_marseille","lat":43.2396,"lon":5.36635,"is_reserved":false,"is_disabled":false,"rental_uris":{"android":"levelo://app?vid=0c94f3f7-de7f-4b8f-9d09-6c1be57e9809","ios":"levelo://app?vid=0c94f3f7-de7f-4b8f-9d09-6c1be57e9809"},"vehicle_type_id":"4","last_reported":1749903501,"current_range_meters":6800,"station_id":"ce4bhi12rcd13ifvqfp0","pricing_plan_id":"cebpf4jnsgd1na2vs0mg"},{"bike_id":"1a02737e-1ddf-475d-9950-54127761b49d","system_id":"levelo_inurba_marseille","lat":43.29574,"lon":5.42343,"is_reserved":false,"is_disabled":false,"rental_uris":{"android":"levelo://app?vid=1a02737e-1ddf-475d-9950-54127761b49d","ios":"levelo://app?vid=1a02737e-1ddf-475d-9950-54127761b49d"},"vehicle_type_id":"4","last_reported":1749903501,"current_range_meters":6800,"station_id":"ce4bhph2rcd13ifvqhdg","pricing_plan_id":"cebpf4jnsgd1na2vs0mg"},{"bike_id":"e3406edc-d1c7-4a98-86c8-13dabb4dc158","system_id":"levelo_inurba_marseille","lat":43.23192,"lon":5.35563,"is_reserved":false,"is_disabled":false,"rental_uris":{"android":"levelo://app?vid=e3406edc-d1c7-4a98-86c8-13dabb4dc158","ios":"levelo://app?vid=e3406edc-d1c7-4a98-86c8-13dabb4dc158"},"vehicle_type_id":"4","last_reported":1749903501,"current_range_meters":6800,"station_id":"ce4bhu92rcd13ifvqi70","pricing_plan_id":"cebpf4jnsgd1na2vs0mg"},{"bike_id":"f7c744c9-5c5c-41e2-9efa-346e1bc6d149","system_id":"levelo_inurba_marseille","lat":43.211885,"lon":5.3508,"is_reserved":false,"is_disabled":false,"rental_uris":{"android":"levelo://app?vid=f7c744c9-5c5c-41e2-9efa-346e1bc6d149","ios":"levelo://app?vid=f7c744c9-5c5c-41e2-9efa-346e1bc6d149"},"vehicle_type_id":"4","last_reported":1749903501,"current_range_meters":6800,"station_id":"st_cvj6sg6p6f1abm77japg","pricing_plan_id":"cebpf4jnsgd1na2vs0mg"},{"bike_id":"270348f4-d1c3-48ca-8e51-b7cc6a7c798f","system_id":"levelo_inurba_marseille","lat":43.28942,"lon":5.39632,"is_reserved":false,"is_disabled":false,"rental_uris":{"android":"levelo://app?vid=270348f4-d1c3-48ca-8e51-b7cc6a7c798f","ios":"levelo://app?vid=270348f4-d1c3-48ca-8e51-b7cc6a7c798f"},"vehicle_type_id":"4","last_reported":1749903501,"current_range_meters":7200,"station_id":"ce4bh3h2rcd13ifvqdn0","pricing_plan_id":"cebpf4jnsgd1na2vs0mg"},{"bike_id":"7282d616-06ae-4a3b-bc18-686f09bb3262","system_id":"levelo_inurba_marseille","lat":43.32374,"lon":5.36726,"is_reserved":false,"is_disabled":false,"rental_uris":{"android":"levelo://app?vid=7282d616-06ae-4a3b-bc18-686f09bb3262","ios":"levelo://app?vid=7282d616-06ae-4a3b-bc18-686f09bb3262"},"vehicle_type_id":"4","last_reported":1749903501,"current_range_meters":7200,"station_id":"ce4bhsh2rcd13ifvqi2g","pricing_plan_id":"cebpf4jnsgd1na2vs0mg"},{"bike_id":"83a7d554-631f-42db-bf9e-ea3cc9fb1648","system_id":"levelo_inurba_marseille","lat":43.296298,"lon":5.405916,"is_reserved":false,"is_disabled":false,"rental_uris":{"android":"levelo://app?vid=83a7d554-631f-42db-bf9e-ea3cc9fb1648","ios":"levelo://app?vid=83a7d554-631f-42db-bf9e-ea3cc9fb1648"},"vehicle_type_id":"4","last_reported":1749903501,"current_range_meters":8000,"station_id":"ce4bh0h2rcd13ifvqd60","pricing_plan_id":"cebpf4jnsgd1na2vs0mg"},{"bike_id":"7396c242-852f-4c7a-8b76-83ab21e97224","system_id":"levelo_inurba_marseille","lat":43.285766,"lon":5.394994,"is_reserved":false,"is_disabled":false,"rental_uris":{"android":"levelo://app?vid=7396c242-852f-4c7a-8b76-83ab21e97224","ios":"levelo://app?vid=7396c242-852f-4c7a-8b76-83ab21e97224"},"vehicle_type_id":"4","last_reported":1749903501,"current_range_meters":8000,"station_id":"ce4bh292rcd13ifvqdg0","pricing_plan_id":"cebpf4jnsgd1na2vs0mg"},{"bike_id":"5cb289f6-e005-4f06-9468-56873a5e32db","system_id":"levelo_inurba_marseille","lat":43.2894,"lon":5.39633,"is_reserved":false,"is_disabled":false,"rental_uris":{"android":"levelo://app?vid=5cb289f6-e005-4f06-9468-56873a5e32db","ios":"levelo://app?vid=5cb289f6-e005-4f06-9468-56873a5e32db"},"vehicle_type_id":"4","last_reported":1749903501,"current_range_meters":8000,"station_id":"ce4bh3h2rcd13ifvqdn0","pricing_plan_id":"cebpf4jnsgd1na2vs0mg"},{"bike_id":"070e0edc-f5f8-4779-830e-dbbea6e14b86","system_id":"levelo_inurba_marseille","lat":43.28269,"lon":5.35065,"is_reserved":false,"is_disabled":false,"rental_uris":{"android":"levelo://app?vid=070e0edc-f5f8-4779-830e-dbbea6e14b86","ios":"levelo://app?vid=070e0edc-f5f8-4779-830e-dbbea6e14b86"},"vehicle_type_id":"4","last_reported":1749903501,"current_range_meters":8000,"station_id":"ce4bhbp2rcd13ifvqerg","pricing_plan_id":"cebpf4jnsgd1na2vs0mg"},{"bike_id":"4e2cccf3-ec68-41f3-89e4-29cddeb519b8","system_id":"levelo_inurba_marseille","lat":43.23148,"lon":5.43717,"is_reserved":false,"is_disabled":false,"rental_uris":{"android":"levelo://app?vid=4e2cccf3-ec68-41f3-89e4-29cddeb519b8","ios":"levelo://app?vid=4e2cccf3-ec68-41f3-89e4-29cddeb519b8"},"vehicle_type_id":"4","last_reported":1749903501,"current_range_meters":8000,"station_id":"ce4bhmp2rcd13ifvqgog","pricing_plan_id":"cebpf4jnsgd1na2vs0mg"},{"bike_id":"3ebcb526-9195-4257-ae10-ca7e45e1829a","system_id":"levelo_inurba_marseille","lat":43.23191,"lon":5.39995,"is_reserved":false,"is_disabled":false,"rental_uris":{"android":"levelo://app?vid=3ebcb526-9195-4257-ae10-ca7e45e1829a","ios":"levelo://app?vid=3ebcb526-9195-4257-ae10-ca7e45e1829a"},"vehicle_type_id":"4","last_reported":1749903501,"current_range_meters":8000,"station_id":"ce4bhn12rcd13ifvqgqg","pricing_plan_id":"cebpf4jnsgd1na2vs0mg"},{"bike_id":"e71e266f-2dde-4530-9202-49fff63784ba","system_id":"levelo_inurba_marseille","lat":43.23184,"lon":5.39979,"is_reserved":false,"is_disabled":false,"rental_uris":{"android":"levelo://app?vid=e71e266f-2dde-4530-9202-49fff63784ba","ios":"levelo://app?vid=e71e266f-2dde-4530-9202-49fff63784ba"},"vehicle_type_id":"4","last_reported":1749903501,"current_range_meters":8000,"station_id":"ce4bhn12rcd13ifvqgqg","pricing_plan_id":"cebpf4jnsgd1na2vs0mg"},{"bike_id":"346f3f80-6b15-4406-b905-bb78596f5bac","system_id":"levelo_inurba_marseille","lat":43.32361,"lon":5.36781,"is_reserved":false,"is_disabled":false,"rental_uris":{"android":"levelo://app?vid=346f3f80-6b15-4406-b905-bb78596f5bac","ios":"levelo://app?vid=346f3f80-6b15-4406-b905-bb78596f5bac"},"vehicle_type_id":"4","last_reported":1749903501,"current_range_meters":8000,"station_id":"ce4bhsh2rcd13ifvqi2g","pricing_plan_id":"cebpf4jnsgd1na2vs0mg"},{"bike_id":"5d833807-0158-47f7-a8de-c59bc79bf739","system_id":"levelo_inurba_marseille","lat":43.21748,"lon":5.34602,"is_reserved":false,"is_disabled":false,"rental_uris":{"android":"levelo://app?vid=5d833807-0158-47f7-a8de-c59bc79bf739","ios":"levelo://app?vid=5d833807-0158-47f7-a8de-c59bc79bf739"},"vehicle_type_id":"4","last_reported":1749903501,"current_range_meters":8000,"station_id":"st_cvj6r9ubvosntc0bgbag","pricing_plan_id":"cebpf4jnsgd1na2vs0mg"},{"bike_id":"06ac91d7-f970-4f94-919b-0e1f3889d810","system_id":"levelo_inurba_marseille","lat":43.21205,"lon":5.35117,"is_reserved":false,"is_disabled":false,"rental_uris":{"android":"levelo://app?vid=06ac91d7-f970-4f94-919b-0e1f3889d810","ios":"levelo://app?vid=06ac91d7-f970-4f94-919b-0e1f3889d810"},"vehicle_type_id":"4","last_reported":1749903501,"current_range_meters":8000,"station_id":"st_cvj6sg6p6f1abm77japg","pricing_plan_id":"cebpf4jnsgd1na2vs0mg"},{"bike_id":"611d3527-cdf7-477d-8a93-37a7e71a2477","system_id":"levelo_inurba_marseille","lat":43.21183,"lon":5.35086,"is_reserved":false,"is_disabled":false,"rental_uris":{"android":"levelo://app?vid=611d3527-cdf7-477d-8a93-37a7e71a2477","ios":"levelo://app?vid=611d3527-cdf7-477d-8a93-37a7e71a2477"},"vehicle_type_id":"4","last_reported":1749903501,"current_range_meters":8000,"station_id":"st_cvj6sg6p6f1abm77japg","pricing_plan_id":"cebpf4jnsgd1na2vs0mg"},{"bike_id":"d3f645d7-0fe8-4a59-b78b-62f966dba661","system_id":"levelo_inurba_marseille","lat":43.21193,"lon":5.35069,"is_reserved":false,"is_disabled":false,"rental_uris":{"android":"levelo://app?vid=d3f645d7-0fe8-4a59-b78b-62f966dba661","ios":"levelo://app?vid=d3f645d7-0fe8-4a59-b78b-62f966dba661"},"vehicle_type_id":"4","last_reported":1749903501,"current_range_meters":8000,"station_id":"st_cvj6sg6p6f1abm77japg","pricing_plan_id":"cebpf4jnsgd1na2vs0mg"},{"bike_id":"ade509fc-f7ac-44eb-bb0d-060c19c83be0","system_id":"levelo_inurba_marseille","lat":43.27381,"lon":5.36258,"is_reserved":false,"is_disabled":false,"rental_uris":{"android":"levelo://app?vid=ade509fc-f7ac-44eb-bb0d-060c19c83be0","ios":"levelo://app?vid=ade509fc-f7ac-44eb-bb0d-060c19c83be0"},"vehicle_type_id":"4","last_reported":1749903501,"current_range_meters":8400,"station_id":"ce4bhbh2rcd13ifvqeo0","pricing_plan_id":"cebpf4jnsgd1na2vs0mg"},{"bike_id":"507df63e-8236-4301-92ae-dea49bed4682","system_id":"levelo_inurba_marseille","lat":43.27373,"lon":5.36261,"is_reserved":false,"is_disabled":false,"rental_uris":{"android":"levelo://app?vid=507df63e-8236-4301-92ae-dea49bed4682","ios":"levelo://app?vid=507df63e-8236-4301-92ae-dea49bed4682"},"vehicle_type_id":"4","last_reported":1749903501,"current_range_meters":8400,"station_id":"ce4bhbh2rcd13ifvqeo0","pricing_plan_id":"cebpf4jnsgd1na2vs0mg"},{"bike_id":"f5eb1749-565e-4db9-8c53-654f6f73f16c","system_id":"levelo_inurba_marseille","lat":43.25505,"lon":5.37657,"is_reserved":false,"is_disabled":false,"rental_uris":{"android":"levelo://app?vid=f5eb1749-565e-4db9-8c53-654f6f73f16c","ios":"levelo://app?vid=f5eb1749-565e-4db9-8c53-654f6f73f16c"},"vehicle_type_id":"4","last_reported":1749903501,"current_range_meters":8400,"station_id":"ce4bhh12rcd13ifvqff0","pricing_plan_id":"cebpf4jnsgd1na2vs0mg"},{"bike_id":"707c42fc-8ca8-4508-9134-4de22c97e13d","system_id":"levelo_inurba_marseille","lat":43.21186,"lon":5.35073,"is_reserved":false,"is_disabled":false,"rental_uris":{"android":"levelo://app?vid=707c42fc-8ca8-4508-9134-4de22c97e13d","ios":"levelo://app?vid=707c42fc-8ca8-4508-9134-4de22c97e13d"},"vehicle_type_id":"4","last_reported":1749903501,"current_range_meters":8400,"station_id":"st_cvj6sg6p6f1abm77japg","pricing_plan_id":"cebpf4jnsgd1na2vs0mg"},{"bike_id":"62813162-aab6-47f7-ae4e-5f8a0b392519","system_id":"levelo_inurba_marseille","lat":43.24774,"lon":5.41175,"is_reserved":false,"is_disabled":false,"rental_uris":{"android":"levelo://app?vid=62813162-aab6-47f7-ae4e-5f8a0b392519","ios":"levelo://app?vid=62813162-aab6-47f7-ae4e-5f8a0b392519"},"vehicle_type_id":"4","last_reported":1749903501,"current_range_meters":8800,"station_id":"","pricing_plan_id":"cebpf4jnsgd1na2vs0mg"},{"bike_id":"6facbc0d-f1b5-4dc3-86d4-5c1204834925","system_id":"levelo_inurba_marseille","lat":43.28053,"lon":5.34796,"is_reserved":false,"is_disabled":false,"rental_uris":{"android":"levelo://app?vid=6facbc0d-f1b5-4dc3-86d4-5c1204834925","ios":"levelo://app?vid=6facbc0d-f1b5-4dc3-86d4-5c1204834925"},"vehicle_type_id":"4","last_reported":1749903501,"current_range_meters":8800,"station_id":"","pricing_plan_id":"cebpf4jnsgd1na2vs0mg"},{"bike_id":"71adbac8-4c53-41f5-9010-8e1ab23b7713","system_id":"levelo_inurba_marseille","lat":43.28667,"lon":5.38658,"is_reserved":false,"is_disabled":false,"rental_uris":{"android":"levelo://app?vid=71adbac8-4c53-41f5-9010-8e1ab23b7713","ios":"levelo://app?vid=71adbac8-4c53-41f5-9010-8e1ab23b7713"},"vehicle_type_id":"4","last_reported":1749903501,"current_range_meters":8800,"station_id":"ce4bh492rcd13ifvqdug","pricing_plan_id":"cebpf4jnsgd1na2vs0mg"},{"bike_id":"6e723a5a-4c97-41ff-9968-c738ef3191ab","system_id":"levelo_inurba_marseille","lat":43.28945,"lon":5.36396,"is_reserved":false,"is_disabled":false,"rental_uris":{"android":"levelo://app?vid=6e723a5a-4c97-41ff-9968-c738ef3191ab","ios":"levelo://app?vid=6e723a5a-4c97-41ff-9968-c738ef3191ab"},"vehicle_type_id":"4","last_reported":1749903501,"current_range_meters":8800,"station_id":"ce4bhc92rcd13ifvqetg","pricing_plan_id":"cebpf4jnsgd1na2vs0mg"},{"bike_id":"b646e413-efe6-4ca2-ae16-d6364755c043","system_id":"levelo_inurba_marseille","lat":43.24177,"lon":5.39732,"is_reserved":false,"is_disabled":false,"rental_uris":{"android":"levelo://app?vid=b646e413-efe6-4ca2-ae16-d6364755c043","ios":"levelo://app?vid=b646e413-efe6-4ca2-ae16-d6364755c043"},"vehicle_type_id":"4","last_reported":1749903501,"current_range_meters":8800,"station_id":"ce4bhn12rcd13ifvqgpg","pricing_plan_id":"cebpf4jnsgd1na2vs0mg"},{"bike_id":"4b543e03-70dc-45aa-9b58-e60a94500b7e","system_id":"levelo_inurba_marseille","lat":43.29445,"lon":5.37542,"is_reserved":false,"is_disabled":false,"rental_uris":{"android":"levelo://app?vid=4b543e03-70dc-45aa-9b58-e60a94500b7e","ios":"levelo://app?vid=4b543e03-70dc-45aa-9b58-e60a94500b7e"},"vehicle_type_id":"4","last_reported":1749903501,"current_range_meters":9200,"station_id":"","pricing_plan_id":"cebpf4jnsgd1na2vs0mg"},{"bike_id":"2914d63e-7231-4655-bd0b-4bd0d2837ebe","system_id":"levelo_inurba_marseille","lat":43.31518,"lon":5.37312,"is_reserved":false,"is_disabled":false,"rental_uris":{"android":"levelo://app?vid=2914d63e-7231-4655-bd0b-4bd0d2837ebe","ios":"levelo://app?vid=2914d63e-7231-4655-bd0b-4bd0d2837ebe"},"vehicle_type_id":"4","last_reported":1749903501,"current_range_meters":9200,"station_id":"ce4bgt12rcd13ifvqcd0","pricing_plan_id":"cebpf4jnsgd1na2vs0mg"},{"bike_id":"9b5d71f9-5511-4cfd-810f-2bda3970527b","system_id":"levelo_inurba_marseille","lat":43.25579,"lon":5.38249,"is_reserved":false,"is_disabled":false,"rental_uris":{"android":"levelo://app?vid=9b5d71f9-5511-4cfd-810f-2bda3970527b","ios":"levelo://app?vid=9b5d71f9-5511-4cfd-810f-2bda3970527b"},"vehicle_type_id":"4","last_reported":1749903501,"current_range_meters":9200,"station_id":"ce4bhih2rcd13ifvqfs0","pricing_plan_id":"cebpf4jnsgd1na2vs0mg"},{"bike_id":"7a37726e-be8a-4bdd-848c-4f5b3cae5103","system_id":"levelo_inurba_marseille","lat":43.24544,"lon":5.3953,"is_reserved":false,"is_disabled":false,"rental_uris":{"android":"levelo://app?vid=7a37726e-be8a-4bdd-848c-4f5b3cae5103","ios":"levelo://app?vid=7a37726e-be8a-4bdd-848c-4f5b3cae5103"},"vehicle_type_id":"4","last_reported":1749903501,"current_range_meters":9200,"station_id":"ce4bhlp2rcd13ifvqgjg","pricing_plan_id":"cebpf4jnsgd1na2vs0mg"},{"bike_id":"5893cc62-22b2-417c-9426-bd597cfe5453","system_id":"levelo_inurba_marseille","lat":43.25078,"lon":5.39519,"is_reserved":false,"is_disabled":false,"rental_uris":{"android":"levelo://app?vid=5893cc62-22b2-417c-9426-bd597cfe5453","ios":"levelo://app?vid=5893cc62-22b2-417c-9426-bd597cfe5453"},"vehicle_type_id":"4","last_reported":1749903501,"current_range_meters":9200,"station_id":"ce4bhm12rcd13ifvqgkg","pricing_plan_id":"cebpf4jnsgd1na2vs0mg"},{"bike_id":"326cc913-bdbc-48c2-9a88-414846f09512","system_id":"levelo_inurba_marseille","lat":43.32371,"lon":5.36796,"is_reserved":false,"is_disabled":false,"rental_uris":{"android":"levelo://app?vid=326cc913-bdbc-48c2-9a88-414846f09512","ios":"levelo://app?vid=326cc913-bdbc-48c2-9a88-414846f09512"},"vehicle_type_id":"4","last_reported":1749903501,"current_range_meters":9200,"station_id":"ce4bhsh2rcd13ifvqi2g","pricing_plan_id":"cebpf4jnsgd1na2vs0mg"},{"bike_id":"1e04ad1f-db47-457e-8af7-6f193bc3b4cf","system_id":"levelo_inurba_marseille","lat":43.25501,"lon":5.37645,"is_reserved":false,"is_disabled":false,"rental_uris":{"android":"levelo://app?vid=1e04ad1f-db47-457e-8af7-6f193bc3b4cf","ios":"levelo://app?vid=1e04ad1f-db47-457e-8af7-6f193bc3b4cf"},"vehicle_type_id":"4","last_reported":1749903501,"current_range_meters":9600,"station_id":"ce4bhh12rcd13ifvqff0","pricing_plan_id":"cebpf4jnsgd1na2vs0mg"},{"bike_id":"cf2eecfd-68cb-44cc-943a-6e29380a8e5e","system_id":"levelo_inurba_marseille","lat":43.29497,"lon":5.38696,"is_reserved":false,"is_disabled":false,"rental_uris":{"android":"levelo://app?vid=cf2eecfd-68cb-44cc-943a-6e29380a8e5e","ios":"levelo://app?vid=cf2eecfd-68cb-44cc-943a-6e29380a8e5e"},"vehicle_type_id":"4","last_reported":1749903501,"current_range_meters":10000,"station_id":"","pricing_plan_id":"cebpf4jnsgd1na2vs0mg"},{"bike_id":"1506a23d-0ea2-4e24-8cba-1f649f0157b8","system_id":"levelo_inurba_marseille","lat":43.26025,"lon":5.37553,"is_reserved":false,"is_disabled":false,"rental_uris":{"android":"levelo://app?vid=1506a23d-0ea2-4e24-8cba-1f649f0157b8","ios":"levelo://app?vid=1506a23d-0ea2-4e24-8cba-1f649f0157b8"},"vehicle_type_id":"4","last_reported":1749903501,"current_range_meters":10000,"station_id":"ce4bhgh2rcd13ifvqfa0","pricing_plan_id":"cebpf4jnsgd1na2vs0mg"},{"bike_id":"900653bd-48b1-4811-8560-9121b36feaf3","system_id":"levelo_inurba_marseille","lat":43.25104,"lon":5.40325,"is_reserved":false,"is_disabled":false,"rental_uris":{"android":"levelo://app?vid=900653bd-48b1-4811-8560-9121b36feaf3","ios":"levelo://app?vid=900653bd-48b1-4811-8560-9121b36feaf3"},"vehicle_type_id":"4","last_reported":1749903501,"current_range_meters":10000,"station_id":"ce4bhlh2rcd13ifvqgig","pricing_plan_id":"cebpf4jnsgd1na2vs0mg"},{"bike_id":"2ab31527-f915-4286-b3a0-0beafd2cdd50","system_id":"levelo_inurba_marseille","lat":43.30011,"lon":5.37009,"is_reserved":false,"is_disabled":false,"rental_uris":{"android":"levelo://app?vid=2ab31527-f915-4286-b3a0-0beafd2cdd50","ios":"levelo://app?vid=2ab31527-f915-4286-b3a0-0beafd2cdd50"},"vehicle_type_id":"4","last_reported":1749903501,"current_range_meters":10800,"station_id":"","pricing_plan_id":"cebpf4jnsgd1na2vs0mg"},{"bike_id":"87c270dc-4fcf-4263-8f57-a07ca944f869","system_id":"levelo_inurba_marseille","lat":43.31241,"lon":5.39495,"is_reserved":false,"is_disabled":false,"rental_uris":{"android":"levelo://app?vid=87c270dc-4fcf-4263-8f57-a07ca944f869","ios":"levelo://app?vid=87c270dc-4fcf-4263-8f57-a07ca944f869"},"vehicle_type_id":"4","last_reported":1749903501,"current_range_meters":10800,"station_id":"","pricing_plan_id":"cebpf4jnsgd1na2vs0mg"},{"bike_id":"83b5ae63-a8a0-49a2-8273-caec63f28fbe","system_id":"levelo_inurba_marseille","lat":43.28942,"lon":5.39632,"is_reserved":false,"is_disabled":false,"rental_uris":{"android":"levelo://app?vid=83b5ae63-a8a0-49a2-8273-caec63f28fbe","ios":"levelo://app?vid=83b5ae63-a8a0-49a2-8273-caec63f28fbe"},"vehicle_type_id":"4","last_reported":1749903501,"current_range_meters":10800,"station_id":"ce4bh3h2rcd13ifvqdn0","pricing_plan_id":"cebpf4jnsgd1na2vs0mg"},{"bike_id":"20da91cb-0a56-415d-8947-ac85b5116ceb","system_id":"levelo_inurba_marseille","lat":43.28672,"lon":5.36354,"is_reserved":false,"is_disabled":false,"rental_uris":{"android":"levelo://app?vid=20da91cb-0a56-415d-8947-ac85b5116ceb","ios":"levelo://app?vid=20da91cb-0a56-415d-8947-ac85b5116ceb"},"vehicle_type_id":"4","last_reported":1749903501,"current_range_meters":10800,"station_id":"ce4bhah2rcd13ifvqej0","pricing_plan_id":"cebpf4jnsgd1na2vs0mg"},{"bike_id":"70cd85db-4075-41dd-bea6-c8b0e99d9aa5","system_id":"levelo_inurba_marseille","lat":43.23964,"lon":5.3668,"is_reserved":false,"is_disabled":false,"rental_uris":{"android":"levelo://app?vid=70cd85db-4075-41dd-bea6-c8b0e99d9aa5","ios":"levelo://app?vid=70cd85db-4075-41dd-bea6-c8b0e99d9aa5"},"vehicle_type_id":"4","last_reported":1749903501,"current_range_meters":10800,"station_id":"ce4bhi12rcd13ifvqfp0","pricing_plan_id":"cebpf4jnsgd1na2vs0mg"},{"bike_id":"a8954901-1589-445b-9931-cba30ef9ff44","system_id":"levelo_inurba_marseille","lat":43.21194,"lon":5.35073,"is_reserved":false,"is_disabled":false,"rental_uris":{"android":"levelo://app?vid=a8954901-1589-445b-9931-cba30ef9ff44","ios":"levelo://app?vid=a8954901-1589-445b-9931-cba30ef9ff44"},"vehicle_type_id":"4","last_reported":1749903501,"current_range_meters":10800,"station_id":"st_cvj6sg6p6f1abm77japg","pricing_plan_id":"cebpf4jnsgd1na2vs0mg"},{"bike_id":"cde4e90c-03c5-4b29-aedc-c32f38b8659d","system_id":"levelo_inurba_marseille","lat":43.29926,"lon":5.37472,"is_reserved":false,"is_disabled":false,"rental_uris":{"android":"levelo://app?vid=cde4e90c-03c5-4b29-aedc-c32f38b8659d","ios":"levelo://app?vid=cde4e90c-03c5-4b29-aedc-c32f38b8659d"},"vehicle_type_id":"4","last_reported":1749903501,"current_range_meters":11200,"station_id":"ce4bgjh2rcd13ifvqbg0","pricing_plan_id":"cebpf4jnsgd1na2vs0mg"},{"bike_id":"68ddcaed-3b2f-45f3-a52e-d984d0b961af","system_id":"levelo_inurba_marseille","lat":43.24388,"lon":5.37059,"is_reserved":false,"is_disabled":false,"rental_uris":{"android":"levelo://app?vid=68ddcaed-3b2f-45f3-a52e-d984d0b961af","ios":"levelo://app?vid=68ddcaed-3b2f-45f3-a52e-d984d0b961af"},"vehicle_type_id":"4","last_reported":1749903501,"current_range_meters":11200,"station_id":"ce4bhhh2rcd13ifvqfk0","pricing_plan_id":"cebpf4jnsgd1na2vs0mg"},{"bike_id":"c668246c-155b-4b55-902a-e132d711d30b","system_id":"levelo_inurba_marseille","lat":43.24547,"lon":5.39524,"is_reserved":false,"is_disabled":false,"rental_uris":{"android":"levelo://app?vid=c668246c-155b-4b55-902a-e132d711d30b","ios":"levelo://app?vid=c668246c-155b-4b55-902a-e132d711d30b"},"vehicle_type_id":"4","last_reported":1749903501,"current_range_meters":11200,"station_id":"ce4bhlp2rcd13ifvqgjg","pricing_plan_id":"cebpf4jnsgd1na2vs0mg"},{"bike_id":"0afcb599-3d9f-4bc3-a6eb-ed35bcfdac84","system_id":"levelo_inurba_marseille","lat":43.23195,"lon":5.35554,"is_reserved":false,"is_disabled":false,"rental_uris":{"android":"levelo://app?vid=0afcb599-3d9f-4bc3-a6eb-ed35bcfdac84","ios":"levelo://app?vid=0afcb599-3d9f-4bc3-a6eb-ed35bcfdac84"},"vehicle_type_id":"4","last_reported":1749903501,"current_range_meters":11200,"station_id":"ce4bhu92rcd13ifvqi70","pricing_plan_id":"cebpf4jnsgd1na2vs0mg"},{"bike_id":"5851c98a-83b1-4c9f-8e56-cd99016685ae","system_id":"levelo_inurba_marseille","lat":43.21752,"lon":5.3461,"is_reserved":false,"is_disabled":false,"rental_uris":{"android":"levelo://app?vid=5851c98a-83b1-4c9f-8e56-cd99016685ae","ios":"levelo://app?vid=5851c98a-83b1-4c9f-8e56-cd99016685ae"},"vehicle_type_id":"4","last_reported":1749903501,"current_range_meters":11200,"station_id":"st_cvj6r9ubvosntc0bgbag","pricing_plan_id":"cebpf4jnsgd1na2vs0mg"},{"bike_id":"191524f3-267f-4467-9ea7-6cd874a9eea3","system_id":"levelo_inurba_marseille","lat":43.30412,"lon":5.41287,"is_reserved":false,"is_disabled":false,"rental_uris":{"android":"levelo://app?vid=191524f3-267f-4467-9ea7-6cd874a9eea3","ios":"levelo://app?vid=191524f3-267f-4467-9ea7-6cd874a9eea3"},"vehicle_type_id":"4","last_reported":1749903501,"current_range_meters":11600,"station_id":"ce4bhop2rcd13ifvqh8g","pricing_plan_id":"cebpf4jnsgd1na2vs0mg"},{"bike_id":"2a909ff3-158e-4089-9849-3eb5d0834555","system_id":"levelo_inurba_marseille","lat":43.2175,"lon":5.34598,"is_reserved":false,"is_disabled":false,"rental_uris":{"android":"levelo://app?vid=2a909ff3-158e-4089-9849-3eb5d0834555","ios":"levelo://app?vid=2a909ff3-158e-4089-9849-3eb5d0834555"},"vehicle_type_id":"4","last_reported":1749903501,"current_range_meters":11600,"station_id":"st_cvj6r9ubvosntc0bgbag","pricing_plan_id":"cebpf4jnsgd1na2vs0mg"},{"bike_id":"a5e103e7-2448-4bd1-809b-92ca4c8567c9","system_id":"levelo_inurba_marseille","lat":43.21747,"lon":5.345975,"is_reserved":false,"is_disabled":false,"rental_uris":{"android":"levelo://app?vid=a5e103e7-2448-4bd1-809b-92ca4c8567c9","ios":"levelo://app?vid=a5e103e7-2448-4bd1-809b-92ca4c8567c9"},"vehicle_type_id":"4","last_reported":1749903501,"current_range_meters":12000,"station_id":"st_cvj6r9ubvosntc0bgbag","pricing_plan_id":"cebpf4jnsgd1na2vs0mg"},{"bike_id":"6f6c185e-4175-49e0-a999-390c4f7e670a","system_id":"levelo_inurba_marseille","lat":43.21754,"lon":5.34607,"is_reserved":false,"is_disabled":false,"rental_uris":{"android":"levelo://app?vid=6f6c185e-4175-49e0-a999-390c4f7e670a","ios":"levelo://app?vid=6f6c185e-4175-49e0-a999-390c4f7e670a"},"vehicle_type_id":"4","last_reported":1749903501,"current_range_meters":12000,"station_id":"st_cvj6r9ubvosntc0bgbag","pricing_plan_id":"cebpf4jnsgd1na2vs0mg"},{"bike_id":"8e8899f0-4aff-43f9-9f62-ce6bf69d0612","system_id":"levelo_inurba_marseille","lat":43.31175,"lon":5.40182,"is_reserved":false,"is_disabled":false,"rental_uris":{"android":"levelo://app?vid=8e8899f0-4aff-43f9-9f62-ce6bf69d0612","ios":"levelo://app?vid=8e8899f0-4aff-43f9-9f62-ce6bf69d0612"},"vehicle_type_id":"4","last_reported":1749903501,"current_range_meters":12400,"station_id":"","pricing_plan_id":"cebpf4jnsgd1na2vs0mg"},{"bike_id":"ba97e250-1c21-47fd-a8b4-b96df7739116","system_id":"levelo_inurba_marseille","lat":43.30305,"lon":5.36886,"is_reserved":false,"is_disabled":false,"rental_uris":{"android":"levelo://app?vid=ba97e250-1c21-47fd-a8b4-b96df7739116","ios":"levelo://app?vid=ba97e250-1c21-47fd-a8b4-b96df7739116"},"vehicle_type_id":"4","last_reported":1749903501,"current_range_meters":12800,"station_id":"ce4bgqh2rcd13ifvqc5g","pricing_plan_id":"cebpf4jnsgd1na2vs0mg"},{"bike_id":"cb849aa6-bc75-4ced-acbc-b6b51c4bdcc9","system_id":"levelo_inurba_marseille","lat":43.29266,"lon":5.38438,"is_reserved":false,"is_disabled":false,"rental_uris":{"android":"levelo://app?vid=cb849aa6-bc75-4ced-acbc-b6b51c4bdcc9","ios":"levelo://app?vid=cb849aa6-bc75-4ced-acbc-b6b51c4bdcc9"},"vehicle_type_id":"4","last_reported":1749903501,"current_range_meters":12800,"station_id":"ce4bh692rcd13ifvqea0","pricing_plan_id":"cebpf4jnsgd1na2vs0mg"},{"bike_id":"88f15676-7cb1-403a-a028-2f1101361087","system_id":"levelo_inurba_marseille","lat":43.25493,"lon":5.37646,"is_reserved":false,"is_disabled":false,"rental_uris":{"android":"levelo://app?vid=88f15676-7cb1-403a-a028-2f1101361087","ios":"levelo://app?vid=88f15676-7cb1-403a-a028-2f1101361087"},"vehicle_type_id":"4","last_reported":1749903501,"current_range_meters":12800,"station_id":"ce4bhh12rcd13ifvqff0","pricing_plan_id":"cebpf4jnsgd1na2vs0mg"},{"bike_id":"f2404481-86a2-4ce2-81b9-adf96a84b46d","system_id":"levelo_inurba_marseille","lat":43.25104,"lon":5.39536,"is_reserved":false,"is_disabled":false,"rental_uris":{"android":"levelo://app?vid=f2404481-86a2-4ce2-81b9-adf96a84b46d","ios":"levelo://app?vid=f2404481-86a2-4ce2-81b9-adf96a84b46d"},"vehicle_type_id":"4","last_reported":1749903501,"current_range_meters":12800,"station_id":"ce4bhm12rcd13ifvqgkg","pricing_plan_id":"cebpf4jnsgd1na2vs0mg"},{"bike_id":"0b75b775-ccad-4cb5-90b0-a9571010b4d4","system_id":"levelo_inurba_marseille","lat":43.28423,"lon":5.34997,"is_reserved":false,"is_disabled":false,"rental_uris":{"android":"levelo://app?vid=0b75b775-ccad-4cb5-90b0-a9571010b4d4","ios":"levelo://app?vid=0b75b775-ccad-4cb5-90b0-a9571010b4d4"},"vehicle_type_id":"4","last_reported":1749903501,"current_range_meters":13600,"station_id":"ce4bhbh2rcd13ifvqepg","pricing_plan_id":"cebpf4jnsgd1na2vs0mg"},{"bike_id":"2eb2516b-5f9f-4f58-8493-07049b393727","system_id":"levelo_inurba_marseille","lat":43.33735,"lon":5.39183,"is_reserved":false,"is_disabled":false,"rental_uris":{"android":"levelo://app?vid=2eb2516b-5f9f-4f58-8493-07049b393727","ios":"levelo://app?vid=2eb2516b-5f9f-4f58-8493-07049b393727"},"vehicle_type_id":"4","last_reported":1749903501,"current_range_meters":13600,"station_id":"ce4bhr92rcd13ifvqhsg","pricing_plan_id":"cebpf4jnsgd1na2vs0mg"},{"bike_id":"8adaa07f-2212-4383-9d7e-d79b4b8bd61a","system_id":"levelo_inurba_marseille","lat":43.229858,"lon":5.353405,"is_reserved":false,"is_disabled":false,"rental_uris":{"android":"levelo://app?vid=8adaa07f-2212-4383-9d7e-d79b4b8bd61a","ios":"levelo://app?vid=8adaa07f-2212-4383-9d7e-d79b4b8bd61a"},"vehicle_type_id":"4","last_reported":1749903501,"current_range_meters":13600,"station_id":"cpo3532slgdg3j2ikp40","pricing_plan_id":"cebpf4jnsgd1na2vs0mg"},{"bike_id":"8cd62e92-49cd-4d38-ac02-fb37d2b4e358","system_id":"levelo_inurba_marseille","lat":43.21749,"lon":5.34609,"is_reserved":false,"is_disabled":false,"rental_uris":{"android":"levelo://app?vid=8cd62e92-49cd-4d38-ac02-fb37d2b4e358","ios":"levelo://app?vid=8cd62e92-49cd-4d38-ac02-fb37d2b4e358"},"vehicle_type_id":"4","last_reported":1749903501,"current_range_meters":13600,"station_id":"st_cvj6r9ubvosntc0bgbag","pricing_plan_id":"cebpf4jnsgd1na2vs0mg"},{"bike_id":"300f466f-ffc6-4394-acd1-1a4d925af8be","system_id":"levelo_inurba_marseille","lat":43.21743,"lon":5.34639,"is_reserved":false,"is_disabled":false,"rental_uris":{"android":"levelo://app?vid=300f466f-ffc6-4394-acd1-1a4d925af8be","ios":"levelo://app?vid=300f466f-ffc6-4394-acd1-1a4d925af8be"},"vehicle_type_id":"4","last_reported":1749903501,"current_range_meters":13600,"station_id":"st_cvj6r9ubvosntc0bgbag","pricing_plan_id":"cebpf4jnsgd1na2vs0mg"},{"bike_id":"53d60dcd-1322-451c-8d9c-54e0dde196be","system_id":"levelo_inurba_marseille","lat":43.21769,"lon":5.34583,"is_reserved":false,"is_disabled":false,"rental_uris":{"android":"levelo://app?vid=53d60dcd-1322-451c-8d9c-54e0dde196be","ios":"levelo://app?vid=53d60dcd-1322-451c-8d9c-54e0dde196be"},"vehicle_type_id":"4","last_reported":1749903501,"current_range_meters":13600,"station_id":"st_cvj6r9ubvosntc0bgbag","pricing_plan_id":"cebpf4jnsgd1na2vs0mg"},{"bike_id":"1332c47e-fec2-4ec3-ad8d-b7ae650eff54","system_id":"levelo_inurba_marseille","lat":43.29022,"lon":5.38135,"is_reserved":false,"is_disabled":false,"rental_uris":{"android":"levelo://app?vid=1332c47e-fec2-4ec3-ad8d-b7ae650eff54","ios":"levelo://app?vid=1332c47e-fec2-4ec3-ad8d-b7ae650eff54"},"vehicle_type_id":"4","last_reported":1749903501,"current_range_meters":14000,"station_id":"ce4bh4p2rcd13ifvqe1g","pricing_plan_id":"cebpf4jnsgd1na2vs0mg"},{"bike_id":"d255939d-c45c-4f99-ac28-3368d63d4e82","system_id":"levelo_inurba_marseille","lat":43.30322,"lon":5.40442,"is_reserved":false,"is_disabled":false,"rental_uris":{"android":"levelo://app?vid=d255939d-c45c-4f99-ac28-3368d63d4e82","ios":"levelo://app?vid=d255939d-c45c-4f99-ac28-3368d63d4e82"},"vehicle_type_id":"4","last_reported":1749903501,"current_range_meters":14400,"station_id":"ce4bh012rcd13ifvqd10","pricing_plan_id":"cebpf4jnsgd1na2vs0mg"},{"bike_id":"7bbea268-7e10-4726-af89-c73005574248","system_id":"levelo_inurba_marseille","lat":43.303759,"lon":5.424803,"is_reserved":false,"is_disabled":false,"rental_uris":{"android":"levelo://app?vid=7bbea268-7e10-4726-af89-c73005574248","ios":"levelo://app?vid=7bbea268-7e10-4726-af89-c73005574248"},"vehicle_type_id":"4","last_reported":1749903501,"current_range_meters":14400,"station_id":"ce4bhoh2rcd13ifvqh6g","pricing_plan_id":"cebpf4jnsgd1na2vs0mg"},{"bike_id":"ccb9975b-34a8-47da-b755-e17344ae18d3","system_id":"levelo_inurba_marseille","lat":43.23191,"lon":5.35556,"is_reserved":false,"is_disabled":false,"rental_uris":{"android":"levelo://app?vid=ccb9975b-34a8-47da-b755-e17344ae18d3","ios":"levelo://app?vid=ccb9975b-34a8-47da-b755-e17344ae18d3"},"vehicle_type_id":"4","last_reported":1749903501,"current_range_meters":14400,"station_id":"ce4bhu92rcd13ifvqi70","pricing_plan_id":"cebpf4jnsgd1na2vs0mg"},{"bike_id":"be903485-1894-4847-9a6e-f0a19742d2f1","system_id":"levelo_inurba_marseille","lat":43.28723,"lon":5.36084,"is_reserved":false,"is_disabled":false,"rental_uris":{"android":"levelo://app?vid=be903485-1894-4847-9a6e-f0a19742d2f1","ios":"levelo://app?vid=be903485-1894-4847-9a6e-f0a19742d2f1"},"vehicle_type_id":"4","last_reported":1749903501,"current_range_meters":14400,"station_id":"cki0cbj6b192h4jlfktg","pricing_plan_id":"cebpf4jnsgd1na2vs0mg"},{"bike_id":"5a21e497-33bb-4066-baf7-e010c7ab35fe","system_id":"levelo_inurba_marseille","lat":43.21198,"lon":5.35073,"is_reserved":false,"is_disabled":false,"rental_uris":{"android":"levelo://app?vid=5a21e497-33bb-4066-baf7-e010c7ab35fe","ios":"levelo://app?vid=5a21e497-33bb-4066-baf7-e010c7ab35fe"},"vehicle_type_id":"4","last_reported":1749903501,"current_range_meters":14400,"station_id":"st_cvj6sg6p6f1abm77japg","pricing_plan_id":"cebpf4jnsgd1na2vs0mg"},{"bike_id":"efd9c384-daa9-4013-b288-e4e1f794d48f","system_id":"levelo_inurba_marseille","lat":43.30036,"lon":5.40113,"is_reserved":false,"is_disabled":false,"rental_uris":{"android":"levelo://app?vid=efd9c384-daa9-4013-b288-e4e1f794d48f","ios":"levelo://app?vid=efd9c384-daa9-4013-b288-e4e1f794d48f"},"vehicle_type_id":"4","last_reported":1749903501,"current_range_meters":14800,"station_id":"","pricing_plan_id":"cebpf4jnsgd1na2vs0mg"},{"bike_id":"86864168-ee86-4757-8cdd-cb7362b87fee","system_id":"levelo_inurba_marseille","lat":43.26205,"lon":5.40386,"is_reserved":false,"is_disabled":false,"rental_uris":{"android":"levelo://app?vid=86864168-ee86-4757-8cdd-cb7362b87fee","ios":"levelo://app?vid=86864168-ee86-4757-8cdd-cb7362b87fee"},"vehicle_type_id":"4","last_reported":1749903501,"current_range_meters":14800,"station_id":"","pricing_plan_id":"cebpf4jnsgd1na2vs0mg"},{"bike_id":"d2729172-f4bf-4eb8-9964-c217269a3492","system_id":"levelo_inurba_marseille","lat":43.21192,"lon":5.35072,"is_reserved":false,"is_disabled":false,"rental_uris":{"android":"levelo://app?vid=d2729172-f4bf-4eb8-9964-c217269a3492","ios":"levelo://app?vid=d2729172-f4bf-4eb8-9964-c217269a3492"},"vehicle_type_id":"4","last_reported":1749903501,"current_range_meters":14800,"station_id":"","pricing_plan_id":"cebpf4jnsgd1na2vs0mg"},{"bike_id":"9c818a6e-93c2-406c-9bbf-4fec85d95b1a","system_id":"levelo_inurba_marseille","lat":43.2967,"lon":5.37682,"is_reserved":false,"is_disabled":false,"rental_uris":{"android":"levelo://app?vid=9c818a6e-93c2-406c-9bbf-4fec85d95b1a","ios":"levelo://app?vid=9c818a6e-93c2-406c-9bbf-4fec85d95b1a"},"vehicle_type_id":"4","last_reported":1749903501,"current_range_meters":14800,"station_id":"ce4bgkh2rcd13ifvqbl0","pricing_plan_id":"cebpf4jnsgd1na2vs0mg"},{"bike_id":"194985f0-5f42-48d5-bdf0-214ea2765269","system_id":"levelo_inurba_marseille","lat":43.22948,"lon":5.35365,"is_reserved":false,"is_disabled":false,"rental_uris":{"android":"levelo://app?vid=194985f0-5f42-48d5-bdf0-214ea2765269","ios":"levelo://app?vid=194985f0-5f42-48d5-bdf0-214ea2765269"},"vehicle_type_id":"4","last_reported":1749903501,"current_range_meters":14800,"station_id":"cpo3532slgdg3j2ikp40","pricing_plan_id":"cebpf4jnsgd1na2vs0mg"},{"bike_id":"a2b3914c-555b-49ef-be5c-1e734fa1d826","system_id":"levelo_inurba_marseille","lat":43.21192,"lon":5.35079,"is_reserved":false,"is_disabled":false,"rental_uris":{"android":"levelo://app?vid=a2b3914c-555b-49ef-be5c-1e734fa1d826","ios":"levelo://app?vid=a2b3914c-555b-49ef-be5c-1e734fa1d826"},"vehicle_type_id":"4","last_reported":1749903501,"current_range_meters":14800,"station_id":"st_cvj6sg6p6f1abm77japg","pricing_plan_id":"cebpf4jnsgd1na2vs0mg"},{"bike_id":"769efce4-375c-4934-a7cd-61de7e676910","system_id":"levelo_inurba_marseille","lat":43.21183,"lon":5.35072,"is_reserved":false,"is_disabled":false,"rental_uris":{"android":"levelo://app?vid=769efce4-375c-4934-a7cd-61de7e676910","ios":"levelo://app?vid=769efce4-375c-4934-a7cd-61de7e676910"},"vehicle_type_id":"4","last_reported":1749903501,"current_range_meters":14800,"station_id":"st_cvj6sg6p6f1abm77japg","pricing_plan_id":"cebpf4jnsgd1na2vs0mg"},{"bike_id":"bbae50e6-97cc-4981-9da8-21f734a299c3","system_id":"levelo_inurba_marseille","lat":43.24162,"lon":5.36401,"is_reserved":false,"is_disabled":false,"rental_uris":{"android":"levelo://app?vid=bbae50e6-97cc-4981-9da8-21f734a299c3","ios":"levelo://app?vid=bbae50e6-97cc-4981-9da8-21f734a299c3"},"vehicle_type_id":"4","last_reported":1749903501,"current_range_meters":15200,"station_id":"cpo36qri1sfpv3e86is0","pricing_plan_id":"cebpf4jnsgd1na2vs0mg"},{"bike_id":"bd081d41-5eed-4495-82ed-9e27cd112239","system_id":"levelo_inurba_marseille","lat":43.249488,"lon":5.396613,"is_reserved":false,"is_disabled":false,"rental_uris":{"android":"levelo://app?vid=bd081d41-5eed-4495-82ed-9e27cd112239","ios":"levelo://app?vid=bd081d41-5eed-4495-82ed-9e27cd112239"},"vehicle_type_id":"4","last_reported":1749903501,"current_range_meters":16000,"station_id":"","pricing_plan_id":"cebpf4jnsgd1na2vs0mg"},{"bike_id":"31cc2fe0-4c82-4db5-b5b9-e23726d1de63","system_id":"levelo_inurba_marseille","lat":43.28405,"lon":5.34982,"is_reserved":false,"is_disabled":false,"rental_uris":{"android":"levelo://app?vid=31cc2fe0-4c82-4db5-b5b9-e23726d1de63","ios":"levelo://app?vid=31cc2fe0-4c82-4db5-b5b9-e23726d1de63"},"vehicle_type_id":"4","last_reported":1749903501,"current_range_meters":16000,"station_id":"ce4bhbh2rcd13ifvqepg","pricing_plan_id":"cebpf4jnsgd1na2vs0mg"},{"bike_id":"09adbc8d-9d45-42ae-a2a6-573fb5902a81","system_id":"levelo_inurba_marseille","lat":43.2175,"lon":5.34602,"is_reserved":false,"is_disabled":false,"rental_uris":{"android":"levelo://app?vid=09adbc8d-9d45-42ae-a2a6-573fb5902a81","ios":"levelo://app?vid=09adbc8d-9d45-42ae-a2a6-573fb5902a81"},"vehicle_type_id":"4","last_reported":1749903501,"current_range_meters":16000,"station_id":"st_cvj6r9ubvosntc0bgbag","pricing_plan_id":"cebpf4jnsgd1na2vs0mg"},{"bike_id":"8cbf1c75-54a0-4ee2-baf6-f6eec1819703","system_id":"levelo_inurba_marseille","lat":43.21747,"lon":5.346,"is_reserved":false,"is_disabled":false,"rental_uris":{"android":"levelo://app?vid=8cbf1c75-54a0-4ee2-baf6-f6eec1819703","ios":"levelo://app?vid=8cbf1c75-54a0-4ee2-baf6-f6eec1819703"},"vehicle_type_id":"4","last_reported":1749903501,"current_range_meters":16000,"station_id":"st_cvj6r9ubvosntc0bgbag","pricing_plan_id":"cebpf4jnsgd1na2vs0mg"},{"bike_id":"7240a984-bb6d-4c3b-ab8d-aef55ac0bce8","system_id":"levelo_inurba_marseille","lat":43.21133,"lon":5.35141,"is_reserved":false,"is_disabled":false,"rental_uris":{"android":"levelo://app?vid=7240a984-bb6d-4c3b-ab8d-aef55ac0bce8","ios":"levelo://app?vid=7240a984-bb6d-4c3b-ab8d-aef55ac0bce8"},"vehicle_type_id":"4","last_reported":1749903501,"current_range_meters":16400,"station_id":"","pricing_plan_id":"cebpf4jnsgd1na2vs0mg"},{"bike_id":"a8283606-6fdf-49b2-991a-62bc6fc9988a","system_id":"levelo_inurba_marseille","lat":43.22513,"lon":5.34789,"is_reserved":false,"is_disabled":false,"rental_uris":{"android":"levelo://app?vid=a8283606-6fdf-49b2-991a-62bc6fc9988a","ios":"levelo://app?vid=a8283606-6fdf-49b2-991a-62bc6fc9988a"},"vehicle_type_id":"4","last_reported":1749903501,"current_range_meters":16400,"station_id":"","pricing_plan_id":"cebpf4jnsgd1na2vs0mg"},{"bike_id":"2ca1ab84-2a33-4ccf-bca6-842bea5d3fb6","system_id":"levelo_inurba_marseille","lat":43.26214,"lon":5.37459,"is_reserved":false,"is_disabled":false,"rental_uris":{"android":"levelo://app?vid=2ca1ab84-2a33-4ccf-bca6-842bea5d3fb6","ios":"levelo://app?vid=2ca1ab84-2a33-4ccf-bca6-842bea5d3fb6"},"vehicle_type_id":"4","last_reported":1749903501,"current_range_meters":16400,"station_id":"ce4bhgp2rcd13ifvqfc0","pricing_plan_id":"cebpf4jnsgd1na2vs0mg"},{"bike_id":"108df224-a9a1-40dd-bfd9-874deb063612","system_id":"levelo_inurba_marseille","lat":43.25081,"lon":5.39535,"is_reserved":false,"is_disabled":false,"rental_uris":{"android":"levelo://app?vid=108df224-a9a1-40dd-bfd9-874deb063612","ios":"levelo://app?vid=108df224-a9a1-40dd-bfd9-874deb063612"},"vehicle_type_id":"4","last_reported":1749903501,"current_range_meters":16400,"station_id":"ce4bhm12rcd13ifvqgkg","pricing_plan_id":"cebpf4jnsgd1na2vs0mg"},{"bike_id":"6b7fc9d7-28ff-4959-9fe0-d25309462ef8","system_id":"levelo_inurba_marseille","lat":43.25104,"lon":5.39528,"is_reserved":false,"is_disabled":false,"rental_uris":{"android":"levelo://app?vid=6b7fc9d7-28ff-4959-9fe0-d25309462ef8","ios":"levelo://app?vid=6b7fc9d7-28ff-4959-9fe0-d25309462ef8"},"vehicle_type_id":"4","last_reported":1749903501,"current_range_meters":16400,"station_id":"ce4bhm12rcd13ifvqgkg","pricing_plan_id":"cebpf4jnsgd1na2vs0mg"},{"bike_id":"e74cca96-a40f-43ff-b771-d6bc968c8004","system_id":"levelo_inurba_marseille","lat":43.23179,"lon":5.3555,"is_reserved":false,"is_disabled":false,"rental_uris":{"android":"levelo://app?vid=e74cca96-a40f-43ff-b771-d6bc968c8004","ios":"levelo://app?vid=e74cca96-a40f-43ff-b771-d6bc968c8004"},"vehicle_type_id":"4","last_reported":1749903501,"current_range_meters":16400,"station_id":"ce4bhu92rcd13ifvqi70","pricing_plan_id":"cebpf4jnsgd1na2vs0mg"},{"bike_id":"3ba53083-f560-4fb5-b3cc-01a71156c6ba","system_id":"levelo_inurba_marseille","lat":43.2319,"lon":5.35558,"is_reserved":false,"is_disabled":false,"rental_uris":{"android":"levelo://app?vid=3ba53083-f560-4fb5-b3cc-01a71156c6ba","ios":"levelo://app?vid=3ba53083-f560-4fb5-b3cc-01a71156c6ba"},"vehicle_type_id":"4","last_reported":1749903501,"current_range_meters":16400,"station_id":"ce4bhu92rcd13ifvqi70","pricing_plan_id":"cebpf4jnsgd1na2vs0mg"},{"bike_id":"02a55228-2765-4c22-837c-5038cf3477db","system_id":"levelo_inurba_marseille","lat":43.21747,"lon":5.34608,"is_reserved":false,"is_disabled":false,"rental_uris":{"android":"levelo://app?vid=02a55228-2765-4c22-837c-5038cf3477db","ios":"levelo://app?vid=02a55228-2765-4c22-837c-5038cf3477db"},"vehicle_type_id":"4","last_reported":1749903501,"current_range_meters":16400,"station_id":"st_cvj6r9ubvosntc0bgbag","pricing_plan_id":"cebpf4jnsgd1na2vs0mg"},{"bike_id":"33c88bcc-413d-4d54-bd30-5a2b999a43c0","system_id":"levelo_inurba_marseille","lat":43.21192,"lon":5.35081,"is_reserved":false,"is_disabled":false,"rental_uris":{"android":"levelo://app?vid=33c88bcc-413d-4d54-bd30-5a2b999a43c0","ios":"levelo://app?vid=33c88bcc-413d-4d54-bd30-5a2b999a43c0"},"vehicle_type_id":"4","last_reported":1749903501,"current_range_meters":16400,"station_id":"st_cvj6sg6p6f1abm77japg","pricing_plan_id":"cebpf4jnsgd1na2vs0mg"},{"bike_id":"4ba29d24-5e4a-40ac-a84e-db895f991e83","system_id":"levelo_inurba_marseille","lat":43.21186,"lon":5.35069,"is_reserved":false,"is_disabled":false,"rental_uris":{"android":"levelo://app?vid=4ba29d24-5e4a-40ac-a84e-db895f991e83","ios":"levelo://app?vid=4ba29d24-5e4a-40ac-a84e-db895f991e83"},"vehicle_type_id":"4","last_reported":1749903501,"current_range_meters":16400,"station_id":"st_cvj6sg6p6f1abm77japg","pricing_plan_id":"cebpf4jnsgd1na2vs0mg"},{"bike_id":"f262d696-be58-4008-9eab-52dcdad20dc2","system_id":"levelo_inurba_marseille","lat":43.337444,"lon":5.374475,"is_reserved":false,"is_disabled":false,"rental_uris":{"android":"levelo://app?vid=f262d696-be58-4008-9eab-52dcdad20dc2","ios":"levelo://app?vid=f262d696-be58-4008-9eab-52dcdad20dc2"},"vehicle_type_id":"4","last_reported":1749903501,"current_range_meters":16800,"station_id":"","pricing_plan_id":"cebpf4jnsgd1na2vs0mg"},{"bike_id":"4acc43a9-efed-4475-8e4e-b0e495d420fe","system_id":"levelo_inurba_marseille","lat":43.31488,"lon":5.3728,"is_reserved":false,"is_disabled":false,"rental_uris":{"android":"levelo://app?vid=4acc43a9-efed-4475-8e4e-b0e495d420fe","ios":"levelo://app?vid=4acc43a9-efed-4475-8e4e-b0e495d420fe"},"vehicle_type_id":"4","last_reported":1749903501,"current_range_meters":16800,"station_id":"ce4bgt12rcd13ifvqcd0","pricing_plan_id":"cebpf4jnsgd1na2vs0mg"},{"bike_id":"9ae0e9e8-776a-4f71-82de-e77467b0a22b","system_id":"levelo_inurba_marseille","lat":43.28854,"lon":5.3586,"is_reserved":false,"is_disabled":false,"rental_uris":{"android":"levelo://app?vid=9ae0e9e8-776a-4f71-82de-e77467b0a22b","ios":"levelo://app?vid=9ae0e9e8-776a-4f71-82de-e77467b0a22b"},"vehicle_type_id":"4","last_reported":1749903501,"current_range_meters":16800,"station_id":"ce4bhb12rcd13ifvqem0","pricing_plan_id":"cebpf4jnsgd1na2vs0mg"},{"bike_id":"4cf9b21e-2a73-45b8-bfb1-7431e263b59f","system_id":"levelo_inurba_marseille","lat":43.23178,"lon":5.3999,"is_reserved":false,"is_disabled":false,"rental_uris":{"android":"levelo://app?vid=4cf9b21e-2a73-45b8-bfb1-7431e263b59f","ios":"levelo://app?vid=4cf9b21e-2a73-45b8-bfb1-7431e263b59f"},"vehicle_type_id":"4","last_reported":1749903501,"current_range_meters":16800,"station_id":"ce4bhn12rcd13ifvqgqg","pricing_plan_id":"cebpf4jnsgd1na2vs0mg"},{"bike_id":"4dc47c4f-26fa-44d1-ae9c-d3d59f4b08a8","system_id":"levelo_inurba_marseille","lat":43.3172,"lon":5.42397,"is_reserved":false,"is_disabled":false,"rental_uris":{"android":"levelo://app?vid=4dc47c4f-26fa-44d1-ae9c-d3d59f4b08a8","ios":"levelo://app?vid=4dc47c4f-26fa-44d1-ae9c-d3d59f4b08a8"},"vehicle_type_id":"4","last_reported":1749903501,"current_range_meters":16800,"station_id":"ce4bhp92rcd13ifvqhbg","pricing_plan_id":"cebpf4jnsgd1na2vs0mg"},{"bike_id":"c82f75f2-635c-40da-9f67-77d82cb74c97","system_id":"levelo_inurba_marseille","lat":43.21197,"lon":5.35063,"is_reserved":false,"is_disabled":false,"rental_uris":{"android":"levelo://app?vid=c82f75f2-635c-40da-9f67-77d82cb74c97","ios":"levelo://app?vid=c82f75f2-635c-40da-9f67-77d82cb74c97"},"vehicle_type_id":"4","last_reported":1749903501,"current_range_meters":16800,"station_id":"st_cvj6sg6p6f1abm77japg","pricing_plan_id":"cebpf4jnsgd1na2vs0mg"},{"bike_id":"bc30d468-d70f-4f69-a94e-604417200db6","system_id":"levelo_inurba_marseille","lat":43.2979,"lon":5.38068,"is_reserved":false,"is_disabled":false,"rental_uris":{"android":"levelo://app?vid=bc30d468-d70f-4f69-a94e-604417200db6","ios":"levelo://app?vid=bc30d468-d70f-4f69-a94e-604417200db6"},"vehicle_type_id":"4","last_reported":1749903501,"current_range_meters":17200,"station_id":"ce4bgip2rcd13ifvqbb0","pricing_plan_id":"cebpf4jnsgd1na2vs0mg"},{"bike_id":"67cd25f6-c125-4c30-92e3-d49379b132c9","system_id":"levelo_inurba_marseille","lat":43.2841,"lon":5.3752,"is_reserved":false,"is_disabled":false,"rental_uris":{"android":"levelo://app?vid=67cd25f6-c125-4c30-92e3-d49379b132c9","ios":"levelo://app?vid=67cd25f6-c125-4c30-92e3-d49379b132c9"},"vehicle_type_id":"4","last_reported":1749903501,"current_range_meters":17200,"station_id":"ce4bh412rcd13ifvqds0","pricing_plan_id":"cebpf4jnsgd1na2vs0mg"},{"bike_id":"0a7f3816-f824-4221-8cd0-caa09e173318","system_id":"levelo_inurba_marseille","lat":43.24178,"lon":5.39732,"is_reserved":false,"is_disabled":false,"rental_uris":{"android":"levelo://app?vid=0a7f3816-f824-4221-8cd0-caa09e173318","ios":"levelo://app?vid=0a7f3816-f824-4221-8cd0-caa09e173318"},"vehicle_type_id":"4","last_reported":1749903501,"current_range_meters":17200,"station_id":"ce4bhn12rcd13ifvqgpg","pricing_plan_id":"cebpf4jnsgd1na2vs0mg"},{"bike_id":"5f353e40-4803-4fdf-8981-ace7de31369b","system_id":"levelo_inurba_marseille","lat":43.2319,"lon":5.39974,"is_reserved":false,"is_disabled":false,"rental_uris":{"android":"levelo://app?vid=5f353e40-4803-4fdf-8981-ace7de31369b","ios":"levelo://app?vid=5f353e40-4803-4fdf-8981-ace7de31369b"},"vehicle_type_id":"4","last_reported":1749903501,"current_range_meters":17200,"station_id":"ce4bhn12rcd13ifvqgqg","pricing_plan_id":"cebpf4jnsgd1na2vs0mg"},{"bike_id":"2cf8fef9-3c36-4c67-a8de-84e157d87623","system_id":"levelo_inurba_marseille","lat":43.32061,"lon":5.41542,"is_reserved":false,"is_disabled":false,"rental_uris":{"android":"levelo://app?vid=2cf8fef9-3c36-4c67-a8de-84e157d87623","ios":"levelo://app?vid=2cf8fef9-3c36-4c67-a8de-84e157d87623"},"vehicle_type_id":"4","last_reported":1749903501,"current_range_meters":17200,"station_id":"ce4bhq92rcd13ifvqhkg","pricing_plan_id":"cebpf4jnsgd1na2vs0mg"},{"bike_id":"c33cb815-e727-4f14-b239-914bd226356a","system_id":"levelo_inurba_marseille","lat":43.23197,"lon":5.35547,"is_reserved":false,"is_disabled":false,"rental_uris":{"android":"levelo://app?vid=c33cb815-e727-4f14-b239-914bd226356a","ios":"levelo://app?vid=c33cb815-e727-4f14-b239-914bd226356a"},"vehicle_type_id":"4","last_reported":1749903501,"current_range_meters":17200,"station_id":"ce4bhu92rcd13ifvqi70","pricing_plan_id":"cebpf4jnsgd1na2vs0mg"},{"bike_id":"710d97cb-5291-4f9c-8a23-d89c0b627fd7","system_id":"levelo_inurba_marseille","lat":43.24174,"lon":5.36427,"is_reserved":false,"is_disabled":false,"rental_uris":{"android":"levelo://app?vid=710d97cb-5291-4f9c-8a23-d89c0b627fd7","ios":"levelo://app?vid=710d97cb-5291-4f9c-8a23-d89c0b627fd7"},"vehicle_type_id":"4","last_reported":1749903501,"current_range_meters":17200,"station_id":"cpo36qri1sfpv3e86is0","pricing_plan_id":"cebpf4jnsgd1na2vs0mg"},{"bike_id":"bbf0c2a5-4408-4977-9433-abc948badb61","system_id":"levelo_inurba_marseille","lat":43.217497,"lon":5.346008,"is_reserved":false,"is_disabled":false,"rental_uris":{"android":"levelo://app?vid=bbf0c2a5-4408-4977-9433-abc948badb61","ios":"levelo://app?vid=bbf0c2a5-4408-4977-9433-abc948badb61"},"vehicle_type_id":"4","last_reported":1749903501,"current_range_meters":17200,"station_id":"st_cvj6r9ubvosntc0bgbag","pricing_plan_id":"cebpf4jnsgd1na2vs0mg"},{"bike_id":"74f6bbd0-5c81-4ac4-b714-3086aa40f53c","system_id":"levelo_inurba_marseille","lat":43.21204,"lon":5.35059,"is_reserved":false,"is_disabled":false,"rental_uris":{"android":"levelo://app?vid=74f6bbd0-5c81-4ac4-b714-3086aa40f53c","ios":"levelo://app?vid=74f6bbd0-5c81-4ac4-b714-3086aa40f53c"},"vehicle_type_id":"4","last_reported":1749903501,"current_range_meters":17200,"station_id":"st_cvj6sg6p6f1abm77japg","pricing_plan_id":"cebpf4jnsgd1na2vs0mg"},{"bike_id":"f8187bee-7f1b-4343-b08b-61e5920a1051","system_id":"levelo_inurba_marseille","lat":43.284828,"lon":5.384107,"is_reserved":false,"is_disabled":false,"rental_uris":{"android":"levelo://app?vid=f8187bee-7f1b-4343-b08b-61e5920a1051","ios":"levelo://app?vid=f8187bee-7f1b-4343-b08b-61e5920a1051"},"vehicle_type_id":"4","last_reported":1749903501,"current_range_meters":17600,"station_id":"ce4bh512rcd13ifvqe3g","pricing_plan_id":"cebpf4jnsgd1na2vs0mg"},{"bike_id":"854d7471-15f0-4e4a-9314-3a60aa0f109d","system_id":"levelo_inurba_marseille","lat":43.26512,"lon":5.3953,"is_reserved":false,"is_disabled":false,"rental_uris":{"android":"levelo://app?vid=854d7471-15f0-4e4a-9314-3a60aa0f109d","ios":"levelo://app?vid=854d7471-15f0-4e4a-9314-3a60aa0f109d"},"vehicle_type_id":"4","last_reported":1749903501,"current_range_meters":17600,"station_id":"ce4bhi12rcd13ifvqfq0","pricing_plan_id":"cebpf4jnsgd1na2vs0mg"},{"bike_id":"821ffeb7-504e-49a3-aa5e-ded90c45f20e","system_id":"levelo_inurba_marseille","lat":43.30408,"lon":5.41293,"is_reserved":false,"is_disabled":false,"rental_uris":{"android":"levelo://app?vid=821ffeb7-504e-49a3-aa5e-ded90c45f20e","ios":"levelo://app?vid=821ffeb7-504e-49a3-aa5e-ded90c45f20e"},"vehicle_type_id":"4","last_reported":1749903501,"current_range_meters":17600,"station_id":"ce4bhop2rcd13ifvqh8g","pricing_plan_id":"cebpf4jnsgd1na2vs0mg"},{"bike_id":"20ef58ae-9ad7-45d7-bac2-0cff36020328","system_id":"levelo_inurba_marseille","lat":43.21747,"lon":5.34605,"is_reserved":false,"is_disabled":false,"rental_uris":{"android":"levelo://app?vid=20ef58ae-9ad7-45d7-bac2-0cff36020328","ios":"levelo://app?vid=20ef58ae-9ad7-45d7-bac2-0cff36020328"},"vehicle_type_id":"4","last_reported":1749903501,"current_range_meters":17600,"station_id":"st_cvj6r9ubvosntc0bgbag","pricing_plan_id":"cebpf4jnsgd1na2vs0mg"},{"bike_id":"a123e9fa-df7d-41fb-b2d5-2e4e345456f9","system_id":"levelo_inurba_marseille","lat":43.25325,"lon":5.37455,"is_reserved":false,"is_disabled":false,"rental_uris":{"android":"levelo://app?vid=a123e9fa-df7d-41fb-b2d5-2e4e345456f9","ios":"levelo://app?vid=a123e9fa-df7d-41fb-b2d5-2e4e345456f9"},"vehicle_type_id":"4","last_reported":1749903501,"current_range_meters":18000,"station_id":"","pricing_plan_id":"cebpf4jnsgd1na2vs0mg"},{"bike_id":"a300b931-d0d8-415a-80cd-9f6e76c9476f","system_id":"levelo_inurba_marseille","lat":43.314914,"lon":5.373086,"is_reserved":false,"is_disabled":false,"rental_uris":{"android":"levelo://app?vid=a300b931-d0d8-415a-80cd-9f6e76c9476f","ios":"levelo://app?vid=a300b931-d0d8-415a-80cd-9f6e76c9476f"},"vehicle_type_id":"4","last_reported":1749903501,"current_range_meters":18000,"station_id":"ce4bgt12rcd13ifvqcd0","pricing_plan_id":"cebpf4jnsgd1na2vs0mg"},{"bike_id":"aa6de7a5-f282-4fe0-b6ce-7d8334725757","system_id":"levelo_inurba_marseille","lat":43.30948,"lon":5.39032,"is_reserved":false,"is_disabled":false,"rental_uris":{"android":"levelo://app?vid=aa6de7a5-f282-4fe0-b6ce-7d8334725757","ios":"levelo://app?vid=aa6de7a5-f282-4fe0-b6ce-7d8334725757"},"vehicle_type_id":"4","last_reported":1749903501,"current_range_meters":18000,"station_id":"ce4bgup2rcd13ifvqco0","pricing_plan_id":"cebpf4jnsgd1na2vs0mg"},{"bike_id":"0f078fff-74a0-4aa2-ae31-3f121d492513","system_id":"levelo_inurba_marseille","lat":43.26214,"lon":5.37441,"is_reserved":false,"is_disabled":false,"rental_uris":{"android":"levelo://app?vid=0f078fff-74a0-4aa2-ae31-3f121d492513","ios":"levelo://app?vid=0f078fff-74a0-4aa2-ae31-3f121d492513"},"vehicle_type_id":"4","last_reported":1749903501,"current_range_meters":18000,"station_id":"ce4bhgp2rcd13ifvqfc0","pricing_plan_id":"cebpf4jnsgd1na2vs0mg"},{"bike_id":"5685a42c-345d-476e-a13c-d40f07d0b31a","system_id":"levelo_inurba_marseille","lat":43.25498,"lon":5.37655,"is_reserved":false,"is_disabled":false,"rental_uris":{"android":"levelo://app?vid=5685a42c-345d-476e-a13c-d40f07d0b31a","ios":"levelo://app?vid=5685a42c-345d-476e-a13c-d40f07d0b31a"},"vehicle_type_id":"4","last_reported":1749903501,"current_range_meters":18000,"station_id":"ce4bhh12rcd13ifvqff0","pricing_plan_id":"cebpf4jnsgd1na2vs0mg"},{"bike_id":"467d05a9-392d-4a40-958b-8dea44948f48","system_id":"levelo_inurba_marseille","lat":43.24164,"lon":5.39748,"is_reserved":false,"is_disabled":false,"rental_uris":{"android":"levelo://app?vid=467d05a9-392d-4a40-958b-8dea44948f48","ios":"levelo://app?vid=467d05a9-392d-4a40-958b-8dea44948f48"},"vehicle_type_id":"4","last_reported":1749903501,"current_range_meters":18000,"station_id":"ce4bhn12rcd13ifvqgpg","pricing_plan_id":"cebpf4jnsgd1na2vs0mg"},{"bike_id":"7f093b94-2681-4360-b486-861c1a74d2c4","system_id":"levelo_inurba_marseille","lat":43.32098,"lon":5.36789,"is_reserved":false,"is_disabled":false,"rental_uris":{"android":"levelo://app?vid=7f093b94-2681-4360-b486-861c1a74d2c4","ios":"levelo://app?vid=7f093b94-2681-4360-b486-861c1a74d2c4"},"vehicle_type_id":"4","last_reported":1749903501,"current_range_meters":18000,"station_id":"ce4bhrh2rcd13ifvqhug","pricing_plan_id":"cebpf4jnsgd1na2vs0mg"},{"bike_id":"a42da83b-0754-4bfa-a338-c87ce1e67fe4","system_id":"levelo_inurba_marseille","lat":43.229278,"lon":5.353761,"is_reserved":false,"is_disabled":false,"rental_uris":{"android":"levelo://app?vid=a42da83b-0754-4bfa-a338-c87ce1e67fe4","ios":"levelo://app?vid=a42da83b-0754-4bfa-a338-c87ce1e67fe4"},"vehicle_type_id":"4","last_reported":1749903501,"current_range_meters":18000,"station_id":"cpo3532slgdg3j2ikp40","pricing_plan_id":"cebpf4jnsgd1na2vs0mg"},{"bike_id":"0e74a242-1a0e-4c83-b590-e40e1552f872","system_id":"levelo_inurba_marseille","lat":43.24154,"lon":5.3642,"is_reserved":false,"is_disabled":false,"rental_uris":{"android":"levelo://app?vid=0e74a242-1a0e-4c83-b590-e40e1552f872","ios":"levelo://app?vid=0e74a242-1a0e-4c83-b590-e40e1552f872"},"vehicle_type_id":"4","last_reported":1749903501,"current_range_meters":18000,"station_id":"cpo36qri1sfpv3e86is0","pricing_plan_id":"cebpf4jnsgd1na2vs0mg"},{"bike_id":"d4b34a25-9d65-4303-a062-172001801d12","system_id":"levelo_inurba_marseille","lat":43.27614,"lon":5.36117,"is_reserved":false,"is_disabled":false,"rental_uris":{"android":"levelo://app?vid=d4b34a25-9d65-4303-a062-172001801d12","ios":"levelo://app?vid=d4b34a25-9d65-4303-a062-172001801d12"},"vehicle_type_id":"4","last_reported":1749903501,"current_range_meters":18800,"station_id":"ce4bgj92rcd13ifvqbe0","pricing_plan_id":"cebpf4jnsgd1na2vs0mg"},{"bike_id":"2223a780-9c11-43a4-a961-a22a5eae6e8e","system_id":"levelo_inurba_marseille","lat":43.313277,"lon":5.396892,"is_reserved":false,"is_disabled":false,"rental_uris":{"android":"levelo://app?vid=2223a780-9c11-43a4-a961-a22a5eae6e8e","ios":"levelo://app?vid=2223a780-9c11-43a4-a961-a22a5eae6e8e"},"vehicle_type_id":"4","last_reported":1749903501,"current_range_meters":18800,"station_id":"ce4bgvp2rcd13ifvqcu0","pricing_plan_id":"cebpf4jnsgd1na2vs0mg"},{"bike_id":"f148e223-23a1-4eba-9dd8-74998b9e9c6b","system_id":"levelo_inurba_marseille","lat":43.25086,"lon":5.39529,"is_reserved":false,"is_disabled":false,"rental_uris":{"android":"levelo://app?vid=f148e223-23a1-4eba-9dd8-74998b9e9c6b","ios":"levelo://app?vid=f148e223-23a1-4eba-9dd8-74998b9e9c6b"},"vehicle_type_id":"4","last_reported":1749903501,"current_range_meters":18800,"station_id":"ce4bhm12rcd13ifvqgkg","pricing_plan_id":"cebpf4jnsgd1na2vs0mg"},{"bike_id":"af54e57f-f161-4317-9bd4-1d43f8702955","system_id":"levelo_inurba_marseille","lat":43.23197,"lon":5.35549,"is_reserved":false,"is_disabled":false,"rental_uris":{"android":"levelo://app?vid=af54e57f-f161-4317-9bd4-1d43f8702955","ios":"levelo://app?vid=af54e57f-f161-4317-9bd4-1d43f8702955"},"vehicle_type_id":"4","last_reported":1749903501,"current_range_meters":18800,"station_id":"ce4bhu92rcd13ifvqi70","pricing_plan_id":"cebpf4jnsgd1na2vs0mg"},{"bike_id":"b30d31de-1864-45d7-aa86-f9a24d7c08a0","system_id":"levelo_inurba_marseille","lat":43.21742,"lon":5.34604,"is_reserved":false,"is_disabled":false,"rental_uris":{"android":"levelo://app?vid=b30d31de-1864-45d7-aa86-f9a24d7c08a0","ios":"levelo://app?vid=b30d31de-1864-45d7-aa86-f9a24d7c08a0"},"vehicle_type_id":"4","last_reported":1749903501,"current_range_meters":18800,"station_id":"st_cvj6r9ubvosntc0bgbag","pricing_plan_id":"cebpf4jnsgd1na2vs0mg"},{"bike_id":"335e81a4-1e97-4cdb-b3bc-231c6a43ac9a","system_id":"levelo_inurba_marseille","lat":43.21747,"lon":5.34608,"is_reserved":false,"is_disabled":false,"rental_uris":{"android":"levelo://app?vid=335e81a4-1e97-4cdb-b3bc-231c6a43ac9a","ios":"levelo://app?vid=335e81a4-1e97-4cdb-b3bc-231c6a43ac9a"},"vehicle_type_id":"4","last_reported":1749903501,"current_range_meters":18800,"station_id":"st_cvj6r9ubvosntc0bgbag","pricing_plan_id":"cebpf4jnsgd1na2vs0mg"},{"bike_id":"3e232180-096e-45c2-8101-145150acb1d5","system_id":"levelo_inurba_marseille","lat":43.21195,"lon":5.35061,"is_reserved":false,"is_disabled":false,"rental_uris":{"android":"levelo://app?vid=3e232180-096e-45c2-8101-145150acb1d5","ios":"levelo://app?vid=3e232180-096e-45c2-8101-145150acb1d5"},"vehicle_type_id":"4","last_reported":1749903501,"current_range_meters":18800,"station_id":"st_cvj6sg6p6f1abm77japg","pricing_plan_id":"cebpf4jnsgd1na2vs0mg"},{"bike_id":"20f8039a-d4b6-41ba-9ae8-0254b5a0e6fa","system_id":"levelo_inurba_marseille","lat":43.337444,"lon":5.374475,"is_reserved":false,"is_disabled":false,"rental_uris":{"android":"levelo://app?vid=20f8039a-d4b6-41ba-9ae8-0254b5a0e6fa","ios":"levelo://app?vid=20f8039a-d4b6-41ba-9ae8-0254b5a0e6fa"},"vehicle_type_id":"4","last_reported":1749903501,"current_range_meters":19200,"station_id":"","pricing_plan_id":"cebpf4jnsgd1na2vs0mg"},{"bike_id":"680315c8-22ef-4510-8a35-718955523bcb","system_id":"levelo_inurba_marseille","lat":43.2931,"lon":5.3717,"is_reserved":false,"is_disabled":false,"rental_uris":{"android":"levelo://app?vid=680315c8-22ef-4510-8a35-718955523bcb","ios":"levelo://app?vid=680315c8-22ef-4510-8a35-718955523bcb"},"vehicle_type_id":"4","last_reported":1749903501,"current_range_meters":19200,"station_id":"ce4bgh92rcd13ifvqb40","pricing_plan_id":"cebpf4jnsgd1na2vs0mg"},{"bike_id":"3f7dbffe-941c-4b95-a8a0-fea76049e138","system_id":"levelo_inurba_marseille","lat":43.313434,"lon":5.367062,"is_reserved":false,"is_disabled":false,"rental_uris":{"android":"levelo://app?vid=3f7dbffe-941c-4b95-a8a0-fea76049e138","ios":"levelo://app?vid=3f7dbffe-941c-4b95-a8a0-fea76049e138"},"vehicle_type_id":"4","last_reported":1749903501,"current_range_meters":19200,"station_id":"ce4bgr92rcd13ifvqc6g","pricing_plan_id":"cebpf4jnsgd1na2vs0mg"},{"bike_id":"4faf5902-7580-4482-a01c-77fde37cb94e","system_id":"levelo_inurba_marseille","lat":43.28402,"lon":5.37517,"is_reserved":false,"is_disabled":false,"rental_uris":{"android":"levelo://app?vid=4faf5902-7580-4482-a01c-77fde37cb94e","ios":"levelo://app?vid=4faf5902-7580-4482-a01c-77fde37cb94e"},"vehicle_type_id":"4","last_reported":1749903501,"current_range_meters":19200,"station_id":"ce4bh412rcd13ifvqds0","pricing_plan_id":"cebpf4jnsgd1na2vs0mg"},{"bike_id":"498c5999-02a1-4286-bca5-dbf2766eec53","system_id":"levelo_inurba_marseille","lat":43.289397,"lon":5.363942,"is_reserved":false,"is_disabled":false,"rental_uris":{"android":"levelo://app?vid=498c5999-02a1-4286-bca5-dbf2766eec53","ios":"levelo://app?vid=498c5999-02a1-4286-bca5-dbf2766eec53"},"vehicle_type_id":"4","last_reported":1749903501,"current_range_meters":19200,"station_id":"ce4bha12rcd13ifvqef0","pricing_plan_id":"cebpf4jnsgd1na2vs0mg"},{"bike_id":"0b214f94-475b-4c56-b001-15dc0687c937","system_id":"levelo_inurba_marseille","lat":43.28283,"lon":5.35087,"is_reserved":false,"is_disabled":false,"rental_uris":{"android":"levelo://app?vid=0b214f94-475b-4c56-b001-15dc0687c937","ios":"levelo://app?vid=0b214f94-475b-4c56-b001-15dc0687c937"},"vehicle_type_id":"4","last_reported":1749903501,"current_range_meters":19200,"station_id":"ce4bhbp2rcd13ifvqerg","pricing_plan_id":"cebpf4jnsgd1na2vs0mg"},{"bike_id":"7d8866a6-d622-48d7-8de9-d869756b939a","system_id":"levelo_inurba_marseille","lat":43.2827,"lon":5.35058,"is_reserved":false,"is_disabled":false,"rental_uris":{"android":"levelo://app?vid=7d8866a6-d622-48d7-8de9-d869756b939a","ios":"levelo://app?vid=7d8866a6-d622-48d7-8de9-d869756b939a"},"vehicle_type_id":"4","last_reported":1749903501,"current_range_meters":19200,"station_id":"ce4bhbp2rcd13ifvqerg","pricing_plan_id":"cebpf4jnsgd1na2vs0mg"},{"bike_id":"d0b66533-2da4-4abc-a62e-6258a2bf4796","system_id":"levelo_inurba_marseille","lat":43.229265,"lon":5.353757,"is_reserved":false,"is_disabled":false,"rental_uris":{"android":"levelo://app?vid=d0b66533-2da4-4abc-a62e-6258a2bf4796","ios":"levelo://app?vid=d0b66533-2da4-4abc-a62e-6258a2bf4796"},"vehicle_type_id":"4","last_reported":1749903501,"current_range_meters":19600,"station_id":"ce4bgj92rcd13ifvqbe0","pricing_plan_id":"cebpf4jnsgd1na2vs0mg"},{"bike_id":"3756175f-8acc-4440-9626-971b3f103339","system_id":"levelo_inurba_marseille","lat":43.24185,"lon":5.3973,"is_reserved":false,"is_disabled":false,"rental_uris":{"android":"levelo://app?vid=3756175f-8acc-4440-9626-971b3f103339","ios":"levelo://app?vid=3756175f-8acc-4440-9626-971b3f103339"},"vehicle_type_id":"4","last_reported":1749903501,"current_range_meters":19600,"station_id":"ce4bhn12rcd13ifvqgpg","pricing_plan_id":"cebpf4jnsgd1na2vs0mg"},{"bike_id":"3dd96d40-41f0-4178-b123-5bf6087ebe03","system_id":"levelo_inurba_marseille","lat":43.21752,"lon":5.34616,"is_reserved":false,"is_disabled":false,"rental_uris":{"android":"levelo://app?vid=3dd96d40-41f0-4178-b123-5bf6087ebe03","ios":"levelo://app?vid=3dd96d40-41f0-4178-b123-5bf6087ebe03"},"vehicle_type_id":"4","last_reported":1749903501,"current_range_meters":19600,"station_id":"st_cvj6r9ubvosntc0bgbag","pricing_plan_id":"cebpf4jnsgd1na2vs0mg"},{"bike_id":"67d4735d-a812-4e55-90bc-5641f4e35931","system_id":"levelo_inurba_marseille","lat":43.21199,"lon":5.35065,"is_reserved":false,"is_disabled":false,"rental_uris":{"android":"levelo://app?vid=67d4735d-a812-4e55-90bc-5641f4e35931","ios":"levelo://app?vid=67d4735d-a812-4e55-90bc-5641f4e35931"},"vehicle_type_id":"4","last_reported":1749903501,"current_range_meters":19600,"station_id":"st_cvj6sg6p6f1abm77japg","pricing_plan_id":"cebpf4jnsgd1na2vs0mg"},{"bike_id":"aba65c02-808e-420d-9eb6-e1453dfa7033","system_id":"levelo_inurba_marseille","lat":43.21188,"lon":5.35075,"is_reserved":false,"is_disabled":false,"rental_uris":{"android":"levelo://app?vid=aba65c02-808e-420d-9eb6-e1453dfa7033","ios":"levelo://app?vid=aba65c02-808e-420d-9eb6-e1453dfa7033"},"vehicle_type_id":"4","last_reported":1749903501,"current_range_meters":19600,"station_id":"st_cvj6sg6p6f1abm77japg","pricing_plan_id":"cebpf4jnsgd1na2vs0mg"},{"bike_id":"15cdcc5d-fc73-4f86-b199-d1795f435fa4","system_id":"levelo_inurba_marseille","lat":43.21197,"lon":5.35077,"is_reserved":false,"is_disabled":false,"rental_uris":{"android":"levelo://app?vid=15cdcc5d-fc73-4f86-b199-d1795f435fa4","ios":"levelo://app?vid=15cdcc5d-fc73-4f86-b199-d1795f435fa4"},"vehicle_type_id":"4","last_reported":1749903501,"current_range_meters":19600,"station_id":"st_cvj6sg6p6f1abm77japg","pricing_plan_id":"cebpf4jnsgd1na2vs0mg"},{"bike_id":"826f0ca3-e5fc-4cf8-8696-cb1fe62172b3","system_id":"levelo_inurba_marseille","lat":43.2119,"lon":5.35076,"is_reserved":false,"is_disabled":false,"rental_uris":{"android":"levelo://app?vid=826f0ca3-e5fc-4cf8-8696-cb1fe62172b3","ios":"levelo://app?vid=826f0ca3-e5fc-4cf8-8696-cb1fe62172b3"},"vehicle_type_id":"4","last_reported":1749903501,"current_range_meters":20000,"station_id":"","pricing_plan_id":"cebpf4jnsgd1na2vs0mg"},{"bike_id":"0e21cac1-98b8-4c99-8b4a-1a663ddef1a9","system_id":"levelo_inurba_marseille","lat":43.30889,"lon":5.37191,"is_reserved":false,"is_disabled":false,"rental_uris":{"android":"levelo://app?vid=0e21cac1-98b8-4c99-8b4a-1a663ddef1a9","ios":"levelo://app?vid=0e21cac1-98b8-4c99-8b4a-1a663ddef1a9"},"vehicle_type_id":"4","last_reported":1749903501,"current_range_meters":20000,"station_id":"ce4bguh2rcd13ifvqckg","pricing_plan_id":"cebpf4jnsgd1na2vs0mg"},{"bike_id":"97593f22-ed05-465c-bf73-ede411e13a57","system_id":"levelo_inurba_marseille","lat":43.2604,"lon":5.37542,"is_reserved":false,"is_disabled":false,"rental_uris":{"android":"levelo://app?vid=97593f22-ed05-465c-bf73-ede411e13a57","ios":"levelo://app?vid=97593f22-ed05-465c-bf73-ede411e13a57"},"vehicle_type_id":"4","last_reported":1749903501,"current_range_meters":20000,"station_id":"ce4bhgh2rcd13ifvqfa0","pricing_plan_id":"cebpf4jnsgd1na2vs0mg"},{"bike_id":"1ad00a3b-64c4-4634-b943-13a7e934d5ea","system_id":"levelo_inurba_marseille","lat":43.25583,"lon":5.3823,"is_reserved":false,"is_disabled":false,"rental_uris":{"android":"levelo://app?vid=1ad00a3b-64c4-4634-b943-13a7e934d5ea","ios":"levelo://app?vid=1ad00a3b-64c4-4634-b943-13a7e934d5ea"},"vehicle_type_id":"4","last_reported":1749903501,"current_range_meters":20000,"station_id":"ce4bhih2rcd13ifvqfs0","pricing_plan_id":"cebpf4jnsgd1na2vs0mg"},{"bike_id":"0cf53d06-3d95-47d5-ba09-563a8f1a282c","system_id":"levelo_inurba_marseille","lat":43.30565,"lon":5.36539,"is_reserved":false,"is_disabled":false,"rental_uris":{"android":"levelo://app?vid=0cf53d06-3d95-47d5-ba09-563a8f1a282c","ios":"levelo://app?vid=0cf53d06-3d95-47d5-ba09-563a8f1a282c"},"vehicle_type_id":"4","last_reported":1749903501,"current_range_meters":20400,"station_id":"ce4bgs12rcd13ifvqcag","pricing_plan_id":"cebpf4jnsgd1na2vs0mg"},{"bike_id":"72ca6720-b990-4a8b-b44a-625dfa5c0734","system_id":"levelo_inurba_marseille","lat":43.30888,"lon":5.37191,"is_reserved":false,"is_disabled":false,"rental_uris":{"android":"levelo://app?vid=72ca6720-b990-4a8b-b44a-625dfa5c0734","ios":"levelo://app?vid=72ca6720-b990-4a8b-b44a-625dfa5c0734"},"vehicle_type_id":"4","last_reported":1749903501,"current_range_meters":20400,"station_id":"ce4bguh2rcd13ifvqckg","pricing_plan_id":"cebpf4jnsgd1na2vs0mg"},{"bike_id":"ce85335b-d952-474a-8ba6-0173565193d1","system_id":"levelo_inurba_marseille","lat":43.3133,"lon":5.39695,"is_reserved":false,"is_disabled":false,"rental_uris":{"android":"levelo://app?vid=ce85335b-d952-474a-8ba6-0173565193d1","ios":"levelo://app?vid=ce85335b-d952-474a-8ba6-0173565193d1"},"vehicle_type_id":"4","last_reported":1749903501,"current_range_meters":20400,"station_id":"ce4bgvp2rcd13ifvqcu0","pricing_plan_id":"cebpf4jnsgd1na2vs0mg"},{"bike_id":"b8b51955-3455-46bb-867c-3b60ec54072a","system_id":"levelo_inurba_marseille","lat":43.30356,"lon":5.41891,"is_reserved":false,"is_disabled":false,"rental_uris":{"android":"levelo://app?vid=b8b51955-3455-46bb-867c-3b60ec54072a","ios":"levelo://app?vid=b8b51955-3455-46bb-867c-3b60ec54072a"},"vehicle_type_id":"4","last_reported":1749903501,"current_range_meters":20400,"station_id":"ce4bhop2rcd13ifvqh7g","pricing_plan_id":"cebpf4jnsgd1na2vs0mg"},{"bike_id":"99e24852-98c0-4053-801c-515dce9e7878","system_id":"levelo_inurba_marseille","lat":43.21748,"lon":5.34607,"is_reserved":false,"is_disabled":false,"rental_uris":{"android":"levelo://app?vid=99e24852-98c0-4053-801c-515dce9e7878","ios":"levelo://app?vid=99e24852-98c0-4053-801c-515dce9e7878"},"vehicle_type_id":"4","last_reported":1749903501,"current_range_meters":20400,"station_id":"st_cvj6r9ubvosntc0bgbag","pricing_plan_id":"cebpf4jnsgd1na2vs0mg"},