{"last_updated":1732968967,"ttl":60,"version":"2.2","data":{"bikes":[{"bike_id":"c154376e-81a4-4c09-89dd-3a6cf12029e1","system_id":"levelo_inurba_marseille","lat":43.23055,"lon":5.35487,"is_reserved":false,"is_disabled":false,"rental_uris":{"android":"levelo://app?vid=c154376e-81a4-4c09-89dd-3a6cf12029e1","ios":"levelo://app?vid=c154376e-81a4-4c09-89dd-3a6cf12029e1"},"vehicle_type_id":"4","last_reported":1732968967,"current_range_meters":12400,"station_id":"cpo3342slgdg3j2ifvpg","pricing_plan_id":"cebpf4jnsgd1na2vs0mg"},{"bike_id":"865b459f-b09c-4154-8bac-e4abc3ea1c4c","system_id":"levelo_inurba_marseille","lat":43.28486,"lon":5.38565,"is_reserved":false,"is_disabled":false,"rental_uris":{"android":"levelo://app?vid=865b459f-b09c-4154-8bac-e4abc3ea1c4c","ios":"levelo://app?vid=865b459f-b09c-4154-8bac-e4abc3ea1c4c"},"vehicle_type_id":"4","last_reported":1732968967,"current_range_meters":32000,"station_id":"ce4bh8p2rcd13ifvqeb0","pricing_plan_id":"cebpf4jnsgd1na2vs0mg"},{"bike_id":"eda49a19-2d4a-4589-ada5-f68a13a20082","system_id":"levelo_inurba_marseille","lat":43.23956,"lon":5.43821,"is_reserved":false,"is_disabled":false,"rental_uris":{"android":"levelo://app?vid=eda49a19-2d4a-4589-ada5-f68a13a20082","ios":"levelo://app?vid=eda49a19-2d4a-4589-ada5-f68a13a20082"},"vehicle_type_id":"4","last_reported":1732968967,"current_range_meters":3600,"station_id":"","pricing_plan_id":"cebpf4jnsgd1na2vs0mg"},{"bike_id":"e63e0b36-0237-457c-b60c-4f8975789cfe","system_id":"levelo_inurba_marseille","lat":43.29708,"lon":5.37706,"is_reserved":false,"is_disabled":false,"rental_uris":{"android":"levelo://app?vid=e63e0b36-0237-457c-b60c-4f8975789cfe","ios":"levelo://app?vid=e63e0b36-0237-457c-b60c-4f8975789cfe"},"vehicle_type_id":"4","last_reported":1732968967,"current_range_meters":15200,"station_id":"ce4bgkh2rcd13ifvqbl0","pricing_plan_id":"cebpf4jnsgd1na2vs0mg"},{"bike_id":"b856c8b4-412d-4c25-bdd4-e6b29aed04cb","system_id":"levelo_inurba_marseille","lat":43.22933,"lon":5.35379,"is_reserved":false,"is_disabled":false,"rental_uris":{"android":"levelo://app?vid=b856c8b4-412d-4c25-bdd4-e6b29aed04cb","ios":"levelo://app?vid=b856c8b4-412d-4c25-bdd4-e6b29aed04cb"},"vehicle_type_id":"4","last_reported":1732968967,"current_range_meters":40000,"station_id":"cpo3532slgdg3j2ikp40","pricing_plan_id":"cebpf4jnsgd1na2vs0mg"},{"bike_id":"1d384318-5d19-4054-8f92-a217d07ded1f","system_id":"levelo_inurba_marseille","lat":43.29284,"lon":5.40119,"is_reserved":false,"is_disabled":false,"rental_uris":{"android":"levelo://app?vid=1d384318-5d19-4054-8f92-a217d07ded1f","ios":"levelo://app?vid=1d384318-5d19-4054-8f92-a217d07ded1f"},"vehicle_type_id":"4","last_reported":1732968967,"current_range_meters":31200,"station_id":"ce4bh312rcd13ifvqdk0","pricing_plan_id":"cebpf4jnsgd1na2vs0mg"},{"bike_id":"7ab5ca07-c9c4-44c3-b1bf-a9fe940ac72c","system_id":"levelo_inurba_marseille","lat":43.23054,"lon":5.35486,"is_reserved":false,"is_disabled":false,"rental_uris":{"android":"levelo://app?vid=7ab5ca07-c9c4-44c3-b1bf-a9fe940ac72c","ios":"levelo://app?vid=7ab5ca07-c9c4-44c3-b1bf-a9fe940ac72c"},"vehicle_type_id":"4","last_reported":1732968967,"current_range_meters":8000,"station_id":"cpo3342slgdg3j2ifvpg","pricing_plan_id":"cebpf4jnsgd1na2vs0mg"},{"bike_id":"ed481fc3-574e-44ef-a0c2-0d6c243a1514","system_id":"levelo_inurba_marseille","lat":43.33772,"lon":5.37428,"is_reserved":false,"is_disabled":false,"rental_uris":{"android":"levelo://app?vid=ed481fc3-574e-44ef-a0c2-0d6c243a1514","ios":"levelo://app?vid=ed481fc3-574e-44ef-a0c2-0d6c243a1514"},"vehicle_type_id":"4","last_reported":1732968967,"current_range_meters":38400,"station_id":"","pricing_plan_id":"cebpf4jnsgd1na2vs0mg"},{"bike_id":"84ccddc4-6681-44c8-bacd-154da9b78895","system_id":"levelo_inurba_marseille","lat":43.31716,"lon":5.42406,"is_reserved":false,"is_disabled":false,"rental_uris":{"android":"levelo://app?vid=84ccddc4-6681-44c8-bacd-154da9b78895","ios":"levelo://app?vid=84ccddc4-6681-44c8-bacd-154da9b78895"},"vehicle_type_id":"4","last_reported":1732968967,"current_range_meters":25200,"station_id":"ce4bhp92rcd13ifvqhbg","pricing_plan_id":"cebpf4jnsgd1na2vs0mg"},{"bike_id":"a7d0d175-2fce-4f38-8347-ea22b76f2ef6","system_id":"levelo_inurba_marseille","lat":43.30894,"lon":5.36846,"is_reserved":false,"is_disabled":false,"rental_uris":{"android":"levelo://app?vid=a7d0d175-2fce-4f38-8347-ea22b76f2ef6","ios":"levelo://app?vid=a7d0d175-2fce-4f38-8347-ea22b76f2ef6"},"vehicle_type_id":"4","last_reported":1732968967,"current_range_meters":16400,"station_id":"ce4bgn92rcd13ifvqbvg","pricing_plan_id":"cebpf4jnsgd1na2vs0mg"},{"bike_id":"f81f88bf-c809-4e8c-8740-6c8eaeab220c","system_id":"levelo_inurba_marseille","lat":43.31238,"lon":5.36878,"is_reserved":false,"is_disabled":false,"rental_uris":{"android":"levelo://app?vid=f81f88bf-c809-4e8c-8740-6c8eaeab220c","ios":"levelo://app?vid=f81f88bf-c809-4e8c-8740-6c8eaeab220c"},"vehicle_type_id":"4","last_reported":1732968967,"current_range_meters":38400,"station_id":"ce4bgl92rcd13ifvqbq0","pricing_plan_id":"cebpf4jnsgd1na2vs0mg"},{"bike_id":"b4dff160-c29b-4f81-82ac-fa7e366a7326","system_id":"levelo_inurba_marseille","lat":43.29301,"lon":5.37473,"is_reserved":false,"is_disabled":false,"rental_uris":{"android":"levelo://app?vid=b4dff160-c29b-4f81-82ac-fa7e366a7326","ios":"levelo://app?vid=b4dff160-c29b-4f81-82ac-fa7e366a7326"},"vehicle_type_id":"4","last_reported":1732968967,"current_range_meters":10800,"station_id":"ce4bgi12rcd13ifvqb70","pricing_plan_id":"cebpf4jnsgd1na2vs0mg"},{"bike_id":"6f692286-d8f1-47d7-afbe-9c21dd6c9ff2","system_id":"levelo_inurba_marseille","lat":43.23195,"lon":5.3556,"is_reserved":false,"is_disabled":false,"rental_uris":{"android":"levelo://app?vid=6f692286-d8f1-47d7-afbe-9c21dd6c9ff2","ios":"levelo://app?vid=6f692286-d8f1-47d7-afbe-9c21dd6c9ff2"},"vehicle_type_id":"4","last_reported":1732968967,"current_range_meters":8000,"station_id":"ce4bhu92rcd13ifvqi70","pricing_plan_id":"cebpf4jnsgd1na2vs0mg"},{"bike_id":"7974306f-50f1-4979-96e6-42a3a669c81a","system_id":"levelo_inurba_marseille","lat":43.32006,"lon":5.38157,"is_reserved":false,"is_disabled":false,"rental_uris":{"android":"levelo://app?vid=7974306f-50f1-4979-96e6-42a3a669c81a","ios":"levelo://app?vid=7974306f-50f1-4979-96e6-42a3a669c81a"},"vehicle_type_id":"4","last_reported":1732968967,"current_range_meters":10000,"station_id":"ce4bhr12rcd13ifvqhpg","pricing_plan_id":"cebpf4jnsgd1na2vs0mg"},{"bike_id":"fecd9bc6-9d9b-4c51-853a-785cf3cf9b4c","system_id":"levelo_inurba_marseille","lat":43.2737,"lon":5.3626,"is_reserved":false,"is_disabled":false,"rental_uris":{"android":"levelo://app?vid=fecd9bc6-9d9b-4c51-853a-785cf3cf9b4c","ios":"levelo://app?vid=fecd9bc6-9d9b-4c51-853a-785cf3cf9b4c"},"vehicle_type_id":"4","last_reported":1732968967,"current_range_meters":38800,"station_id":"ce4bhbh2rcd13ifvqeo0","pricing_plan_id":"cebpf4jnsgd1na2vs0mg"},{"bike_id":"03835d06-5e83-4a96-921b-060a631dbf38","system_id":"levelo_inurba_marseille","lat":43.29281,"lon":5.37442,"is_reserved":false,"is_disabled":false,"rental_uris":{"android":"levelo://app?vid=03835d06-5e83-4a96-921b-060a631dbf38","ios":"levelo://app?vid=03835d06-5e83-4a96-921b-060a631dbf38"},"vehicle_type_id":"4","last_reported":1732968967,"current_range_meters":39200,"station_id":"ce4bgi12rcd13ifvqb70","pricing_plan_id":"cebpf4jnsgd1na2vs0mg"},{"bike_id":"6b0b014c-c738-45e8-9760-5ff9f9d9daf3","system_id":"levelo_inurba_marseille","lat":43.26212,"lon":5.37437,"is_reserved":false,"is_disabled":false,"rental_uris":{"android":"levelo://app?vid=6b0b014c-c738-45e8-9760-5ff9f9d9daf3","ios":"levelo://app?vid=6b0b014c-c738-45e8-9760-5ff9f9d9daf3"},"vehicle_type_id":"4","last_reported":1732968967,"current_range_meters":9600,"station_id":"ce4bhgp2rcd13ifvqfc0","pricing_plan_id":"cebpf4jnsgd1na2vs0mg"},{"bike_id":"0527a17a-367c-44c9-99b3-4ef2e59a476a","system_id":"levelo_inurba_marseille","lat":43.29616,"lon":5.37722,"is_reserved":false,"is_disabled":false,"rental_uris":{"android":"levelo://app?vid=0527a17a-367c-44c9-99b3-4ef2e59a476a","ios":"levelo://app?vid=0527a17a-367c-44c9-99b3-4ef2e59a476a"},"vehicle_type_id":"4","last_reported":1732968967,"current_range_meters":36400,"station_id":"ce4bgi92rcd13ifvqb90","pricing_plan_id":"cebpf4jnsgd1na2vs0mg"},{"bike_id":"b85d4818-77bd-4b44-bef8-2371c8d3f3cd","system_id":"levelo_inurba_marseille","lat":43.30528,"lon":5.36709,"is_reserved":false,"is_disabled":false,"rental_uris":{"android":"levelo://app?vid=b85d4818-77bd-4b44-bef8-2371c8d3f3cd","ios":"levelo://app?vid=b85d4818-77bd-4b44-bef8-2371c8d3f3cd"},"vehicle_type_id":"4","last_reported":1732968967,"current_range_meters":37600,"station_id":"ce4bgrp2rcd13ifvqc9g","pricing_plan_id":"cebpf4jnsgd1na2vs0mg"},{"bike_id":"d77c8fa8-9230-4eda-bc9a-5b066cfdd6cc","system_id":"levelo_inurba_marseille","lat":43.25714,"lon":5.41109,"is_reserved":false,"is_disabled":false,"rental_uris":{"android":"levelo://app?vid=d77c8fa8-9230-4eda-bc9a-5b066cfdd6cc","ios":"levelo://app?vid=d77c8fa8-9230-4eda-bc9a-5b066cfdd6cc"},"vehicle_type_id":"4","last_reported":1732968967,"current_range_meters":22400,"station_id":"ce4bhkp2rcd13ifvqgd0","pricing_plan_id":"cebpf4jnsgd1na2vs0mg"},{"bike_id":"132c1aa2-f6cc-4cde-9bda-2bd4f12da939","system_id":"levelo_inurba_marseille","lat":43.30884,"lon":5.39644,"is_reserved":false,"is_disabled":false,"rental_uris":{"android":"levelo://app?vid=132c1aa2-f6cc-4cde-9bda-2bd4f12da939","ios":"levelo://app?vid=132c1aa2-f6cc-4cde-9bda-2bd4f12da939"},"vehicle_type_id":"4","last_reported":1732968967,"current_range_meters":39200,"station_id":"ce4bh012rcd13ifvqcv0","pricing_plan_id":"cebpf4jnsgd1na2vs0mg"},{"bike_id":"44f16cf6-56ca-494a-9d11-2e0807e1d80c","system_id":"levelo_inurba_marseille","lat":43.25502,"lon":5.37647,"is_reserved":false,"is_disabled":false,"rental_uris":{"android":"levelo://app?vid=44f16cf6-56ca-494a-9d11-2e0807e1d80c","ios":"levelo://app?vid=44f16cf6-56ca-494a-9d11-2e0807e1d80c"},"vehicle_type_id":"4","last_reported":1732968967,"current_range_meters":37600,"station_id":"ce4bhh12rcd13ifvqff0","pricing_plan_id":"cebpf4jnsgd1na2vs0mg"},{"bike_id":"b0bd4cdf-7308-45f0-8e99-a0d5811907ff","system_id":"levelo_inurba_marseille","lat":43.25446,"lon":5.38181,"is_reserved":false,"is_disabled":true,"rental_uris":{"android":"levelo://app?vid=b0bd4cdf-7308-45f0-8e99-a0d5811907ff","ios":"levelo://app?vid=b0bd4cdf-7308-45f0-8e99-a0d5811907ff"},"vehicle_type_id":"4","last_reported":1732968967,"current_range_meters":0,"station_id":"","pricing_plan_id":"cebpf4jnsgd1na2vs0mg"},{"bike_id":"f22a0bef-e906-4a07-953f-42af2ad52eb6","system_id":"levelo_inurba_marseille","lat":43.28463,"lon":5.38425,"is_reserved":false,"is_disabled":false,"rental_uris":{"android":"levelo://app?vid=f22a0bef-e906-4a07-953f-42af2ad52eb6","ios":"levelo://app?vid=f22a0bef-e906-4a07-953f-42af2ad52eb6"},"vehicle_type_id":"4","last_reported":1732968967,"current_range_meters":40000,"station_id":"ce4bh512rcd13ifvqe3g","pricing_plan_id":"cebpf4jnsgd1na2vs0mg"},{"bike_id":"c4a53c78-5239-4533-9cc7-6224f0957fc2","system_id":"levelo_inurba_marseille","lat":43.31227,"lon":5.36866,"is_reserved":false,"is_disabled":false,"rental_uris":{"android":"levelo://app?vid=c4a53c78-5239-4533-9cc7-6224f0957fc2","ios":"levelo://app?vid=c4a53c78-5239-4533-9cc7-6224f0957fc2"},"vehicle_type_id":"4","last_reported":1732968967,"current_range_meters":39200,"station_id":"ce4bgl92rcd13ifvqbq0","pricing_plan_id":"cebpf4jnsgd1na2vs0mg"},{"bike_id":"937fe8aa-b23a-43b5-b5ae-eabb105b4e91","system_id":"levelo_inurba_marseille","lat":43.27209,"lon":5.39181,"is_reserved":false,"is_disabled":false,"rental_uris":{"android":"levelo://app?vid=937fe8aa-b23a-43b5-b5ae-eabb105b4e91","ios":"levelo://app?vid=937fe8aa-b23a-43b5-b5ae-eabb105b4e91"},"vehicle_type_id":"4","last_reported":1732968967,"current_range_meters":26000,"station_id":"ce4bhhp2rcd13ifvqfm0","pricing_plan_id":"cebpf4jnsgd1na2vs0mg"},{"bike_id":"3c241112-0e96-425e-8646-c6f08bf02411","system_id":"levelo_inurba_marseille","lat":43.24654,"lon":5.38892,"is_reserved":false,"is_disabled":false,"rental_uris":{"android":"levelo://app?vid=3c241112-0e96-425e-8646-c6f08bf02411","ios":"levelo://app?vid=3c241112-0e96-425e-8646-c6f08bf02411"},"vehicle_type_id":"4","last_reported":1732968967,"current_range_meters":38800,"station_id":"ce4bhg12rcd13ifvqf60","pricing_plan_id":"cebpf4jnsgd1na2vs0mg"},{"bike_id":"6f7949e1-de87-4a49-8620-fec27e04447f","system_id":"levelo_inurba_marseille","lat":43.337333,"lon":5.391883,"is_reserved":false,"is_disabled":false,"rental_uris":{"android":"levelo://app?vid=6f7949e1-de87-4a49-8620-fec27e04447f","ios":"levelo://app?vid=6f7949e1-de87-4a49-8620-fec27e04447f"},"vehicle_type_id":"4","last_reported":1732968967,"current_range_meters":27600,"station_id":"ce4bhr92rcd13ifvqhsg","pricing_plan_id":"cebpf4jnsgd1na2vs0mg"},{"bike_id":"440cb15e-33be-4df8-8721-48d188434d9c","system_id":"levelo_inurba_marseille","lat":43.2466,"lon":5.38165,"is_reserved":false,"is_disabled":false,"rental_uris":{"android":"levelo://app?vid=440cb15e-33be-4df8-8721-48d188434d9c","ios":"levelo://app?vid=440cb15e-33be-4df8-8721-48d188434d9c"},"vehicle_type_id":"4","last_reported":1732968967,"current_range_meters":23200,"station_id":"ce4bhih2rcd13ifvqfr0","pricing_plan_id":"cebpf4jnsgd1na2vs0mg"},{"bike_id":"0f8831f8-9ed4-4dc0-ab99-356171cc93cb","system_id":"levelo_inurba_marseille","lat":43.29967,"lon":5.39703,"is_reserved":false,"is_disabled":false,"rental_uris":{"android":"levelo://app?vid=0f8831f8-9ed4-4dc0-ab99-356171cc93cb","ios":"levelo://app?vid=0f8831f8-9ed4-4dc0-ab99-356171cc93cb"},"vehicle_type_id":"4","last_reported":1732968967,"current_range_meters":38800,"station_id":"ce4bh0p2rcd13ifvqd70","pricing_plan_id":"cebpf4jnsgd1na2vs0mg"},{"bike_id":"7066298c-8444-4dbb-8e5a-afa45f0890f5","system_id":"levelo_inurba_marseille","lat":43.288581,"lon":5.393178,"is_reserved":false,"is_disabled":true,"rental_uris":{"android":"levelo://app?vid=7066298c-8444-4dbb-8e5a-afa45f0890f5","ios":"levelo://app?vid=7066298c-8444-4dbb-8e5a-afa45f0890f5"},"vehicle_type_id":"4","last_reported":1732968967,"current_range_meters":12400,"station_id":"ce4bh2p2rcd13ifvqdi0","pricing_plan_id":"cebpf4jnsgd1na2vs0mg"},{"bike_id":"79da6e11-068f-4f85-891a-bf5d6033ae1b","system_id":"levelo_inurba_marseille","lat":43.29197,"lon":5.393143,"is_reserved":false,"is_disabled":true,"rental_uris":{"android":"levelo://app?vid=79da6e11-068f-4f85-891a-bf5d6033ae1b","ios":"levelo://app?vid=79da6e11-068f-4f85-891a-bf5d6033ae1b"},"vehicle_type_id":"4","last_reported":1732968967,"current_range_meters":24800,"station_id":"ce4bh192rcd13ifvqdd0","pricing_plan_id":"cebpf4jnsgd1na2vs0mg"},{"bike_id":"ea65bc22-100f-4a7b-a38b-f2659223cf3d","system_id":"levelo_inurba_marseille","lat":43.319976,"lon":5.381488,"is_reserved":false,"is_disabled":false,"rental_uris":{"android":"levelo://app?vid=ea65bc22-100f-4a7b-a38b-f2659223cf3d","ios":"levelo://app?vid=ea65bc22-100f-4a7b-a38b-f2659223cf3d"},"vehicle_type_id":"4","last_reported":1732968967,"current_range_meters":6800,"station_id":"ce4bhr12rcd13ifvqhpg","pricing_plan_id":"cebpf4jnsgd1na2vs0mg"},{"bike_id":"b504bafc-85be-4cc1-8a20-55846ed6a601","system_id":"levelo_inurba_marseille","lat":43.30356,"lon":5.41877,"is_reserved":false,"is_disabled":false,"rental_uris":{"android":"levelo://app?vid=b504bafc-85be-4cc1-8a20-55846ed6a601","ios":"levelo://app?vid=b504bafc-85be-4cc1-8a20-55846ed6a601"},"vehicle_type_id":"4","last_reported":1732968967,"current_range_meters":33600,"station_id":"ce4bhop2rcd13ifvqh7g","pricing_plan_id":"cebpf4jnsgd1na2vs0mg"},{"bike_id":"f26bfa4f-1b03-4d40-bd8a-9396393c620d","system_id":"levelo_inurba_marseille","lat":43.25579,"lon":5.38239,"is_reserved":false,"is_disabled":false,"rental_uris":{"android":"levelo://app?vid=f26bfa4f-1b03-4d40-bd8a-9396393c620d","ios":"levelo://app?vid=f26bfa4f-1b03-4d40-bd8a-9396393c620d"},"vehicle_type_id":"4","last_reported":1732968967,"current_range_meters":39200,"station_id":"ce4bhih2rcd13ifvqfs0","pricing_plan_id":"cebpf4jnsgd1na2vs0mg"},{"bike_id":"e0a56adb-aed0-4a2f-8507-10676a253836","system_id":"levelo_inurba_marseille","lat":43.3264,"lon":5.40993,"is_reserved":false,"is_disabled":false,"rental_uris":{"android":"levelo://app?vid=e0a56adb-aed0-4a2f-8507-10676a253836","ios":"levelo://app?vid=e0a56adb-aed0-4a2f-8507-10676a253836"},"vehicle_type_id":"4","last_reported":1732968967,"current_range_meters":33200,"station_id":"ce4bhpp2rcd13ifvqhgg","pricing_plan_id":"cebpf4jnsgd1na2vs0mg"},{"bike_id":"8fc41d74-9629-4800-9712-ea7a43dd0f0c","system_id":"levelo_inurba_marseille","lat":43.28615,"lon":5.35103,"is_reserved":false,"is_disabled":false,"rental_uris":{"android":"levelo://app?vid=8fc41d74-9629-4800-9712-ea7a43dd0f0c","ios":"levelo://app?vid=8fc41d74-9629-4800-9712-ea7a43dd0f0c"},"vehicle_type_id":"4","last_reported":1732968967,"current_range_meters":12400,"station_id":"ce4bhch2rcd13ifvqeug","pricing_plan_id":"cebpf4jnsgd1na2vs0mg"},{"bike_id":"cab3444e-513a-4f81-9fcd-cf493e5e511b","system_id":"levelo_inurba_marseille","lat":43.28995,"lon":5.35624,"is_reserved":false,"is_disabled":false,"rental_uris":{"android":"levelo://app?vid=cab3444e-513a-4f81-9fcd-cf493e5e511b","ios":"levelo://app?vid=cab3444e-513a-4f81-9fcd-cf493e5e511b"},"vehicle_type_id":"4","last_reported":1732968967,"current_range_meters":40000,"station_id":"ce4bhb92rcd13ifvqen0","pricing_plan_id":"cebpf4jnsgd1na2vs0mg"},{"bike_id":"98037c3a-9b2c-4fc3-b5c9-984ee3607601","system_id":"levelo_inurba_marseille","lat":43.3236,"lon":5.36765,"is_reserved":false,"is_disabled":false,"rental_uris":{"android":"levelo://app?vid=98037c3a-9b2c-4fc3-b5c9-984ee3607601","ios":"levelo://app?vid=98037c3a-9b2c-4fc3-b5c9-984ee3607601"},"vehicle_type_id":"4","last_reported":1732968967,"current_range_meters":8400,"station_id":"ce4bhsh2rcd13ifvqi2g","pricing_plan_id":"cebpf4jnsgd1na2vs0mg"},{"bike_id":"81cd2d94-2ef5-4ab9-b23d-e33d2ba676a9","system_id":"levelo_inurba_marseille","lat":43.25002,"lon":5.38924,"is_reserved":false,"is_disabled":false,"rental_uris":{"android":"levelo://app?vid=81cd2d94-2ef5-4ab9-b23d-e33d2ba676a9","ios":"levelo://app?vid=81cd2d94-2ef5-4ab9-b23d-e33d2ba676a9"},"vehicle_type_id":"4","last_reported":1732968967,"current_range_meters":30400,"station_id":"ce4bhgp2rcd13ifvqfd0","pricing_plan_id":"cebpf4jnsgd1na2vs0mg"},{"bike_id":"6f26bdf7-cdf7-4edc-9c84-23237f5c52f9","system_id":"levelo_inurba_marseille","lat":43.29926,"lon":5.37466,"is_reserved":false,"is_disabled":false,"rental_uris":{"android":"levelo://app?vid=6f26bdf7-cdf7-4edc-9c84-23237f5c52f9","ios":"levelo://app?vid=6f26bdf7-cdf7-4edc-9c84-23237f5c52f9"},"vehicle_type_id":"4","last_reported":1732968967,"current_range_meters":39200,"station_id":"ce4bgjh2rcd13ifvqbg0","pricing_plan_id":"cebpf4jnsgd1na2vs0mg"},{"bike_id":"d1486dd5-23d4-40bc-bb61-4a3c8126196a","system_id":"levelo_inurba_marseille","lat":43.27367,"lon":5.36264,"is_reserved":false,"is_disabled":false,"rental_uris":{"android":"levelo://app?vid=d1486dd5-23d4-40bc-bb61-4a3c8126196a","ios":"levelo://app?vid=d1486dd5-23d4-40bc-bb61-4a3c8126196a"},"vehicle_type_id":"4","last_reported":1732968967,"current_range_meters":37600,"station_id":"ce4bhbh2rcd13ifvqeo0","pricing_plan_id":"cebpf4jnsgd1na2vs0mg"},{"bike_id":"8d04f02f-d227-4755-8001-37a91b33121e","system_id":"levelo_inurba_marseille","lat":43.25582,"lon":5.38236,"is_reserved":false,"is_disabled":false,"rental_uris":{"android":"levelo://app?vid=8d04f02f-d227-4755-8001-37a91b33121e","ios":"levelo://app?vid=8d04f02f-d227-4755-8001-37a91b33121e"},"vehicle_type_id":"4","last_reported":1732968967,"current_range_meters":30400,"station_id":"ce4bhih2rcd13ifvqfs0","pricing_plan_id":"cebpf4jnsgd1na2vs0mg"},{"bike_id":"d2f41cee-061b-429d-ae6d-119b46c11a1f","system_id":"levelo_inurba_marseille","lat":43.23194,"lon":5.35564,"is_reserved":false,"is_disabled":false,"rental_uris":{"android":"levelo://app?vid=d2f41cee-061b-429d-ae6d-119b46c11a1f","ios":"levelo://app?vid=d2f41cee-061b-429d-ae6d-119b46c11a1f"},"vehicle_type_id":"4","last_reported":1732968967,"current_range_meters":12800,"station_id":"ce4bhu92rcd13ifvqi70","pricing_plan_id":"cebpf4jnsgd1na2vs0mg"},{"bike_id":"d350231d-a46d-4666-ba51-f12c2e69a01c","system_id":"levelo_inurba_marseille","lat":43.25718,"lon":5.41113,"is_reserved":false,"is_disabled":false,"rental_uris":{"android":"levelo://app?vid=d350231d-a46d-4666-ba51-f12c2e69a01c","ios":"levelo://app?vid=d350231d-a46d-4666-ba51-f12c2e69a01c"},"vehicle_type_id":"4","last_reported":1732968967,"current_range_meters":39200,"station_id":"ce4bhkp2rcd13ifvqgd0","pricing_plan_id":"cebpf4jnsgd1na2vs0mg"},{"bike_id":"4cc51928-ab12-448d-b317-faa6404044c3","system_id":"levelo_inurba_marseille","lat":43.26211,"lon":5.37929,"is_reserved":false,"is_disabled":false,"rental_uris":{"android":"levelo://app?vid=4cc51928-ab12-448d-b317-faa6404044c3","ios":"levelo://app?vid=4cc51928-ab12-448d-b317-faa6404044c3"},"vehicle_type_id":"4","last_reported":1732968967,"current_range_meters":16400,"station_id":"ce4bhjp2rcd13ifvqg90","pricing_plan_id":"cebpf4jnsgd1na2vs0mg"},{"bike_id":"973568af-5e1b-4076-bd26-32e4e284fced","system_id":"levelo_inurba_marseille","lat":43.27184,"lon":5.40995,"is_reserved":false,"is_disabled":true,"rental_uris":{"android":"levelo://app?vid=973568af-5e1b-4076-bd26-32e4e284fced","ios":"levelo://app?vid=973568af-5e1b-4076-bd26-32e4e284fced"},"vehicle_type_id":"4","last_reported":1732968967,"current_range_meters":0,"station_id":"ce4bhl12rcd13ifvqgf0","pricing_plan_id":"cebpf4jnsgd1na2vs0mg"},{"bike_id":"9d22430f-206f-4dac-a138-8e0c20ce2558","system_id":"levelo_inurba_marseille","lat":43.2549,"lon":5.37647,"is_reserved":false,"is_disabled":false,"rental_uris":{"android":"levelo://app?vid=9d22430f-206f-4dac-a138-8e0c20ce2558","ios":"levelo://app?vid=9d22430f-206f-4dac-a138-8e0c20ce2558"},"vehicle_type_id":"4","last_reported":1732968967,"current_range_meters":33600,"station_id":"ce4bhh12rcd13ifvqff0","pricing_plan_id":"cebpf4jnsgd1na2vs0mg"},{"bike_id":"80d2731f-b906-4617-8ebf-25c514f46b29","system_id":"levelo_inurba_marseille","lat":43.22929,"lon":5.35379,"is_reserved":false,"is_disabled":false,"rental_uris":{"android":"levelo://app?vid=80d2731f-b906-4617-8ebf-25c514f46b29","ios":"levelo://app?vid=80d2731f-b906-4617-8ebf-25c514f46b29"},"vehicle_type_id":"4","last_reported":1732968967,"current_range_meters":17200,"station_id":"cpo3532slgdg3j2ikp40","pricing_plan_id":"cebpf4jnsgd1na2vs0mg"},{"bike_id":"8f41f0b4-b138-481b-9f18-f91850571565","system_id":"levelo_inurba_marseille","lat":43.3188,"lon":5.40731,"is_reserved":false,"is_disabled":false,"rental_uris":{"android":"levelo://app?vid=8f41f0b4-b138-481b-9f18-f91850571565","ios":"levelo://app?vid=8f41f0b4-b138-481b-9f18-f91850571565"},"vehicle_type_id":"4","last_reported":1732968967,"current_range_meters":38400,"station_id":"ce4bhq12rcd13ifvqhig","pricing_plan_id":"cebpf4jnsgd1na2vs0mg"},{"bike_id":"67fa2a9e-eed8-4ed6-bdd8-7d1023a52b4e","system_id":"levelo_inurba_marseille","lat":43.26937,"lon":5.38925,"is_reserved":false,"is_disabled":true,"rental_uris":{"android":"levelo://app?vid=67fa2a9e-eed8-4ed6-bdd8-7d1023a52b4e","ios":"levelo://app?vid=67fa2a9e-eed8-4ed6-bdd8-7d1023a52b4e"},"vehicle_type_id":"4","last_reported":1732968967,"current_range_meters":10000,"station_id":"ce4bhhh2rcd13ifvqfl0","pricing_plan_id":"cebpf4jnsgd1na2vs0mg"},{"bike_id":"3def1c4a-9fa4-45c4-9376-bb46467cbc83","system_id":"levelo_inurba_marseille","lat":43.298904,"lon":5.36541,"is_reserved":false,"is_disabled":false,"rental_uris":{"android":"levelo://app?vid=3def1c4a-9fa4-45c4-9376-bb46467cbc83","ios":"levelo://app?vid=3def1c4a-9fa4-45c4-9376-bb46467cbc83"},"vehicle_type_id":"4","last_reported":1732968967,"current_range_meters":21600,"station_id":"ce4bgm92rcd13ifvqbr0","pricing_plan_id":"cebpf4jnsgd1na2vs0mg"},{"bike_id":"668e2ee9-a198-4160-90ec-b474472e7019","system_id":"levelo_inurba_marseille","lat":43.3234,"lon":5.40614,"is_reserved":false,"is_disabled":false,"rental_uris":{"android":"levelo://app?vid=668e2ee9-a198-4160-90ec-b474472e7019","ios":"levelo://app?vid=668e2ee9-a198-4160-90ec-b474472e7019"},"vehicle_type_id":"4","last_reported":1732968967,"current_range_meters":26800,"station_id":"ce4bhq92rcd13ifvqhjg","pricing_plan_id":"cebpf4jnsgd1na2vs0mg"},{"bike_id":"94ddd20c-e5b2-4c73-a61a-2ac668abc7d2","system_id":"levelo_inurba_marseille","lat":43.32,"lon":5.38134,"is_reserved":false,"is_disabled":false,"rental_uris":{"android":"levelo://app?vid=94ddd20c-e5b2-4c73-a61a-2ac668abc7d2","ios":"levelo://app?vid=94ddd20c-e5b2-4c73-a61a-2ac668abc7d2"},"vehicle_type_id":"4","last_reported":1732968967,"current_range_meters":38800,"station_id":"ce4bhr12rcd13ifvqhpg","pricing_plan_id":"cebpf4jnsgd1na2vs0mg"},{"bike_id":"a2ac41da-6096-4fe3-9a6c-690722f4702a","system_id":"levelo_inurba_marseille","lat":43.24388,"lon":5.37065,"is_reserved":false,"is_disabled":false,"rental_uris":{"android":"levelo://app?vid=a2ac41da-6096-4fe3-9a6c-690722f4702a","ios":"levelo://app?vid=a2ac41da-6096-4fe3-9a6c-690722f4702a"},"vehicle_type_id":"4","last_reported":1732968967,"current_range_meters":7200,"station_id":"ce4bhhh2rcd13ifvqfk0","pricing_plan_id":"cebpf4jnsgd1na2vs0mg"},{"bike_id":"fe2c00d6-fab6-472b-887d-35960cae9038","system_id":"levelo_inurba_marseille","lat":43.25939,"lon":5.409,"is_reserved":false,"is_disabled":false,"rental_uris":{"android":"levelo://app?vid=fe2c00d6-fab6-472b-887d-35960cae9038","ios":"levelo://app?vid=fe2c00d6-fab6-472b-887d-35960cae9038"},"vehicle_type_id":"4","last_reported":1732968967,"current_range_meters":37600,"station_id":"ce4bhm92rcd13ifvqglg","pricing_plan_id":"cebpf4jnsgd1na2vs0mg"},{"bike_id":"41caa9ee-86f5-464c-8b22-d4d7c535acc8","system_id":"levelo_inurba_marseille","lat":43.28457,"lon":5.35891,"is_reserved":false,"is_disabled":true,"rental_uris":{"android":"levelo://app?vid=41caa9ee-86f5-464c-8b22-d4d7c535acc8","ios":"levelo://app?vid=41caa9ee-86f5-464c-8b22-d4d7c535acc8"},"vehicle_type_id":"4","last_reported":1732968967,"current_range_meters":6000,"station_id":"ce4bhah2rcd13ifvqei0","pricing_plan_id":"cebpf4jnsgd1na2vs0mg"},{"bike_id":"bc749360-3ce4-4dd6-a0ac-83aa82c323a7","system_id":"levelo_inurba_marseille","lat":43.28151,"lon":5.42636,"is_reserved":false,"is_disabled":true,"rental_uris":{"android":"levelo://app?vid=bc749360-3ce4-4dd6-a0ac-83aa82c323a7","ios":"levelo://app?vid=bc749360-3ce4-4dd6-a0ac-83aa82c323a7"},"vehicle_type_id":"4","last_reported":1732968967,"current_range_meters":36000,"station_id":"ce4bhnh2rcd13ifvqgug","pricing_plan_id":"cebpf4jnsgd1na2vs0mg"},{"bike_id":"a5083c7e-4a01-446d-8f78-53cc7c6d43ce","system_id":"levelo_inurba_marseille","lat":43.2319,"lon":5.35551,"is_reserved":false,"is_disabled":false,"rental_uris":{"android":"levelo://app?vid=a5083c7e-4a01-446d-8f78-53cc7c6d43ce","ios":"levelo://app?vid=a5083c7e-4a01-446d-8f78-53cc7c6d43ce"},"vehicle_type_id":"4","last_reported":1732968967,"current_range_meters":39200,"station_id":"ce4bhu92rcd13ifvqi70","pricing_plan_id":"cebpf4jnsgd1na2vs0mg"},{"bike_id":"4d4c884f-6933-49c0-8899-f9856d90f44d","system_id":"levelo_inurba_marseille","lat":43.29748,"lon":5.37971,"is_reserved":false,"is_disabled":true,"rental_uris":{"android":"levelo://app?vid=4d4c884f-6933-49c0-8899-f9856d90f44d","ios":"levelo://app?vid=4d4c884f-6933-49c0-8899-f9856d90f44d"},"vehicle_type_id":"4","last_reported":1732968967,"current_range_meters":0,"station_id":"","pricing_plan_id":"cebpf4jnsgd1na2vs0mg"},{"bike_id":"49383f8c-5e0c-4bb5-aa2b-e1c81f4536f3","system_id":"levelo_inurba_marseille","lat":43.32286,"lon":5.38267,"is_reserved":false,"is_disabled":false,"rental_uris":{"android":"levelo://app?vid=49383f8c-5e0c-4bb5-aa2b-e1c81f4536f3","ios":"levelo://app?vid=49383f8c-5e0c-4bb5-aa2b-e1c81f4536f3"},"vehicle_type_id":"4","last_reported":1732968967,"current_range_meters":35200,"station_id":"ce4bhr12rcd13ifvqhqg","pricing_plan_id":"cebpf4jnsgd1na2vs0mg"},{"bike_id":"4166630b-c6b0-41c8-9181-bcc3e1031696","system_id":"levelo_inurba_marseille","lat":43.25815,"lon":5.3945,"is_reserved":false,"is_disabled":false,"rental_uris":{"android":"levelo://app?vid=4166630b-c6b0-41c8-9181-bcc3e1031696","ios":"levelo://app?vid=4166630b-c6b0-41c8-9181-bcc3e1031696"},"vehicle_type_id":"4","last_reported":1732968967,"current_range_meters":39200,"station_id":"ce4bhip2rcd13ifvqft0","pricing_plan_id":"cebpf4jnsgd1na2vs0mg"},{"bike_id":"023087eb-5d73-4494-b28e-b66181884c68","system_id":"levelo_inurba_marseille","lat":43.29265,"lon":5.38445,"is_reserved":false,"is_disabled":false,"rental_uris":{"android":"levelo://app?vid=023087eb-5d73-4494-b28e-b66181884c68","ios":"levelo://app?vid=023087eb-5d73-4494-b28e-b66181884c68"},"vehicle_type_id":"4","last_reported":1732968967,"current_range_meters":18000,"station_id":"ce4bh692rcd13ifvqea0","pricing_plan_id":"cebpf4jnsgd1na2vs0mg"},{"bike_id":"27282aed-3d73-46ce-8c09-013e4c0cbfba","system_id":"levelo_inurba_marseille","lat":43.30096,"lon":5.39077,"is_reserved":false,"is_disabled":false,"rental_uris":{"android":"levelo://app?vid=27282aed-3d73-46ce-8c09-013e4c0cbfba","ios":"levelo://app?vid=27282aed-3d73-46ce-8c09-013e4c0cbfba"},"vehicle_type_id":"4","last_reported":1732968967,"current_range_meters":38800,"station_id":"ce4bh192rcd13ifvqdb0","pricing_plan_id":"cebpf4jnsgd1na2vs0mg"},{"bike_id":"9009be37-c6b1-406b-b0a8-fbab355f715e","system_id":"levelo_inurba_marseille","lat":43.33763,"lon":5.37495,"is_reserved":false,"is_disabled":false,"rental_uris":{"android":"levelo://app?vid=9009be37-c6b1-406b-b0a8-fbab355f715e","ios":"levelo://app?vid=9009be37-c6b1-406b-b0a8-fbab355f715e"},"vehicle_type_id":"4","last_reported":1732968967,"current_range_meters":36400,"station_id":"","pricing_plan_id":"cebpf4jnsgd1na2vs0mg"},{"bike_id":"3fd3c9e9-2a71-460f-909c-9685f3d1b7d4","system_id":"levelo_inurba_marseille","lat":43.25718,"lon":5.41113,"is_reserved":false,"is_disabled":false,"rental_uris":{"android":"levelo://app?vid=3fd3c9e9-2a71-460f-909c-9685f3d1b7d4","ios":"levelo://app?vid=3fd3c9e9-2a71-460f-909c-9685f3d1b7d4"},"vehicle_type_id":"4","last_reported":1732968967,"current_range_meters":26800,"station_id":"ce4bhkp2rcd13ifvqgd0","pricing_plan_id":"cebpf4jnsgd1na2vs0mg"},{"bike_id":"757d1ac1-59aa-484c-ba67-654cbb968cd5","system_id":"levelo_inurba_marseille","lat":43.29518,"lon":5.3904,"is_reserved":false,"is_disabled":false,"rental_uris":{"android":"levelo://app?vid=757d1ac1-59aa-484c-ba67-654cbb968cd5","ios":"levelo://app?vid=757d1ac1-59aa-484c-ba67-654cbb968cd5"},"vehicle_type_id":"4","last_reported":1732968967,"current_range_meters":32000,"station_id":"ce4bh3p2rcd13ifvqdp0","pricing_plan_id":"cebpf4jnsgd1na2vs0mg"},{"bike_id":"ac49fba4-30df-4893-b052-7d9d76fd86a2","system_id":"levelo_inurba_marseille","lat":43.29249,"lon":5.38432,"is_reserved":false,"is_disabled":true,"rental_uris":{"android":"levelo://app?vid=ac49fba4-30df-4893-b052-7d9d76fd86a2","ios":"levelo://app?vid=ac49fba4-30df-4893-b052-7d9d76fd86a2"},"vehicle_type_id":"4","last_reported":1732968967,"current_range_meters":23200,"station_id":"ce4bh692rcd13ifvqea0","pricing_plan_id":"cebpf4jnsgd1na2vs0mg"},{"bike_id":"e5d13301-b1b5-4f4c-b0b9-0e0ce528717b","system_id":"levelo_inurba_marseille","lat":43.30946,"lon":5.39037,"is_reserved":false,"is_disabled":true,"rental_uris":{"android":"levelo://app?vid=e5d13301-b1b5-4f4c-b0b9-0e0ce528717b","ios":"levelo://app?vid=e5d13301-b1b5-4f4c-b0b9-0e0ce528717b"},"vehicle_type_id":"4","last_reported":1732968967,"current_range_meters":12000,"station_id":"ce4bgup2rcd13ifvqco0","pricing_plan_id":"cebpf4jnsgd1na2vs0mg"},{"bike_id":"be1ea8ae-bb6c-4cc9-9878-4dd6e7c328d6","system_id":"levelo_inurba_marseille","lat":43.32106,"lon":5.36769,"is_reserved":false,"is_disabled":false,"rental_uris":{"android":"levelo://app?vid=be1ea8ae-bb6c-4cc9-9878-4dd6e7c328d6","ios":"levelo://app?vid=be1ea8ae-bb6c-4cc9-9878-4dd6e7c328d6"},"vehicle_type_id":"4","last_reported":1732968967,"current_range_meters":30800,"station_id":"ce4bhrh2rcd13ifvqhug","pricing_plan_id":"cebpf4jnsgd1na2vs0mg"},{"bike_id":"3abdb507-aca9-41cf-ab5c-c13fb795c3a0","system_id":"levelo_inurba_marseille","lat":43.284054,"lon":5.349836,"is_reserved":false,"is_disabled":true,"rental_uris":{"android":"levelo://app?vid=3abdb507-aca9-41cf-ab5c-c13fb795c3a0","ios":"levelo://app?vid=3abdb507-aca9-41cf-ab5c-c13fb795c3a0"},"vehicle_type_id":"4","last_reported":1732968967,"current_range_meters":38800,"station_id":"ce4bhbh2rcd13ifvqepg","pricing_plan_id":"cebpf4jnsgd1na2vs0mg"},{"bike_id":"659c3713-9f69-48d4-ab56-f16999acb99a","system_id":"levelo_inurba_marseille","lat":43.33019,"lon":5.39033,"is_reserved":false,"is_disabled":false,"rental_uris":{"android":"levelo://app?vid=659c3713-9f69-48d4-ab56-f16999acb99a","ios":"levelo://app?vid=659c3713-9f69-48d4-ab56-f16999acb99a"},"vehicle_type_id":"4","last_reported":1732968967,"current_range_meters":26800,"station_id":"ce4bhr92rcd13ifvqhrg","pricing_plan_id":"cebpf4jnsgd1na2vs0mg"},{"bike_id":"2cf2f8ec-726e-472d-9e6a-5340c092c453","system_id":"levelo_inurba_marseille","lat":43.29967,"lon":5.38504,"is_reserved":false,"is_disabled":false,"rental_uris":{"android":"levelo://app?vid=2cf2f8ec-726e-472d-9e6a-5340c092c453","ios":"levelo://app?vid=2cf2f8ec-726e-472d-9e6a-5340c092c453"},"vehicle_type_id":"4","last_reported":1732968967,"current_range_meters":11200,"station_id":"ce4bgj92rcd13ifvqbd0","pricing_plan_id":"cebpf4jnsgd1na2vs0mg"},{"bike_id":"57516422-900b-4fee-adbc-7ea31a53a248","system_id":"levelo_inurba_marseille","lat":43.25724,"lon":5.41105,"is_reserved":false,"is_disabled":true,"rental_uris":{"android":"levelo://app?vid=57516422-900b-4fee-adbc-7ea31a53a248","ios":"levelo://app?vid=57516422-900b-4fee-adbc-7ea31a53a248"},"vehicle_type_id":"4","last_reported":1732968967,"current_range_meters":400,"station_id":"ce4bhkp2rcd13ifvqgd0","pricing_plan_id":"cebpf4jnsgd1na2vs0mg"},{"bike_id":"d144d219-97ff-49cd-86b1-2756a635b9fa","system_id":"levelo_inurba_marseille","lat":43.287213,"lon":5.360768,"is_reserved":false,"is_disabled":false,"rental_uris":{"android":"levelo://app?vid=d144d219-97ff-49cd-86b1-2756a635b9fa","ios":"levelo://app?vid=d144d219-97ff-49cd-86b1-2756a635b9fa"},"vehicle_type_id":"4","last_reported":1732968967,"current_range_meters":22000,"station_id":"cki0cbj6b192h4jlfktg","pricing_plan_id":"cebpf4jnsgd1na2vs0mg"},{"bike_id":"d8893ea1-0749-47d0-bcb7-133a48050ff5","system_id":"levelo_inurba_marseille","lat":43.24651,"lon":5.38903,"is_reserved":false,"is_disabled":false,"rental_uris":{"android":"levelo://app?vid=d8893ea1-0749-47d0-bcb7-133a48050ff5","ios":"levelo://app?vid=d8893ea1-0749-47d0-bcb7-133a48050ff5"},"vehicle_type_id":"4","last_reported":1732968967,"current_range_meters":9600,"station_id":"ce4bhg12rcd13ifvqf60","pricing_plan_id":"cebpf4jnsgd1na2vs0mg"},{"bike_id":"460f622a-1436-4550-83d0-ec826cb96c62","system_id":"levelo_inurba_marseille","lat":43.28469,"lon":5.38412,"is_reserved":false,"is_disabled":false,"rental_uris":{"android":"levelo://app?vid=460f622a-1436-4550-83d0-ec826cb96c62","ios":"levelo://app?vid=460f622a-1436-4550-83d0-ec826cb96c62"},"vehicle_type_id":"4","last_reported":1732968967,"current_range_meters":26800,"station_id":"ce4bh512rcd13ifvqe3g","pricing_plan_id":"cebpf4jnsgd1na2vs0mg"},{"bike_id":"886ec63f-d5a1-4a1a-ba68-c525d37258f9","system_id":"levelo_inurba_marseille","lat":43.27376,"lon":5.3626,"is_reserved":false,"is_disabled":true,"rental_uris":{"android":"levelo://app?vid=886ec63f-d5a1-4a1a-ba68-c525d37258f9","ios":"levelo://app?vid=886ec63f-d5a1-4a1a-ba68-c525d37258f9"},"vehicle_type_id":"4","last_reported":1732968967,"current_range_meters":0,"station_id":"ce4bhbh2rcd13ifvqeo0","pricing_plan_id":"cebpf4jnsgd1na2vs0mg"},{"bike_id":"b724444d-09e8-445f-949d-732ef4c35473","system_id":"levelo_inurba_marseille","lat":43.24801,"lon":5.37447,"is_reserved":false,"is_disabled":false,"rental_uris":{"android":"levelo://app?vid=b724444d-09e8-445f-949d-732ef4c35473","ios":"levelo://app?vid=b724444d-09e8-445f-949d-732ef4c35473"},"vehicle_type_id":"4","last_reported":1732968967,"current_range_meters":39200,"station_id":"ce4bhgh2rcd13ifvqfb0","pricing_plan_id":"cebpf4jnsgd1na2vs0mg"},{"bike_id":"064861a6-5a15-4e22-bc40-26ea165590ab","system_id":"levelo_inurba_marseille","lat":43.292,"lon":5.39315,"is_reserved":false,"is_disabled":true,"rental_uris":{"android":"levelo://app?vid=064861a6-5a15-4e22-bc40-26ea165590ab","ios":"levelo://app?vid=064861a6-5a15-4e22-bc40-26ea165590ab"},"vehicle_type_id":"4","last_reported":1732968967,"current_range_meters":28400,"station_id":"ce4bh192rcd13ifvqdd0","pricing_plan_id":"cebpf4jnsgd1na2vs0mg"},{"bike_id":"29b17d16-8059-4d5f-aa02-4f146ebf8cd6","system_id":"levelo_inurba_marseille","lat":43.26931,"lon":5.38918,"is_reserved":false,"is_disabled":false,"rental_uris":{"android":"levelo://app?vid=29b17d16-8059-4d5f-aa02-4f146ebf8cd6","ios":"levelo://app?vid=29b17d16-8059-4d5f-aa02-4f146ebf8cd6"},"vehicle_type_id":"4","last_reported":1732968967,"current_range_meters":8800,"station_id":"ce4bhhh2rcd13ifvqfl0","pricing_plan_id":"cebpf4jnsgd1na2vs0mg"},{"bike_id":"46507057-863b-4762-9275-3f3b81fccf53","system_id":"levelo_inurba_marseille","lat":43.24998,"lon":5.38934,"is_reserved":false,"is_disabled":false,"rental_uris":{"android":"levelo://app?vid=46507057-863b-4762-9275-3f3b81fccf53","ios":"levelo://app?vid=46507057-863b-4762-9275-3f3b81fccf53"},"vehicle_type_id":"4","last_reported":1732968967,"current_range_meters":24400,"station_id":"ce4bhgp2rcd13ifvqfd0","pricing_plan_id":"cebpf4jnsgd1na2vs0mg"},{"bike_id":"e8fa7be1-2407-41a7-b843-e7c70f1917ef","system_id":"levelo_inurba_marseille","lat":43.27611,"lon":5.36109,"is_reserved":false,"is_disabled":true,"rental_uris":{"android":"levelo://app?vid=e8fa7be1-2407-41a7-b843-e7c70f1917ef","ios":"levelo://app?vid=e8fa7be1-2407-41a7-b843-e7c70f1917ef"},"vehicle_type_id":"4","last_reported":1732968967,"current_range_meters":0,"station_id":"ce4bgj92rcd13ifvqbe0","pricing_plan_id":"cebpf4jnsgd1na2vs0mg"},{"bike_id":"b1fa7b13-cf34-41ad-91ed-c2b303a3609f","system_id":"levelo_inurba_marseille","lat":43.28662,"lon":5.36357,"is_reserved":false,"is_disabled":false,"rental_uris":{"android":"levelo://app?vid=b1fa7b13-cf34-41ad-91ed-c2b303a3609f","ios":"levelo://app?vid=b1fa7b13-cf34-41ad-91ed-c2b303a3609f"},"vehicle_type_id":"4","last_reported":1732968967,"current_range_meters":37600,"station_id":"ce4bhah2rcd13ifvqej0","pricing_plan_id":"cebpf4jnsgd1na2vs0mg"},{"bike_id":"9b835a50-fa61-49f1-a736-fe68d4eadb04","system_id":"levelo_inurba_marseille","lat":43.27994,"lon":5.40018,"is_reserved":false,"is_disabled":false,"rental_uris":{"android":"levelo://app?vid=9b835a50-fa61-49f1-a736-fe68d4eadb04","ios":"levelo://app?vid=9b835a50-fa61-49f1-a736-fe68d4eadb04"},"vehicle_type_id":"4","last_reported":1732968967,"current_range_meters":34800,"station_id":"ce4bho92rcd13ifvqh4g","pricing_plan_id":"cebpf4jnsgd1na2vs0mg"},{"bike_id":"d894b023-30fd-414f-981b-f561aa1b40b8","system_id":"levelo_inurba_marseille","lat":43.25723,"lon":5.4111,"is_reserved":false,"is_disabled":false,"rental_uris":{"android":"levelo://app?vid=d894b023-30fd-414f-981b-f561aa1b40b8","ios":"levelo://app?vid=d894b023-30fd-414f-981b-f561aa1b40b8"},"vehicle_type_id":"4","last_reported":1732968967,"current_range_meters":25600,"station_id":"ce4bhkp2rcd13ifvqgd0","pricing_plan_id":"cebpf4jnsgd1na2vs0mg"},{"bike_id":"3607a4a8-d9e2-42ab-b72a-7506e445d9ae","system_id":"levelo_inurba_marseille","lat":43.25001,"lon":5.38934,"is_reserved":false,"is_disabled":false,"rental_uris":{"android":"levelo://app?vid=3607a4a8-d9e2-42ab-b72a-7506e445d9ae","ios":"levelo://app?vid=3607a4a8-d9e2-42ab-b72a-7506e445d9ae"},"vehicle_type_id":"4","last_reported":1732968967,"current_range_meters":32800,"station_id":"ce4bhgp2rcd13ifvqfd0","pricing_plan_id":"cebpf4jnsgd1na2vs0mg"},{"bike_id":"9700beae-0fbf-4e58-beda-d02b6fed27fe","system_id":"levelo_inurba_marseille","lat":43.337444,"lon":5.374475,"is_reserved":false,"is_disabled":false,"rental_uris":{"android":"levelo://app?vid=9700beae-0fbf-4e58-beda-d02b6fed27fe","ios":"levelo://app?vid=9700beae-0fbf-4e58-beda-d02b6fed27fe"},"vehicle_type_id":"4","last_reported":1732968967,"current_range_meters":38800,"station_id":"","pricing_plan_id":"cebpf4jnsgd1na2vs0mg"},{"bike_id":"9b5b471b-f534-4f20-94c9-b3888022106a","system_id":"levelo_inurba_marseille","lat":43.30418,"lon":5.41281,"is_reserved":false,"is_disabled":false,"rental_uris":{"android":"levelo://app?vid=9b5b471b-f534-4f20-94c9-b3888022106a","ios":"levelo://app?vid=9b5b471b-f534-4f20-94c9-b3888022106a"},"vehicle_type_id":"4","last_reported":1732968967,"current_range_meters":34000,"station_id":"ce4bhop2rcd13ifvqh8g","pricing_plan_id":"cebpf4jnsgd1na2vs0mg"},{"bike_id":"feae96d1-52fd-4915-b8ca-6997ea552cb8","system_id":"levelo_inurba_marseille","lat":43.28719,"lon":5.36091,"is_reserved":false,"is_disabled":false,"rental_uris":{"android":"levelo://app?vid=feae96d1-52fd-4915-b8ca-6997ea552cb8","ios":"levelo://app?vid=feae96d1-52fd-4915-b8ca-6997ea552cb8"},"vehicle_type_id":"4","last_reported":1732968967,"current_range_meters":19200,"station_id":"cki0cbj6b192h4jlfktg","pricing_plan_id":"cebpf4jnsgd1na2vs0mg"},{"bike_id":"0fa1a0ee-35c1-4ef4-95ba-73f88ec1db30","system_id":"levelo_inurba_marseille","lat":43.23196,"lon":5.35548,"is_reserved":false,"is_disabled":false,"rental_uris":{"android":"levelo://app?vid=0fa1a0ee-35c1-4ef4-95ba-73f88ec1db30","ios":"levelo://app?vid=0fa1a0ee-35c1-4ef4-95ba-73f88ec1db30"},"vehicle_type_id":"4","last_reported":1732968967,"current_range_meters":8400,"station_id":"ce4bhu92rcd13ifvqi70","pricing_plan_id":"cebpf4jnsgd1na2vs0mg"},{"bike_id":"58cc47a8-7400-4783-8e9f-bef56208b81d","system_id":"levelo_inurba_marseille","lat":43.25575,"lon":5.38232,"is_reserved":false,"is_disabled":false,"rental_uris":{"android":"levelo://app?vid=58cc47a8-7400-4783-8e9f-bef56208b81d","ios":"levelo://app?vid=58cc47a8-7400-4783-8e9f-bef56208b81d"},"vehicle_type_id":"4","last_reported":1732968967,"current_range_meters":11600,"station_id":"ce4bhih2rcd13ifvqfs0","pricing_plan_id":"cebpf4jnsgd1na2vs0mg"},{"bike_id":"92de0aec-7fd7-4b0f-836a-d45b7677365d","system_id":"levelo_inurba_marseille","lat":43.25001,"lon":5.38929,"is_reserved":false,"is_disabled":false,"rental_uris":{"android":"levelo://app?vid=92de0aec-7fd7-4b0f-836a-d45b7677365d","ios":"levelo://app?vid=92de0aec-7fd7-4b0f-836a-d45b7677365d"},"vehicle_type_id":"4","last_reported":1732968967,"current_range_meters":38800,"station_id":"ce4bhgp2rcd13ifvqfd0","pricing_plan_id":"cebpf4jnsgd1na2vs0mg"},{"bike_id":"c254f6a2-7ff1-4f96-adb7-8a7ee1b965ce","system_id":"levelo_inurba_marseille","lat":43.29608,"lon":5.37737,"is_reserved":false,"is_disabled":false,"rental_uris":{"android":"levelo://app?vid=c254f6a2-7ff1-4f96-adb7-8a7ee1b965ce","ios":"levelo://app?vid=c254f6a2-7ff1-4f96-adb7-8a7ee1b965ce"},"vehicle_type_id":"4","last_reported":1732968967,"current_range_meters":28800,"station_id":"ce4bgi92rcd13ifvqb90","pricing_plan_id":"cebpf4jnsgd1na2vs0mg"},{"bike_id":"9479c120-4416-4600-a55b-d1dd48b031d8","system_id":"levelo_inurba_marseille","lat":43.29619,"lon":5.37158,"is_reserved":false,"is_disabled":false,"rental_uris":{"android":"levelo://app?vid=9479c120-4416-4600-a55b-d1dd48b031d8","ios":"levelo://app?vid=9479c120-4416-4600-a55b-d1dd48b031d8"},"vehicle_type_id":"4","last_reported":1732968967,"current_range_meters":38800,"station_id":"ce4bgnh2rcd13ifvqc0g","pricing_plan_id":"cebpf4jnsgd1na2vs0mg"},{"bike_id":"4a2be555-d056-454c-bed3-fe781ba86f8e","system_id":"levelo_inurba_marseille","lat":43.25886,"lon":5.39954,"is_reserved":false,"is_disabled":true,"rental_uris":{"android":"levelo://app?vid=4a2be555-d056-454c-bed3-fe781ba86f8e","ios":"levelo://app?vid=4a2be555-d056-454c-bed3-fe781ba86f8e"},"vehicle_type_id":"4","last_reported":1732968967,"current_range_meters":0,"station_id":"","pricing_plan_id":"cebpf4jnsgd1na2vs0mg"},{"bike_id":"eda44aca-cc99-4316-97ae-b85fc192773d","system_id":"levelo_inurba_marseille","lat":43.32479,"lon":5.36569,"is_reserved":false,"is_disabled":false,"rental_uris":{"android":"levelo://app?vid=eda44aca-cc99-4316-97ae-b85fc192773d","ios":"levelo://app?vid=eda44aca-cc99-4316-97ae-b85fc192773d"},"vehicle_type_id":"4","last_reported":1732968967,"current_range_meters":36800,"station_id":"ce4bhs12rcd13ifvqhvg","pricing_plan_id":"cebpf4jnsgd1na2vs0mg"},{"bike_id":"1fc56f5b-9b9e-40ba-bc71-b9ff3b09f2c4","system_id":"levelo_inurba_marseille","lat":43.29018,"lon":5.38127,"is_reserved":false,"is_disabled":false,"rental_uris":{"android":"levelo://app?vid=1fc56f5b-9b9e-40ba-bc71-b9ff3b09f2c4","ios":"levelo://app?vid=1fc56f5b-9b9e-40ba-bc71-b9ff3b09f2c4"},"vehicle_type_id":"4","last_reported":1732968967,"current_range_meters":37600,"station_id":"ce4bh4p2rcd13ifvqe1g","pricing_plan_id":"cebpf4jnsgd1na2vs0mg"},{"bike_id":"6eaf1da4-e243-4df0-b765-7683a5869fec","system_id":"levelo_inurba_marseille","lat":43.27994,"lon":5.41668,"is_reserved":false,"is_disabled":false,"rental_uris":{"android":"levelo://app?vid=6eaf1da4-e243-4df0-b765-7683a5869fec","ios":"levelo://app?vid=6eaf1da4-e243-4df0-b765-7683a5869fec"},"vehicle_type_id":"4","last_reported":1732968967,"current_range_meters":23200,"station_id":"ce4bho12rcd13ifvqh1g","pricing_plan_id":"cebpf4jnsgd1na2vs0mg"},{"bike_id":"7d79770d-b92a-4905-85cb-392661a1a6d5","system_id":"levelo_inurba_marseille","lat":43.29029,"lon":5.38125,"is_reserved":false,"is_disabled":true,"rental_uris":{"android":"levelo://app?vid=7d79770d-b92a-4905-85cb-392661a1a6d5","ios":"levelo://app?vid=7d79770d-b92a-4905-85cb-392661a1a6d5"},"vehicle_type_id":"4","last_reported":1732968967,"current_range_meters":36000,"station_id":"ce4bh4p2rcd13ifvqe1g","pricing_plan_id":"cebpf4jnsgd1na2vs0mg"},{"bike_id":"24998420-0380-4723-9afc-291d57f3e3d8","system_id":"levelo_inurba_marseille","lat":43.25721,"lon":5.41111,"is_reserved":false,"is_disabled":false,"rental_uris":{"android":"levelo://app?vid=24998420-0380-4723-9afc-291d57f3e3d8","ios":"levelo://app?vid=24998420-0380-4723-9afc-291d57f3e3d8"},"vehicle_type_id":"4","last_reported":1732968967,"current_range_meters":30400,"station_id":"ce4bhkp2rcd13ifvqgd0","pricing_plan_id":"cebpf4jnsgd1na2vs0mg"},{"bike_id":"80ee5806-271f-4b24-a602-2dc27d804313","system_id":"levelo_inurba_marseille","lat":43.32109,"lon":5.36779,"is_reserved":false,"is_disabled":false,"rental_uris":{"android":"levelo://app?vid=80ee5806-271f-4b24-a602-2dc27d804313","ios":"levelo://app?vid=80ee5806-271f-4b24-a602-2dc27d804313"},"vehicle_type_id":"4","last_reported":1732968967,"current_range_meters":9600,"station_id":"ce4bhrh2rcd13ifvqhug","pricing_plan_id":"cebpf4jnsgd1na2vs0mg"},{"bike_id":"a99e441f-fcb3-4edf-8132-a5c34ea369bf","system_id":"levelo_inurba_marseille","lat":43.26932,"lon":5.4025,"is_reserved":false,"is_disabled":false,"rental_uris":{"android":"levelo://app?vid=a99e441f-fcb3-4edf-8132-a5c34ea369bf","ios":"levelo://app?vid=a99e441f-fcb3-4edf-8132-a5c34ea369bf"},"vehicle_type_id":"4","last_reported":1732968967,"current_range_meters":37600,"station_id":"cjm6bp8fraef2m0cb0m0","pricing_plan_id":"cebpf4jnsgd1na2vs0mg"},{"bike_id":"212beb5c-742a-47d5-806d-93865a3f10c0","system_id":"levelo_inurba_marseille","lat":43.28469,"lon":5.38417,"is_reserved":false,"is_disabled":false,"rental_uris":{"android":"levelo://app?vid=212beb5c-742a-47d5-806d-93865a3f10c0","ios":"levelo://app?vid=212beb5c-742a-47d5-806d-93865a3f10c0"},"vehicle_type_id":"4","last_reported":1732968967,"current_range_meters":39200,"station_id":"ce4bh512rcd13ifvqe3g","pricing_plan_id":"cebpf4jnsgd1na2vs0mg"},{"bike_id":"a9ca3b2a-8ad8-42e0-a6f4-4d5ff8e743b6","system_id":"levelo_inurba_marseille","lat":43.2501,"lon":5.3893,"is_reserved":false,"is_disabled":false,"rental_uris":{"android":"levelo://app?vid=a9ca3b2a-8ad8-42e0-a6f4-4d5ff8e743b6","ios":"levelo://app?vid=a9ca3b2a-8ad8-42e0-a6f4-4d5ff8e743b6"},"vehicle_type_id":"4","last_reported":1732968967,"current_range_meters":18800,"station_id":"ce4bhgp2rcd13ifvqfd0","pricing_plan_id":"cebpf4jnsgd1na2vs0mg"},{"bike_id":"f469cc95-d335-4c75-a69f-db6d13c56017","system_id":"levelo_inurba_marseille","lat":43.23152,"lon":5.43717,"is_reserved":false,"is_disabled":false,"rental_uris":{"android":"levelo://app?vid=f469cc95-d335-4c75-a69f-db6d13c56017","ios":"levelo://app?vid=f469cc95-d335-4c75-a69f-db6d13c56017"},"vehicle_type_id":"4","last_reported":1732968967,"current_range_meters":8400,"station_id":"ce4bhmp2rcd13ifvqgog","pricing_plan_id":"cebpf4jnsgd1na2vs0mg"},{"bike_id":"981f5323-76ee-4aff-abdb-308b2ece5ca8","system_id":"levelo_inurba_marseille","lat":43.33724,"lon":5.3918,"is_reserved":false,"is_disabled":false,"rental_uris":{"android":"levelo://app?vid=981f5323-76ee-4aff-abdb-308b2ece5ca8","ios":"levelo://app?vid=981f5323-76ee-4aff-abdb-308b2ece5ca8"},"vehicle_type_id":"4","last_reported":1732968967,"current_range_meters":38800,"station_id":"ce4bhr92rcd13ifvqhsg","pricing_plan_id":"cebpf4jnsgd1na2vs0mg"},{"bike_id":"81d9f7be-c3c6-4233-bf11-948e6f22debc","system_id":"levelo_inurba_marseille","lat":43.32364,"lon":5.3888,"is_reserved":false,"is_disabled":false,"rental_uris":{"android":"levelo://app?vid=81d9f7be-c3c6-4233-bf11-948e6f22debc","ios":"levelo://app?vid=81d9f7be-c3c6-4233-bf11-948e6f22debc"},"vehicle_type_id":"4","last_reported":1732968967,"current_range_meters":30800,"station_id":"ce4bhqp2rcd13ifvqhog","pricing_plan_id":"cebpf4jnsgd1na2vs0mg"},{"bike_id":"6bb48a79-11c3-49a2-b377-78da548be078","system_id":"levelo_inurba_marseille","lat":43.30879,"lon":5.39655,"is_reserved":false,"is_disabled":false,"rental_uris":{"android":"levelo://app?vid=6bb48a79-11c3-49a2-b377-78da548be078","ios":"levelo://app?vid=6bb48a79-11c3-49a2-b377-78da548be078"},"vehicle_type_id":"4","last_reported":1732968967,"current_range_meters":38800,"station_id":"ce4bh012rcd13ifvqcv0","pricing_plan_id":"cebpf4jnsgd1na2vs0mg"},{"bike_id":"e11b701c-b42d-452b-b0e0-fc3604e3a341","system_id":"levelo_inurba_marseille","lat":43.29631,"lon":5.40595,"is_reserved":false,"is_disabled":false,"rental_uris":{"android":"levelo://app?vid=e11b701c-b42d-452b-b0e0-fc3604e3a341","ios":"levelo://app?vid=e11b701c-b42d-452b-b0e0-fc3604e3a341"},"vehicle_type_id":"4","last_reported":1732968967,"current_range_meters":24000,"station_id":"ce4bh0h2rcd13ifvqd60","pricing_plan_id":"cebpf4jnsgd1na2vs0mg"},{"bike_id":"a675910e-bba3-4160-8614-6e336b9611d0","system_id":"levelo_inurba_marseille","lat":43.27997,"lon":5.40018,"is_reserved":false,"is_disabled":false,"rental_uris":{"android":"levelo://app?vid=a675910e-bba3-4160-8614-6e336b9611d0","ios":"levelo://app?vid=a675910e-bba3-4160-8614-6e336b9611d0"},"vehicle_type_id":"4","last_reported":1732968967,"current_range_meters":38800,"station_id":"ce4bho92rcd13ifvqh4g","pricing_plan_id":"cebpf4jnsgd1na2vs0mg"},{"bike_id":"e2b51d6b-cb0b-4fbd-ba8e-ca7faa50fcce","system_id":"levelo_inurba_marseille","lat":43.23176,"lon":5.39989,"is_reserved":false,"is_disabled":false,"rental_uris":{"android":"levelo://app?vid=e2b51d6b-cb0b-4fbd-ba8e-ca7faa50fcce","ios":"levelo://app?vid=e2b51d6b-cb0b-4fbd-ba8e-ca7faa50fcce"},"vehicle_type_id":"4","last_reported":1732968967,"current_range_meters":38800,"station_id":"ce4bhn12rcd13ifvqgqg","pricing_plan_id":"cebpf4jnsgd1na2vs0mg"},{"bike_id":"ab1db49f-701c-4711-8b20-531372b5e60f","system_id":"levelo_inurba_marseille","lat":43.32629,"lon":5.37562,"is_reserved":false,"is_disabled":false,"rental_uris":{"android":"levelo://app?vid=ab1db49f-701c-4711-8b20-531372b5e60f","ios":"levelo://app?vid=ab1db49f-701c-4711-8b20-531372b5e60f"},"vehicle_type_id":"4","last_reported":1732968967,"current_range_meters":33200,"station_id":"","pricing_plan_id":"cebpf4jnsgd1na2vs0mg"},{"bike_id":"29a80c71-9648-4a26-b6c9-5f69092eaa01","system_id":"levelo_inurba_marseille","lat":43.2707,"lon":5.42279,"is_reserved":false,"is_disabled":false,"rental_uris":{"android":"levelo://app?vid=29a80c71-9648-4a26-b6c9-5f69092eaa01","ios":"levelo://app?vid=29a80c71-9648-4a26-b6c9-5f69092eaa01"},"vehicle_type_id":"4","last_reported":1732968967,"current_range_meters":39200,"station_id":"ce4bhk92rcd13ifvqgb0","pricing_plan_id":"cebpf4jnsgd1na2vs0mg"},{"bike_id":"00a61cfb-0996-4443-8e2b-2a432ef93c20","system_id":"levelo_inurba_marseille","lat":43.27425,"lon":5.39423,"is_reserved":false,"is_disabled":false,"rental_uris":{"android":"levelo://app?vid=00a61cfb-0996-4443-8e2b-2a432ef93c20","ios":"levelo://app?vid=00a61cfb-0996-4443-8e2b-2a432ef93c20"},"vehicle_type_id":"4","last_reported":1732968967,"current_range_meters":35200,"station_id":"ce4bhdp2rcd13ifvqf20","pricing_plan_id":"cebpf4jnsgd1na2vs0mg"},{"bike_id":"73c872b6-b245-4557-afe2-6504b31215d2","system_id":"levelo_inurba_marseille","lat":43.30882,"lon":5.396283,"is_reserved":false,"is_disabled":false,"rental_uris":{"android":"levelo://app?vid=73c872b6-b245-4557-afe2-6504b31215d2","ios":"levelo://app?vid=73c872b6-b245-4557-afe2-6504b31215d2"},"vehicle_type_id":"4","last_reported":1732968967,"current_range_meters":38800,"station_id":"ce4bh012rcd13ifvqcv0","pricing_plan_id":"cebpf4jnsgd1na2vs0mg"},{"bike_id":"1f1695f6-28c7-4290-9cae-9ab214f50f69","system_id":"levelo_inurba_marseille","lat":43.2803,"lon":5.36952,"is_reserved":false,"is_disabled":false,"rental_uris":{"android":"levelo://app?vid=1f1695f6-28c7-4290-9cae-9ab214f50f69","ios":"levelo://app?vid=1f1695f6-28c7-4290-9cae-9ab214f50f69"},"vehicle_type_id":"4","last_reported":1732968967,"current_range_meters":38800,"station_id":"ce4bha12rcd13ifvqef0","pricing_plan_id":"cebpf4jnsgd1na2vs0mg"},{"bike_id":"0174841e-8011-4a7b-bd18-480101bee765","system_id":"levelo_inurba_marseille","lat":43.23961,"lon":5.3664,"is_reserved":false,"is_disabled":true,"rental_uris":{"android":"levelo://app?vid=0174841e-8011-4a7b-bd18-480101bee765","ios":"levelo://app?vid=0174841e-8011-4a7b-bd18-480101bee765"},"vehicle_type_id":"4","last_reported":1732968967,"current_range_meters":0,"station_id":"ce4bhi12rcd13ifvqfp0","pricing_plan_id":"cebpf4jnsgd1na2vs0mg"},{"bike_id":"fd405db4-6f5b-4763-b335-7a51479a2ea9","system_id":"levelo_inurba_marseille","lat":43.2557,"lon":5.38247,"is_reserved":false,"is_disabled":false,"rental_uris":{"android":"levelo://app?vid=fd405db4-6f5b-4763-b335-7a51479a2ea9","ios":"levelo://app?vid=fd405db4-6f5b-4763-b335-7a51479a2ea9"},"vehicle_type_id":"4","last_reported":1732968967,"current_range_meters":40000,"station_id":"ce4bhih2rcd13ifvqfs0","pricing_plan_id":"cebpf4jnsgd1na2vs0mg"},{"bike_id":"0cff04d7-ac42-44fe-8172-e6b3f4744a1b","system_id":"levelo_inurba_marseille","lat":43.31714,"lon":5.42405,"is_reserved":false,"is_disabled":false,"rental_uris":{"android":"levelo://app?vid=0cff04d7-ac42-44fe-8172-e6b3f4744a1b","ios":"levelo://app?vid=0cff04d7-ac42-44fe-8172-e6b3f4744a1b"},"vehicle_type_id":"4","last_reported":1732968967,"current_range_meters":10800,"station_id":"ce4bhp92rcd13ifvqhbg","pricing_plan_id":"cebpf4jnsgd1na2vs0mg"},{"bike_id":"00b5e211-7497-40e0-9a48-4abd0dd8f0c1","system_id":"levelo_inurba_marseille","lat":43.2396,"lon":5.36644,"is_reserved":false,"is_disabled":false,"rental_uris":{"android":"levelo://app?vid=00b5e211-7497-40e0-9a48-4abd0dd8f0c1","ios":"levelo://app?vid=00b5e211-7497-40e0-9a48-4abd0dd8f0c1"},"vehicle_type_id":"4","last_reported":1732968967,"current_range_meters":39200,"station_id":"ce4bhi12rcd13ifvqfp0","pricing_plan_id":"cebpf4jnsgd1na2vs0mg"},{"bike_id":"a233b25b-869e-422b-bf5e-63d3d8ff686f","system_id":"levelo_inurba_marseille","lat":43.30923,"lon":5.40151,"is_reserved":false,"is_disabled":true,"rental_uris":{"android":"levelo://app?vid=a233b25b-869e-422b-bf5e-63d3d8ff686f","ios":"levelo://app?vid=a233b25b-869e-422b-bf5e-63d3d8ff686f"},"vehicle_type_id":"4","last_reported":1732968967,"current_range_meters":24800,"station_id":"ce4bgvp2rcd13ifvqct0","pricing_plan_id":"cebpf4jnsgd1na2vs0mg"},{"bike_id":"3b61cc8f-6b8c-4eed-8c48-de246bc9d687","system_id":"levelo_inurba_marseille","lat":43.28729,"lon":5.36094,"is_reserved":false,"is_disabled":false,"rental_uris":{"android":"levelo://app?vid=3b61cc8f-6b8c-4eed-8c48-de246bc9d687","ios":"levelo://app?vid=3b61cc8f-6b8c-4eed-8c48-de246bc9d687"},"vehicle_type_id":"4","last_reported":1732968967,"current_range_meters":38800,"station_id":"cki0cbj6b192h4jlfktg","pricing_plan_id":"cebpf4jnsgd1na2vs0mg"},{"bike_id":"8aeeabb3-4687-4690-af90-f6f0e9e6652f","system_id":"levelo_inurba_marseille","lat":43.28973,"lon":5.37848,"is_reserved":false,"is_disabled":false,"rental_uris":{"android":"levelo://app?vid=8aeeabb3-4687-4690-af90-f6f0e9e6652f","ios":"levelo://app?vid=8aeeabb3-4687-4690-af90-f6f0e9e6652f"},"vehicle_type_id":"4","last_reported":1732968967,"current_range_meters":36400,"station_id":"ce4bh9p2rcd13ifvqed0","pricing_plan_id":"cebpf4jnsgd1na2vs0mg"},{"bike_id":"6e914fb7-e6d2-4357-b161-70e1de222ef2","system_id":"levelo_inurba_marseille","lat":43.25728,"lon":5.41109,"is_reserved":false,"is_disabled":false,"rental_uris":{"android":"levelo://app?vid=6e914fb7-e6d2-4357-b161-70e1de222ef2","ios":"levelo://app?vid=6e914fb7-e6d2-4357-b161-70e1de222ef2"},"vehicle_type_id":"4","last_reported":1732968967,"current_range_meters":39200,"station_id":"ce4bhkp2rcd13ifvqgd0","pricing_plan_id":"cebpf4jnsgd1na2vs0mg"},{"bike_id":"389ea475-e1a0-4e18-b65c-f83729b9e1b9","system_id":"levelo_inurba_marseille","lat":43.25494,"lon":5.37649,"is_reserved":false,"is_disabled":false,"rental_uris":{"android":"levelo://app?vid=389ea475-e1a0-4e18-b65c-f83729b9e1b9","ios":"levelo://app?vid=389ea475-e1a0-4e18-b65c-f83729b9e1b9"},"vehicle_type_id":"4","last_reported":1732968967,"current_range_meters":38800,"station_id":"ce4bhh12rcd13ifvqff0","pricing_plan_id":"cebpf4jnsgd1na2vs0mg"},{"bike_id":"f9c188c9-e4c0-4251-9629-0faf58a36ea2","system_id":"levelo_inurba_marseille","lat":43.29929,"lon":5.36556,"is_reserved":false,"is_disabled":false,"rental_uris":{"android":"levelo://app?vid=f9c188c9-e4c0-4251-9629-0faf58a36ea2","ios":"levelo://app?vid=f9c188c9-e4c0-4251-9629-0faf58a36ea2"},"vehicle_type_id":"4","last_reported":1732968967,"current_range_meters":22800,"station_id":"ce4bgm92rcd13ifvqbr0","pricing_plan_id":"cebpf4jnsgd1na2vs0mg"},{"bike_id":"c53456cf-9ecd-48ab-bd70-22a06cf80d9a","system_id":"levelo_inurba_marseille","lat":43.25496,"lon":5.37649,"is_reserved":false,"is_disabled":false,"rental_uris":{"android":"levelo://app?vid=c53456cf-9ecd-48ab-bd70-22a06cf80d9a","ios":"levelo://app?vid=c53456cf-9ecd-48ab-bd70-22a06cf80d9a"},"vehicle_type_id":"4","last_reported":1732968967,"current_range_meters":40000,"station_id":"ce4bhh12rcd13ifvqff0","pricing_plan_id":"cebpf4jnsgd1na2vs0mg"},{"bike_id":"9254f430-6ac2-470c-9adb-22343557bef6","system_id":"levelo_inurba_marseille","lat":43.2836,"lon":5.38631,"is_reserved":false,"is_disabled":false,"rental_uris":{"android":"levelo://app?vid=9254f430-6ac2-470c-9adb-22343557bef6","ios":"levelo://app?vid=9254f430-6ac2-470c-9adb-22343557bef6"},"vehicle_type_id":"4","last_reported":1732968967,"current_range_meters":38000,"station_id":"ce4bh492rcd13ifvqdvg","pricing_plan_id":"cebpf4jnsgd1na2vs0mg"},{"bike_id":"c2d172e1-98e6-4a29-80b6-476b9c5f1669","system_id":"levelo_inurba_marseille","lat":43.27615,"lon":5.36132,"is_reserved":false,"is_disabled":false,"rental_uris":{"android":"levelo://app?vid=c2d172e1-98e6-4a29-80b6-476b9c5f1669","ios":"levelo://app?vid=c2d172e1-98e6-4a29-80b6-476b9c5f1669"},"vehicle_type_id":"4","last_reported":1732968967,"current_range_meters":38400,"station_id":"ce4bgj92rcd13ifvqbe0","pricing_plan_id":"cebpf4jnsgd1na2vs0mg"},{"bike_id":"2acf3c00-9adf-448c-a9a4-10d6de2d7879","system_id":"levelo_inurba_marseille","lat":43.30648,"lon":5.40074,"is_reserved":false,"is_disabled":true,"rental_uris":{"android":"levelo://app?vid=2acf3c00-9adf-448c-a9a4-10d6de2d7879","ios":"levelo://app?vid=2acf3c00-9adf-448c-a9a4-10d6de2d7879"},"vehicle_type_id":"4","last_reported":1732968967,"current_range_meters":0,"station_id":"ce4bh112rcd13ifvqda0","pricing_plan_id":"cebpf4jnsgd1na2vs0mg"},{"bike_id":"527e9215-5e4e-41d1-879f-857f198e8537","system_id":"levelo_inurba_marseille","lat":43.28419,"lon":5.34981,"is_reserved":false,"is_disabled":false,"rental_uris":{"android":"levelo://app?vid=527e9215-5e4e-41d1-879f-857f198e8537","ios":"levelo://app?vid=527e9215-5e4e-41d1-879f-857f198e8537"},"vehicle_type_id":"4","last_reported":1732968967,"current_range_meters":7200,"station_id":"ce4bhbh2rcd13ifvqepg","pricing_plan_id":"cebpf4jnsgd1na2vs0mg"},{"bike_id":"06448cf4-5db2-4556-ae15-36018f41ecec","system_id":"levelo_inurba_marseille","lat":43.3088,"lon":5.39643,"is_reserved":false,"is_disabled":false,"rental_uris":{"android":"levelo://app?vid=06448cf4-5db2-4556-ae15-36018f41ecec","ios":"levelo://app?vid=06448cf4-5db2-4556-ae15-36018f41ecec"},"vehicle_type_id":"4","last_reported":1732968967,"current_range_meters":39200,"station_id":"ce4bh012rcd13ifvqcv0","pricing_plan_id":"cebpf4jnsgd1na2vs0mg"},{"bike_id":"8b54f535-d07e-4932-9d76-5b64240d4ee7","system_id":"levelo_inurba_marseille","lat":43.27211,"lon":5.39189,"is_reserved":false,"is_disabled":false,"rental_uris":{"android":"levelo://app?vid=8b54f535-d07e-4932-9d76-5b64240d4ee7","ios":"levelo://app?vid=8b54f535-d07e-4932-9d76-5b64240d4ee7"},"vehicle_type_id":"4","last_reported":1732968967,"current_range_meters":30800,"station_id":"ce4bhhp2rcd13ifvqfm0","pricing_plan_id":"cebpf4jnsgd1na2vs0mg"},{"bike_id":"41e09ded-b9e2-49d1-8544-5cb248901ca7","system_id":"levelo_inurba_marseille","lat":43.30908,"lon":5.36853,"is_reserved":false,"is_disabled":false,"rental_uris":{"android":"levelo://app?vid=41e09ded-b9e2-49d1-8544-5cb248901ca7","ios":"levelo://app?vid=41e09ded-b9e2-49d1-8544-5cb248901ca7"},"vehicle_type_id":"4","last_reported":1732968967,"current_range_meters":38400,"station_id":"ce4bgn92rcd13ifvqbvg","pricing_plan_id":"cebpf4jnsgd1na2vs0mg"},{"bike_id":"fe1c6c60-0f4f-4b5c-a7ea-9f2ff8347245","system_id":"levelo_inurba_marseille","lat":43.27615,"lon":5.36119,"is_reserved":false,"is_disabled":false,"rental_uris":{"android":"levelo://app?vid=fe1c6c60-0f4f-4b5c-a7ea-9f2ff8347245","ios":"levelo://app?vid=fe1c6c60-0f4f-4b5c-a7ea-9f2ff8347245"},"vehicle_type_id":"4","last_reported":1732968967,"current_range_meters":38800,"station_id":"ce4bgj92rcd13ifvqbe0","pricing_plan_id":"cebpf4jnsgd1na2vs0mg"},{"bike_id":"4abebe2b-dec7-442c-a6a0-da33deb742de","system_id":"levelo_inurba_marseille","lat":43.321075,"lon":5.367869,"is_reserved":false,"is_disabled":false,"rental_uris":{"android":"levelo://app?vid=4abebe2b-dec7-442c-a6a0-da33deb742de","ios":"levelo://app?vid=4abebe2b-dec7-442c-a6a0-da33deb742de"},"vehicle_type_id":"4","last_reported":1732968967,"current_range_meters":37600,"station_id":"ce4bhrh2rcd13ifvqhug","pricing_plan_id":"cebpf4jnsgd1na2vs0mg"},{"bike_id":"e8761c76-5abe-46ec-a02e-5c1eaaf3ecfa","system_id":"levelo_inurba_marseille","lat":43.24159,"lon":5.36406,"is_reserved":false,"is_disabled":false,"rental_uris":{"android":"levelo://app?vid=e8761c76-5abe-46ec-a02e-5c1eaaf3ecfa","ios":"levelo://app?vid=e8761c76-5abe-46ec-a02e-5c1eaaf3ecfa"},"vehicle_type_id":"4","last_reported":1732968967,"current_range_meters":30000,"station_id":"cpo36qri1sfpv3e86is0","pricing_plan_id":"cebpf4jnsgd1na2vs0mg"},{"bike_id":"94c7ef9a-ec0a-4aea-920b-162ae2bfcd60","system_id":"levelo_inurba_marseille","lat":43.30274,"lon":5.37709,"is_reserved":false,"is_disabled":false,"rental_uris":{"android":"levelo://app?vid=94c7ef9a-ec0a-4aea-920b-162ae2bfcd60","ios":"levelo://app?vid=94c7ef9a-ec0a-4aea-920b-162ae2bfcd60"},"vehicle_type_id":"4","last_reported":1732968967,"current_range_meters":38400,"station_id":"ce4bguh2rcd13ifvqcj0","pricing_plan_id":"cebpf4jnsgd1na2vs0mg"},{"bike_id":"e613ac66-303d-4a0f-8b2f-390e4ac013cf","system_id":"levelo_inurba_marseille","lat":43.29631,"lon":5.37736,"is_reserved":false,"is_disabled":false,"rental_uris":{"android":"levelo://app?vid=e613ac66-303d-4a0f-8b2f-390e4ac013cf","ios":"levelo://app?vid=e613ac66-303d-4a0f-8b2f-390e4ac013cf"},"vehicle_type_id":"4","last_reported":1732968967,"current_range_meters":29600,"station_id":"ce4bgi92rcd13ifvqb90","pricing_plan_id":"cebpf4jnsgd1na2vs0mg"},{"bike_id":"0f17f004-1308-4dc1-baa4-8e9fe8d97b2d","system_id":"levelo_inurba_marseille","lat":43.25702,"lon":5.4112,"is_reserved":false,"is_disabled":false,"rental_uris":{"android":"levelo://app?vid=0f17f004-1308-4dc1-baa4-8e9fe8d97b2d","ios":"levelo://app?vid=0f17f004-1308-4dc1-baa4-8e9fe8d97b2d"},"vehicle_type_id":"4","last_reported":1732968967,"current_range_meters":24000,"station_id":"ce4bhkp2rcd13ifvqgd0","pricing_plan_id":"cebpf4jnsgd1na2vs0mg"},{"bike_id":"29af42c9-d364-49e4-a95c-81446df2faec","system_id":"levelo_inurba_marseille","lat":43.29525,"lon":5.39389,"is_reserved":false,"is_disabled":false,"rental_uris":{"android":"levelo://app?vid=29af42c9-d364-49e4-a95c-81446df2faec","ios":"levelo://app?vid=29af42c9-d364-49e4-a95c-81446df2faec"},"vehicle_type_id":"4","last_reported":1732968967,"current_range_meters":32000,"station_id":"ce4bh292rcd13ifvqdf0","pricing_plan_id":"cebpf4jnsgd1na2vs0mg"},{"bike_id":"d9164778-c495-4249-8e1c-4bb54a49848c","system_id":"levelo_inurba_marseille","lat":43.31163,"lon":5.3871,"is_reserved":false,"is_disabled":false,"rental_uris":{"android":"levelo://app?vid=d9164778-c495-4249-8e1c-4bb54a49848c","ios":"levelo://app?vid=d9164778-c495-4249-8e1c-4bb54a49848c"},"vehicle_type_id":"4","last_reported":1732968967,"current_range_meters":22000,"station_id":"ce4bgv12rcd13ifvqcp0","pricing_plan_id":"cebpf4jnsgd1na2vs0mg"},{"bike_id":"72f28344-dd59-4f33-984a-7ebc3805da9b","system_id":"levelo_inurba_marseille","lat":43.31268,"lon":5.40186,"is_reserved":false,"is_disabled":false,"rental_uris":{"android":"levelo://app?vid=72f28344-dd59-4f33-984a-7ebc3805da9b","ios":"levelo://app?vid=72f28344-dd59-4f33-984a-7ebc3805da9b"},"vehicle_type_id":"4","last_reported":1732968967,"current_range_meters":14000,"station_id":"ce4bh092rcd13ifvqd30","pricing_plan_id":"cebpf4jnsgd1na2vs0mg"},{"bike_id":"ec018fd1-eafb-4d85-ae88-4de197896d6c","system_id":"levelo_inurba_marseille","lat":43.29529,"lon":5.37503,"is_reserved":false,"is_disabled":false,"rental_uris":{"android":"levelo://app?vid=ec018fd1-eafb-4d85-ae88-4de197896d6c","ios":"levelo://app?vid=ec018fd1-eafb-4d85-ae88-4de197896d6c"},"vehicle_type_id":"4","last_reported":1732968967,"current_range_meters":30800,"station_id":"ce4bgkp2rcd13ifvqbmg","pricing_plan_id":"cebpf4jnsgd1na2vs0mg"},{"bike_id":"a67de241-6a70-4044-84f4-40aba86e4110","system_id":"levelo_inurba_marseille","lat":43.31709,"lon":5.4371,"is_reserved":false,"is_disabled":false,"rental_uris":{"android":"levelo://app?vid=a67de241-6a70-4044-84f4-40aba86e4110","ios":"levelo://app?vid=a67de241-6a70-4044-84f4-40aba86e4110"},"vehicle_type_id":"4","last_reported":1732968967,"current_range_meters":9200,"station_id":"ce4bhp92rcd13ifvqhcg","pricing_plan_id":"cebpf4jnsgd1na2vs0mg"},{"bike_id":"50083385-87a7-4059-b9fe-3253996030c6","system_id":"levelo_inurba_marseille","lat":43.29605,"lon":5.3774,"is_reserved":false,"is_disabled":false,"rental_uris":{"android":"levelo://app?vid=50083385-87a7-4059-b9fe-3253996030c6","ios":"levelo://app?vid=50083385-87a7-4059-b9fe-3253996030c6"},"vehicle_type_id":"4","last_reported":1732968967,"current_range_meters":39200,"station_id":"ce4bgi92rcd13ifvqb90","pricing_plan_id":"cebpf4jnsgd1na2vs0mg"},{"bike_id":"9dd1fc98-a89e-437a-b707-6eb8b3c899e8","system_id":"levelo_inurba_marseille","lat":43.29034,"lon":5.35916,"is_reserved":false,"is_disabled":true,"rental_uris":{"android":"levelo://app?vid=9dd1fc98-a89e-437a-b707-6eb8b3c899e8","ios":"levelo://app?vid=9dd1fc98-a89e-437a-b707-6eb8b3c899e8"},"vehicle_type_id":"4","last_reported":1732968967,"current_range_meters":400,"station_id":"ce4bha92rcd13ifvqeg0","pricing_plan_id":"cebpf4jnsgd1na2vs0mg"},{"bike_id":"934a4da2-65ac-4a79-8ea3-764b87a18d4a","system_id":"levelo_inurba_marseille","lat":43.29009,"lon":5.38133,"is_reserved":false,"is_disabled":false,"rental_uris":{"android":"levelo://app?vid=934a4da2-65ac-4a79-8ea3-764b87a18d4a","ios":"levelo://app?vid=934a4da2-65ac-4a79-8ea3-764b87a18d4a"},"vehicle_type_id":"4","last_reported":1732968967,"current_range_meters":9600,"station_id":"ce4bh4p2rcd13ifvqe1g","pricing_plan_id":"cebpf4jnsgd1na2vs0mg"},{"bike_id":"aea6b7a8-fa3c-4842-89c6-693b08a99724","system_id":"levelo_inurba_marseille","lat":43.33752,"lon":5.37428,"is_reserved":false,"is_disabled":false,"rental_uris":{"android":"levelo://app?vid=aea6b7a8-fa3c-4842-89c6-693b08a99724","ios":"levelo://app?vid=aea6b7a8-fa3c-4842-89c6-693b08a99724"},"vehicle_type_id":"4","last_reported":1732968967,"current_range_meters":38800,"station_id":"","pricing_plan_id":"cebpf4jnsgd1na2vs0mg"},{"bike_id":"9526b95e-772d-4441-a6f2-627c2e72c46b","system_id":"levelo_inurba_marseille","lat":43.28999,"lon":5.35611,"is_reserved":false,"is_disabled":false,"rental_uris":{"android":"levelo://app?vid=9526b95e-772d-4441-a6f2-627c2e72c46b","ios":"levelo://app?vid=9526b95e-772d-4441-a6f2-627c2e72c46b"},"vehicle_type_id":"4","last_reported":1732968967,"current_range_meters":22800,"station_id":"ce4bhb92rcd13ifvqen0","pricing_plan_id":"cebpf4jnsgd1na2vs0mg"},{"bike_id":"a1da46ac-0823-493f-ac56-218330798636","system_id":"levelo_inurba_marseille","lat":43.24384,"lon":5.37066,"is_reserved":false,"is_disabled":false,"rental_uris":{"android":"levelo://app?vid=a1da46ac-0823-493f-ac56-218330798636","ios":"levelo://app?vid=a1da46ac-0823-493f-ac56-218330798636"},"vehicle_type_id":"4","last_reported":1732968967,"current_range_meters":39200,"station_id":"ce4bhhh2rcd13ifvqfk0","pricing_plan_id":"cebpf4jnsgd1na2vs0mg"},{"bike_id":"a5909545-3e09-4859-9fda-9ffe4e6e4883","system_id":"levelo_inurba_marseille","lat":43.23066,"lon":5.35492,"is_reserved":false,"is_disabled":false,"rental_uris":{"android":"levelo://app?vid=a5909545-3e09-4859-9fda-9ffe4e6e4883","ios":"levelo://app?vid=a5909545-3e09-4859-9fda-9ffe4e6e4883"},"vehicle_type_id":"4","last_reported":1732968967,"current_range_meters":11600,"station_id":"cpo3342slgdg3j2ifvpg","pricing_plan_id":"cebpf4jnsgd1na2vs0mg"},{"bike_id":"01dd0f6c-5d7c-4e63-a161-668f65657b81","system_id":"levelo_inurba_marseille","lat":43.23045,"lon":5.35481,"is_reserved":false,"is_disabled":false,"rental_uris":{"android":"levelo://app?vid=01dd0f6c-5d7c-4e63-a161-668f65657b81","ios":"levelo://app?vid=01dd0f6c-5d7c-4e63-a161-668f65657b81"},"vehicle_type_id":"4","last_reported":1732968967,"current_range_meters":36000,"station_id":"cpo3532slgdg3j2ikp40","pricing_plan_id":"cebpf4jnsgd1na2vs0mg"},{"bike_id":"8a706c0a-83d1-44fa-9127-38cdaec2557e","system_id":"levelo_inurba_marseille","lat":43.31423,"lon":5.39381,"is_reserved":false,"is_disabled":false,"rental_uris":{"android":"levelo://app?vid=8a706c0a-83d1-44fa-9127-38cdaec2557e","ios":"levelo://app?vid=8a706c0a-83d1-44fa-9127-38cdaec2557e"},"vehicle_type_id":"4","last_reported":1732968967,"current_range_meters":38800,"station_id":"","pricing_plan_id":"cebpf4jnsgd1na2vs0mg"},{"bike_id":"78716590-acd8-4375-8266-67d9a41d59a7","system_id":"levelo_inurba_marseille","lat":43.32363,"lon":5.38895,"is_reserved":false,"is_disabled":false,"rental_uris":{"android":"levelo://app?vid=78716590-acd8-4375-8266-67d9a41d59a7","ios":"levelo://app?vid=78716590-acd8-4375-8266-67d9a41d59a7"},"vehicle_type_id":"4","last_reported":1732968967,"current_range_meters":30800,"station_id":"ce4bhqp2rcd13ifvqhog","pricing_plan_id":"cebpf4jnsgd1na2vs0mg"},{"bike_id":"5bc9d9cf-df24-4e03-a64c-e5379f67945a","system_id":"levelo_inurba_marseille","lat":43.27496,"lon":5.42447,"is_reserved":false,"is_disabled":false,"rental_uris":{"android":"levelo://app?vid=5bc9d9cf-df24-4e03-a64c-e5379f67945a","ios":"levelo://app?vid=5bc9d9cf-df24-4e03-a64c-e5379f67945a"},"vehicle_type_id":"4","last_reported":1732968967,"current_range_meters":38000,"station_id":"ce4bhn92rcd13ifvqgrg","pricing_plan_id":"cebpf4jnsgd1na2vs0mg"},{"bike_id":"6cdecfb4-7b59-4e56-a171-904d25c66981","system_id":"levelo_inurba_marseille","lat":43.29301,"lon":5.37449,"is_reserved":false,"is_disabled":false,"rental_uris":{"android":"levelo://app?vid=6cdecfb4-7b59-4e56-a171-904d25c66981","ios":"levelo://app?vid=6cdecfb4-7b59-4e56-a171-904d25c66981"},"vehicle_type_id":"4","last_reported":1732968967,"current_range_meters":38800,"station_id":"ce4bgi12rcd13ifvqb70","pricing_plan_id":"cebpf4jnsgd1na2vs0mg"},{"bike_id":"645c606c-68ed-422b-af50-4155f76d4c2c","system_id":"levelo_inurba_marseille","lat":43.3015,"lon":5.38077,"is_reserved":false,"is_disabled":false,"rental_uris":{"android":"levelo://app?vid=645c606c-68ed-422b-af50-4155f76d4c2c","ios":"levelo://app?vid=645c606c-68ed-422b-af50-4155f76d4c2c"},"vehicle_type_id":"4","last_reported":1732968967,"current_range_meters":22400,"station_id":"ce4bgjp2rcd13ifvqbh0","pricing_plan_id":"cebpf4jnsgd1na2vs0mg"},{"bike_id":"e5951ee3-4a5a-4ebb-b469-096c5188dfa3","system_id":"levelo_inurba_marseille","lat":43.23185,"lon":5.35566,"is_reserved":false,"is_disabled":false,"rental_uris":{"android":"levelo://app?vid=e5951ee3-4a5a-4ebb-b469-096c5188dfa3","ios":"levelo://app?vid=e5951ee3-4a5a-4ebb-b469-096c5188dfa3"},"vehicle_type_id":"4","last_reported":1732968967,"current_range_meters":19600,"station_id":"ce4bhu92rcd13ifvqi70","pricing_plan_id":"cebpf4jnsgd1na2vs0mg"},{"bike_id":"f9a63393-5401-4f98-ae5a-dfbb8291ab6d","system_id":"levelo_inurba_marseille","lat":43.3004,"lon":5.37551,"is_reserved":false,"is_disabled":true,"rental_uris":{"android":"levelo://app?vid=f9a63393-5401-4f98-ae5a-dfbb8291ab6d","ios":"levelo://app?vid=f9a63393-5401-4f98-ae5a-dfbb8291ab6d"},"vehicle_type_id":"4","last_reported":1732968967,"current_range_meters":0,"station_id":"","pricing_plan_id":"cebpf4jnsgd1na2vs0mg"},{"bike_id":"d2300a67-e59d-4c6d-84e8-89c1777cddcc","system_id":"levelo_inurba_marseille","lat":43.31994,"lon":5.38146,"is_reserved":false,"is_disabled":false,"rental_uris":{"android":"levelo://app?vid=d2300a67-e59d-4c6d-84e8-89c1777cddcc","ios":"levelo://app?vid=d2300a67-e59d-4c6d-84e8-89c1777cddcc"},"vehicle_type_id":"4","last_reported":1732968967,"current_range_meters":39200,"station_id":"ce4bhr12rcd13ifvqhpg","pricing_plan_id":"cebpf4jnsgd1na2vs0mg"},{"bike_id":"b38c09bb-a215-4e8b-b764-0091f548550c","system_id":"levelo_inurba_marseille","lat":43.22932,"lon":5.35385,"is_reserved":false,"is_disabled":false,"rental_uris":{"android":"levelo://app?vid=b38c09bb-a215-4e8b-b764-0091f548550c","ios":"levelo://app?vid=b38c09bb-a215-4e8b-b764-0091f548550c"},"vehicle_type_id":"4","last_reported":1732968967,"current_range_meters":25200,"station_id":"cpo3532slgdg3j2ikp40","pricing_plan_id":"cebpf4jnsgd1na2vs0mg"},{"bike_id":"a7a75d90-09b4-454c-af55-b12aa2cae6bd","system_id":"levelo_inurba_marseille","lat":43.27942,"lon":5.41048,"is_reserved":false,"is_disabled":false,"rental_uris":{"android":"levelo://app?vid=a7a75d90-09b4-454c-af55-b12aa2cae6bd","ios":"levelo://app?vid=a7a75d90-09b4-454c-af55-b12aa2cae6bd"},"vehicle_type_id":"4","last_reported":1732968967,"current_range_meters":11600,"station_id":"ce4bhnp2rcd13ifvqh0g","pricing_plan_id":"cebpf4jnsgd1na2vs0mg"},{"bike_id":"42062f9d-6c85-4a6b-8d48-4233b22428d6","system_id":"levelo_inurba_marseille","lat":43.22932,"lon":5.35376,"is_reserved":false,"is_disabled":false,"rental_uris":{"android":"levelo://app?vid=42062f9d-6c85-4a6b-8d48-4233b22428d6","ios":"levelo://app?vid=42062f9d-6c85-4a6b-8d48-4233b22428d6"},"vehicle_type_id":"4","last_reported":1732968967,"current_range_meters":17200,"station_id":"cpo3532slgdg3j2ikp40","pricing_plan_id":"cebpf4jnsgd1na2vs0mg"},{"bike_id":"209edce5-94bd-42b7-894c-233f806592a5","system_id":"levelo_inurba_marseille","lat":43.32362,"lon":5.36755,"is_reserved":false,"is_disabled":false,"rental_uris":{"android":"levelo://app?vid=209edce5-94bd-42b7-894c-233f806592a5","ios":"levelo://app?vid=209edce5-94bd-42b7-894c-233f806592a5"},"vehicle_type_id":"4","last_reported":1732968967,"current_range_meters":28400,"station_id":"ce4bhsh2rcd13ifvqi2g","pricing_plan_id":"cebpf4jnsgd1na2vs0mg"},{"bike_id":"4fe3c93b-affc-4fda-912c-694c19d147c1","system_id":"levelo_inurba_marseille","lat":43.30558,"lon":5.36551,"is_reserved":false,"is_disabled":false,"rental_uris":{"android":"levelo://app?vid=4fe3c93b-affc-4fda-912c-694c19d147c1","ios":"levelo://app?vid=4fe3c93b-affc-4fda-912c-694c19d147c1"},"vehicle_type_id":"4","last_reported":1732968967,"current_range_meters":39200,"station_id":"ce4bgs12rcd13ifvqcag","pricing_plan_id":"cebpf4jnsgd1na2vs0mg"},{"bike_id":"04791269-9bad-451a-a252-9b63a8db9660","system_id":"levelo_inurba_marseille","lat":43.28033,"lon":5.36947,"is_reserved":false,"is_disabled":false,"rental_uris":{"android":"levelo://app?vid=04791269-9bad-451a-a252-9b63a8db9660","ios":"levelo://app?vid=04791269-9bad-451a-a252-9b63a8db9660"},"vehicle_type_id":"4","last_reported":1732968967,"current_range_meters":8000,"station_id":"ce4bha12rcd13ifvqef0","pricing_plan_id":"cebpf4jnsgd1na2vs0mg"},{"bike_id":"efbc4d20-bdec-45eb-8f74-c8ad3b7ba3bb","system_id":"levelo_inurba_marseille","lat":43.23056,"lon":5.35489,"is_reserved":false,"is_disabled":false,"rental_uris":{"android":"levelo://app?vid=efbc4d20-bdec-45eb-8f74-c8ad3b7ba3bb","ios":"levelo://app?vid=efbc4d20-bdec-45eb-8f74-c8ad3b7ba3bb"},"vehicle_type_id":"4","last_reported":1732968967,"current_range_meters":29600,"station_id":"cpo3342slgdg3j2ifvpg","pricing_plan_id":"cebpf4jnsgd1na2vs0mg"},{"bike_id":"9132331a-2f23-4a53-99e9-ef55b73613c2","system_id":"levelo_inurba_marseille","lat":43.33022,"lon":5.39044,"is_reserved":false,"is_disabled":false,"rental_uris":{"android":"levelo://app?vid=9132331a-2f23-4a53-99e9-ef55b73613c2","ios":"levelo://app?vid=9132331a-2f23-4a53-99e9-ef55b73613c2"},"vehicle_type_id":"4","last_reported":1732968967,"current_range_meters":36800,"station_id":"ce4bhr92rcd13ifvqhrg","pricing_plan_id":"cebpf4jnsgd1na2vs0mg"},{"bike_id":"38798db8-5bd5-4792-b41b-6f809d1b1c45","system_id":"levelo_inurba_marseille","lat":43.3199,"lon":5.38153,"is_reserved":false,"is_disabled":false,"rental_uris":{"android":"levelo://app?vid=38798db8-5bd5-4792-b41b-6f809d1b1c45","ios":"levelo://app?vid=38798db8-5bd5-4792-b41b-6f809d1b1c45"},"vehicle_type_id":"4","last_reported":1732968967,"current_range_meters":18800,"station_id":"ce4bhr12rcd13ifvqhpg","pricing_plan_id":"cebpf4jnsgd1na2vs0mg"},{"bike_id":"29e39257-45f4-4609-ab78-f3fa5cbaaf6a","system_id":"levelo_inurba_marseille","lat":43.30087,"lon":5.39076,"is_reserved":false,"is_disabled":false,"rental_uris":{"android":"levelo://app?vid=29e39257-45f4-4609-ab78-f3fa5cbaaf6a","ios":"levelo://app?vid=29e39257-45f4-4609-ab78-f3fa5cbaaf6a"},"vehicle_type_id":"4","last_reported":1732968967,"current_range_meters":9200,"station_id":"ce4bh192rcd13ifvqdb0","pricing_plan_id":"cebpf4jnsgd1na2vs0mg"},{"bike_id":"375f3ff8-f817-4dea-ba6a-e7f3d0cf2b56","system_id":"levelo_inurba_marseille","lat":43.28033,"lon":5.36955,"is_reserved":false,"is_disabled":false,"rental_uris":{"android":"levelo://app?vid=375f3ff8-f817-4dea-ba6a-e7f3d0cf2b56","ios":"levelo://app?vid=375f3ff8-f817-4dea-ba6a-e7f3d0cf2b56"},"vehicle_type_id":"4","last_reported":1732968967,"current_range_meters":40000,"station_id":"ce4bha12rcd13ifvqef0","pricing_plan_id":"cebpf4jnsgd1na2vs0mg"},{"bike_id":"e05ac5be-d807-4203-8b20-bdb26cceefb0","system_id":"levelo_inurba_marseille","lat":43.31762,"lon":5.39016,"is_reserved":false,"is_disabled":false,"rental_uris":{"android":"levelo://app?vid=e05ac5be-d807-4203-8b20-bdb26cceefb0","ios":"levelo://app?vid=e05ac5be-d807-4203-8b20-bdb26cceefb0"},"vehicle_type_id":"4","last_reported":1732968967,"current_range_meters":35600,"station_id":"ce4bhqp2rcd13ifvqhng","pricing_plan_id":"cebpf4jnsgd1na2vs0mg"},{"bike_id":"c43fffd1-108f-4493-9c53-d2971d2b16a2","system_id":"levelo_inurba_marseille","lat":43.32919,"lon":5.4156,"is_reserved":false,"is_disabled":false,"rental_uris":{"android":"levelo://app?vid=c43fffd1-108f-4493-9c53-d2971d2b16a2","ios":"levelo://app?vid=c43fffd1-108f-4493-9c53-d2971d2b16a2"},"vehicle_type_id":"4","last_reported":1732968967,"current_range_meters":20800,"station_id":"","pricing_plan_id":"cebpf4jnsgd1na2vs0mg"},{"bike_id":"6c1c06ad-fe08-4279-a54a-e78e9167c178","system_id":"levelo_inurba_marseille","lat":43.2957,"lon":5.3998,"is_reserved":false,"is_disabled":false,"rental_uris":{"android":"levelo://app?vid=6c1c06ad-fe08-4279-a54a-e78e9167c178","ios":"levelo://app?vid=6c1c06ad-fe08-4279-a54a-e78e9167c178"},"vehicle_type_id":"4","last_reported":1732968967,"current_range_meters":35200,"station_id":"ce4bh312rcd13ifvqdj0","pricing_plan_id":"cebpf4jnsgd1na2vs0mg"},{"bike_id":"ccba872b-b73e-4c65-9348-bf2fa2550f0e","system_id":"levelo_inurba_marseille","lat":43.2929,"lon":5.37447,"is_reserved":false,"is_disabled":false,"rental_uris":{"android":"levelo://app?vid=ccba872b-b73e-4c65-9348-bf2fa2550f0e","ios":"levelo://app?vid=ccba872b-b73e-4c65-9348-bf2fa2550f0e"},"vehicle_type_id":"4","last_reported":1732968967,"current_range_meters":38800,"station_id":"ce4bgi12rcd13ifvqb70","pricing_plan_id":"cebpf4jnsgd1na2vs0mg"},{"bike_id":"b872d823-7b81-4c99-ae24-4570b866362e","system_id":"levelo_inurba_marseille","lat":43.30924,"lon":5.40143,"is_reserved":false,"is_disabled":false,"rental_uris":{"android":"levelo://app?vid=b872d823-7b81-4c99-ae24-4570b866362e","ios":"levelo://app?vid=b872d823-7b81-4c99-ae24-4570b866362e"},"vehicle_type_id":"4","last_reported":1732968967,"current_range_meters":32400,"station_id":"ce4bgvp2rcd13ifvqct0","pricing_plan_id":"cebpf4jnsgd1na2vs0mg"},{"bike_id":"0c242f5a-6821-416d-94b3-c1253f1991e4","system_id":"levelo_inurba_marseille","lat":43.2952,"lon":5.39048,"is_reserved":false,"is_disabled":false,"rental_uris":{"android":"levelo://app?vid=0c242f5a-6821-416d-94b3-c1253f1991e4","ios":"levelo://app?vid=0c242f5a-6821-416d-94b3-c1253f1991e4"},"vehicle_type_id":"4","last_reported":1732968967,"current_range_meters":24400,"station_id":"ce4bh3p2rcd13ifvqdp0","pricing_plan_id":"cebpf4jnsgd1na2vs0mg"},{"bike_id":"43746d86-8a13-4845-9faf-ae69b548d714","system_id":"levelo_inurba_marseille","lat":43.29459,"lon":5.37917,"is_reserved":false,"is_disabled":true,"rental_uris":{"android":"levelo://app?vid=43746d86-8a13-4845-9faf-ae69b548d714","ios":"levelo://app?vid=43746d86-8a13-4845-9faf-ae69b548d714"},"vehicle_type_id":"4","last_reported":1732968967,"current_range_meters":0,"station_id":"","pricing_plan_id":"cebpf4jnsgd1na2vs0mg"},{"bike_id":"b99d912f-5dc0-4792-8912-e0c60fda2b57","system_id":"levelo_inurba_marseille","lat":43.23055,"lon":5.35496,"is_reserved":false,"is_disabled":false,"rental_uris":{"android":"levelo://app?vid=b99d912f-5dc0-4792-8912-e0c60fda2b57","ios":"levelo://app?vid=b99d912f-5dc0-4792-8912-e0c60fda2b57"},"vehicle_type_id":"4","last_reported":1732968967,"current_range_meters":27600,"station_id":"cpo3342slgdg3j2ifvpg","pricing_plan_id":"cebpf4jnsgd1na2vs0mg"},{"bike_id":"d3e6dd8f-9329-4431-8172-cbb2661390eb","system_id":"levelo_inurba_marseille","lat":43.29933,"lon":5.36554,"is_reserved":false,"is_disabled":false,"rental_uris":{"android":"levelo://app?vid=d3e6dd8f-9329-4431-8172-cbb2661390eb","ios":"levelo://app?vid=d3e6dd8f-9329-4431-8172-cbb2661390eb"},"vehicle_type_id":"4","last_reported":1732968967,"current_range_meters":38800,"station_id":"ce4bgm92rcd13ifvqbr0","pricing_plan_id":"cebpf4jnsgd1na2vs0mg"},{"bike_id":"47a90437-acbe-44e5-ba57-0be28e485092","system_id":"levelo_inurba_marseille","lat":43.30079,"lon":5.39091,"is_reserved":false,"is_disabled":false,"rental_uris":{"android":"levelo://app?vid=47a90437-acbe-44e5-ba57-0be28e485092","ios":"levelo://app?vid=47a90437-acbe-44e5-ba57-0be28e485092"},"vehicle_type_id":"4","last_reported":1732968967,"current_range_meters":27200,"station_id":"ce4bh192rcd13ifvqdb0","pricing_plan_id":"cebpf4jnsgd1na2vs0mg"},{"bike_id":"8b9b79f9-3aaa-4444-8431-6e75d6ee4785","system_id":"levelo_inurba_marseille","lat":43.29202,"lon":5.35824,"is_reserved":false,"is_disabled":false,"rental_uris":{"android":"levelo://app?vid=8b9b79f9-3aaa-4444-8431-6e75d6ee4785","ios":"levelo://app?vid=8b9b79f9-3aaa-4444-8431-6e75d6ee4785"},"vehicle_type_id":"4","last_reported":1732968967,"current_range_meters":40000,"station_id":"ce4bhb12rcd13ifvqel0","pricing_plan_id":"cebpf4jnsgd1na2vs0mg"},{"bike_id":"810c7875-6323-45bb-8640-c0d7d6b3d7c4","system_id":"levelo_inurba_marseille","lat":43.29531,"lon":5.38547,"is_reserved":false,"is_disabled":false,"rental_uris":{"android":"levelo://app?vid=810c7875-6323-45bb-8640-c0d7d6b3d7c4","ios":"levelo://app?vid=810c7875-6323-45bb-8640-c0d7d6b3d7c4"},"vehicle_type_id":"4","last_reported":1732968967,"current_range_meters":20400,"station_id":"ce4bgih2rcd13ifvqba0","pricing_plan_id":"cebpf4jnsgd1na2vs0mg"},{"bike_id":"2128ca5f-479c-4e9b-909a-d8926555554b","system_id":"levelo_inurba_marseille","lat":43.24808,"lon":5.37456,"is_reserved":false,"is_disabled":false,"rental_uris":{"android":"levelo://app?vid=2128ca5f-479c-4e9b-909a-d8926555554b","ios":"levelo://app?vid=2128ca5f-479c-4e9b-909a-d8926555554b"},"vehicle_type_id":"4","last_reported":1732968967,"current_range_meters":31200,"station_id":"ce4bhgh2rcd13ifvqfb0","pricing_plan_id":"cebpf4jnsgd1na2vs0mg"},{"bike_id":"9079fe0c-736f-4bf9-8fea-9b8a4416f369","system_id":"levelo_inurba_marseille","lat":43.2962,"lon":5.37158,"is_reserved":false,"is_disabled":false,"rental_uris":{"android":"levelo://app?vid=9079fe0c-736f-4bf9-8fea-9b8a4416f369","ios":"levelo://app?vid=9079fe0c-736f-4bf9-8fea-9b8a4416f369"},"vehicle_type_id":"4","last_reported":1732968967,"current_range_meters":26000,"station_id":"ce4bgnh2rcd13ifvqc0g","pricing_plan_id":"cebpf4jnsgd1na2vs0mg"},{"bike_id":"8224d37b-5677-43f5-94bd-2373379da771","system_id":"levelo_inurba_marseille","lat":43.29615,"lon":5.37725,"is_reserved":false,"is_disabled":false,"rental_uris":{"android":"levelo://app?vid=8224d37b-5677-43f5-94bd-2373379da771","ios":"levelo://app?vid=8224d37b-5677-43f5-94bd-2373379da771"},"vehicle_type_id":"4","last_reported":1732968967,"current_range_meters":33200,"station_id":"ce4bgi92rcd13ifvqb90","pricing_plan_id":"cebpf4jnsgd1na2vs0mg"},{"bike_id":"15e24c31-4292-4084-bcd3-e24f0a31685e","system_id":"levelo_inurba_marseille","lat":43.28425,"lon":5.34999,"is_reserved":false,"is_disabled":true,"rental_uris":{"android":"levelo://app?vid=15e24c31-4292-4084-bcd3-e24f0a31685e","ios":"levelo://app?vid=15e24c31-4292-4084-bcd3-e24f0a31685e"},"vehicle_type_id":"4","last_reported":1732968967,"current_range_meters":35600,"station_id":"ce4bhbh2rcd13ifvqepg","pricing_plan_id":"cebpf4jnsgd1na2vs0mg"},{"bike_id":"7eaab2fe-3af4-4ddb-b841-bb2f530b0abb","system_id":"levelo_inurba_marseille","lat":43.32476,"lon":5.36529,"is_reserved":false,"is_disabled":false,"rental_uris":{"android":"levelo://app?vid=7eaab2fe-3af4-4ddb-b841-bb2f530b0abb","ios":"levelo://app?vid=7eaab2fe-3af4-4ddb-b841-bb2f530b0abb"},"vehicle_type_id":"4","last_reported":1732968967,"current_range_meters":38800,"station_id":"ce4bhs12rcd13ifvqhvg","pricing_plan_id":"cebpf4jnsgd1na2vs0mg"},{"bike_id":"ed2e18cb-6b73-482a-997d-872d2e2185a6","system_id":"levelo_inurba_marseille","lat":43.22931,"lon":5.35372,"is_reserved":false,"is_disabled":false,"rental_uris":{"android":"levelo://app?vid=ed2e18cb-6b73-482a-997d-872d2e2185a6","ios":"levelo://app?vid=ed2e18cb-6b73-482a-997d-872d2e2185a6"},"vehicle_type_id":"4","last_reported":1732968967,"current_range_meters":40000,"station_id":"cpo3532slgdg3j2ikp40","pricing_plan_id":"cebpf4jnsgd1na2vs0mg"},{"bike_id":"10abe4b6-26e4-45e3-b0b0-8edd299bef5f","system_id":"levelo_inurba_marseille","lat":43.29579,"lon":5.37505,"is_reserved":false,"is_disabled":false,"rental_uris":{"android":"levelo://app?vid=10abe4b6-26e4-45e3-b0b0-8edd299bef5f","ios":"levelo://app?vid=10abe4b6-26e4-45e3-b0b0-8edd299bef5f"},"vehicle_type_id":"4","last_reported":1732968967,"current_range_meters":36800,"station_id":"ce4bgh92rcd13ifvqb50","pricing_plan_id":"cebpf4jnsgd1na2vs0mg"},{"bike_id":"b09904cc-b6ae-40b4-a4ad-c52db40428fe","system_id":"levelo_inurba_marseille","lat":43.2962,"lon":5.37726,"is_reserved":false,"is_disabled":false,"rental_uris":{"android":"levelo://app?vid=b09904cc-b6ae-40b4-a4ad-c52db40428fe","ios":"levelo://app?vid=b09904cc-b6ae-40b4-a4ad-c52db40428fe"},"vehicle_type_id":"4","last_reported":1732968967,"current_range_meters":10800,"station_id":"ce4bgi92rcd13ifvqb90","pricing_plan_id":"cebpf4jnsgd1na2vs0mg"},{"bike_id":"fc4d15f5-6256-45a3-90d6-77bb4c676955","system_id":"levelo_inurba_marseille","lat":43.296284,"lon":5.377877,"is_reserved":false,"is_disabled":true,"rental_uris":{"android":"levelo://app?vid=fc4d15f5-6256-45a3-90d6-77bb4c676955","ios":"levelo://app?vid=fc4d15f5-6256-45a3-90d6-77bb4c676955"},"vehicle_type_id":"4","last_reported":1732968967,"current_range_meters":24800,"station_id":"","pricing_plan_id":"cebpf4jnsgd1na2vs0mg"},{"bike_id":"4737c401-b4cb-4bae-b030-a364583941c7","system_id":"levelo_inurba_marseille","lat":43.26971,"lon":5.39301,"is_reserved":false,"is_disabled":false,"rental_uris":{"android":"levelo://app?vid=4737c401-b4cb-4bae-b030-a364583941c7","ios":"levelo://app?vid=4737c401-b4cb-4bae-b030-a364583941c7"},"vehicle_type_id":"4","last_reported":1732968967,"current_range_meters":16800,"station_id":"ce4bhoh2rcd13ifvqh5g","pricing_plan_id":"cebpf4jnsgd1na2vs0mg"},{"bike_id":"c88f8730-1176-4717-97e2-17c27b15274f","system_id":"levelo_inurba_marseille","lat":43.23192,"lon":5.35543,"is_reserved":false,"is_disabled":false,"rental_uris":{"android":"levelo://app?vid=c88f8730-1176-4717-97e2-17c27b15274f","ios":"levelo://app?vid=c88f8730-1176-4717-97e2-17c27b15274f"},"vehicle_type_id":"4","last_reported":1732968967,"current_range_meters":39200,"station_id":"ce4bhu92rcd13ifvqi70","pricing_plan_id":"cebpf4jnsgd1na2vs0mg"},{"bike_id":"50ec6fb7-fa0f-4bc7-84bf-1a32a2944e99","system_id":"levelo_inurba_marseille","lat":43.3051,"lon":5.36687,"is_reserved":false,"is_disabled":false,"rental_uris":{"android":"levelo://app?vid=50ec6fb7-fa0f-4bc7-84bf-1a32a2944e99","ios":"levelo://app?vid=50ec6fb7-fa0f-4bc7-84bf-1a32a2944e99"},"vehicle_type_id":"4","last_reported":1732968967,"current_range_meters":31200,"station_id":"ce4bgrp2rcd13ifvqc9g","pricing_plan_id":"cebpf4jnsgd1na2vs0mg"},{"bike_id":"a16afe75-0fd4-4a69-b96a-bb6ed635780c","system_id":"levelo_inurba_marseille","lat":43.31124,"lon":5.37773,"is_reserved":false,"is_disabled":true,"rental_uris":{"android":"levelo://app?vid=a16afe75-0fd4-4a69-b96a-bb6ed635780c","ios":"levelo://app?vid=a16afe75-0fd4-4a69-b96a-bb6ed635780c"},"vehicle_type_id":"4","last_reported":1732968967,"current_range_meters":22000,"station_id":"ce4bgt92rcd13ifvqcg0","pricing_plan_id":"cebpf4jnsgd1na2vs0mg"},{"bike_id":"da719756-3742-4209-8d60-b3804f08c501","system_id":"levelo_inurba_marseille","lat":43.29785,"lon":5.38,"is_reserved":false,"is_disabled":false,"rental_uris":{"android":"levelo://app?vid=da719756-3742-4209-8d60-b3804f08c501","ios":"levelo://app?vid=da719756-3742-4209-8d60-b3804f08c501"},"vehicle_type_id":"4","last_reported":1732968967,"current_range_meters":27600,"station_id":"","pricing_plan_id":"cebpf4jnsgd1na2vs0mg"},{"bike_id":"cd79a5f5-da8f-43bb-a104-c2323e745e42","system_id":"levelo_inurba_marseille","lat":43.30882,"lon":5.39662,"is_reserved":false,"is_disabled":false,"rental_uris":{"android":"levelo://app?vid=cd79a5f5-da8f-43bb-a104-c2323e745e42","ios":"levelo://app?vid=cd79a5f5-da8f-43bb-a104-c2323e745e42"},"vehicle_type_id":"4","last_reported":1732968967,"current_range_meters":30400,"station_id":"ce4bh012rcd13ifvqcv0","pricing_plan_id":"cebpf4jnsgd1na2vs0mg"},{"bike_id":"5547a441-9653-482c-905c-97a54076438b","system_id":"levelo_inurba_marseille","lat":43.32366,"lon":5.36769,"is_reserved":false,"is_disabled":false,"rental_uris":{"android":"levelo://app?vid=5547a441-9653-482c-905c-97a54076438b","ios":"levelo://app?vid=5547a441-9653-482c-905c-97a54076438b"},"vehicle_type_id":"4","last_reported":1732968967,"current_range_meters":16000,"station_id":"ce4bhsh2rcd13ifvqi2g","pricing_plan_id":"cebpf4jnsgd1na2vs0mg"},{"bike_id":"c222ea7d-da79-4c46-ae5e-171eab8ef2eb","system_id":"levelo_inurba_marseille","lat":43.29727,"lon":5.37698,"is_reserved":false,"is_disabled":false,"rental_uris":{"android":"levelo://app?vid=c222ea7d-da79-4c46-ae5e-171eab8ef2eb","ios":"levelo://app?vid=c222ea7d-da79-4c46-ae5e-171eab8ef2eb"},"vehicle_type_id":"4","last_reported":1732968967,"current_range_meters":38800,"station_id":"ce4bgkh2rcd13ifvqbl0","pricing_plan_id":"cebpf4jnsgd1na2vs0mg"},{"bike_id":"8cdf91ca-38a8-40c2-9b1d-089e42292163","system_id":"levelo_inurba_marseille","lat":43.28418,"lon":5.3499,"is_reserved":false,"is_disabled":false,"rental_uris":{"android":"levelo://app?vid=8cdf91ca-38a8-40c2-9b1d-089e42292163","ios":"levelo://app?vid=8cdf91ca-38a8-40c2-9b1d-089e42292163"},"vehicle_type_id":"4","last_reported":1732968967,"current_range_meters":32000,"station_id":"ce4bhbh2rcd13ifvqepg","pricing_plan_id":"cebpf4jnsgd1na2vs0mg"},{"bike_id":"149912fd-04c4-4654-ab72-cda5442e2968","system_id":"levelo_inurba_marseille","lat":43.30094,"lon":5.39073,"is_reserved":false,"is_disabled":false,"rental_uris":{"android":"levelo://app?vid=149912fd-04c4-4654-ab72-cda5442e2968","ios":"levelo://app?vid=149912fd-04c4-4654-ab72-cda5442e2968"},"vehicle_type_id":"4","last_reported":1732968967,"current_range_meters":38400,"station_id":"ce4bh192rcd13ifvqdb0","pricing_plan_id":"cebpf4jnsgd1na2vs0mg"},{"bike_id":"33580775-f4c8-4b3f-8c60-28d748d735cf","system_id":"levelo_inurba_marseille","lat":43.27207,"lon":5.39185,"is_reserved":false,"is_disabled":false,"rental_uris":{"android":"levelo://app?vid=33580775-f4c8-4b3f-8c60-28d748d735cf","ios":"levelo://app?vid=33580775-f4c8-4b3f-8c60-28d748d735cf"},"vehicle_type_id":"4","last_reported":1732968967,"current_range_meters":16800,"station_id":"ce4bhhp2rcd13ifvqfm0","pricing_plan_id":"cebpf4jnsgd1na2vs0mg"},{"bike_id":"2545b486-f597-4ecd-8508-05df785b0c49","system_id":"levelo_inurba_marseille","lat":43.33021,"lon":5.39036,"is_reserved":false,"is_disabled":false,"rental_uris":{"android":"levelo://app?vid=2545b486-f597-4ecd-8508-05df785b0c49","ios":"levelo://app?vid=2545b486-f597-4ecd-8508-05df785b0c49"},"vehicle_type_id":"4","last_reported":1732968967,"current_range_meters":38800,"station_id":"ce4bhr92rcd13ifvqhrg","pricing_plan_id":"cebpf4jnsgd1na2vs0mg"},{"bike_id":"615d3b9c-5cdd-4442-8e0c-b2ac0c975d11","system_id":"levelo_inurba_marseille","lat":43.29545,"lon":5.42276,"is_reserved":false,"is_disabled":false,"rental_uris":{"android":"levelo://app?vid=615d3b9c-5cdd-4442-8e0c-b2ac0c975d11","ios":"levelo://app?vid=615d3b9c-5cdd-4442-8e0c-b2ac0c975d11"},"vehicle_type_id":"4","last_reported":1732968967,"current_range_meters":36800,"station_id":"ce4bhph2rcd13ifvqhdg","pricing_plan_id":"cebpf4jnsgd1na2vs0mg"},{"bike_id":"6b24c5f9-0bdb-4efc-aae5-a9650fb06268","system_id":"levelo_inurba_marseille","lat":43.28689,"lon":5.37397,"is_reserved":false,"is_disabled":false,"rental_uris":{"android":"levelo://app?vid=6b24c5f9-0bdb-4efc-aae5-a9650fb06268","ios":"levelo://app?vid=6b24c5f9-0bdb-4efc-aae5-a9650fb06268"},"vehicle_type_id":"4","last_reported":1732968967,"current_range_meters":24400,"station_id":"ce4bh3p2rcd13ifvqdq0","pricing_plan_id":"cebpf4jnsgd1na2vs0mg"},{"bike_id":"9a895942-1a5a-4978-9bad-83f43f67cae7","system_id":"levelo_inurba_marseille","lat":43.27568,"lon":5.38421,"is_reserved":false,"is_disabled":true,"rental_uris":{"android":"levelo://app?vid=9a895942-1a5a-4978-9bad-83f43f67cae7","ios":"levelo://app?vid=9a895942-1a5a-4978-9bad-83f43f67cae7"},"vehicle_type_id":"4","last_reported":1732968967,"current_range_meters":800,"station_id":"ce4bhh92rcd13ifvqfi0","pricing_plan_id":"cebpf4jnsgd1na2vs0mg"},{"bike_id":"9bc8c65a-39ab-4760-9bd4-98cf64dfeec4","system_id":"levelo_inurba_marseille","lat":43.2417,"lon":5.36394,"is_reserved":false,"is_disabled":false,"rental_uris":{"android":"levelo://app?vid=9bc8c65a-39ab-4760-9bd4-98cf64dfeec4","ios":"levelo://app?vid=9bc8c65a-39ab-4760-9bd4-98cf64dfeec4"},"vehicle_type_id":"4","last_reported":1732968967,"current_range_meters":22400,"station_id":"cpo36qri1sfpv3e86is0","pricing_plan_id":"cebpf4jnsgd1na2vs0mg"},{"bike_id":"1a7673b3-37bc-4091-b879-e7a9dba2d923","system_id":"levelo_inurba_marseille","lat":43.254991,"lon":5.3766,"is_reserved":false,"is_disabled":false,"rental_uris":{"android":"levelo://app?vid=1a7673b3-37bc-4091-b879-e7a9dba2d923","ios":"levelo://app?vid=1a7673b3-37bc-4091-b879-e7a9dba2d923"},"vehicle_type_id":"4","last_reported":1732968967,"current_range_meters":10800,"station_id":"ce4bhh12rcd13ifvqff0","pricing_plan_id":"cebpf4jnsgd1na2vs0mg"},{"bike_id":"4bec4e0e-ef4c-4da0-b561-58c48e54ff15","system_id":"levelo_inurba_marseille","lat":43.30151,"lon":5.38075,"is_reserved":false,"is_disabled":false,"rental_uris":{"android":"levelo://app?vid=4bec4e0e-ef4c-4da0-b561-58c48e54ff15","ios":"levelo://app?vid=4bec4e0e-ef4c-4da0-b561-58c48e54ff15"},"vehicle_type_id":"4","last_reported":1732968967,"current_range_meters":19200,"station_id":"ce4bgjp2rcd13ifvqbh0","pricing_plan_id":"cebpf4jnsgd1na2vs0mg"},{"bike_id":"14a4f0e3-d54f-47b8-a445-c36225f4c58d","system_id":"levelo_inurba_marseille","lat":43.24543,"lon":5.39519,"is_reserved":false,"is_disabled":true,"rental_uris":{"android":"levelo://app?vid=14a4f0e3-d54f-47b8-a445-c36225f4c58d","ios":"levelo://app?vid=14a4f0e3-d54f-47b8-a445-c36225f4c58d"},"vehicle_type_id":"4","last_reported":1732968967,"current_range_meters":0,"station_id":"ce4bhlp2rcd13ifvqgjg","pricing_plan_id":"cebpf4jnsgd1na2vs0mg"},{"bike_id":"e69e883f-9a14-48f4-b62c-b02f99fbf6fd","system_id":"levelo_inurba_marseille","lat":43.30545,"lon":5.36544,"is_reserved":false,"is_disabled":false,"rental_uris":{"android":"levelo://app?vid=e69e883f-9a14-48f4-b62c-b02f99fbf6fd","ios":"levelo://app?vid=e69e883f-9a14-48f4-b62c-b02f99fbf6fd"},"vehicle_type_id":"4","last_reported":1732968967,"current_range_meters":32000,"station_id":"","pricing_plan_id":"cebpf4jnsgd1na2vs0mg"},{"bike_id":"6b9c6959-9e81-4ef7-ba6d-d01460a2ffba","system_id":"levelo_inurba_marseille","lat":43.29014,"lon":5.3814,"is_reserved":false,"is_disabled":false,"rental_uris":{"android":"levelo://app?vid=6b9c6959-9e81-4ef7-ba6d-d01460a2ffba","ios":"levelo://app?vid=6b9c6959-9e81-4ef7-ba6d-d01460a2ffba"},"vehicle_type_id":"4","last_reported":1732968967,"current_range_meters":37600,"station_id":"ce4bh4p2rcd13ifvqe1g","pricing_plan_id":"cebpf4jnsgd1na2vs0mg"},{"bike_id":"be90ed90-27bc-4d47-a842-c8c5f17a5cf1","system_id":"levelo_inurba_marseille","lat":43.26805,"lon":5.40271,"is_reserved":false,"is_disabled":false,"rental_uris":{"android":"levelo://app?vid=be90ed90-27bc-4d47-a842-c8c5f17a5cf1","ios":"levelo://app?vid=be90ed90-27bc-4d47-a842-c8c5f17a5cf1"},"vehicle_type_id":"4","last_reported":1732968967,"current_range_meters":32000,"station_id":"ce501612rcd8frsf0b60","pricing_plan_id":"cebpf4jnsgd1na2vs0mg"},{"bike_id":"117c81c6-9683-495a-80ea-c409aec9839a","system_id":"levelo_inurba_marseille","lat":43.24648,"lon":5.38887,"is_reserved":false,"is_disabled":false,"rental_uris":{"android":"levelo://app?vid=117c81c6-9683-495a-80ea-c409aec9839a","ios":"levelo://app?vid=117c81c6-9683-495a-80ea-c409aec9839a"},"vehicle_type_id":"4","last_reported":1732968967,"current_range_meters":37600,"station_id":"ce4bhg12rcd13ifvqf60","pricing_plan_id":"cebpf4jnsgd1na2vs0mg"},{"bike_id":"b1ae18ca-e50d-4dbe-8ae7-d58a90ab52b2","system_id":"levelo_inurba_marseille","lat":43.23964,"lon":5.36636,"is_reserved":false,"is_disabled":false,"rental_uris":{"android":"levelo://app?vid=b1ae18ca-e50d-4dbe-8ae7-d58a90ab52b2","ios":"levelo://app?vid=b1ae18ca-e50d-4dbe-8ae7-d58a90ab52b2"},"vehicle_type_id":"4","last_reported":1732968967,"current_range_meters":24000,"station_id":"ce4bhi12rcd13ifvqfp0","pricing_plan_id":"cebpf4jnsgd1na2vs0mg"},{"bike_id":"787f3017-f312-4e9d-b90c-dfcf2e39c5f3","system_id":"levelo_inurba_marseille","lat":43.2989,"lon":5.38538,"is_reserved":false,"is_disabled":true,"rental_uris":{"android":"levelo://app?vid=787f3017-f312-4e9d-b90c-dfcf2e39c5f3","ios":"levelo://app?vid=787f3017-f312-4e9d-b90c-dfcf2e39c5f3"},"vehicle_type_id":"4","last_reported":1732968967,"current_range_meters":400,"station_id":"","pricing_plan_id":"cebpf4jnsgd1na2vs0mg"},{"bike_id":"365de24e-a53d-4024-8195-20d1c4ace829","system_id":"levelo_inurba_marseille","lat":43.29611,"lon":5.3773,"is_reserved":false,"is_disabled":false,"rental_uris":{"android":"levelo://app?vid=365de24e-a53d-4024-8195-20d1c4ace829","ios":"levelo://app?vid=365de24e-a53d-4024-8195-20d1c4ace829"},