{"last_updated":1746889767,"ttl":60,"version":"2.2","data":{"bikes":[{"bike_id":"e1b61c61-f9d9-4589-b9a1-08650e3e976f","system_id":"levelo_inurba_marseille","lat":43.28044,"lon":5.36953,"is_reserved":false,"is_disabled":false,"rental_uris":{"android":"levelo://app?vid=e1b61c61-f9d9-4589-b9a1-08650e3e976f","ios":"levelo://app?vid=e1b61c61-f9d9-4589-b9a1-08650e3e976f"},"vehicle_type_id":"4","last_reported":1746889767,"current_range_meters":2800,"station_id":"ce4bha12rcd13ifvqef0","pricing_plan_id":"cebpf4jnsgd1na2vs0mg"},{"bike_id":"5b8a6914-051e-434c-a04e-2391a994a985","system_id":"levelo_inurba_marseille","lat":43.30132,"lon":5.39865,"is_reserved":false,"is_disabled":false,"rental_uris":{"android":"levelo://app?vid=5b8a6914-051e-434c-a04e-2391a994a985","ios":"levelo://app?vid=5b8a6914-051e-434c-a04e-2391a994a985"},"vehicle_type_id":"4","last_reported":1746889767,"current_range_meters":2800,"station_id":"ce4bh0h2rcd13ifvqd40","pricing_plan_id":"cebpf4jnsgd1na2vs0mg"},{"bike_id":"91f94e2b-26d0-4cc3-bdca-77c723feb914","system_id":"levelo_inurba_marseille","lat":43.2396,"lon":5.36628,"is_reserved":false,"is_disabled":false,"rental_uris":{"android":"levelo://app?vid=91f94e2b-26d0-4cc3-bdca-77c723feb914","ios":"levelo://app?vid=91f94e2b-26d0-4cc3-bdca-77c723feb914"},"vehicle_type_id":"4","last_reported":1746889767,"current_range_meters":2800,"station_id":"ce4bhi12rcd13ifvqfp0","pricing_plan_id":"cebpf4jnsgd1na2vs0mg"},{"bike_id":"46b94855-6e9a-443f-8166-fae0a4840d1d","system_id":"levelo_inurba_marseille","lat":43.28424,"lon":5.34983,"is_reserved":false,"is_disabled":false,"rental_uris":{"android":"levelo://app?vid=46b94855-6e9a-443f-8166-fae0a4840d1d","ios":"levelo://app?vid=46b94855-6e9a-443f-8166-fae0a4840d1d"},"vehicle_type_id":"4","last_reported":1746889767,"current_range_meters":3600,"station_id":"ce4bhbh2rcd13ifvqepg","pricing_plan_id":"cebpf4jnsgd1na2vs0mg"},{"bike_id":"135f8559-e56d-4c83-af4b-37ccdcdccaac","system_id":"levelo_inurba_marseille","lat":43.28446,"lon":5.39211,"is_reserved":false,"is_disabled":false,"rental_uris":{"android":"levelo://app?vid=135f8559-e56d-4c83-af4b-37ccdcdccaac","ios":"levelo://app?vid=135f8559-e56d-4c83-af4b-37ccdcdccaac"},"vehicle_type_id":"4","last_reported":1746889767,"current_range_meters":2800,"station_id":"ce4bhoh2rcd13ifvqh5g","pricing_plan_id":"cebpf4jnsgd1na2vs0mg"},{"bike_id":"e36b3bf8-00c4-4232-ac4a-4dc7ec936a57","system_id":"levelo_inurba_marseille","lat":43.3048,"lon":5.37544,"is_reserved":false,"is_disabled":false,"rental_uris":{"android":"levelo://app?vid=e36b3bf8-00c4-4232-ac4a-4dc7ec936a57","ios":"levelo://app?vid=e36b3bf8-00c4-4232-ac4a-4dc7ec936a57"},"vehicle_type_id":"4","last_reported":1746889767,"current_range_meters":3200,"station_id":"","pricing_plan_id":"cebpf4jnsgd1na2vs0mg"},{"bike_id":"fcdc35a9-9524-40cd-aef6-8189fe15a14c","system_id":"levelo_inurba_marseille","lat":43.23202,"lon":5.35542,"is_reserved":false,"is_disabled":false,"rental_uris":{"android":"levelo://app?vid=fcdc35a9-9524-40cd-aef6-8189fe15a14c","ios":"levelo://app?vid=fcdc35a9-9524-40cd-aef6-8189fe15a14c"},"vehicle_type_id":"4","last_reported":1746889767,"current_range_meters":3200,"station_id":"ce4bhu92rcd13ifvqi70","pricing_plan_id":"cebpf4jnsgd1na2vs0mg"},{"bike_id":"12457b43-1568-4bd1-a8ed-31e765a4f828","system_id":"levelo_inurba_marseille","lat":43.24813,"lon":5.37458,"is_reserved":false,"is_disabled":false,"rental_uris":{"android":"levelo://app?vid=12457b43-1568-4bd1-a8ed-31e765a4f828","ios":"levelo://app?vid=12457b43-1568-4bd1-a8ed-31e765a4f828"},"vehicle_type_id":"4","last_reported":1746889767,"current_range_meters":3200,"station_id":"ce4bhgh2rcd13ifvqfb0","pricing_plan_id":"cebpf4jnsgd1na2vs0mg"},{"bike_id":"08f8c426-740a-464d-b7e9-59459611d40c","system_id":"levelo_inurba_marseille","lat":43.22506,"lon":5.34777,"is_reserved":false,"is_disabled":false,"rental_uris":{"android":"levelo://app?vid=08f8c426-740a-464d-b7e9-59459611d40c","ios":"levelo://app?vid=08f8c426-740a-464d-b7e9-59459611d40c"},"vehicle_type_id":"4","last_reported":1746889767,"current_range_meters":3600,"station_id":"st_cvj5dfep6f1abm77gieg","pricing_plan_id":"cebpf4jnsgd1na2vs0mg"},{"bike_id":"23641817-c01f-4ffd-9aba-7791a8835be0","system_id":"levelo_inurba_marseille","lat":43.224994,"lon":5.347717,"is_reserved":false,"is_disabled":true,"rental_uris":{"android":"levelo://app?vid=23641817-c01f-4ffd-9aba-7791a8835be0","ios":"levelo://app?vid=23641817-c01f-4ffd-9aba-7791a8835be0"},"vehicle_type_id":"4","last_reported":1746889767,"current_range_meters":3600,"station_id":"st_cvj5dfep6f1abm77gieg","pricing_plan_id":"cebpf4jnsgd1na2vs0mg"},{"bike_id":"e3f3c9a4-5f26-492b-94c6-5600c50bf0d9","system_id":"levelo_inurba_marseille","lat":43.276251,"lon":5.361052,"is_reserved":false,"is_disabled":false,"rental_uris":{"android":"levelo://app?vid=e3f3c9a4-5f26-492b-94c6-5600c50bf0d9","ios":"levelo://app?vid=e3f3c9a4-5f26-492b-94c6-5600c50bf0d9"},"vehicle_type_id":"4","last_reported":1746889767,"current_range_meters":4000,"station_id":"ce4bgj92rcd13ifvqbe0","pricing_plan_id":"cebpf4jnsgd1na2vs0mg"},{"bike_id":"47f4758d-eed5-4abc-97f0-8293090ab71c","system_id":"levelo_inurba_marseille","lat":43.25499,"lon":5.37656,"is_reserved":false,"is_disabled":false,"rental_uris":{"android":"levelo://app?vid=47f4758d-eed5-4abc-97f0-8293090ab71c","ios":"levelo://app?vid=47f4758d-eed5-4abc-97f0-8293090ab71c"},"vehicle_type_id":"4","last_reported":1746889767,"current_range_meters":3600,"station_id":"ce4bhh12rcd13ifvqff0","pricing_plan_id":"cebpf4jnsgd1na2vs0mg"},{"bike_id":"fb09e26e-089a-4d22-a02b-02cbe876bb1a","system_id":"levelo_inurba_marseille","lat":43.27211,"lon":5.39181,"is_reserved":false,"is_disabled":false,"rental_uris":{"android":"levelo://app?vid=fb09e26e-089a-4d22-a02b-02cbe876bb1a","ios":"levelo://app?vid=fb09e26e-089a-4d22-a02b-02cbe876bb1a"},"vehicle_type_id":"4","last_reported":1746889767,"current_range_meters":4000,"station_id":"ce4bhhp2rcd13ifvqfm0","pricing_plan_id":"cebpf4jnsgd1na2vs0mg"},{"bike_id":"6c00a283-2ad0-4a4d-8603-108a91e487ff","system_id":"levelo_inurba_marseille","lat":43.22936,"lon":5.35368,"is_reserved":false,"is_disabled":false,"rental_uris":{"android":"levelo://app?vid=6c00a283-2ad0-4a4d-8603-108a91e487ff","ios":"levelo://app?vid=6c00a283-2ad0-4a4d-8603-108a91e487ff"},"vehicle_type_id":"4","last_reported":1746889767,"current_range_meters":4000,"station_id":"cpo3532slgdg3j2ikp40","pricing_plan_id":"cebpf4jnsgd1na2vs0mg"},{"bike_id":"621747ce-1ad4-477f-9821-2c6a0cd86fc6","system_id":"levelo_inurba_marseille","lat":43.28454,"lon":5.35882,"is_reserved":false,"is_disabled":false,"rental_uris":{"android":"levelo://app?vid=621747ce-1ad4-477f-9821-2c6a0cd86fc6","ios":"levelo://app?vid=621747ce-1ad4-477f-9821-2c6a0cd86fc6"},"vehicle_type_id":"4","last_reported":1746889767,"current_range_meters":4000,"station_id":"ce4bhah2rcd13ifvqei0","pricing_plan_id":"cebpf4jnsgd1na2vs0mg"},{"bike_id":"733a8fd6-26d4-402e-8a16-6e6e2df0c685","system_id":"levelo_inurba_marseille","lat":43.2791,"lon":5.38014,"is_reserved":false,"is_disabled":false,"rental_uris":{"android":"levelo://app?vid=733a8fd6-26d4-402e-8a16-6e6e2df0c685","ios":"levelo://app?vid=733a8fd6-26d4-402e-8a16-6e6e2df0c685"},"vehicle_type_id":"4","last_reported":1746889767,"current_range_meters":4400,"station_id":"ce4bhf92rcd13ifvqf50","pricing_plan_id":"cebpf4jnsgd1na2vs0mg"},{"bike_id":"ecbc4fe0-8611-488b-8a5f-1456c238e3f4","system_id":"levelo_inurba_marseille","lat":43.24076,"lon":5.37762,"is_reserved":false,"is_disabled":false,"rental_uris":{"android":"levelo://app?vid=ecbc4fe0-8611-488b-8a5f-1456c238e3f4","ios":"levelo://app?vid=ecbc4fe0-8611-488b-8a5f-1456c238e3f4"},"vehicle_type_id":"4","last_reported":1746889767,"current_range_meters":4000,"station_id":"ce4bhnp2rcd13ifvqgvg","pricing_plan_id":"cebpf4jnsgd1na2vs0mg"},{"bike_id":"caf9033d-5f00-49c3-b1ee-1328b62008dc","system_id":"levelo_inurba_marseille","lat":43.335896,"lon":5.428226,"is_reserved":false,"is_disabled":false,"rental_uris":{"android":"levelo://app?vid=caf9033d-5f00-49c3-b1ee-1328b62008dc","ios":"levelo://app?vid=caf9033d-5f00-49c3-b1ee-1328b62008dc"},"vehicle_type_id":"4","last_reported":1746889767,"current_range_meters":4400,"station_id":"","pricing_plan_id":"cebpf4jnsgd1na2vs0mg"},{"bike_id":"748a5518-1651-4cef-a780-ae4c76c60946","system_id":"levelo_inurba_marseille","lat":43.21193,"lon":5.35069,"is_reserved":false,"is_disabled":false,"rental_uris":{"android":"levelo://app?vid=748a5518-1651-4cef-a780-ae4c76c60946","ios":"levelo://app?vid=748a5518-1651-4cef-a780-ae4c76c60946"},"vehicle_type_id":"4","last_reported":1746889767,"current_range_meters":4400,"station_id":"st_cvj6sg6p6f1abm77japg","pricing_plan_id":"cebpf4jnsgd1na2vs0mg"},{"bike_id":"ad7a5ba0-2d9f-48a4-b499-c9e0a5fafc37","system_id":"levelo_inurba_marseille","lat":43.29196,"lon":5.35812,"is_reserved":false,"is_disabled":false,"rental_uris":{"android":"levelo://app?vid=ad7a5ba0-2d9f-48a4-b499-c9e0a5fafc37","ios":"levelo://app?vid=ad7a5ba0-2d9f-48a4-b499-c9e0a5fafc37"},"vehicle_type_id":"4","last_reported":1746889767,"current_range_meters":4400,"station_id":"ce4bhb12rcd13ifvqel0","pricing_plan_id":"cebpf4jnsgd1na2vs0mg"},{"bike_id":"328c851b-ec28-4db5-9c8f-d59f776774bc","system_id":"levelo_inurba_marseille","lat":43.26576,"lon":5.39004,"is_reserved":false,"is_disabled":false,"rental_uris":{"android":"levelo://app?vid=328c851b-ec28-4db5-9c8f-d59f776774bc","ios":"levelo://app?vid=328c851b-ec28-4db5-9c8f-d59f776774bc"},"vehicle_type_id":"4","last_reported":1746889767,"current_range_meters":4800,"station_id":"ce4bhe12rcd13ifvqf30","pricing_plan_id":"cebpf4jnsgd1na2vs0mg"},{"bike_id":"6c990230-14c0-4ee6-8df9-6978ad8dac5f","system_id":"levelo_inurba_marseille","lat":43.26942,"lon":5.4026,"is_reserved":false,"is_disabled":false,"rental_uris":{"android":"levelo://app?vid=6c990230-14c0-4ee6-8df9-6978ad8dac5f","ios":"levelo://app?vid=6c990230-14c0-4ee6-8df9-6978ad8dac5f"},"vehicle_type_id":"4","last_reported":1746889767,"current_range_meters":4800,"station_id":"cjm6bp8fraef2m0cb0m0","pricing_plan_id":"cebpf4jnsgd1na2vs0mg"},{"bike_id":"7c224ca6-03c3-4475-9f76-5d51678d31ff","system_id":"levelo_inurba_marseille","lat":43.26203,"lon":5.37935,"is_reserved":false,"is_disabled":false,"rental_uris":{"android":"levelo://app?vid=7c224ca6-03c3-4475-9f76-5d51678d31ff","ios":"levelo://app?vid=7c224ca6-03c3-4475-9f76-5d51678d31ff"},"vehicle_type_id":"4","last_reported":1746889767,"current_range_meters":4800,"station_id":"ce4bhjp2rcd13ifvqg90","pricing_plan_id":"cebpf4jnsgd1na2vs0mg"},{"bike_id":"3fddf7ba-f1a9-4dc7-8364-2a96adf95744","system_id":"levelo_inurba_marseille","lat":43.29011,"lon":5.35616,"is_reserved":false,"is_disabled":false,"rental_uris":{"android":"levelo://app?vid=3fddf7ba-f1a9-4dc7-8364-2a96adf95744","ios":"levelo://app?vid=3fddf7ba-f1a9-4dc7-8364-2a96adf95744"},"vehicle_type_id":"4","last_reported":1746889767,"current_range_meters":4800,"station_id":"ce4bhb92rcd13ifvqen0","pricing_plan_id":"cebpf4jnsgd1na2vs0mg"},{"bike_id":"1c2bfb01-1464-438b-8db8-651665f75c58","system_id":"levelo_inurba_marseille","lat":43.25494,"lon":5.37632,"is_reserved":false,"is_disabled":false,"rental_uris":{"android":"levelo://app?vid=1c2bfb01-1464-438b-8db8-651665f75c58","ios":"levelo://app?vid=1c2bfb01-1464-438b-8db8-651665f75c58"},"vehicle_type_id":"4","last_reported":1746889767,"current_range_meters":5600,"station_id":"ce4bhh12rcd13ifvqff0","pricing_plan_id":"cebpf4jnsgd1na2vs0mg"},{"bike_id":"f2382aa1-a8f2-4cd3-88ad-5686c37fd9aa","system_id":"levelo_inurba_marseille","lat":43.255054,"lon":5.376517,"is_reserved":false,"is_disabled":false,"rental_uris":{"android":"levelo://app?vid=f2382aa1-a8f2-4cd3-88ad-5686c37fd9aa","ios":"levelo://app?vid=f2382aa1-a8f2-4cd3-88ad-5686c37fd9aa"},"vehicle_type_id":"4","last_reported":1746889767,"current_range_meters":0,"station_id":"ce4bhh12rcd13ifvqff0","pricing_plan_id":"cebpf4jnsgd1na2vs0mg"},{"bike_id":"889485b9-f4f9-4d3b-9126-f0afead99b94","system_id":"levelo_inurba_marseille","lat":43.32056,"lon":5.41552,"is_reserved":false,"is_disabled":false,"rental_uris":{"android":"levelo://app?vid=889485b9-f4f9-4d3b-9126-f0afead99b94","ios":"levelo://app?vid=889485b9-f4f9-4d3b-9126-f0afead99b94"},"vehicle_type_id":"4","last_reported":1746889767,"current_range_meters":6000,"station_id":"ce4bhq92rcd13ifvqhkg","pricing_plan_id":"cebpf4jnsgd1na2vs0mg"},{"bike_id":"7dc18a07-5284-4dbc-87f5-1c950d643732","system_id":"levelo_inurba_marseille","lat":43.2416,"lon":5.36411,"is_reserved":false,"is_disabled":false,"rental_uris":{"android":"levelo://app?vid=7dc18a07-5284-4dbc-87f5-1c950d643732","ios":"levelo://app?vid=7dc18a07-5284-4dbc-87f5-1c950d643732"},"vehicle_type_id":"4","last_reported":1746889767,"current_range_meters":6400,"station_id":"cpo36qri1sfpv3e86is0","pricing_plan_id":"cebpf4jnsgd1na2vs0mg"},{"bike_id":"fbba5a3e-4690-46f3-95b0-cb010b316070","system_id":"levelo_inurba_marseille","lat":43.23825,"lon":5.36458,"is_reserved":false,"is_disabled":false,"rental_uris":{"android":"levelo://app?vid=fbba5a3e-4690-46f3-95b0-cb010b316070","ios":"levelo://app?vid=fbba5a3e-4690-46f3-95b0-cb010b316070"},"vehicle_type_id":"4","last_reported":1746889767,"current_range_meters":6400,"station_id":"","pricing_plan_id":"cebpf4jnsgd1na2vs0mg"},{"bike_id":"f5b3d1c2-c8ec-4487-8ce1-1edfa2475c1d","system_id":"levelo_inurba_marseille","lat":43.21188,"lon":5.35069,"is_reserved":false,"is_disabled":false,"rental_uris":{"android":"levelo://app?vid=f5b3d1c2-c8ec-4487-8ce1-1edfa2475c1d","ios":"levelo://app?vid=f5b3d1c2-c8ec-4487-8ce1-1edfa2475c1d"},"vehicle_type_id":"4","last_reported":1746889767,"current_range_meters":6400,"station_id":"st_cvj6sg6p6f1abm77japg","pricing_plan_id":"cebpf4jnsgd1na2vs0mg"},{"bike_id":"70b4f40f-2f81-4632-84da-d12982b2ba84","system_id":"levelo_inurba_marseille","lat":43.24176,"lon":5.39737,"is_reserved":false,"is_disabled":false,"rental_uris":{"android":"levelo://app?vid=70b4f40f-2f81-4632-84da-d12982b2ba84","ios":"levelo://app?vid=70b4f40f-2f81-4632-84da-d12982b2ba84"},"vehicle_type_id":"4","last_reported":1746889767,"current_range_meters":6800,"station_id":"ce4bhn12rcd13ifvqgpg","pricing_plan_id":"cebpf4jnsgd1na2vs0mg"},{"bike_id":"4cfea14f-179c-4514-a1ae-c52d13fc04d2","system_id":"levelo_inurba_marseille","lat":43.24184,"lon":5.3973,"is_reserved":false,"is_disabled":false,"rental_uris":{"android":"levelo://app?vid=4cfea14f-179c-4514-a1ae-c52d13fc04d2","ios":"levelo://app?vid=4cfea14f-179c-4514-a1ae-c52d13fc04d2"},"vehicle_type_id":"4","last_reported":1746889767,"current_range_meters":6800,"station_id":"ce4bhn12rcd13ifvqgpg","pricing_plan_id":"cebpf4jnsgd1na2vs0mg"},{"bike_id":"1ffb0f13-e747-4dcf-9e29-37a359313a72","system_id":"levelo_inurba_marseille","lat":43.25501,"lon":5.37653,"is_reserved":false,"is_disabled":false,"rental_uris":{"android":"levelo://app?vid=1ffb0f13-e747-4dcf-9e29-37a359313a72","ios":"levelo://app?vid=1ffb0f13-e747-4dcf-9e29-37a359313a72"},"vehicle_type_id":"4","last_reported":1746889767,"current_range_meters":6800,"station_id":"ce4bhh12rcd13ifvqff0","pricing_plan_id":"cebpf4jnsgd1na2vs0mg"},{"bike_id":"8985a06a-c044-4640-99c6-5e9fcba62753","system_id":"levelo_inurba_marseille","lat":43.27375,"lon":5.3626,"is_reserved":false,"is_disabled":false,"rental_uris":{"android":"levelo://app?vid=8985a06a-c044-4640-99c6-5e9fcba62753","ios":"levelo://app?vid=8985a06a-c044-4640-99c6-5e9fcba62753"},"vehicle_type_id":"4","last_reported":1746889767,"current_range_meters":6800,"station_id":"ce4bhbh2rcd13ifvqeo0","pricing_plan_id":"cebpf4jnsgd1na2vs0mg"},{"bike_id":"e63c284e-5439-4dab-b340-37d183afe7e3","system_id":"levelo_inurba_marseille","lat":43.32358,"lon":5.40629,"is_reserved":false,"is_disabled":false,"rental_uris":{"android":"levelo://app?vid=e63c284e-5439-4dab-b340-37d183afe7e3","ios":"levelo://app?vid=e63c284e-5439-4dab-b340-37d183afe7e3"},"vehicle_type_id":"4","last_reported":1746889767,"current_range_meters":6800,"station_id":"ce4bhq92rcd13ifvqhjg","pricing_plan_id":"cebpf4jnsgd1na2vs0mg"},{"bike_id":"a18abec2-e224-4c8a-af5f-062d7f25f0ec","system_id":"levelo_inurba_marseille","lat":43.280086,"lon":5.351737,"is_reserved":false,"is_disabled":false,"rental_uris":{"android":"levelo://app?vid=a18abec2-e224-4c8a-af5f-062d7f25f0ec","ios":"levelo://app?vid=a18abec2-e224-4c8a-af5f-062d7f25f0ec"},"vehicle_type_id":"4","last_reported":1746889767,"current_range_meters":6800,"station_id":"ce4bhah2rcd13ifvqei0","pricing_plan_id":"cebpf4jnsgd1na2vs0mg"},{"bike_id":"439fd567-1604-44a5-ac76-867e3d4b8d45","system_id":"levelo_inurba_marseille","lat":43.28263,"lon":5.3506,"is_reserved":false,"is_disabled":false,"rental_uris":{"android":"levelo://app?vid=439fd567-1604-44a5-ac76-867e3d4b8d45","ios":"levelo://app?vid=439fd567-1604-44a5-ac76-867e3d4b8d45"},"vehicle_type_id":"4","last_reported":1746889767,"current_range_meters":6800,"station_id":"ce4bhbp2rcd13ifvqerg","pricing_plan_id":"cebpf4jnsgd1na2vs0mg"},{"bike_id":"5ba85885-1b1e-453b-9901-9717d42a271e","system_id":"levelo_inurba_marseille","lat":43.28926,"lon":5.38401,"is_reserved":false,"is_disabled":false,"rental_uris":{"android":"levelo://app?vid=5ba85885-1b1e-453b-9901-9717d42a271e","ios":"levelo://app?vid=5ba85885-1b1e-453b-9901-9717d42a271e"},"vehicle_type_id":"4","last_reported":1746889767,"current_range_meters":7200,"station_id":"ce4bh612rcd13ifvqe6g","pricing_plan_id":"cebpf4jnsgd1na2vs0mg"},{"bike_id":"279a8478-1341-4f08-af95-0b8c2a80f851","system_id":"levelo_inurba_marseille","lat":43.28459,"lon":5.35891,"is_reserved":false,"is_disabled":false,"rental_uris":{"android":"levelo://app?vid=279a8478-1341-4f08-af95-0b8c2a80f851","ios":"levelo://app?vid=279a8478-1341-4f08-af95-0b8c2a80f851"},"vehicle_type_id":"4","last_reported":1746889767,"current_range_meters":7200,"station_id":"ce4bhah2rcd13ifvqei0","pricing_plan_id":"cebpf4jnsgd1na2vs0mg"},{"bike_id":"ea55e338-2a5a-484c-8ed1-a44233aa0134","system_id":"levelo_inurba_marseille","lat":43.2849,"lon":5.38561,"is_reserved":false,"is_disabled":false,"rental_uris":{"android":"levelo://app?vid=ea55e338-2a5a-484c-8ed1-a44233aa0134","ios":"levelo://app?vid=ea55e338-2a5a-484c-8ed1-a44233aa0134"},"vehicle_type_id":"4","last_reported":1746889767,"current_range_meters":7200,"station_id":"ce4bh8p2rcd13ifvqeb0","pricing_plan_id":"cebpf4jnsgd1na2vs0mg"},{"bike_id":"eec0ab58-bc79-44d9-8eda-599c7f2d45df","system_id":"levelo_inurba_marseille","lat":43.26959,"lon":5.38627,"is_reserved":false,"is_disabled":false,"rental_uris":{"android":"levelo://app?vid=eec0ab58-bc79-44d9-8eda-599c7f2d45df","ios":"levelo://app?vid=eec0ab58-bc79-44d9-8eda-599c7f2d45df"},"vehicle_type_id":"4","last_reported":1746889767,"current_range_meters":7200,"station_id":"ce4bhh92rcd13ifvqfh0","pricing_plan_id":"cebpf4jnsgd1na2vs0mg"},{"bike_id":"ed286efb-e1df-4656-b590-093a961f5d24","system_id":"levelo_inurba_marseille","lat":43.292755,"lon":5.368468,"is_reserved":false,"is_disabled":false,"rental_uris":{"android":"levelo://app?vid=ed286efb-e1df-4656-b590-093a961f5d24","ios":"levelo://app?vid=ed286efb-e1df-4656-b590-093a961f5d24"},"vehicle_type_id":"4","last_reported":1746889767,"current_range_meters":1600,"station_id":"ce4bhbp2rcd13ifvqesg","pricing_plan_id":"cebpf4jnsgd1na2vs0mg"},{"bike_id":"589f352a-9340-4b4b-b78d-fa21016745a0","system_id":"levelo_inurba_marseille","lat":43.23958,"lon":5.36656,"is_reserved":false,"is_disabled":false,"rental_uris":{"android":"levelo://app?vid=589f352a-9340-4b4b-b78d-fa21016745a0","ios":"levelo://app?vid=589f352a-9340-4b4b-b78d-fa21016745a0"},"vehicle_type_id":"4","last_reported":1746889767,"current_range_meters":7200,"station_id":"ce4bhi12rcd13ifvqfp0","pricing_plan_id":"cebpf4jnsgd1na2vs0mg"},{"bike_id":"e5be8eee-e3c1-4f50-a3ab-617bba99eb4e","system_id":"levelo_inurba_marseille","lat":43.284148,"lon":5.349807,"is_reserved":false,"is_disabled":false,"rental_uris":{"android":"levelo://app?vid=e5be8eee-e3c1-4f50-a3ab-617bba99eb4e","ios":"levelo://app?vid=e5be8eee-e3c1-4f50-a3ab-617bba99eb4e"},"vehicle_type_id":"4","last_reported":1746889767,"current_range_meters":7200,"station_id":"ce4bhb12rcd13ifvqem0","pricing_plan_id":"cebpf4jnsgd1na2vs0mg"},{"bike_id":"0d224059-0126-414d-b48b-69ed63e29d8a","system_id":"levelo_inurba_marseille","lat":43.28466,"lon":5.3588,"is_reserved":false,"is_disabled":false,"rental_uris":{"android":"levelo://app?vid=0d224059-0126-414d-b48b-69ed63e29d8a","ios":"levelo://app?vid=0d224059-0126-414d-b48b-69ed63e29d8a"},"vehicle_type_id":"4","last_reported":1746889767,"current_range_meters":7200,"station_id":"ce4bhah2rcd13ifvqei0","pricing_plan_id":"cebpf4jnsgd1na2vs0mg"},{"bike_id":"5500b615-63b3-413c-927b-af16fb4e58e1","system_id":"levelo_inurba_marseille","lat":43.27377,"lon":5.36255,"is_reserved":false,"is_disabled":false,"rental_uris":{"android":"levelo://app?vid=5500b615-63b3-413c-927b-af16fb4e58e1","ios":"levelo://app?vid=5500b615-63b3-413c-927b-af16fb4e58e1"},"vehicle_type_id":"4","last_reported":1746889767,"current_range_meters":7200,"station_id":"ce4bhbh2rcd13ifvqeo0","pricing_plan_id":"cebpf4jnsgd1na2vs0mg"},{"bike_id":"f83da26b-c6d7-4b9a-985c-2d2de9178574","system_id":"levelo_inurba_marseille","lat":43.2439,"lon":5.37057,"is_reserved":false,"is_disabled":false,"rental_uris":{"android":"levelo://app?vid=f83da26b-c6d7-4b9a-985c-2d2de9178574","ios":"levelo://app?vid=f83da26b-c6d7-4b9a-985c-2d2de9178574"},"vehicle_type_id":"4","last_reported":1746889767,"current_range_meters":8000,"station_id":"ce4bhhh2rcd13ifvqfk0","pricing_plan_id":"cebpf4jnsgd1na2vs0mg"},{"bike_id":"2a2f138d-e534-498c-9cc2-5ff23963289c","system_id":"levelo_inurba_marseille","lat":43.28487,"lon":5.38548,"is_reserved":false,"is_disabled":false,"rental_uris":{"android":"levelo://app?vid=2a2f138d-e534-498c-9cc2-5ff23963289c","ios":"levelo://app?vid=2a2f138d-e534-498c-9cc2-5ff23963289c"},"vehicle_type_id":"4","last_reported":1746889767,"current_range_meters":8000,"station_id":"ce4bh8p2rcd13ifvqeb0","pricing_plan_id":"cebpf4jnsgd1na2vs0mg"},{"bike_id":"f2445ae3-2a76-4087-a063-e7f4ed91d8d6","system_id":"levelo_inurba_marseille","lat":43.27555,"lon":5.38443,"is_reserved":false,"is_disabled":false,"rental_uris":{"android":"levelo://app?vid=f2445ae3-2a76-4087-a063-e7f4ed91d8d6","ios":"levelo://app?vid=f2445ae3-2a76-4087-a063-e7f4ed91d8d6"},"vehicle_type_id":"4","last_reported":1746889767,"current_range_meters":8000,"station_id":"ce4bhh92rcd13ifvqfi0","pricing_plan_id":"cebpf4jnsgd1na2vs0mg"},{"bike_id":"14188a1a-a5e4-42a4-aaeb-34f0aa60fbfe","system_id":"levelo_inurba_marseille","lat":43.29228,"lon":5.36065,"is_reserved":false,"is_disabled":false,"rental_uris":{"android":"levelo://app?vid=14188a1a-a5e4-42a4-aaeb-34f0aa60fbfe","ios":"levelo://app?vid=14188a1a-a5e4-42a4-aaeb-34f0aa60fbfe"},"vehicle_type_id":"4","last_reported":1746889767,"current_range_meters":8000,"station_id":"ce4bhbh2rcd13ifvqeqg","pricing_plan_id":"cebpf4jnsgd1na2vs0mg"},{"bike_id":"18623a72-b0ba-4eb8-bb9b-0a797ca621ff","system_id":"levelo_inurba_marseille","lat":43.31479,"lon":5.37311,"is_reserved":false,"is_disabled":false,"rental_uris":{"android":"levelo://app?vid=18623a72-b0ba-4eb8-bb9b-0a797ca621ff","ios":"levelo://app?vid=18623a72-b0ba-4eb8-bb9b-0a797ca621ff"},"vehicle_type_id":"4","last_reported":1746889767,"current_range_meters":8000,"station_id":"ce4bgt12rcd13ifvqcd0","pricing_plan_id":"cebpf4jnsgd1na2vs0mg"},{"bike_id":"6a66b93b-f094-44ab-be13-4cc78e309f22","system_id":"levelo_inurba_marseille","lat":43.27621,"lon":5.36116,"is_reserved":false,"is_disabled":false,"rental_uris":{"android":"levelo://app?vid=6a66b93b-f094-44ab-be13-4cc78e309f22","ios":"levelo://app?vid=6a66b93b-f094-44ab-be13-4cc78e309f22"},"vehicle_type_id":"4","last_reported":1746889767,"current_range_meters":8000,"station_id":"ce4bgj92rcd13ifvqbe0","pricing_plan_id":"cebpf4jnsgd1na2vs0mg"},{"bike_id":"b9aaa86e-e6ea-48da-9b4f-00881661fb4d","system_id":"levelo_inurba_marseille","lat":43.23065,"lon":5.35489,"is_reserved":false,"is_disabled":false,"rental_uris":{"android":"levelo://app?vid=b9aaa86e-e6ea-48da-9b4f-00881661fb4d","ios":"levelo://app?vid=b9aaa86e-e6ea-48da-9b4f-00881661fb4d"},"vehicle_type_id":"4","last_reported":1746889767,"current_range_meters":9200,"station_id":"cpo3342slgdg3j2ifvpg","pricing_plan_id":"cebpf4jnsgd1na2vs0mg"},{"bike_id":"78061550-b018-42bb-953c-0b2f091946ff","system_id":"levelo_inurba_marseille","lat":43.28939,"lon":5.36636,"is_reserved":false,"is_disabled":false,"rental_uris":{"android":"levelo://app?vid=78061550-b018-42bb-953c-0b2f091946ff","ios":"levelo://app?vid=78061550-b018-42bb-953c-0b2f091946ff"},"vehicle_type_id":"4","last_reported":1746889767,"current_range_meters":7200,"station_id":"ce4bhap2rcd13ifvqek0","pricing_plan_id":"cebpf4jnsgd1na2vs0mg"},{"bike_id":"2eb304f6-e721-4c45-9dae-7e05ea205164","system_id":"levelo_inurba_marseille","lat":43.283474,"lon":5.380973,"is_reserved":false,"is_disabled":false,"rental_uris":{"android":"levelo://app?vid=2eb304f6-e721-4c45-9dae-7e05ea205164","ios":"levelo://app?vid=2eb304f6-e721-4c45-9dae-7e05ea205164"},"vehicle_type_id":"4","last_reported":1746889767,"current_range_meters":8400,"station_id":"ce4bh412rcd13ifvqdr0","pricing_plan_id":"cebpf4jnsgd1na2vs0mg"},{"bike_id":"5db2fe94-843e-494a-93fb-e777bcf0c9c8","system_id":"levelo_inurba_marseille","lat":43.231986,"lon":5.355458,"is_reserved":false,"is_disabled":false,"rental_uris":{"android":"levelo://app?vid=5db2fe94-843e-494a-93fb-e777bcf0c9c8","ios":"levelo://app?vid=5db2fe94-843e-494a-93fb-e777bcf0c9c8"},"vehicle_type_id":"4","last_reported":1746889767,"current_range_meters":8400,"station_id":"ce4bhu92rcd13ifvqi70","pricing_plan_id":"cebpf4jnsgd1na2vs0mg"},{"bike_id":"d695458f-f2e3-4754-9b6f-e430d15eae31","system_id":"levelo_inurba_marseille","lat":43.27381,"lon":5.36253,"is_reserved":false,"is_disabled":false,"rental_uris":{"android":"levelo://app?vid=d695458f-f2e3-4754-9b6f-e430d15eae31","ios":"levelo://app?vid=d695458f-f2e3-4754-9b6f-e430d15eae31"},"vehicle_type_id":"4","last_reported":1746889767,"current_range_meters":8400,"station_id":"ce4bhbh2rcd13ifvqeo0","pricing_plan_id":"cebpf4jnsgd1na2vs0mg"},{"bike_id":"22dfbe01-9157-43ce-a9ac-7077e5980f60","system_id":"levelo_inurba_marseille","lat":43.234698,"lon":5.360464,"is_reserved":false,"is_disabled":false,"rental_uris":{"android":"levelo://app?vid=22dfbe01-9157-43ce-a9ac-7077e5980f60","ios":"levelo://app?vid=22dfbe01-9157-43ce-a9ac-7077e5980f60"},"vehicle_type_id":"4","last_reported":1746889767,"current_range_meters":8400,"station_id":"","pricing_plan_id":"cebpf4jnsgd1na2vs0mg"},{"bike_id":"85026f7c-2020-44fd-a0de-bb6d29c88574","system_id":"levelo_inurba_marseille","lat":43.23192,"lon":5.355517,"is_reserved":false,"is_disabled":false,"rental_uris":{"android":"levelo://app?vid=85026f7c-2020-44fd-a0de-bb6d29c88574","ios":"levelo://app?vid=85026f7c-2020-44fd-a0de-bb6d29c88574"},"vehicle_type_id":"4","last_reported":1746889767,"current_range_meters":8400,"station_id":"ce4bhu92rcd13ifvqi70","pricing_plan_id":"cebpf4jnsgd1na2vs0mg"},{"bike_id":"e6c43d74-fe34-4d03-b75b-2becef23d4fb","system_id":"levelo_inurba_marseille","lat":43.23069,"lon":5.35488,"is_reserved":false,"is_disabled":false,"rental_uris":{"android":"levelo://app?vid=e6c43d74-fe34-4d03-b75b-2becef23d4fb","ios":"levelo://app?vid=e6c43d74-fe34-4d03-b75b-2becef23d4fb"},"vehicle_type_id":"4","last_reported":1746889767,"current_range_meters":8800,"station_id":"cpo3342slgdg3j2ifvpg","pricing_plan_id":"cebpf4jnsgd1na2vs0mg"},{"bike_id":"b59d1375-a4ea-44a8-9e31-1c6f0e80f7e2","system_id":"levelo_inurba_marseille","lat":43.21197,"lon":5.35091,"is_reserved":false,"is_disabled":false,"rental_uris":{"android":"levelo://app?vid=b59d1375-a4ea-44a8-9e31-1c6f0e80f7e2","ios":"levelo://app?vid=b59d1375-a4ea-44a8-9e31-1c6f0e80f7e2"},"vehicle_type_id":"4","last_reported":1746889767,"current_range_meters":8800,"station_id":"st_cvj6sg6p6f1abm77japg","pricing_plan_id":"cebpf4jnsgd1na2vs0mg"},{"bike_id":"b691e3de-6189-4e69-ba9c-e0689ca47ad1","system_id":"levelo_inurba_marseille","lat":43.30546,"lon":5.36547,"is_reserved":false,"is_disabled":false,"rental_uris":{"android":"levelo://app?vid=b691e3de-6189-4e69-ba9c-e0689ca47ad1","ios":"levelo://app?vid=b691e3de-6189-4e69-ba9c-e0689ca47ad1"},"vehicle_type_id":"4","last_reported":1746889767,"current_range_meters":8800,"station_id":"ce4bgs12rcd13ifvqcag","pricing_plan_id":"cebpf4jnsgd1na2vs0mg"},{"bike_id":"038eb357-050b-4b06-910b-85e6744c3065","system_id":"levelo_inurba_marseille","lat":43.27378,"lon":5.36252,"is_reserved":false,"is_disabled":false,"rental_uris":{"android":"levelo://app?vid=038eb357-050b-4b06-910b-85e6744c3065","ios":"levelo://app?vid=038eb357-050b-4b06-910b-85e6744c3065"},"vehicle_type_id":"4","last_reported":1746889767,"current_range_meters":8800,"station_id":"ce4bhbh2rcd13ifvqeo0","pricing_plan_id":"cebpf4jnsgd1na2vs0mg"},{"bike_id":"90df9be9-7a21-49ec-8485-950c0e323531","system_id":"levelo_inurba_marseille","lat":43.22931,"lon":5.35374,"is_reserved":false,"is_disabled":false,"rental_uris":{"android":"levelo://app?vid=90df9be9-7a21-49ec-8485-950c0e323531","ios":"levelo://app?vid=90df9be9-7a21-49ec-8485-950c0e323531"},"vehicle_type_id":"4","last_reported":1746889767,"current_range_meters":8800,"station_id":"cpo3532slgdg3j2ikp40","pricing_plan_id":"cebpf4jnsgd1na2vs0mg"},{"bike_id":"6423c0e9-fabb-44d3-a06c-14fb06e0185a","system_id":"levelo_inurba_marseille","lat":43.23206,"lon":5.35538,"is_reserved":false,"is_disabled":false,"rental_uris":{"android":"levelo://app?vid=6423c0e9-fabb-44d3-a06c-14fb06e0185a","ios":"levelo://app?vid=6423c0e9-fabb-44d3-a06c-14fb06e0185a"},"vehicle_type_id":"4","last_reported":1746889767,"current_range_meters":8800,"station_id":"ce4bhu92rcd13ifvqi70","pricing_plan_id":"cebpf4jnsgd1na2vs0mg"},{"bike_id":"c13f6770-edfc-46b5-bb2d-9740a2cce6d4","system_id":"levelo_inurba_marseille","lat":43.25495,"lon":5.37636,"is_reserved":false,"is_disabled":true,"rental_uris":{"android":"levelo://app?vid=c13f6770-edfc-46b5-bb2d-9740a2cce6d4","ios":"levelo://app?vid=c13f6770-edfc-46b5-bb2d-9740a2cce6d4"},"vehicle_type_id":"4","last_reported":1746889767,"current_range_meters":9200,"station_id":"ce4bhh12rcd13ifvqff0","pricing_plan_id":"cebpf4jnsgd1na2vs0mg"},{"bike_id":"2cdc76fd-5cac-4a6d-b689-d6000c03a295","system_id":"levelo_inurba_marseille","lat":43.23962,"lon":5.36629,"is_reserved":false,"is_disabled":false,"rental_uris":{"android":"levelo://app?vid=2cdc76fd-5cac-4a6d-b689-d6000c03a295","ios":"levelo://app?vid=2cdc76fd-5cac-4a6d-b689-d6000c03a295"},"vehicle_type_id":"4","last_reported":1746889767,"current_range_meters":9200,"station_id":"ce4bhi12rcd13ifvqfp0","pricing_plan_id":"cebpf4jnsgd1na2vs0mg"},{"bike_id":"501f8e9b-ce61-40aa-b3a3-7ccb23dcd5f9","system_id":"levelo_inurba_marseille","lat":43.23192,"lon":5.35556,"is_reserved":false,"is_disabled":false,"rental_uris":{"android":"levelo://app?vid=501f8e9b-ce61-40aa-b3a3-7ccb23dcd5f9","ios":"levelo://app?vid=501f8e9b-ce61-40aa-b3a3-7ccb23dcd5f9"},"vehicle_type_id":"4","last_reported":1746889767,"current_range_meters":9200,"station_id":"ce4bhu92rcd13ifvqi70","pricing_plan_id":"cebpf4jnsgd1na2vs0mg"},{"bike_id":"1fedf513-8faa-457f-b833-46d9e3ca40b5","system_id":"levelo_inurba_marseille","lat":43.2119,"lon":5.35081,"is_reserved":false,"is_disabled":false,"rental_uris":{"android":"levelo://app?vid=1fedf513-8faa-457f-b833-46d9e3ca40b5","ios":"levelo://app?vid=1fedf513-8faa-457f-b833-46d9e3ca40b5"},"vehicle_type_id":"4","last_reported":1746889767,"current_range_meters":9200,"station_id":"st_cvj6sg6p6f1abm77japg","pricing_plan_id":"cebpf4jnsgd1na2vs0mg"},{"bike_id":"a1673585-89eb-4605-b069-5a16ad4bf216","system_id":"levelo_inurba_marseille","lat":43.2396,"lon":5.36634,"is_reserved":false,"is_disabled":false,"rental_uris":{"android":"levelo://app?vid=a1673585-89eb-4605-b069-5a16ad4bf216","ios":"levelo://app?vid=a1673585-89eb-4605-b069-5a16ad4bf216"},"vehicle_type_id":"4","last_reported":1746889767,"current_range_meters":9200,"station_id":"ce4bhi12rcd13ifvqfp0","pricing_plan_id":"cebpf4jnsgd1na2vs0mg"},{"bike_id":"feaedaa1-96c8-4b60-afc0-3e1bc4a6fc3b","system_id":"levelo_inurba_marseille","lat":43.23961,"lon":5.36642,"is_reserved":false,"is_disabled":false,"rental_uris":{"android":"levelo://app?vid=feaedaa1-96c8-4b60-afc0-3e1bc4a6fc3b","ios":"levelo://app?vid=feaedaa1-96c8-4b60-afc0-3e1bc4a6fc3b"},"vehicle_type_id":"4","last_reported":1746889767,"current_range_meters":9200,"station_id":"ce4bhi12rcd13ifvqfp0","pricing_plan_id":"cebpf4jnsgd1na2vs0mg"},{"bike_id":"443ba497-539d-4421-b108-4f77e159c618","system_id":"levelo_inurba_marseille","lat":43.30953,"lon":5.39049,"is_reserved":false,"is_disabled":false,"rental_uris":{"android":"levelo://app?vid=443ba497-539d-4421-b108-4f77e159c618","ios":"levelo://app?vid=443ba497-539d-4421-b108-4f77e159c618"},"vehicle_type_id":"4","last_reported":1746889767,"current_range_meters":9200,"station_id":"ce4bgup2rcd13ifvqco0","pricing_plan_id":"cebpf4jnsgd1na2vs0mg"},{"bike_id":"28294025-b679-4065-bbe6-4e467ca24f4c","system_id":"levelo_inurba_marseille","lat":43.24818,"lon":5.3745,"is_reserved":false,"is_disabled":false,"rental_uris":{"android":"levelo://app?vid=28294025-b679-4065-bbe6-4e467ca24f4c","ios":"levelo://app?vid=28294025-b679-4065-bbe6-4e467ca24f4c"},"vehicle_type_id":"4","last_reported":1746889767,"current_range_meters":9600,"station_id":"ce4bhgh2rcd13ifvqfb0","pricing_plan_id":"cebpf4jnsgd1na2vs0mg"},{"bike_id":"94210f2e-8389-4442-8f39-212b70348d70","system_id":"levelo_inurba_marseille","lat":43.23142,"lon":5.43733,"is_reserved":false,"is_disabled":false,"rental_uris":{"android":"levelo://app?vid=94210f2e-8389-4442-8f39-212b70348d70","ios":"levelo://app?vid=94210f2e-8389-4442-8f39-212b70348d70"},"vehicle_type_id":"4","last_reported":1746889767,"current_range_meters":9600,"station_id":"ce4bhmp2rcd13ifvqgog","pricing_plan_id":"cebpf4jnsgd1na2vs0mg"},{"bike_id":"d7c55909-a76e-438d-8714-65c71330e481","system_id":"levelo_inurba_marseille","lat":43.24184,"lon":5.39733,"is_reserved":false,"is_disabled":false,"rental_uris":{"android":"levelo://app?vid=d7c55909-a76e-438d-8714-65c71330e481","ios":"levelo://app?vid=d7c55909-a76e-438d-8714-65c71330e481"},"vehicle_type_id":"4","last_reported":1746889767,"current_range_meters":9600,"station_id":"ce4bhn12rcd13ifvqgpg","pricing_plan_id":"cebpf4jnsgd1na2vs0mg"},{"bike_id":"52ada4a5-9ca0-47bf-ab61-9fc1665685b8","system_id":"levelo_inurba_marseille","lat":43.30887,"lon":5.39665,"is_reserved":false,"is_disabled":false,"rental_uris":{"android":"levelo://app?vid=52ada4a5-9ca0-47bf-ab61-9fc1665685b8","ios":"levelo://app?vid=52ada4a5-9ca0-47bf-ab61-9fc1665685b8"},"vehicle_type_id":"4","last_reported":1746889767,"current_range_meters":9600,"station_id":"ce4bh012rcd13ifvqcv0","pricing_plan_id":"cebpf4jnsgd1na2vs0mg"},{"bike_id":"9157e39c-97dd-4c3b-bb2c-e6ed49e9a742","system_id":"levelo_inurba_marseille","lat":43.28266,"lon":5.35062,"is_reserved":false,"is_disabled":false,"rental_uris":{"android":"levelo://app?vid=9157e39c-97dd-4c3b-bb2c-e6ed49e9a742","ios":"levelo://app?vid=9157e39c-97dd-4c3b-bb2c-e6ed49e9a742"},"vehicle_type_id":"4","last_reported":1746889767,"current_range_meters":9600,"station_id":"ce4bhbp2rcd13ifvqerg","pricing_plan_id":"cebpf4jnsgd1na2vs0mg"},{"bike_id":"4e3597b9-0a98-46e8-99bc-3a4566ade1f8","system_id":"levelo_inurba_marseille","lat":43.28499,"lon":5.38595,"is_reserved":false,"is_disabled":false,"rental_uris":{"android":"levelo://app?vid=4e3597b9-0a98-46e8-99bc-3a4566ade1f8","ios":"levelo://app?vid=4e3597b9-0a98-46e8-99bc-3a4566ade1f8"},"vehicle_type_id":"4","last_reported":1746889767,"current_range_meters":9600,"station_id":"ce4bh8p2rcd13ifvqeb0","pricing_plan_id":"cebpf4jnsgd1na2vs0mg"},{"bike_id":"86b478b2-1cf2-4e07-8a5c-76710e912a41","system_id":"levelo_inurba_marseille","lat":43.29135,"lon":5.36728,"is_reserved":false,"is_disabled":false,"rental_uris":{"android":"levelo://app?vid=86b478b2-1cf2-4e07-8a5c-76710e912a41","ios":"levelo://app?vid=86b478b2-1cf2-4e07-8a5c-76710e912a41"},"vehicle_type_id":"4","last_reported":1746889767,"current_range_meters":9600,"station_id":"","pricing_plan_id":"cebpf4jnsgd1na2vs0mg"},{"bike_id":"6d24e392-46d1-4d72-84a5-5d205b606b14","system_id":"levelo_inurba_marseille","lat":43.28154,"lon":5.42657,"is_reserved":false,"is_disabled":false,"rental_uris":{"android":"levelo://app?vid=6d24e392-46d1-4d72-84a5-5d205b606b14","ios":"levelo://app?vid=6d24e392-46d1-4d72-84a5-5d205b606b14"},"vehicle_type_id":"4","last_reported":1746889767,"current_range_meters":9600,"station_id":"ce4bhnh2rcd13ifvqgug","pricing_plan_id":"cebpf4jnsgd1na2vs0mg"},{"bike_id":"578673e6-39ec-45fc-9951-a2af5c1493e5","system_id":"levelo_inurba_marseille","lat":43.25004,"lon":5.38929,"is_reserved":false,"is_disabled":false,"rental_uris":{"android":"levelo://app?vid=578673e6-39ec-45fc-9951-a2af5c1493e5","ios":"levelo://app?vid=578673e6-39ec-45fc-9951-a2af5c1493e5"},"vehicle_type_id":"4","last_reported":1746889767,"current_range_meters":9200,"station_id":"ce4bhgp2rcd13ifvqfd0","pricing_plan_id":"cebpf4jnsgd1na2vs0mg"},{"bike_id":"e7d45ecf-3557-426f-9e30-5b34e842b6c9","system_id":"levelo_inurba_marseille","lat":43.251014,"lon":5.392482,"is_reserved":false,"is_disabled":false,"rental_uris":{"android":"levelo://app?vid=e7d45ecf-3557-426f-9e30-5b34e842b6c9","ios":"levelo://app?vid=e7d45ecf-3557-426f-9e30-5b34e842b6c9"},"vehicle_type_id":"4","last_reported":1746889767,"current_range_meters":9200,"station_id":"ce4bhh92rcd13ifvqfj0","pricing_plan_id":"cebpf4jnsgd1na2vs0mg"},{"bike_id":"26d99ef7-d04d-413d-bb2c-784a6ec49a78","system_id":"levelo_inurba_marseille","lat":43.30643,"lon":5.36619,"is_reserved":false,"is_disabled":false,"rental_uris":{"android":"levelo://app?vid=26d99ef7-d04d-413d-bb2c-784a6ec49a78","ios":"levelo://app?vid=26d99ef7-d04d-413d-bb2c-784a6ec49a78"},"vehicle_type_id":"4","last_reported":1746889767,"current_range_meters":9600,"station_id":"","pricing_plan_id":"cebpf4jnsgd1na2vs0mg"},{"bike_id":"1151796d-d680-430f-a50e-e9fa7b38442f","system_id":"levelo_inurba_marseille","lat":43.23157,"lon":5.43711,"is_reserved":false,"is_disabled":false,"rental_uris":{"android":"levelo://app?vid=1151796d-d680-430f-a50e-e9fa7b38442f","ios":"levelo://app?vid=1151796d-d680-430f-a50e-e9fa7b38442f"},"vehicle_type_id":"4","last_reported":1746889767,"current_range_meters":9600,"station_id":"ce4bhmp2rcd13ifvqgog","pricing_plan_id":"cebpf4jnsgd1na2vs0mg"},{"bike_id":"a862be1e-1d7e-4978-8b29-fcd7e491d949","system_id":"levelo_inurba_marseille","lat":43.241694,"lon":5.363992,"is_reserved":false,"is_disabled":false,"rental_uris":{"android":"levelo://app?vid=a862be1e-1d7e-4978-8b29-fcd7e491d949","ios":"levelo://app?vid=a862be1e-1d7e-4978-8b29-fcd7e491d949"},"vehicle_type_id":"4","last_reported":1746889767,"current_range_meters":10000,"station_id":"cpo36qri1sfpv3e86is0","pricing_plan_id":"cebpf4jnsgd1na2vs0mg"},{"bike_id":"1ffd911c-b79d-4573-be11-c1f9a8ff98b3","system_id":"levelo_inurba_marseille","lat":43.26566,"lon":5.37275,"is_reserved":false,"is_disabled":false,"rental_uris":{"android":"levelo://app?vid=1ffd911c-b79d-4573-be11-c1f9a8ff98b3","ios":"levelo://app?vid=1ffd911c-b79d-4573-be11-c1f9a8ff98b3"},"vehicle_type_id":"4","last_reported":1746889767,"current_range_meters":10000,"station_id":"ce4bhg12rcd13ifvqf70","pricing_plan_id":"cebpf4jnsgd1na2vs0mg"},{"bike_id":"ec98bfe2-a7d4-4443-8d1e-f737301125de","system_id":"levelo_inurba_marseille","lat":43.22947,"lon":5.35368,"is_reserved":false,"is_disabled":false,"rental_uris":{"android":"levelo://app?vid=ec98bfe2-a7d4-4443-8d1e-f737301125de","ios":"levelo://app?vid=ec98bfe2-a7d4-4443-8d1e-f737301125de"},"vehicle_type_id":"4","last_reported":1746889767,"current_range_meters":10000,"station_id":"cpo3532slgdg3j2ikp40","pricing_plan_id":"cebpf4jnsgd1na2vs0mg"},{"bike_id":"0fb6c36a-bc3d-432e-93e8-298dcd05e68d","system_id":"levelo_inurba_marseille","lat":43.28449,"lon":5.35022,"is_reserved":false,"is_disabled":false,"rental_uris":{"android":"levelo://app?vid=0fb6c36a-bc3d-432e-93e8-298dcd05e68d","ios":"levelo://app?vid=0fb6c36a-bc3d-432e-93e8-298dcd05e68d"},"vehicle_type_id":"4","last_reported":1746889767,"current_range_meters":10000,"station_id":"","pricing_plan_id":"cebpf4jnsgd1na2vs0mg"},{"bike_id":"e7939de8-6d1b-408c-b9c2-c862334d87f8","system_id":"levelo_inurba_marseille","lat":43.21186,"lon":5.35071,"is_reserved":false,"is_disabled":false,"rental_uris":{"android":"levelo://app?vid=e7939de8-6d1b-408c-b9c2-c862334d87f8","ios":"levelo://app?vid=e7939de8-6d1b-408c-b9c2-c862334d87f8"},"vehicle_type_id":"4","last_reported":1746889767,"current_range_meters":10000,"station_id":"st_cvj6sg6p6f1abm77japg","pricing_plan_id":"cebpf4jnsgd1na2vs0mg"},{"bike_id":"2f8eae1a-f6fc-42d9-aec5-af9bb8aede0b","system_id":"levelo_inurba_marseille","lat":43.23155,"lon":5.43712,"is_reserved":false,"is_disabled":false,"rental_uris":{"android":"levelo://app?vid=2f8eae1a-f6fc-42d9-aec5-af9bb8aede0b","ios":"levelo://app?vid=2f8eae1a-f6fc-42d9-aec5-af9bb8aede0b"},"vehicle_type_id":"4","last_reported":1746889767,"current_range_meters":10000,"station_id":"ce4bhmp2rcd13ifvqgog","pricing_plan_id":"cebpf4jnsgd1na2vs0mg"},{"bike_id":"0e9adfe0-77f1-445b-a003-bfcf063f7691","system_id":"levelo_inurba_marseille","lat":43.21204,"lon":5.35062,"is_reserved":false,"is_disabled":false,"rental_uris":{"android":"levelo://app?vid=0e9adfe0-77f1-445b-a003-bfcf063f7691","ios":"levelo://app?vid=0e9adfe0-77f1-445b-a003-bfcf063f7691"},"vehicle_type_id":"4","last_reported":1746889767,"current_range_meters":10000,"station_id":"st_cvj6sg6p6f1abm77japg","pricing_plan_id":"cebpf4jnsgd1na2vs0mg"},{"bike_id":"1ad7aa64-acde-415d-b0f2-af6e791cb351","system_id":"levelo_inurba_marseille","lat":43.23206,"lon":5.35537,"is_reserved":false,"is_disabled":false,"rental_uris":{"android":"levelo://app?vid=1ad7aa64-acde-415d-b0f2-af6e791cb351","ios":"levelo://app?vid=1ad7aa64-acde-415d-b0f2-af6e791cb351"},"vehicle_type_id":"4","last_reported":1746889767,"current_range_meters":10000,"station_id":"ce4bhu92rcd13ifvqi70","pricing_plan_id":"cebpf4jnsgd1na2vs0mg"},{"bike_id":"e05ed2fa-be2a-43f8-bb55-9eeadb189320","system_id":"levelo_inurba_marseille","lat":43.21209,"lon":5.3507,"is_reserved":false,"is_disabled":false,"rental_uris":{"android":"levelo://app?vid=e05ed2fa-be2a-43f8-bb55-9eeadb189320","ios":"levelo://app?vid=e05ed2fa-be2a-43f8-bb55-9eeadb189320"},"vehicle_type_id":"4","last_reported":1746889767,"current_range_meters":10800,"station_id":"st_cvj6sg6p6f1abm77japg","pricing_plan_id":"cebpf4jnsgd1na2vs0mg"},{"bike_id":"ced84e28-207d-4758-8d1a-0b8bc09d7877","system_id":"levelo_inurba_marseille","lat":43.25502,"lon":5.37654,"is_reserved":false,"is_disabled":false,"rental_uris":{"android":"levelo://app?vid=ced84e28-207d-4758-8d1a-0b8bc09d7877","ios":"levelo://app?vid=ced84e28-207d-4758-8d1a-0b8bc09d7877"},"vehicle_type_id":"4","last_reported":1746889767,"current_range_meters":10800,"station_id":"ce4bhh12rcd13ifvqff0","pricing_plan_id":"cebpf4jnsgd1na2vs0mg"},{"bike_id":"7cb97d5c-817f-45d0-b20f-8d98d53fae39","system_id":"levelo_inurba_marseille","lat":43.24386,"lon":5.37058,"is_reserved":false,"is_disabled":false,"rental_uris":{"android":"levelo://app?vid=7cb97d5c-817f-45d0-b20f-8d98d53fae39","ios":"levelo://app?vid=7cb97d5c-817f-45d0-b20f-8d98d53fae39"},"vehicle_type_id":"4","last_reported":1746889767,"current_range_meters":10800,"station_id":"ce4bhhh2rcd13ifvqfk0","pricing_plan_id":"cebpf4jnsgd1na2vs0mg"},{"bike_id":"92d1559b-78c7-41d4-89e3-96a60a128c4b","system_id":"levelo_inurba_marseille","lat":43.23969,"lon":5.36633,"is_reserved":false,"is_disabled":false,"rental_uris":{"android":"levelo://app?vid=92d1559b-78c7-41d4-89e3-96a60a128c4b","ios":"levelo://app?vid=92d1559b-78c7-41d4-89e3-96a60a128c4b"},"vehicle_type_id":"4","last_reported":1746889767,"current_range_meters":10800,"station_id":"ce4bhi12rcd13ifvqfp0","pricing_plan_id":"cebpf4jnsgd1na2vs0mg"},{"bike_id":"8e6bab97-7663-4a9e-9af6-9990719a126c","system_id":"levelo_inurba_marseille","lat":43.28844,"lon":5.39309,"is_reserved":false,"is_disabled":false,"rental_uris":{"android":"levelo://app?vid=8e6bab97-7663-4a9e-9af6-9990719a126c","ios":"levelo://app?vid=8e6bab97-7663-4a9e-9af6-9990719a126c"},"vehicle_type_id":"4","last_reported":1746889767,"current_range_meters":11200,"station_id":"ce4bh2p2rcd13ifvqdi0","pricing_plan_id":"cebpf4jnsgd1na2vs0mg"},{"bike_id":"86faa1b4-c595-4866-9a7a-92682069113f","system_id":"levelo_inurba_marseille","lat":43.217524,"lon":5.346025,"is_reserved":false,"is_disabled":false,"rental_uris":{"android":"levelo://app?vid=86faa1b4-c595-4866-9a7a-92682069113f","ios":"levelo://app?vid=86faa1b4-c595-4866-9a7a-92682069113f"},"vehicle_type_id":"4","last_reported":1746889767,"current_range_meters":11200,"station_id":"st_cvj6r9ubvosntc0bgbag","pricing_plan_id":"cebpf4jnsgd1na2vs0mg"},{"bike_id":"93a2cdaa-2d8f-45b4-95b2-1deae9871131","system_id":"levelo_inurba_marseille","lat":43.23179,"lon":5.35597,"is_reserved":false,"is_disabled":true,"rental_uris":{"android":"levelo://app?vid=93a2cdaa-2d8f-45b4-95b2-1deae9871131","ios":"levelo://app?vid=93a2cdaa-2d8f-45b4-95b2-1deae9871131"},"vehicle_type_id":"4","last_reported":1746889767,"current_range_meters":11200,"station_id":"ce4bhu92rcd13ifvqi70","pricing_plan_id":"cebpf4jnsgd1na2vs0mg"},{"bike_id":"351ef218-24e5-4670-825d-fc1ac5cd3c19","system_id":"levelo_inurba_marseille","lat":43.31796,"lon":5.36832,"is_reserved":false,"is_disabled":false,"rental_uris":{"android":"levelo://app?vid=351ef218-24e5-4670-825d-fc1ac5cd3c19","ios":"levelo://app?vid=351ef218-24e5-4670-825d-fc1ac5cd3c19"},"vehicle_type_id":"4","last_reported":1746889767,"current_range_meters":11200,"station_id":"","pricing_plan_id":"cebpf4jnsgd1na2vs0mg"},{"bike_id":"3973aed8-4855-4b32-902f-c5a6309c80f6","system_id":"levelo_inurba_marseille","lat":43.23965,"lon":5.36644,"is_reserved":false,"is_disabled":false,"rental_uris":{"android":"levelo://app?vid=3973aed8-4855-4b32-902f-c5a6309c80f6","ios":"levelo://app?vid=3973aed8-4855-4b32-902f-c5a6309c80f6"},"vehicle_type_id":"4","last_reported":1746889767,"current_range_meters":11200,"station_id":"ce4bhi12rcd13ifvqfp0","pricing_plan_id":"cebpf4jnsgd1na2vs0mg"},{"bike_id":"a4af7c4a-8d04-4e9f-838c-b0c056bfdb50","system_id":"levelo_inurba_marseille","lat":43.24168,"lon":5.36402,"is_reserved":false,"is_disabled":false,"rental_uris":{"android":"levelo://app?vid=a4af7c4a-8d04-4e9f-838c-b0c056bfdb50","ios":"levelo://app?vid=a4af7c4a-8d04-4e9f-838c-b0c056bfdb50"},"vehicle_type_id":"4","last_reported":1746889767,"current_range_meters":11200,"station_id":"cpo36qri1sfpv3e86is0","pricing_plan_id":"cebpf4jnsgd1na2vs0mg"},{"bike_id":"de8f8e8f-8896-496f-bbda-ae293542a036","system_id":"levelo_inurba_marseille","lat":43.23961,"lon":5.36629,"is_reserved":false,"is_disabled":false,"rental_uris":{"android":"levelo://app?vid=de8f8e8f-8896-496f-bbda-ae293542a036","ios":"levelo://app?vid=de8f8e8f-8896-496f-bbda-ae293542a036"},"vehicle_type_id":"4","last_reported":1746889767,"current_range_meters":11200,"station_id":"ce4bhi12rcd13ifvqfp0","pricing_plan_id":"cebpf4jnsgd1na2vs0mg"},{"bike_id":"e0442292-c776-4392-b33c-6a33392f860b","system_id":"levelo_inurba_marseille","lat":43.21185,"lon":5.35075,"is_reserved":false,"is_disabled":false,"rental_uris":{"android":"levelo://app?vid=e0442292-c776-4392-b33c-6a33392f860b","ios":"levelo://app?vid=e0442292-c776-4392-b33c-6a33392f860b"},"vehicle_type_id":"4","last_reported":1746889767,"current_range_meters":11200,"station_id":"st_cvj6sg6p6f1abm77japg","pricing_plan_id":"cebpf4jnsgd1na2vs0mg"},{"bike_id":"5eb363f3-9a53-483a-b153-bc68a769b7bb","system_id":"levelo_inurba_marseille","lat":43.24392,"lon":5.37066,"is_reserved":false,"is_disabled":false,"rental_uris":{"android":"levelo://app?vid=5eb363f3-9a53-483a-b153-bc68a769b7bb","ios":"levelo://app?vid=5eb363f3-9a53-483a-b153-bc68a769b7bb"},"vehicle_type_id":"4","last_reported":1746889767,"current_range_meters":11600,"station_id":"ce4bhhh2rcd13ifvqfk0","pricing_plan_id":"cebpf4jnsgd1na2vs0mg"},{"bike_id":"5a084098-688d-436a-921d-89dcfdea9eab","system_id":"levelo_inurba_marseille","lat":43.23064,"lon":5.35491,"is_reserved":false,"is_disabled":false,"rental_uris":{"android":"levelo://app?vid=5a084098-688d-436a-921d-89dcfdea9eab","ios":"levelo://app?vid=5a084098-688d-436a-921d-89dcfdea9eab"},"vehicle_type_id":"4","last_reported":1746889767,"current_range_meters":11600,"station_id":"cpo3342slgdg3j2ifvpg","pricing_plan_id":"cebpf4jnsgd1na2vs0mg"},{"bike_id":"4a1f40ef-448b-4821-8c0a-291ecc0b0da7","system_id":"levelo_inurba_marseille","lat":43.27554,"lon":5.3844,"is_reserved":false,"is_disabled":false,"rental_uris":{"android":"levelo://app?vid=4a1f40ef-448b-4821-8c0a-291ecc0b0da7","ios":"levelo://app?vid=4a1f40ef-448b-4821-8c0a-291ecc0b0da7"},"vehicle_type_id":"4","last_reported":1746889767,"current_range_meters":11200,"station_id":"ce4bhh92rcd13ifvqfi0","pricing_plan_id":"cebpf4jnsgd1na2vs0mg"},{"bike_id":"fcfe94ac-cedd-4c33-b436-d7e84fe984a1","system_id":"levelo_inurba_marseille","lat":43.28266,"lon":5.35077,"is_reserved":false,"is_disabled":false,"rental_uris":{"android":"levelo://app?vid=fcfe94ac-cedd-4c33-b436-d7e84fe984a1","ios":"levelo://app?vid=fcfe94ac-cedd-4c33-b436-d7e84fe984a1"},"vehicle_type_id":"4","last_reported":1746889767,"current_range_meters":11600,"station_id":"ce4bhbp2rcd13ifvqerg","pricing_plan_id":"cebpf4jnsgd1na2vs0mg"},{"bike_id":"49a3ecb4-aa15-4848-b113-8c35ea1ea6bc","system_id":"levelo_inurba_marseille","lat":43.31718,"lon":5.43708,"is_reserved":false,"is_disabled":false,"rental_uris":{"android":"levelo://app?vid=49a3ecb4-aa15-4848-b113-8c35ea1ea6bc","ios":"levelo://app?vid=49a3ecb4-aa15-4848-b113-8c35ea1ea6bc"},"vehicle_type_id":"4","last_reported":1746889767,"current_range_meters":11600,"station_id":"ce4bhp92rcd13ifvqhcg","pricing_plan_id":"cebpf4jnsgd1na2vs0mg"},{"bike_id":"4fd41ce2-ed3d-43f0-86dd-ac4580f1027d","system_id":"levelo_inurba_marseille","lat":43.23196,"lon":5.35557,"is_reserved":false,"is_disabled":false,"rental_uris":{"android":"levelo://app?vid=4fd41ce2-ed3d-43f0-86dd-ac4580f1027d","ios":"levelo://app?vid=4fd41ce2-ed3d-43f0-86dd-ac4580f1027d"},"vehicle_type_id":"4","last_reported":1746889767,"current_range_meters":12000,"station_id":"ce4bhu92rcd13ifvqi70","pricing_plan_id":"cebpf4jnsgd1na2vs0mg"},{"bike_id":"a08794a6-dcc1-4a96-ad6d-f275a56fca24","system_id":"levelo_inurba_marseille","lat":43.23962,"lon":5.36647,"is_reserved":false,"is_disabled":false,"rental_uris":{"android":"levelo://app?vid=a08794a6-dcc1-4a96-ad6d-f275a56fca24","ios":"levelo://app?vid=a08794a6-dcc1-4a96-ad6d-f275a56fca24"},"vehicle_type_id":"4","last_reported":1746889767,"current_range_meters":12000,"station_id":"ce4bhi12rcd13ifvqfp0","pricing_plan_id":"cebpf4jnsgd1na2vs0mg"},{"bike_id":"bb9dd4d9-ef7c-411c-9ce2-6f0d8890189a","system_id":"levelo_inurba_marseille","lat":43.24174,"lon":5.3639,"is_reserved":false,"is_disabled":false,"rental_uris":{"android":"levelo://app?vid=bb9dd4d9-ef7c-411c-9ce2-6f0d8890189a","ios":"levelo://app?vid=bb9dd4d9-ef7c-411c-9ce2-6f0d8890189a"},"vehicle_type_id":"4","last_reported":1746889767,"current_range_meters":12400,"station_id":"cpo36qri1sfpv3e86is0","pricing_plan_id":"cebpf4jnsgd1na2vs0mg"},{"bike_id":"fbd7261e-9645-4743-a700-aeaafc03839f","system_id":"levelo_inurba_marseille","lat":43.25501,"lon":5.37652,"is_reserved":false,"is_disabled":false,"rental_uris":{"android":"levelo://app?vid=fbd7261e-9645-4743-a700-aeaafc03839f","ios":"levelo://app?vid=fbd7261e-9645-4743-a700-aeaafc03839f"},"vehicle_type_id":"4","last_reported":1746889767,"current_range_meters":12400,"station_id":"ce4bhh12rcd13ifvqff0","pricing_plan_id":"cebpf4jnsgd1na2vs0mg"},{"bike_id":"128b3f46-b2fa-4458-82d7-005e3cdd5e25","system_id":"levelo_inurba_marseille","lat":43.27903,"lon":5.38024,"is_reserved":false,"is_disabled":false,"rental_uris":{"android":"levelo://app?vid=128b3f46-b2fa-4458-82d7-005e3cdd5e25","ios":"levelo://app?vid=128b3f46-b2fa-4458-82d7-005e3cdd5e25"},"vehicle_type_id":"4","last_reported":1746889767,"current_range_meters":12400,"station_id":"ce4bhf92rcd13ifvqf50","pricing_plan_id":"cebpf4jnsgd1na2vs0mg"},{"bike_id":"3413899c-e607-405e-ae92-04288dbba853","system_id":"levelo_inurba_marseille","lat":43.21195,"lon":5.35076,"is_reserved":false,"is_disabled":false,"rental_uris":{"android":"levelo://app?vid=3413899c-e607-405e-ae92-04288dbba853","ios":"levelo://app?vid=3413899c-e607-405e-ae92-04288dbba853"},"vehicle_type_id":"4","last_reported":1746889767,"current_range_meters":12400,"station_id":"st_cvj6sg6p6f1abm77japg","pricing_plan_id":"cebpf4jnsgd1na2vs0mg"},{"bike_id":"22ec97d5-b723-413a-8425-afde40e1a3b6","system_id":"levelo_inurba_marseille","lat":43.23959,"lon":5.36637,"is_reserved":false,"is_disabled":false,"rental_uris":{"android":"levelo://app?vid=22ec97d5-b723-413a-8425-afde40e1a3b6","ios":"levelo://app?vid=22ec97d5-b723-413a-8425-afde40e1a3b6"},"vehicle_type_id":"4","last_reported":1746889767,"current_range_meters":12400,"station_id":"ce4bhi12rcd13ifvqfp0","pricing_plan_id":"cebpf4jnsgd1na2vs0mg"},{"bike_id":"0a0f34c2-56cb-4d3c-8730-2c8e1ac0ddd1","system_id":"levelo_inurba_marseille","lat":43.21191,"lon":5.35063,"is_reserved":false,"is_disabled":false,"rental_uris":{"android":"levelo://app?vid=0a0f34c2-56cb-4d3c-8730-2c8e1ac0ddd1","ios":"levelo://app?vid=0a0f34c2-56cb-4d3c-8730-2c8e1ac0ddd1"},"vehicle_type_id":"4","last_reported":1746889767,"current_range_meters":12800,"station_id":"st_cvj6sg6p6f1abm77japg","pricing_plan_id":"cebpf4jnsgd1na2vs0mg"},{"bike_id":"6da13df3-46f6-4d85-8daf-e2d8c82741ba","system_id":"levelo_inurba_marseille","lat":43.25511,"lon":5.37651,"is_reserved":false,"is_disabled":false,"rental_uris":{"android":"levelo://app?vid=6da13df3-46f6-4d85-8daf-e2d8c82741ba","ios":"levelo://app?vid=6da13df3-46f6-4d85-8daf-e2d8c82741ba"},"vehicle_type_id":"4","last_reported":1746889767,"current_range_meters":12400,"station_id":"ce4bhh12rcd13ifvqff0","pricing_plan_id":"cebpf4jnsgd1na2vs0mg"},{"bike_id":"d2326ffb-3df8-46f4-b4f5-60b7753a0276","system_id":"levelo_inurba_marseille","lat":43.27998,"lon":5.41666,"is_reserved":false,"is_disabled":false,"rental_uris":{"android":"levelo://app?vid=d2326ffb-3df8-46f4-b4f5-60b7753a0276","ios":"levelo://app?vid=d2326ffb-3df8-46f4-b4f5-60b7753a0276"},"vehicle_type_id":"4","last_reported":1746889767,"current_range_meters":12400,"station_id":"ce4bho12rcd13ifvqh1g","pricing_plan_id":"cebpf4jnsgd1na2vs0mg"},{"bike_id":"c0c14054-dc17-425e-aec5-1d4d16452906","system_id":"levelo_inurba_marseille","lat":43.28414,"lon":5.34998,"is_reserved":false,"is_disabled":false,"rental_uris":{"android":"levelo://app?vid=c0c14054-dc17-425e-aec5-1d4d16452906","ios":"levelo://app?vid=c0c14054-dc17-425e-aec5-1d4d16452906"},"vehicle_type_id":"4","last_reported":1746889767,"current_range_meters":12800,"station_id":"ce4bhbh2rcd13ifvqepg","pricing_plan_id":"cebpf4jnsgd1na2vs0mg"},{"bike_id":"c622eb0a-bea4-440f-ac5a-8bf041b30114","system_id":"levelo_inurba_marseille","lat":43.24173,"lon":5.36401,"is_reserved":false,"is_disabled":false,"rental_uris":{"android":"levelo://app?vid=c622eb0a-bea4-440f-ac5a-8bf041b30114","ios":"levelo://app?vid=c622eb0a-bea4-440f-ac5a-8bf041b30114"},"vehicle_type_id":"4","last_reported":1746889767,"current_range_meters":13600,"station_id":"cpo36qri1sfpv3e86is0","pricing_plan_id":"cebpf4jnsgd1na2vs0mg"},{"bike_id":"0aa44d05-290a-4b06-97a8-1ca251802dca","system_id":"levelo_inurba_marseille","lat":43.272457,"lon":5.390693,"is_reserved":false,"is_disabled":false,"rental_uris":{"android":"levelo://app?vid=0aa44d05-290a-4b06-97a8-1ca251802dca","ios":"levelo://app?vid=0aa44d05-290a-4b06-97a8-1ca251802dca"},"vehicle_type_id":"4","last_reported":1746889767,"current_range_meters":13600,"station_id":"ce4bhgp2rcd13ifvqfc0","pricing_plan_id":"cebpf4jnsgd1na2vs0mg"},{"bike_id":"9eab0d49-c334-432a-9d98-c7770436d910","system_id":"levelo_inurba_marseille","lat":43.2846,"lon":5.358935,"is_reserved":false,"is_disabled":false,"rental_uris":{"android":"levelo://app?vid=9eab0d49-c334-432a-9d98-c7770436d910","ios":"levelo://app?vid=9eab0d49-c334-432a-9d98-c7770436d910"},"vehicle_type_id":"4","last_reported":1746889767,"current_range_meters":13600,"station_id":"ce4bhah2rcd13ifvqei0","pricing_plan_id":"cebpf4jnsgd1na2vs0mg"},{"bike_id":"94465fa5-a4a5-4ed3-a0b1-7e86decf2fd9","system_id":"levelo_inurba_marseille","lat":43.2828,"lon":5.35088,"is_reserved":false,"is_disabled":false,"rental_uris":{"android":"levelo://app?vid=94465fa5-a4a5-4ed3-a0b1-7e86decf2fd9","ios":"levelo://app?vid=94465fa5-a4a5-4ed3-a0b1-7e86decf2fd9"},"vehicle_type_id":"4","last_reported":1746889767,"current_range_meters":13600,"station_id":"ce4bhbp2rcd13ifvqerg","pricing_plan_id":"cebpf4jnsgd1na2vs0mg"},{"bike_id":"36f60ef0-6aa3-4b75-af85-277ccbf732b6","system_id":"levelo_inurba_marseille","lat":43.27383,"lon":5.36259,"is_reserved":false,"is_disabled":false,"rental_uris":{"android":"levelo://app?vid=36f60ef0-6aa3-4b75-af85-277ccbf732b6","ios":"levelo://app?vid=36f60ef0-6aa3-4b75-af85-277ccbf732b6"},"vehicle_type_id":"4","last_reported":1746889767,"current_range_meters":13600,"station_id":"ce4bhbh2rcd13ifvqeo0","pricing_plan_id":"cebpf4jnsgd1na2vs0mg"},{"bike_id":"1d83476a-9395-4e91-90b3-3098d854b2b3","system_id":"levelo_inurba_marseille","lat":43.29257,"lon":5.38432,"is_reserved":false,"is_disabled":true,"rental_uris":{"android":"levelo://app?vid=1d83476a-9395-4e91-90b3-3098d854b2b3","ios":"levelo://app?vid=1d83476a-9395-4e91-90b3-3098d854b2b3"},"vehicle_type_id":"4","last_reported":1746889767,"current_range_meters":13600,"station_id":"ce4bh692rcd13ifvqea0","pricing_plan_id":"cebpf4jnsgd1na2vs0mg"},{"bike_id":"dff15358-960f-4bfe-84a6-1529e0bf788b","system_id":"levelo_inurba_marseille","lat":43.284187,"lon":5.349933,"is_reserved":false,"is_disabled":false,"rental_uris":{"android":"levelo://app?vid=dff15358-960f-4bfe-84a6-1529e0bf788b","ios":"levelo://app?vid=dff15358-960f-4bfe-84a6-1529e0bf788b"},"vehicle_type_id":"4","last_reported":1746889767,"current_range_meters":14000,"station_id":"ce4bhbh2rcd13ifvqepg","pricing_plan_id":"cebpf4jnsgd1na2vs0mg"},{"bike_id":"ed729c3e-d428-4188-bb6b-aae6bb8308a7","system_id":"levelo_inurba_marseille","lat":43.28427,"lon":5.34987,"is_reserved":false,"is_disabled":false,"rental_uris":{"android":"levelo://app?vid=ed729c3e-d428-4188-bb6b-aae6bb8308a7","ios":"levelo://app?vid=ed729c3e-d428-4188-bb6b-aae6bb8308a7"},"vehicle_type_id":"4","last_reported":1746889767,"current_range_meters":14000,"station_id":"ce4bhbh2rcd13ifvqepg","pricing_plan_id":"cebpf4jnsgd1na2vs0mg"},{"bike_id":"855e1656-0783-47df-8408-c7a30f9eb5ab","system_id":"levelo_inurba_marseille","lat":43.27977,"lon":5.38742,"is_reserved":false,"is_disabled":false,"rental_uris":{"android":"levelo://app?vid=855e1656-0783-47df-8408-c7a30f9eb5ab","ios":"levelo://app?vid=855e1656-0783-47df-8408-c7a30f9eb5ab"},"vehicle_type_id":"4","last_reported":1746889767,"current_range_meters":14000,"station_id":"ce4bhg12rcd13ifvqf80","pricing_plan_id":"cebpf4jnsgd1na2vs0mg"},{"bike_id":"77c65b2e-c8a1-4438-b3e7-bd917314515b","system_id":"levelo_inurba_marseille","lat":43.29898,"lon":5.43661,"is_reserved":false,"is_disabled":false,"rental_uris":{"android":"levelo://app?vid=77c65b2e-c8a1-4438-b3e7-bd917314515b","ios":"levelo://app?vid=77c65b2e-c8a1-4438-b3e7-bd917314515b"},"vehicle_type_id":"4","last_reported":1746889767,"current_range_meters":14000,"station_id":"ce4bhpp2rcd13ifvqhfg","pricing_plan_id":"cebpf4jnsgd1na2vs0mg"},{"bike_id":"365059ff-84e4-4e2f-a60b-8b6b4b573335","system_id":"levelo_inurba_marseille","lat":43.26029,"lon":5.37558,"is_reserved":false,"is_disabled":false,"rental_uris":{"android":"levelo://app?vid=365059ff-84e4-4e2f-a60b-8b6b4b573335","ios":"levelo://app?vid=365059ff-84e4-4e2f-a60b-8b6b4b573335"},"vehicle_type_id":"4","last_reported":1746889767,"current_range_meters":14000,"station_id":"ce4bhgh2rcd13ifvqfa0","pricing_plan_id":"cebpf4jnsgd1na2vs0mg"},{"bike_id":"a42f11d5-0bb2-4b23-8870-da51b18702f5","system_id":"levelo_inurba_marseille","lat":43.3361,"lon":5.41035,"is_reserved":false,"is_disabled":false,"rental_uris":{"android":"levelo://app?vid=a42f11d5-0bb2-4b23-8870-da51b18702f5","ios":"levelo://app?vid=a42f11d5-0bb2-4b23-8870-da51b18702f5"},"vehicle_type_id":"4","last_reported":1746889767,"current_range_meters":14000,"station_id":"ce4bhqh2rcd13ifvqhmg","pricing_plan_id":"cebpf4jnsgd1na2vs0mg"},{"bike_id":"45f0cf2b-a38a-414d-a14a-87563bb638ca","system_id":"levelo_inurba_marseille","lat":43.27621,"lon":5.36111,"is_reserved":false,"is_disabled":false,"rental_uris":{"android":"levelo://app?vid=45f0cf2b-a38a-414d-a14a-87563bb638ca","ios":"levelo://app?vid=45f0cf2b-a38a-414d-a14a-87563bb638ca"},"vehicle_type_id":"4","last_reported":1746889767,"current_range_meters":14000,"station_id":"ce4bgj92rcd13ifvqbe0","pricing_plan_id":"cebpf4jnsgd1na2vs0mg"},{"bike_id":"568943c7-a253-471e-8ac9-8d226d9f9c4c","system_id":"levelo_inurba_marseille","lat":43.2121,"lon":5.35055,"is_reserved":false,"is_disabled":false,"rental_uris":{"android":"levelo://app?vid=568943c7-a253-471e-8ac9-8d226d9f9c4c","ios":"levelo://app?vid=568943c7-a253-471e-8ac9-8d226d9f9c4c"},"vehicle_type_id":"4","last_reported":1746889767,"current_range_meters":14000,"station_id":"st_cvj6sg6p6f1abm77japg","pricing_plan_id":"cebpf4jnsgd1na2vs0mg"},{"bike_id":"fc2577e7-1497-425b-9d4f-ab8d7dc843c6","system_id":"levelo_inurba_marseille","lat":43.33771,"lon":5.37485,"is_reserved":false,"is_disabled":false,"rental_uris":{"android":"levelo://app?vid=fc2577e7-1497-425b-9d4f-ab8d7dc843c6","ios":"levelo://app?vid=fc2577e7-1497-425b-9d4f-ab8d7dc843c6"},"vehicle_type_id":"4","last_reported":1746889767,"current_range_meters":14400,"station_id":"","pricing_plan_id":"cebpf4jnsgd1na2vs0mg"},{"bike_id":"0f40f219-3cc4-467c-8315-ae2e96e02b32","system_id":"levelo_inurba_marseille","lat":43.23199,"lon":5.35553,"is_reserved":false,"is_disabled":false,"rental_uris":{"android":"levelo://app?vid=0f40f219-3cc4-467c-8315-ae2e96e02b32","ios":"levelo://app?vid=0f40f219-3cc4-467c-8315-ae2e96e02b32"},"vehicle_type_id":"4","last_reported":1746889767,"current_range_meters":14400,"station_id":"ce4bhu92rcd13ifvqi70","pricing_plan_id":"cebpf4jnsgd1na2vs0mg"},{"bike_id":"e6a52ea7-59b8-4f5c-b71e-89cb5faa843c","system_id":"levelo_inurba_marseille","lat":43.24226,"lon":5.36363,"is_reserved":false,"is_disabled":false,"rental_uris":{"android":"levelo://app?vid=e6a52ea7-59b8-4f5c-b71e-89cb5faa843c","ios":"levelo://app?vid=e6a52ea7-59b8-4f5c-b71e-89cb5faa843c"},"vehicle_type_id":"4","last_reported":1746889767,"current_range_meters":14400,"station_id":"","pricing_plan_id":"cebpf4jnsgd1na2vs0mg"},{"bike_id":"6e9da9fc-df22-4979-908e-0c8f10d5e096","system_id":"levelo_inurba_marseille","lat":43.23198,"lon":5.35547,"is_reserved":false,"is_disabled":false,"rental_uris":{"android":"levelo://app?vid=6e9da9fc-df22-4979-908e-0c8f10d5e096","ios":"levelo://app?vid=6e9da9fc-df22-4979-908e-0c8f10d5e096"},"vehicle_type_id":"4","last_reported":1746889767,"current_range_meters":14800,"station_id":"ce4bhu92rcd13ifvqi70","pricing_plan_id":"cebpf4jnsgd1na2vs0mg"},{"bike_id":"32ec1105-7699-4773-859d-d9cf29562118","system_id":"levelo_inurba_marseille","lat":43.25716,"lon":5.41095,"is_reserved":false,"is_disabled":false,"rental_uris":{"android":"levelo://app?vid=32ec1105-7699-4773-859d-d9cf29562118","ios":"levelo://app?vid=32ec1105-7699-4773-859d-d9cf29562118"},"vehicle_type_id":"4","last_reported":1746889767,"current_range_meters":14800,"station_id":"ce4bhkp2rcd13ifvqgd0","pricing_plan_id":"cebpf4jnsgd1na2vs0mg"},{"bike_id":"b98f5c07-8f6f-4f63-9530-5a8d6b30ffb0","system_id":"levelo_inurba_marseille","lat":43.23954,"lon":5.36636,"is_reserved":false,"is_disabled":false,"rental_uris":{"android":"levelo://app?vid=b98f5c07-8f6f-4f63-9530-5a8d6b30ffb0","ios":"levelo://app?vid=b98f5c07-8f6f-4f63-9530-5a8d6b30ffb0"},"vehicle_type_id":"4","last_reported":1746889767,"current_range_meters":14800,"station_id":"ce4bhi12rcd13ifvqfp0","pricing_plan_id":"cebpf4jnsgd1na2vs0mg"},{"bike_id":"25aae65c-596f-4096-b288-e80e352f6d8d","system_id":"levelo_inurba_marseille","lat":43.23152,"lon":5.43714,"is_reserved":false,"is_disabled":false,"rental_uris":{"android":"levelo://app?vid=25aae65c-596f-4096-b288-e80e352f6d8d","ios":"levelo://app?vid=25aae65c-596f-4096-b288-e80e352f6d8d"},"vehicle_type_id":"4","last_reported":1746889767,"current_range_meters":14800,"station_id":"ce4bhmp2rcd13ifvqgog","pricing_plan_id":"cebpf4jnsgd1na2vs0mg"},{"bike_id":"80aa5c44-39f6-4d9f-8564-a9a448650368","system_id":"levelo_inurba_marseille","lat":43.27573,"lon":5.38426,"is_reserved":false,"is_disabled":false,"rental_uris":{"android":"levelo://app?vid=80aa5c44-39f6-4d9f-8564-a9a448650368","ios":"levelo://app?vid=80aa5c44-39f6-4d9f-8564-a9a448650368"},"vehicle_type_id":"4","last_reported":1746889767,"current_range_meters":14800,"station_id":"ce4bhh92rcd13ifvqfi0","pricing_plan_id":"cebpf4jnsgd1na2vs0mg"},{"bike_id":"25bd9db4-b151-496c-ba5d-8dcff47fadbf","system_id":"levelo_inurba_marseille","lat":43.31969,"lon":5.37119,"is_reserved":false,"is_disabled":false,"rental_uris":{"android":"levelo://app?vid=25bd9db4-b151-496c-ba5d-8dcff47fadbf","ios":"levelo://app?vid=25bd9db4-b151-496c-ba5d-8dcff47fadbf"},"vehicle_type_id":"4","last_reported":1746889767,"current_range_meters":15200,"station_id":"","pricing_plan_id":"cebpf4jnsgd1na2vs0mg"},{"bike_id":"3830b826-ac86-49c2-882b-2b935c337477","system_id":"levelo_inurba_marseille","lat":43.211926,"lon":5.350735,"is_reserved":false,"is_disabled":false,"rental_uris":{"android":"levelo://app?vid=3830b826-ac86-49c2-882b-2b935c337477","ios":"levelo://app?vid=3830b826-ac86-49c2-882b-2b935c337477"},"vehicle_type_id":"4","last_reported":1746889767,"current_range_meters":16000,"station_id":"st_cvj6sg6p6f1abm77japg","pricing_plan_id":"cebpf4jnsgd1na2vs0mg"},{"bike_id":"7c2064db-8d95-44bf-9025-f49be605236e","system_id":"levelo_inurba_marseille","lat":43.29012,"lon":5.35608,"is_reserved":false,"is_disabled":false,"rental_uris":{"android":"levelo://app?vid=7c2064db-8d95-44bf-9025-f49be605236e","ios":"levelo://app?vid=7c2064db-8d95-44bf-9025-f49be605236e"},"vehicle_type_id":"4","last_reported":1746889767,"current_range_meters":16000,"station_id":"ce4bhb92rcd13ifvqen0","pricing_plan_id":"cebpf4jnsgd1na2vs0mg"},{"bike_id":"f8d70bb4-1500-4d69-a01a-0fe7cdbe7276","system_id":"levelo_inurba_marseille","lat":43.255,"lon":5.3765,"is_reserved":false,"is_disabled":false,"rental_uris":{"android":"levelo://app?vid=f8d70bb4-1500-4d69-a01a-0fe7cdbe7276","ios":"levelo://app?vid=f8d70bb4-1500-4d69-a01a-0fe7cdbe7276"},"vehicle_type_id":"4","last_reported":1746889767,"current_range_meters":16000,"station_id":"ce4bhh12rcd13ifvqff0","pricing_plan_id":"cebpf4jnsgd1na2vs0mg"},{"bike_id":"2c32fab9-c55a-4484-a9a5-9872d13d3ed9","system_id":"levelo_inurba_marseille","lat":43.21201,"lon":5.35072,"is_reserved":false,"is_disabled":false,"rental_uris":{"android":"levelo://app?vid=2c32fab9-c55a-4484-a9a5-9872d13d3ed9","ios":"levelo://app?vid=2c32fab9-c55a-4484-a9a5-9872d13d3ed9"},"vehicle_type_id":"4","last_reported":1746889767,"current_range_meters":16000,"station_id":"st_cvj6sg6p6f1abm77japg","pricing_plan_id":"cebpf4jnsgd1na2vs0mg"},{"bike_id":"dfbdf35a-4c0f-41a3-8606-a1954247362a","system_id":"levelo_inurba_marseille","lat":43.23195,"lon":5.35551,"is_reserved":false,"is_disabled":false,"rental_uris":{"android":"levelo://app?vid=dfbdf35a-4c0f-41a3-8606-a1954247362a","ios":"levelo://app?vid=dfbdf35a-4c0f-41a3-8606-a1954247362a"},"vehicle_type_id":"4","last_reported":1746889767,"current_range_meters":16000,"station_id":"ce4bhu92rcd13ifvqi70","pricing_plan_id":"cebpf4jnsgd1na2vs0mg"},{"bike_id":"6d705489-d3d5-4e12-a28e-5d7bb8b109f3","system_id":"levelo_inurba_marseille","lat":43.2687,"lon":5.42844,"is_reserved":false,"is_disabled":false,"rental_uris":{"android":"levelo://app?vid=6d705489-d3d5-4e12-a28e-5d7bb8b109f3","ios":"levelo://app?vid=6d705489-d3d5-4e12-a28e-5d7bb8b109f3"},"vehicle_type_id":"4","last_reported":1746889767,"current_range_meters":16400,"station_id":"","pricing_plan_id":"cebpf4jnsgd1na2vs0mg"},{"bike_id":"a1121b36-b5cd-4dda-96ef-13a3dfaa55e1","system_id":"levelo_inurba_marseille","lat":43.301401,"lon":5.387791,"is_reserved":false,"is_disabled":false,"rental_uris":{"android":"levelo://app?vid=a1121b36-b5cd-4dda-96ef-13a3dfaa55e1","ios":"levelo://app?vid=a1121b36-b5cd-4dda-96ef-13a3dfaa55e1"},"vehicle_type_id":"4","last_reported":1746889767,"current_range_meters":16400,"station_id":"","pricing_plan_id":"cebpf4jnsgd1na2vs0mg"},{"bike_id":"611984cb-882a-46b7-8fab-e6350303c611","system_id":"levelo_inurba_marseille","lat":43.241655,"lon":5.363931,"is_reserved":false,"is_disabled":false,"rental_uris":{"android":"levelo://app?vid=611984cb-882a-46b7-8fab-e6350303c611","ios":"levelo://app?vid=611984cb-882a-46b7-8fab-e6350303c611"},"vehicle_type_id":"4","last_reported":1746889767,"current_range_meters":16400,"station_id":"cpo36qri1sfpv3e86is0","pricing_plan_id":"cebpf4jnsgd1na2vs0mg"},{"bike_id":"9241faae-e9b4-4fb7-8763-30d0953e3586","system_id":"levelo_inurba_marseille","lat":43.23964,"lon":5.36632,"is_reserved":false,"is_disabled":false,"rental_uris":{"android":"levelo://app?vid=9241faae-e9b4-4fb7-8763-30d0953e3586","ios":"levelo://app?vid=9241faae-e9b4-4fb7-8763-30d0953e3586"},"vehicle_type_id":"4","last_reported":1746889767,"current_range_meters":16400,"station_id":"ce4bhi12rcd13ifvqfp0","pricing_plan_id":"cebpf4jnsgd1na2vs0mg"},{"bike_id":"e7557995-48ce-4110-8276-49936ad81e84","system_id":"levelo_inurba_marseille","lat":43.2121,"lon":5.35085,"is_reserved":false,"is_disabled":false,"rental_uris":{"android":"levelo://app?vid=e7557995-48ce-4110-8276-49936ad81e84","ios":"levelo://app?vid=e7557995-48ce-4110-8276-49936ad81e84"},"vehicle_type_id":"4","last_reported":1746889767,"current_range_meters":16400,"station_id":"st_cvj6sg6p6f1abm77japg","pricing_plan_id":"cebpf4jnsgd1na2vs0mg"},{"bike_id":"86e3d95f-ce23-424b-9852-752e7d590625","system_id":"levelo_inurba_marseille","lat":43.27379,"lon":5.3626,"is_reserved":false,"is_disabled":false,"rental_uris":{"android":"levelo://app?vid=86e3d95f-ce23-424b-9852-752e7d590625","ios":"levelo://app?vid=86e3d95f-ce23-424b-9852-752e7d590625"},"vehicle_type_id":"4","last_reported":1746889767,"current_range_meters":16400,"station_id":"ce4bhbh2rcd13ifvqeo0","pricing_plan_id":"cebpf4jnsgd1na2vs0mg"},{"bike_id":"ddd80f26-913e-4265-9001-0509661216b4","system_id":"levelo_inurba_marseille","lat":43.24186,"lon":5.36404,"is_reserved":false,"is_disabled":false,"rental_uris":{"android":"levelo://app?vid=ddd80f26-913e-4265-9001-0509661216b4","ios":"levelo://app?vid=ddd80f26-913e-4265-9001-0509661216b4"},"vehicle_type_id":"4","last_reported":1746889767,"current_range_meters":16400,"station_id":"cpo36qri1sfpv3e86is0","pricing_plan_id":"cebpf4jnsgd1na2vs0mg"},{"bike_id":"1851c12b-58ac-47bf-b811-525c1ae34555","system_id":"levelo_inurba_marseille","lat":43.22903,"lon":5.35314,"is_reserved":false,"is_disabled":false,"rental_uris":{"android":"levelo://app?vid=1851c12b-58ac-47bf-b811-525c1ae34555","ios":"levelo://app?vid=1851c12b-58ac-47bf-b811-525c1ae34555"},"vehicle_type_id":"4","last_reported":1746889767,"current_range_meters":16400,"station_id":"","pricing_plan_id":"cebpf4jnsgd1na2vs0mg"},{"bike_id":"6add2d36-61c6-46c1-a56e-696306c1bd19","system_id":"levelo_inurba_marseille","lat":43.233625,"lon":5.360724,"is_reserved":false,"is_disabled":false,"rental_uris":{"android":"levelo://app?vid=6add2d36-61c6-46c1-a56e-696306c1bd19","ios":"levelo://app?vid=6add2d36-61c6-46c1-a56e-696306c1bd19"},"vehicle_type_id":"4","last_reported":1746889767,"current_range_meters":16400,"station_id":"","pricing_plan_id":"cebpf4jnsgd1na2vs0mg"},{"bike_id":"9b75603b-a644-4778-8e42-30b2751100ff","system_id":"levelo_inurba_marseille","lat":43.30533,"lon":5.36539,"is_reserved":false,"is_disabled":false,"rental_uris":{"android":"levelo://app?vid=9b75603b-a644-4778-8e42-30b2751100ff","ios":"levelo://app?vid=9b75603b-a644-4778-8e42-30b2751100ff"},"vehicle_type_id":"4","last_reported":1746889767,"current_range_meters":16400,"station_id":"ce4bgs12rcd13ifvqcag","pricing_plan_id":"cebpf4jnsgd1na2vs0mg"},{"bike_id":"26dd0b35-ee8c-479f-a001-75455d1c39c7","system_id":"levelo_inurba_marseille","lat":43.23152,"lon":5.43705,"is_reserved":false,"is_disabled":false,"rental_uris":{"android":"levelo://app?vid=26dd0b35-ee8c-479f-a001-75455d1c39c7","ios":"levelo://app?vid=26dd0b35-ee8c-479f-a001-75455d1c39c7"},"vehicle_type_id":"4","last_reported":1746889767,"current_range_meters":16400,"station_id":"ce4bhmp2rcd13ifvqgog","pricing_plan_id":"cebpf4jnsgd1na2vs0mg"},{"bike_id":"84c242bb-e0e1-467d-8154-bce359a8edcc","system_id":"levelo_inurba_marseille","lat":43.21206,"lon":5.35017,"is_reserved":false,"is_disabled":false,"rental_uris":{"android":"levelo://app?vid=84c242bb-e0e1-467d-8154-bce359a8edcc","ios":"levelo://app?vid=84c242bb-e0e1-467d-8154-bce359a8edcc"},"vehicle_type_id":"4","last_reported":1746889767,"current_range_meters":16800,"station_id":"","pricing_plan_id":"cebpf4jnsgd1na2vs0mg"},{"bike_id":"e2434f42-8ebb-4eed-a218-d21bf35b3735","system_id":"levelo_inurba_marseille","lat":43.29795,"lon":5.38103,"is_reserved":false,"is_disabled":true,"rental_uris":{"android":"levelo://app?vid=e2434f42-8ebb-4eed-a218-d21bf35b3735","ios":"levelo://app?vid=e2434f42-8ebb-4eed-a218-d21bf35b3735"},"vehicle_type_id":"4","last_reported":1746889767,"current_range_meters":16800,"station_id":"ce4bgip2rcd13ifvqbb0","pricing_plan_id":"cebpf4jnsgd1na2vs0mg"},{"bike_id":"5333d947-b4cd-4ab4-9a0b-de0b4b3bf2a3","system_id":"levelo_inurba_marseille","lat":43.27377,"lon":5.36245,"is_reserved":false,"is_disabled":false,"rental_uris":{"android":"levelo://app?vid=5333d947-b4cd-4ab4-9a0b-de0b4b3bf2a3","ios":"levelo://app?vid=5333d947-b4cd-4ab4-9a0b-de0b4b3bf2a3"},"vehicle_type_id":"4","last_reported":1746889767,"current_range_meters":16800,"station_id":"ce4bhbh2rcd13ifvqeo0","pricing_plan_id":"cebpf4jnsgd1na2vs0mg"},{"bike_id":"ec0fad30-026a-4cee-9122-ec5025371331","system_id":"levelo_inurba_marseille","lat":43.2306,"lon":5.35487,"is_reserved":false,"is_disabled":false,"rental_uris":{"android":"levelo://app?vid=ec0fad30-026a-4cee-9122-ec5025371331","ios":"levelo://app?vid=ec0fad30-026a-4cee-9122-ec5025371331"},"vehicle_type_id":"4","last_reported":1746889767,"current_range_meters":16800,"station_id":"cpo3342slgdg3j2ifvpg","pricing_plan_id":"cebpf4jnsgd1na2vs0mg"},{"bike_id":"6663a384-abed-48bd-861f-d563c5fcecd4","system_id":"levelo_inurba_marseille","lat":43.2843,"lon":5.349825,"is_reserved":false,"is_disabled":true,"rental_uris":{"android":"levelo://app?vid=6663a384-abed-48bd-861f-d563c5fcecd4","ios":"levelo://app?vid=6663a384-abed-48bd-861f-d563c5fcecd4"},"vehicle_type_id":"4","last_reported":1746889767,"current_range_meters":16800,"station_id":"ce4bhbh2rcd13ifvqepg","pricing_plan_id":"cebpf4jnsgd1na2vs0mg"},{"bike_id":"20c8c879-b30b-4d70-a592-344085e04a08","system_id":"levelo_inurba_marseille","lat":43.27967,"lon":5.38738,"is_reserved":false,"is_disabled":false,"rental_uris":{"android":"levelo://app?vid=20c8c879-b30b-4d70-a592-344085e04a08","ios":"levelo://app?vid=20c8c879-b30b-4d70-a592-344085e04a08"},"vehicle_type_id":"4","last_reported":1746889767,"current_range_meters":16800,"station_id":"ce4bhg12rcd13ifvqf80","pricing_plan_id":"cebpf4jnsgd1na2vs0mg"},{"bike_id":"80265a29-7634-4f64-abb3-4182c961748a","system_id":"levelo_inurba_marseille","lat":43.257647,"lon":5.386807,"is_reserved":false,"is_disabled":false,"rental_uris":{"android":"levelo://app?vid=80265a29-7634-4f64-abb3-4182c961748a","ios":"levelo://app?vid=80265a29-7634-4f64-abb3-4182c961748a"},"vehicle_type_id":"4","last_reported":1746889767,"current_range_meters":16800,"station_id":"","pricing_plan_id":"cebpf4jnsgd1na2vs0mg"},{"bike_id":"c7accb86-7304-4160-9d5d-68cfd4d5ef9e","system_id":"levelo_inurba_marseille","lat":43.22931,"lon":5.3538,"is_reserved":false,"is_disabled":false,"rental_uris":{"android":"levelo://app?vid=c7accb86-7304-4160-9d5d-68cfd4d5ef9e","ios":"levelo://app?vid=c7accb86-7304-4160-9d5d-68cfd4d5ef9e"},"vehicle_type_id":"4","last_reported":1746889767,"current_range_meters":16800,"station_id":"cpo3532slgdg3j2ikp40","pricing_plan_id":"cebpf4jnsgd1na2vs0mg"},{"bike_id":"149c8a5d-57c8-4821-b6c4-76157903ecba","system_id":"levelo_inurba_marseille","lat":43.21193,"lon":5.35073,"is_reserved":false,"is_disabled":false,"rental_uris":{"android":"levelo://app?vid=149c8a5d-57c8-4821-b6c4-76157903ecba","ios":"levelo://app?vid=149c8a5d-57c8-4821-b6c4-76157903ecba"},"vehicle_type_id":"4","last_reported":1746889767,"current_range_meters":16800,"station_id":"st_cvj6sg6p6f1abm77japg","pricing_plan_id":"cebpf4jnsgd1na2vs0mg"},{"bike_id":"6b4b1034-f0ff-4af7-9963-941ff521c5cf","system_id":"levelo_inurba_marseille","lat":43.27576,"lon":5.38427,"is_reserved":false,"is_disabled":false,"rental_uris":{"android":"levelo://app?vid=6b4b1034-f0ff-4af7-9963-941ff521c5cf","ios":"levelo://app?vid=6b4b1034-f0ff-4af7-9963-941ff521c5cf"},"vehicle_type_id":"4","last_reported":1746889767,"current_range_meters":16800,"station_id":"ce4bhh92rcd13ifvqfi0","pricing_plan_id":"cebpf4jnsgd1na2vs0mg"},{"bike_id":"66a2c7b0-1853-4a62-80e1-9ad611d1a3f8","system_id":"levelo_inurba_marseille","lat":43.26211,"lon":5.37931,"is_reserved":false,"is_disabled":false,"rental_uris":{"android":"levelo://app?vid=66a2c7b0-1853-4a62-80e1-9ad611d1a3f8","ios":"levelo://app?vid=66a2c7b0-1853-4a62-80e1-9ad611d1a3f8"},"vehicle_type_id":"4","last_reported":1746889767,"current_range_meters":17200,"station_id":"ce4bhjp2rcd13ifvqg90","pricing_plan_id":"cebpf4jnsgd1na2vs0mg"},{"bike_id":"17d76d66-c520-403b-9bc4-95e8f8c63035","system_id":"levelo_inurba_marseille","lat":43.21231,"lon":5.35144,"is_reserved":false,"is_disabled":false,"rental_uris":{"android":"levelo://app?vid=17d76d66-c520-403b-9bc4-95e8f8c63035","ios":"levelo://app?vid=17d76d66-c520-403b-9bc4-95e8f8c63035"},"vehicle_type_id":"4","last_reported":1746889767,"current_range_meters":17200,"station_id":"","pricing_plan_id":"cebpf4jnsgd1na2vs0mg"},{"bike_id":"f0850f42-ee00-41aa-bb4c-ac3608b4da37","system_id":"levelo_inurba_marseille","lat":43.21191,"lon":5.35072,"is_reserved":false,"is_disabled":false,"rental_uris":{"android":"levelo://app?vid=f0850f42-ee00-41aa-bb4c-ac3608b4da37","ios":"levelo://app?vid=f0850f42-ee00-41aa-bb4c-ac3608b4da37"},"vehicle_type_id":"4","last_reported":1746889767,"current_range_meters":17200,"station_id":"st_cvj6sg6p6f1abm77japg","pricing_plan_id":"cebpf4jnsgd1na2vs0mg"},{"bike_id":"6344c83f-532e-41ff-b5e4-2f7daad9a120","system_id":"levelo_inurba_marseille","lat":43.22934,"lon":5.35383,"is_reserved":false,"is_disabled":false,"rental_uris":{"android":"levelo://app?vid=6344c83f-532e-41ff-b5e4-2f7daad9a120","ios":"levelo://app?vid=6344c83f-532e-41ff-b5e4-2f7daad9a120"},"vehicle_type_id":"4","last_reported":1746889767,"current_range_meters":17200,"station_id":"cpo3532slgdg3j2ikp40","pricing_plan_id":"cebpf4jnsgd1na2vs0mg"},{"bike_id":"b2da17ff-6a90-460b-aa37-fa1a3fc99642","system_id":"levelo_inurba_marseille","lat":43.2921,"lon":5.39324,"is_reserved":false,"is_disabled":false,"rental_uris":{"android":"levelo://app?vid=b2da17ff-6a90-460b-aa37-fa1a3fc99642","ios":"levelo://app?vid=b2da17ff-6a90-460b-aa37-fa1a3fc99642"},"vehicle_type_id":"4","last_reported":1746889767,"current_range_meters":16800,"station_id":"ce4bh192rcd13ifvqdd0","pricing_plan_id":"cebpf4jnsgd1na2vs0mg"},{"bike_id":"f6f5048e-ca7a-4c44-ad00-dae90fab14f4","system_id":"levelo_inurba_marseille","lat":43.25008,"lon":5.38939,"is_reserved":false,"is_disabled":false,"rental_uris":{"android":"levelo://app?vid=f6f5048e-ca7a-4c44-ad00-dae90fab14f4","ios":"levelo://app?vid=f6f5048e-ca7a-4c44-ad00-dae90fab14f4"},"vehicle_type_id":"4","last_reported":1746889767,"current_range_meters":17200,"station_id":"ce4bhgp2rcd13ifvqfd0","pricing_plan_id":"cebpf4jnsgd1na2vs0mg"},{"bike_id":"3e71a01d-8d7f-47de-bf06-fd19fdc1a814","system_id":"levelo_inurba_marseille","lat":43.211905,"lon":5.350745,"is_reserved":false,"is_disabled":false,"rental_uris":{"android":"levelo://app?vid=3e71a01d-8d7f-47de-bf06-fd19fdc1a814","ios":"levelo://app?vid=3e71a01d-8d7f-47de-bf06-fd19fdc1a814"},"vehicle_type_id":"4","last_reported":1746889767,"current_range_meters":17600,"station_id":"st_cvj6sg6p6f1abm77japg","pricing_plan_id":"cebpf4jnsgd1na2vs0mg"},{"bike_id":"0f6779a9-7b52-4ec2-9467-f6eb126a1ed4","system_id":"levelo_inurba_marseille","lat":43.28617,"lon":5.35106,"is_reserved":false,"is_disabled":false,"rental_uris":{"android":"levelo://app?vid=0f6779a9-7b52-4ec2-9467-f6eb126a1ed4","ios":"levelo://app?vid=0f6779a9-7b52-4ec2-9467-f6eb126a1ed4"},"vehicle_type_id":"4","last_reported":1746889767,"current_range_meters":17600,"station_id":"ce4bhch2rcd13ifvqeug","pricing_plan_id":"cebpf4jnsgd1na2vs0mg"},{"bike_id":"3fa26a14-db9b-43b1-9d97-3430da2f13c4","system_id":"levelo_inurba_marseille","lat":43.30395,"lon":5.42455,"is_reserved":false,"is_disabled":false,"rental_uris":{"android":"levelo://app?vid=3fa26a14-db9b-43b1-9d97-3430da2f13c4","ios":"levelo://app?vid=3fa26a14-db9b-43b1-9d97-3430da2f13c4"},"vehicle_type_id":"4","last_reported":1746889767,"current_range_meters":17600,"station_id":"ce4bhoh2rcd13ifvqh6g","pricing_plan_id":"cebpf4jnsgd1na2vs0mg"},{"bike_id":"11d5b4e5-9864-4add-b65f-24cdd4be0198","system_id":"levelo_inurba_marseille","lat":43.28273,"lon":5.35072,"is_reserved":false,"is_disabled":false,"rental_uris":{"android":"levelo://app?vid=11d5b4e5-9864-4add-b65f-24cdd4be0198","ios":"levelo://app?vid=11d5b4e5-9864-4add-b65f-24cdd4be0198"},"vehicle_type_id":"4","last_reported":1746889767,"current_range_meters":17600,"station_id":"ce4bhbp2rcd13ifvqerg","pricing_plan_id":"cebpf4jnsgd1na2vs0mg"},{"bike_id":"3712ebea-e579-4639-a5e6-e0ed82b970c2","system_id":"levelo_inurba_marseille","lat":43.28413,"lon":5.34984,"is_reserved":false,"is_disabled":false,"rental_uris":{"android":"levelo://app?vid=3712ebea-e579-4639-a5e6-e0ed82b970c2","ios":"levelo://app?vid=3712ebea-e579-4639-a5e6-e0ed82b970c2"},"vehicle_type_id":"4","last_reported":1746889767,"current_range_meters":17600,"station_id":"ce4bhbh2rcd13ifvqepg","pricing_plan_id":"cebpf4jnsgd1na2vs0mg"},{"bike_id":"5e68d282-7db1-4fd4-9bc9-1a83c35b0811","system_id":"levelo_inurba_marseille","lat":43.284425,"lon":5.349806,"is_reserved":false,"is_disabled":false,"rental_uris":{"android":"levelo://app?vid=5e68d282-7db1-4fd4-9bc9-1a83c35b0811","ios":"levelo://app?vid=5e68d282-7db1-4fd4-9bc9-1a83c35b0811"},"vehicle_type_id":"4","last_reported":1746889767,"current_range_meters":17600,"station_id":"ce4bhbh2rcd13ifvqepg","pricing_plan_id":"cebpf4jnsgd1na2vs0mg"},{"bike_id":"5863beeb-ca0e-4228-8d04-faf2ae7a4414","system_id":"levelo_inurba_marseille","lat":43.29637,"lon":5.40593,"is_reserved":false,"is_disabled":false,"rental_uris":{"android":"levelo://app?vid=5863beeb-ca0e-4228-8d04-faf2ae7a4414","ios":"levelo://app?vid=5863beeb-ca0e-4228-8d04-faf2ae7a4414"},"vehicle_type_id":"4","last_reported":1746889767,"current_range_meters":18000,"station_id":"ce4bh0h2rcd13ifvqd60","pricing_plan_id":"cebpf4jnsgd1na2vs0mg"},{"bike_id":"4345cb7d-e0c6-42fd-9754-9b21239421e4","system_id":"levelo_inurba_marseille","lat":43.269379,"lon":5.402532,"is_reserved":false,"is_disabled":false,"rental_uris":{"android":"levelo://app?vid=4345cb7d-e0c6-42fd-9754-9b21239421e4","ios":"levelo://app?vid=4345cb7d-e0c6-42fd-9754-9b21239421e4"},"vehicle_type_id":"4","last_reported":1746889767,"current_range_meters":18000,"station_id":"","pricing_plan_id":"cebpf4jnsgd1na2vs0mg"},{"bike_id":"8d1124af-99b6-490f-9380-67657165a865","system_id":"levelo_inurba_marseille","lat":43.23189,"lon":5.35559,"is_reserved":false,"is_disabled":false,"rental_uris":{"android":"levelo://app?vid=8d1124af-99b6-490f-9380-67657165a865","ios":"levelo://app?vid=8d1124af-99b6-490f-9380-67657165a865"},"vehicle_type_id":"4","last_reported":1746889767,"current_range_meters":18000,"station_id":"ce4bhu92rcd13ifvqi70","pricing_plan_id":"cebpf4jnsgd1na2vs0mg"},{"bike_id":"c5d988df-0ed6-46c7-b3fc-9f50fa2427a0","system_id":"levelo_inurba_marseille","lat":43.31063,"lon":5.38363,"is_reserved":false,"is_disabled":false,"rental_uris":{"android":"levelo://app?vid=c5d988df-0ed6-46c7-b3fc-9f50fa2427a0","ios":"levelo://app?vid=c5d988df-0ed6-46c7-b3fc-9f50fa2427a0"},"vehicle_type_id":"4","last_reported":1746889767,"current_range_meters":18000,"station_id":"ce4bgv92rcd13ifvqcr0","pricing_plan_id":"cebpf4jnsgd1na2vs0mg"},{"bike_id":"b7c4e21b-50d1-451a-8b94-75d95b018fc5","system_id":"levelo_inurba_marseille","lat":43.27184,"lon":5.40956,"is_reserved":false,"is_disabled":false,"rental_uris":{"android":"levelo://app?vid=b7c4e21b-50d1-451a-8b94-75d95b018fc5","ios":"levelo://app?vid=b7c4e21b-50d1-451a-8b94-75d95b018fc5"},"vehicle_type_id":"4","last_reported":1746889767,"current_range_meters":18000,"station_id":"ce4bhl12rcd13ifvqgf0","pricing_plan_id":"cebpf4jnsgd1na2vs0mg"},{"bike_id":"37a53596-502a-4a9d-8e2f-14c1bad6a2e3","system_id":"levelo_inurba_marseille","lat":43.21192,"lon":5.35076,"is_reserved":false,"is_disabled":false,"rental_uris":{"android":"levelo://app?vid=37a53596-502a-4a9d-8e2f-14c1bad6a2e3","ios":"levelo://app?vid=37a53596-502a-4a9d-8e2f-14c1bad6a2e3"},"vehicle_type_id":"4","last_reported":1746889767,"current_range_meters":18800,"station_id":"st_cvj6sg6p6f1abm77japg","pricing_plan_id":"cebpf4jnsgd1na2vs0mg"},{"bike_id":"d3d703d1-4187-435f-9bb9-ab14f33ff2a2","system_id":"levelo_inurba_marseille","lat":43.23958,"lon":5.36632,"is_reserved":false,"is_disabled":false,"rental_uris":{"android":"levelo://app?vid=d3d703d1-4187-435f-9bb9-ab14f33ff2a2","ios":"levelo://app?vid=d3d703d1-4187-435f-9bb9-ab14f33ff2a2"},"vehicle_type_id":"4","last_reported":1746889767,"current_range_meters":18800,"station_id":"ce4bhi12rcd13ifvqfp0","pricing_plan_id":"cebpf4jnsgd1na2vs0mg"},{"bike_id":"aae5d796-a8ad-4d9c-89f0-bc9b73c18dbf","system_id":"levelo_inurba_marseille","lat":43.29309,"lon":5.37175,"is_reserved":false,"is_disabled":false,"rental_uris":{"android":"levelo://app?vid=aae5d796-a8ad-4d9c-89f0-bc9b73c18dbf","ios":"levelo://app?vid=aae5d796-a8ad-4d9c-89f0-bc9b73c18dbf"},"vehicle_type_id":"4","last_reported":1746889767,"current_range_meters":18800,"station_id":"ce4bgh92rcd13ifvqb40","pricing_plan_id":"cebpf4jnsgd1na2vs0mg"},{"bike_id":"58b0cb32-bb44-4f89-b067-ba984380a926","system_id":"levelo_inurba_marseille","lat":43.22927,"lon":5.354,"is_reserved":false,"is_disabled":false,"rental_uris":{"android":"levelo://app?vid=58b0cb32-bb44-4f89-b067-ba984380a926","ios":"levelo://app?vid=58b0cb32-bb44-4f89-b067-ba984380a926"},"vehicle_type_id":"4","last_reported":1746889767,"current_range_meters":18800,"station_id":"cpo3532slgdg3j2ikp40","pricing_plan_id":"cebpf4jnsgd1na2vs0mg"},{"bike_id":"e790f10e-14d4-4ace-b640-fbfcb823e829","system_id":"levelo_inurba_marseille","lat":43.23066,"lon":5.3549,"is_reserved":false,"is_disabled":false,"rental_uris":{"android":"levelo://app?vid=e790f10e-14d4-4ace-b640-fbfcb823e829","ios":"levelo://app?vid=e790f10e-14d4-4ace-b640-fbfcb823e829"},"vehicle_type_id":"4","last_reported":1746889767,"current_range_meters":18800,"station_id":"cpo3342slgdg3j2ifvpg","pricing_plan_id":"cebpf4jnsgd1na2vs0mg"},{"bike_id":"a91f414b-6888-45fb-8f08-d1887a2c7b71","system_id":"levelo_inurba_marseille","lat":43.21194,"lon":5.35076,"is_reserved":false,"is_disabled":false,"rental_uris":{"android":"levelo://app?vid=a91f414b-6888-45fb-8f08-d1887a2c7b71","ios":"levelo://app?vid=a91f414b-6888-45fb-8f08-d1887a2c7b71"},"vehicle_type_id":"4","last_reported":1746889767,"current_range_meters":18800,"station_id":"st_cvj6sg6p6f1abm77japg","pricing_plan_id":"cebpf4jnsgd1na2vs0mg"},{"bike_id":"7194625f-4cba-40dc-ae8d-d6879799905d","system_id":"levelo_inurba_marseille","lat":43.232,"lon":5.35555,"is_reserved":false,"is_disabled":false,"rental_uris":{"android":"levelo://app?vid=7194625f-4cba-40dc-ae8d-d6879799905d","ios":"levelo://app?vid=7194625f-4cba-40dc-ae8d-d6879799905d"},"vehicle_type_id":"4","last_reported":1746889767,"current_range_meters":18800,"station_id":"ce4bhu92rcd13ifvqi70","pricing_plan_id":"cebpf4jnsgd1na2vs0mg"},{"bike_id":"f52c819d-ca4b-4640-b458-b877db1bf990","system_id":"levelo_inurba_marseille","lat":43.29875,"lon":5.41011,"is_reserved":false,"is_disabled":false,"rental_uris":{"android":"levelo://app?vid=f52c819d-ca4b-4640-b458-b877db1bf990","ios":"levelo://app?vid=f52c819d-ca4b-4640-b458-b877db1bf990"},"vehicle_type_id":"4","last_reported":1746889767,"current_range_meters":19200,"station_id":"","pricing_plan_id":"cebpf4jnsgd1na2vs0mg"},{"bike_id":"cac77071-1576-41ae-8c2f-c0c2d638b39d","system_id":"levelo_inurba_marseille","lat":43.248029,"lon":5.374563,"is_reserved":false,"is_disabled":false,"rental_uris":{"android":"levelo://app?vid=cac77071-1576-41ae-8c2f-c0c2d638b39d","ios":"levelo://app?vid=cac77071-1576-41ae-8c2f-c0c2d638b39d"},"vehicle_type_id":"4","last_reported":1746889767,"current_range_meters":19200,"station_id":"ce4bhgh2rcd13ifvqfb0","pricing_plan_id":"cebpf4jnsgd1na2vs0mg"},{"bike_id":"4cc0e88c-0ad4-4ab1-9be8-3021ac498c67","system_id":"levelo_inurba_marseille","lat":43.26791,"lon":5.39416,"is_reserved":false,"is_disabled":false,"rental_uris":{"android":"levelo://app?vid=4cc0e88c-0ad4-4ab1-9be8-3021ac498c67","ios":"levelo://app?vid=4cc0e88c-0ad4-4ab1-9be8-3021ac498c67"},"vehicle_type_id":"4","last_reported":1746889767,"current_range_meters":19200,"station_id":"ce4bhh12rcd13ifvqfg0","pricing_plan_id":"cebpf4jnsgd1na2vs0mg"},{"bike_id":"fda448e6-8d8c-45b3-bcbc-65b30c21549d","system_id":"levelo_inurba_marseille","lat":43.26506,"lon":5.39531,"is_reserved":false,"is_disabled":false,"rental_uris":{"android":"levelo://app?vid=fda448e6-8d8c-45b3-bcbc-65b30c21549d","ios":"levelo://app?vid=fda448e6-8d8c-45b3-bcbc-65b30c21549d"},"vehicle_type_id":"4","last_reported":1746889767,"current_range_meters":19600,"station_id":"ce4bhi12rcd13ifvqfq0","pricing_plan_id":"cebpf4jnsgd1na2vs0mg"},{"bike_id":"46f57986-65a0-4b90-95db-37be3d76cadb","system_id":"levelo_inurba_marseille","lat":43.27377,"lon":5.36259,"is_reserved":false,"is_disabled":false,"rental_uris":{"android":"levelo://app?vid=46f57986-65a0-4b90-95db-37be3d76cadb","ios":"levelo://app?vid=46f57986-65a0-4b90-95db-37be3d76cadb"},"vehicle_type_id":"4","last_reported":1746889767,"current_range_meters":19200,"station_id":"ce4bhbh2rcd13ifvqeo0","pricing_plan_id":"cebpf4jnsgd1na2vs0mg"},{"bike_id":"c7ab0f5a-253e-4d00-b454-b234979d3d9a","system_id":"levelo_inurba_marseille","lat":43.2931,"lon":5.37173,"is_reserved":false,"is_disabled":false,"rental_uris":{"android":"levelo://app?vid=c7ab0f5a-253e-4d00-b454-b234979d3d9a","ios":"levelo://app?vid=c7ab0f5a-253e-4d00-b454-b234979d3d9a"},"vehicle_type_id":"4","last_reported":1746889767,"current_range_meters":19200,"station_id":"ce4bgh92rcd13ifvqb40","pricing_plan_id":"cebpf4jnsgd1na2vs0mg"},{"bike_id":"a039c3d0-b60d-4bb7-a1fa-15e0fa82d8e7","system_id":"levelo_inurba_marseille","lat":43.28418,"lon":5.34985,"is_reserved":false,"is_disabled":false,"rental_uris":{"android":"levelo://app?vid=a039c3d0-b60d-4bb7-a1fa-15e0fa82d8e7","ios":"levelo://app?vid=a039c3d0-b60d-4bb7-a1fa-15e0fa82d8e7"},"vehicle_type_id":"4","last_reported":1746889767,"current_range_meters":19200,"station_id":"ce4bhbh2rcd13ifvqepg","pricing_plan_id":"cebpf4jnsgd1na2vs0mg"},{"bike_id":"26d9d9e9-1da5-44b6-90da-bb9663f011e5","system_id":"levelo_inurba_marseille","lat":43.23969,"lon":5.36634,"is_reserved":false,"is_disabled":false,"rental_uris":{"android":"levelo://app?vid=26d9d9e9-1da5-44b6-90da-bb9663f011e5","ios":"levelo://app?vid=26d9d9e9-1da5-44b6-90da-bb9663f011e5"},"vehicle_type_id":"4","last_reported":1746889767,"current_range_meters":19200,"station_id":"","pricing_plan_id":"cebpf4jnsgd1na2vs0mg"},{"bike_id":"813c0839-cb0d-48a1-8e00-74ae7b579969","system_id":"levelo_inurba_marseille","lat":43.2827,"lon":5.35065,"is_reserved":false,"is_disabled":false,"rental_uris":{"android":"levelo://app?vid=813c0839-cb0d-48a1-8e00-74ae7b579969","ios":"levelo://app?vid=813c0839-cb0d-48a1-8e00-74ae7b579969"},"vehicle_type_id":"4","last_reported":1746889767,"current_range_meters":19600,"station_id":"ce4bhbp2rcd13ifvqerg","pricing_plan_id":"cebpf4jnsgd1na2vs0mg"},{"bike_id":"6b4d12b1-456b-4746-9c93-ea6f907a7f8f","system_id":"levelo_inurba_marseille","lat":43.211925,"lon":5.350768,"is_reserved":false,"is_disabled":false,"rental_uris":{"android":"levelo://app?vid=6b4d12b1-456b-4746-9c93-ea6f907a7f8f","ios":"levelo://app?vid=6b4d12b1-456b-4746-9c93-ea6f907a7f8f"},"vehicle_type_id":"4","last_reported":1746889767,"current_range_meters":19600,"station_id":"st_cvj6sg6p6f1abm77japg","pricing_plan_id":"cebpf4jnsgd1na2vs0mg"},{"bike_id":"65172fd8-2b56-4e82-b28d-2b51ff072520","system_id":"levelo_inurba_marseille","lat":43.23957,"lon":5.36635,"is_reserved":false,"is_disabled":false,"rental_uris":{"android":"levelo://app?vid=65172fd8-2b56-4e82-b28d-2b51ff072520","ios":"levelo://app?vid=65172fd8-2b56-4e82-b28d-2b51ff072520"},"vehicle_type_id":"4","last_reported":1746889767,"current_range_meters":19600,"station_id":"ce4bhi12rcd13ifvqfp0","pricing_plan_id":"cebpf4jnsgd1na2vs0mg"},{"bike_id":"f33180fe-62d9-4089-a067-f6d8188d43f1","system_id":"levelo_inurba_marseille","lat":43.24802,"lon":5.37456,"is_reserved":false,"is_disabled":false,"rental_uris":{"android":"levelo://app?vid=f33180fe-62d9-4089-a067-f6d8188d43f1","ios":"levelo://app?vid=f33180fe-62d9-4089-a067-f6d8188d43f1"},"vehicle_type_id":"4","last_reported":1746889767,"current_range_meters":19200,"station_id":"ce4bhgh2rcd13ifvqfb0","pricing_plan_id":"cebpf4jnsgd1na2vs0mg"},{"bike_id":"6ecbd323-6882-4613-9603-e2189f4c70be","system_id":"levelo_inurba_marseille","lat":43.23158,"lon":5.43704,"is_reserved":false,"is_disabled":false,"rental_uris":{"android":"levelo://app?vid=6ecbd323-6882-4613-9603-e2189f4c70be","ios":"levelo://app?vid=6ecbd323-6882-4613-9603-e2189f4c70be"},"vehicle_type_id":"4","last_reported":1746889767,"current_range_meters":19200,"station_id":"ce4bhmp2rcd13ifvqgog","pricing_plan_id":"cebpf4jnsgd1na2vs0mg"},{"bike_id":"7822a744-c870-4733-a37d-ab615121b09c","system_id":"levelo_inurba_marseille","lat":43.21199,"lon":5.35071,"is_reserved":false,"is_disabled":false,"rental_uris":{"android":"levelo://app?vid=7822a744-c870-4733-a37d-ab615121b09c","ios":"levelo://app?vid=7822a744-c870-4733-a37d-ab615121b09c"},"vehicle_type_id":"4","last_reported":1746889767,"current_range_meters":19600,"station_id":"st_cvj6sg6p6f1abm77japg","pricing_plan_id":"cebpf4jnsgd1na2vs0mg"},{"bike_id":"73ded412-1ade-4c78-acbe-a9afd038932d","system_id":"levelo_inurba_marseille","lat":43.2418,"lon":5.36401,"is_reserved":false,"is_disabled":false,"rental_uris":{"android":"levelo://app?vid=73ded412-1ade-4c78-acbe-a9afd038932d","ios":"levelo://app?vid=73ded412-1ade-4c78-acbe-a9afd038932d"},"vehicle_type_id":"4","last_reported":1746889767,"current_range_meters":19600,"station_id":"cpo36qri1sfpv3e86is0","pricing_plan_id":"cebpf4jnsgd1na2vs0mg"},{"bike_id":"c7099219-4382-4d28-b5b3-20f1d466dd5f","system_id":"levelo_inurba_marseille","lat":43.27379,"lon":5.36259,"is_reserved":false,"is_disabled":false,"rental_uris":{"android":"levelo://app?vid=c7099219-4382-4d28-b5b3-20f1d466dd5f","ios":"levelo://app?vid=c7099219-4382-4d28-b5b3-20f1d466dd5f"},"vehicle_type_id":"4","last_reported":1746889767,"current_range_meters":19600,"station_id":"ce4bhbh2rcd13ifvqeo0","pricing_plan_id":"cebpf4jnsgd1na2vs0mg"},{"bike_id":"52bf5de1-a88d-4d62-a302-940197d2b38a","system_id":"levelo_inurba_marseille","lat":43.25002,"lon":5.38938,"is_reserved":false,"is_disabled":false,"rental_uris":{"android":"levelo://app?vid=52bf5de1-a88d-4d62-a302-940197d2b38a","ios":"levelo://app?vid=52bf5de1-a88d-4d62-a302-940197d2b38a"},"vehicle_type_id":"4","last_reported":1746889767,"current_range_meters":20000,"station_id":"ce4bhgp2rcd13ifvqfd0","pricing_plan_id":"cebpf4jnsgd1na2vs0mg"},{"bike_id":"6e7a3742-7782-497c-a274-170742df563d","system_id":"levelo_inurba_marseille","lat":43.27379,"lon":5.36259,"is_reserved":false,"is_disabled":false,"rental_uris":{"android":"levelo://app?vid=6e7a3742-7782-497c-a274-170742df563d","ios":"levelo://app?vid=6e7a3742-7782-497c-a274-170742df563d"},"vehicle_type_id":"4","last_reported":1746889767,"current_range_meters":20000,"station_id":"ce4bhbh2rcd13ifvqeo0","pricing_plan_id":"cebpf4jnsgd1na2vs0mg"},{"bike_id":"591f15ff-d0a0-4951-a0c5-bcb9b0eaff9e","system_id":"levelo_inurba_marseille","lat":43.21195,"lon":5.35075,"is_reserved":false,"is_disabled":false,"rental_uris":{"android":"levelo://app?vid=591f15ff-d0a0-4951-a0c5-bcb9b0eaff9e","ios":"levelo://app?vid=591f15ff-d0a0-4951-a0c5-bcb9b0eaff9e"},"vehicle_type_id":"4","last_reported":1746889767,"current_range_meters":20000,"station_id":"st_cvj6sg6p6f1abm77japg","pricing_plan_id":"cebpf4jnsgd1na2vs0mg"},{"bike_id":"df062d2e-b0fe-4f22-8222-46063ac3ba1b","system_id":"levelo_inurba_marseille","lat":43.23156,"lon":5.43721,"is_reserved":false,"is_disabled":false,"rental_uris":{"android":"levelo://app?vid=df062d2e-b0fe-4f22-8222-46063ac3ba1b","ios":"levelo://app?vid=df062d2e-b0fe-4f22-8222-46063ac3ba1b"},"vehicle_type_id":"4","last_reported":1746889767,"current_range_meters":20000,"station_id":"ce4bhmp2rcd13ifvqgog","pricing_plan_id":"cebpf4jnsgd1na2vs0mg"},{"bike_id":"7dec5a23-9465-4dde-a9b5-fc32dc117547","system_id":"levelo_inurba_marseille","lat":43.28423,"lon":5.3499,"is_reserved":false,"is_disabled":true,"rental_uris":{"android":"levelo://app?vid=7dec5a23-9465-4dde-a9b5-fc32dc117547","ios":"levelo://app?vid=7dec5a23-9465-4dde-a9b5-fc32dc117547"},"vehicle_type_id":"4","last_reported":1746889767,"current_range_meters":20400,"station_id":"ce4bhbh2rcd13ifvqepg","pricing_plan_id":"cebpf4jnsgd1na2vs0mg"},{"bike_id":"a1196771-381c-431e-8ebf-3953f5809b44","system_id":"levelo_inurba_marseille","lat":43.29153,"lon":5.35414,"is_reserved":false,"is_disabled":false,"rental_uris":{"android":"levelo://app?vid=a1196771-381c-431e-8ebf-3953f5809b44","ios":"levelo://app?vid=a1196771-381c-431e-8ebf-3953f5809b44"},"vehicle_type_id":"4","last_reported":1746889767,"current_range_meters":20400,"station_id":"ce4bhch2rcd13ifvqeug","pricing_plan_id":"cebpf4jnsgd1na2vs0mg"},{"bike_id":"105b8e5e-7096-4c35-959a-32912ffb6725","system_id":"levelo_inurba_marseille","lat":43.262,"lon":5.37949,"is_reserved":false,"is_disabled":false,"rental_uris":{"android":"levelo://app?vid=105b8e5e-7096-4c35-959a-32912ffb6725","ios":"levelo://app?vid=105b8e5e-7096-4c35-959a-32912ffb6725"},"vehicle_type_id":"4","last_reported":1746889767,"current_range_meters":20400,"station_id":"ce4bhjp2rcd13ifvqg90","pricing_plan_id":"cebpf4jnsgd1na2vs0mg"},{"bike_id":"bae72e23-646c-4fce-8104-e34d8ddf4f39","system_id":"levelo_inurba_marseille","lat":43.26552,"lon":5.37291,"is_reserved":false,"is_disabled":false,"rental_uris":{"android":"levelo://app?vid=bae72e23-646c-4fce-8104-e34d8ddf4f39","ios":"levelo://app?vid=bae72e23-646c-4fce-8104-e34d8ddf4f39"},"vehicle_type_id":"4","last_reported":1746889767,"current_range_meters":20400,"station_id":"ce4bhg12rcd13ifvqf70","pricing_plan_id":"cebpf4jnsgd1na2vs0mg"},{"bike_id":"a3886c11-489f-4c79-b864-b7d6cdb2683b","system_id":"levelo_inurba_marseille","lat":43.304312,"lon":5.39731,"is_reserved":false,"is_disabled":false,"rental_uris":{"android":"levelo://app?vid=a3886c11-489f-4c79-b864-b7d6cdb2683b","ios":"levelo://app?vid=a3886c11-489f-4c79-b864-b7d6cdb2683b"},"vehicle_type_id":"4","last_reported":1746889767,"current_range_meters":20800,"station_id":"ce4bh092rcd13ifvqd20","pricing_plan_id":"cebpf4jnsgd1na2vs0mg"},{"bike_id":"89bbbfb1-1861-4585-807b-0888fb767e6d","system_id":"levelo_inurba_marseille","lat":43.28568,"lon":5.39506,"is_reserved":false,"is_disabled":false,"rental_uris":{"android":"levelo://app?vid=89bbbfb1-1861-4585-807b-0888fb767e6d","ios":"levelo://app?vid=89bbbfb1-1861-4585-807b-0888fb767e6d"},"vehicle_type_id":"4","last_reported":1746889767,"current_range_meters":20800,"station_id":"ce4bh292rcd13ifvqdg0","pricing_plan_id":"cebpf4jnsgd1na2vs0mg"},