{"last_updated":1726748199,"ttl":30,"version":"2.2","data":{"bikes":[{"bike_id":"bd86c37b-d237-4854-932b-0d12a9ba7689","system_id":"levelo_inurba_marseille","lat":43.28359,"lon":5.38105,"is_reserved":false,"is_disabled":false,"rental_uris":{"android":"levelo://app?vid=bd86c37b-d237-4854-932b-0d12a9ba7689","ios":"levelo://app?vid=bd86c37b-d237-4854-932b-0d12a9ba7689"},"vehicle_type_id":"4","last_reported":1726748199,"current_range_meters":3200,"station_id":"ce4bh412rcd13ifvqdr0","pricing_plan_id":"cebpf4jnsgd1na2vs0mg"},{"bike_id":"9d5cd6b6-db2b-4237-ad22-5c060ea09b15","system_id":"levelo_inurba_marseille","lat":43.3153,"lon":5.38028,"is_reserved":false,"is_disabled":false,"rental_uris":{"android":"levelo://app?vid=9d5cd6b6-db2b-4237-ad22-5c060ea09b15","ios":"levelo://app?vid=9d5cd6b6-db2b-4237-ad22-5c060ea09b15"},"vehicle_type_id":"4","last_reported":1726748199,"current_range_meters":19600,"station_id":"ce4bhsp2rcd13ifvqi50","pricing_plan_id":"cebpf4jnsgd1na2vs0mg"},{"bike_id":"5a3917e3-a8f6-41e7-b577-af838342f8e9","system_id":"levelo_inurba_marseille","lat":43.29581,"lon":5.36742,"is_reserved":false,"is_disabled":false,"rental_uris":{"android":"levelo://app?vid=5a3917e3-a8f6-41e7-b577-af838342f8e9","ios":"levelo://app?vid=5a3917e3-a8f6-41e7-b577-af838342f8e9"},"vehicle_type_id":"4","last_reported":1726748199,"current_range_meters":39200,"station_id":"ce4bgph2rcd13ifvqc2g","pricing_plan_id":"cebpf4jnsgd1na2vs0mg"},{"bike_id":"104fb511-d6f2-4a01-88d3-3e2b7c5ab661","system_id":"levelo_inurba_marseille","lat":43.31697,"lon":5.40473,"is_reserved":false,"is_disabled":false,"rental_uris":{"android":"levelo://app?vid=104fb511-d6f2-4a01-88d3-3e2b7c5ab661","ios":"levelo://app?vid=104fb511-d6f2-4a01-88d3-3e2b7c5ab661"},"vehicle_type_id":"4","last_reported":1726748199,"current_range_meters":39200,"station_id":"ce4bh012rcd13ifvqd00","pricing_plan_id":"cebpf4jnsgd1na2vs0mg"},{"bike_id":"ea3b289c-e073-4780-a67d-63485edc25e8","system_id":"levelo_inurba_marseille","lat":43.29533,"lon":5.39398,"is_reserved":false,"is_disabled":false,"rental_uris":{"android":"levelo://app?vid=ea3b289c-e073-4780-a67d-63485edc25e8","ios":"levelo://app?vid=ea3b289c-e073-4780-a67d-63485edc25e8"},"vehicle_type_id":"4","last_reported":1726748199,"current_range_meters":26000,"station_id":"ce4bh292rcd13ifvqdf0","pricing_plan_id":"cebpf4jnsgd1na2vs0mg"},{"bike_id":"a978b35a-39d2-417e-8095-f3be60dd0fbb","system_id":"levelo_inurba_marseille","lat":43.29564,"lon":5.42293,"is_reserved":false,"is_disabled":false,"rental_uris":{"android":"levelo://app?vid=a978b35a-39d2-417e-8095-f3be60dd0fbb","ios":"levelo://app?vid=a978b35a-39d2-417e-8095-f3be60dd0fbb"},"vehicle_type_id":"4","last_reported":1726748199,"current_range_meters":34800,"station_id":"ce4bhph2rcd13ifvqhdg","pricing_plan_id":"cebpf4jnsgd1na2vs0mg"},{"bike_id":"811185ca-cd6a-422c-b080-e3d3efd7cfd9","system_id":"levelo_inurba_marseille","lat":43.31763,"lon":5.39012,"is_reserved":false,"is_disabled":false,"rental_uris":{"android":"levelo://app?vid=811185ca-cd6a-422c-b080-e3d3efd7cfd9","ios":"levelo://app?vid=811185ca-cd6a-422c-b080-e3d3efd7cfd9"},"vehicle_type_id":"4","last_reported":1726748199,"current_range_meters":27600,"station_id":"ce4bhqp2rcd13ifvqhng","pricing_plan_id":"cebpf4jnsgd1na2vs0mg"},{"bike_id":"6dd05f25-008f-41e7-b2cd-9080284830c5","system_id":"levelo_inurba_marseille","lat":43.30602,"lon":5.39333,"is_reserved":false,"is_disabled":false,"rental_uris":{"android":"levelo://app?vid=6dd05f25-008f-41e7-b2cd-9080284830c5","ios":"levelo://app?vid=6dd05f25-008f-41e7-b2cd-9080284830c5"},"vehicle_type_id":"4","last_reported":1726748199,"current_range_meters":39200,"station_id":"ce4bh0p2rcd13ifvqd80","pricing_plan_id":"cebpf4jnsgd1na2vs0mg"},{"bike_id":"82ad930e-bb77-47a5-bde6-c213292f4a51","system_id":"levelo_inurba_marseille","lat":43.30601,"lon":5.39353,"is_reserved":false,"is_disabled":false,"rental_uris":{"android":"levelo://app?vid=82ad930e-bb77-47a5-bde6-c213292f4a51","ios":"levelo://app?vid=82ad930e-bb77-47a5-bde6-c213292f4a51"},"vehicle_type_id":"4","last_reported":1726748199,"current_range_meters":40000,"station_id":"ce4bh0p2rcd13ifvqd80","pricing_plan_id":"cebpf4jnsgd1na2vs0mg"},{"bike_id":"ea518a3b-2ba6-4aef-8e8b-1da3cf82019a","system_id":"levelo_inurba_marseille","lat":43.27496,"lon":5.42454,"is_reserved":false,"is_disabled":false,"rental_uris":{"android":"levelo://app?vid=ea518a3b-2ba6-4aef-8e8b-1da3cf82019a","ios":"levelo://app?vid=ea518a3b-2ba6-4aef-8e8b-1da3cf82019a"},"vehicle_type_id":"4","last_reported":1726748199,"current_range_meters":6400,"station_id":"ce4bhn92rcd13ifvqgrg","pricing_plan_id":"cebpf4jnsgd1na2vs0mg"},{"bike_id":"9a8caa05-259e-4b84-bd68-de2f9c9d3fc6","system_id":"levelo_inurba_marseille","lat":43.30464,"lon":5.37904,"is_reserved":false,"is_disabled":false,"rental_uris":{"android":"levelo://app?vid=9a8caa05-259e-4b84-bd68-de2f9c9d3fc6","ios":"levelo://app?vid=9a8caa05-259e-4b84-bd68-de2f9c9d3fc6"},"vehicle_type_id":"4","last_reported":1726748199,"current_range_meters":12800,"station_id":"ce4bgup2rcd13ifvqcn0","pricing_plan_id":"cebpf4jnsgd1na2vs0mg"},{"bike_id":"e532fd53-ad12-4848-82ea-70ac934c1c37","system_id":"levelo_inurba_marseille","lat":43.33759,"lon":5.3745,"is_reserved":false,"is_disabled":false,"rental_uris":{"android":"levelo://app?vid=e532fd53-ad12-4848-82ea-70ac934c1c37","ios":"levelo://app?vid=e532fd53-ad12-4848-82ea-70ac934c1c37"},"vehicle_type_id":"4","last_reported":1726748199,"current_range_meters":37600,"station_id":"","pricing_plan_id":"cebpf4jnsgd1na2vs0mg"},{"bike_id":"410613d8-33d4-40fd-939d-a6ecdf154934","system_id":"levelo_inurba_marseille","lat":43.30208,"lon":5.38951,"is_reserved":false,"is_disabled":false,"rental_uris":{"android":"levelo://app?vid=410613d8-33d4-40fd-939d-a6ecdf154934","ios":"levelo://app?vid=410613d8-33d4-40fd-939d-a6ecdf154934"},"vehicle_type_id":"4","last_reported":1726748199,"current_range_meters":36800,"station_id":"","pricing_plan_id":"cebpf4jnsgd1na2vs0mg"},{"bike_id":"16aff90c-07c9-446e-b8cf-7b04ea13322c","system_id":"levelo_inurba_marseille","lat":43.28149,"lon":5.42637,"is_reserved":false,"is_disabled":false,"rental_uris":{"android":"levelo://app?vid=16aff90c-07c9-446e-b8cf-7b04ea13322c","ios":"levelo://app?vid=16aff90c-07c9-446e-b8cf-7b04ea13322c"},"vehicle_type_id":"4","last_reported":1726748199,"current_range_meters":35600,"station_id":"ce4bhnh2rcd13ifvqgug","pricing_plan_id":"cebpf4jnsgd1na2vs0mg"},{"bike_id":"9a7bef7e-aa27-4b3e-b3a0-16082888faf1","system_id":"levelo_inurba_marseille","lat":43.25926,"lon":5.40911,"is_reserved":false,"is_disabled":false,"rental_uris":{"android":"levelo://app?vid=9a7bef7e-aa27-4b3e-b3a0-16082888faf1","ios":"levelo://app?vid=9a7bef7e-aa27-4b3e-b3a0-16082888faf1"},"vehicle_type_id":"4","last_reported":1726748199,"current_range_meters":34800,"station_id":"ce4bhm92rcd13ifvqglg","pricing_plan_id":"cebpf4jnsgd1na2vs0mg"},{"bike_id":"24b7c7e5-9028-45e4-85f4-8a8581feee0a","system_id":"levelo_inurba_marseille","lat":43.29182,"lon":5.35811,"is_reserved":false,"is_disabled":false,"rental_uris":{"android":"levelo://app?vid=24b7c7e5-9028-45e4-85f4-8a8581feee0a","ios":"levelo://app?vid=24b7c7e5-9028-45e4-85f4-8a8581feee0a"},"vehicle_type_id":"4","last_reported":1726748199,"current_range_meters":38000,"station_id":"ce4bhb12rcd13ifvqel0","pricing_plan_id":"cebpf4jnsgd1na2vs0mg"},{"bike_id":"a48c0f10-3a7a-4fe8-8343-dded0834619f","system_id":"levelo_inurba_marseille","lat":43.2408,"lon":5.3775,"is_reserved":false,"is_disabled":false,"rental_uris":{"android":"levelo://app?vid=a48c0f10-3a7a-4fe8-8343-dded0834619f","ios":"levelo://app?vid=a48c0f10-3a7a-4fe8-8343-dded0834619f"},"vehicle_type_id":"4","last_reported":1726748199,"current_range_meters":13600,"station_id":"ce4bhnp2rcd13ifvqgvg","pricing_plan_id":"cebpf4jnsgd1na2vs0mg"},{"bike_id":"5820fe83-ad5f-4557-a1a9-e1814307abd9","system_id":"levelo_inurba_marseille","lat":43.31884,"lon":5.40744,"is_reserved":false,"is_disabled":false,"rental_uris":{"android":"levelo://app?vid=5820fe83-ad5f-4557-a1a9-e1814307abd9","ios":"levelo://app?vid=5820fe83-ad5f-4557-a1a9-e1814307abd9"},"vehicle_type_id":"4","last_reported":1726748199,"current_range_meters":28400,"station_id":"ce4bhq12rcd13ifvqhig","pricing_plan_id":"cebpf4jnsgd1na2vs0mg"},{"bike_id":"47abef23-196d-45b3-b270-a3aa238dfce4","system_id":"levelo_inurba_marseille","lat":43.29274,"lon":5.36839,"is_reserved":false,"is_disabled":false,"rental_uris":{"android":"levelo://app?vid=47abef23-196d-45b3-b270-a3aa238dfce4","ios":"levelo://app?vid=47abef23-196d-45b3-b270-a3aa238dfce4"},"vehicle_type_id":"4","last_reported":1726748199,"current_range_meters":10000,"station_id":"ce4bhbp2rcd13ifvqesg","pricing_plan_id":"cebpf4jnsgd1na2vs0mg"},{"bike_id":"4af403ff-232e-437f-a15e-03f83dae4a86","system_id":"levelo_inurba_marseille","lat":43.30537,"lon":5.3655,"is_reserved":false,"is_disabled":false,"rental_uris":{"android":"levelo://app?vid=4af403ff-232e-437f-a15e-03f83dae4a86","ios":"levelo://app?vid=4af403ff-232e-437f-a15e-03f83dae4a86"},"vehicle_type_id":"4","last_reported":1726748199,"current_range_meters":24400,"station_id":"ce4bgs12rcd13ifvqcag","pricing_plan_id":"cebpf4jnsgd1na2vs0mg"},{"bike_id":"64b8db7b-e020-426b-bc67-cc08026eaa92","system_id":"levelo_inurba_marseille","lat":43.29849,"lon":5.36267,"is_reserved":false,"is_disabled":false,"rental_uris":{"android":"levelo://app?vid=64b8db7b-e020-426b-bc67-cc08026eaa92","ios":"levelo://app?vid=64b8db7b-e020-426b-bc67-cc08026eaa92"},"vehicle_type_id":"4","last_reported":1726748199,"current_range_meters":39200,"station_id":"ce4bgpp2rcd13ifvqc3g","pricing_plan_id":"cebpf4jnsgd1na2vs0mg"},{"bike_id":"5f268c55-3ea4-4156-abe8-89947a500b13","system_id":"levelo_inurba_marseille","lat":43.29749,"lon":5.36894,"is_reserved":false,"is_disabled":false,"rental_uris":{"android":"levelo://app?vid=5f268c55-3ea4-4156-abe8-89947a500b13","ios":"levelo://app?vid=5f268c55-3ea4-4156-abe8-89947a500b13"},"vehicle_type_id":"4","last_reported":1726748199,"current_range_meters":28000,"station_id":"","pricing_plan_id":"cebpf4jnsgd1na2vs0mg"},{"bike_id":"efcebed1-9a1d-4e4e-9786-bc6e6f0d5d15","system_id":"levelo_inurba_marseille","lat":43.30549,"lon":5.36553,"is_reserved":false,"is_disabled":false,"rental_uris":{"android":"levelo://app?vid=efcebed1-9a1d-4e4e-9786-bc6e6f0d5d15","ios":"levelo://app?vid=efcebed1-9a1d-4e4e-9786-bc6e6f0d5d15"},"vehicle_type_id":"4","last_reported":1726748199,"current_range_meters":38800,"station_id":"ce4bgs12rcd13ifvqcag","pricing_plan_id":"cebpf4jnsgd1na2vs0mg"},{"bike_id":"94457ce5-ab75-4dab-8447-fcf347e62d44","system_id":"levelo_inurba_marseille","lat":43.30553,"lon":5.36554,"is_reserved":false,"is_disabled":false,"rental_uris":{"android":"levelo://app?vid=94457ce5-ab75-4dab-8447-fcf347e62d44","ios":"levelo://app?vid=94457ce5-ab75-4dab-8447-fcf347e62d44"},"vehicle_type_id":"4","last_reported":1726748199,"current_range_meters":12400,"station_id":"ce4bgs12rcd13ifvqcag","pricing_plan_id":"cebpf4jnsgd1na2vs0mg"},{"bike_id":"8e57cea8-a115-4bdb-8bb4-614d225f5302","system_id":"levelo_inurba_marseille","lat":43.30597,"lon":5.39364,"is_reserved":false,"is_disabled":false,"rental_uris":{"android":"levelo://app?vid=8e57cea8-a115-4bdb-8bb4-614d225f5302","ios":"levelo://app?vid=8e57cea8-a115-4bdb-8bb4-614d225f5302"},"vehicle_type_id":"4","last_reported":1726748199,"current_range_meters":19600,"station_id":"ce4bh0p2rcd13ifvqd80","pricing_plan_id":"cebpf4jnsgd1na2vs0mg"},{"bike_id":"2bc21d36-e9c1-4ac7-aae9-a800945214f5","system_id":"levelo_inurba_marseille","lat":43.30141,"lon":5.37405,"is_reserved":false,"is_disabled":false,"rental_uris":{"android":"levelo://app?vid=2bc21d36-e9c1-4ac7-aae9-a800945214f5","ios":"levelo://app?vid=2bc21d36-e9c1-4ac7-aae9-a800945214f5"},"vehicle_type_id":"4","last_reported":1726748199,"current_range_meters":26000,"station_id":"ce4bgs92rcd13ifvqcc0","pricing_plan_id":"cebpf4jnsgd1na2vs0mg"},{"bike_id":"cce12d08-2de6-4cb6-8ce0-26280e097f7e","system_id":"levelo_inurba_marseille","lat":43.33745,"lon":5.37452,"is_reserved":false,"is_disabled":false,"rental_uris":{"android":"levelo://app?vid=cce12d08-2de6-4cb6-8ce0-26280e097f7e","ios":"levelo://app?vid=cce12d08-2de6-4cb6-8ce0-26280e097f7e"},"vehicle_type_id":"4","last_reported":1726748199,"current_range_meters":22800,"station_id":"","pricing_plan_id":"cebpf4jnsgd1na2vs0mg"},{"bike_id":"6f7464c7-3e4e-4443-b0a9-cabc2fc99d65","system_id":"levelo_inurba_marseille","lat":43.26809,"lon":5.40264,"is_reserved":false,"is_disabled":false,"rental_uris":{"android":"levelo://app?vid=6f7464c7-3e4e-4443-b0a9-cabc2fc99d65","ios":"levelo://app?vid=6f7464c7-3e4e-4443-b0a9-cabc2fc99d65"},"vehicle_type_id":"4","last_reported":1726748199,"current_range_meters":11600,"station_id":"ce501612rcd8frsf0b60","pricing_plan_id":"cebpf4jnsgd1na2vs0mg"},{"bike_id":"d1f8cecd-d612-415d-a730-fdd6138e47d5","system_id":"levelo_inurba_marseille","lat":43.27671,"lon":5.3889,"is_reserved":false,"is_disabled":false,"rental_uris":{"android":"levelo://app?vid=d1f8cecd-d612-415d-a730-fdd6138e47d5","ios":"levelo://app?vid=d1f8cecd-d612-415d-a730-fdd6138e47d5"},"vehicle_type_id":"4","last_reported":1726748199,"current_range_meters":20400,"station_id":"ce4bhi12rcd13ifvqfo0","pricing_plan_id":"cebpf4jnsgd1na2vs0mg"},{"bike_id":"e487cdd3-1844-4f22-9f45-0750a10ebd01","system_id":"levelo_inurba_marseille","lat":43.30954,"lon":5.39017,"is_reserved":false,"is_disabled":false,"rental_uris":{"android":"levelo://app?vid=e487cdd3-1844-4f22-9f45-0750a10ebd01","ios":"levelo://app?vid=e487cdd3-1844-4f22-9f45-0750a10ebd01"},"vehicle_type_id":"4","last_reported":1726748199,"current_range_meters":32800,"station_id":"ce4bgup2rcd13ifvqco0","pricing_plan_id":"cebpf4jnsgd1na2vs0mg"},{"bike_id":"8985a7e5-d9b7-4ee6-9335-fd8939fcdf07","system_id":"levelo_inurba_marseille","lat":43.27499,"lon":5.42455,"is_reserved":false,"is_disabled":false,"rental_uris":{"android":"levelo://app?vid=8985a7e5-d9b7-4ee6-9335-fd8939fcdf07","ios":"levelo://app?vid=8985a7e5-d9b7-4ee6-9335-fd8939fcdf07"},"vehicle_type_id":"4","last_reported":1726748199,"current_range_meters":24000,"station_id":"ce4bhn92rcd13ifvqgrg","pricing_plan_id":"cebpf4jnsgd1na2vs0mg"},{"bike_id":"f6dd31b1-c88e-4fe1-b1e5-980a3e3d5134","system_id":"levelo_inurba_marseille","lat":43.28719,"lon":5.37934,"is_reserved":false,"is_disabled":false,"rental_uris":{"android":"levelo://app?vid=f6dd31b1-c88e-4fe1-b1e5-980a3e3d5134","ios":"levelo://app?vid=f6dd31b1-c88e-4fe1-b1e5-980a3e3d5134"},"vehicle_type_id":"4","last_reported":1726748199,"current_range_meters":38800,"station_id":"ce4bh9p2rcd13ifvqec0","pricing_plan_id":"cebpf4jnsgd1na2vs0mg"},{"bike_id":"94b792e3-4671-44d8-9241-f3fb87ab6fe9","system_id":"levelo_inurba_marseille","lat":43.23183,"lon":5.39982,"is_reserved":false,"is_disabled":false,"rental_uris":{"android":"levelo://app?vid=94b792e3-4671-44d8-9241-f3fb87ab6fe9","ios":"levelo://app?vid=94b792e3-4671-44d8-9241-f3fb87ab6fe9"},"vehicle_type_id":"4","last_reported":1726748199,"current_range_meters":39200,"station_id":"ce4bhn12rcd13ifvqgqg","pricing_plan_id":"cebpf4jnsgd1na2vs0mg"},{"bike_id":"5ee72852-9360-467f-8628-81c7887b89c6","system_id":"levelo_inurba_marseille","lat":43.24077,"lon":5.37758,"is_reserved":false,"is_disabled":false,"rental_uris":{"android":"levelo://app?vid=5ee72852-9360-467f-8628-81c7887b89c6","ios":"levelo://app?vid=5ee72852-9360-467f-8628-81c7887b89c6"},"vehicle_type_id":"4","last_reported":1726748199,"current_range_meters":16000,"station_id":"ce4bhnp2rcd13ifvqgvg","pricing_plan_id":"cebpf4jnsgd1na2vs0mg"},{"bike_id":"f2483602-2ad7-447c-a288-7845ad8fa0f7","system_id":"levelo_inurba_marseille","lat":43.2558,"lon":5.38229,"is_reserved":false,"is_disabled":false,"rental_uris":{"android":"levelo://app?vid=f2483602-2ad7-447c-a288-7845ad8fa0f7","ios":"levelo://app?vid=f2483602-2ad7-447c-a288-7845ad8fa0f7"},"vehicle_type_id":"4","last_reported":1726748199,"current_range_meters":16000,"station_id":"ce4bhih2rcd13ifvqfs0","pricing_plan_id":"cebpf4jnsgd1na2vs0mg"},{"bike_id":"4d5621b8-3232-4218-a1bd-aad0708bcd17","system_id":"levelo_inurba_marseille","lat":43.30356,"lon":5.4188,"is_reserved":false,"is_disabled":false,"rental_uris":{"android":"levelo://app?vid=4d5621b8-3232-4218-a1bd-aad0708bcd17","ios":"levelo://app?vid=4d5621b8-3232-4218-a1bd-aad0708bcd17"},"vehicle_type_id":"4","last_reported":1726748199,"current_range_meters":30400,"station_id":"ce4bhop2rcd13ifvqh7g","pricing_plan_id":"cebpf4jnsgd1na2vs0mg"},{"bike_id":"e357d49c-cd45-44e7-8b80-b060fe2e5f76","system_id":"levelo_inurba_marseille","lat":43.296778,"lon":5.377471,"is_reserved":false,"is_disabled":false,"rental_uris":{"android":"levelo://app?vid=e357d49c-cd45-44e7-8b80-b060fe2e5f76","ios":"levelo://app?vid=e357d49c-cd45-44e7-8b80-b060fe2e5f76"},"vehicle_type_id":"4","last_reported":1726748199,"current_range_meters":32800,"station_id":"ce4bgi92rcd13ifvqb90","pricing_plan_id":"cebpf4jnsgd1na2vs0mg"},{"bike_id":"036ab25f-0c34-4c45-8e88-1fc9200da6fd","system_id":"levelo_inurba_marseille","lat":43.27206,"lon":5.42696,"is_reserved":false,"is_disabled":false,"rental_uris":{"android":"levelo://app?vid=036ab25f-0c34-4c45-8e88-1fc9200da6fd","ios":"levelo://app?vid=036ab25f-0c34-4c45-8e88-1fc9200da6fd"},"vehicle_type_id":"4","last_reported":1726748199,"current_range_meters":30000,"station_id":"","pricing_plan_id":"cebpf4jnsgd1na2vs0mg"},{"bike_id":"a1bc684d-baaf-4fc9-a928-dcb6fcec3447","system_id":"levelo_inurba_marseille","lat":43.29554,"lon":5.42293,"is_reserved":false,"is_disabled":false,"rental_uris":{"android":"levelo://app?vid=a1bc684d-baaf-4fc9-a928-dcb6fcec3447","ios":"levelo://app?vid=a1bc684d-baaf-4fc9-a928-dcb6fcec3447"},"vehicle_type_id":"4","last_reported":1726748199,"current_range_meters":33600,"station_id":"ce4bhph2rcd13ifvqhdg","pricing_plan_id":"cebpf4jnsgd1na2vs0mg"},{"bike_id":"160c4f08-cfce-4a2f-852b-e7fbd88ed599","system_id":"levelo_inurba_marseille","lat":43.32664,"lon":5.4099,"is_reserved":false,"is_disabled":false,"rental_uris":{"android":"levelo://app?vid=160c4f08-cfce-4a2f-852b-e7fbd88ed599","ios":"levelo://app?vid=160c4f08-cfce-4a2f-852b-e7fbd88ed599"},"vehicle_type_id":"4","last_reported":1726748199,"current_range_meters":37600,"station_id":"ce4bhpp2rcd13ifvqhgg","pricing_plan_id":"cebpf4jnsgd1na2vs0mg"},{"bike_id":"a5ef9d43-f7fd-4b9a-bbaa-db8293b62a65","system_id":"levelo_inurba_marseille","lat":43.299309,"lon":5.376634,"is_reserved":false,"is_disabled":false,"rental_uris":{"android":"levelo://app?vid=a5ef9d43-f7fd-4b9a-bbaa-db8293b62a65","ios":"levelo://app?vid=a5ef9d43-f7fd-4b9a-bbaa-db8293b62a65"},"vehicle_type_id":"4","last_reported":1726748199,"current_range_meters":8000,"station_id":"","pricing_plan_id":"cebpf4jnsgd1na2vs0mg"},{"bike_id":"aa4b1a9c-75a6-4f1c-b96d-303cd8b269bf","system_id":"levelo_inurba_marseille","lat":43.29572,"lon":5.39968,"is_reserved":false,"is_disabled":false,"rental_uris":{"android":"levelo://app?vid=aa4b1a9c-75a6-4f1c-b96d-303cd8b269bf","ios":"levelo://app?vid=aa4b1a9c-75a6-4f1c-b96d-303cd8b269bf"},"vehicle_type_id":"4","last_reported":1726748199,"current_range_meters":17600,"station_id":"ce4bh312rcd13ifvqdj0","pricing_plan_id":"cebpf4jnsgd1na2vs0mg"},{"bike_id":"54d0207e-cde5-4a7d-9aad-2214f25c1df5","system_id":"levelo_inurba_marseille","lat":43.2315,"lon":5.4372,"is_reserved":false,"is_disabled":false,"rental_uris":{"android":"levelo://app?vid=54d0207e-cde5-4a7d-9aad-2214f25c1df5","ios":"levelo://app?vid=54d0207e-cde5-4a7d-9aad-2214f25c1df5"},"vehicle_type_id":"4","last_reported":1726748199,"current_range_meters":38800,"station_id":"ce4bhmp2rcd13ifvqgog","pricing_plan_id":"cebpf4jnsgd1na2vs0mg"},{"bike_id":"5cc53505-f644-47f4-8faa-c9e23f5803f2","system_id":"levelo_inurba_marseille","lat":43.24544,"lon":5.39528,"is_reserved":false,"is_disabled":false,"rental_uris":{"android":"levelo://app?vid=5cc53505-f644-47f4-8faa-c9e23f5803f2","ios":"levelo://app?vid=5cc53505-f644-47f4-8faa-c9e23f5803f2"},"vehicle_type_id":"4","last_reported":1726748199,"current_range_meters":39200,"station_id":"ce4bhlp2rcd13ifvqgjg","pricing_plan_id":"cebpf4jnsgd1na2vs0mg"},{"bike_id":"20e17120-8154-4ada-ad34-f42b9d13e9fb","system_id":"levelo_inurba_marseille","lat":43.3059,"lon":5.37215,"is_reserved":false,"is_disabled":false,"rental_uris":{"android":"levelo://app?vid=20e17120-8154-4ada-ad34-f42b9d13e9fb","ios":"levelo://app?vid=20e17120-8154-4ada-ad34-f42b9d13e9fb"},"vehicle_type_id":"4","last_reported":1726748199,"current_range_meters":38800,"station_id":"ce4bgqh2rcd13ifvqc4g","pricing_plan_id":"cebpf4jnsgd1na2vs0mg"},{"bike_id":"e026ef3e-96b2-4b12-b36d-163d8a37a39b","system_id":"levelo_inurba_marseille","lat":43.28614,"lon":5.35098,"is_reserved":false,"is_disabled":false,"rental_uris":{"android":"levelo://app?vid=e026ef3e-96b2-4b12-b36d-163d8a37a39b","ios":"levelo://app?vid=e026ef3e-96b2-4b12-b36d-163d8a37a39b"},"vehicle_type_id":"4","last_reported":1726748199,"current_range_meters":22000,"station_id":"ce4bhch2rcd13ifvqeug","pricing_plan_id":"cebpf4jnsgd1na2vs0mg"},{"bike_id":"f3ae04fa-4da7-4ab7-a2bd-eadbcc951f80","system_id":"levelo_inurba_marseille","lat":43.3047,"lon":5.37913,"is_reserved":false,"is_disabled":false,"rental_uris":{"android":"levelo://app?vid=f3ae04fa-4da7-4ab7-a2bd-eadbcc951f80","ios":"levelo://app?vid=f3ae04fa-4da7-4ab7-a2bd-eadbcc951f80"},"vehicle_type_id":"4","last_reported":1726748199,"current_range_meters":20000,"station_id":"ce4bgup2rcd13ifvqcn0","pricing_plan_id":"cebpf4jnsgd1na2vs0mg"},{"bike_id":"af347d57-2fcb-432c-8f52-b8bed3140665","system_id":"levelo_inurba_marseille","lat":43.24185,"lon":5.39733,"is_reserved":false,"is_disabled":false,"rental_uris":{"android":"levelo://app?vid=af347d57-2fcb-432c-8f52-b8bed3140665","ios":"levelo://app?vid=af347d57-2fcb-432c-8f52-b8bed3140665"},"vehicle_type_id":"4","last_reported":1726748199,"current_range_meters":24400,"station_id":"ce4bhn12rcd13ifvqgpg","pricing_plan_id":"cebpf4jnsgd1na2vs0mg"},{"bike_id":"6917b710-4add-4b25-a306-772db1a2219a","system_id":"levelo_inurba_marseille","lat":43.28499,"lon":5.38544,"is_reserved":false,"is_disabled":false,"rental_uris":{"android":"levelo://app?vid=6917b710-4add-4b25-a306-772db1a2219a","ios":"levelo://app?vid=6917b710-4add-4b25-a306-772db1a2219a"},"vehicle_type_id":"4","last_reported":1726748199,"current_range_meters":22000,"station_id":"ce4bh8p2rcd13ifvqeb0","pricing_plan_id":"cebpf4jnsgd1na2vs0mg"},{"bike_id":"4f42d43e-c75b-4fc4-873a-0a4d26d10804","system_id":"levelo_inurba_marseille","lat":43.31711,"lon":5.43714,"is_reserved":false,"is_disabled":false,"rental_uris":{"android":"levelo://app?vid=4f42d43e-c75b-4fc4-873a-0a4d26d10804","ios":"levelo://app?vid=4f42d43e-c75b-4fc4-873a-0a4d26d10804"},"vehicle_type_id":"4","last_reported":1726748199,"current_range_meters":21600,"station_id":"ce4bhp92rcd13ifvqhcg","pricing_plan_id":"cebpf4jnsgd1na2vs0mg"},{"bike_id":"666fb15f-c170-41a4-9275-39cbfcdab7f0","system_id":"levelo_inurba_marseille","lat":43.24082,"lon":5.37752,"is_reserved":false,"is_disabled":false,"rental_uris":{"android":"levelo://app?vid=666fb15f-c170-41a4-9275-39cbfcdab7f0","ios":"levelo://app?vid=666fb15f-c170-41a4-9275-39cbfcdab7f0"},"vehicle_type_id":"4","last_reported":1726748199,"current_range_meters":12400,"station_id":"ce4bhnp2rcd13ifvqgvg","pricing_plan_id":"cebpf4jnsgd1na2vs0mg"},{"bike_id":"7266335c-e53c-4c96-8a7f-2e2187878d63","system_id":"levelo_inurba_marseille","lat":43.29045,"lon":5.35916,"is_reserved":false,"is_disabled":false,"rental_uris":{"android":"levelo://app?vid=7266335c-e53c-4c96-8a7f-2e2187878d63","ios":"levelo://app?vid=7266335c-e53c-4c96-8a7f-2e2187878d63"},"vehicle_type_id":"4","last_reported":1726748199,"current_range_meters":36800,"station_id":"ce4bha92rcd13ifvqeg0","pricing_plan_id":"cebpf4jnsgd1na2vs0mg"},{"bike_id":"cc37381e-9335-4b4e-a554-8ca8c7c27f92","system_id":"levelo_inurba_marseille","lat":43.27496,"lon":5.42453,"is_reserved":false,"is_disabled":false,"rental_uris":{"android":"levelo://app?vid=cc37381e-9335-4b4e-a554-8ca8c7c27f92","ios":"levelo://app?vid=cc37381e-9335-4b4e-a554-8ca8c7c27f92"},"vehicle_type_id":"4","last_reported":1726748199,"current_range_meters":8800,"station_id":"ce4bhn92rcd13ifvqgrg","pricing_plan_id":"cebpf4jnsgd1na2vs0mg"},{"bike_id":"9d29d1a5-d29a-4228-98c4-51586df7001c","system_id":"levelo_inurba_marseille","lat":43.3046,"lon":5.37901,"is_reserved":false,"is_disabled":false,"rental_uris":{"android":"levelo://app?vid=9d29d1a5-d29a-4228-98c4-51586df7001c","ios":"levelo://app?vid=9d29d1a5-d29a-4228-98c4-51586df7001c"},"vehicle_type_id":"4","last_reported":1726748199,"current_range_meters":38400,"station_id":"ce4bgup2rcd13ifvqcn0","pricing_plan_id":"cebpf4jnsgd1na2vs0mg"},{"bike_id":"9b28863a-3e97-421d-97d5-ca24e7512c8a","system_id":"levelo_inurba_marseille","lat":43.30595,"lon":5.37212,"is_reserved":false,"is_disabled":false,"rental_uris":{"android":"levelo://app?vid=9b28863a-3e97-421d-97d5-ca24e7512c8a","ios":"levelo://app?vid=9b28863a-3e97-421d-97d5-ca24e7512c8a"},"vehicle_type_id":"4","last_reported":1726748199,"current_range_meters":38800,"station_id":"ce4bgqh2rcd13ifvqc4g","pricing_plan_id":"cebpf4jnsgd1na2vs0mg"},{"bike_id":"a714ef19-a07d-4fcb-86ce-80b773ec3b10","system_id":"levelo_inurba_marseille","lat":43.28351,"lon":5.38105,"is_reserved":false,"is_disabled":false,"rental_uris":{"android":"levelo://app?vid=a714ef19-a07d-4fcb-86ce-80b773ec3b10","ios":"levelo://app?vid=a714ef19-a07d-4fcb-86ce-80b773ec3b10"},"vehicle_type_id":"4","last_reported":1726748199,"current_range_meters":32000,"station_id":"ce4bh412rcd13ifvqdr0","pricing_plan_id":"cebpf4jnsgd1na2vs0mg"},{"bike_id":"a6450748-9019-4209-b747-f0adda4a4fd4","system_id":"levelo_inurba_marseille","lat":43.29901,"lon":5.38145,"is_reserved":false,"is_disabled":false,"rental_uris":{"android":"levelo://app?vid=a6450748-9019-4209-b747-f0adda4a4fd4","ios":"levelo://app?vid=a6450748-9019-4209-b747-f0adda4a4fd4"},"vehicle_type_id":"4","last_reported":1726748199,"current_range_meters":38800,"station_id":"ce4bgj12rcd13ifvqbc0","pricing_plan_id":"cebpf4jnsgd1na2vs0mg"},{"bike_id":"cea90d14-d4cd-44bb-a828-f022d2c2c276","system_id":"levelo_inurba_marseille","lat":43.26948,"lon":5.38631,"is_reserved":false,"is_disabled":false,"rental_uris":{"android":"levelo://app?vid=cea90d14-d4cd-44bb-a828-f022d2c2c276","ios":"levelo://app?vid=cea90d14-d4cd-44bb-a828-f022d2c2c276"},"vehicle_type_id":"4","last_reported":1726748199,"current_range_meters":38400,"station_id":"ce4bhh92rcd13ifvqfh0","pricing_plan_id":"cebpf4jnsgd1na2vs0mg"},{"bike_id":"5d4afdb8-0028-4c6b-a5d8-8520252fb486","system_id":"levelo_inurba_marseille","lat":43.26212,"lon":5.37439,"is_reserved":false,"is_disabled":false,"rental_uris":{"android":"levelo://app?vid=5d4afdb8-0028-4c6b-a5d8-8520252fb486","ios":"levelo://app?vid=5d4afdb8-0028-4c6b-a5d8-8520252fb486"},"vehicle_type_id":"4","last_reported":1726748199,"current_range_meters":24800,"station_id":"ce4bhgp2rcd13ifvqfc0","pricing_plan_id":"cebpf4jnsgd1na2vs0mg"},{"bike_id":"282d8c94-3959-466f-bf01-d3670e5313fa","system_id":"levelo_inurba_marseille","lat":43.30555,"lon":5.36536,"is_reserved":false,"is_disabled":false,"rental_uris":{"android":"levelo://app?vid=282d8c94-3959-466f-bf01-d3670e5313fa","ios":"levelo://app?vid=282d8c94-3959-466f-bf01-d3670e5313fa"},"vehicle_type_id":"4","last_reported":1726748199,"current_range_meters":24000,"station_id":"ce4bgs12rcd13ifvqcag","pricing_plan_id":"cebpf4jnsgd1na2vs0mg"},{"bike_id":"6963b3b2-e6c2-42e4-9aa0-35917f7e3034","system_id":"levelo_inurba_marseille","lat":43.27832,"lon":5.392099,"is_reserved":false,"is_disabled":false,"rental_uris":{"android":"levelo://app?vid=6963b3b2-e6c2-42e4-9aa0-35917f7e3034","ios":"levelo://app?vid=6963b3b2-e6c2-42e4-9aa0-35917f7e3034"},"vehicle_type_id":"4","last_reported":1726748199,"current_range_meters":38800,"station_id":"ce4bhjp2rcd13ifvqga0","pricing_plan_id":"cebpf4jnsgd1na2vs0mg"},{"bike_id":"090af28d-4b58-4403-a4fa-64c8a96fc47c","system_id":"levelo_inurba_marseille","lat":43.27997,"lon":5.40017,"is_reserved":false,"is_disabled":false,"rental_uris":{"android":"levelo://app?vid=090af28d-4b58-4403-a4fa-64c8a96fc47c","ios":"levelo://app?vid=090af28d-4b58-4403-a4fa-64c8a96fc47c"},"vehicle_type_id":"4","last_reported":1726748199,"current_range_meters":4800,"station_id":"ce4bho92rcd13ifvqh4g","pricing_plan_id":"cebpf4jnsgd1na2vs0mg"},{"bike_id":"a0ea4c20-eeae-4054-a4b5-699b69c4c176","system_id":"levelo_inurba_marseille","lat":43.29558,"lon":5.42287,"is_reserved":false,"is_disabled":false,"rental_uris":{"android":"levelo://app?vid=a0ea4c20-eeae-4054-a4b5-699b69c4c176","ios":"levelo://app?vid=a0ea4c20-eeae-4054-a4b5-699b69c4c176"},"vehicle_type_id":"4","last_reported":1726748199,"current_range_meters":14000,"station_id":"ce4bhph2rcd13ifvqhdg","pricing_plan_id":"cebpf4jnsgd1na2vs0mg"},{"bike_id":"3ec21100-0176-4396-a873-005606a7ba32","system_id":"levelo_inurba_marseille","lat":43.34142,"lon":5.40898,"is_reserved":false,"is_disabled":false,"rental_uris":{"android":"levelo://app?vid=3ec21100-0176-4396-a873-005606a7ba32","ios":"levelo://app?vid=3ec21100-0176-4396-a873-005606a7ba32"},"vehicle_type_id":"4","last_reported":1726748199,"current_range_meters":38000,"station_id":"ce4bhqh2rcd13ifvqhlg","pricing_plan_id":"cebpf4jnsgd1na2vs0mg"},{"bike_id":"da464fb3-65fc-40e7-90a3-834ec33908b3","system_id":"levelo_inurba_marseille","lat":43.26683,"lon":5.38272,"is_reserved":false,"is_disabled":false,"rental_uris":{"android":"levelo://app?vid=da464fb3-65fc-40e7-90a3-834ec33908b3","ios":"levelo://app?vid=da464fb3-65fc-40e7-90a3-834ec33908b3"},"vehicle_type_id":"4","last_reported":1726748199,"current_range_meters":13600,"station_id":"ce4bhg92rcd13ifvqf90","pricing_plan_id":"cebpf4jnsgd1na2vs0mg"},{"bike_id":"53622533-6e4e-4ce4-92a2-ac811bb62ec6","system_id":"levelo_inurba_marseille","lat":43.24648,"lon":5.38889,"is_reserved":false,"is_disabled":false,"rental_uris":{"android":"levelo://app?vid=53622533-6e4e-4ce4-92a2-ac811bb62ec6","ios":"levelo://app?vid=53622533-6e4e-4ce4-92a2-ac811bb62ec6"},"vehicle_type_id":"4","last_reported":1726748199,"current_range_meters":4400,"station_id":"ce4bhg12rcd13ifvqf60","pricing_plan_id":"cebpf4jnsgd1na2vs0mg"},{"bike_id":"28dd3454-5b52-4764-bd9a-6361225d904c","system_id":"levelo_inurba_marseille","lat":43.28939,"lon":5.36636,"is_reserved":false,"is_disabled":false,"rental_uris":{"android":"levelo://app?vid=28dd3454-5b52-4764-bd9a-6361225d904c","ios":"levelo://app?vid=28dd3454-5b52-4764-bd9a-6361225d904c"},"vehicle_type_id":"4","last_reported":1726748199,"current_range_meters":26800,"station_id":"ce4bhap2rcd13ifvqek0","pricing_plan_id":"cebpf4jnsgd1na2vs0mg"},{"bike_id":"d5af11d0-a883-4a22-8ace-8ba507db2d72","system_id":"levelo_inurba_marseille","lat":43.25865,"lon":5.398986,"is_reserved":false,"is_disabled":false,"rental_uris":{"android":"levelo://app?vid=d5af11d0-a883-4a22-8ace-8ba507db2d72","ios":"levelo://app?vid=d5af11d0-a883-4a22-8ace-8ba507db2d72"},"vehicle_type_id":"4","last_reported":1726748199,"current_range_meters":22000,"station_id":"ce4bhl92rcd13ifvqghg","pricing_plan_id":"cebpf4jnsgd1na2vs0mg"},{"bike_id":"3478db76-45d7-45d3-b887-36ba03898ebd","system_id":"levelo_inurba_marseille","lat":43.23151,"lon":5.43709,"is_reserved":false,"is_disabled":false,"rental_uris":{"android":"levelo://app?vid=3478db76-45d7-45d3-b887-36ba03898ebd","ios":"levelo://app?vid=3478db76-45d7-45d3-b887-36ba03898ebd"},"vehicle_type_id":"4","last_reported":1726748199,"current_range_meters":39200,"station_id":"ce4bhmp2rcd13ifvqgog","pricing_plan_id":"cebpf4jnsgd1na2vs0mg"},{"bike_id":"309e1d83-dfdd-4727-8e23-3ad8e2d60153","system_id":"levelo_inurba_marseille","lat":43.23147,"lon":5.43709,"is_reserved":false,"is_disabled":false,"rental_uris":{"android":"levelo://app?vid=309e1d83-dfdd-4727-8e23-3ad8e2d60153","ios":"levelo://app?vid=309e1d83-dfdd-4727-8e23-3ad8e2d60153"},"vehicle_type_id":"4","last_reported":1726748199,"current_range_meters":16000,"station_id":"ce4bhmp2rcd13ifvqgog","pricing_plan_id":"cebpf4jnsgd1na2vs0mg"},{"bike_id":"99a7dc90-2d6f-44d5-8363-3b98e8384430","system_id":"levelo_inurba_marseille","lat":43.26559,"lon":5.37283,"is_reserved":false,"is_disabled":false,"rental_uris":{"android":"levelo://app?vid=99a7dc90-2d6f-44d5-8363-3b98e8384430","ios":"levelo://app?vid=99a7dc90-2d6f-44d5-8363-3b98e8384430"},"vehicle_type_id":"4","last_reported":1726748199,"current_range_meters":22000,"station_id":"ce4bhg12rcd13ifvqf70","pricing_plan_id":"cebpf4jnsgd1na2vs0mg"},{"bike_id":"86d2fbbc-c469-4ea8-9619-326d1c533696","system_id":"levelo_inurba_marseille","lat":43.25488,"lon":5.37648,"is_reserved":false,"is_disabled":false,"rental_uris":{"android":"levelo://app?vid=86d2fbbc-c469-4ea8-9619-326d1c533696","ios":"levelo://app?vid=86d2fbbc-c469-4ea8-9619-326d1c533696"},"vehicle_type_id":"4","last_reported":1726748199,"current_range_meters":36400,"station_id":"ce4bhh12rcd13ifvqff0","pricing_plan_id":"cebpf4jnsgd1na2vs0mg"},{"bike_id":"615dcef5-6a92-41dc-b2d3-8bf694decdfd","system_id":"levelo_inurba_marseille","lat":43.28027,"lon":5.36941,"is_reserved":false,"is_disabled":false,"rental_uris":{"android":"levelo://app?vid=615dcef5-6a92-41dc-b2d3-8bf694decdfd","ios":"levelo://app?vid=615dcef5-6a92-41dc-b2d3-8bf694decdfd"},"vehicle_type_id":"4","last_reported":1726748199,"current_range_meters":13600,"station_id":"ce4bha12rcd13ifvqef0","pricing_plan_id":"cebpf4jnsgd1na2vs0mg"},{"bike_id":"42d6aa85-e165-4206-9711-64ce8afa32a6","system_id":"levelo_inurba_marseille","lat":43.30148,"lon":5.37418,"is_reserved":false,"is_disabled":false,"rental_uris":{"android":"levelo://app?vid=42d6aa85-e165-4206-9711-64ce8afa32a6","ios":"levelo://app?vid=42d6aa85-e165-4206-9711-64ce8afa32a6"},"vehicle_type_id":"4","last_reported":1726748199,"current_range_meters":40000,"station_id":"ce4bgs92rcd13ifvqcc0","pricing_plan_id":"cebpf4jnsgd1na2vs0mg"},{"bike_id":"5307e4c9-4272-45ae-bba6-675e51033a09","system_id":"levelo_inurba_marseille","lat":43.30318,"lon":5.36889,"is_reserved":false,"is_disabled":false,"rental_uris":{"android":"levelo://app?vid=5307e4c9-4272-45ae-bba6-675e51033a09","ios":"levelo://app?vid=5307e4c9-4272-45ae-bba6-675e51033a09"},"vehicle_type_id":"4","last_reported":1726748199,"current_range_meters":37600,"station_id":"ce4bgqh2rcd13ifvqc5g","pricing_plan_id":"cebpf4jnsgd1na2vs0mg"},{"bike_id":"64e5ab9a-507e-4f72-bfba-6372b85cc9fb","system_id":"levelo_inurba_marseille","lat":43.29035,"lon":5.35905,"is_reserved":false,"is_disabled":false,"rental_uris":{"android":"levelo://app?vid=64e5ab9a-507e-4f72-bfba-6372b85cc9fb","ios":"levelo://app?vid=64e5ab9a-507e-4f72-bfba-6372b85cc9fb"},"vehicle_type_id":"4","last_reported":1726748199,"current_range_meters":30800,"station_id":"ce4bha92rcd13ifvqeg0","pricing_plan_id":"cebpf4jnsgd1na2vs0mg"},{"bike_id":"c58a09e0-e27d-474f-b410-f612c6647346","system_id":"levelo_inurba_marseille","lat":43.30551,"lon":5.36701,"is_reserved":false,"is_disabled":false,"rental_uris":{"android":"levelo://app?vid=c58a09e0-e27d-474f-b410-f612c6647346","ios":"levelo://app?vid=c58a09e0-e27d-474f-b410-f612c6647346"},"vehicle_type_id":"4","last_reported":1726748199,"current_range_meters":27600,"station_id":"ce4bgrp2rcd13ifvqc9g","pricing_plan_id":"cebpf4jnsgd1na2vs0mg"},{"bike_id":"33bda483-fc36-40e6-9bed-31b1ae9d1fb8","system_id":"levelo_inurba_marseille","lat":43.29906,"lon":5.37472,"is_reserved":false,"is_disabled":false,"rental_uris":{"android":"levelo://app?vid=33bda483-fc36-40e6-9bed-31b1ae9d1fb8","ios":"levelo://app?vid=33bda483-fc36-40e6-9bed-31b1ae9d1fb8"},"vehicle_type_id":"4","last_reported":1726748199,"current_range_meters":39200,"station_id":"ce4bgjh2rcd13ifvqbg0","pricing_plan_id":"cebpf4jnsgd1na2vs0mg"},{"bike_id":"a78358d4-2e0d-4d1b-9800-f677344b73bb","system_id":"levelo_inurba_marseille","lat":43.2695,"lon":5.38634,"is_reserved":false,"is_disabled":false,"rental_uris":{"android":"levelo://app?vid=a78358d4-2e0d-4d1b-9800-f677344b73bb","ios":"levelo://app?vid=a78358d4-2e0d-4d1b-9800-f677344b73bb"},"vehicle_type_id":"4","last_reported":1726748199,"current_range_meters":36400,"station_id":"ce4bhh92rcd13ifvqfh0","pricing_plan_id":"cebpf4jnsgd1na2vs0mg"},{"bike_id":"a01a4a21-dbb1-4a02-b900-30af3a75c27a","system_id":"levelo_inurba_marseille","lat":43.24652,"lon":5.38893,"is_reserved":false,"is_disabled":false,"rental_uris":{"android":"levelo://app?vid=a01a4a21-dbb1-4a02-b900-30af3a75c27a","ios":"levelo://app?vid=a01a4a21-dbb1-4a02-b900-30af3a75c27a"},"vehicle_type_id":"4","last_reported":1726748199,"current_range_meters":9200,"station_id":"ce4bhg12rcd13ifvqf60","pricing_plan_id":"cebpf4jnsgd1na2vs0mg"},{"bike_id":"7296939a-e07b-445c-bd52-40cde8ccbba2","system_id":"levelo_inurba_marseille","lat":43.2602,"lon":5.37556,"is_reserved":false,"is_disabled":false,"rental_uris":{"android":"levelo://app?vid=7296939a-e07b-445c-bd52-40cde8ccbba2","ios":"levelo://app?vid=7296939a-e07b-445c-bd52-40cde8ccbba2"},"vehicle_type_id":"4","last_reported":1726748199,"current_range_meters":38000,"station_id":"ce4bhgh2rcd13ifvqfa0","pricing_plan_id":"cebpf4jnsgd1na2vs0mg"},{"bike_id":"b2e8ab0c-992a-4551-800c-8f2a65c58379","system_id":"levelo_inurba_marseille","lat":43.31229,"lon":5.36862,"is_reserved":false,"is_disabled":false,"rental_uris":{"android":"levelo://app?vid=b2e8ab0c-992a-4551-800c-8f2a65c58379","ios":"levelo://app?vid=b2e8ab0c-992a-4551-800c-8f2a65c58379"},"vehicle_type_id":"4","last_reported":1726748199,"current_range_meters":16000,"station_id":"ce4bgl92rcd13ifvqbq0","pricing_plan_id":"cebpf4jnsgd1na2vs0mg"},{"bike_id":"56746c86-a631-41f2-910b-5c6f1a0c1a70","system_id":"levelo_inurba_marseille","lat":43.27493,"lon":5.4245,"is_reserved":false,"is_disabled":false,"rental_uris":{"android":"levelo://app?vid=56746c86-a631-41f2-910b-5c6f1a0c1a70","ios":"levelo://app?vid=56746c86-a631-41f2-910b-5c6f1a0c1a70"},"vehicle_type_id":"4","last_reported":1726748199,"current_range_meters":4400,"station_id":"ce4bhn92rcd13ifvqgrg","pricing_plan_id":"cebpf4jnsgd1na2vs0mg"},{"bike_id":"e669bd6c-abbe-4921-ba26-9fc661d40bbb","system_id":"levelo_inurba_marseille","lat":43.30548,"lon":5.36543,"is_reserved":false,"is_disabled":false,"rental_uris":{"android":"levelo://app?vid=e669bd6c-abbe-4921-ba26-9fc661d40bbb","ios":"levelo://app?vid=e669bd6c-abbe-4921-ba26-9fc661d40bbb"},"vehicle_type_id":"4","last_reported":1726748199,"current_range_meters":35200,"station_id":"ce4bgs12rcd13ifvqcag","pricing_plan_id":"cebpf4jnsgd1na2vs0mg"},{"bike_id":"127d02df-6522-4c49-a9e3-803efe995a65","system_id":"levelo_inurba_marseille","lat":43.24078,"lon":5.37757,"is_reserved":false,"is_disabled":false,"rental_uris":{"android":"levelo://app?vid=127d02df-6522-4c49-a9e3-803efe995a65","ios":"levelo://app?vid=127d02df-6522-4c49-a9e3-803efe995a65"},"vehicle_type_id":"4","last_reported":1726748199,"current_range_meters":27600,"station_id":"ce4bhnp2rcd13ifvqgvg","pricing_plan_id":"cebpf4jnsgd1na2vs0mg"},{"bike_id":"89d5ab75-4739-4b81-a497-79d5f9859e57","system_id":"levelo_inurba_marseille","lat":43.27973,"lon":5.38735,"is_reserved":false,"is_disabled":false,"rental_uris":{"android":"levelo://app?vid=89d5ab75-4739-4b81-a497-79d5f9859e57","ios":"levelo://app?vid=89d5ab75-4739-4b81-a497-79d5f9859e57"},"vehicle_type_id":"4","last_reported":1726748199,"current_range_meters":24800,"station_id":"ce4bhg12rcd13ifvqf80","pricing_plan_id":"cebpf4jnsgd1na2vs0mg"},{"bike_id":"04be77e6-0b5c-4fd3-a2cb-0a7ea2312f2d","system_id":"levelo_inurba_marseille","lat":43.258666,"lon":5.398985,"is_reserved":false,"is_disabled":false,"rental_uris":{"android":"levelo://app?vid=04be77e6-0b5c-4fd3-a2cb-0a7ea2312f2d","ios":"levelo://app?vid=04be77e6-0b5c-4fd3-a2cb-0a7ea2312f2d"},"vehicle_type_id":"4","last_reported":1726748199,"current_range_meters":24400,"station_id":"ce4bhl92rcd13ifvqghg","pricing_plan_id":"cebpf4jnsgd1na2vs0mg"},{"bike_id":"8f93dbfa-fc37-413d-90ce-bb1596a7dbde","system_id":"levelo_inurba_marseille","lat":43.27493,"lon":5.42454,"is_reserved":false,"is_disabled":false,"rental_uris":{"android":"levelo://app?vid=8f93dbfa-fc37-413d-90ce-bb1596a7dbde","ios":"levelo://app?vid=8f93dbfa-fc37-413d-90ce-bb1596a7dbde"},"vehicle_type_id":"4","last_reported":1726748199,"current_range_meters":29600,"station_id":"ce4bhn92rcd13ifvqgrg","pricing_plan_id":"cebpf4jnsgd1na2vs0mg"},{"bike_id":"376e4ba1-7a4d-4c07-bc97-59fafac349c4","system_id":"levelo_inurba_marseille","lat":43.25002,"lon":5.38927,"is_reserved":false,"is_disabled":false,"rental_uris":{"android":"levelo://app?vid=376e4ba1-7a4d-4c07-bc97-59fafac349c4","ios":"levelo://app?vid=376e4ba1-7a4d-4c07-bc97-59fafac349c4"},"vehicle_type_id":"4","last_reported":1726748199,"current_range_meters":39200,"station_id":"ce4bhgp2rcd13ifvqfd0","pricing_plan_id":"cebpf4jnsgd1na2vs0mg"},{"bike_id":"c491c46c-cfbd-44cf-b343-8a27279e1da0","system_id":"levelo_inurba_marseille","lat":43.27977,"lon":5.38735,"is_reserved":false,"is_disabled":false,"rental_uris":{"android":"levelo://app?vid=c491c46c-cfbd-44cf-b343-8a27279e1da0","ios":"levelo://app?vid=c491c46c-cfbd-44cf-b343-8a27279e1da0"},"vehicle_type_id":"4","last_reported":1726748199,"current_range_meters":26000,"station_id":"ce4bhg12rcd13ifvqf80","pricing_plan_id":"cebpf4jnsgd1na2vs0mg"},{"bike_id":"873af327-3207-4b84-bf04-cd233a62f1b3","system_id":"levelo_inurba_marseille","lat":43.295715,"lon":5.375303,"is_reserved":false,"is_disabled":false,"rental_uris":{"android":"levelo://app?vid=873af327-3207-4b84-bf04-cd233a62f1b3","ios":"levelo://app?vid=873af327-3207-4b84-bf04-cd233a62f1b3"},"vehicle_type_id":"4","last_reported":1726748199,"current_range_meters":36800,"station_id":"ce4bgh92rcd13ifvqb50","pricing_plan_id":"cebpf4jnsgd1na2vs0mg"},{"bike_id":"13284a82-d46b-452e-9453-e0c32bdc4440","system_id":"levelo_inurba_marseille","lat":43.27612,"lon":5.36105,"is_reserved":false,"is_disabled":false,"rental_uris":{"android":"levelo://app?vid=13284a82-d46b-452e-9453-e0c32bdc4440","ios":"levelo://app?vid=13284a82-d46b-452e-9453-e0c32bdc4440"},"vehicle_type_id":"4","last_reported":1726748199,"current_range_meters":36800,"station_id":"ce4bgj92rcd13ifvqbe0","pricing_plan_id":"cebpf4jnsgd1na2vs0mg"},{"bike_id":"c32dc568-f10c-4010-ad55-d5f360cf461f","system_id":"levelo_inurba_marseille","lat":43.30543,"lon":5.36535,"is_reserved":false,"is_disabled":false,"rental_uris":{"android":"levelo://app?vid=c32dc568-f10c-4010-ad55-d5f360cf461f","ios":"levelo://app?vid=c32dc568-f10c-4010-ad55-d5f360cf461f"},"vehicle_type_id":"4","last_reported":1726748199,"current_range_meters":38800,"station_id":"ce4bgs12rcd13ifvqcag","pricing_plan_id":"cebpf4jnsgd1na2vs0mg"},{"bike_id":"aaeae615-2194-47c5-84e0-363507d6e824","system_id":"levelo_inurba_marseille","lat":43.32289,"lon":5.38267,"is_reserved":false,"is_disabled":false,"rental_uris":{"android":"levelo://app?vid=aaeae615-2194-47c5-84e0-363507d6e824","ios":"levelo://app?vid=aaeae615-2194-47c5-84e0-363507d6e824"},"vehicle_type_id":"4","last_reported":1726748199,"current_range_meters":24800,"station_id":"ce4bhr12rcd13ifvqhqg","pricing_plan_id":"cebpf4jnsgd1na2vs0mg"},{"bike_id":"8097e76e-2a1e-4993-8360-dd3bed3fcfaa","system_id":"levelo_inurba_marseille","lat":43.28617,"lon":5.35104,"is_reserved":false,"is_disabled":false,"rental_uris":{"android":"levelo://app?vid=8097e76e-2a1e-4993-8360-dd3bed3fcfaa","ios":"levelo://app?vid=8097e76e-2a1e-4993-8360-dd3bed3fcfaa"},"vehicle_type_id":"4","last_reported":1726748199,"current_range_meters":4800,"station_id":"ce4bhch2rcd13ifvqeug","pricing_plan_id":"cebpf4jnsgd1na2vs0mg"},{"bike_id":"0570a89a-9b95-4419-bb03-be8a0d771bce","system_id":"levelo_inurba_marseille","lat":43.28722,"lon":5.37934,"is_reserved":false,"is_disabled":false,"rental_uris":{"android":"levelo://app?vid=0570a89a-9b95-4419-bb03-be8a0d771bce","ios":"levelo://app?vid=0570a89a-9b95-4419-bb03-be8a0d771bce"},"vehicle_type_id":"4","last_reported":1726748199,"current_range_meters":23200,"station_id":"ce4bh9p2rcd13ifvqec0","pricing_plan_id":"cebpf4jnsgd1na2vs0mg"},{"bike_id":"f11e64ed-641d-4c0c-954c-f242fb68ac26","system_id":"levelo_inurba_marseille","lat":43.30877,"lon":5.39636,"is_reserved":false,"is_disabled":false,"rental_uris":{"android":"levelo://app?vid=f11e64ed-641d-4c0c-954c-f242fb68ac26","ios":"levelo://app?vid=f11e64ed-641d-4c0c-954c-f242fb68ac26"},"vehicle_type_id":"4","last_reported":1726748199,"current_range_meters":30800,"station_id":"ce4bh012rcd13ifvqcv0","pricing_plan_id":"cebpf4jnsgd1na2vs0mg"},{"bike_id":"20ba6ac8-5850-4316-90f7-6cef07e6413b","system_id":"levelo_inurba_marseille","lat":43.28423,"lon":5.34992,"is_reserved":false,"is_disabled":false,"rental_uris":{"android":"levelo://app?vid=20ba6ac8-5850-4316-90f7-6cef07e6413b","ios":"levelo://app?vid=20ba6ac8-5850-4316-90f7-6cef07e6413b"},"vehicle_type_id":"4","last_reported":1726748199,"current_range_meters":38000,"station_id":"ce4bhbh2rcd13ifvqepg","pricing_plan_id":"cebpf4jnsgd1na2vs0mg"},{"bike_id":"16365233-0182-43cb-a913-4da91a46be4e","system_id":"levelo_inurba_marseille","lat":43.31355,"lon":5.36718,"is_reserved":false,"is_disabled":false,"rental_uris":{"android":"levelo://app?vid=16365233-0182-43cb-a913-4da91a46be4e","ios":"levelo://app?vid=16365233-0182-43cb-a913-4da91a46be4e"},"vehicle_type_id":"4","last_reported":1726748199,"current_range_meters":8400,"station_id":"ce4bgr92rcd13ifvqc6g","pricing_plan_id":"cebpf4jnsgd1na2vs0mg"},{"bike_id":"9be94feb-a495-4651-8693-da9a946157ae","system_id":"levelo_inurba_marseille","lat":43.25008,"lon":5.38919,"is_reserved":false,"is_disabled":false,"rental_uris":{"android":"levelo://app?vid=9be94feb-a495-4651-8693-da9a946157ae","ios":"levelo://app?vid=9be94feb-a495-4651-8693-da9a946157ae"},"vehicle_type_id":"4","last_reported":1726748199,"current_range_meters":16000,"station_id":"ce4bhgp2rcd13ifvqfd0","pricing_plan_id":"cebpf4jnsgd1na2vs0mg"},{"bike_id":"debf8bd8-cb25-4f75-8c18-f2d143cd215e","system_id":"levelo_inurba_marseille","lat":43.28851,"lon":5.35858,"is_reserved":false,"is_disabled":false,"rental_uris":{"android":"levelo://app?vid=debf8bd8-cb25-4f75-8c18-f2d143cd215e","ios":"levelo://app?vid=debf8bd8-cb25-4f75-8c18-f2d143cd215e"},"vehicle_type_id":"4","last_reported":1726748199,"current_range_meters":30400,"station_id":"ce4bhb12rcd13ifvqem0","pricing_plan_id":"cebpf4jnsgd1na2vs0mg"},{"bike_id":"a5cd8307-20cc-4eb9-b57d-a4f6fffd25c4","system_id":"levelo_inurba_marseille","lat":43.26947,"lon":5.38629,"is_reserved":false,"is_disabled":false,"rental_uris":{"android":"levelo://app?vid=a5cd8307-20cc-4eb9-b57d-a4f6fffd25c4","ios":"levelo://app?vid=a5cd8307-20cc-4eb9-b57d-a4f6fffd25c4"},"vehicle_type_id":"4","last_reported":1726748199,"current_range_meters":6800,"station_id":"ce4bhh92rcd13ifvqfh0","pricing_plan_id":"cebpf4jnsgd1na2vs0mg"},{"bike_id":"5853071a-a7de-43ad-87c8-982495d79fa0","system_id":"levelo_inurba_marseille","lat":43.25009,"lon":5.38916,"is_reserved":false,"is_disabled":false,"rental_uris":{"android":"levelo://app?vid=5853071a-a7de-43ad-87c8-982495d79fa0","ios":"levelo://app?vid=5853071a-a7de-43ad-87c8-982495d79fa0"},"vehicle_type_id":"4","last_reported":1726748199,"current_range_meters":35200,"station_id":"ce4bhgp2rcd13ifvqfd0","pricing_plan_id":"cebpf4jnsgd1na2vs0mg"},{"bike_id":"333409d4-8cd5-4a8a-8672-0836cd5a7c61","system_id":"levelo_inurba_marseille","lat":43.26211,"lon":5.37441,"is_reserved":false,"is_disabled":false,"rental_uris":{"android":"levelo://app?vid=333409d4-8cd5-4a8a-8672-0836cd5a7c61","ios":"levelo://app?vid=333409d4-8cd5-4a8a-8672-0836cd5a7c61"},"vehicle_type_id":"4","last_reported":1726748199,"current_range_meters":36800,"station_id":"ce4bhgp2rcd13ifvqfc0","pricing_plan_id":"cebpf4jnsgd1na2vs0mg"},{"bike_id":"77b15268-12b9-4417-858b-14ff46b3743e","system_id":"levelo_inurba_marseille","lat":43.31487,"lon":5.37308,"is_reserved":false,"is_disabled":false,"rental_uris":{"android":"levelo://app?vid=77b15268-12b9-4417-858b-14ff46b3743e","ios":"levelo://app?vid=77b15268-12b9-4417-858b-14ff46b3743e"},"vehicle_type_id":"4","last_reported":1726748199,"current_range_meters":37600,"station_id":"ce4bgt12rcd13ifvqcd0","pricing_plan_id":"cebpf4jnsgd1na2vs0mg"},{"bike_id":"3723f4fa-86d6-438c-88d3-6c0152a8939a","system_id":"levelo_inurba_marseille","lat":43.30156,"lon":5.38086,"is_reserved":false,"is_disabled":false,"rental_uris":{"android":"levelo://app?vid=3723f4fa-86d6-438c-88d3-6c0152a8939a","ios":"levelo://app?vid=3723f4fa-86d6-438c-88d3-6c0152a8939a"},"vehicle_type_id":"4","last_reported":1726748199,"current_range_meters":35600,"station_id":"ce4bgjp2rcd13ifvqbh0","pricing_plan_id":"cebpf4jnsgd1na2vs0mg"},{"bike_id":"c1873902-dc15-40cd-aea0-440576712d27","system_id":"levelo_inurba_marseille","lat":43.29621,"lon":5.37172,"is_reserved":false,"is_disabled":false,"rental_uris":{"android":"levelo://app?vid=c1873902-dc15-40cd-aea0-440576712d27","ios":"levelo://app?vid=c1873902-dc15-40cd-aea0-440576712d27"},"vehicle_type_id":"4","last_reported":1726748199,"current_range_meters":38000,"station_id":"ce4bgnh2rcd13ifvqc0g","pricing_plan_id":"cebpf4jnsgd1na2vs0mg"},{"bike_id":"e631b8a2-d40b-44b6-9396-30b5b3ab5f0b","system_id":"levelo_inurba_marseille","lat":43.29583,"lon":5.36733,"is_reserved":false,"is_disabled":false,"rental_uris":{"android":"levelo://app?vid=e631b8a2-d40b-44b6-9396-30b5b3ab5f0b","ios":"levelo://app?vid=e631b8a2-d40b-44b6-9396-30b5b3ab5f0b"},"vehicle_type_id":"4","last_reported":1726748199,"current_range_meters":38000,"station_id":"ce4bgph2rcd13ifvqc2g","pricing_plan_id":"cebpf4jnsgd1na2vs0mg"},{"bike_id":"55db82fd-52f9-4d91-9cbe-c6fd1ac9e4db","system_id":"levelo_inurba_marseille","lat":43.29194,"lon":5.35806,"is_reserved":false,"is_disabled":false,"rental_uris":{"android":"levelo://app?vid=55db82fd-52f9-4d91-9cbe-c6fd1ac9e4db","ios":"levelo://app?vid=55db82fd-52f9-4d91-9cbe-c6fd1ac9e4db"},"vehicle_type_id":"4","last_reported":1726748199,"current_range_meters":38000,"station_id":"ce4bhb12rcd13ifvqel0","pricing_plan_id":"cebpf4jnsgd1na2vs0mg"},{"bike_id":"21b005ed-1eb5-47c4-9460-d627196b52cd","system_id":"levelo_inurba_marseille","lat":43.295929,"lon":5.376868,"is_reserved":false,"is_disabled":false,"rental_uris":{"android":"levelo://app?vid=21b005ed-1eb5-47c4-9460-d627196b52cd","ios":"levelo://app?vid=21b005ed-1eb5-47c4-9460-d627196b52cd"},"vehicle_type_id":"4","last_reported":1726748199,"current_range_meters":9200,"station_id":"ce4bgi92rcd13ifvqb90","pricing_plan_id":"cebpf4jnsgd1na2vs0mg"},{"bike_id":"49eef153-b36a-41bc-b788-e8b8d3abfa95","system_id":"levelo_inurba_marseille","lat":43.28428,"lon":5.34993,"is_reserved":false,"is_disabled":false,"rental_uris":{"android":"levelo://app?vid=49eef153-b36a-41bc-b788-e8b8d3abfa95","ios":"levelo://app?vid=49eef153-b36a-41bc-b788-e8b8d3abfa95"},"vehicle_type_id":"4","last_reported":1726748199,"current_range_meters":35200,"station_id":"ce4bhbh2rcd13ifvqepg","pricing_plan_id":"cebpf4jnsgd1na2vs0mg"},{"bike_id":"f4bab54d-1889-4999-9b47-e0d1f182d74b","system_id":"levelo_inurba_marseille","lat":43.26564,"lon":5.39003,"is_reserved":false,"is_disabled":false,"rental_uris":{"android":"levelo://app?vid=f4bab54d-1889-4999-9b47-e0d1f182d74b","ios":"levelo://app?vid=f4bab54d-1889-4999-9b47-e0d1f182d74b"},"vehicle_type_id":"4","last_reported":1726748199,"current_range_meters":16000,"station_id":"ce4bhe12rcd13ifvqf30","pricing_plan_id":"cebpf4jnsgd1na2vs0mg"},{"bike_id":"a810873e-cddb-435a-8ed4-c9793c6faccd","system_id":"levelo_inurba_marseille","lat":43.25944,"lon":5.40898,"is_reserved":false,"is_disabled":false,"rental_uris":{"android":"levelo://app?vid=a810873e-cddb-435a-8ed4-c9793c6faccd","ios":"levelo://app?vid=a810873e-cddb-435a-8ed4-c9793c6faccd"},"vehicle_type_id":"4","last_reported":1726748199,"current_range_meters":35600,"station_id":"ce4bhm92rcd13ifvqglg","pricing_plan_id":"cebpf4jnsgd1na2vs0mg"},{"bike_id":"71b8d024-7c7f-41e2-92db-62aae15762a9","system_id":"levelo_inurba_marseille","lat":43.30313,"lon":5.36895,"is_reserved":false,"is_disabled":false,"rental_uris":{"android":"levelo://app?vid=71b8d024-7c7f-41e2-92db-62aae15762a9","ios":"levelo://app?vid=71b8d024-7c7f-41e2-92db-62aae15762a9"},"vehicle_type_id":"4","last_reported":1726748199,"current_range_meters":31200,"station_id":"ce4bgqh2rcd13ifvqc5g","pricing_plan_id":"cebpf4jnsgd1na2vs0mg"},{"bike_id":"55fed244-caf4-46e6-99fc-fcd916ddb5b7","system_id":"levelo_inurba_marseille","lat":43.23207,"lon":5.35546,"is_reserved":false,"is_disabled":false,"rental_uris":{"android":"levelo://app?vid=55fed244-caf4-46e6-99fc-fcd916ddb5b7","ios":"levelo://app?vid=55fed244-caf4-46e6-99fc-fcd916ddb5b7"},"vehicle_type_id":"4","last_reported":1726748199,"current_range_meters":18800,"station_id":"ce4bhu92rcd13ifvqi70","pricing_plan_id":"cebpf4jnsgd1na2vs0mg"},{"bike_id":"3fd17459-fba8-4ccd-b8f4-4b1804c548cc","system_id":"levelo_inurba_marseille","lat":43.26806,"lon":5.40265,"is_reserved":false,"is_disabled":false,"rental_uris":{"android":"levelo://app?vid=3fd17459-fba8-4ccd-b8f4-4b1804c548cc","ios":"levelo://app?vid=3fd17459-fba8-4ccd-b8f4-4b1804c548cc"},"vehicle_type_id":"4","last_reported":1726748199,"current_range_meters":12000,"station_id":"ce501612rcd8frsf0b60","pricing_plan_id":"cebpf4jnsgd1na2vs0mg"},{"bike_id":"0cd4f4a0-76b9-423a-a745-6ccc645c2bcf","system_id":"levelo_inurba_marseille","lat":43.30535,"lon":5.36704,"is_reserved":false,"is_disabled":false,"rental_uris":{"android":"levelo://app?vid=0cd4f4a0-76b9-423a-a745-6ccc645c2bcf","ios":"levelo://app?vid=0cd4f4a0-76b9-423a-a745-6ccc645c2bcf"},"vehicle_type_id":"4","last_reported":1726748199,"current_range_meters":19200,"station_id":"ce4bgrp2rcd13ifvqc9g","pricing_plan_id":"cebpf4jnsgd1na2vs0mg"},{"bike_id":"b14b5cd6-5407-4249-b6d8-aec0c8d680e1","system_id":"levelo_inurba_marseille","lat":43.33724,"lon":5.39186,"is_reserved":false,"is_disabled":false,"rental_uris":{"android":"levelo://app?vid=b14b5cd6-5407-4249-b6d8-aec0c8d680e1","ios":"levelo://app?vid=b14b5cd6-5407-4249-b6d8-aec0c8d680e1"},"vehicle_type_id":"4","last_reported":1726748199,"current_range_meters":8800,"station_id":"ce4bhr92rcd13ifvqhsg","pricing_plan_id":"cebpf4jnsgd1na2vs0mg"},{"bike_id":"bb84d119-edcd-41c0-91e8-a062977a7329","system_id":"levelo_inurba_marseille","lat":43.31713,"lon":5.42406,"is_reserved":false,"is_disabled":false,"rental_uris":{"android":"levelo://app?vid=bb84d119-edcd-41c0-91e8-a062977a7329","ios":"levelo://app?vid=bb84d119-edcd-41c0-91e8-a062977a7329"},"vehicle_type_id":"4","last_reported":1726748199,"current_range_meters":18000,"station_id":"ce4bhp92rcd13ifvqhbg","pricing_plan_id":"cebpf4jnsgd1na2vs0mg"},{"bike_id":"067b6520-c28b-44c8-87c8-48502176bf3c","system_id":"levelo_inurba_marseille","lat":43.26023,"lon":5.38068,"is_reserved":false,"is_disabled":false,"rental_uris":{"android":"levelo://app?vid=067b6520-c28b-44c8-87c8-48502176bf3c","ios":"levelo://app?vid=067b6520-c28b-44c8-87c8-48502176bf3c"},"vehicle_type_id":"4","last_reported":1726748199,"current_range_meters":3200,"station_id":"ce4bhjp2rcd13ifvqg90","pricing_plan_id":"cebpf4jnsgd1na2vs0mg"},{"bike_id":"9d9b95d1-c99f-4af9-8f3d-0211b7d66851","system_id":"levelo_inurba_marseille","lat":43.29937,"lon":5.36545,"is_reserved":false,"is_disabled":false,"rental_uris":{"android":"levelo://app?vid=9d9b95d1-c99f-4af9-8f3d-0211b7d66851","ios":"levelo://app?vid=9d9b95d1-c99f-4af9-8f3d-0211b7d66851"},"vehicle_type_id":"4","last_reported":1726748199,"current_range_meters":19600,"station_id":"ce4bgm92rcd13ifvqbr0","pricing_plan_id":"cebpf4jnsgd1na2vs0mg"},{"bike_id":"b035849e-9158-48ab-afae-15dac66a915f","system_id":"levelo_inurba_marseille","lat":43.3375,"lon":5.37456,"is_reserved":false,"is_disabled":false,"rental_uris":{"android":"levelo://app?vid=b035849e-9158-48ab-afae-15dac66a915f","ios":"levelo://app?vid=b035849e-9158-48ab-afae-15dac66a915f"},"vehicle_type_id":"4","last_reported":1726748199,"current_range_meters":37600,"station_id":"","pricing_plan_id":"cebpf4jnsgd1na2vs0mg"},{"bike_id":"656a7a7e-ece4-478a-82fa-0c03b969835e","system_id":"levelo_inurba_marseille","lat":43.297971,"lon":5.381039,"is_reserved":false,"is_disabled":false,"rental_uris":{"android":"levelo://app?vid=656a7a7e-ece4-478a-82fa-0c03b969835e","ios":"levelo://app?vid=656a7a7e-ece4-478a-82fa-0c03b969835e"},"vehicle_type_id":"4","last_reported":1726748199,"current_range_meters":7200,"station_id":"ce4bgip2rcd13ifvqbb0","pricing_plan_id":"cebpf4jnsgd1na2vs0mg"},{"bike_id":"e9c12d1b-6da0-4cc3-83bb-95bd5eb4adbb","system_id":"levelo_inurba_marseille","lat":43.3014,"lon":5.37432,"is_reserved":false,"is_disabled":false,"rental_uris":{"android":"levelo://app?vid=e9c12d1b-6da0-4cc3-83bb-95bd5eb4adbb","ios":"levelo://app?vid=e9c12d1b-6da0-4cc3-83bb-95bd5eb4adbb"},"vehicle_type_id":"4","last_reported":1726748199,"current_range_meters":39200,"station_id":"ce4bgs92rcd13ifvqcc0","pricing_plan_id":"cebpf4jnsgd1na2vs0mg"},{"bike_id":"b18142d0-64fc-4319-ab19-5528239e8648","system_id":"levelo_inurba_marseille","lat":43.29881,"lon":5.38907,"is_reserved":false,"is_disabled":false,"rental_uris":{"android":"levelo://app?vid=b18142d0-64fc-4319-ab19-5528239e8648","ios":"levelo://app?vid=b18142d0-64fc-4319-ab19-5528239e8648"},"vehicle_type_id":"4","last_reported":1726748199,"current_range_meters":28800,"station_id":"ce4bh392rcd13ifvqdl0","pricing_plan_id":"cebpf4jnsgd1na2vs0mg"},{"bike_id":"2cbb6dd5-2ec8-4ba5-808a-c5301f897d27","system_id":"levelo_inurba_marseille","lat":43.23959,"lon":5.3663,"is_reserved":false,"is_disabled":false,"rental_uris":{"android":"levelo://app?vid=2cbb6dd5-2ec8-4ba5-808a-c5301f897d27","ios":"levelo://app?vid=2cbb6dd5-2ec8-4ba5-808a-c5301f897d27"},"vehicle_type_id":"4","last_reported":1726748199,"current_range_meters":23200,"station_id":"ce4bhi12rcd13ifvqfp0","pricing_plan_id":"cebpf4jnsgd1na2vs0mg"},{"bike_id":"60a6f6c2-c23b-4cfd-a0cb-c3d4101e03a6","system_id":"levelo_inurba_marseille","lat":43.29847,"lon":5.36271,"is_reserved":false,"is_disabled":false,"rental_uris":{"android":"levelo://app?vid=60a6f6c2-c23b-4cfd-a0cb-c3d4101e03a6","ios":"levelo://app?vid=60a6f6c2-c23b-4cfd-a0cb-c3d4101e03a6"},"vehicle_type_id":"4","last_reported":1726748199,"current_range_meters":39200,"station_id":"ce4bgpp2rcd13ifvqc3g","pricing_plan_id":"cebpf4jnsgd1na2vs0mg"},{"bike_id":"51e99616-b87e-4b0a-bd0e-4284ea016439","system_id":"levelo_inurba_marseille","lat":43.33719,"lon":5.39192,"is_reserved":false,"is_disabled":false,"rental_uris":{"android":"levelo://app?vid=51e99616-b87e-4b0a-bd0e-4284ea016439","ios":"levelo://app?vid=51e99616-b87e-4b0a-bd0e-4284ea016439"},"vehicle_type_id":"4","last_reported":1726748199,"current_range_meters":27200,"station_id":"ce4bhr92rcd13ifvqhsg","pricing_plan_id":"cebpf4jnsgd1na2vs0mg"},{"bike_id":"a5d850ec-79f3-4d2c-8023-0636e96a19aa","system_id":"levelo_inurba_marseille","lat":43.29574,"lon":5.37521,"is_reserved":false,"is_disabled":false,"rental_uris":{"android":"levelo://app?vid=a5d850ec-79f3-4d2c-8023-0636e96a19aa","ios":"levelo://app?vid=a5d850ec-79f3-4d2c-8023-0636e96a19aa"},"vehicle_type_id":"4","last_reported":1726748199,"current_range_meters":36400,"station_id":"ce4bgh92rcd13ifvqb50","pricing_plan_id":"cebpf4jnsgd1na2vs0mg"},{"bike_id":"61d7b2ec-8db9-4c81-b31c-72086237e9a5","system_id":"levelo_inurba_marseille","lat":43.337444,"lon":5.374475,"is_reserved":false,"is_disabled":false,"rental_uris":{"android":"levelo://app?vid=61d7b2ec-8db9-4c81-b31c-72086237e9a5","ios":"levelo://app?vid=61d7b2ec-8db9-4c81-b31c-72086237e9a5"},"vehicle_type_id":"4","last_reported":1726748199,"current_range_meters":38800,"station_id":"","pricing_plan_id":"cebpf4jnsgd1na2vs0mg"},{"bike_id":"52fffaf1-dd98-4e0a-a39d-48011512624f","system_id":"levelo_inurba_marseille","lat":43.25498,"lon":5.3765,"is_reserved":false,"is_disabled":false,"rental_uris":{"android":"levelo://app?vid=52fffaf1-dd98-4e0a-a39d-48011512624f","ios":"levelo://app?vid=52fffaf1-dd98-4e0a-a39d-48011512624f"},"vehicle_type_id":"4","last_reported":1726748199,"current_range_meters":28800,"station_id":"ce4bhh12rcd13ifvqff0","pricing_plan_id":"cebpf4jnsgd1na2vs0mg"},{"bike_id":"936a8883-3404-4ff4-95e2-76e7c14e72c3","system_id":"levelo_inurba_marseille","lat":43.28939,"lon":5.36632,"is_reserved":false,"is_disabled":false,"rental_uris":{"android":"levelo://app?vid=936a8883-3404-4ff4-95e2-76e7c14e72c3","ios":"levelo://app?vid=936a8883-3404-4ff4-95e2-76e7c14e72c3"},"vehicle_type_id":"4","last_reported":1726748199,"current_range_meters":20000,"station_id":"ce4bhap2rcd13ifvqek0","pricing_plan_id":"cebpf4jnsgd1na2vs0mg"},{"bike_id":"ab957eff-0a72-4c5a-a176-6c0e2015c982","system_id":"levelo_inurba_marseille","lat":43.2985,"lon":5.36273,"is_reserved":false,"is_disabled":false,"rental_uris":{"android":"levelo://app?vid=ab957eff-0a72-4c5a-a176-6c0e2015c982","ios":"levelo://app?vid=ab957eff-0a72-4c5a-a176-6c0e2015c982"},"vehicle_type_id":"4","last_reported":1726748199,"current_range_meters":20000,"station_id":"ce4bgpp2rcd13ifvqc3g","pricing_plan_id":"cebpf4jnsgd1na2vs0mg"},{"bike_id":"8bd80e68-8812-472c-8449-6f9a01120914","system_id":"levelo_inurba_marseille","lat":43.27426,"lon":5.39411,"is_reserved":false,"is_disabled":false,"rental_uris":{"android":"levelo://app?vid=8bd80e68-8812-472c-8449-6f9a01120914","ios":"levelo://app?vid=8bd80e68-8812-472c-8449-6f9a01120914"},"vehicle_type_id":"4","last_reported":1726748199,"current_range_meters":38000,"station_id":"ce4bhdp2rcd13ifvqf20","pricing_plan_id":"cebpf4jnsgd1na2vs0mg"},{"bike_id":"1ea79cf6-2f6c-45ac-80b8-1f4ad5573d7a","system_id":"levelo_inurba_marseille","lat":43.24663,"lon":5.38167,"is_reserved":false,"is_disabled":false,"rental_uris":{"android":"levelo://app?vid=1ea79cf6-2f6c-45ac-80b8-1f4ad5573d7a","ios":"levelo://app?vid=1ea79cf6-2f6c-45ac-80b8-1f4ad5573d7a"},"vehicle_type_id":"4","last_reported":1726748199,"current_range_meters":27200,"station_id":"ce4bhih2rcd13ifvqfr0","pricing_plan_id":"cebpf4jnsgd1na2vs0mg"},{"bike_id":"4d218f0f-df99-4eab-ac5c-3128ef60493f","system_id":"levelo_inurba_marseille","lat":43.2792,"lon":5.39573,"is_reserved":false,"is_disabled":false,"rental_uris":{"android":"levelo://app?vid=4d218f0f-df99-4eab-ac5c-3128ef60493f","ios":"levelo://app?vid=4d218f0f-df99-4eab-ac5c-3128ef60493f"},"vehicle_type_id":"4","last_reported":1726748199,"current_range_meters":28400,"station_id":"ce4bhf92rcd13ifvqf40","pricing_plan_id":"cebpf4jnsgd1na2vs0mg"},{"bike_id":"3450e49a-3810-4469-8f17-4407126f60e1","system_id":"levelo_inurba_marseille","lat":43.27535,"lon":5.42629,"is_reserved":false,"is_disabled":false,"rental_uris":{"android":"levelo://app?vid=3450e49a-3810-4469-8f17-4407126f60e1","ios":"levelo://app?vid=3450e49a-3810-4469-8f17-4407126f60e1"},"vehicle_type_id":"4","last_reported":1726748199,"current_range_meters":4000,"station_id":"","pricing_plan_id":"cebpf4jnsgd1na2vs0mg"},{"bike_id":"7617fe43-8fec-4602-b5d5-e996c1eb6a44","system_id":"levelo_inurba_marseille","lat":43.23192,"lon":5.35546,"is_reserved":false,"is_disabled":false,"rental_uris":{"android":"levelo://app?vid=7617fe43-8fec-4602-b5d5-e996c1eb6a44","ios":"levelo://app?vid=7617fe43-8fec-4602-b5d5-e996c1eb6a44"},"vehicle_type_id":"4","last_reported":1726748199,"current_range_meters":39200,"station_id":"ce4bhu92rcd13ifvqi70","pricing_plan_id":"cebpf4jnsgd1na2vs0mg"},{"bike_id":"396ba37e-88b0-4568-8a14-731de662ee27","system_id":"levelo_inurba_marseille","lat":43.31997,"lon":5.38154,"is_reserved":false,"is_disabled":false,"rental_uris":{"android":"levelo://app?vid=396ba37e-88b0-4568-8a14-731de662ee27","ios":"levelo://app?vid=396ba37e-88b0-4568-8a14-731de662ee27"},"vehicle_type_id":"4","last_reported":1726748199,"current_range_meters":32400,"station_id":"ce4bhr12rcd13ifvqhpg","pricing_plan_id":"cebpf4jnsgd1na2vs0mg"},{"bike_id":"036d5fc9-dba1-43da-9929-e313c8b59ba8","system_id":"levelo_inurba_marseille","lat":43.2834,"lon":5.38111,"is_reserved":false,"is_disabled":false,"rental_uris":{"android":"levelo://app?vid=036d5fc9-dba1-43da-9929-e313c8b59ba8","ios":"levelo://app?vid=036d5fc9-dba1-43da-9929-e313c8b59ba8"},"vehicle_type_id":"4","last_reported":1726748199,"current_range_meters":17200,"station_id":"ce4bh412rcd13ifvqdr0","pricing_plan_id":"cebpf4jnsgd1na2vs0mg"},{"bike_id":"60f43bd2-2e63-433b-9c15-f0930ee2a9e9","system_id":"levelo_inurba_marseille","lat":43.29275,"lon":5.36843,"is_reserved":false,"is_disabled":false,"rental_uris":{"android":"levelo://app?vid=60f43bd2-2e63-433b-9c15-f0930ee2a9e9","ios":"levelo://app?vid=60f43bd2-2e63-433b-9c15-f0930ee2a9e9"},"vehicle_type_id":"4","last_reported":1726748199,"current_range_meters":13600,"station_id":"ce4bhbp2rcd13ifvqesg","pricing_plan_id":"cebpf4jnsgd1na2vs0mg"},{"bike_id":"9ecdf0fc-6643-4539-b1ca-f13870a44995","system_id":"levelo_inurba_marseille","lat":43.29587,"lon":5.36753,"is_reserved":false,"is_disabled":false,"rental_uris":{"android":"levelo://app?vid=9ecdf0fc-6643-4539-b1ca-f13870a44995","ios":"levelo://app?vid=9ecdf0fc-6643-4539-b1ca-f13870a44995"},"vehicle_type_id":"4","last_reported":1726748199,"current_range_meters":27600,"station_id":"ce4bgph2rcd13ifvqc2g","pricing_plan_id":"cebpf4jnsgd1na2vs0mg"},{"bike_id":"e5f36a00-f342-4c81-8de3-8e7f9fbaac3e","system_id":"levelo_inurba_marseille","lat":43.23054,"lon":5.35493,"is_reserved":false,"is_disabled":false,"rental_uris":{"android":"levelo://app?vid=e5f36a00-f342-4c81-8de3-8e7f9fbaac3e","ios":"levelo://app?vid=e5f36a00-f342-4c81-8de3-8e7f9fbaac3e"},"vehicle_type_id":"4","last_reported":1726748199,"current_range_meters":2000,"station_id":"cpo3342slgdg3j2ifvpg","pricing_plan_id":"cebpf4jnsgd1na2vs0mg"},{"bike_id":"52cb08ed-9346-44a5-9fd4-17c2ca78b86d","system_id":"levelo_inurba_marseille","lat":43.33753,"lon":5.37444,"is_reserved":false,"is_disabled":false,"rental_uris":{"android":"levelo://app?vid=52cb08ed-9346-44a5-9fd4-17c2ca78b86d","ios":"levelo://app?vid=52cb08ed-9346-44a5-9fd4-17c2ca78b86d"},"vehicle_type_id":"4","last_reported":1726748199,"current_range_meters":22400,"station_id":"","pricing_plan_id":"cebpf4jnsgd1na2vs0mg"},{"bike_id":"6abd6ed8-e9da-4163-9975-ae064d953b07","system_id":"levelo_inurba_marseille","lat":43.25935,"lon":5.40915,"is_reserved":false,"is_disabled":false,"rental_uris":{"android":"levelo://app?vid=6abd6ed8-e9da-4163-9975-ae064d953b07","ios":"levelo://app?vid=6abd6ed8-e9da-4163-9975-ae064d953b07"},"vehicle_type_id":"4","last_reported":1726748199,"current_range_meters":30400,"station_id":"ce4bhm92rcd13ifvqglg","pricing_plan_id":"cebpf4jnsgd1na2vs0mg"},{"bike_id":"87483675-10ba-4b90-9ed9-a62636228fd3","system_id":"levelo_inurba_marseille","lat":43.25938,"lon":5.40898,"is_reserved":false,"is_disabled":false,"rental_uris":{"android":"levelo://app?vid=87483675-10ba-4b90-9ed9-a62636228fd3","ios":"levelo://app?vid=87483675-10ba-4b90-9ed9-a62636228fd3"},"vehicle_type_id":"4","last_reported":1726748199,"current_range_meters":32800,"station_id":"ce4bhm92rcd13ifvqglg","pricing_plan_id":"cebpf4jnsgd1na2vs0mg"},{"bike_id":"5045e50a-6efb-41fb-8228-2f0ac5744c43","system_id":"levelo_inurba_marseille","lat":43.22934,"lon":5.353759,"is_reserved":false,"is_disabled":false,"rental_uris":{"android":"levelo://app?vid=5045e50a-6efb-41fb-8228-2f0ac5744c43","ios":"levelo://app?vid=5045e50a-6efb-41fb-8228-2f0ac5744c43"},"vehicle_type_id":"4","last_reported":1726748199,"current_range_meters":22400,"station_id":"cpo3532slgdg3j2ikp40","pricing_plan_id":"cebpf4jnsgd1na2vs0mg"},{"bike_id":"2e771a32-ae11-4c0f-bb78-1f869927f164","system_id":"levelo_inurba_marseille","lat":43.2894,"lon":5.36405,"is_reserved":false,"is_disabled":false,"rental_uris":{"android":"levelo://app?vid=2e771a32-ae11-4c0f-bb78-1f869927f164","ios":"levelo://app?vid=2e771a32-ae11-4c0f-bb78-1f869927f164"},"vehicle_type_id":"4","last_reported":1726748199,"current_range_meters":35200,"station_id":"ce4bhc92rcd13ifvqetg","pricing_plan_id":"cebpf4jnsgd1na2vs0mg"},{"bike_id":"62bacfa1-3fe4-4ad3-87c0-5c371d4324b7","system_id":"levelo_inurba_marseille","lat":43.27463,"lon":5.38472,"is_reserved":false,"is_disabled":false,"rental_uris":{"android":"levelo://app?vid=62bacfa1-3fe4-4ad3-87c0-5c371d4324b7","ios":"levelo://app?vid=62bacfa1-3fe4-4ad3-87c0-5c371d4324b7"},"vehicle_type_id":"4","last_reported":1726748199,"current_range_meters":30800,"station_id":"","pricing_plan_id":"cebpf4jnsgd1na2vs0mg"},{"bike_id":"5c4749b6-f564-4554-8438-537375b87c09","system_id":"levelo_inurba_marseille","lat":43.24071,"lon":5.3776,"is_reserved":false,"is_disabled":false,"rental_uris":{"android":"levelo://app?vid=5c4749b6-f564-4554-8438-537375b87c09","ios":"levelo://app?vid=5c4749b6-f564-4554-8438-537375b87c09"},"vehicle_type_id":"4","last_reported":1726748199,"current_range_meters":35600,"station_id":"ce4bhnp2rcd13ifvqgvg","pricing_plan_id":"cebpf4jnsgd1na2vs0mg"},{"bike_id":"7f4fda24-2430-4ac1-a252-e8343500407c","system_id":"levelo_inurba_marseille","lat":43.25939,"lon":5.409,"is_reserved":false,"is_disabled":false,"rental_uris":{"android":"levelo://app?vid=7f4fda24-2430-4ac1-a252-e8343500407c","ios":"levelo://app?vid=7f4fda24-2430-4ac1-a252-e8343500407c"},"vehicle_type_id":"4","last_reported":1726748199,"current_range_meters":22000,"station_id":"ce4bhm92rcd13ifvqglg","pricing_plan_id":"cebpf4jnsgd1na2vs0mg"},{"bike_id":"956c0361-ccf4-4c19-8ef9-9f21351cb728","system_id":"levelo_inurba_marseille","lat":43.314911,"lon":5.372635,"is_reserved":false,"is_disabled":false,"rental_uris":{"android":"levelo://app?vid=956c0361-ccf4-4c19-8ef9-9f21351cb728","ios":"levelo://app?vid=956c0361-ccf4-4c19-8ef9-9f21351cb728"},"vehicle_type_id":"4","last_reported":1726748199,"current_range_meters":28800,"station_id":"ce4bgt12rcd13ifvqcd0","pricing_plan_id":"cebpf4jnsgd1na2vs0mg"},{"bike_id":"f53c0ffa-216b-459d-b601-c4e6f45db024","system_id":"levelo_inurba_marseille","lat":43.24996,"lon":5.38931,"is_reserved":false,"is_disabled":false,"rental_uris":{"android":"levelo://app?vid=f53c0ffa-216b-459d-b601-c4e6f45db024","ios":"levelo://app?vid=f53c0ffa-216b-459d-b601-c4e6f45db024"},"vehicle_type_id":"4","last_reported":1726748199,"current_range_meters":12000,"station_id":"ce4bhgp2rcd13ifvqfd0","pricing_plan_id":"cebpf4jnsgd1na2vs0mg"},{"bike_id":"30f827be-d948-401c-bfc1-f82441cef125","system_id":"levelo_inurba_marseille","lat":43.282692,"lon":5.350631,"is_reserved":false,"is_disabled":false,"rental_uris":{"android":"levelo://app?vid=30f827be-d948-401c-bfc1-f82441cef125","ios":"levelo://app?vid=30f827be-d948-401c-bfc1-f82441cef125"},"vehicle_type_id":"4","last_reported":1726748199,"current_range_meters":36400,"station_id":"ce4bguh2rcd13ifvqcj0","pricing_plan_id":"cebpf4jnsgd1na2vs0mg"},{"bike_id":"b0154446-30b1-4374-bfef-f6974c90099e","system_id":"levelo_inurba_marseille","lat":43.30548,"lon":5.36704,"is_reserved":false,"is_disabled":false,"rental_uris":{"android":"levelo://app?vid=b0154446-30b1-4374-bfef-f6974c90099e","ios":"levelo://app?vid=b0154446-30b1-4374-bfef-f6974c90099e"},"vehicle_type_id":"4","last_reported":1726748199,"current_range_meters":39200,"station_id":"ce4bgrp2rcd13ifvqc9g","pricing_plan_id":"cebpf4jnsgd1na2vs0mg"},{"bike_id":"3054afe6-4c88-4656-9a5d-c31a1a4a065f","system_id":"levelo_inurba_marseille","lat":43.3248,"lon":5.36563,"is_reserved":false,"is_disabled":false,"rental_uris":{"android":"levelo://app?vid=3054afe6-4c88-4656-9a5d-c31a1a4a065f","ios":"levelo://app?vid=3054afe6-4c88-4656-9a5d-c31a1a4a065f"},"vehicle_type_id":"4","last_reported":1726748199,"current_range_meters":34000,"station_id":"ce4bhs12rcd13ifvqhvg","pricing_plan_id":"cebpf4jnsgd1na2vs0mg"},{"bike_id":"143a0480-4682-4787-be50-98e6007ce30b","system_id":"levelo_inurba_marseille","lat":43.30599,"lon":5.39351,"is_reserved":false,"is_disabled":false,"rental_uris":{"android":"levelo://app?vid=143a0480-4682-4787-be50-98e6007ce30b","ios":"levelo://app?vid=143a0480-4682-4787-be50-98e6007ce30b"},"vehicle_type_id":"4","last_reported":1726748199,"current_range_meters":19600,"station_id":"ce4bh0p2rcd13ifvqd80","pricing_plan_id":"cebpf4jnsgd1na2vs0mg"},{"bike_id":"6d5cbd2e-3ab7-491d-a944-8cfd37cbcb61","system_id":"levelo_inurba_marseille","lat":43.26212,"lon":5.37444,"is_reserved":false,"is_disabled":false,"rental_uris":{"android":"levelo://app?vid=6d5cbd2e-3ab7-491d-a944-8cfd37cbcb61","ios":"levelo://app?vid=6d5cbd2e-3ab7-491d-a944-8cfd37cbcb61"},"vehicle_type_id":"4","last_reported":1726748199,"current_range_meters":9600,"station_id":"ce4bhgp2rcd13ifvqfc0","pricing_plan_id":"cebpf4jnsgd1na2vs0mg"},{"bike_id":"d702706d-cdf6-4cf9-9f3f-96ababd7ca5e","system_id":"levelo_inurba_marseille","lat":43.31244,"lon":5.36876,"is_reserved":false,"is_disabled":false,"rental_uris":{"android":"levelo://app?vid=d702706d-cdf6-4cf9-9f3f-96ababd7ca5e","ios":"levelo://app?vid=d702706d-cdf6-4cf9-9f3f-96ababd7ca5e"},"vehicle_type_id":"4","last_reported":1726748199,"current_range_meters":36400,"station_id":"ce4bgl92rcd13ifvqbq0","pricing_plan_id":"cebpf4jnsgd1na2vs0mg"},{"bike_id":"902190e7-1fe9-4270-9546-498dac581307","system_id":"levelo_inurba_marseille","lat":43.27999,"lon":5.40601,"is_reserved":false,"is_disabled":false,"rental_uris":{"android":"levelo://app?vid=902190e7-1fe9-4270-9546-498dac581307","ios":"levelo://app?vid=902190e7-1fe9-4270-9546-498dac581307"},"vehicle_type_id":"4","last_reported":1726748199,"current_range_meters":36400,"station_id":"","pricing_plan_id":"cebpf4jnsgd1na2vs0mg"},{"bike_id":"4851976f-529d-4279-8f1e-924e7551be4f","system_id":"levelo_inurba_marseille","lat":43.279663,"lon":5.387341,"is_reserved":false,"is_disabled":false,"rental_uris":{"android":"levelo://app?vid=4851976f-529d-4279-8f1e-924e7551be4f","ios":"levelo://app?vid=4851976f-529d-4279-8f1e-924e7551be4f"},"vehicle_type_id":"4","last_reported":1726748199,"current_range_meters":17600,"station_id":"ce4bhg12rcd13ifvqf80","pricing_plan_id":"cebpf4jnsgd1na2vs0mg"},{"bike_id":"2db5f556-698c-4245-ad95-a5a9f0d6dc59","system_id":"levelo_inurba_marseille","lat":43.27817,"lon":5.40714,"is_reserved":false,"is_disabled":false,"rental_uris":{"android":"levelo://app?vid=2db5f556-698c-4245-ad95-a5a9f0d6dc59","ios":"levelo://app?vid=2db5f556-698c-4245-ad95-a5a9f0d6dc59"},"vehicle_type_id":"4","last_reported":1726748199,"current_range_meters":16800,"station_id":"ce4bhnh2rcd13ifvqgtg","pricing_plan_id":"cebpf4jnsgd1na2vs0mg"},{"bike_id":"88746e1b-aba8-45eb-90e2-1a036672b2c2","system_id":"levelo_inurba_marseille","lat":43.29095,"lon":5.38147,"is_reserved":false,"is_disabled":false,"rental_uris":{"android":"levelo://app?vid=88746e1b-aba8-45eb-90e2-1a036672b2c2","ios":"levelo://app?vid=88746e1b-aba8-45eb-90e2-1a036672b2c2"},"vehicle_type_id":"4","last_reported":1726748199,"current_range_meters":28400,"station_id":"ce4bh512rcd13ifvqe2g","pricing_plan_id":"cebpf4jnsgd1na2vs0mg"},{"bike_id":"29affaf3-d71e-45cb-aab6-43585a820bd5","system_id":"levelo_inurba_marseille","lat":43.29852,"lon":5.36287,"is_reserved":false,"is_disabled":false,"rental_uris":{"android":"levelo://app?vid=29affaf3-d71e-45cb-aab6-43585a820bd5","ios":"levelo://app?vid=29affaf3-d71e-45cb-aab6-43585a820bd5"},"vehicle_type_id":"4","last_reported":1726748199,"current_range_meters":38800,"station_id":"ce4bgpp2rcd13ifvqc3g","pricing_plan_id":"cebpf4jnsgd1na2vs0mg"},{"bike_id":"7ed6941b-afc4-460f-8af3-ab9c555ffb27","system_id":"levelo_inurba_marseille","lat":43.30532,"lon":5.36707,"is_reserved":false,"is_disabled":false,"rental_uris":{"android":"levelo://app?vid=7ed6941b-afc4-460f-8af3-ab9c555ffb27","ios":"levelo://app?vid=7ed6941b-afc4-460f-8af3-ab9c555ffb27"},"vehicle_type_id":"4","last_reported":1726748199,"current_range_meters":40000,"station_id":"ce4bgrp2rcd13ifvqc9g","pricing_plan_id":"cebpf4jnsgd1na2vs0mg"},{"bike_id":"66979b52-14f7-44b1-a286-4b115afc35a7","system_id":"levelo_inurba_marseille","lat":43.25001,"lon":5.38925,"is_reserved":false,"is_disabled":false,"rental_uris":{"android":"levelo://app?vid=66979b52-14f7-44b1-a286-4b115afc35a7","ios":"levelo://app?vid=66979b52-14f7-44b1-a286-4b115afc35a7"},"vehicle_type_id":"4","last_reported":1726748199,"current_range_meters":27600,"station_id":"ce4bhgp2rcd13ifvqfd0","pricing_plan_id":"cebpf4jnsgd1na2vs0mg"},{"bike_id":"db5bed51-afb9-4548-98e9-7b7ae226c501","system_id":"levelo_inurba_marseille","lat":43.33756,"lon":5.37453,"is_reserved":false,"is_disabled":false,"rental_uris":{"android":"levelo://app?vid=db5bed51-afb9-4548-98e9-7b7ae226c501","ios":"levelo://app?vid=db5bed51-afb9-4548-98e9-7b7ae226c501"},"vehicle_type_id":"4","last_reported":1726748199,"current_range_meters":25600,"station_id":"","pricing_plan_id":"cebpf4jnsgd1na2vs0mg"},{"bike_id":"d79373f5-c2da-49ae-b231-84974982fd84","system_id":"levelo_inurba_marseille","lat":43.30471,"lon":5.37902,"is_reserved":false,"is_disabled":false,"rental_uris":{"android":"levelo://app?vid=d79373f5-c2da-49ae-b231-84974982fd84","ios":"levelo://app?vid=d79373f5-c2da-49ae-b231-84974982fd84"},"vehicle_type_id":"4","last_reported":1726748199,"current_range_meters":28800,"station_id":"ce4bgup2rcd13ifvqcn0","pricing_plan_id":"cebpf4jnsgd1na2vs0mg"},{"bike_id":"6864a05c-76c0-4648-ae7c-db87fef70f83","system_id":"levelo_inurba_marseille","lat":43.275,"lon":5.42451,"is_reserved":false,"is_disabled":false,"rental_uris":{"android":"levelo://app?vid=6864a05c-76c0-4648-ae7c-db87fef70f83","ios":"levelo://app?vid=6864a05c-76c0-4648-ae7c-db87fef70f83"},"vehicle_type_id":"4","last_reported":1726748199,"current_range_meters":6400,"station_id":"ce4bhn92rcd13ifvqgrg","pricing_plan_id":"cebpf4jnsgd1na2vs0mg"},{"bike_id":"f1925469-9217-450d-9259-fc5ba656a5ff","system_id":"levelo_inurba_marseille","lat":43.25928,"lon":5.40914,"is_reserved":false,"is_disabled":false,"rental_uris":{"android":"levelo://app?vid=f1925469-9217-450d-9259-fc5ba656a5ff","ios":"levelo://app?vid=f1925469-9217-450d-9259-fc5ba656a5ff"},"vehicle_type_id":"4","last_reported":1726748199,"current_range_meters":38000,"station_id":"ce4bhm92rcd13ifvqglg","pricing_plan_id":"cebpf4jnsgd1na2vs0mg"},{"bike_id":"69399783-5eae-4af9-ae4b-1495b2d249b1","system_id":"levelo_inurba_marseille","lat":43.24165,"lon":5.36394,"is_reserved":false,"is_disabled":false,"rental_uris":{"android":"levelo://app?vid=69399783-5eae-4af9-ae4b-1495b2d249b1","ios":"levelo://app?vid=69399783-5eae-4af9-ae4b-1495b2d249b1"},"vehicle_type_id":"4","last_reported":1726748199,"current_range_meters":33200,"station_id":"cpo36qri1sfpv3e86is0","pricing_plan_id":"cebpf4jnsgd1na2vs0mg"},{"bike_id":"d4b09efd-1e41-4534-afaa-4fc8f783456a","system_id":"levelo_inurba_marseille","lat":43.28105,"lon":5.3784,"is_reserved":false,"is_disabled":false,"rental_uris":{"android":"levelo://app?vid=d4b09efd-1e41-4534-afaa-4fc8f783456a","ios":"levelo://app?vid=d4b09efd-1e41-4534-afaa-4fc8f783456a"},"vehicle_type_id":"4","last_reported":1726748199,"current_range_meters":33200,"station_id":"ce4bha12rcd13ifvqee0","pricing_plan_id":"cebpf4jnsgd1na2vs0mg"},{"bike_id":"52aed5a5-1173-4ecb-a591-04613e960d0f","system_id":"levelo_inurba_marseille","lat":43.27498,"lon":5.42447,"is_reserved":false,"is_disabled":false,"rental_uris":{"android":"levelo://app?vid=52aed5a5-1173-4ecb-a591-04613e960d0f","ios":"levelo://app?vid=52aed5a5-1173-4ecb-a591-04613e960d0f"},"vehicle_type_id":"4","last_reported":1726748199,"current_range_meters":12000,"station_id":"ce4bhn92rcd13ifvqgrg","pricing_plan_id":"cebpf4jnsgd1na2vs0mg"},{"bike_id":"3b3f679f-9860-4dc0-8376-e682454fa192","system_id":"levelo_inurba_marseille","lat":43.28724,"lon":5.36088,"is_reserved":false,"is_disabled":false,"rental_uris":{"android":"levelo://app?vid=3b3f679f-9860-4dc0-8376-e682454fa192","ios":"levelo://app?vid=3b3f679f-9860-4dc0-8376-e682454fa192"},"vehicle_type_id":"4","last_reported":1726748199,"current_range_meters":38000,"station_id":"cki0cbj6b192h4jlfktg","pricing_plan_id":"cebpf4jnsgd1na2vs0mg"},{"bike_id":"2cb57f98-29ff-43ef-91cd-01a26af31991","system_id":"levelo_inurba_marseille","lat":43.337444,"lon":5.374475,"is_reserved":false,"is_disabled":false,"rental_uris":{"android":"levelo://app?vid=2cb57f98-29ff-43ef-91cd-01a26af31991","ios":"levelo://app?vid=2cb57f98-29ff-43ef-91cd-01a26af31991"},"vehicle_type_id":"4","last_reported":1726748199,"current_range_meters":22400,"station_id":"","pricing_plan_id":"cebpf4jnsgd1na2vs0mg"},{"bike_id":"c07f4740-ebab-4d5c-b22e-deddf1ddd7da","system_id":"levelo_inurba_marseille","lat":43.2984,"lon":5.36265,"is_reserved":false,"is_disabled":false,"rental_uris":{"android":"levelo://app?vid=c07f4740-ebab-4d5c-b22e-deddf1ddd7da","ios":"levelo://app?vid=c07f4740-ebab-4d5c-b22e-deddf1ddd7da"},"vehicle_type_id":"4","last_reported":1726748199,"current_range_meters":39200,"station_id":"ce4bgpp2rcd13ifvqc3g","pricing_plan_id":"cebpf4jnsgd1na2vs0mg"},{"bike_id":"f11cb198-75de-4d7a-b378-4352168ac96f","system_id":"levelo_inurba_marseille","lat":43.2988,"lon":5.38906,"is_reserved":false,"is_disabled":false,"rental_uris":{"android":"levelo://app?vid=f11cb198-75de-4d7a-b378-4352168ac96f","ios":"levelo://app?vid=f11cb198-75de-4d7a-b378-4352168ac96f"},"vehicle_type_id":"4","last_reported":1726748199,"current_range_meters":17200,"station_id":"ce4bh392rcd13ifvqdl0","pricing_plan_id":"cebpf4jnsgd1na2vs0mg"},{"bike_id":"94d4b6a0-0dd0-43db-8825-ebe5f3cbd6bb","system_id":"levelo_inurba_marseille","lat":43.26559,"lon":5.37284,"is_reserved":false,"is_disabled":false,"rental_uris":{"android":"levelo://app?vid=94d4b6a0-0dd0-43db-8825-ebe5f3cbd6bb","ios":"levelo://app?vid=94d4b6a0-0dd0-43db-8825-ebe5f3cbd6bb"},"vehicle_type_id":"4","last_reported":1726748199,"current_range_meters":26000,"station_id":"ce4bhg12rcd13ifvqf70","pricing_plan_id":"cebpf4jnsgd1na2vs0mg"},{"bike_id":"a811345e-c046-4ee5-87fd-576f86d7c458","system_id":"levelo_inurba_marseille","lat":43.25935,"lon":5.4092,"is_reserved":false,"is_disabled":false,"rental_uris":{"android":"levelo://app?vid=a811345e-c046-4ee5-87fd-576f86d7c458","ios":"levelo://app?vid=a811345e-c046-4ee5-87fd-576f86d7c458"},"vehicle_type_id":"4","last_reported":1726748199,"current_range_meters":37600,"station_id":"ce4bhm92rcd13ifvqglg","pricing_plan_id":"cebpf4jnsgd1na2vs0mg"},{"bike_id":"1fd89a8d-f64a-47f4-884f-f2892f85c821","system_id":"levelo_inurba_marseille","lat":43.25581,"lon":5.38233,"is_reserved":false,"is_disabled":false,"rental_uris":{"android":"levelo://app?vid=1fd89a8d-f64a-47f4-884f-f2892f85c821","ios":"levelo://app?vid=1fd89a8d-f64a-47f4-884f-f2892f85c821"},"vehicle_type_id":"4","last_reported":1726748199,"current_range_meters":17200,"station_id":"ce4bhih2rcd13ifvqfs0","pricing_plan_id":"cebpf4jnsgd1na2vs0mg"},{"bike_id":"884b4613-2a72-46e8-b1fd-814e1222921b","system_id":"levelo_inurba_marseille","lat":43.3055,"lon":5.36701,"is_reserved":false,"is_disabled":false,"rental_uris":{"android":"levelo://app?vid=884b4613-2a72-46e8-b1fd-814e1222921b","ios":"levelo://app?vid=884b4613-2a72-46e8-b1fd-814e1222921b"},"vehicle_type_id":"4","last_reported":1726748199,"current_range_meters":11600,"station_id":"ce4bgrp2rcd13ifvqc9g","pricing_plan_id":"cebpf4jnsgd1na2vs0mg"},{"bike_id":"96010521-6df8-4499-9193-686a24ef9ec2","system_id":"levelo_inurba_marseille","lat":43.30198,"lon":5.36947,"is_reserved":false,"is_disabled":false,"rental_uris":{"android":"levelo://app?vid=96010521-6df8-4499-9193-686a24ef9ec2","ios":"levelo://app?vid=96010521-6df8-4499-9193-686a24ef9ec2"},"vehicle_type_id":"4","last_reported":1726748199,"current_range_meters":16800,"station_id":"","pricing_plan_id":"cebpf4jnsgd1na2vs0mg"},{"bike_id":"58014cc6-4f39-4119-a8a0-cdc0e2507820","system_id":"levelo_inurba_marseille","lat":43.32289,"lon":5.38269,"is_reserved":false,"is_disabled":false,"rental_uris":{"android":"levelo://app?vid=58014cc6-4f39-4119-a8a0-cdc0e2507820","ios":"levelo://app?vid=58014cc6-4f39-4119-a8a0-cdc0e2507820"},"vehicle_type_id":"4","last_reported":1726748199,"current_range_meters":39200,"station_id":"ce4bhr12rcd13ifvqhqg","pricing_plan_id":"cebpf4jnsgd1na2vs0mg"},{"bike_id":"655e94ba-92eb-485d-9f53-279c68f7a8f3","system_id":"levelo_inurba_marseille","lat":43.23179,"lon":5.3999,"is_reserved":false,"is_disabled":false,"rental_uris":{"android":"levelo://app?vid=655e94ba-92eb-485d-9f53-279c68f7a8f3","ios":"levelo://app?vid=655e94ba-92eb-485d-9f53-279c68f7a8f3"},"vehicle_type_id":"4","last_reported":1726748199,"current_range_meters":39200,"station_id":"ce4bhn12rcd13ifvqgqg","pricing_plan_id":"cebpf4jnsgd1na2vs0mg"},{"bike_id":"58a0977a-4560-4644-908f-41ef1eb01cb6","system_id":"levelo_inurba_marseille","lat":43.26952,"lon":5.38628,"is_reserved":false,"is_disabled":false,"rental_uris":{"android":"levelo://app?vid=58a0977a-4560-4644-908f-41ef1eb01cb6","ios":"levelo://app?vid=58a0977a-4560-4644-908f-41ef1eb01cb6"},"vehicle_type_id":"4","last_reported":1726748199,"current_range_meters":30800,"station_id":"ce4bhh92rcd13ifvqfh0","pricing_plan_id":"cebpf4jnsgd1na2vs0mg"},{"bike_id":"9af0c345-e2cf-4dd1-83ef-5ff99965f904","system_id":"levelo_inurba_marseille","lat":43.31693,"lon":5.40474,"is_reserved":false,"is_disabled":false,"rental_uris":{"android":"levelo://app?vid=9af0c345-e2cf-4dd1-83ef-5ff99965f904","ios":"levelo://app?vid=9af0c345-e2cf-4dd1-83ef-5ff99965f904"},"vehicle_type_id":"4","last_reported":1726748199,"current_range_meters":30800,"station_id":"ce4bh012rcd13ifvqd00","pricing_plan_id":"cebpf4jnsgd1na2vs0mg"},{"bike_id":"9942a47b-d751-4701-8db6-fd3aae6ec433","system_id":"levelo_inurba_marseille","lat":43.27487,"lon":5.42459,"is_reserved":false,"is_disabled":false,"rental_uris":{"android":"levelo://app?vid=9942a47b-d751-4701-8db6-fd3aae6ec433","ios":"levelo://app?vid=9942a47b-d751-4701-8db6-fd3aae6ec433"},"vehicle_type_id":"4","last_reported":1726748199,"current_range_meters":30400,"station_id":"ce4bhn92rcd13ifvqgrg","pricing_plan_id":"cebpf4jnsgd1na2vs0mg"},{"bike_id":"e71d0d66-fb17-4f21-bad3-94b71466edd6","system_id":"levelo_inurba_marseille","lat":43.26038,"lon":5.37552,"is_reserved":false,"is_disabled":false,"rental_uris":{"android":"levelo://app?vid=e71d0d66-fb17-4f21-bad3-94b71466edd6","ios":"levelo://app?vid=e71d0d66-fb17-4f21-bad3-94b71466edd6"},"vehicle_type_id":"4","last_reported":1726748199,"current_range_meters":22800,"station_id":"ce4bhgh2rcd13ifvqfa0","pricing_plan_id":"cebpf4jnsgd1na2vs0mg"},{"bike_id":"3a643a13-d852-4164-b5f1-2086ca5ef5c3","system_id":"levelo_inurba_marseille","lat":43.30306,"lon":5.36957,"is_reserved":false,"is_disabled":false,"rental_uris":{"android":"levelo://app?vid=3a643a13-d852-4164-b5f1-2086ca5ef5c3","ios":"levelo://app?vid=3a643a13-d852-4164-b5f1-2086ca5ef5c3"},"vehicle_type_id":"4","last_reported":1726748199,"current_range_meters":14000,"station_id":"ce4bgqh2rcd13ifvqc5g","pricing_plan_id":"cebpf4jnsgd1na2vs0mg"},{"bike_id":"c6e814fd-e15c-4039-bb57-190e90be8dce","system_id":"levelo_inurba_marseille","lat":43.29425,"lon":5.397611,"is_reserved":false,"is_disabled":false,"rental_uris":{"android":"levelo://app?vid=c6e814fd-e15c-4039-bb57-190e90be8dce","ios":"levelo://app?vid=c6e814fd-e15c-4039-bb57-190e90be8dce"},"vehicle_type_id":"4","last_reported":1726748199,"current_range_meters":10000,"station_id":"ce4bho92rcd13ifvqh4g","pricing_plan_id":"cebpf4jnsgd1na2vs0mg"},{"bike_id":"4c3eb29b-ba92-43d4-9c16-c9c30e7237c9","system_id":"levelo_inurba_marseille","lat":43.307958,"lon":5.376517,"is_reserved":false,"is_disabled":false,"rental_uris":{"android":"levelo://app?vid=4c3eb29b-ba92-43d4-9c16-c9c30e7237c9","ios":"levelo://app?vid=4c3eb29b-ba92-43d4-9c16-c9c30e7237c9"},"vehicle_type_id":"4","last_reported":1726748199,"current_range_meters":18800,"station_id":"ce4bgv92rcd13ifvqcq0","pricing_plan_id":"cebpf4jnsgd1na2vs0mg"},{"bike_id":"f88655fb-8466-486f-9041-31878b0e6353","system_id":"levelo_inurba_marseille","lat":43.28268,"lon":5.35061,"is_reserved":false,"is_disabled":false,"rental_uris":{"android":"levelo://app?vid=f88655fb-8466-486f-9041-31878b0e6353","ios":"levelo://app?vid=f88655fb-8466-486f-9041-31878b0e6353"},"vehicle_type_id":"4","last_reported":1726748199,"current_range_meters":29600,"station_id":"ce4bhbp2rcd13ifvqerg","pricing_plan_id":"cebpf4jnsgd1na2vs0mg"},{"bike_id":"de2ac267-ea9e-4478-a7bd-98b3abc98d17","system_id":"levelo_inurba_marseille","lat":43.30282,"lon":5.37696,"is_reserved":false,"is_disabled":false,"rental_uris":{"android":"levelo://app?vid=de2ac267-ea9e-4478-a7bd-98b3abc98d17","ios":"levelo://app?vid=de2ac267-ea9e-4478-a7bd-98b3abc98d17"},"vehicle_type_id":"4","last_reported":1726748199,"current_range_meters":39200,"station_id":"ce4bguh2rcd13ifvqcj0","pricing_plan_id":"cebpf4jnsgd1na2vs0mg"},{"bike_id":"aa09d4bf-de53-42ae-961e-bc4903cddcc9","system_id":"levelo_inurba_marseille","lat":43.29617,"lon":5.37737,"is_reserved":false,"is_disabled":false,"rental_uris":{"android":"levelo://app?vid=aa09d4bf-de53-42ae-961e-bc4903cddcc9","ios":"levelo://app?vid=aa09d4bf-de53-42ae-961e-bc4903cddcc9"},"vehicle_type_id":"4","last_reported":1726748199,"current_range_meters":16000,"station_id":"ce4bgi92rcd13ifvqb90","pricing_plan_id":"cebpf4jnsgd1na2vs0mg"},{"bike_id":"68f8cb7e-282b-4fcf-aaf4-e11e01251265","system_id":"levelo_inurba_marseille","lat":43.27496,"lon":5.42447,"is_reserved":false,"is_disabled":false,"rental_uris":{"android":"levelo://app?vid=68f8cb7e-282b-4fcf-aaf4-e11e01251265","ios":"levelo://app?vid=68f8cb7e-282b-4fcf-aaf4-e11e01251265"},"vehicle_type_id":"4","last_reported":1726748199,"current_range_meters":25200,"station_id":"ce4bhn92rcd13ifvqgrg","pricing_plan_id":"cebpf4jnsgd1na2vs0mg"},{"bike_id":"88a48fe9-7083-48f6-baaa-cbdbf8750843","system_id":"levelo_inurba_marseille","lat":43.29165,"lon":5.37164,"is_reserved":false,"is_disabled":false,"rental_uris":{"android":"levelo://app?vid=88a48fe9-7083-48f6-baaa-cbdbf8750843","ios":"levelo://app?vid=88a48fe9-7083-48f6-baaa-cbdbf8750843"},"vehicle_type_id":"4","last_reported":1726748199,"current_range_meters":37600,"station_id":"ce4bha92rcd13ifvqeh0","pricing_plan_id":"cebpf4jnsgd1na2vs0mg"},{"bike_id":"7ae18afd-0569-41b1-a902-ddc45f658ca0","system_id":"levelo_inurba_marseille","lat":43.30286,"lon":5.37696,"is_reserved":false,"is_disabled":false,"rental_uris":{"android":"levelo://app?vid=7ae18afd-0569-41b1-a902-ddc45f658ca0","ios":"levelo://app?vid=7ae18afd-0569-41b1-a902-ddc45f658ca0"},"vehicle_type_id":"4","last_reported":1726748199,"current_range_meters":28800,"station_id":"ce4bguh2rcd13ifvqcj0","pricing_plan_id":"cebpf4jnsgd1na2vs0mg"},{"bike_id":"daa51682-6cc5-446b-81cf-af7c282f827b","system_id":"levelo_inurba_marseille","lat":43.30273,"lon":5.37711,"is_reserved":false,"is_disabled":false,"rental_uris":{"android":"levelo://app?vid=daa51682-6cc5-446b-81cf-af7c282f827b","ios":"levelo://app?vid=daa51682-6cc5-446b-81cf-af7c282f827b"},"vehicle_type_id":"4","last_reported":1726748199,"current_range_meters":28400,"station_id":"ce4bguh2rcd13ifvqcj0","pricing_plan_id":"cebpf4jnsgd1na2vs0mg"},{"bike_id":"52d8f1b1-98b9-45fd-94a8-cbdea3111140","system_id":"levelo_inurba_marseille","lat":43.29976,"lon":5.37182,"is_reserved":false,"is_disabled":false,"rental_uris":{"android":"levelo://app?vid=52d8f1b1-98b9-45fd-94a8-cbdea3111140","ios":"levelo://app?vid=52d8f1b1-98b9-45fd-94a8-cbdea3111140"},"vehicle_type_id":"4","last_reported":1726748199,"current_range_meters":33200,"station_id":"ce4bgr92rcd13ifvqc7g","pricing_plan_id":"cebpf4jnsgd1na2vs0mg"},{"bike_id":"6b6c4fab-0bd1-4725-a1b7-466b87a727bc","system_id":"levelo_inurba_marseille","lat":43.3053,"lon":5.36534,"is_reserved":false,"is_disabled":false,"rental_uris":{"android":"levelo://app?vid=6b6c4fab-0bd1-4725-a1b7-466b87a727bc","ios":"levelo://app?vid=6b6c4fab-0bd1-4725-a1b7-466b87a727bc"},"vehicle_type_id":"4","last_reported":1726748199,"current_range_meters":26000,"station_id":"ce4bgs12rcd13ifvqcag","pricing_plan_id":"cebpf4jnsgd1na2vs0mg"},{"bike_id":"f5aef7be-d919-4420-8615-8bf43297f539","system_id":"levelo_inurba_marseille","lat":43.29006,"lon":5.35612,"is_reserved":false,"is_disabled":false,"rental_uris":{"android":"levelo://app?vid=f5aef7be-d919-4420-8615-8bf43297f539","ios":"levelo://app?vid=f5aef7be-d919-4420-8615-8bf43297f539"},"vehicle_type_id":"4","last_reported":1726748199,"current_range_meters":19200,"station_id":"ce4bhb92rcd13ifvqen0","pricing_plan_id":"cebpf4jnsgd1na2vs0mg"},{"bike_id":"4018871b-e691-4492-a5fe-496f0cda8b66","system_id":"levelo_inurba_marseille","lat":43.27492,"lon":5.42456,"is_reserved":false,"is_disabled":false,"rental_uris":{"android":"levelo://app?vid=4018871b-e691-4492-a5fe-496f0cda8b66","ios":"levelo://app?vid=4018871b-e691-4492-a5fe-496f0cda8b66"},"vehicle_type_id":"4","last_reported":1726748199,"current_range_meters":35600,"station_id":"ce4bhn92rcd13ifvqgrg","pricing_plan_id":"cebpf4jnsgd1na2vs0mg"},{"bike_id":"1ac23373-1d9e-469d-b9c9-0fa13157db30","system_id":"levelo_inurba_marseille","lat":43.22926,"lon":5.35372,"is_reserved":false,"is_disabled":false,"rental_uris":{"android":"levelo://app?vid=1ac23373-1d9e-469d-b9c9-0fa13157db30","ios":"levelo://app?vid=1ac23373-1d9e-469d-b9c9-0fa13157db30"},"vehicle_type_id":"4","last_reported":1726748199,"current_range_meters":19200,"station_id":"cpo3532slgdg3j2ikp40","pricing_plan_id":"cebpf4jnsgd1na2vs0mg"},{"bike_id":"fa2e946d-01fe-4bb4-a2b0-55af60a0bcec","system_id":"levelo_inurba_marseille","lat":43.33723,"lon":5.39183,"is_reserved":false,"is_disabled":false,"rental_uris":{"android":"levelo://app?vid=fa2e946d-01fe-4bb4-a2b0-55af60a0bcec","ios":"levelo://app?vid=fa2e946d-01fe-4bb4-a2b0-55af60a0bcec"},"vehicle_type_id":"4","last_reported":1726748199,"current_range_meters":38400,"station_id":"ce4bhr92rcd13ifvqhsg","pricing_plan_id":"cebpf4jnsgd1na2vs0mg"},{"bike_id":"66e0bce5-7a8c-4774-9d69-a51d44e3a420","system_id":"levelo_inurba_marseille","lat":43.30884,"lon":5.39655,"is_reserved":false,"is_disabled":false,"rental_uris":{"android":"levelo://app?vid=66e0bce5-7a8c-4774-9d69-a51d44e3a420","ios":"levelo://app?vid=66e0bce5-7a8c-4774-9d69-a51d44e3a420"},"vehicle_type_id":"4","last_reported":1726748199,"current_range_meters":10000,"station_id":"ce4bh012rcd13ifvqcv0","pricing_plan_id":"cebpf4jnsgd1na2vs0mg"},{"bike_id":"48ef6c2f-00be-428e-8b7a-979bb45c48b7","system_id":"levelo_inurba_marseille","lat":43.27818,"lon":5.40708,"is_reserved":false,"is_disabled":false,"rental_uris":{"android":"levelo://app?vid=48ef6c2f-00be-428e-8b7a-979bb45c48b7","ios":"levelo://app?vid=48ef6c2f-00be-428e-8b7a-979bb45c48b7"},"vehicle_type_id":"4","last_reported":1726748199,"current_range_meters":38000,"station_id":"ce4bhnh2rcd13ifvqgtg","pricing_plan_id":"cebpf4jnsgd1na2vs0mg"},{"bike_id":"ba4475d2-dc26-48c6-81d7-f2405336a72a","system_id":"levelo_inurba_marseille","lat":43.2695,"lon":5.38641,"is_reserved":false,"is_disabled":false,"rental_uris":{"android":"levelo://app?vid=ba4475d2-dc26-48c6-81d7-f2405336a72a","ios":"levelo://app?vid=ba4475d2-dc26-48c6-81d7-f2405336a72a"},"vehicle_type_id":"4","last_reported":1726748199,"current_range_meters":25600,"station_id":"ce4bhh92rcd13ifvqfh0","pricing_plan_id":"cebpf4jnsgd1na2vs0mg"},{"bike_id":"6f25435d-a9fe-4de6-8921-4f4064a1c012","system_id":"levelo_inurba_marseille","lat":43.25932,"lon":5.40913,"is_reserved":false,"is_disabled":false,"rental_uris":{"android":"levelo://app?vid=6f25435d-a9fe-4de6-8921-4f4064a1c012","ios":"levelo://app?vid=6f25435d-a9fe-4de6-8921-4f4064a1c012"},"vehicle_type_id":"4","last_reported":1726748199,"current_range_meters":23200,"station_id":"ce4bhm92rcd13ifvqglg","pricing_plan_id":"cebpf4jnsgd1na2vs0mg"},{"bike_id":"a8a54d34-1a50-45c0-9fc8-ef3e2e35eb08","system_id":"levelo_inurba_marseille","lat":43.30913,"lon":5.3686,"is_reserved":false,"is_disabled":false,"rental_uris":{"android":"levelo://app?vid=a8a54d34-1a50-45c0-9fc8-ef3e2e35eb08","ios":"levelo://app?vid=a8a54d34-1a50-45c0-9fc8-ef3e2e35eb08"},"vehicle_type_id":"4","last_reported":1726748199,"current_range_meters":14000,"station_id":"ce4bgn92rcd13ifvqbvg","pricing_plan_id":"cebpf4jnsgd1na2vs0mg"},{"bike_id":"328d45f9-980e-4811-97c0-47d761861509","system_id":"levelo_inurba_marseille","lat":43.29847,"lon":5.37836,"is_reserved":false,"is_disabled":false,"rental_uris":{"android":"levelo://app?vid=328d45f9-980e-4811-97c0-47d761861509","ios":"levelo://app?vid=328d45f9-980e-4811-97c0-47d761861509"},"vehicle_type_id":"4","last_reported":1726748199,"current_range_meters":6800,"station_id":"","pricing_plan_id":"cebpf4jnsgd1na2vs0mg"},{"bike_id":"bb9b4bce-c17a-48f0-b124-d7895eb6479f","system_id":"levelo_inurba_marseille","lat":43.30335,"lon":5.40426,"is_reserved":false,"is_disabled":false,"rental_uris":{"android":"levelo://app?vid=bb9b4bce-c17a-48f0-b124-d7895eb6479f","ios":"levelo://app?vid=bb9b4bce-c17a-48f0-b124-d7895eb6479f"},"vehicle_type_id":"4","last_reported":1726748199,"current_range_meters":28000,"station_id":"ce4bh012rcd13ifvqd10","pricing_plan_id":"cebpf4jnsgd1na2vs0mg"},{"bike_id":"f7d6ebe9-9c58-4e75-93ea-44df4efa6a22","system_id":"levelo_inurba_marseille","lat":43.30544,"lon":5.36705,"is_reserved":false,"is_disabled":false,"rental_uris":{"android":"levelo://app?vid=f7d6ebe9-9c58-4e75-93ea-44df4efa6a22","ios":"levelo://app?vid=f7d6ebe9-9c58-4e75-93ea-44df4efa6a22"},"vehicle_type_id":"4","last_reported":1726748199,"current_range_meters":38400,"station_id":"ce4bgrp2rcd13ifvqc9g","pricing_plan_id":"cebpf4jnsgd1na2vs0mg"},{"bike_id":"01cd51da-b961-4bd0-adee-b192b3b29a9f","system_id":"levelo_inurba_marseille","lat":43.27501,"lon":5.4245,"is_reserved":false,"is_disabled":false,"rental_uris":{"android":"levelo://app?vid=01cd51da-b961-4bd0-adee-b192b3b29a9f","ios":"levelo://app?vid=01cd51da-b961-4bd0-adee-b192b3b29a9f"},"vehicle_type_id":"4","last_reported":1726748199,"current_range_meters":30800,"station_id":"ce4bhn92rcd13ifvqgrg","pricing_plan_id":"cebpf4jnsgd1na2vs0mg"},{"bike_id":"5ac3b8a7-55dc-4f8f-9f95-ea6944c388ca","system_id":"levelo_inurba_marseille","lat":43.28718,"lon":5.38454,"is_reserved":false,"is_disabled":false,"rental_uris":{"android":"levelo://app?vid=5ac3b8a7-55dc-4f8f-9f95-ea6944c388ca","ios":"levelo://app?vid=5ac3b8a7-55dc-4f8f-9f95-ea6944c388ca"},"vehicle_type_id":"4","last_reported":1726748199,"current_range_meters":19600,"station_id":"ce4bgkp2rcd13ifvqbmg","pricing_plan_id":"cebpf4jnsgd1na2vs0mg"},{"bike_id":"7f74fc9e-b0a4-43d0-8b3e-945d61ceba2b","system_id":"levelo_inurba_marseille","lat":43.33024,"lon":5.39035,"is_reserved":false,"is_disabled":false,"rental_uris":{"android":"levelo://app?vid=7f74fc9e-b0a4-43d0-8b3e-945d61ceba2b","ios":"levelo://app?vid=7f74fc9e-b0a4-43d0-8b3e-945d61ceba2b"},"vehicle_type_id":"4","last_reported":1726748199,"current_range_meters":30400,"station_id":"ce4bhr92rcd13ifvqhrg","pricing_plan_id":"cebpf4jnsgd1na2vs0mg"},{"bike_id":"a89c82f1-f553-4b80-bb9e-a0275ef75e9a","system_id":"levelo_inurba_marseille","lat":43.30119,"lon":5.39668,"is_reserved":false,"is_disabled":false,"rental_uris":{"android":"levelo://app?vid=a89c82f1-f553-4b80-bb9e-a0275ef75e9a","ios":"levelo://app?vid=a89c82f1-f553-4b80-bb9e-a0275ef75e9a"},"vehicle_type_id":"4","last_reported":1726748199,"current_range_meters":28800,"station_id":"ce4bh0p2rcd13ifvqd70","pricing_plan_id":"cebpf4jnsgd1na2vs0mg"},{"bike_id":"49334463-27e3-4155-b0f7-52fbf71dd4f5","system_id":"levelo_inurba_marseille","lat":43.26681,"lon":5.38268,"is_reserved":false,"is_disabled":false,"rental_uris":{"android":"levelo://app?vid=49334463-27e3-4155-b0f7-52fbf71dd4f5","ios":"levelo://app?vid=49334463-27e3-4155-b0f7-52fbf71dd4f5"},"vehicle_type_id":"4","last_reported":1726748199,"current_range_meters":39200,"station_id":"ce4bhg92rcd13ifvqf90","pricing_plan_id":"cebpf4jnsgd1na2vs0mg"},{"bike_id":"fa690805-233a-4a70-a9f3-33f1b67cdb1f","system_id":"levelo_inurba_marseille","lat":43.32283,"lon":5.3825,"is_reserved":false,"is_disabled":false,"rental_uris":{"android":"levelo://app?vid=fa690805-233a-4a70-a9f3-33f1b67cdb1f","ios":"levelo://app?vid=fa690805-233a-4a70-a9f3-33f1b67cdb1f"},"vehicle_type_id":"4","last_reported":1726748199,"current_range_meters":24000,"station_id":"ce4bhr12rcd13ifvqhqg","pricing_plan_id":"cebpf4jnsgd1na2vs0mg"},{"bike_id":"71a86551-9fba-4951-ba93-626be45a6760","system_id":"levelo_inurba_marseille","lat":43.25934,"lon":5.40912,"is_reserved":false,"is_disabled":false,"rental_uris":{"android":"levelo://app?vid=71a86551-9fba-4951-ba93-626be45a6760","ios":"levelo://app?vid=71a86551-9fba-4951-ba93-626be45a6760"},"vehicle_type_id":"4","last_reported":1726748199,"current_range_meters":21600,"station_id":"ce4bhm92rcd13ifvqglg","pricing_plan_id":"cebpf4jnsgd1na2vs0mg"},