{"last_updated":1746256160,"ttl":60,"version":"2.2","data":{"bikes":[{"bike_id":"51ef9827-05d4-4f72-abc3-c6fec8c5a095","system_id":"levelo_inurba_marseille","lat":43.23158,"lon":5.43717,"is_reserved":false,"is_disabled":true,"rental_uris":{"android":"levelo://app?vid=51ef9827-05d4-4f72-abc3-c6fec8c5a095","ios":"levelo://app?vid=51ef9827-05d4-4f72-abc3-c6fec8c5a095"},"vehicle_type_id":"4","last_reported":1746256160,"current_range_meters":2800,"station_id":"ce4bhmp2rcd13ifvqgog","pricing_plan_id":"cebpf4jnsgd1na2vs0mg"},{"bike_id":"f0773e55-3c03-408c-b52d-9fefc787e6d2","system_id":"levelo_inurba_marseille","lat":43.2915,"lon":5.38595,"is_reserved":false,"is_disabled":false,"rental_uris":{"android":"levelo://app?vid=f0773e55-3c03-408c-b52d-9fefc787e6d2","ios":"levelo://app?vid=f0773e55-3c03-408c-b52d-9fefc787e6d2"},"vehicle_type_id":"4","last_reported":1746256160,"current_range_meters":2800,"station_id":"","pricing_plan_id":"cebpf4jnsgd1na2vs0mg"},{"bike_id":"6316c3a1-11c3-41c4-901c-62bb4e94cb6a","system_id":"levelo_inurba_marseille","lat":43.30142,"lon":5.38087,"is_reserved":false,"is_disabled":false,"rental_uris":{"android":"levelo://app?vid=6316c3a1-11c3-41c4-901c-62bb4e94cb6a","ios":"levelo://app?vid=6316c3a1-11c3-41c4-901c-62bb4e94cb6a"},"vehicle_type_id":"4","last_reported":1746256160,"current_range_meters":2800,"station_id":"ce4bgjp2rcd13ifvqbh0","pricing_plan_id":"cebpf4jnsgd1na2vs0mg"},{"bike_id":"39fb05fe-e3be-4147-a9f3-c02a474160a2","system_id":"levelo_inurba_marseille","lat":43.24169,"lon":5.36404,"is_reserved":false,"is_disabled":true,"rental_uris":{"android":"levelo://app?vid=39fb05fe-e3be-4147-a9f3-c02a474160a2","ios":"levelo://app?vid=39fb05fe-e3be-4147-a9f3-c02a474160a2"},"vehicle_type_id":"4","last_reported":1746256160,"current_range_meters":2800,"station_id":"cpo36qri1sfpv3e86is0","pricing_plan_id":"cebpf4jnsgd1na2vs0mg"},{"bike_id":"cc02b054-9357-4748-9f20-0b65ad4f4c1f","system_id":"levelo_inurba_marseille","lat":43.30155,"lon":5.38089,"is_reserved":false,"is_disabled":false,"rental_uris":{"android":"levelo://app?vid=cc02b054-9357-4748-9f20-0b65ad4f4c1f","ios":"levelo://app?vid=cc02b054-9357-4748-9f20-0b65ad4f4c1f"},"vehicle_type_id":"4","last_reported":1746256160,"current_range_meters":2800,"station_id":"ce4bgjp2rcd13ifvqbh0","pricing_plan_id":"cebpf4jnsgd1na2vs0mg"},{"bike_id":"277b09f7-c239-408c-a98f-da7583ea5f2b","system_id":"levelo_inurba_marseille","lat":43.28527,"lon":5.39208,"is_reserved":false,"is_disabled":false,"rental_uris":{"android":"levelo://app?vid=277b09f7-c239-408c-a98f-da7583ea5f2b","ios":"levelo://app?vid=277b09f7-c239-408c-a98f-da7583ea5f2b"},"vehicle_type_id":"4","last_reported":1746256160,"current_range_meters":2800,"station_id":"","pricing_plan_id":"cebpf4jnsgd1na2vs0mg"},{"bike_id":"34294dd3-b27d-4ffb-860f-a93d9867f32f","system_id":"levelo_inurba_marseille","lat":43.25088,"lon":5.39498,"is_reserved":false,"is_disabled":false,"rental_uris":{"android":"levelo://app?vid=34294dd3-b27d-4ffb-860f-a93d9867f32f","ios":"levelo://app?vid=34294dd3-b27d-4ffb-860f-a93d9867f32f"},"vehicle_type_id":"4","last_reported":1746256160,"current_range_meters":2800,"station_id":"ce4bhm12rcd13ifvqgkg","pricing_plan_id":"cebpf4jnsgd1na2vs0mg"},{"bike_id":"1e0a121b-2ab4-47e0-9e7d-e7a1038843e4","system_id":"levelo_inurba_marseille","lat":43.3149,"lon":5.37286,"is_reserved":false,"is_disabled":false,"rental_uris":{"android":"levelo://app?vid=1e0a121b-2ab4-47e0-9e7d-e7a1038843e4","ios":"levelo://app?vid=1e0a121b-2ab4-47e0-9e7d-e7a1038843e4"},"vehicle_type_id":"4","last_reported":1746256160,"current_range_meters":2800,"station_id":"ce4bgt12rcd13ifvqcd0","pricing_plan_id":"cebpf4jnsgd1na2vs0mg"},{"bike_id":"0c031223-071b-45e2-9887-32e2c15af234","system_id":"levelo_inurba_marseille","lat":43.274969,"lon":5.424538,"is_reserved":false,"is_disabled":false,"rental_uris":{"android":"levelo://app?vid=0c031223-071b-45e2-9887-32e2c15af234","ios":"levelo://app?vid=0c031223-071b-45e2-9887-32e2c15af234"},"vehicle_type_id":"4","last_reported":1746256160,"current_range_meters":3200,"station_id":"ce4bhn92rcd13ifvqgrg","pricing_plan_id":"cebpf4jnsgd1na2vs0mg"},{"bike_id":"f4f63859-7e83-44c9-8822-c6e00bd4414c","system_id":"levelo_inurba_marseille","lat":43.29254,"lon":5.40927,"is_reserved":false,"is_disabled":true,"rental_uris":{"android":"levelo://app?vid=f4f63859-7e83-44c9-8822-c6e00bd4414c","ios":"levelo://app?vid=f4f63859-7e83-44c9-8822-c6e00bd4414c"},"vehicle_type_id":"4","last_reported":1746256160,"current_range_meters":3200,"station_id":"ce4bh192rcd13ifvqdc0","pricing_plan_id":"cebpf4jnsgd1na2vs0mg"},{"bike_id":"78624489-31c2-4bb0-b88f-52edc4635597","system_id":"levelo_inurba_marseille","lat":43.30242,"lon":5.40053,"is_reserved":false,"is_disabled":false,"rental_uris":{"android":"levelo://app?vid=78624489-31c2-4bb0-b88f-52edc4635597","ios":"levelo://app?vid=78624489-31c2-4bb0-b88f-52edc4635597"},"vehicle_type_id":"4","last_reported":1746256160,"current_range_meters":3200,"station_id":"ce4bgvh2rcd13ifvqcs0","pricing_plan_id":"cebpf4jnsgd1na2vs0mg"},{"bike_id":"885d5381-9902-418c-bec9-d084ccc99c30","system_id":"levelo_inurba_marseille","lat":43.24199,"lon":5.39721,"is_reserved":false,"is_disabled":false,"rental_uris":{"android":"levelo://app?vid=885d5381-9902-418c-bec9-d084ccc99c30","ios":"levelo://app?vid=885d5381-9902-418c-bec9-d084ccc99c30"},"vehicle_type_id":"4","last_reported":1746256160,"current_range_meters":3200,"station_id":"ce4bhn12rcd13ifvqgpg","pricing_plan_id":"cebpf4jnsgd1na2vs0mg"},{"bike_id":"fb1a961d-a942-4d57-b471-468013633b9d","system_id":"levelo_inurba_marseille","lat":43.298992,"lon":5.43663,"is_reserved":false,"is_disabled":false,"rental_uris":{"android":"levelo://app?vid=fb1a961d-a942-4d57-b471-468013633b9d","ios":"levelo://app?vid=fb1a961d-a942-4d57-b471-468013633b9d"},"vehicle_type_id":"4","last_reported":1746256160,"current_range_meters":3200,"station_id":"ce4bhpp2rcd13ifvqhfg","pricing_plan_id":"cebpf4jnsgd1na2vs0mg"},{"bike_id":"56c2a0ae-09a7-4f7b-b71e-617f925a787c","system_id":"levelo_inurba_marseille","lat":43.25121,"lon":5.404,"is_reserved":false,"is_disabled":false,"rental_uris":{"android":"levelo://app?vid=56c2a0ae-09a7-4f7b-b71e-617f925a787c","ios":"levelo://app?vid=56c2a0ae-09a7-4f7b-b71e-617f925a787c"},"vehicle_type_id":"4","last_reported":1746256160,"current_range_meters":4000,"station_id":"ce4bhlh2rcd13ifvqgig","pricing_plan_id":"cebpf4jnsgd1na2vs0mg"},{"bike_id":"0fc506d3-df3d-4442-9770-6467191e987a","system_id":"levelo_inurba_marseille","lat":43.29287,"lon":5.4016,"is_reserved":false,"is_disabled":true,"rental_uris":{"android":"levelo://app?vid=0fc506d3-df3d-4442-9770-6467191e987a","ios":"levelo://app?vid=0fc506d3-df3d-4442-9770-6467191e987a"},"vehicle_type_id":"4","last_reported":1746256160,"current_range_meters":4400,"station_id":"ce4bh312rcd13ifvqdk0","pricing_plan_id":"cebpf4jnsgd1na2vs0mg"},{"bike_id":"b83fde30-817f-4ac4-9298-d090a6421e2d","system_id":"levelo_inurba_marseille","lat":43.28159,"lon":5.42681,"is_reserved":false,"is_disabled":false,"rental_uris":{"android":"levelo://app?vid=b83fde30-817f-4ac4-9298-d090a6421e2d","ios":"levelo://app?vid=b83fde30-817f-4ac4-9298-d090a6421e2d"},"vehicle_type_id":"4","last_reported":1746256160,"current_range_meters":4400,"station_id":"ce4bhnh2rcd13ifvqgug","pricing_plan_id":"cebpf4jnsgd1na2vs0mg"},{"bike_id":"4c5fc754-2742-4497-96bc-a748d8b6f062","system_id":"levelo_inurba_marseille","lat":43.30606,"lon":5.37226,"is_reserved":false,"is_disabled":false,"rental_uris":{"android":"levelo://app?vid=4c5fc754-2742-4497-96bc-a748d8b6f062","ios":"levelo://app?vid=4c5fc754-2742-4497-96bc-a748d8b6f062"},"vehicle_type_id":"4","last_reported":1746256160,"current_range_meters":4400,"station_id":"ce4bgqh2rcd13ifvqc4g","pricing_plan_id":"cebpf4jnsgd1na2vs0mg"},{"bike_id":"2f71615f-fa03-4d2a-9c1c-fb4ac9b5ae83","system_id":"levelo_inurba_marseille","lat":43.284672,"lon":5.358875,"is_reserved":false,"is_disabled":false,"rental_uris":{"android":"levelo://app?vid=2f71615f-fa03-4d2a-9c1c-fb4ac9b5ae83","ios":"levelo://app?vid=2f71615f-fa03-4d2a-9c1c-fb4ac9b5ae83"},"vehicle_type_id":"4","last_reported":1746256160,"current_range_meters":4800,"station_id":"ce4bhah2rcd13ifvqei0","pricing_plan_id":"cebpf4jnsgd1na2vs0mg"},{"bike_id":"4fcb94dd-7e2e-4c2b-a657-b8760b2238dc","system_id":"levelo_inurba_marseille","lat":43.259419,"lon":5.409055,"is_reserved":false,"is_disabled":false,"rental_uris":{"android":"levelo://app?vid=4fcb94dd-7e2e-4c2b-a657-b8760b2238dc","ios":"levelo://app?vid=4fcb94dd-7e2e-4c2b-a657-b8760b2238dc"},"vehicle_type_id":"4","last_reported":1746256160,"current_range_meters":4800,"station_id":"ce4bhm92rcd13ifvqglg","pricing_plan_id":"cebpf4jnsgd1na2vs0mg"},{"bike_id":"2be6c5ac-db75-4c9d-95c6-9c66882f14b8","system_id":"levelo_inurba_marseille","lat":43.27894,"lon":5.36301,"is_reserved":false,"is_disabled":false,"rental_uris":{"android":"levelo://app?vid=2be6c5ac-db75-4c9d-95c6-9c66882f14b8","ios":"levelo://app?vid=2be6c5ac-db75-4c9d-95c6-9c66882f14b8"},"vehicle_type_id":"4","last_reported":1746256160,"current_range_meters":4800,"station_id":"","pricing_plan_id":"cebpf4jnsgd1na2vs0mg"},{"bike_id":"46891aa3-e83e-4762-afe3-664e0a835d08","system_id":"levelo_inurba_marseille","lat":43.27836,"lon":5.39211,"is_reserved":false,"is_disabled":false,"rental_uris":{"android":"levelo://app?vid=46891aa3-e83e-4762-afe3-664e0a835d08","ios":"levelo://app?vid=46891aa3-e83e-4762-afe3-664e0a835d08"},"vehicle_type_id":"4","last_reported":1746256160,"current_range_meters":4400,"station_id":"ce4bhjp2rcd13ifvqga0","pricing_plan_id":"cebpf4jnsgd1na2vs0mg"},{"bike_id":"d814cc65-3e16-49d8-a9a0-2b9e33cd756b","system_id":"levelo_inurba_marseille","lat":43.28936,"lon":5.39633,"is_reserved":false,"is_disabled":false,"rental_uris":{"android":"levelo://app?vid=d814cc65-3e16-49d8-a9a0-2b9e33cd756b","ios":"levelo://app?vid=d814cc65-3e16-49d8-a9a0-2b9e33cd756b"},"vehicle_type_id":"4","last_reported":1746256160,"current_range_meters":4800,"station_id":"ce4bh3h2rcd13ifvqdn0","pricing_plan_id":"cebpf4jnsgd1na2vs0mg"},{"bike_id":"f73daf93-45c7-48c0-a61a-2d28ac89db8d","system_id":"levelo_inurba_marseille","lat":43.33959,"lon":5.42048,"is_reserved":false,"is_disabled":false,"rental_uris":{"android":"levelo://app?vid=f73daf93-45c7-48c0-a61a-2d28ac89db8d","ios":"levelo://app?vid=f73daf93-45c7-48c0-a61a-2d28ac89db8d"},"vehicle_type_id":"4","last_reported":1746256160,"current_range_meters":4800,"station_id":"","pricing_plan_id":"cebpf4jnsgd1na2vs0mg"},{"bike_id":"d9142c43-4a48-44b1-8803-77aa66ad641e","system_id":"levelo_inurba_marseille","lat":43.3045,"lon":5.37906,"is_reserved":false,"is_disabled":false,"rental_uris":{"android":"levelo://app?vid=d9142c43-4a48-44b1-8803-77aa66ad641e","ios":"levelo://app?vid=d9142c43-4a48-44b1-8803-77aa66ad641e"},"vehicle_type_id":"4","last_reported":1746256160,"current_range_meters":5600,"station_id":"ce4bgup2rcd13ifvqcn0","pricing_plan_id":"cebpf4jnsgd1na2vs0mg"},{"bike_id":"e545d50d-dea5-4b60-9a3e-1f35c7498f0b","system_id":"levelo_inurba_marseille","lat":43.25101,"lon":5.40333,"is_reserved":false,"is_disabled":true,"rental_uris":{"android":"levelo://app?vid=e545d50d-dea5-4b60-9a3e-1f35c7498f0b","ios":"levelo://app?vid=e545d50d-dea5-4b60-9a3e-1f35c7498f0b"},"vehicle_type_id":"4","last_reported":1746256160,"current_range_meters":5600,"station_id":"ce4bhlh2rcd13ifvqgig","pricing_plan_id":"cebpf4jnsgd1na2vs0mg"},{"bike_id":"f31150ca-f4e5-41a0-9e44-2e088c26b9d0","system_id":"levelo_inurba_marseille","lat":43.28047,"lon":5.36955,"is_reserved":false,"is_disabled":false,"rental_uris":{"android":"levelo://app?vid=f31150ca-f4e5-41a0-9e44-2e088c26b9d0","ios":"levelo://app?vid=f31150ca-f4e5-41a0-9e44-2e088c26b9d0"},"vehicle_type_id":"4","last_reported":1746256160,"current_range_meters":5600,"station_id":"ce4bha12rcd13ifvqef0","pricing_plan_id":"cebpf4jnsgd1na2vs0mg"},{"bike_id":"982eef7d-5715-495a-ba00-983eb7c9f9c2","system_id":"levelo_inurba_marseille","lat":43.31114,"lon":5.37772,"is_reserved":false,"is_disabled":false,"rental_uris":{"android":"levelo://app?vid=982eef7d-5715-495a-ba00-983eb7c9f9c2","ios":"levelo://app?vid=982eef7d-5715-495a-ba00-983eb7c9f9c2"},"vehicle_type_id":"4","last_reported":1746256160,"current_range_meters":5600,"station_id":"ce4bgt92rcd13ifvqcg0","pricing_plan_id":"cebpf4jnsgd1na2vs0mg"},{"bike_id":"03ced9d9-9b3b-41bc-aef9-99849ba401c5","system_id":"levelo_inurba_marseille","lat":43.28501,"lon":5.38567,"is_reserved":false,"is_disabled":false,"rental_uris":{"android":"levelo://app?vid=03ced9d9-9b3b-41bc-aef9-99849ba401c5","ios":"levelo://app?vid=03ced9d9-9b3b-41bc-aef9-99849ba401c5"},"vehicle_type_id":"4","last_reported":1746256160,"current_range_meters":6000,"station_id":"ce4bh8p2rcd13ifvqeb0","pricing_plan_id":"cebpf4jnsgd1na2vs0mg"},{"bike_id":"ee49d34d-334f-42a3-9509-f7be509b03ba","system_id":"levelo_inurba_marseille","lat":43.240661,"lon":5.377604,"is_reserved":false,"is_disabled":false,"rental_uris":{"android":"levelo://app?vid=ee49d34d-334f-42a3-9509-f7be509b03ba","ios":"levelo://app?vid=ee49d34d-334f-42a3-9509-f7be509b03ba"},"vehicle_type_id":"4","last_reported":1746256160,"current_range_meters":6000,"station_id":"ce4bhnp2rcd13ifvqgvg","pricing_plan_id":"cebpf4jnsgd1na2vs0mg"},{"bike_id":"13a0eee6-6a47-49f8-a73d-89a44944b1ca","system_id":"levelo_inurba_marseille","lat":43.289894,"lon":5.37836,"is_reserved":false,"is_disabled":false,"rental_uris":{"android":"levelo://app?vid=13a0eee6-6a47-49f8-a73d-89a44944b1ca","ios":"levelo://app?vid=13a0eee6-6a47-49f8-a73d-89a44944b1ca"},"vehicle_type_id":"4","last_reported":1746256160,"current_range_meters":6000,"station_id":"","pricing_plan_id":"cebpf4jnsgd1na2vs0mg"},{"bike_id":"34d82e56-d819-45e9-ae4f-e18306b1ae62","system_id":"levelo_inurba_marseille","lat":43.335982,"lon":5.410315,"is_reserved":false,"is_disabled":false,"rental_uris":{"android":"levelo://app?vid=34d82e56-d819-45e9-ae4f-e18306b1ae62","ios":"levelo://app?vid=34d82e56-d819-45e9-ae4f-e18306b1ae62"},"vehicle_type_id":"4","last_reported":1746256160,"current_range_meters":6000,"station_id":"ce4bhqh2rcd13ifvqhmg","pricing_plan_id":"cebpf4jnsgd1na2vs0mg"},{"bike_id":"7971fe93-5f1d-4a59-8508-b415e64fcb18","system_id":"levelo_inurba_marseille","lat":43.309375,"lon":5.373761,"is_reserved":false,"is_disabled":false,"rental_uris":{"android":"levelo://app?vid=7971fe93-5f1d-4a59-8508-b415e64fcb18","ios":"levelo://app?vid=7971fe93-5f1d-4a59-8508-b415e64fcb18"},"vehicle_type_id":"4","last_reported":1746256160,"current_range_meters":6000,"station_id":"","pricing_plan_id":"cebpf4jnsgd1na2vs0mg"},{"bike_id":"0d6c5100-7db5-44d0-b9d6-cf2b96014798","system_id":"levelo_inurba_marseille","lat":43.31041,"lon":5.37484,"is_reserved":false,"is_disabled":false,"rental_uris":{"android":"levelo://app?vid=0d6c5100-7db5-44d0-b9d6-cf2b96014798","ios":"levelo://app?vid=0d6c5100-7db5-44d0-b9d6-cf2b96014798"},"vehicle_type_id":"4","last_reported":1746256160,"current_range_meters":6400,"station_id":"","pricing_plan_id":"cebpf4jnsgd1na2vs0mg"},{"bike_id":"9a6e0384-4e87-40c9-88ea-ddade03372a5","system_id":"levelo_inurba_marseille","lat":43.31095,"lon":5.37751,"is_reserved":false,"is_disabled":false,"rental_uris":{"android":"levelo://app?vid=9a6e0384-4e87-40c9-88ea-ddade03372a5","ios":"levelo://app?vid=9a6e0384-4e87-40c9-88ea-ddade03372a5"},"vehicle_type_id":"4","last_reported":1746256160,"current_range_meters":6400,"station_id":"ce4bgt92rcd13ifvqcg0","pricing_plan_id":"cebpf4jnsgd1na2vs0mg"},{"bike_id":"4329da6d-6d94-4692-b5aa-bf046167bec9","system_id":"levelo_inurba_marseille","lat":43.30144,"lon":5.38089,"is_reserved":false,"is_disabled":false,"rental_uris":{"android":"levelo://app?vid=4329da6d-6d94-4692-b5aa-bf046167bec9","ios":"levelo://app?vid=4329da6d-6d94-4692-b5aa-bf046167bec9"},"vehicle_type_id":"4","last_reported":1746256160,"current_range_meters":6800,"station_id":"ce4bgjp2rcd13ifvqbh0","pricing_plan_id":"cebpf4jnsgd1na2vs0mg"},{"bike_id":"5e635300-2556-4fb7-9378-52f49b08ba86","system_id":"levelo_inurba_marseille","lat":43.29257,"lon":5.40903,"is_reserved":false,"is_disabled":false,"rental_uris":{"android":"levelo://app?vid=5e635300-2556-4fb7-9378-52f49b08ba86","ios":"levelo://app?vid=5e635300-2556-4fb7-9378-52f49b08ba86"},"vehicle_type_id":"4","last_reported":1746256160,"current_range_meters":6800,"station_id":"ce4bh192rcd13ifvqdc0","pricing_plan_id":"cebpf4jnsgd1na2vs0mg"},{"bike_id":"0f1e82ca-def0-4d6c-9036-9c84f9292155","system_id":"levelo_inurba_marseille","lat":43.30408,"lon":5.41312,"is_reserved":false,"is_disabled":false,"rental_uris":{"android":"levelo://app?vid=0f1e82ca-def0-4d6c-9036-9c84f9292155","ios":"levelo://app?vid=0f1e82ca-def0-4d6c-9036-9c84f9292155"},"vehicle_type_id":"4","last_reported":1746256160,"current_range_meters":6800,"station_id":"ce4bhop2rcd13ifvqh8g","pricing_plan_id":"cebpf4jnsgd1na2vs0mg"},{"bike_id":"2d87f24b-bb92-4f5a-9c64-611905425c8d","system_id":"levelo_inurba_marseille","lat":43.23667,"lon":5.39143,"is_reserved":false,"is_disabled":true,"rental_uris":{"android":"levelo://app?vid=2d87f24b-bb92-4f5a-9c64-611905425c8d","ios":"levelo://app?vid=2d87f24b-bb92-4f5a-9c64-611905425c8d"},"vehicle_type_id":"4","last_reported":1746256160,"current_range_meters":7200,"station_id":"","pricing_plan_id":"cebpf4jnsgd1na2vs0mg"},{"bike_id":"7f2b25f6-014d-4712-b80f-ffce5f418b5b","system_id":"levelo_inurba_marseille","lat":43.27497,"lon":5.4247,"is_reserved":false,"is_disabled":false,"rental_uris":{"android":"levelo://app?vid=7f2b25f6-014d-4712-b80f-ffce5f418b5b","ios":"levelo://app?vid=7f2b25f6-014d-4712-b80f-ffce5f418b5b"},"vehicle_type_id":"4","last_reported":1746256160,"current_range_meters":7200,"station_id":"ce4bhn92rcd13ifvqgrg","pricing_plan_id":"cebpf4jnsgd1na2vs0mg"},{"bike_id":"81e80a60-feb5-4268-9314-c65f9c70c462","system_id":"levelo_inurba_marseille","lat":43.290153,"lon":5.386207,"is_reserved":false,"is_disabled":true,"rental_uris":{"android":"levelo://app?vid=81e80a60-feb5-4268-9314-c65f9c70c462","ios":"levelo://app?vid=81e80a60-feb5-4268-9314-c65f9c70c462"},"vehicle_type_id":"4","last_reported":1746256160,"current_range_meters":7200,"station_id":"ce4bh4p2rcd13ifvqe0g","pricing_plan_id":"cebpf4jnsgd1na2vs0mg"},{"bike_id":"89ad11e2-cd4c-4931-bc89-12205c6aefd9","system_id":"levelo_inurba_marseille","lat":43.23157,"lon":5.43715,"is_reserved":false,"is_disabled":false,"rental_uris":{"android":"levelo://app?vid=89ad11e2-cd4c-4931-bc89-12205c6aefd9","ios":"levelo://app?vid=89ad11e2-cd4c-4931-bc89-12205c6aefd9"},"vehicle_type_id":"4","last_reported":1746256160,"current_range_meters":7200,"station_id":"ce4bhmp2rcd13ifvqgog","pricing_plan_id":"cebpf4jnsgd1na2vs0mg"},{"bike_id":"a17bc77c-9891-4abb-b13f-68d37aebf103","system_id":"levelo_inurba_marseille","lat":43.29026,"lon":5.38135,"is_reserved":false,"is_disabled":false,"rental_uris":{"android":"levelo://app?vid=a17bc77c-9891-4abb-b13f-68d37aebf103","ios":"levelo://app?vid=a17bc77c-9891-4abb-b13f-68d37aebf103"},"vehicle_type_id":"4","last_reported":1746256160,"current_range_meters":8000,"station_id":"ce4bh4p2rcd13ifvqe1g","pricing_plan_id":"cebpf4jnsgd1na2vs0mg"},{"bike_id":"6c8f2ed0-8cbc-4ec6-a7e3-532618592f45","system_id":"levelo_inurba_marseille","lat":43.23967,"lon":5.36642,"is_reserved":false,"is_disabled":false,"rental_uris":{"android":"levelo://app?vid=6c8f2ed0-8cbc-4ec6-a7e3-532618592f45","ios":"levelo://app?vid=6c8f2ed0-8cbc-4ec6-a7e3-532618592f45"},"vehicle_type_id":"4","last_reported":1746256160,"current_range_meters":8000,"station_id":"ce4bhi12rcd13ifvqfp0","pricing_plan_id":"cebpf4jnsgd1na2vs0mg"},{"bike_id":"3694d090-d909-4d38-9eb1-31338c8af39e","system_id":"levelo_inurba_marseille","lat":43.26694,"lon":5.38278,"is_reserved":false,"is_disabled":true,"rental_uris":{"android":"levelo://app?vid=3694d090-d909-4d38-9eb1-31338c8af39e","ios":"levelo://app?vid=3694d090-d909-4d38-9eb1-31338c8af39e"},"vehicle_type_id":"4","last_reported":1746256160,"current_range_meters":8000,"station_id":"ce4bhg92rcd13ifvqf90","pricing_plan_id":"cebpf4jnsgd1na2vs0mg"},{"bike_id":"29a83445-0753-40f4-8ed7-c02207f310e3","system_id":"levelo_inurba_marseille","lat":43.28348,"lon":5.3852,"is_reserved":false,"is_disabled":false,"rental_uris":{"android":"levelo://app?vid=29a83445-0753-40f4-8ed7-c02207f310e3","ios":"levelo://app?vid=29a83445-0753-40f4-8ed7-c02207f310e3"},"vehicle_type_id":"4","last_reported":1746256160,"current_range_meters":8000,"station_id":"","pricing_plan_id":"cebpf4jnsgd1na2vs0mg"},{"bike_id":"bcdb9d2e-41b6-4501-810c-6146d2dfe2c6","system_id":"levelo_inurba_marseille","lat":43.29322,"lon":5.37187,"is_reserved":false,"is_disabled":false,"rental_uris":{"android":"levelo://app?vid=bcdb9d2e-41b6-4501-810c-6146d2dfe2c6","ios":"levelo://app?vid=bcdb9d2e-41b6-4501-810c-6146d2dfe2c6"},"vehicle_type_id":"4","last_reported":1746256160,"current_range_meters":8000,"station_id":"ce4bgh92rcd13ifvqb40","pricing_plan_id":"cebpf4jnsgd1na2vs0mg"},{"bike_id":"354f7438-aa30-4e53-8181-12e37a07905f","system_id":"levelo_inurba_marseille","lat":43.29663,"lon":5.37288,"is_reserved":false,"is_disabled":false,"rental_uris":{"android":"levelo://app?vid=354f7438-aa30-4e53-8181-12e37a07905f","ios":"levelo://app?vid=354f7438-aa30-4e53-8181-12e37a07905f"},"vehicle_type_id":"4","last_reported":1746256160,"current_range_meters":8000,"station_id":"ce4bgk12rcd13ifvqbj0","pricing_plan_id":"cebpf4jnsgd1na2vs0mg"},{"bike_id":"3f9b739b-9bfd-492e-b1ad-830c96b95dc9","system_id":"levelo_inurba_marseille","lat":43.284716,"lon":5.384196,"is_reserved":false,"is_disabled":false,"rental_uris":{"android":"levelo://app?vid=3f9b739b-9bfd-492e-b1ad-830c96b95dc9","ios":"levelo://app?vid=3f9b739b-9bfd-492e-b1ad-830c96b95dc9"},"vehicle_type_id":"4","last_reported":1746256160,"current_range_meters":8000,"station_id":"","pricing_plan_id":"cebpf4jnsgd1na2vs0mg"},{"bike_id":"47e92bc4-fbe2-4a15-b841-8112383906c0","system_id":"levelo_inurba_marseille","lat":43.295984,"lon":5.380961,"is_reserved":false,"is_disabled":false,"rental_uris":{"android":"levelo://app?vid=47e92bc4-fbe2-4a15-b841-8112383906c0","ios":"levelo://app?vid=47e92bc4-fbe2-4a15-b841-8112383906c0"},"vehicle_type_id":"4","last_reported":1746256160,"current_range_meters":8800,"station_id":"ce4bgl12rcd13ifvqbo0","pricing_plan_id":"cebpf4jnsgd1na2vs0mg"},{"bike_id":"edc6b69e-8a7c-4069-b4b0-1f2a5bb85fde","system_id":"levelo_inurba_marseille","lat":43.30538,"lon":5.3653,"is_reserved":false,"is_disabled":false,"rental_uris":{"android":"levelo://app?vid=edc6b69e-8a7c-4069-b4b0-1f2a5bb85fde","ios":"levelo://app?vid=edc6b69e-8a7c-4069-b4b0-1f2a5bb85fde"},"vehicle_type_id":"4","last_reported":1746256160,"current_range_meters":8400,"station_id":"ce4bgs12rcd13ifvqcag","pricing_plan_id":"cebpf4jnsgd1na2vs0mg"},{"bike_id":"52653438-d935-4f61-a0a5-dc59b768eafc","system_id":"levelo_inurba_marseille","lat":43.32367,"lon":5.3676,"is_reserved":false,"is_disabled":false,"rental_uris":{"android":"levelo://app?vid=52653438-d935-4f61-a0a5-dc59b768eafc","ios":"levelo://app?vid=52653438-d935-4f61-a0a5-dc59b768eafc"},"vehicle_type_id":"4","last_reported":1746256160,"current_range_meters":8400,"station_id":"ce4bhsh2rcd13ifvqi2g","pricing_plan_id":"cebpf4jnsgd1na2vs0mg"},{"bike_id":"03f8f1a1-348f-43c1-810e-3f5bf3b4a5c6","system_id":"levelo_inurba_marseille","lat":43.24872,"lon":5.3942,"is_reserved":false,"is_disabled":false,"rental_uris":{"android":"levelo://app?vid=03f8f1a1-348f-43c1-810e-3f5bf3b4a5c6","ios":"levelo://app?vid=03f8f1a1-348f-43c1-810e-3f5bf3b4a5c6"},"vehicle_type_id":"4","last_reported":1746256160,"current_range_meters":8400,"station_id":"","pricing_plan_id":"cebpf4jnsgd1na2vs0mg"},{"bike_id":"81a8870f-38f2-41e3-8af3-5c745aec70c7","system_id":"levelo_inurba_marseille","lat":43.23957,"lon":5.3664,"is_reserved":false,"is_disabled":false,"rental_uris":{"android":"levelo://app?vid=81a8870f-38f2-41e3-8af3-5c745aec70c7","ios":"levelo://app?vid=81a8870f-38f2-41e3-8af3-5c745aec70c7"},"vehicle_type_id":"4","last_reported":1746256160,"current_range_meters":8400,"station_id":"ce4bhi12rcd13ifvqfp0","pricing_plan_id":"cebpf4jnsgd1na2vs0mg"},{"bike_id":"8a0058ae-d47a-4696-afcc-53a66a14ba3f","system_id":"levelo_inurba_marseille","lat":43.299024,"lon":5.436698,"is_reserved":false,"is_disabled":false,"rental_uris":{"android":"levelo://app?vid=8a0058ae-d47a-4696-afcc-53a66a14ba3f","ios":"levelo://app?vid=8a0058ae-d47a-4696-afcc-53a66a14ba3f"},"vehicle_type_id":"4","last_reported":1746256160,"current_range_meters":8800,"station_id":"ce4bhpp2rcd13ifvqhfg","pricing_plan_id":"cebpf4jnsgd1na2vs0mg"},{"bike_id":"1bac20cf-d8ec-42b0-b306-748bd95fc366","system_id":"levelo_inurba_marseille","lat":43.274943,"lon":5.424539,"is_reserved":false,"is_disabled":false,"rental_uris":{"android":"levelo://app?vid=1bac20cf-d8ec-42b0-b306-748bd95fc366","ios":"levelo://app?vid=1bac20cf-d8ec-42b0-b306-748bd95fc366"},"vehicle_type_id":"4","last_reported":1746256160,"current_range_meters":8800,"station_id":"ce4bhn92rcd13ifvqgrg","pricing_plan_id":"cebpf4jnsgd1na2vs0mg"},{"bike_id":"dad52aef-1493-44ab-8be8-c1a19ea185db","system_id":"levelo_inurba_marseille","lat":43.26207,"lon":5.40449,"is_reserved":false,"is_disabled":false,"rental_uris":{"android":"levelo://app?vid=dad52aef-1493-44ab-8be8-c1a19ea185db","ios":"levelo://app?vid=dad52aef-1493-44ab-8be8-c1a19ea185db"},"vehicle_type_id":"4","last_reported":1746256160,"current_range_meters":8800,"station_id":"ce4bhmh2rcd13ifvqgmg","pricing_plan_id":"cebpf4jnsgd1na2vs0mg"},{"bike_id":"bc568a4d-cf3b-4869-b04b-b9128b430cc5","system_id":"levelo_inurba_marseille","lat":43.27201,"lon":5.39181,"is_reserved":false,"is_disabled":false,"rental_uris":{"android":"levelo://app?vid=bc568a4d-cf3b-4869-b04b-b9128b430cc5","ios":"levelo://app?vid=bc568a4d-cf3b-4869-b04b-b9128b430cc5"},"vehicle_type_id":"4","last_reported":1746256160,"current_range_meters":8400,"station_id":"ce4bhhp2rcd13ifvqfm0","pricing_plan_id":"cebpf4jnsgd1na2vs0mg"},{"bike_id":"8a98d962-578d-444b-a5bb-91a62b69d98d","system_id":"levelo_inurba_marseille","lat":43.212047,"lon":5.350767,"is_reserved":false,"is_disabled":true,"rental_uris":{"android":"levelo://app?vid=8a98d962-578d-444b-a5bb-91a62b69d98d","ios":"levelo://app?vid=8a98d962-578d-444b-a5bb-91a62b69d98d"},"vehicle_type_id":"4","last_reported":1746256160,"current_range_meters":9200,"station_id":"st_cvj6sg6p6f1abm77japg","pricing_plan_id":"cebpf4jnsgd1na2vs0mg"},{"bike_id":"7719b24a-05b9-48c9-8002-0734452df164","system_id":"levelo_inurba_marseille","lat":43.24025,"lon":5.37696,"is_reserved":false,"is_disabled":false,"rental_uris":{"android":"levelo://app?vid=7719b24a-05b9-48c9-8002-0734452df164","ios":"levelo://app?vid=7719b24a-05b9-48c9-8002-0734452df164"},"vehicle_type_id":"4","last_reported":1746256160,"current_range_meters":9200,"station_id":"ce4bhnp2rcd13ifvqgvg","pricing_plan_id":"cebpf4jnsgd1na2vs0mg"},{"bike_id":"2ec6dd80-93b4-435e-89c9-9ef2c5604b75","system_id":"levelo_inurba_marseille","lat":43.2418,"lon":5.39722,"is_reserved":false,"is_disabled":false,"rental_uris":{"android":"levelo://app?vid=2ec6dd80-93b4-435e-89c9-9ef2c5604b75","ios":"levelo://app?vid=2ec6dd80-93b4-435e-89c9-9ef2c5604b75"},"vehicle_type_id":"4","last_reported":1746256160,"current_range_meters":9200,"station_id":"ce4bhn12rcd13ifvqgpg","pricing_plan_id":"cebpf4jnsgd1na2vs0mg"},{"bike_id":"3370706f-3c60-4448-9fa7-c3c667e2e849","system_id":"levelo_inurba_marseille","lat":43.23533,"lon":5.40338,"is_reserved":false,"is_disabled":false,"rental_uris":{"android":"levelo://app?vid=3370706f-3c60-4448-9fa7-c3c667e2e849","ios":"levelo://app?vid=3370706f-3c60-4448-9fa7-c3c667e2e849"},"vehicle_type_id":"4","last_reported":1746256160,"current_range_meters":9200,"station_id":"","pricing_plan_id":"cebpf4jnsgd1na2vs0mg"},{"bike_id":"f93d853b-ca78-4f88-b96f-c9c1053489aa","system_id":"levelo_inurba_marseille","lat":43.24069,"lon":5.377628,"is_reserved":false,"is_disabled":false,"rental_uris":{"android":"levelo://app?vid=f93d853b-ca78-4f88-b96f-c9c1053489aa","ios":"levelo://app?vid=f93d853b-ca78-4f88-b96f-c9c1053489aa"},"vehicle_type_id":"4","last_reported":1746256160,"current_range_meters":9200,"station_id":"ce4bhnp2rcd13ifvqgvg","pricing_plan_id":"cebpf4jnsgd1na2vs0mg"},{"bike_id":"fb2a6c66-5045-41c6-9061-073f9fbeb4c4","system_id":"levelo_inurba_marseille","lat":43.295748,"lon":5.375158,"is_reserved":false,"is_disabled":false,"rental_uris":{"android":"levelo://app?vid=fb2a6c66-5045-41c6-9061-073f9fbeb4c4","ios":"levelo://app?vid=fb2a6c66-5045-41c6-9061-073f9fbeb4c4"},"vehicle_type_id":"4","last_reported":1746256160,"current_range_meters":9200,"station_id":"ce4bgh92rcd13ifvqb50","pricing_plan_id":"cebpf4jnsgd1na2vs0mg"},{"bike_id":"6d74a9f5-3f03-4e8e-aa3b-29a84082925f","system_id":"levelo_inurba_marseille","lat":43.229291,"lon":5.35377,"is_reserved":false,"is_disabled":false,"rental_uris":{"android":"levelo://app?vid=6d74a9f5-3f03-4e8e-aa3b-29a84082925f","ios":"levelo://app?vid=6d74a9f5-3f03-4e8e-aa3b-29a84082925f"},"vehicle_type_id":"4","last_reported":1746256160,"current_range_meters":9200,"station_id":"cpo3532slgdg3j2ikp40","pricing_plan_id":"cebpf4jnsgd1na2vs0mg"},{"bike_id":"4feecaba-9754-404f-bc12-97e81ba0e761","system_id":"levelo_inurba_marseille","lat":43.32107,"lon":5.36795,"is_reserved":false,"is_disabled":false,"rental_uris":{"android":"levelo://app?vid=4feecaba-9754-404f-bc12-97e81ba0e761","ios":"levelo://app?vid=4feecaba-9754-404f-bc12-97e81ba0e761"},"vehicle_type_id":"4","last_reported":1746256160,"current_range_meters":9200,"station_id":"ce4bhrh2rcd13ifvqhug","pricing_plan_id":"cebpf4jnsgd1na2vs0mg"},{"bike_id":"9185afe7-d96b-438d-bf6f-1e97433ad930","system_id":"levelo_inurba_marseille","lat":43.290041,"lon":5.356181,"is_reserved":false,"is_disabled":false,"rental_uris":{"android":"levelo://app?vid=9185afe7-d96b-438d-bf6f-1e97433ad930","ios":"levelo://app?vid=9185afe7-d96b-438d-bf6f-1e97433ad930"},"vehicle_type_id":"4","last_reported":1746256160,"current_range_meters":9600,"station_id":"","pricing_plan_id":"cebpf4jnsgd1na2vs0mg"},{"bike_id":"5636aa3d-90e5-46b8-889b-ca722454f93e","system_id":"levelo_inurba_marseille","lat":43.24083,"lon":5.37737,"is_reserved":false,"is_disabled":false,"rental_uris":{"android":"levelo://app?vid=5636aa3d-90e5-46b8-889b-ca722454f93e","ios":"levelo://app?vid=5636aa3d-90e5-46b8-889b-ca722454f93e"},"vehicle_type_id":"4","last_reported":1746256160,"current_range_meters":9600,"station_id":"ce4bhnp2rcd13ifvqgvg","pricing_plan_id":"cebpf4jnsgd1na2vs0mg"},{"bike_id":"697c0ee1-27bc-4973-b2d5-10477ddf600d","system_id":"levelo_inurba_marseille","lat":43.24668,"lon":5.38176,"is_reserved":false,"is_disabled":false,"rental_uris":{"android":"levelo://app?vid=697c0ee1-27bc-4973-b2d5-10477ddf600d","ios":"levelo://app?vid=697c0ee1-27bc-4973-b2d5-10477ddf600d"},"vehicle_type_id":"4","last_reported":1746256160,"current_range_meters":9600,"station_id":"ce4bhih2rcd13ifvqfr0","pricing_plan_id":"cebpf4jnsgd1na2vs0mg"},{"bike_id":"b012dda0-636e-4d9d-bb11-2107f4b207ea","system_id":"levelo_inurba_marseille","lat":43.262187,"lon":5.404505,"is_reserved":false,"is_disabled":false,"rental_uris":{"android":"levelo://app?vid=b012dda0-636e-4d9d-bb11-2107f4b207ea","ios":"levelo://app?vid=b012dda0-636e-4d9d-bb11-2107f4b207ea"},"vehicle_type_id":"4","last_reported":1746256160,"current_range_meters":9600,"station_id":"ce4bhmh2rcd13ifvqgmg","pricing_plan_id":"cebpf4jnsgd1na2vs0mg"},{"bike_id":"313f19ff-8c45-4a02-b367-c6a7c2d5e214","system_id":"levelo_inurba_marseille","lat":43.27503,"lon":5.42469,"is_reserved":false,"is_disabled":false,"rental_uris":{"android":"levelo://app?vid=313f19ff-8c45-4a02-b367-c6a7c2d5e214","ios":"levelo://app?vid=313f19ff-8c45-4a02-b367-c6a7c2d5e214"},"vehicle_type_id":"4","last_reported":1746256160,"current_range_meters":9600,"station_id":"ce4bhn92rcd13ifvqgrg","pricing_plan_id":"cebpf4jnsgd1na2vs0mg"},{"bike_id":"0a83a242-0e43-4e35-a8a7-5bcc1df8c995","system_id":"levelo_inurba_marseille","lat":43.30767,"lon":5.36716,"is_reserved":false,"is_disabled":true,"rental_uris":{"android":"levelo://app?vid=0a83a242-0e43-4e35-a8a7-5bcc1df8c995","ios":"levelo://app?vid=0a83a242-0e43-4e35-a8a7-5bcc1df8c995"},"vehicle_type_id":"4","last_reported":1746256160,"current_range_meters":9600,"station_id":"","pricing_plan_id":"cebpf4jnsgd1na2vs0mg"},{"bike_id":"e27ce41e-d31e-4411-a762-387f29d91877","system_id":"levelo_inurba_marseille","lat":43.29558,"lon":5.42279,"is_reserved":false,"is_disabled":false,"rental_uris":{"android":"levelo://app?vid=e27ce41e-d31e-4411-a762-387f29d91877","ios":"levelo://app?vid=e27ce41e-d31e-4411-a762-387f29d91877"},"vehicle_type_id":"4","last_reported":1746256160,"current_range_meters":9600,"station_id":"ce4bhph2rcd13ifvqhdg","pricing_plan_id":"cebpf4jnsgd1na2vs0mg"},{"bike_id":"e0e163c0-b70c-478b-a240-966060226969","system_id":"levelo_inurba_marseille","lat":43.2923,"lon":5.36195,"is_reserved":false,"is_disabled":false,"rental_uris":{"android":"levelo://app?vid=e0e163c0-b70c-478b-a240-966060226969","ios":"levelo://app?vid=e0e163c0-b70c-478b-a240-966060226969"},"vehicle_type_id":"4","last_reported":1746256160,"current_range_meters":9600,"station_id":"","pricing_plan_id":"cebpf4jnsgd1na2vs0mg"},{"bike_id":"bc6aa588-55ae-4b58-9657-e59d1d5531f4","system_id":"levelo_inurba_marseille","lat":43.29574,"lon":5.39946,"is_reserved":false,"is_disabled":false,"rental_uris":{"android":"levelo://app?vid=bc6aa588-55ae-4b58-9657-e59d1d5531f4","ios":"levelo://app?vid=bc6aa588-55ae-4b58-9657-e59d1d5531f4"},"vehicle_type_id":"4","last_reported":1746256160,"current_range_meters":9600,"station_id":"ce4bh312rcd13ifvqdj0","pricing_plan_id":"cebpf4jnsgd1na2vs0mg"},{"bike_id":"a2b5f75b-8b31-4025-975c-0028449e52cd","system_id":"levelo_inurba_marseille","lat":43.24181,"lon":5.39727,"is_reserved":false,"is_disabled":false,"rental_uris":{"android":"levelo://app?vid=a2b5f75b-8b31-4025-975c-0028449e52cd","ios":"levelo://app?vid=a2b5f75b-8b31-4025-975c-0028449e52cd"},"vehicle_type_id":"4","last_reported":1746256160,"current_range_meters":9600,"station_id":"ce4bhn12rcd13ifvqgpg","pricing_plan_id":"cebpf4jnsgd1na2vs0mg"},{"bike_id":"ad7ca592-f236-4a6d-9431-e31ab8d26c7e","system_id":"levelo_inurba_marseille","lat":43.32346,"lon":5.36752,"is_reserved":false,"is_disabled":false,"rental_uris":{"android":"levelo://app?vid=ad7ca592-f236-4a6d-9431-e31ab8d26c7e","ios":"levelo://app?vid=ad7ca592-f236-4a6d-9431-e31ab8d26c7e"},"vehicle_type_id":"4","last_reported":1746256160,"current_range_meters":9600,"station_id":"ce4bhsh2rcd13ifvqi2g","pricing_plan_id":"cebpf4jnsgd1na2vs0mg"},{"bike_id":"2cce8745-f47d-491d-9776-93cf9f036027","system_id":"levelo_inurba_marseille","lat":43.308155,"lon":5.435233,"is_reserved":false,"is_disabled":false,"rental_uris":{"android":"levelo://app?vid=2cce8745-f47d-491d-9776-93cf9f036027","ios":"levelo://app?vid=2cce8745-f47d-491d-9776-93cf9f036027"},"vehicle_type_id":"4","last_reported":1746256160,"current_range_meters":9600,"station_id":"ce4bhph2rcd13ifvqheg","pricing_plan_id":"cebpf4jnsgd1na2vs0mg"},{"bike_id":"d24e36e0-e0aa-458e-9dc1-1d3e91441d9d","system_id":"levelo_inurba_marseille","lat":43.29025,"lon":5.38606,"is_reserved":false,"is_disabled":true,"rental_uris":{"android":"levelo://app?vid=d24e36e0-e0aa-458e-9dc1-1d3e91441d9d","ios":"levelo://app?vid=d24e36e0-e0aa-458e-9dc1-1d3e91441d9d"},"vehicle_type_id":"4","last_reported":1746256160,"current_range_meters":10000,"station_id":"ce4bh4p2rcd13ifvqe0g","pricing_plan_id":"cebpf4jnsgd1na2vs0mg"},{"bike_id":"6bcfafe9-e0dc-4830-a2ef-8fbcb15314a2","system_id":"levelo_inurba_marseille","lat":43.29532,"lon":5.42249,"is_reserved":false,"is_disabled":false,"rental_uris":{"android":"levelo://app?vid=6bcfafe9-e0dc-4830-a2ef-8fbcb15314a2","ios":"levelo://app?vid=6bcfafe9-e0dc-4830-a2ef-8fbcb15314a2"},"vehicle_type_id":"4","last_reported":1746256160,"current_range_meters":10000,"station_id":"ce4bhph2rcd13ifvqhdg","pricing_plan_id":"cebpf4jnsgd1na2vs0mg"},{"bike_id":"728d7dda-2d6d-48b3-9412-ac85708f1dff","system_id":"levelo_inurba_marseille","lat":43.32476,"lon":5.36573,"is_reserved":false,"is_disabled":false,"rental_uris":{"android":"levelo://app?vid=728d7dda-2d6d-48b3-9412-ac85708f1dff","ios":"levelo://app?vid=728d7dda-2d6d-48b3-9412-ac85708f1dff"},"vehicle_type_id":"4","last_reported":1746256160,"current_range_meters":10000,"station_id":"ce4bhs12rcd13ifvqhvg","pricing_plan_id":"cebpf4jnsgd1na2vs0mg"},{"bike_id":"570b486c-50df-4f1f-97df-caa86c0d419e","system_id":"levelo_inurba_marseille","lat":43.33745,"lon":5.35553,"is_reserved":false,"is_disabled":false,"rental_uris":{"android":"levelo://app?vid=570b486c-50df-4f1f-97df-caa86c0d419e","ios":"levelo://app?vid=570b486c-50df-4f1f-97df-caa86c0d419e"},"vehicle_type_id":"4","last_reported":1746256160,"current_range_meters":10000,"station_id":"","pricing_plan_id":"cebpf4jnsgd1na2vs0mg"},{"bike_id":"bd72f7cc-a3cc-4e2b-9e76-ad49468b9778","system_id":"levelo_inurba_marseille","lat":43.30586,"lon":5.39347,"is_reserved":false,"is_disabled":false,"rental_uris":{"android":"levelo://app?vid=bd72f7cc-a3cc-4e2b-9e76-ad49468b9778","ios":"levelo://app?vid=bd72f7cc-a3cc-4e2b-9e76-ad49468b9778"},"vehicle_type_id":"4","last_reported":1746256160,"current_range_meters":10000,"station_id":"ce4bh0p2rcd13ifvqd80","pricing_plan_id":"cebpf4jnsgd1na2vs0mg"},{"bike_id":"9adfac2a-491e-4112-b03c-2c448baa3a91","system_id":"levelo_inurba_marseille","lat":43.26049,"lon":5.37585,"is_reserved":false,"is_disabled":false,"rental_uris":{"android":"levelo://app?vid=9adfac2a-491e-4112-b03c-2c448baa3a91","ios":"levelo://app?vid=9adfac2a-491e-4112-b03c-2c448baa3a91"},"vehicle_type_id":"4","last_reported":1746256160,"current_range_meters":10000,"station_id":"ce4bhgh2rcd13ifvqfa0","pricing_plan_id":"cebpf4jnsgd1na2vs0mg"},{"bike_id":"c2dbb13d-4475-42ee-ae4e-e8444a2ebdea","system_id":"levelo_inurba_marseille","lat":43.23156,"lon":5.437072,"is_reserved":false,"is_disabled":false,"rental_uris":{"android":"levelo://app?vid=c2dbb13d-4475-42ee-ae4e-e8444a2ebdea","ios":"levelo://app?vid=c2dbb13d-4475-42ee-ae4e-e8444a2ebdea"},"vehicle_type_id":"4","last_reported":1746256160,"current_range_meters":9600,"station_id":"ce4bhmp2rcd13ifvqgog","pricing_plan_id":"cebpf4jnsgd1na2vs0mg"},{"bike_id":"f28a6a99-f960-44e5-8dd2-042ad6e229e6","system_id":"levelo_inurba_marseille","lat":43.27826,"lon":5.42756,"is_reserved":false,"is_disabled":false,"rental_uris":{"android":"levelo://app?vid=f28a6a99-f960-44e5-8dd2-042ad6e229e6","ios":"levelo://app?vid=f28a6a99-f960-44e5-8dd2-042ad6e229e6"},"vehicle_type_id":"4","last_reported":1746256160,"current_range_meters":10800,"station_id":"","pricing_plan_id":"cebpf4jnsgd1na2vs0mg"},{"bike_id":"371b7534-0d9b-4ab0-8f09-4f4cf8973b82","system_id":"levelo_inurba_marseille","lat":43.25132,"lon":5.4039,"is_reserved":false,"is_disabled":false,"rental_uris":{"android":"levelo://app?vid=371b7534-0d9b-4ab0-8f09-4f4cf8973b82","ios":"levelo://app?vid=371b7534-0d9b-4ab0-8f09-4f4cf8973b82"},"vehicle_type_id":"4","last_reported":1746256160,"current_range_meters":10800,"station_id":"ce4bhlh2rcd13ifvqgig","pricing_plan_id":"cebpf4jnsgd1na2vs0mg"},{"bike_id":"b914c14e-983f-4d03-82de-8f3c0fcb81fd","system_id":"levelo_inurba_marseille","lat":43.2835,"lon":5.38114,"is_reserved":false,"is_disabled":false,"rental_uris":{"android":"levelo://app?vid=b914c14e-983f-4d03-82de-8f3c0fcb81fd","ios":"levelo://app?vid=b914c14e-983f-4d03-82de-8f3c0fcb81fd"},"vehicle_type_id":"4","last_reported":1746256160,"current_range_meters":10800,"station_id":"ce4bh412rcd13ifvqdr0","pricing_plan_id":"cebpf4jnsgd1na2vs0mg"},{"bike_id":"dfb3396e-96f5-457c-af11-f6f27dad33e9","system_id":"levelo_inurba_marseille","lat":43.272032,"lon":5.364827,"is_reserved":false,"is_disabled":false,"rental_uris":{"android":"levelo://app?vid=dfb3396e-96f5-457c-af11-f6f27dad33e9","ios":"levelo://app?vid=dfb3396e-96f5-457c-af11-f6f27dad33e9"},"vehicle_type_id":"4","last_reported":1746256160,"current_range_meters":11200,"station_id":"","pricing_plan_id":"cebpf4jnsgd1na2vs0mg"},{"bike_id":"4235a182-09b7-4cc8-a188-0c76e14f3162","system_id":"levelo_inurba_marseille","lat":43.30325,"lon":5.36903,"is_reserved":false,"is_disabled":false,"rental_uris":{"android":"levelo://app?vid=4235a182-09b7-4cc8-a188-0c76e14f3162","ios":"levelo://app?vid=4235a182-09b7-4cc8-a188-0c76e14f3162"},"vehicle_type_id":"4","last_reported":1746256160,"current_range_meters":10800,"station_id":"","pricing_plan_id":"cebpf4jnsgd1na2vs0mg"},{"bike_id":"f1ffd2b9-91e9-4bf5-a319-6e95940b0de6","system_id":"levelo_inurba_marseille","lat":43.29542,"lon":5.42276,"is_reserved":false,"is_disabled":false,"rental_uris":{"android":"levelo://app?vid=f1ffd2b9-91e9-4bf5-a319-6e95940b0de6","ios":"levelo://app?vid=f1ffd2b9-91e9-4bf5-a319-6e95940b0de6"},"vehicle_type_id":"4","last_reported":1746256160,"current_range_meters":11200,"station_id":"ce4bhph2rcd13ifvqhdg","pricing_plan_id":"cebpf4jnsgd1na2vs0mg"},{"bike_id":"8105ea61-1930-4b48-827f-ed01cb559bea","system_id":"levelo_inurba_marseille","lat":43.246616,"lon":5.381643,"is_reserved":false,"is_disabled":false,"rental_uris":{"android":"levelo://app?vid=8105ea61-1930-4b48-827f-ed01cb559bea","ios":"levelo://app?vid=8105ea61-1930-4b48-827f-ed01cb559bea"},"vehicle_type_id":"4","last_reported":1746256160,"current_range_meters":11200,"station_id":"ce4bhih2rcd13ifvqfr0","pricing_plan_id":"cebpf4jnsgd1na2vs0mg"},{"bike_id":"2fc7066a-3168-4b00-a4fc-ece640118f70","system_id":"levelo_inurba_marseille","lat":43.2839,"lon":5.37514,"is_reserved":false,"is_disabled":false,"rental_uris":{"android":"levelo://app?vid=2fc7066a-3168-4b00-a4fc-ece640118f70","ios":"levelo://app?vid=2fc7066a-3168-4b00-a4fc-ece640118f70"},"vehicle_type_id":"4","last_reported":1746256160,"current_range_meters":11200,"station_id":"ce4bh412rcd13ifvqds0","pricing_plan_id":"cebpf4jnsgd1na2vs0mg"},{"bike_id":"fd2c3c67-23a6-4380-b7ca-8f23c8f78921","system_id":"levelo_inurba_marseille","lat":43.32346,"lon":5.36715,"is_reserved":false,"is_disabled":false,"rental_uris":{"android":"levelo://app?vid=fd2c3c67-23a6-4380-b7ca-8f23c8f78921","ios":"levelo://app?vid=fd2c3c67-23a6-4380-b7ca-8f23c8f78921"},"vehicle_type_id":"4","last_reported":1746256160,"current_range_meters":11200,"station_id":"ce4bhsh2rcd13ifvqi2g","pricing_plan_id":"cebpf4jnsgd1na2vs0mg"},{"bike_id":"93e82765-567a-470a-8cc8-423c1691b7bb","system_id":"levelo_inurba_marseille","lat":43.3096,"lon":5.39039,"is_reserved":false,"is_disabled":false,"rental_uris":{"android":"levelo://app?vid=93e82765-567a-470a-8cc8-423c1691b7bb","ios":"levelo://app?vid=93e82765-567a-470a-8cc8-423c1691b7bb"},"vehicle_type_id":"4","last_reported":1746256160,"current_range_meters":11200,"station_id":"ce4bgup2rcd13ifvqco0","pricing_plan_id":"cebpf4jnsgd1na2vs0mg"},{"bike_id":"2e6965d3-9b5d-4ec1-a3a3-003adfe5560b","system_id":"levelo_inurba_marseille","lat":43.25934,"lon":5.40911,"is_reserved":false,"is_disabled":false,"rental_uris":{"android":"levelo://app?vid=2e6965d3-9b5d-4ec1-a3a3-003adfe5560b","ios":"levelo://app?vid=2e6965d3-9b5d-4ec1-a3a3-003adfe5560b"},"vehicle_type_id":"4","last_reported":1746256160,"current_range_meters":11600,"station_id":"ce4bhm92rcd13ifvqglg","pricing_plan_id":"cebpf4jnsgd1na2vs0mg"},{"bike_id":"f4215d2d-8cbc-42de-a4a1-5312ee7d2a19","system_id":"levelo_inurba_marseille","lat":43.24058,"lon":5.37761,"is_reserved":false,"is_disabled":false,"rental_uris":{"android":"levelo://app?vid=f4215d2d-8cbc-42de-a4a1-5312ee7d2a19","ios":"levelo://app?vid=f4215d2d-8cbc-42de-a4a1-5312ee7d2a19"},"vehicle_type_id":"4","last_reported":1746256160,"current_range_meters":12000,"station_id":"ce4bhnp2rcd13ifvqgvg","pricing_plan_id":"cebpf4jnsgd1na2vs0mg"},{"bike_id":"6c0e5220-ee62-4032-884d-af4df430249c","system_id":"levelo_inurba_marseille","lat":43.32101,"lon":5.36777,"is_reserved":false,"is_disabled":false,"rental_uris":{"android":"levelo://app?vid=6c0e5220-ee62-4032-884d-af4df430249c","ios":"levelo://app?vid=6c0e5220-ee62-4032-884d-af4df430249c"},"vehicle_type_id":"4","last_reported":1746256160,"current_range_meters":12000,"station_id":"ce4bhrh2rcd13ifvqhug","pricing_plan_id":"cebpf4jnsgd1na2vs0mg"},{"bike_id":"251f13fb-ae1b-4c09-bcd9-d582b991dd56","system_id":"levelo_inurba_marseille","lat":43.292002,"lon":5.393157,"is_reserved":false,"is_disabled":false,"rental_uris":{"android":"levelo://app?vid=251f13fb-ae1b-4c09-bcd9-d582b991dd56","ios":"levelo://app?vid=251f13fb-ae1b-4c09-bcd9-d582b991dd56"},"vehicle_type_id":"4","last_reported":1746256160,"current_range_meters":12000,"station_id":"ce4bhbh2rcd13ifvqeo0","pricing_plan_id":"cebpf4jnsgd1na2vs0mg"},{"bike_id":"36a9b9c7-54b7-45b0-81a5-b00d50ed8e1f","system_id":"levelo_inurba_marseille","lat":43.3083,"lon":5.38163,"is_reserved":false,"is_disabled":false,"rental_uris":{"android":"levelo://app?vid=36a9b9c7-54b7-45b0-81a5-b00d50ed8e1f","ios":"levelo://app?vid=36a9b9c7-54b7-45b0-81a5-b00d50ed8e1f"},"vehicle_type_id":"4","last_reported":1746256160,"current_range_meters":12000,"station_id":"ce4bgt12rcd13ifvqce0","pricing_plan_id":"cebpf4jnsgd1na2vs0mg"},{"bike_id":"b2a1b543-f7ca-40fa-82e3-61a14489c133","system_id":"levelo_inurba_marseille","lat":43.308,"lon":5.3816,"is_reserved":false,"is_disabled":false,"rental_uris":{"android":"levelo://app?vid=b2a1b543-f7ca-40fa-82e3-61a14489c133","ios":"levelo://app?vid=b2a1b543-f7ca-40fa-82e3-61a14489c133"},"vehicle_type_id":"4","last_reported":1746256160,"current_range_meters":12000,"station_id":"ce4bgt12rcd13ifvqce0","pricing_plan_id":"cebpf4jnsgd1na2vs0mg"},{"bike_id":"0c3fbeaa-55ff-4c7c-a66c-46f4ecc86aeb","system_id":"levelo_inurba_marseille","lat":43.211877,"lon":5.35097,"is_reserved":false,"is_disabled":true,"rental_uris":{"android":"levelo://app?vid=0c3fbeaa-55ff-4c7c-a66c-46f4ecc86aeb","ios":"levelo://app?vid=0c3fbeaa-55ff-4c7c-a66c-46f4ecc86aeb"},"vehicle_type_id":"4","last_reported":1746256160,"current_range_meters":12000,"station_id":"st_cvj6sg6p6f1abm77japg","pricing_plan_id":"cebpf4jnsgd1na2vs0mg"},{"bike_id":"90fe6b2c-98b3-4084-9346-072b9cd32382","system_id":"levelo_inurba_marseille","lat":43.2925,"lon":5.40909,"is_reserved":false,"is_disabled":false,"rental_uris":{"android":"levelo://app?vid=90fe6b2c-98b3-4084-9346-072b9cd32382","ios":"levelo://app?vid=90fe6b2c-98b3-4084-9346-072b9cd32382"},"vehicle_type_id":"4","last_reported":1746256160,"current_range_meters":12000,"station_id":"ce4bh192rcd13ifvqdc0","pricing_plan_id":"cebpf4jnsgd1na2vs0mg"},{"bike_id":"40dc78fe-7bfb-425d-a044-df3cd1c8f08d","system_id":"levelo_inurba_marseille","lat":43.28362,"lon":5.38104,"is_reserved":false,"is_disabled":true,"rental_uris":{"android":"levelo://app?vid=40dc78fe-7bfb-425d-a044-df3cd1c8f08d","ios":"levelo://app?vid=40dc78fe-7bfb-425d-a044-df3cd1c8f08d"},"vehicle_type_id":"4","last_reported":1746256160,"current_range_meters":12400,"station_id":"ce4bh412rcd13ifvqdr0","pricing_plan_id":"cebpf4jnsgd1na2vs0mg"},{"bike_id":"35df839b-290c-49b9-9f1d-6c3dde4d997d","system_id":"levelo_inurba_marseille","lat":43.30596,"lon":5.3935,"is_reserved":false,"is_disabled":true,"rental_uris":{"android":"levelo://app?vid=35df839b-290c-49b9-9f1d-6c3dde4d997d","ios":"levelo://app?vid=35df839b-290c-49b9-9f1d-6c3dde4d997d"},"vehicle_type_id":"4","last_reported":1746256160,"current_range_meters":12400,"station_id":"ce4bh0p2rcd13ifvqd80","pricing_plan_id":"cebpf4jnsgd1na2vs0mg"},{"bike_id":"8103e5ba-0c41-4b32-abe9-4920a4f338ee","system_id":"levelo_inurba_marseille","lat":43.315,"lon":5.37267,"is_reserved":false,"is_disabled":false,"rental_uris":{"android":"levelo://app?vid=8103e5ba-0c41-4b32-abe9-4920a4f338ee","ios":"levelo://app?vid=8103e5ba-0c41-4b32-abe9-4920a4f338ee"},"vehicle_type_id":"4","last_reported":1746256160,"current_range_meters":12400,"station_id":"ce4bgt12rcd13ifvqcd0","pricing_plan_id":"cebpf4jnsgd1na2vs0mg"},{"bike_id":"3b3f6550-b883-4f95-81cb-48e5a6dc124e","system_id":"levelo_inurba_marseille","lat":43.29283,"lon":5.37187,"is_reserved":false,"is_disabled":false,"rental_uris":{"android":"levelo://app?vid=3b3f6550-b883-4f95-81cb-48e5a6dc124e","ios":"levelo://app?vid=3b3f6550-b883-4f95-81cb-48e5a6dc124e"},"vehicle_type_id":"4","last_reported":1746256160,"current_range_meters":12800,"station_id":"ce4bgh92rcd13ifvqb40","pricing_plan_id":"cebpf4jnsgd1na2vs0mg"},{"bike_id":"1b50cafa-6fef-41c4-bdbc-f07904f8a256","system_id":"levelo_inurba_marseille","lat":43.30179,"lon":5.38074,"is_reserved":false,"is_disabled":false,"rental_uris":{"android":"levelo://app?vid=1b50cafa-6fef-41c4-bdbc-f07904f8a256","ios":"levelo://app?vid=1b50cafa-6fef-41c4-bdbc-f07904f8a256"},"vehicle_type_id":"4","last_reported":1746256160,"current_range_meters":12800,"station_id":"ce4bgjp2rcd13ifvqbh0","pricing_plan_id":"cebpf4jnsgd1na2vs0mg"},{"bike_id":"ef4c5f18-9770-45a3-96fe-ff4bb6671e96","system_id":"levelo_inurba_marseille","lat":43.29421,"lon":5.38606,"is_reserved":false,"is_disabled":false,"rental_uris":{"android":"levelo://app?vid=ef4c5f18-9770-45a3-96fe-ff4bb6671e96","ios":"levelo://app?vid=ef4c5f18-9770-45a3-96fe-ff4bb6671e96"},"vehicle_type_id":"4","last_reported":1746256160,"current_range_meters":12800,"station_id":"ce4bh2h2rcd13ifvqdh0","pricing_plan_id":"cebpf4jnsgd1na2vs0mg"},{"bike_id":"9faa2555-bb1a-42b4-8bf8-904da7025132","system_id":"levelo_inurba_marseille","lat":43.30814,"lon":5.3816,"is_reserved":false,"is_disabled":false,"rental_uris":{"android":"levelo://app?vid=9faa2555-bb1a-42b4-8bf8-904da7025132","ios":"levelo://app?vid=9faa2555-bb1a-42b4-8bf8-904da7025132"},"vehicle_type_id":"4","last_reported":1746256160,"current_range_meters":13600,"station_id":"ce4bgt12rcd13ifvqce0","pricing_plan_id":"cebpf4jnsgd1na2vs0mg"},{"bike_id":"4b063e8a-93dc-458b-8765-71afcd89bda7","system_id":"levelo_inurba_marseille","lat":43.3059,"lon":5.39339,"is_reserved":false,"is_disabled":false,"rental_uris":{"android":"levelo://app?vid=4b063e8a-93dc-458b-8765-71afcd89bda7","ios":"levelo://app?vid=4b063e8a-93dc-458b-8765-71afcd89bda7"},"vehicle_type_id":"4","last_reported":1746256160,"current_range_meters":13600,"station_id":"ce4bh0p2rcd13ifvqd80","pricing_plan_id":"cebpf4jnsgd1na2vs0mg"},{"bike_id":"37e52987-a8fb-4155-9bf3-e38ed22dec6b","system_id":"levelo_inurba_marseille","lat":43.29601,"lon":5.38088,"is_reserved":false,"is_disabled":false,"rental_uris":{"android":"levelo://app?vid=37e52987-a8fb-4155-9bf3-e38ed22dec6b","ios":"levelo://app?vid=37e52987-a8fb-4155-9bf3-e38ed22dec6b"},"vehicle_type_id":"4","last_reported":1746256160,"current_range_meters":13600,"station_id":"ce4bgl12rcd13ifvqbo0","pricing_plan_id":"cebpf4jnsgd1na2vs0mg"},{"bike_id":"715d4ccd-4d07-4967-8be3-b199930f65b6","system_id":"levelo_inurba_marseille","lat":43.31076,"lon":5.40096,"is_reserved":false,"is_disabled":false,"rental_uris":{"android":"levelo://app?vid=715d4ccd-4d07-4967-8be3-b199930f65b6","ios":"levelo://app?vid=715d4ccd-4d07-4967-8be3-b199930f65b6"},"vehicle_type_id":"4","last_reported":1746256160,"current_range_meters":13600,"station_id":"","pricing_plan_id":"cebpf4jnsgd1na2vs0mg"},{"bike_id":"4ae02176-31a4-48f7-825f-a587fefa23c2","system_id":"levelo_inurba_marseille","lat":43.30191,"lon":5.36617,"is_reserved":false,"is_disabled":false,"rental_uris":{"android":"levelo://app?vid=4ae02176-31a4-48f7-825f-a587fefa23c2","ios":"levelo://app?vid=4ae02176-31a4-48f7-825f-a587fefa23c2"},"vehicle_type_id":"4","last_reported":1746256160,"current_range_meters":14000,"station_id":"ce4bgrh2rcd13ifvqc8g","pricing_plan_id":"cebpf4jnsgd1na2vs0mg"},{"bike_id":"c3856106-206a-4f39-adcf-8916ef5dd857","system_id":"levelo_inurba_marseille","lat":43.31063,"lon":5.38366,"is_reserved":false,"is_disabled":false,"rental_uris":{"android":"levelo://app?vid=c3856106-206a-4f39-adcf-8916ef5dd857","ios":"levelo://app?vid=c3856106-206a-4f39-adcf-8916ef5dd857"},"vehicle_type_id":"4","last_reported":1746256160,"current_range_meters":14000,"station_id":"ce4bgv92rcd13ifvqcr0","pricing_plan_id":"cebpf4jnsgd1na2vs0mg"},{"bike_id":"ff79280e-1855-4d0a-9416-0d33a2ce1c48","system_id":"levelo_inurba_marseille","lat":43.21222,"lon":5.35055,"is_reserved":false,"is_disabled":true,"rental_uris":{"android":"levelo://app?vid=ff79280e-1855-4d0a-9416-0d33a2ce1c48","ios":"levelo://app?vid=ff79280e-1855-4d0a-9416-0d33a2ce1c48"},"vehicle_type_id":"4","last_reported":1746256160,"current_range_meters":14400,"station_id":"","pricing_plan_id":"cebpf4jnsgd1na2vs0mg"},{"bike_id":"4570aeae-1bcc-49f7-accb-37cc53ae6fc1","system_id":"levelo_inurba_marseille","lat":43.28551,"lon":5.3949,"is_reserved":false,"is_disabled":false,"rental_uris":{"android":"levelo://app?vid=4570aeae-1bcc-49f7-accb-37cc53ae6fc1","ios":"levelo://app?vid=4570aeae-1bcc-49f7-accb-37cc53ae6fc1"},"vehicle_type_id":"4","last_reported":1746256160,"current_range_meters":14400,"station_id":"ce4bh292rcd13ifvqdg0","pricing_plan_id":"cebpf4jnsgd1na2vs0mg"},{"bike_id":"f662eeb9-5790-4a0f-8a51-4110fcbd7f33","system_id":"levelo_inurba_marseille","lat":43.292654,"lon":5.376231,"is_reserved":false,"is_disabled":false,"rental_uris":{"android":"levelo://app?vid=f662eeb9-5790-4a0f-8a51-4110fcbd7f33","ios":"levelo://app?vid=f662eeb9-5790-4a0f-8a51-4110fcbd7f33"},"vehicle_type_id":"4","last_reported":1746256160,"current_range_meters":14400,"station_id":"ce4bgi12rcd13ifvqb80","pricing_plan_id":"cebpf4jnsgd1na2vs0mg"},{"bike_id":"f28a0093-eb0c-4560-86c4-ccccfe4daeca","system_id":"levelo_inurba_marseille","lat":43.29916,"lon":5.37472,"is_reserved":false,"is_disabled":false,"rental_uris":{"android":"levelo://app?vid=f28a0093-eb0c-4560-86c4-ccccfe4daeca","ios":"levelo://app?vid=f28a0093-eb0c-4560-86c4-ccccfe4daeca"},"vehicle_type_id":"4","last_reported":1746256160,"current_range_meters":14400,"station_id":"ce4bgjh2rcd13ifvqbg0","pricing_plan_id":"cebpf4jnsgd1na2vs0mg"},{"bike_id":"ccc206ce-8237-4dc4-8fa8-4d453ad4290e","system_id":"levelo_inurba_marseille","lat":43.29424,"lon":5.386115,"is_reserved":false,"is_disabled":false,"rental_uris":{"android":"levelo://app?vid=ccc206ce-8237-4dc4-8fa8-4d453ad4290e","ios":"levelo://app?vid=ccc206ce-8237-4dc4-8fa8-4d453ad4290e"},"vehicle_type_id":"4","last_reported":1746256160,"current_range_meters":14800,"station_id":"ce4bh2h2rcd13ifvqdh0","pricing_plan_id":"cebpf4jnsgd1na2vs0mg"},{"bike_id":"74e82b4c-73e1-4cc5-8435-515ff14956ce","system_id":"levelo_inurba_marseille","lat":43.24662,"lon":5.3816,"is_reserved":false,"is_disabled":true,"rental_uris":{"android":"levelo://app?vid=74e82b4c-73e1-4cc5-8435-515ff14956ce","ios":"levelo://app?vid=74e82b4c-73e1-4cc5-8435-515ff14956ce"},"vehicle_type_id":"4","last_reported":1746256160,"current_range_meters":14800,"station_id":"ce4bhih2rcd13ifvqfr0","pricing_plan_id":"cebpf4jnsgd1na2vs0mg"},{"bike_id":"d24f4b00-5311-4542-a995-aa352b0a0657","system_id":"levelo_inurba_marseille","lat":43.32319,"lon":5.38275,"is_reserved":false,"is_disabled":false,"rental_uris":{"android":"levelo://app?vid=d24f4b00-5311-4542-a995-aa352b0a0657","ios":"levelo://app?vid=d24f4b00-5311-4542-a995-aa352b0a0657"},"vehicle_type_id":"4","last_reported":1746256160,"current_range_meters":14800,"station_id":"ce4bh0p2rcd13ifvqd70","pricing_plan_id":"cebpf4jnsgd1na2vs0mg"},{"bike_id":"fb80c1da-d845-467b-9c3b-2f591f4d56ae","system_id":"levelo_inurba_marseille","lat":43.323406,"lon":5.37422,"is_reserved":false,"is_disabled":false,"rental_uris":{"android":"levelo://app?vid=fb80c1da-d845-467b-9c3b-2f591f4d56ae","ios":"levelo://app?vid=fb80c1da-d845-467b-9c3b-2f591f4d56ae"},"vehicle_type_id":"4","last_reported":1746256160,"current_range_meters":15200,"station_id":"","pricing_plan_id":"cebpf4jnsgd1na2vs0mg"},{"bike_id":"aedf206f-89f3-4f30-9da6-56fb7ff8915b","system_id":"levelo_inurba_marseille","lat":43.280966,"lon":5.403983,"is_reserved":false,"is_disabled":false,"rental_uris":{"android":"levelo://app?vid=aedf206f-89f3-4f30-9da6-56fb7ff8915b","ios":"levelo://app?vid=aedf206f-89f3-4f30-9da6-56fb7ff8915b"},"vehicle_type_id":"4","last_reported":1746256160,"current_range_meters":15200,"station_id":"","pricing_plan_id":"cebpf4jnsgd1na2vs0mg"},{"bike_id":"1356c2a4-7c28-4105-a9af-9f8072875999","system_id":"levelo_inurba_marseille","lat":43.28481,"lon":5.38429,"is_reserved":false,"is_disabled":false,"rental_uris":{"android":"levelo://app?vid=1356c2a4-7c28-4105-a9af-9f8072875999","ios":"levelo://app?vid=1356c2a4-7c28-4105-a9af-9f8072875999"},"vehicle_type_id":"4","last_reported":1746256160,"current_range_meters":15200,"station_id":"ce4bh512rcd13ifvqe3g","pricing_plan_id":"cebpf4jnsgd1na2vs0mg"},{"bike_id":"10172a6d-e911-4bfb-a032-322301aca9bb","system_id":"levelo_inurba_marseille","lat":43.29196,"lon":5.35812,"is_reserved":false,"is_disabled":false,"rental_uris":{"android":"levelo://app?vid=10172a6d-e911-4bfb-a032-322301aca9bb","ios":"levelo://app?vid=10172a6d-e911-4bfb-a032-322301aca9bb"},"vehicle_type_id":"4","last_reported":1746256160,"current_range_meters":16000,"station_id":"ce4bhb12rcd13ifvqel0","pricing_plan_id":"cebpf4jnsgd1na2vs0mg"},{"bike_id":"b8d6bd6b-e69d-4869-8d67-2bbec570ca30","system_id":"levelo_inurba_marseille","lat":43.284,"lon":5.37525,"is_reserved":false,"is_disabled":false,"rental_uris":{"android":"levelo://app?vid=b8d6bd6b-e69d-4869-8d67-2bbec570ca30","ios":"levelo://app?vid=b8d6bd6b-e69d-4869-8d67-2bbec570ca30"},"vehicle_type_id":"4","last_reported":1746256160,"current_range_meters":16000,"station_id":"ce4bh412rcd13ifvqds0","pricing_plan_id":"cebpf4jnsgd1na2vs0mg"},{"bike_id":"3ceaa7ea-07cb-4eb1-9b1a-50ec2938631e","system_id":"levelo_inurba_marseille","lat":43.31112,"lon":5.37761,"is_reserved":false,"is_disabled":false,"rental_uris":{"android":"levelo://app?vid=3ceaa7ea-07cb-4eb1-9b1a-50ec2938631e","ios":"levelo://app?vid=3ceaa7ea-07cb-4eb1-9b1a-50ec2938631e"},"vehicle_type_id":"4","last_reported":1746256160,"current_range_meters":16400,"station_id":"ce4bgt92rcd13ifvqcg0","pricing_plan_id":"cebpf4jnsgd1na2vs0mg"},{"bike_id":"b9139095-2881-49e4-b714-9d611b216345","system_id":"levelo_inurba_marseille","lat":43.31897,"lon":5.36882,"is_reserved":false,"is_disabled":false,"rental_uris":{"android":"levelo://app?vid=b9139095-2881-49e4-b714-9d611b216345","ios":"levelo://app?vid=b9139095-2881-49e4-b714-9d611b216345"},"vehicle_type_id":"4","last_reported":1746256160,"current_range_meters":16400,"station_id":"","pricing_plan_id":"cebpf4jnsgd1na2vs0mg"},{"bike_id":"272da454-799c-41bf-a833-37af71527be9","system_id":"levelo_inurba_marseille","lat":43.29948,"lon":5.37018,"is_reserved":false,"is_disabled":false,"rental_uris":{"android":"levelo://app?vid=272da454-799c-41bf-a833-37af71527be9","ios":"levelo://app?vid=272da454-799c-41bf-a833-37af71527be9"},"vehicle_type_id":"4","last_reported":1746256160,"current_range_meters":16400,"station_id":"","pricing_plan_id":"cebpf4jnsgd1na2vs0mg"},{"bike_id":"e0ceefc0-61c9-406f-91eb-ef69db9dbe42","system_id":"levelo_inurba_marseille","lat":43.26112,"lon":5.41468,"is_reserved":false,"is_disabled":false,"rental_uris":{"android":"levelo://app?vid=e0ceefc0-61c9-406f-91eb-ef69db9dbe42","ios":"levelo://app?vid=e0ceefc0-61c9-406f-91eb-ef69db9dbe42"},"vehicle_type_id":"4","last_reported":1746256160,"current_range_meters":16800,"station_id":"","pricing_plan_id":"cebpf4jnsgd1na2vs0mg"},{"bike_id":"13f45c48-59a4-4b11-8dcf-2c91f5157d7a","system_id":"levelo_inurba_marseille","lat":43.31485,"lon":5.37316,"is_reserved":false,"is_disabled":false,"rental_uris":{"android":"levelo://app?vid=13f45c48-59a4-4b11-8dcf-2c91f5157d7a","ios":"levelo://app?vid=13f45c48-59a4-4b11-8dcf-2c91f5157d7a"},"vehicle_type_id":"4","last_reported":1746256160,"current_range_meters":16800,"station_id":"ce4bgt12rcd13ifvqcd0","pricing_plan_id":"cebpf4jnsgd1na2vs0mg"},{"bike_id":"0bb0a6cd-b8a5-41d3-88ec-e9648a03c7f5","system_id":"levelo_inurba_marseille","lat":43.25933,"lon":5.40879,"is_reserved":false,"is_disabled":true,"rental_uris":{"android":"levelo://app?vid=0bb0a6cd-b8a5-41d3-88ec-e9648a03c7f5","ios":"levelo://app?vid=0bb0a6cd-b8a5-41d3-88ec-e9648a03c7f5"},"vehicle_type_id":"4","last_reported":1746256160,"current_range_meters":16800,"station_id":"ce4bhm92rcd13ifvqglg","pricing_plan_id":"cebpf4jnsgd1na2vs0mg"},{"bike_id":"2202ec41-05e8-4322-a464-f318801b9a0a","system_id":"levelo_inurba_marseille","lat":43.26927,"lon":5.38909,"is_reserved":false,"is_disabled":false,"rental_uris":{"android":"levelo://app?vid=2202ec41-05e8-4322-a464-f318801b9a0a","ios":"levelo://app?vid=2202ec41-05e8-4322-a464-f318801b9a0a"},"vehicle_type_id":"4","last_reported":1746256160,"current_range_meters":16800,"station_id":"ce4bhhh2rcd13ifvqfl0","pricing_plan_id":"cebpf4jnsgd1na2vs0mg"},{"bike_id":"3f506505-a089-4076-bc43-08024cf6ce18","system_id":"levelo_inurba_marseille","lat":43.30913,"lon":5.37191,"is_reserved":false,"is_disabled":false,"rental_uris":{"android":"levelo://app?vid=3f506505-a089-4076-bc43-08024cf6ce18","ios":"levelo://app?vid=3f506505-a089-4076-bc43-08024cf6ce18"},"vehicle_type_id":"4","last_reported":1746256160,"current_range_meters":16800,"station_id":"ce4bguh2rcd13ifvqckg","pricing_plan_id":"cebpf4jnsgd1na2vs0mg"},{"bike_id":"6cad99dd-53e1-4eb9-aa3c-4dd9c0422e70","system_id":"levelo_inurba_marseille","lat":43.30414,"lon":5.39741,"is_reserved":false,"is_disabled":true,"rental_uris":{"android":"levelo://app?vid=6cad99dd-53e1-4eb9-aa3c-4dd9c0422e70","ios":"levelo://app?vid=6cad99dd-53e1-4eb9-aa3c-4dd9c0422e70"},"vehicle_type_id":"4","last_reported":1746256160,"current_range_meters":17200,"station_id":"ce4bh092rcd13ifvqd20","pricing_plan_id":"cebpf4jnsgd1na2vs0mg"},{"bike_id":"ca491e5c-cc26-4369-9359-35ed40335578","system_id":"levelo_inurba_marseille","lat":43.24165,"lon":5.39742,"is_reserved":false,"is_disabled":true,"rental_uris":{"android":"levelo://app?vid=ca491e5c-cc26-4369-9359-35ed40335578","ios":"levelo://app?vid=ca491e5c-cc26-4369-9359-35ed40335578"},"vehicle_type_id":"4","last_reported":1746256160,"current_range_meters":17200,"station_id":"ce4bhn12rcd13ifvqgpg","pricing_plan_id":"cebpf4jnsgd1na2vs0mg"},{"bike_id":"4cac8a45-449f-449e-9ca9-04490eb84c50","system_id":"levelo_inurba_marseille","lat":43.240659,"lon":5.377649,"is_reserved":false,"is_disabled":false,"rental_uris":{"android":"levelo://app?vid=4cac8a45-449f-449e-9ca9-04490eb84c50","ios":"levelo://app?vid=4cac8a45-449f-449e-9ca9-04490eb84c50"},"vehicle_type_id":"4","last_reported":1746256160,"current_range_meters":17200,"station_id":"ce4bhnp2rcd13ifvqgvg","pricing_plan_id":"cebpf4jnsgd1na2vs0mg"},{"bike_id":"cdfd7ebf-d40f-442e-8508-ccaa5f6b29f7","system_id":"levelo_inurba_marseille","lat":43.25929,"lon":5.40874,"is_reserved":false,"is_disabled":false,"rental_uris":{"android":"levelo://app?vid=cdfd7ebf-d40f-442e-8508-ccaa5f6b29f7","ios":"levelo://app?vid=cdfd7ebf-d40f-442e-8508-ccaa5f6b29f7"},"vehicle_type_id":"4","last_reported":1746256160,"current_range_meters":17200,"station_id":"ce4bhm92rcd13ifvqglg","pricing_plan_id":"cebpf4jnsgd1na2vs0mg"},{"bike_id":"4fd57909-8260-462c-adea-94e67f7a5406","system_id":"levelo_inurba_marseille","lat":43.310688,"lon":5.383499,"is_reserved":false,"is_disabled":false,"rental_uris":{"android":"levelo://app?vid=4fd57909-8260-462c-adea-94e67f7a5406","ios":"levelo://app?vid=4fd57909-8260-462c-adea-94e67f7a5406"},"vehicle_type_id":"4","last_reported":1746256160,"current_range_meters":17200,"station_id":"ce4bgv92rcd13ifvqcr0","pricing_plan_id":"cebpf4jnsgd1na2vs0mg"},{"bike_id":"50980193-b42c-4f27-acef-93e856756aaa","system_id":"levelo_inurba_marseille","lat":43.33781,"lon":5.37453,"is_reserved":false,"is_disabled":false,"rental_uris":{"android":"levelo://app?vid=50980193-b42c-4f27-acef-93e856756aaa","ios":"levelo://app?vid=50980193-b42c-4f27-acef-93e856756aaa"},"vehicle_type_id":"4","last_reported":1746256160,"current_range_meters":17200,"station_id":"","pricing_plan_id":"cebpf4jnsgd1na2vs0mg"},{"bike_id":"73792d1f-5126-4fa6-ae02-d3f1f02502ac","system_id":"levelo_inurba_marseille","lat":43.25085,"lon":5.39513,"is_reserved":false,"is_disabled":false,"rental_uris":{"android":"levelo://app?vid=73792d1f-5126-4fa6-ae02-d3f1f02502ac","ios":"levelo://app?vid=73792d1f-5126-4fa6-ae02-d3f1f02502ac"},"vehicle_type_id":"4","last_reported":1746256160,"current_range_meters":17600,"station_id":"ce4bhm12rcd13ifvqgkg","pricing_plan_id":"cebpf4jnsgd1na2vs0mg"},{"bike_id":"a8f57f2b-dc8a-40c9-9d19-a8c7c5f83310","system_id":"levelo_inurba_marseille","lat":43.269393,"lon":5.402877,"is_reserved":false,"is_disabled":true,"rental_uris":{"android":"levelo://app?vid=a8f57f2b-dc8a-40c9-9d19-a8c7c5f83310","ios":"levelo://app?vid=a8f57f2b-dc8a-40c9-9d19-a8c7c5f83310"},"vehicle_type_id":"4","last_reported":1746256160,"current_range_meters":17600,"station_id":"cjm6bp8fraef2m0cb0m0","pricing_plan_id":"cebpf4jnsgd1na2vs0mg"},{"bike_id":"0df7cbdc-0823-4846-ae15-f96ec53c12bc","system_id":"levelo_inurba_marseille","lat":43.31104,"lon":5.37769,"is_reserved":false,"is_disabled":false,"rental_uris":{"android":"levelo://app?vid=0df7cbdc-0823-4846-ae15-f96ec53c12bc","ios":"levelo://app?vid=0df7cbdc-0823-4846-ae15-f96ec53c12bc"},"vehicle_type_id":"4","last_reported":1746256160,"current_range_meters":17600,"station_id":"ce4bgt92rcd13ifvqcg0","pricing_plan_id":"cebpf4jnsgd1na2vs0mg"},{"bike_id":"764745f4-22f3-4d3f-9ccf-0bef40653811","system_id":"levelo_inurba_marseille","lat":43.30801,"lon":5.3723,"is_reserved":false,"is_disabled":false,"rental_uris":{"android":"levelo://app?vid=764745f4-22f3-4d3f-9ccf-0bef40653811","ios":"levelo://app?vid=764745f4-22f3-4d3f-9ccf-0bef40653811"},"vehicle_type_id":"4","last_reported":1746256160,"current_range_meters":17600,"station_id":"","pricing_plan_id":"cebpf4jnsgd1na2vs0mg"},{"bike_id":"383a9fec-74e2-4a49-b93b-c40bae44d5fc","system_id":"levelo_inurba_marseille","lat":43.30256,"lon":5.40093,"is_reserved":false,"is_disabled":false,"rental_uris":{"android":"levelo://app?vid=383a9fec-74e2-4a49-b93b-c40bae44d5fc","ios":"levelo://app?vid=383a9fec-74e2-4a49-b93b-c40bae44d5fc"},"vehicle_type_id":"4","last_reported":1746256160,"current_range_meters":18000,"station_id":"ce4bgvh2rcd13ifvqcs0","pricing_plan_id":"cebpf4jnsgd1na2vs0mg"},{"bike_id":"d76bfe54-9f31-429e-b3fd-66658987c5a6","system_id":"levelo_inurba_marseille","lat":43.32252,"lon":5.36762,"is_reserved":false,"is_disabled":false,"rental_uris":{"android":"levelo://app?vid=d76bfe54-9f31-429e-b3fd-66658987c5a6","ios":"levelo://app?vid=d76bfe54-9f31-429e-b3fd-66658987c5a6"},"vehicle_type_id":"4","last_reported":1746256160,"current_range_meters":18000,"station_id":"","pricing_plan_id":"cebpf4jnsgd1na2vs0mg"},{"bike_id":"26756fef-0160-4a0d-8cff-d5dbe90f6f14","system_id":"levelo_inurba_marseille","lat":43.29786,"lon":5.38087,"is_reserved":false,"is_disabled":false,"rental_uris":{"android":"levelo://app?vid=26756fef-0160-4a0d-8cff-d5dbe90f6f14","ios":"levelo://app?vid=26756fef-0160-4a0d-8cff-d5dbe90f6f14"},"vehicle_type_id":"4","last_reported":1746256160,"current_range_meters":18000,"station_id":"ce4bgip2rcd13ifvqbb0","pricing_plan_id":"cebpf4jnsgd1na2vs0mg"},{"bike_id":"d3bbd2a8-15ac-439b-b389-b2eab154687d","system_id":"levelo_inurba_marseille","lat":43.3045,"lon":5.37906,"is_reserved":false,"is_disabled":false,"rental_uris":{"android":"levelo://app?vid=d3bbd2a8-15ac-439b-b389-b2eab154687d","ios":"levelo://app?vid=d3bbd2a8-15ac-439b-b389-b2eab154687d"},"vehicle_type_id":"4","last_reported":1746256160,"current_range_meters":17600,"station_id":"ce4bgup2rcd13ifvqcn0","pricing_plan_id":"cebpf4jnsgd1na2vs0mg"},{"bike_id":"eaadb78f-0516-400e-a932-418372f4ca70","system_id":"levelo_inurba_marseille","lat":43.30405,"lon":5.41264,"is_reserved":false,"is_disabled":true,"rental_uris":{"android":"levelo://app?vid=eaadb78f-0516-400e-a932-418372f4ca70","ios":"levelo://app?vid=eaadb78f-0516-400e-a932-418372f4ca70"},"vehicle_type_id":"4","last_reported":1746256160,"current_range_meters":18000,"station_id":"ce4bhop2rcd13ifvqh8g","pricing_plan_id":"cebpf4jnsgd1na2vs0mg"},{"bike_id":"387e9413-883e-4327-8f1c-8ab11f52136f","system_id":"levelo_inurba_marseille","lat":43.28657,"lon":5.36343,"is_reserved":false,"is_disabled":true,"rental_uris":{"android":"levelo://app?vid=387e9413-883e-4327-8f1c-8ab11f52136f","ios":"levelo://app?vid=387e9413-883e-4327-8f1c-8ab11f52136f"},"vehicle_type_id":"4","last_reported":1746256160,"current_range_meters":18000,"station_id":"ce4bhah2rcd13ifvqej0","pricing_plan_id":"cebpf4jnsgd1na2vs0mg"},{"bike_id":"bc001080-a241-4df9-9258-794a1186b1b9","system_id":"levelo_inurba_marseille","lat":43.28405,"lon":5.37514,"is_reserved":false,"is_disabled":false,"rental_uris":{"android":"levelo://app?vid=bc001080-a241-4df9-9258-794a1186b1b9","ios":"levelo://app?vid=bc001080-a241-4df9-9258-794a1186b1b9"},"vehicle_type_id":"4","last_reported":1746256160,"current_range_meters":18000,"station_id":"ce4bh412rcd13ifvqds0","pricing_plan_id":"cebpf4jnsgd1na2vs0mg"},{"bike_id":"6eac989f-2c51-4d21-a0eb-00a05abd69f3","system_id":"levelo_inurba_marseille","lat":43.3236,"lon":5.36748,"is_reserved":false,"is_disabled":false,"rental_uris":{"android":"levelo://app?vid=6eac989f-2c51-4d21-a0eb-00a05abd69f3","ios":"levelo://app?vid=6eac989f-2c51-4d21-a0eb-00a05abd69f3"},"vehicle_type_id":"4","last_reported":1746256160,"current_range_meters":18800,"station_id":"ce4bhsh2rcd13ifvqi2g","pricing_plan_id":"cebpf4jnsgd1na2vs0mg"},{"bike_id":"2cd00fa1-aa9b-4b46-86ba-129fb9364ad2","system_id":"levelo_inurba_marseille","lat":43.23157,"lon":5.43722,"is_reserved":false,"is_disabled":false,"rental_uris":{"android":"levelo://app?vid=2cd00fa1-aa9b-4b46-86ba-129fb9364ad2","ios":"levelo://app?vid=2cd00fa1-aa9b-4b46-86ba-129fb9364ad2"},"vehicle_type_id":"4","last_reported":1746256160,"current_range_meters":18800,"station_id":"ce4bhmp2rcd13ifvqgog","pricing_plan_id":"cebpf4jnsgd1na2vs0mg"},{"bike_id":"e34680cc-effe-4b28-bc4e-568a66cdf076","system_id":"levelo_inurba_marseille","lat":43.277066,"lon":5.419767,"is_reserved":false,"is_disabled":false,"rental_uris":{"android":"levelo://app?vid=e34680cc-effe-4b28-bc4e-568a66cdf076","ios":"levelo://app?vid=e34680cc-effe-4b28-bc4e-568a66cdf076"},"vehicle_type_id":"4","last_reported":1746256160,"current_range_meters":18800,"station_id":"","pricing_plan_id":"cebpf4jnsgd1na2vs0mg"},{"bike_id":"be58ce8b-41be-4406-96e6-d94ff951d7a0","system_id":"levelo_inurba_marseille","lat":43.25726,"lon":5.41117,"is_reserved":false,"is_disabled":true,"rental_uris":{"android":"levelo://app?vid=be58ce8b-41be-4406-96e6-d94ff951d7a0","ios":"levelo://app?vid=be58ce8b-41be-4406-96e6-d94ff951d7a0"},"vehicle_type_id":"4","last_reported":1746256160,"current_range_meters":18800,"station_id":"ce4bhkp2rcd13ifvqgd0","pricing_plan_id":"cebpf4jnsgd1na2vs0mg"},{"bike_id":"c8e16fcb-5510-4723-b6e7-2aa49c1b3b8d","system_id":"levelo_inurba_marseille","lat":43.31998,"lon":5.36977,"is_reserved":false,"is_disabled":false,"rental_uris":{"android":"levelo://app?vid=c8e16fcb-5510-4723-b6e7-2aa49c1b3b8d","ios":"levelo://app?vid=c8e16fcb-5510-4723-b6e7-2aa49c1b3b8d"},"vehicle_type_id":"4","last_reported":1746256160,"current_range_meters":18800,"station_id":"","pricing_plan_id":"cebpf4jnsgd1na2vs0mg"},{"bike_id":"ec6da0aa-0845-4bad-8a7b-8655154f5109","system_id":"levelo_inurba_marseille","lat":43.30803,"lon":5.43521,"is_reserved":false,"is_disabled":false,"rental_uris":{"android":"levelo://app?vid=ec6da0aa-0845-4bad-8a7b-8655154f5109","ios":"levelo://app?vid=ec6da0aa-0845-4bad-8a7b-8655154f5109"},"vehicle_type_id":"4","last_reported":1746256160,"current_range_meters":18800,"station_id":"ce4bhph2rcd13ifvqheg","pricing_plan_id":"cebpf4jnsgd1na2vs0mg"},{"bike_id":"f3c642e6-2df8-4435-9b4e-9c4d30828a61","system_id":"levelo_inurba_marseille","lat":43.28358,"lon":5.381,"is_reserved":false,"is_disabled":false,"rental_uris":{"android":"levelo://app?vid=f3c642e6-2df8-4435-9b4e-9c4d30828a61","ios":"levelo://app?vid=f3c642e6-2df8-4435-9b4e-9c4d30828a61"},"vehicle_type_id":"4","last_reported":1746256160,"current_range_meters":19200,"station_id":"ce4bh412rcd13ifvqdr0","pricing_plan_id":"cebpf4jnsgd1na2vs0mg"},{"bike_id":"2b068793-bd4f-47f1-9e76-a609d6f1c404","system_id":"levelo_inurba_marseille","lat":43.28859,"lon":5.35852,"is_reserved":false,"is_disabled":false,"rental_uris":{"android":"levelo://app?vid=2b068793-bd4f-47f1-9e76-a609d6f1c404","ios":"levelo://app?vid=2b068793-bd4f-47f1-9e76-a609d6f1c404"},"vehicle_type_id":"4","last_reported":1746256160,"current_range_meters":19600,"station_id":"ce4bhb12rcd13ifvqem0","pricing_plan_id":"cebpf4jnsgd1na2vs0mg"},{"bike_id":"93bff410-b448-4e28-975b-d8631f652a97","system_id":"levelo_inurba_marseille","lat":43.285697,"lon":5.395171,"is_reserved":false,"is_disabled":false,"rental_uris":{"android":"levelo://app?vid=93bff410-b448-4e28-975b-d8631f652a97","ios":"levelo://app?vid=93bff410-b448-4e28-975b-d8631f652a97"},"vehicle_type_id":"4","last_reported":1746256160,"current_range_meters":19200,"station_id":"ce4bh292rcd13ifvqdg0","pricing_plan_id":"cebpf4jnsgd1na2vs0mg"},{"bike_id":"9d84a0c3-5dec-44a5-84f5-e550a4571ed5","system_id":"levelo_inurba_marseille","lat":43.31688,"lon":5.40477,"is_reserved":false,"is_disabled":false,"rental_uris":{"android":"levelo://app?vid=9d84a0c3-5dec-44a5-84f5-e550a4571ed5","ios":"levelo://app?vid=9d84a0c3-5dec-44a5-84f5-e550a4571ed5"},"vehicle_type_id":"4","last_reported":1746256160,"current_range_meters":19200,"station_id":"ce4bh012rcd13ifvqd00","pricing_plan_id":"cebpf4jnsgd1na2vs0mg"},{"bike_id":"d6a6f75b-73c3-463c-a1a6-35bbb4932dc9","system_id":"levelo_inurba_marseille","lat":43.274944,"lon":5.424619,"is_reserved":false,"is_disabled":false,"rental_uris":{"android":"levelo://app?vid=d6a6f75b-73c3-463c-a1a6-35bbb4932dc9","ios":"levelo://app?vid=d6a6f75b-73c3-463c-a1a6-35bbb4932dc9"},"vehicle_type_id":"4","last_reported":1746256160,"current_range_meters":19200,"station_id":"ce4bhn92rcd13ifvqgrg","pricing_plan_id":"cebpf4jnsgd1na2vs0mg"},{"bike_id":"66b8fc62-d5c9-4106-b7c0-1a686c2a706c","system_id":"levelo_inurba_marseille","lat":43.34161,"lon":5.40901,"is_reserved":false,"is_disabled":false,"rental_uris":{"android":"levelo://app?vid=66b8fc62-d5c9-4106-b7c0-1a686c2a706c","ios":"levelo://app?vid=66b8fc62-d5c9-4106-b7c0-1a686c2a706c"},"vehicle_type_id":"4","last_reported":1746256160,"current_range_meters":19200,"station_id":"ce4bhqh2rcd13ifvqhlg","pricing_plan_id":"cebpf4jnsgd1na2vs0mg"},{"bike_id":"5696abf1-193c-4d00-9f52-cdbdf3bb978e","system_id":"levelo_inurba_marseille","lat":43.30951,"lon":5.39039,"is_reserved":false,"is_disabled":true,"rental_uris":{"android":"levelo://app?vid=5696abf1-193c-4d00-9f52-cdbdf3bb978e","ios":"levelo://app?vid=5696abf1-193c-4d00-9f52-cdbdf3bb978e"},"vehicle_type_id":"4","last_reported":1746256160,"current_range_meters":19200,"station_id":"ce4bgup2rcd13ifvqco0","pricing_plan_id":"cebpf4jnsgd1na2vs0mg"},{"bike_id":"1a877ed8-aa67-486c-a34b-30e006e67ea0","system_id":"levelo_inurba_marseille","lat":43.28462,"lon":5.38037,"is_reserved":false,"is_disabled":false,"rental_uris":{"android":"levelo://app?vid=1a877ed8-aa67-486c-a34b-30e006e67ea0","ios":"levelo://app?vid=1a877ed8-aa67-486c-a34b-30e006e67ea0"},"vehicle_type_id":"4","last_reported":1746256160,"current_range_meters":19200,"station_id":"","pricing_plan_id":"cebpf4jnsgd1na2vs0mg"},{"bike_id":"ee99ba6e-e5f1-4473-a6f8-583938304dee","system_id":"levelo_inurba_marseille","lat":43.30185,"lon":5.3806,"is_reserved":false,"is_disabled":false,"rental_uris":{"android":"levelo://app?vid=ee99ba6e-e5f1-4473-a6f8-583938304dee","ios":"levelo://app?vid=ee99ba6e-e5f1-4473-a6f8-583938304dee"},"vehicle_type_id":"4","last_reported":1746256160,"current_range_meters":19200,"station_id":"","pricing_plan_id":"cebpf4jnsgd1na2vs0mg"},{"bike_id":"05cbd45a-9f6b-4466-8102-d65605e29836","system_id":"levelo_inurba_marseille","lat":43.30153,"lon":5.38092,"is_reserved":false,"is_disabled":false,"rental_uris":{"android":"levelo://app?vid=05cbd45a-9f6b-4466-8102-d65605e29836","ios":"levelo://app?vid=05cbd45a-9f6b-4466-8102-d65605e29836"},"vehicle_type_id":"4","last_reported":1746256160,"current_range_meters":19600,"station_id":"ce4bgjp2rcd13ifvqbh0","pricing_plan_id":"cebpf4jnsgd1na2vs0mg"},{"bike_id":"e48facf2-cd80-422d-936a-277d567d7555","system_id":"levelo_inurba_marseille","lat":43.28618,"lon":5.35115,"is_reserved":false,"is_disabled":true,"rental_uris":{"android":"levelo://app?vid=e48facf2-cd80-422d-936a-277d567d7555","ios":"levelo://app?vid=e48facf2-cd80-422d-936a-277d567d7555"},"vehicle_type_id":"4","last_reported":1746256160,"current_range_meters":19600,"station_id":"ce4bhch2rcd13ifvqeug","pricing_plan_id":"cebpf4jnsgd1na2vs0mg"},{"bike_id":"8d61aad8-d7b2-4fb7-92ec-cd45e88e0c99","system_id":"levelo_inurba_marseille","lat":43.33011,"lon":5.39058,"is_reserved":false,"is_disabled":true,"rental_uris":{"android":"levelo://app?vid=8d61aad8-d7b2-4fb7-92ec-cd45e88e0c99","ios":"levelo://app?vid=8d61aad8-d7b2-4fb7-92ec-cd45e88e0c99"},"vehicle_type_id":"4","last_reported":1746256160,"current_range_meters":19600,"station_id":"ce4bhr92rcd13ifvqhrg","pricing_plan_id":"cebpf4jnsgd1na2vs0mg"},{"bike_id":"7f61457f-a8bd-43bb-93a3-252837b6e6b4","system_id":"levelo_inurba_marseille","lat":43.274968,"lon":5.424557,"is_reserved":false,"is_disabled":false,"rental_uris":{"android":"levelo://app?vid=7f61457f-a8bd-43bb-93a3-252837b6e6b4","ios":"levelo://app?vid=7f61457f-a8bd-43bb-93a3-252837b6e6b4"},"vehicle_type_id":"4","last_reported":1746256160,"current_range_meters":19600,"station_id":"ce4bhn92rcd13ifvqgrg","pricing_plan_id":"cebpf4jnsgd1na2vs0mg"},{"bike_id":"17517de0-fbfa-4e7e-8f85-5b43619482ea","system_id":"levelo_inurba_marseille","lat":43.25103,"lon":5.40325,"is_reserved":false,"is_disabled":false,"rental_uris":{"android":"levelo://app?vid=17517de0-fbfa-4e7e-8f85-5b43619482ea","ios":"levelo://app?vid=17517de0-fbfa-4e7e-8f85-5b43619482ea"},"vehicle_type_id":"4","last_reported":1746256160,"current_range_meters":19600,"station_id":"ce4bhlh2rcd13ifvqgig","pricing_plan_id":"cebpf4jnsgd1na2vs0mg"},{"bike_id":"02d5d9fb-d158-4625-ad65-d55e5333397f","system_id":"levelo_inurba_marseille","lat":43.2805,"lon":5.36953,"is_reserved":false,"is_disabled":false,"rental_uris":{"android":"levelo://app?vid=02d5d9fb-d158-4625-ad65-d55e5333397f","ios":"levelo://app?vid=02d5d9fb-d158-4625-ad65-d55e5333397f"},"vehicle_type_id":"4","last_reported":1746256160,"current_range_meters":19200,"station_id":"ce4bha12rcd13ifvqef0","pricing_plan_id":"cebpf4jnsgd1na2vs0mg"},{"bike_id":"c0f19189-dc1a-488b-9b6d-d969d2a90cdb","system_id":"levelo_inurba_marseille","lat":43.30804,"lon":5.38151,"is_reserved":false,"is_disabled":false,"rental_uris":{"android":"levelo://app?vid=c0f19189-dc1a-488b-9b6d-d969d2a90cdb","ios":"levelo://app?vid=c0f19189-dc1a-488b-9b6d-d969d2a90cdb"},"vehicle_type_id":"4","last_reported":1746256160,"current_range_meters":19600,"station_id":"ce4bgt12rcd13ifvqce0","pricing_plan_id":"cebpf4jnsgd1na2vs0mg"},{"bike_id":"8f6d4bdb-861d-4aea-902b-038a69ace6b9","system_id":"levelo_inurba_marseille","lat":43.24387,"lon":5.37056,"is_reserved":false,"is_disabled":false,"rental_uris":{"android":"levelo://app?vid=8f6d4bdb-861d-4aea-902b-038a69ace6b9","ios":"levelo://app?vid=8f6d4bdb-861d-4aea-902b-038a69ace6b9"},"vehicle_type_id":"4","last_reported":1746256160,"current_range_meters":19600,"station_id":"ce4bhhh2rcd13ifvqfk0","pricing_plan_id":"cebpf4jnsgd1na2vs0mg"},{"bike_id":"346796c8-e979-4d5e-8fb4-5a13331d58b9","system_id":"levelo_inurba_marseille","lat":43.29033,"lon":5.39954,"is_reserved":false,"is_disabled":false,"rental_uris":{"android":"levelo://app?vid=346796c8-e979-4d5e-8fb4-5a13331d58b9","ios":"levelo://app?vid=346796c8-e979-4d5e-8fb4-5a13331d58b9"},"vehicle_type_id":"4","last_reported":1746256160,"current_range_meters":20000,"station_id":"ce4bh392rcd13ifvqdm0","pricing_plan_id":"cebpf4jnsgd1na2vs0mg"},{"bike_id":"16217ada-f755-489a-aa32-438b8716756c","system_id":"levelo_inurba_marseille","lat":43.28651,"lon":5.38642,"is_reserved":false,"is_disabled":false,"rental_uris":{"android":"levelo://app?vid=16217ada-f755-489a-aa32-438b8716756c","ios":"levelo://app?vid=16217ada-f755-489a-aa32-438b8716756c"},"vehicle_type_id":"4","last_reported":1746256160,"current_range_meters":19600,"station_id":"ce4bh492rcd13ifvqdug","pricing_plan_id":"cebpf4jnsgd1na2vs0mg"},{"bike_id":"3699300a-5a2a-424f-96f5-b5854001350a","system_id":"levelo_inurba_marseille","lat":43.28392,"lon":5.38113,"is_reserved":false,"is_disabled":false,"rental_uris":{"android":"levelo://app?vid=3699300a-5a2a-424f-96f5-b5854001350a","ios":"levelo://app?vid=3699300a-5a2a-424f-96f5-b5854001350a"},"vehicle_type_id":"4","last_reported":1746256160,"current_range_meters":20000,"station_id":"ce4bh412rcd13ifvqdr0","pricing_plan_id":"cebpf4jnsgd1na2vs0mg"},{"bike_id":"eecad756-0175-4ca3-91d2-cebe2399c812","system_id":"levelo_inurba_marseille","lat":43.29304,"lon":5.3717,"is_reserved":false,"is_disabled":false,"rental_uris":{"android":"levelo://app?vid=eecad756-0175-4ca3-91d2-cebe2399c812","ios":"levelo://app?vid=eecad756-0175-4ca3-91d2-cebe2399c812"},"vehicle_type_id":"4","last_reported":1746256160,"current_range_meters":19600,"station_id":"ce4bgh92rcd13ifvqb40","pricing_plan_id":"cebpf4jnsgd1na2vs0mg"},{"bike_id":"249dbb21-dfe4-4dd5-9e8c-27a5d98cb11a","system_id":"levelo_inurba_marseille","lat":43.31062,"lon":5.38349,"is_reserved":false,"is_disabled":false,"rental_uris":{"android":"levelo://app?vid=249dbb21-dfe4-4dd5-9e8c-27a5d98cb11a","ios":"levelo://app?vid=249dbb21-dfe4-4dd5-9e8c-27a5d98cb11a"},"vehicle_type_id":"4","last_reported":1746256160,"current_range_meters":20800,"station_id":"ce4bgv92rcd13ifvqcr0","pricing_plan_id":"cebpf4jnsgd1na2vs0mg"},{"bike_id":"545b7e6d-b100-463e-92df-e29caa4a3f34","system_id":"levelo_inurba_marseille","lat":43.29621,"lon":5.37165,"is_reserved":false,"is_disabled":false,"rental_uris":{"android":"levelo://app?vid=545b7e6d-b100-463e-92df-e29caa4a3f34","ios":"levelo://app?vid=545b7e6d-b100-463e-92df-e29caa4a3f34"},"vehicle_type_id":"4","last_reported":1746256160,"current_range_meters":20400,"station_id":"ce4bgnh2rcd13ifvqc0g","pricing_plan_id":"cebpf4jnsgd1na2vs0mg"},{"bike_id":"5fb524f4-92fb-4585-b2e7-5d1799125681","system_id":"levelo_inurba_marseille","lat":43.317001,"lon":5.377797,"is_reserved":false,"is_disabled":false,"rental_uris":{"android":"levelo://app?vid=5fb524f4-92fb-4585-b2e7-5d1799125681","ios":"levelo://app?vid=5fb524f4-92fb-4585-b2e7-5d1799125681"},"vehicle_type_id":"4","last_reported":1746256160,"current_range_meters":20800,"station_id":"ce4bgth2rcd13ifvqch0","pricing_plan_id":"cebpf4jnsgd1na2vs0mg"},{"bike_id":"e0edb293-9a2d-4158-9fd8-b1828363d706","system_id":"levelo_inurba_marseille","lat":43.29427,"lon":5.39752,"is_reserved":false,"is_disabled":false,"rental_uris":{"android":"levelo://app?vid=e0edb293-9a2d-4158-9fd8-b1828363d706","ios":"levelo://app?vid=e0edb293-9a2d-4158-9fd8-b1828363d706"},"vehicle_type_id":"4","last_reported":1746256160,"current_range_meters":20800,"station_id":"ce4bh3h2rcd13ifvqdo0","pricing_plan_id":"cebpf4jnsgd1na2vs0mg"},{"bike_id":"dcdf0b8b-ec60-490a-9293-a94b9cb6cee9","system_id":"levelo_inurba_marseille","lat":43.29626,"lon":5.37152,"is_reserved":false,"is_disabled":false,"rental_uris":{"android":"levelo://app?vid=dcdf0b8b-ec60-490a-9293-a94b9cb6cee9","ios":"levelo://app?vid=dcdf0b8b-ec60-490a-9293-a94b9cb6cee9"},"vehicle_type_id":"4","last_reported":1746256160,"current_range_meters":20800,"station_id":"ce4bgnh2rcd13ifvqc0g","pricing_plan_id":"cebpf4jnsgd1na2vs0mg"},{"bike_id":"e14cacb0-5879-4345-802f-1614fcf60282","system_id":"levelo_inurba_marseille","lat":43.28939,"lon":5.3962,"is_reserved":false,"is_disabled":false,"rental_uris":{"android":"levelo://app?vid=e14cacb0-5879-4345-802f-1614fcf60282","ios":"levelo://app?vid=e14cacb0-5879-4345-802f-1614fcf60282"},"vehicle_type_id":"4","last_reported":1746256160,"current_range_meters":20800,"station_id":"ce4bh3h2rcd13ifvqdn0","pricing_plan_id":"cebpf4jnsgd1na2vs0mg"},{"bike_id":"588a8046-ba9e-4d88-afb3-1aa7442bd884","system_id":"levelo_inurba_marseille","lat":43.28002,"lon":5.40009,"is_reserved":false,"is_disabled":false,"rental_uris":{"android":"levelo://app?vid=588a8046-ba9e-4d88-afb3-1aa7442bd884","ios":"levelo://app?vid=588a8046-ba9e-4d88-afb3-1aa7442bd884"},"vehicle_type_id":"4","last_reported":1746256160,"current_range_meters":20800,"station_id":"ce4bho92rcd13ifvqh4g","pricing_plan_id":"cebpf4jnsgd1na2vs0mg"},{"bike_id":"541e646e-53fe-424b-adcc-80d2ba34e340","system_id":"levelo_inurba_marseille","lat":43.2319,"lon":5.39979,"is_reserved":false,"is_disabled":false,"rental_uris":{"android":"levelo://app?vid=541e646e-53fe-424b-adcc-80d2ba34e340","ios":"levelo://app?vid=541e646e-53fe-424b-adcc-80d2ba34e340"},"vehicle_type_id":"4","last_reported":1746256160,"current_range_meters":20800,"station_id":"ce4bhn12rcd13ifvqgqg","pricing_plan_id":"cebpf4jnsgd1na2vs0mg"},{"bike_id":"899f1c13-7008-4f05-81eb-05e3064d591d","system_id":"levelo_inurba_marseille","lat":43.28491,"lon":5.35046,"is_reserved":false,"is_disabled":false,"rental_uris":{"android":"levelo://app?vid=899f1c13-7008-4f05-81eb-05e3064d591d","ios":"levelo://app?vid=899f1c13-7008-4f05-81eb-05e3064d591d"},"vehicle_type_id":"4","last_reported":1746256160,"current_range_meters":20800,"station_id":"","pricing_plan_id":"cebpf4jnsgd1na2vs0mg"},{"bike_id":"72688617-9135-42da-8793-e5a91040f395","system_id":"levelo_inurba_marseille","lat":43.21742,"lon":5.34631,"is_reserved":false,"is_disabled":false,"rental_uris":{"android":"levelo://app?vid=72688617-9135-42da-8793-e5a91040f395","ios":"levelo://app?vid=72688617-9135-42da-8793-e5a91040f395"},"vehicle_type_id":"4","last_reported":1746256160,"current_range_meters":21600,"station_id":"st_cvj6r9ubvosntc0bgbag","pricing_plan_id":"cebpf4jnsgd1na2vs0mg"},{"bike_id":"d8b60368-ee34-45bc-856a-d4f3030d3f05","system_id":"levelo_inurba_marseille","lat":43.23178,"lon":5.39984,"is_reserved":false,"is_disabled":false,"rental_uris":{"android":"levelo://app?vid=d8b60368-ee34-45bc-856a-d4f3030d3f05","ios":"levelo://app?vid=d8b60368-ee34-45bc-856a-d4f3030d3f05"},"vehicle_type_id":"4","last_reported":1746256160,"current_range_meters":21600,"station_id":"ce4bhn12rcd13ifvqgqg","pricing_plan_id":"cebpf4jnsgd1na2vs0mg"},{"bike_id":"0f9a2cd7-e6db-49af-b6da-66947cc0c4c9","system_id":"levelo_inurba_marseille","lat":43.31075,"lon":5.38366,"is_reserved":false,"is_disabled":false,"rental_uris":{"android":"levelo://app?vid=0f9a2cd7-e6db-49af-b6da-66947cc0c4c9","ios":"levelo://app?vid=0f9a2cd7-e6db-49af-b6da-66947cc0c4c9"},"vehicle_type_id":"4","last_reported":1746256160,"current_range_meters":22000,"station_id":"ce4bgv92rcd13ifvqcr0","pricing_plan_id":"cebpf4jnsgd1na2vs0mg"},{"bike_id":"3b1de0f5-0479-4af7-bc18-4f07033e575a","system_id":"levelo_inurba_marseille","lat":43.288832,"lon":5.359632,"is_reserved":false,"is_disabled":false,"rental_uris":{"android":"levelo://app?vid=3b1de0f5-0479-4af7-bc18-4f07033e575a","ios":"levelo://app?vid=3b1de0f5-0479-4af7-bc18-4f07033e575a"},"vehicle_type_id":"4","last_reported":1746256160,"current_range_meters":21600,"station_id":"ce4bhb92rcd13ifvqen0","pricing_plan_id":"cebpf4jnsgd1na2vs0mg"},{"bike_id":"14b16b4c-a19e-48c4-a071-1b39e2445a40","system_id":"levelo_inurba_marseille","lat":43.23961,"lon":5.36642,"is_reserved":false,"is_disabled":false,"rental_uris":{"android":"levelo://app?vid=14b16b4c-a19e-48c4-a071-1b39e2445a40","ios":"levelo://app?vid=14b16b4c-a19e-48c4-a071-1b39e2445a40"},"vehicle_type_id":"4","last_reported":1746256160,"current_range_meters":22000,"station_id":"ce4bhi12rcd13ifvqfp0","pricing_plan_id":"cebpf4jnsgd1na2vs0mg"},{"bike_id":"fa1e6e10-bba1-4395-b606-d44d484fcf64","system_id":"levelo_inurba_marseille","lat":43.29595,"lon":5.37739,"is_reserved":false,"is_disabled":false,"rental_uris":{"android":"levelo://app?vid=fa1e6e10-bba1-4395-b606-d44d484fcf64","ios":"levelo://app?vid=fa1e6e10-bba1-4395-b606-d44d484fcf64"},"vehicle_type_id":"4","last_reported":1746256160,"current_range_meters":22400,"station_id":"ce4bgi92rcd13ifvqb90","pricing_plan_id":"cebpf4jnsgd1na2vs0mg"},{"bike_id":"cbe9032b-ff18-4bb1-b940-bde7497ff44e","system_id":"levelo_inurba_marseille","lat":43.30378,"lon":5.42491,"is_reserved":false,"is_disabled":true,"rental_uris":{"android":"levelo://app?vid=cbe9032b-ff18-4bb1-b940-bde7497ff44e","ios":"levelo://app?vid=cbe9032b-ff18-4bb1-b940-bde7497ff44e"},"vehicle_type_id":"4","last_reported":1746256160,"current_range_meters":22400,"station_id":"ce4bhoh2rcd13ifvqh6g","pricing_plan_id":"cebpf4jnsgd1na2vs0mg"},{"bike_id":"8ec68541-dc61-4e04-b3b9-5589cf0ccf2b","system_id":"levelo_inurba_marseille","lat":43.32537,"lon":5.41471,"is_reserved":false,"is_disabled":true,"rental_uris":{"android":"levelo://app?vid=8ec68541-dc61-4e04-b3b9-5589cf0ccf2b","ios":"levelo://app?vid=8ec68541-dc61-4e04-b3b9-5589cf0ccf2b"},"vehicle_type_id":"4","last_reported":1746256160,"current_range_meters":22800,"station_id":"ce4bhq12rcd13ifvqhhg","pricing_plan_id":"cebpf4jnsgd1na2vs0mg"},{"bike_id":"0c9ebfc6-ac05-41f7-9142-187df36f34b2","system_id":"levelo_inurba_marseille","lat":43.29839,"lon":5.36271,"is_reserved":false,"is_disabled":false,"rental_uris":{"android":"levelo://app?vid=0c9ebfc6-ac05-41f7-9142-187df36f34b2","ios":"levelo://app?vid=0c9ebfc6-ac05-41f7-9142-187df36f34b2"},"vehicle_type_id":"4","last_reported":1746256160,"current_range_meters":22800,"station_id":"ce4bgpp2rcd13ifvqc3g","pricing_plan_id":"cebpf4jnsgd1na2vs0mg"},{"bike_id":"61d1a6c0-344e-4ff7-9a85-d60ca1b0d925","system_id":"levelo_inurba_marseille","lat":43.25932,"lon":5.40916,"is_reserved":false,"is_disabled":false,"rental_uris":{"android":"levelo://app?vid=61d1a6c0-344e-4ff7-9a85-d60ca1b0d925","ios":"levelo://app?vid=61d1a6c0-344e-4ff7-9a85-d60ca1b0d925"},"vehicle_type_id":"4","last_reported":1746256160,"current_range_meters":22800,"station_id":"ce4bhm92rcd13ifvqglg","pricing_plan_id":"cebpf4jnsgd1na2vs0mg"},{"bike_id":"d2450fa2-eb02-4667-8398-67924a1ec99e","system_id":"levelo_inurba_marseille","lat":43.31708,"lon":5.43708,"is_reserved":false,"is_disabled":false,"rental_uris":{"android":"levelo://app?vid=d2450fa2-eb02-4667-8398-67924a1ec99e","ios":"levelo://app?vid=d2450fa2-eb02-4667-8398-67924a1ec99e"},"vehicle_type_id":"4","last_reported":1746256160,"current_range_meters":22800,"station_id":"ce4bhp92rcd13ifvqhcg","pricing_plan_id":"cebpf4jnsgd1na2vs0mg"},{"bike_id":"ce70c932-900a-4f6f-81bc-6a0264598dea","system_id":"levelo_inurba_marseille","lat":43.25578,"lon":5.38244,"is_reserved":false,"is_disabled":false,"rental_uris":{"android":"levelo://app?vid=ce70c932-900a-4f6f-81bc-6a0264598dea","ios":"levelo://app?vid=ce70c932-900a-4f6f-81bc-6a0264598dea"},"vehicle_type_id":"4","last_reported":1746256160,"current_range_meters":24000,"station_id":"ce4bhih2rcd13ifvqfs0","pricing_plan_id":"cebpf4jnsgd1na2vs0mg"},{"bike_id":"18137903-72ba-4200-abff-b6b27df8a90f","system_id":"levelo_inurba_marseille","lat":43.31357,"lon":5.38501,"is_reserved":false,"is_disabled":false,"rental_uris":{"android":"levelo://app?vid=18137903-72ba-4200-abff-b6b27df8a90f","ios":"levelo://app?vid=18137903-72ba-4200-abff-b6b27df8a90f"},"vehicle_type_id":"4","last_reported":1746256160,"current_range_meters":23200,"station_id":"ce4bgt92rcd13ifvqcf0","pricing_plan_id":"cebpf4jnsgd1na2vs0mg"},{"bike_id":"029a87bb-90fa-447a-9828-2f6d8a7ab734","system_id":"levelo_inurba_marseille","lat":43.30839,"lon":5.43534,"is_reserved":false,"is_disabled":false,"rental_uris":{"android":"levelo://app?vid=029a87bb-90fa-447a-9828-2f6d8a7ab734","ios":"levelo://app?vid=029a87bb-90fa-447a-9828-2f6d8a7ab734"},"vehicle_type_id":"4","last_reported":1746256160,"current_range_meters":23200,"station_id":"ce4bhph2rcd13ifvqheg","pricing_plan_id":"cebpf4jnsgd1na2vs0mg"},{"bike_id":"f7376bba-caaf-40e2-80a0-c3bb1028e840","system_id":"levelo_inurba_marseille","lat":43.29292,"lon":5.36846,"is_reserved":false,"is_disabled":true,"rental_uris":{"android":"levelo://app?vid=f7376bba-caaf-40e2-80a0-c3bb1028e840","ios":"levelo://app?vid=f7376bba-caaf-40e2-80a0-c3bb1028e840"},"vehicle_type_id":"4","last_reported":1746256160,"current_range_meters":23200,"station_id":"ce4bhbp2rcd13ifvqesg","pricing_plan_id":"cebpf4jnsgd1na2vs0mg"},{"bike_id":"63f1049a-4562-459d-996c-026986e456eb","system_id":"levelo_inurba_marseille","lat":43.31071,"lon":5.38351,"is_reserved":false,"is_disabled":false,"rental_uris":{"android":"levelo://app?vid=63f1049a-4562-459d-996c-026986e456eb","ios":"levelo://app?vid=63f1049a-4562-459d-996c-026986e456eb"},"vehicle_type_id":"4","last_reported":1746256160,"current_range_meters":23200,"station_id":"ce4bgv92rcd13ifvqcr0","pricing_plan_id":"cebpf4jnsgd1na2vs0mg"},{"bike_id":"8b7d897a-ec58-4ace-b1a3-17c7f1507974","system_id":"levelo_inurba_marseille","lat":43.27207,"lon":5.39183,"is_reserved":false,"is_disabled":false,"rental_uris":{"android":"levelo://app?vid=8b7d897a-ec58-4ace-b1a3-17c7f1507974","ios":"levelo://app?vid=8b7d897a-ec58-4ace-b1a3-17c7f1507974"},"vehicle_type_id":"4","last_reported":1746256160,"current_range_meters":23200,"station_id":"ce4bhhp2rcd13ifvqfm0","pricing_plan_id":"cebpf4jnsgd1na2vs0mg"},{"bike_id":"b897a0de-bf38-45d2-99be-eee2277da215","system_id":"levelo_inurba_marseille","lat":43.29279,"lon":5.4092,"is_reserved":false,"is_disabled":false,"rental_uris":{"android":"levelo://app?vid=b897a0de-bf38-45d2-99be-eee2277da215","ios":"levelo://app?vid=b897a0de-bf38-45d2-99be-eee2277da215"},"vehicle_type_id":"4","last_reported":1746256160,"current_range_meters":23200,"station_id":"ce4bh192rcd13ifvqdc0","pricing_plan_id":"cebpf4jnsgd1na2vs0mg"},{"bike_id":"a20ed094-6d2e-4cb1-9718-373f0b78ace4","system_id":"levelo_inurba_marseille","lat":43.28703,"lon":5.37949,"is_reserved":false,"is_disabled":true,"rental_uris":{"android":"levelo://app?vid=a20ed094-6d2e-4cb1-9718-373f0b78ace4","ios":"levelo://app?vid=a20ed094-6d2e-4cb1-9718-373f0b78ace4"},"vehicle_type_id":"4","last_reported":1746256160,"current_range_meters":23200,"station_id":"ce4bh9p2rcd13ifvqec0","pricing_plan_id":"cebpf4jnsgd1na2vs0mg"},{"bike_id":"85f24af0-dee4-49a1-a83b-a442e9bc4f75","system_id":"levelo_inurba_marseille","lat":43.307914,"lon":5.381615,"is_reserved":false,"is_disabled":false,"rental_uris":{"android":"levelo://app?vid=85f24af0-dee4-49a1-a83b-a442e9bc4f75","ios":"levelo://app?vid=85f24af0-dee4-49a1-a83b-a442e9bc4f75"},"vehicle_type_id":"4","last_reported":1746256160,"current_range_meters":24000,"station_id":"ce4bgt12rcd13ifvqce0","pricing_plan_id":"cebpf4jnsgd1na2vs0mg"},{"bike_id":"4e65a762-e06d-4c29-b9ea-fd31f6fe0be2","system_id":"levelo_inurba_marseille","lat":43.2858,"lon":5.37074,"is_reserved":false,"is_disabled":false,"rental_uris":{"android":"levelo://app?vid=4e65a762-e06d-4c29-b9ea-fd31f6fe0be2","ios":"levelo://app?vid=4e65a762-e06d-4c29-b9ea-fd31f6fe0be2"},"vehicle_type_id":"4","last_reported":1746256160,"current_range_meters":24000,"station_id":"ce4bht12rcd13ifvqi60","pricing_plan_id":"cebpf4jnsgd1na2vs0mg"},{"bike_id":"035402ea-60a6-4d45-95a5-f3e8a9dfdb45","system_id":"levelo_inurba_marseille","lat":43.33783,"lon":5.37469,"is_reserved":false,"is_disabled":true,"rental_uris":{"android":"levelo://app?vid=035402ea-60a6-4d45-95a5-f3e8a9dfdb45","ios":"levelo://app?vid=035402ea-60a6-4d45-95a5-f3e8a9dfdb45"},"vehicle_type_id":"4","last_reported":1746256160,"current_range_meters":24000,"station_id":"","pricing_plan_id":"cebpf4jnsgd1na2vs0mg"},{"bike_id":"c2a44eac-17bb-4a29-8789-61e51311fc2f","system_id":"levelo_inurba_marseille","lat":43.2827,"lon":5.35073,"is_reserved":false,"is_disabled":false,"rental_uris":{"android":"levelo://app?vid=c2a44eac-17bb-4a29-8789-61e51311fc2f","ios":"levelo://app?vid=c2a44eac-17bb-4a29-8789-61e51311fc2f"},"vehicle_type_id":"4","last_reported":1746256160,"current_range_meters":24000,"station_id":"ce4bhbp2rcd13ifvqerg","pricing_plan_id":"cebpf4jnsgd1na2vs0mg"},{"bike_id":"6acc096f-014e-4b53-a342-ff428eda83fd","system_id":"levelo_inurba_marseille","lat":43.28406,"lon":5.37511,"is_reserved":false,"is_disabled":false,"rental_uris":{"android":"levelo://app?vid=6acc096f-014e-4b53-a342-ff428eda83fd","ios":"levelo://app?vid=6acc096f-014e-4b53-a342-ff428eda83fd"},"vehicle_type_id":"4","last_reported":1746256160,"current_range_meters":24000,"station_id":"ce4bh412rcd13ifvqds0","pricing_plan_id":"cebpf4jnsgd1na2vs0mg"},{"bike_id":"d36ce7ff-52ca-4827-8b92-968471c17776","system_id":"levelo_inurba_marseille","lat":43.30418,"lon":5.37913,"is_reserved":false,"is_disabled":false,"rental_uris":{"android":"levelo://app?vid=d36ce7ff-52ca-4827-8b92-968471c17776","ios":"levelo://app?vid=d36ce7ff-52ca-4827-8b92-968471c17776"},"vehicle_type_id":"4","last_reported":1746256160,"current_range_meters":24400,"station_id":"ce4bgup2rcd13ifvqcn0","pricing_plan_id":"cebpf4jnsgd1na2vs0mg"},{"bike_id":"dc503b06-bece-4e12-b003-42852ad2de4c","system_id":"levelo_inurba_marseille","lat":43.22922,"lon":5.35381,"is_reserved":false,"is_disabled":false,"rental_uris":{"android":"levelo://app?vid=dc503b06-bece-4e12-b003-42852ad2de4c","ios":"levelo://app?vid=dc503b06-bece-4e12-b003-42852ad2de4c"},"vehicle_type_id":"4","last_reported":1746256160,"current_range_meters":24400,"station_id":"cpo3532slgdg3j2ikp40","pricing_plan_id":"cebpf4jnsgd1na2vs0mg"},{"bike_id":"b1a392f0-d154-465f-80e9-abe0137c9d12","system_id":"levelo_inurba_marseille","lat":43.30595,"lon":5.39335,"is_reserved":false,"is_disabled":true,"rental_uris":{"android":"levelo://app?vid=b1a392f0-d154-465f-80e9-abe0137c9d12","ios":"levelo://app?vid=b1a392f0-d154-465f-80e9-abe0137c9d12"},"vehicle_type_id":"4","last_reported":1746256160,"current_range_meters":24400,"station_id":"ce4bh0p2rcd13ifvqd80","pricing_plan_id":"cebpf4jnsgd1na2vs0mg"},{"bike_id":"99fb61d9-fbd1-46aa-ba1b-3c73a76c50d1","system_id":"levelo_inurba_marseille","lat":43.284119,"lon":5.375067,"is_reserved":false,"is_disabled":false,"rental_uris":{"android":"levelo://app?vid=99fb61d9-fbd1-46aa-ba1b-3c73a76c50d1","ios":"levelo://app?vid=99fb61d9-fbd1-46aa-ba1b-3c73a76c50d1"},"vehicle_type_id":"4","last_reported":1746256160,"current_range_meters":24400,"station_id":"ce4bh412rcd13ifvqds0","pricing_plan_id":"cebpf4jnsgd1na2vs0mg"},{"bike_id":"0cf7caac-589a-47d6-8860-ad993adddefb","system_id":"levelo_inurba_marseille","lat":43.27496,"lon":5.42451,"is_reserved":false,"is_disabled":false,"rental_uris":{"android":"levelo://app?vid=0cf7caac-589a-47d6-8860-ad993adddefb","ios":"levelo://app?vid=0cf7caac-589a-47d6-8860-ad993adddefb"},"vehicle_type_id":"4","last_reported":1746256160,"current_range_meters":24400,"station_id":"ce4bhn92rcd13ifvqgrg","pricing_plan_id":"cebpf4jnsgd1na2vs0mg"},{"bike_id":"27329307-8fe2-46cc-aa15-1ac8e617fe6e","system_id":"levelo_inurba_marseille","lat":43.292567,"lon":5.409219,"is_reserved":false,"is_disabled":false,"rental_uris":{"android":"levelo://app?vid=27329307-8fe2-46cc-aa15-1ac8e617fe6e","ios":"levelo://app?vid=27329307-8fe2-46cc-aa15-1ac8e617fe6e"},"vehicle_type_id":"4","last_reported":1746256160,"current_range_meters":24400,"station_id":"ce4bh192rcd13ifvqdc0","pricing_plan_id":"cebpf4jnsgd1na2vs0mg"},{"bike_id":"c4915f6b-571f-4e1f-9609-95c1bc3e8593","system_id":"levelo_inurba_marseille","lat":43.27071,"lon":5.42265,"is_reserved":false,"is_disabled":true,"rental_uris":{"android":"levelo://app?vid=c4915f6b-571f-4e1f-9609-95c1bc3e8593","ios":"levelo://app?vid=c4915f6b-571f-4e1f-9609-95c1bc3e8593"},"vehicle_type_id":"4","last_reported":1746256160,"current_range_meters":24400,"station_id":"ce4bhk92rcd13ifvqgb0","pricing_plan_id":"cebpf4jnsgd1na2vs0mg"},{"bike_id":"965850ac-2fc5-4dac-8180-80e744f5ffd4","system_id":"levelo_inurba_marseille","lat":43.27996,"lon":5.40001,"is_reserved":false,"is_disabled":true,"rental_uris":{"android":"levelo://app?vid=965850ac-2fc5-4dac-8180-80e744f5ffd4","ios":"levelo://app?vid=965850ac-2fc5-4dac-8180-80e744f5ffd4"},"vehicle_type_id":"4","last_reported":1746256160,"current_range_meters":24800,"station_id":"ce4bho92rcd13ifvqh4g","pricing_plan_id":"cebpf4jnsgd1na2vs0mg"},{"bike_id":"6e401acb-cbcb-4322-9c9d-9735f27c2ab0","system_id":"levelo_inurba_marseille","lat":43.31074,"lon":5.38347,"is_reserved":false,"is_disabled":false,"rental_uris":{"android":"levelo://app?vid=6e401acb-cbcb-4322-9c9d-9735f27c2ab0","ios":"levelo://app?vid=6e401acb-cbcb-4322-9c9d-9735f27c2ab0"},"vehicle_type_id":"4","last_reported":1746256160,"current_range_meters":24800,"station_id":"ce4bgv92rcd13ifvqcr0","pricing_plan_id":"cebpf4jnsgd1na2vs0mg"},