{"last_updated":1748092803,"ttl":60,"version":"2.2","data":{"bikes":[{"bike_id":"57e3488c-9722-4633-aeb6-bee4e857227e","system_id":"levelo_inurba_marseille","lat":43.25101,"lon":5.40346,"is_reserved":false,"is_disabled":false,"rental_uris":{"android":"levelo://app?vid=57e3488c-9722-4633-aeb6-bee4e857227e","ios":"levelo://app?vid=57e3488c-9722-4633-aeb6-bee4e857227e"},"vehicle_type_id":"4","last_reported":1748092803,"current_range_meters":2800,"station_id":"ce4bhlh2rcd13ifvqgig","pricing_plan_id":"cebpf4jnsgd1na2vs0mg"},{"bike_id":"9b5fdee3-039b-46c2-95e8-f4d8fc75bbf1","system_id":"levelo_inurba_marseille","lat":43.28039,"lon":5.36943,"is_reserved":false,"is_disabled":false,"rental_uris":{"android":"levelo://app?vid=9b5fdee3-039b-46c2-95e8-f4d8fc75bbf1","ios":"levelo://app?vid=9b5fdee3-039b-46c2-95e8-f4d8fc75bbf1"},"vehicle_type_id":"4","last_reported":1748092803,"current_range_meters":2000,"station_id":"ce4bha12rcd13ifvqef0","pricing_plan_id":"cebpf4jnsgd1na2vs0mg"},{"bike_id":"dfc12ae8-1c26-45e1-8fd5-25609a6f4238","system_id":"levelo_inurba_marseille","lat":43.27077,"lon":5.42278,"is_reserved":false,"is_disabled":false,"rental_uris":{"android":"levelo://app?vid=dfc12ae8-1c26-45e1-8fd5-25609a6f4238","ios":"levelo://app?vid=dfc12ae8-1c26-45e1-8fd5-25609a6f4238"},"vehicle_type_id":"4","last_reported":1748092803,"current_range_meters":2800,"station_id":"ce4bhk92rcd13ifvqgb0","pricing_plan_id":"cebpf4jnsgd1na2vs0mg"},{"bike_id":"85e7dbb5-91be-4547-8e8c-99773a13e5bd","system_id":"levelo_inurba_marseille","lat":43.29842,"lon":5.36264,"is_reserved":false,"is_disabled":false,"rental_uris":{"android":"levelo://app?vid=85e7dbb5-91be-4547-8e8c-99773a13e5bd","ios":"levelo://app?vid=85e7dbb5-91be-4547-8e8c-99773a13e5bd"},"vehicle_type_id":"4","last_reported":1748092803,"current_range_meters":3200,"station_id":"ce4bgpp2rcd13ifvqc3g","pricing_plan_id":"cebpf4jnsgd1na2vs0mg"},{"bike_id":"1f675ff4-6beb-4dbb-af97-cd6782f423e9","system_id":"levelo_inurba_marseille","lat":43.31774,"lon":5.39025,"is_reserved":false,"is_disabled":false,"rental_uris":{"android":"levelo://app?vid=1f675ff4-6beb-4dbb-af97-cd6782f423e9","ios":"levelo://app?vid=1f675ff4-6beb-4dbb-af97-cd6782f423e9"},"vehicle_type_id":"4","last_reported":1748092803,"current_range_meters":3200,"station_id":"ce4bhqp2rcd13ifvqhng","pricing_plan_id":"cebpf4jnsgd1na2vs0mg"},{"bike_id":"5f544f19-fcff-45b0-8dd9-ea08d63efcd7","system_id":"levelo_inurba_marseille","lat":43.29786,"lon":5.3809,"is_reserved":false,"is_disabled":false,"rental_uris":{"android":"levelo://app?vid=5f544f19-fcff-45b0-8dd9-ea08d63efcd7","ios":"levelo://app?vid=5f544f19-fcff-45b0-8dd9-ea08d63efcd7"},"vehicle_type_id":"4","last_reported":1748092803,"current_range_meters":3200,"station_id":"ce4bgip2rcd13ifvqbb0","pricing_plan_id":"cebpf4jnsgd1na2vs0mg"},{"bike_id":"d5cf7621-0cf3-4cee-ba4c-abb3171fc270","system_id":"levelo_inurba_marseille","lat":43.282593,"lon":5.350547,"is_reserved":false,"is_disabled":false,"rental_uris":{"android":"levelo://app?vid=d5cf7621-0cf3-4cee-ba4c-abb3171fc270","ios":"levelo://app?vid=d5cf7621-0cf3-4cee-ba4c-abb3171fc270"},"vehicle_type_id":"4","last_reported":1748092803,"current_range_meters":3200,"station_id":"ce4bhbp2rcd13ifvqerg","pricing_plan_id":"cebpf4jnsgd1na2vs0mg"},{"bike_id":"c0460b66-d1ff-4972-93f7-49bfc9f4eaf8","system_id":"levelo_inurba_marseille","lat":43.31979,"lon":5.38124,"is_reserved":false,"is_disabled":false,"rental_uris":{"android":"levelo://app?vid=c0460b66-d1ff-4972-93f7-49bfc9f4eaf8","ios":"levelo://app?vid=c0460b66-d1ff-4972-93f7-49bfc9f4eaf8"},"vehicle_type_id":"4","last_reported":1748092803,"current_range_meters":3200,"station_id":"ce4bhr12rcd13ifvqhpg","pricing_plan_id":"cebpf4jnsgd1na2vs0mg"},{"bike_id":"54dd0f03-47e8-404f-a2d8-d9c489fa7ffe","system_id":"levelo_inurba_marseille","lat":43.21198,"lon":5.3508,"is_reserved":false,"is_disabled":false,"rental_uris":{"android":"levelo://app?vid=54dd0f03-47e8-404f-a2d8-d9c489fa7ffe","ios":"levelo://app?vid=54dd0f03-47e8-404f-a2d8-d9c489fa7ffe"},"vehicle_type_id":"4","last_reported":1748092803,"current_range_meters":3200,"station_id":"","pricing_plan_id":"cebpf4jnsgd1na2vs0mg"},{"bike_id":"c400bfc8-20fc-4542-b6f6-4a481cda4d16","system_id":"levelo_inurba_marseille","lat":43.27072,"lon":5.42287,"is_reserved":false,"is_disabled":false,"rental_uris":{"android":"levelo://app?vid=c400bfc8-20fc-4542-b6f6-4a481cda4d16","ios":"levelo://app?vid=c400bfc8-20fc-4542-b6f6-4a481cda4d16"},"vehicle_type_id":"4","last_reported":1748092803,"current_range_meters":3200,"station_id":"ce4bhk92rcd13ifvqgb0","pricing_plan_id":"cebpf4jnsgd1na2vs0mg"},{"bike_id":"30e53bb2-cef9-4428-bb87-90a3fee38ed7","system_id":"levelo_inurba_marseille","lat":43.287234,"lon":5.360851,"is_reserved":false,"is_disabled":false,"rental_uris":{"android":"levelo://app?vid=30e53bb2-cef9-4428-bb87-90a3fee38ed7","ios":"levelo://app?vid=30e53bb2-cef9-4428-bb87-90a3fee38ed7"},"vehicle_type_id":"4","last_reported":1748092803,"current_range_meters":3200,"station_id":"cki0cbj6b192h4jlfktg","pricing_plan_id":"cebpf4jnsgd1na2vs0mg"},{"bike_id":"8344bf10-068c-4925-b58f-871b8035da22","system_id":"levelo_inurba_marseille","lat":43.295752,"lon":5.375168,"is_reserved":false,"is_disabled":false,"rental_uris":{"android":"levelo://app?vid=8344bf10-068c-4925-b58f-871b8035da22","ios":"levelo://app?vid=8344bf10-068c-4925-b58f-871b8035da22"},"vehicle_type_id":"4","last_reported":1748092803,"current_range_meters":3600,"station_id":"","pricing_plan_id":"cebpf4jnsgd1na2vs0mg"},{"bike_id":"7dfdfdc8-9c79-46b6-9a4b-924773b53f29","system_id":"levelo_inurba_marseille","lat":43.26855,"lon":5.39138,"is_reserved":false,"is_disabled":false,"rental_uris":{"android":"levelo://app?vid=7dfdfdc8-9c79-46b6-9a4b-924773b53f29","ios":"levelo://app?vid=7dfdfdc8-9c79-46b6-9a4b-924773b53f29"},"vehicle_type_id":"4","last_reported":1748092803,"current_range_meters":3600,"station_id":"","pricing_plan_id":"cebpf4jnsgd1na2vs0mg"},{"bike_id":"91b7e0d2-5e4e-4ce6-9228-f5e5a1d835f9","system_id":"levelo_inurba_marseille","lat":43.30193,"lon":5.36628,"is_reserved":false,"is_disabled":false,"rental_uris":{"android":"levelo://app?vid=91b7e0d2-5e4e-4ce6-9228-f5e5a1d835f9","ios":"levelo://app?vid=91b7e0d2-5e4e-4ce6-9228-f5e5a1d835f9"},"vehicle_type_id":"4","last_reported":1748092803,"current_range_meters":4000,"station_id":"ce4bgrh2rcd13ifvqc8g","pricing_plan_id":"cebpf4jnsgd1na2vs0mg"},{"bike_id":"900926bd-c178-4fb1-9ad6-ba459192fc5c","system_id":"levelo_inurba_marseille","lat":43.241634,"lon":5.364065,"is_reserved":false,"is_disabled":false,"rental_uris":{"android":"levelo://app?vid=900926bd-c178-4fb1-9ad6-ba459192fc5c","ios":"levelo://app?vid=900926bd-c178-4fb1-9ad6-ba459192fc5c"},"vehicle_type_id":"4","last_reported":1748092803,"current_range_meters":4000,"station_id":"cpo36qri1sfpv3e86is0","pricing_plan_id":"cebpf4jnsgd1na2vs0mg"},{"bike_id":"fcc889d4-7d87-48d4-97af-0590348faa27","system_id":"levelo_inurba_marseille","lat":43.296173,"lon":5.371676,"is_reserved":false,"is_disabled":false,"rental_uris":{"android":"levelo://app?vid=fcc889d4-7d87-48d4-97af-0590348faa27","ios":"levelo://app?vid=fcc889d4-7d87-48d4-97af-0590348faa27"},"vehicle_type_id":"4","last_reported":1748092803,"current_range_meters":4000,"station_id":"ce4bgnh2rcd13ifvqc0g","pricing_plan_id":"cebpf4jnsgd1na2vs0mg"},{"bike_id":"b3b5509e-f803-4775-b6e3-390476238268","system_id":"levelo_inurba_marseille","lat":43.29073,"lon":5.37163,"is_reserved":false,"is_disabled":false,"rental_uris":{"android":"levelo://app?vid=b3b5509e-f803-4775-b6e3-390476238268","ios":"levelo://app?vid=b3b5509e-f803-4775-b6e3-390476238268"},"vehicle_type_id":"4","last_reported":1748092803,"current_range_meters":4000,"station_id":"ce4bh5p2rcd13ifvqe4g","pricing_plan_id":"cebpf4jnsgd1na2vs0mg"},{"bike_id":"ae5118b2-34b2-4d6c-8f2f-5ec3cd71528f","system_id":"levelo_inurba_marseille","lat":43.23191,"lon":5.35572,"is_reserved":false,"is_disabled":false,"rental_uris":{"android":"levelo://app?vid=ae5118b2-34b2-4d6c-8f2f-5ec3cd71528f","ios":"levelo://app?vid=ae5118b2-34b2-4d6c-8f2f-5ec3cd71528f"},"vehicle_type_id":"4","last_reported":1748092803,"current_range_meters":4000,"station_id":"ce4bhu92rcd13ifvqi70","pricing_plan_id":"cebpf4jnsgd1na2vs0mg"},{"bike_id":"eae93f1c-f960-4cba-8e7d-e2082e2e4009","system_id":"levelo_inurba_marseille","lat":43.23179,"lon":5.39989,"is_reserved":false,"is_disabled":false,"rental_uris":{"android":"levelo://app?vid=eae93f1c-f960-4cba-8e7d-e2082e2e4009","ios":"levelo://app?vid=eae93f1c-f960-4cba-8e7d-e2082e2e4009"},"vehicle_type_id":"4","last_reported":1748092803,"current_range_meters":8400,"station_id":"ce4bhn12rcd13ifvqgqg","pricing_plan_id":"cebpf4jnsgd1na2vs0mg"},{"bike_id":"5285cb6c-d68c-4412-a4b9-b666aba831c3","system_id":"levelo_inurba_marseille","lat":43.3032,"lon":5.36904,"is_reserved":false,"is_disabled":false,"rental_uris":{"android":"levelo://app?vid=5285cb6c-d68c-4412-a4b9-b666aba831c3","ios":"levelo://app?vid=5285cb6c-d68c-4412-a4b9-b666aba831c3"},"vehicle_type_id":"4","last_reported":1748092803,"current_range_meters":4400,"station_id":"ce4bgqh2rcd13ifvqc5g","pricing_plan_id":"cebpf4jnsgd1na2vs0mg"},{"bike_id":"cc342e80-76cf-424b-b8f8-42e25c597227","system_id":"levelo_inurba_marseille","lat":43.316826,"lon":5.404739,"is_reserved":false,"is_disabled":false,"rental_uris":{"android":"levelo://app?vid=cc342e80-76cf-424b-b8f8-42e25c597227","ios":"levelo://app?vid=cc342e80-76cf-424b-b8f8-42e25c597227"},"vehicle_type_id":"4","last_reported":1748092803,"current_range_meters":4400,"station_id":"ce4bh012rcd13ifvqd00","pricing_plan_id":"cebpf4jnsgd1na2vs0mg"},{"bike_id":"56091d1c-838a-4672-be72-cbf78c329099","system_id":"levelo_inurba_marseille","lat":43.27205,"lon":5.3918,"is_reserved":false,"is_disabled":false,"rental_uris":{"android":"levelo://app?vid=56091d1c-838a-4672-be72-cbf78c329099","ios":"levelo://app?vid=56091d1c-838a-4672-be72-cbf78c329099"},"vehicle_type_id":"4","last_reported":1748092803,"current_range_meters":4400,"station_id":"ce4bhhp2rcd13ifvqfm0","pricing_plan_id":"cebpf4jnsgd1na2vs0mg"},{"bike_id":"493139f5-7b4f-410a-9f6a-f046d2dacea2","system_id":"levelo_inurba_marseille","lat":43.28668,"lon":5.36338,"is_reserved":false,"is_disabled":false,"rental_uris":{"android":"levelo://app?vid=493139f5-7b4f-410a-9f6a-f046d2dacea2","ios":"levelo://app?vid=493139f5-7b4f-410a-9f6a-f046d2dacea2"},"vehicle_type_id":"4","last_reported":1748092803,"current_range_meters":4400,"station_id":"ce4bhah2rcd13ifvqej0","pricing_plan_id":"cebpf4jnsgd1na2vs0mg"},{"bike_id":"941a62f5-1f28-44dc-9533-56459a3fca8b","system_id":"levelo_inurba_marseille","lat":43.25512,"lon":5.37695,"is_reserved":false,"is_disabled":false,"rental_uris":{"android":"levelo://app?vid=941a62f5-1f28-44dc-9533-56459a3fca8b","ios":"levelo://app?vid=941a62f5-1f28-44dc-9533-56459a3fca8b"},"vehicle_type_id":"4","last_reported":1748092803,"current_range_meters":4800,"station_id":"ce4bhh12rcd13ifvqff0","pricing_plan_id":"cebpf4jnsgd1na2vs0mg"},{"bike_id":"164e60a4-05bc-4649-85d4-95b45cbfeab2","system_id":"levelo_inurba_marseille","lat":43.25712,"lon":5.41104,"is_reserved":false,"is_disabled":false,"rental_uris":{"android":"levelo://app?vid=164e60a4-05bc-4649-85d4-95b45cbfeab2","ios":"levelo://app?vid=164e60a4-05bc-4649-85d4-95b45cbfeab2"},"vehicle_type_id":"4","last_reported":1748092803,"current_range_meters":4800,"station_id":"ce4bhkp2rcd13ifvqgd0","pricing_plan_id":"cebpf4jnsgd1na2vs0mg"},{"bike_id":"cf04229c-9a53-4667-b954-d4638d1d1435","system_id":"levelo_inurba_marseille","lat":43.28415,"lon":5.349912,"is_reserved":false,"is_disabled":false,"rental_uris":{"android":"levelo://app?vid=cf04229c-9a53-4667-b954-d4638d1d1435","ios":"levelo://app?vid=cf04229c-9a53-4667-b954-d4638d1d1435"},"vehicle_type_id":"4","last_reported":1748092803,"current_range_meters":4800,"station_id":"ce4bhbh2rcd13ifvqepg","pricing_plan_id":"cebpf4jnsgd1na2vs0mg"},{"bike_id":"5222a40f-09d7-4c7a-8bfe-df889cbb25df","system_id":"levelo_inurba_marseille","lat":43.28416,"lon":5.34975,"is_reserved":false,"is_disabled":false,"rental_uris":{"android":"levelo://app?vid=5222a40f-09d7-4c7a-8bfe-df889cbb25df","ios":"levelo://app?vid=5222a40f-09d7-4c7a-8bfe-df889cbb25df"},"vehicle_type_id":"4","last_reported":1748092803,"current_range_meters":4800,"station_id":"ce4bhbh2rcd13ifvqepg","pricing_plan_id":"cebpf4jnsgd1na2vs0mg"},{"bike_id":"5f078035-46ef-4ec1-86a7-55f85f116b51","system_id":"levelo_inurba_marseille","lat":43.29269,"lon":5.38442,"is_reserved":false,"is_disabled":false,"rental_uris":{"android":"levelo://app?vid=5f078035-46ef-4ec1-86a7-55f85f116b51","ios":"levelo://app?vid=5f078035-46ef-4ec1-86a7-55f85f116b51"},"vehicle_type_id":"4","last_reported":1748092803,"current_range_meters":4800,"station_id":"ce4bh692rcd13ifvqea0","pricing_plan_id":"cebpf4jnsgd1na2vs0mg"},{"bike_id":"34bdf270-30d4-4896-95a4-7a57595ca163","system_id":"levelo_inurba_marseille","lat":43.2396,"lon":5.3664,"is_reserved":false,"is_disabled":false,"rental_uris":{"android":"levelo://app?vid=34bdf270-30d4-4896-95a4-7a57595ca163","ios":"levelo://app?vid=34bdf270-30d4-4896-95a4-7a57595ca163"},"vehicle_type_id":"4","last_reported":1748092803,"current_range_meters":4800,"station_id":"ce4bhi12rcd13ifvqfp0","pricing_plan_id":"cebpf4jnsgd1na2vs0mg"},{"bike_id":"7a3612f6-9330-423b-bd0d-50c62100f1b4","system_id":"levelo_inurba_marseille","lat":43.262024,"lon":5.379299,"is_reserved":false,"is_disabled":false,"rental_uris":{"android":"levelo://app?vid=7a3612f6-9330-423b-bd0d-50c62100f1b4","ios":"levelo://app?vid=7a3612f6-9330-423b-bd0d-50c62100f1b4"},"vehicle_type_id":"4","last_reported":1748092803,"current_range_meters":4800,"station_id":"ce4bhjp2rcd13ifvqg90","pricing_plan_id":"cebpf4jnsgd1na2vs0mg"},{"bike_id":"826b0337-329a-4d5e-abc0-8512b2f20c27","system_id":"levelo_inurba_marseille","lat":43.2696,"lon":5.40302,"is_reserved":false,"is_disabled":false,"rental_uris":{"android":"levelo://app?vid=826b0337-329a-4d5e-abc0-8512b2f20c27","ios":"levelo://app?vid=826b0337-329a-4d5e-abc0-8512b2f20c27"},"vehicle_type_id":"4","last_reported":1748092803,"current_range_meters":5600,"station_id":"cjm6bp8fraef2m0cb0m0","pricing_plan_id":"cebpf4jnsgd1na2vs0mg"},{"bike_id":"8a1af17d-6433-4fe0-824b-8c15d3b26a49","system_id":"levelo_inurba_marseille","lat":43.282,"lon":5.39044,"is_reserved":false,"is_disabled":false,"rental_uris":{"android":"levelo://app?vid=8a1af17d-6433-4fe0-824b-8c15d3b26a49","ios":"levelo://app?vid=8a1af17d-6433-4fe0-824b-8c15d3b26a49"},"vehicle_type_id":"4","last_reported":1748092803,"current_range_meters":5600,"station_id":"","pricing_plan_id":"cebpf4jnsgd1na2vs0mg"},{"bike_id":"c139e568-30e4-4816-a4d0-47133acc2e30","system_id":"levelo_inurba_marseille","lat":43.312838,"lon":5.368534,"is_reserved":false,"is_disabled":false,"rental_uris":{"android":"levelo://app?vid=c139e568-30e4-4816-a4d0-47133acc2e30","ios":"levelo://app?vid=c139e568-30e4-4816-a4d0-47133acc2e30"},"vehicle_type_id":"4","last_reported":1748092803,"current_range_meters":5600,"station_id":"","pricing_plan_id":"cebpf4jnsgd1na2vs0mg"},{"bike_id":"882a0cd8-2f8a-4a68-9cc5-0acf67a5ea01","system_id":"levelo_inurba_marseille","lat":43.29222,"lon":5.36037,"is_reserved":false,"is_disabled":false,"rental_uris":{"android":"levelo://app?vid=882a0cd8-2f8a-4a68-9cc5-0acf67a5ea01","ios":"levelo://app?vid=882a0cd8-2f8a-4a68-9cc5-0acf67a5ea01"},"vehicle_type_id":"4","last_reported":1748092803,"current_range_meters":5600,"station_id":"ce4bhbh2rcd13ifvqeqg","pricing_plan_id":"cebpf4jnsgd1na2vs0mg"},{"bike_id":"a8ef58b6-0efa-401b-82c9-695923db8d62","system_id":"levelo_inurba_marseille","lat":43.2908,"lon":5.3715,"is_reserved":false,"is_disabled":false,"rental_uris":{"android":"levelo://app?vid=a8ef58b6-0efa-401b-82c9-695923db8d62","ios":"levelo://app?vid=a8ef58b6-0efa-401b-82c9-695923db8d62"},"vehicle_type_id":"4","last_reported":1748092803,"current_range_meters":4800,"station_id":"ce4bh5p2rcd13ifvqe4g","pricing_plan_id":"cebpf4jnsgd1na2vs0mg"},{"bike_id":"1b3d5a83-e9bc-403a-a189-eeaaf3c69252","system_id":"levelo_inurba_marseille","lat":43.21166,"lon":5.3509,"is_reserved":false,"is_disabled":false,"rental_uris":{"android":"levelo://app?vid=1b3d5a83-e9bc-403a-a189-eeaaf3c69252","ios":"levelo://app?vid=1b3d5a83-e9bc-403a-a189-eeaaf3c69252"},"vehicle_type_id":"4","last_reported":1748092803,"current_range_meters":5600,"station_id":"st_cvj6sg6p6f1abm77japg","pricing_plan_id":"cebpf4jnsgd1na2vs0mg"},{"bike_id":"9e2809fd-cb79-4f8f-a74b-0e0a66133ce4","system_id":"levelo_inurba_marseille","lat":43.2721,"lon":5.39173,"is_reserved":false,"is_disabled":false,"rental_uris":{"android":"levelo://app?vid=9e2809fd-cb79-4f8f-a74b-0e0a66133ce4","ios":"levelo://app?vid=9e2809fd-cb79-4f8f-a74b-0e0a66133ce4"},"vehicle_type_id":"4","last_reported":1748092803,"current_range_meters":6000,"station_id":"ce4bhhp2rcd13ifvqfm0","pricing_plan_id":"cebpf4jnsgd1na2vs0mg"},{"bike_id":"1dddbd45-46b4-46af-a159-f5d8392f6c7d","system_id":"levelo_inurba_marseille","lat":43.241725,"lon":5.363978,"is_reserved":false,"is_disabled":false,"rental_uris":{"android":"levelo://app?vid=1dddbd45-46b4-46af-a159-f5d8392f6c7d","ios":"levelo://app?vid=1dddbd45-46b4-46af-a159-f5d8392f6c7d"},"vehicle_type_id":"4","last_reported":1748092803,"current_range_meters":6000,"station_id":"cpo36qri1sfpv3e86is0","pricing_plan_id":"cebpf4jnsgd1na2vs0mg"},{"bike_id":"72326449-8698-40e6-a35e-a1933643a055","system_id":"levelo_inurba_marseille","lat":43.27176,"lon":5.40992,"is_reserved":false,"is_disabled":false,"rental_uris":{"android":"levelo://app?vid=72326449-8698-40e6-a35e-a1933643a055","ios":"levelo://app?vid=72326449-8698-40e6-a35e-a1933643a055"},"vehicle_type_id":"4","last_reported":1748092803,"current_range_meters":5600,"station_id":"ce4bhl12rcd13ifvqgf0","pricing_plan_id":"cebpf4jnsgd1na2vs0mg"},{"bike_id":"114aae4e-d476-4ede-a471-40a0d8ba8e84","system_id":"levelo_inurba_marseille","lat":43.24807,"lon":5.37449,"is_reserved":false,"is_disabled":false,"rental_uris":{"android":"levelo://app?vid=114aae4e-d476-4ede-a471-40a0d8ba8e84","ios":"levelo://app?vid=114aae4e-d476-4ede-a471-40a0d8ba8e84"},"vehicle_type_id":"4","last_reported":1748092803,"current_range_meters":6000,"station_id":"ce4bhgh2rcd13ifvqfb0","pricing_plan_id":"cebpf4jnsgd1na2vs0mg"},{"bike_id":"5be4768f-1ad4-4372-b30f-eb6525298768","system_id":"levelo_inurba_marseille","lat":43.27198,"lon":5.3917,"is_reserved":false,"is_disabled":false,"rental_uris":{"android":"levelo://app?vid=5be4768f-1ad4-4372-b30f-eb6525298768","ios":"levelo://app?vid=5be4768f-1ad4-4372-b30f-eb6525298768"},"vehicle_type_id":"4","last_reported":1748092803,"current_range_meters":6400,"station_id":"ce4bhhp2rcd13ifvqfm0","pricing_plan_id":"cebpf4jnsgd1na2vs0mg"},{"bike_id":"221b41ad-2320-4add-abb4-750bb95c61fe","system_id":"levelo_inurba_marseille","lat":43.27492,"lon":5.42454,"is_reserved":false,"is_disabled":false,"rental_uris":{"android":"levelo://app?vid=221b41ad-2320-4add-abb4-750bb95c61fe","ios":"levelo://app?vid=221b41ad-2320-4add-abb4-750bb95c61fe"},"vehicle_type_id":"4","last_reported":1748092803,"current_range_meters":6400,"station_id":"ce4bhn92rcd13ifvqgrg","pricing_plan_id":"cebpf4jnsgd1na2vs0mg"},{"bike_id":"1f94f081-e7bb-4ef7-bc5a-1f8cb1e415d4","system_id":"levelo_inurba_marseille","lat":43.27909,"lon":5.38022,"is_reserved":false,"is_disabled":false,"rental_uris":{"android":"levelo://app?vid=1f94f081-e7bb-4ef7-bc5a-1f8cb1e415d4","ios":"levelo://app?vid=1f94f081-e7bb-4ef7-bc5a-1f8cb1e415d4"},"vehicle_type_id":"4","last_reported":1748092803,"current_range_meters":6400,"station_id":"ce4bhf92rcd13ifvqf50","pricing_plan_id":"cebpf4jnsgd1na2vs0mg"},{"bike_id":"962e1913-699f-4711-83d2-c76de328bf11","system_id":"levelo_inurba_marseille","lat":43.26487,"lon":5.39577,"is_reserved":false,"is_disabled":false,"rental_uris":{"android":"levelo://app?vid=962e1913-699f-4711-83d2-c76de328bf11","ios":"levelo://app?vid=962e1913-699f-4711-83d2-c76de328bf11"},"vehicle_type_id":"4","last_reported":1748092803,"current_range_meters":6400,"station_id":"ce4bhi12rcd13ifvqfq0","pricing_plan_id":"cebpf4jnsgd1na2vs0mg"},{"bike_id":"56294843-7dc8-4ec3-8795-2f3d325c1fc5","system_id":"levelo_inurba_marseille","lat":43.26246,"lon":5.41281,"is_reserved":false,"is_disabled":false,"rental_uris":{"android":"levelo://app?vid=56294843-7dc8-4ec3-8795-2f3d325c1fc5","ios":"levelo://app?vid=56294843-7dc8-4ec3-8795-2f3d325c1fc5"},"vehicle_type_id":"4","last_reported":1748092803,"current_range_meters":6400,"station_id":"","pricing_plan_id":"cebpf4jnsgd1na2vs0mg"},{"bike_id":"34fc8235-8c8d-4b03-899c-ad27fe7604a2","system_id":"levelo_inurba_marseille","lat":43.23199,"lon":5.35553,"is_reserved":false,"is_disabled":false,"rental_uris":{"android":"levelo://app?vid=34fc8235-8c8d-4b03-899c-ad27fe7604a2","ios":"levelo://app?vid=34fc8235-8c8d-4b03-899c-ad27fe7604a2"},"vehicle_type_id":"4","last_reported":1748092803,"current_range_meters":6400,"station_id":"ce4bhu92rcd13ifvqi70","pricing_plan_id":"cebpf4jnsgd1na2vs0mg"},{"bike_id":"12d33206-ea21-4880-921d-41fcfdf53726","system_id":"levelo_inurba_marseille","lat":43.25731,"lon":5.41129,"is_reserved":false,"is_disabled":false,"rental_uris":{"android":"levelo://app?vid=12d33206-ea21-4880-921d-41fcfdf53726","ios":"levelo://app?vid=12d33206-ea21-4880-921d-41fcfdf53726"},"vehicle_type_id":"4","last_reported":1748092803,"current_range_meters":6400,"station_id":"ce4bhkp2rcd13ifvqgd0","pricing_plan_id":"cebpf4jnsgd1na2vs0mg"},{"bike_id":"4378c971-7e05-4e8c-a061-851e97e2e517","system_id":"levelo_inurba_marseille","lat":43.30798,"lon":5.38153,"is_reserved":false,"is_disabled":false,"rental_uris":{"android":"levelo://app?vid=4378c971-7e05-4e8c-a061-851e97e2e517","ios":"levelo://app?vid=4378c971-7e05-4e8c-a061-851e97e2e517"},"vehicle_type_id":"4","last_reported":1748092803,"current_range_meters":4800,"station_id":"ce4bgt12rcd13ifvqce0","pricing_plan_id":"cebpf4jnsgd1na2vs0mg"},{"bike_id":"405dd356-ad48-4cbd-8ad6-b8bf98367351","system_id":"levelo_inurba_marseille","lat":43.21191,"lon":5.35074,"is_reserved":false,"is_disabled":false,"rental_uris":{"android":"levelo://app?vid=405dd356-ad48-4cbd-8ad6-b8bf98367351","ios":"levelo://app?vid=405dd356-ad48-4cbd-8ad6-b8bf98367351"},"vehicle_type_id":"4","last_reported":1748092803,"current_range_meters":6400,"station_id":"st_cvj6sg6p6f1abm77japg","pricing_plan_id":"cebpf4jnsgd1na2vs0mg"},{"bike_id":"7097370e-7a0d-4e71-be27-a879020555f9","system_id":"levelo_inurba_marseille","lat":43.280393,"lon":5.397164,"is_reserved":false,"is_disabled":false,"rental_uris":{"android":"levelo://app?vid=7097370e-7a0d-4e71-be27-a879020555f9","ios":"levelo://app?vid=7097370e-7a0d-4e71-be27-a879020555f9"},"vehicle_type_id":"4","last_reported":1748092803,"current_range_meters":6800,"station_id":"","pricing_plan_id":"cebpf4jnsgd1na2vs0mg"},{"bike_id":"cd2e1dc4-1c19-420f-b06d-e1e664d3c7f5","system_id":"levelo_inurba_marseille","lat":43.28623,"lon":5.35107,"is_reserved":false,"is_disabled":true,"rental_uris":{"android":"levelo://app?vid=cd2e1dc4-1c19-420f-b06d-e1e664d3c7f5","ios":"levelo://app?vid=cd2e1dc4-1c19-420f-b06d-e1e664d3c7f5"},"vehicle_type_id":"4","last_reported":1748092803,"current_range_meters":6800,"station_id":"ce4bhch2rcd13ifvqeug","pricing_plan_id":"cebpf4jnsgd1na2vs0mg"},{"bike_id":"4c964f5d-e069-4f21-b01b-d956923b5719","system_id":"levelo_inurba_marseille","lat":43.23191,"lon":5.40005,"is_reserved":false,"is_disabled":false,"rental_uris":{"android":"levelo://app?vid=4c964f5d-e069-4f21-b01b-d956923b5719","ios":"levelo://app?vid=4c964f5d-e069-4f21-b01b-d956923b5719"},"vehicle_type_id":"4","last_reported":1748092803,"current_range_meters":6800,"station_id":"ce4bhn12rcd13ifvqgqg","pricing_plan_id":"cebpf4jnsgd1na2vs0mg"},{"bike_id":"959a6a0e-4267-4db0-870c-6bbf273e5ddd","system_id":"levelo_inurba_marseille","lat":43.23066,"lon":5.35514,"is_reserved":false,"is_disabled":false,"rental_uris":{"android":"levelo://app?vid=959a6a0e-4267-4db0-870c-6bbf273e5ddd","ios":"levelo://app?vid=959a6a0e-4267-4db0-870c-6bbf273e5ddd"},"vehicle_type_id":"4","last_reported":1748092803,"current_range_meters":6800,"station_id":"cpo3342slgdg3j2ifvpg","pricing_plan_id":"cebpf4jnsgd1na2vs0mg"},{"bike_id":"1a74a7dd-dfc4-4fb7-95a1-1681441c0e35","system_id":"levelo_inurba_marseille","lat":43.28033,"lon":5.35361,"is_reserved":false,"is_disabled":false,"rental_uris":{"android":"levelo://app?vid=1a74a7dd-dfc4-4fb7-95a1-1681441c0e35","ios":"levelo://app?vid=1a74a7dd-dfc4-4fb7-95a1-1681441c0e35"},"vehicle_type_id":"4","last_reported":1748092803,"current_range_meters":6800,"station_id":"","pricing_plan_id":"cebpf4jnsgd1na2vs0mg"},{"bike_id":"11fa9e88-eb14-4513-bec9-03f3a1b2637d","system_id":"levelo_inurba_marseille","lat":43.23195,"lon":5.35551,"is_reserved":false,"is_disabled":false,"rental_uris":{"android":"levelo://app?vid=11fa9e88-eb14-4513-bec9-03f3a1b2637d","ios":"levelo://app?vid=11fa9e88-eb14-4513-bec9-03f3a1b2637d"},"vehicle_type_id":"4","last_reported":1748092803,"current_range_meters":6800,"station_id":"ce4bhu92rcd13ifvqi70","pricing_plan_id":"cebpf4jnsgd1na2vs0mg"},{"bike_id":"2b86396e-671c-4280-889c-f1f78f8c1ce7","system_id":"levelo_inurba_marseille","lat":43.28946,"lon":5.36395,"is_reserved":false,"is_disabled":false,"rental_uris":{"android":"levelo://app?vid=2b86396e-671c-4280-889c-f1f78f8c1ce7","ios":"levelo://app?vid=2b86396e-671c-4280-889c-f1f78f8c1ce7"},"vehicle_type_id":"4","last_reported":1748092803,"current_range_meters":7200,"station_id":"ce4bhc92rcd13ifvqetg","pricing_plan_id":"cebpf4jnsgd1na2vs0mg"},{"bike_id":"50e67a2e-efc3-4c72-b99d-a21b69d69fa3","system_id":"levelo_inurba_marseille","lat":43.31729,"lon":5.37269,"is_reserved":false,"is_disabled":false,"rental_uris":{"android":"levelo://app?vid=50e67a2e-efc3-4c72-b99d-a21b69d69fa3","ios":"levelo://app?vid=50e67a2e-efc3-4c72-b99d-a21b69d69fa3"},"vehicle_type_id":"4","last_reported":1748092803,"current_range_meters":7200,"station_id":"","pricing_plan_id":"cebpf4jnsgd1na2vs0mg"},{"bike_id":"7fe3b620-b7cd-400e-889a-d5846827ddda","system_id":"levelo_inurba_marseille","lat":43.28416,"lon":5.37509,"is_reserved":false,"is_disabled":false,"rental_uris":{"android":"levelo://app?vid=7fe3b620-b7cd-400e-889a-d5846827ddda","ios":"levelo://app?vid=7fe3b620-b7cd-400e-889a-d5846827ddda"},"vehicle_type_id":"4","last_reported":1748092803,"current_range_meters":7200,"station_id":"ce4bh412rcd13ifvqds0","pricing_plan_id":"cebpf4jnsgd1na2vs0mg"},{"bike_id":"61c86f3c-f79e-4570-9c61-1f69448613c5","system_id":"levelo_inurba_marseille","lat":43.29621,"lon":5.37155,"is_reserved":false,"is_disabled":false,"rental_uris":{"android":"levelo://app?vid=61c86f3c-f79e-4570-9c61-1f69448613c5","ios":"levelo://app?vid=61c86f3c-f79e-4570-9c61-1f69448613c5"},"vehicle_type_id":"4","last_reported":1748092803,"current_range_meters":7200,"station_id":"","pricing_plan_id":"cebpf4jnsgd1na2vs0mg"},{"bike_id":"c2d01ad2-e5e9-4ad6-889b-9dae4480bdff","system_id":"levelo_inurba_marseille","lat":43.27379,"lon":5.36247,"is_reserved":false,"is_disabled":false,"rental_uris":{"android":"levelo://app?vid=c2d01ad2-e5e9-4ad6-889b-9dae4480bdff","ios":"levelo://app?vid=c2d01ad2-e5e9-4ad6-889b-9dae4480bdff"},"vehicle_type_id":"4","last_reported":1748092803,"current_range_meters":7200,"station_id":"ce4bhbh2rcd13ifvqeo0","pricing_plan_id":"cebpf4jnsgd1na2vs0mg"},{"bike_id":"77a16159-0be4-4905-8fe3-97a296f16673","system_id":"levelo_inurba_marseille","lat":43.32368,"lon":5.36771,"is_reserved":false,"is_disabled":false,"rental_uris":{"android":"levelo://app?vid=77a16159-0be4-4905-8fe3-97a296f16673","ios":"levelo://app?vid=77a16159-0be4-4905-8fe3-97a296f16673"},"vehicle_type_id":"4","last_reported":1748092803,"current_range_meters":7200,"station_id":"ce4bhsh2rcd13ifvqi2g","pricing_plan_id":"cebpf4jnsgd1na2vs0mg"},{"bike_id":"8b18aff3-e35a-4135-bf5b-61cd5335dd6a","system_id":"levelo_inurba_marseille","lat":43.3036,"lon":5.42503,"is_reserved":false,"is_disabled":false,"rental_uris":{"android":"levelo://app?vid=8b18aff3-e35a-4135-bf5b-61cd5335dd6a","ios":"levelo://app?vid=8b18aff3-e35a-4135-bf5b-61cd5335dd6a"},"vehicle_type_id":"4","last_reported":1748092803,"current_range_meters":7200,"station_id":"","pricing_plan_id":"cebpf4jnsgd1na2vs0mg"},{"bike_id":"dc507ce8-895b-48b8-922f-4d5e04069eec","system_id":"levelo_inurba_marseille","lat":43.28421,"lon":5.34977,"is_reserved":false,"is_disabled":false,"rental_uris":{"android":"levelo://app?vid=dc507ce8-895b-48b8-922f-4d5e04069eec","ios":"levelo://app?vid=dc507ce8-895b-48b8-922f-4d5e04069eec"},"vehicle_type_id":"4","last_reported":1748092803,"current_range_meters":7200,"station_id":"ce4bhbh2rcd13ifvqepg","pricing_plan_id":"cebpf4jnsgd1na2vs0mg"},{"bike_id":"9205fd00-3ea7-45d9-ab48-f3b8fe650624","system_id":"levelo_inurba_marseille","lat":43.26224,"lon":5.40444,"is_reserved":false,"is_disabled":false,"rental_uris":{"android":"levelo://app?vid=9205fd00-3ea7-45d9-ab48-f3b8fe650624","ios":"levelo://app?vid=9205fd00-3ea7-45d9-ab48-f3b8fe650624"},"vehicle_type_id":"4","last_reported":1748092803,"current_range_meters":7200,"station_id":"ce4bhmh2rcd13ifvqgmg","pricing_plan_id":"cebpf4jnsgd1na2vs0mg"},{"bike_id":"bdeadb81-b49f-47c9-a59c-349d6c353809","system_id":"levelo_inurba_marseille","lat":43.28261,"lon":5.3506,"is_reserved":false,"is_disabled":false,"rental_uris":{"android":"levelo://app?vid=bdeadb81-b49f-47c9-a59c-349d6c353809","ios":"levelo://app?vid=bdeadb81-b49f-47c9-a59c-349d6c353809"},"vehicle_type_id":"4","last_reported":1748092803,"current_range_meters":8000,"station_id":"","pricing_plan_id":"cebpf4jnsgd1na2vs0mg"},{"bike_id":"83b2c6b7-7793-4d91-8d67-a24487255386","system_id":"levelo_inurba_marseille","lat":43.28251,"lon":5.37385,"is_reserved":false,"is_disabled":false,"rental_uris":{"android":"levelo://app?vid=83b2c6b7-7793-4d91-8d67-a24487255386","ios":"levelo://app?vid=83b2c6b7-7793-4d91-8d67-a24487255386"},"vehicle_type_id":"4","last_reported":1748092803,"current_range_meters":8000,"station_id":"","pricing_plan_id":"cebpf4jnsgd1na2vs0mg"},{"bike_id":"a5c4d003-408d-4b85-bde0-07a218124d2c","system_id":"levelo_inurba_marseille","lat":43.32288,"lon":5.382837,"is_reserved":false,"is_disabled":false,"rental_uris":{"android":"levelo://app?vid=a5c4d003-408d-4b85-bde0-07a218124d2c","ios":"levelo://app?vid=a5c4d003-408d-4b85-bde0-07a218124d2c"},"vehicle_type_id":"4","last_reported":1748092803,"current_range_meters":8000,"station_id":"ce4bhr12rcd13ifvqhqg","pricing_plan_id":"cebpf4jnsgd1na2vs0mg"},{"bike_id":"1f1c07f6-d8fc-4693-b05d-4a27c4a90f0c","system_id":"levelo_inurba_marseille","lat":43.25527,"lon":5.37704,"is_reserved":false,"is_disabled":false,"rental_uris":{"android":"levelo://app?vid=1f1c07f6-d8fc-4693-b05d-4a27c4a90f0c","ios":"levelo://app?vid=1f1c07f6-d8fc-4693-b05d-4a27c4a90f0c"},"vehicle_type_id":"4","last_reported":1748092803,"current_range_meters":8000,"station_id":"ce4bhh12rcd13ifvqff0","pricing_plan_id":"cebpf4jnsgd1na2vs0mg"},{"bike_id":"f67355ec-9567-4e37-a4df-a707a9954bb5","system_id":"levelo_inurba_marseille","lat":43.21208,"lon":5.35061,"is_reserved":false,"is_disabled":false,"rental_uris":{"android":"levelo://app?vid=f67355ec-9567-4e37-a4df-a707a9954bb5","ios":"levelo://app?vid=f67355ec-9567-4e37-a4df-a707a9954bb5"},"vehicle_type_id":"4","last_reported":1748092803,"current_range_meters":8000,"station_id":"st_cvj6sg6p6f1abm77japg","pricing_plan_id":"cebpf4jnsgd1na2vs0mg"},{"bike_id":"91fdaad5-417a-4200-986a-28591fa171eb","system_id":"levelo_inurba_marseille","lat":43.24994,"lon":5.38999,"is_reserved":false,"is_disabled":false,"rental_uris":{"android":"levelo://app?vid=91fdaad5-417a-4200-986a-28591fa171eb","ios":"levelo://app?vid=91fdaad5-417a-4200-986a-28591fa171eb"},"vehicle_type_id":"4","last_reported":1748092803,"current_range_meters":8000,"station_id":"","pricing_plan_id":"cebpf4jnsgd1na2vs0mg"},{"bike_id":"ff95a50b-0967-4022-8366-b5656ec5675e","system_id":"levelo_inurba_marseille","lat":43.295258,"lon":5.385605,"is_reserved":false,"is_disabled":false,"rental_uris":{"android":"levelo://app?vid=ff95a50b-0967-4022-8366-b5656ec5675e","ios":"levelo://app?vid=ff95a50b-0967-4022-8366-b5656ec5675e"},"vehicle_type_id":"4","last_reported":1748092803,"current_range_meters":8000,"station_id":"ce4bgih2rcd13ifvqba0","pricing_plan_id":"cebpf4jnsgd1na2vs0mg"},{"bike_id":"95be3e8e-3e31-4f31-bde5-d1e9271d585c","system_id":"levelo_inurba_marseille","lat":43.21199,"lon":5.35067,"is_reserved":false,"is_disabled":false,"rental_uris":{"android":"levelo://app?vid=95be3e8e-3e31-4f31-bde5-d1e9271d585c","ios":"levelo://app?vid=95be3e8e-3e31-4f31-bde5-d1e9271d585c"},"vehicle_type_id":"4","last_reported":1748092803,"current_range_meters":8000,"station_id":"st_cvj6sg6p6f1abm77japg","pricing_plan_id":"cebpf4jnsgd1na2vs0mg"},{"bike_id":"c51f5ded-5c58-496e-94c7-5049ab4d1c2a","system_id":"levelo_inurba_marseille","lat":43.24553,"lon":5.39542,"is_reserved":false,"is_disabled":false,"rental_uris":{"android":"levelo://app?vid=c51f5ded-5c58-496e-94c7-5049ab4d1c2a","ios":"levelo://app?vid=c51f5ded-5c58-496e-94c7-5049ab4d1c2a"},"vehicle_type_id":"4","last_reported":1748092803,"current_range_meters":8000,"station_id":"ce4bhlp2rcd13ifvqgjg","pricing_plan_id":"cebpf4jnsgd1na2vs0mg"},{"bike_id":"4a32a595-c343-4ccf-a2d6-ef50dd0081f4","system_id":"levelo_inurba_marseille","lat":43.337444,"lon":5.374475,"is_reserved":false,"is_disabled":false,"rental_uris":{"android":"levelo://app?vid=4a32a595-c343-4ccf-a2d6-ef50dd0081f4","ios":"levelo://app?vid=4a32a595-c343-4ccf-a2d6-ef50dd0081f4"},"vehicle_type_id":"4","last_reported":1748092803,"current_range_meters":8000,"station_id":"","pricing_plan_id":"cebpf4jnsgd1na2vs0mg"},{"bike_id":"1558526f-5739-49db-a8cb-43d331957259","system_id":"levelo_inurba_marseille","lat":43.323689,"lon":5.36761,"is_reserved":false,"is_disabled":false,"rental_uris":{"android":"levelo://app?vid=1558526f-5739-49db-a8cb-43d331957259","ios":"levelo://app?vid=1558526f-5739-49db-a8cb-43d331957259"},"vehicle_type_id":"4","last_reported":1748092803,"current_range_meters":8000,"station_id":"ce4bhsh2rcd13ifvqi2g","pricing_plan_id":"cebpf4jnsgd1na2vs0mg"},{"bike_id":"15e45649-aa87-4ec5-abbf-7e34cb70e43c","system_id":"levelo_inurba_marseille","lat":43.27629,"lon":5.36105,"is_reserved":false,"is_disabled":false,"rental_uris":{"android":"levelo://app?vid=15e45649-aa87-4ec5-abbf-7e34cb70e43c","ios":"levelo://app?vid=15e45649-aa87-4ec5-abbf-7e34cb70e43c"},"vehicle_type_id":"4","last_reported":1748092803,"current_range_meters":8000,"station_id":"ce4bgj92rcd13ifvqbe0","pricing_plan_id":"cebpf4jnsgd1na2vs0mg"},{"bike_id":"a8c15226-6645-48c5-a652-c1d00ee0a72b","system_id":"levelo_inurba_marseille","lat":43.231537,"lon":5.437151,"is_reserved":false,"is_disabled":false,"rental_uris":{"android":"levelo://app?vid=a8c15226-6645-48c5-a652-c1d00ee0a72b","ios":"levelo://app?vid=a8c15226-6645-48c5-a652-c1d00ee0a72b"},"vehicle_type_id":"4","last_reported":1748092803,"current_range_meters":8000,"station_id":"ce4bhmp2rcd13ifvqgog","pricing_plan_id":"cebpf4jnsgd1na2vs0mg"},{"bike_id":"a5f44c9a-546f-40fd-a690-8458536614c9","system_id":"levelo_inurba_marseille","lat":43.30284,"lon":5.37695,"is_reserved":false,"is_disabled":false,"rental_uris":{"android":"levelo://app?vid=a5f44c9a-546f-40fd-a690-8458536614c9","ios":"levelo://app?vid=a5f44c9a-546f-40fd-a690-8458536614c9"},"vehicle_type_id":"4","last_reported":1748092803,"current_range_meters":8400,"station_id":"ce4bguh2rcd13ifvqcj0","pricing_plan_id":"cebpf4jnsgd1na2vs0mg"},{"bike_id":"fa529a29-8d21-4f13-9783-e1708a99c344","system_id":"levelo_inurba_marseille","lat":43.246516,"lon":5.388955,"is_reserved":false,"is_disabled":false,"rental_uris":{"android":"levelo://app?vid=fa529a29-8d21-4f13-9783-e1708a99c344","ios":"levelo://app?vid=fa529a29-8d21-4f13-9783-e1708a99c344"},"vehicle_type_id":"4","last_reported":1748092803,"current_range_meters":8400,"station_id":"ce4bhlh2rcd13ifvqgig","pricing_plan_id":"cebpf4jnsgd1na2vs0mg"},{"bike_id":"d256c6a4-d35b-4c32-b7db-2bac8ab63b70","system_id":"levelo_inurba_marseille","lat":43.23197,"lon":5.3557,"is_reserved":false,"is_disabled":false,"rental_uris":{"android":"levelo://app?vid=d256c6a4-d35b-4c32-b7db-2bac8ab63b70","ios":"levelo://app?vid=d256c6a4-d35b-4c32-b7db-2bac8ab63b70"},"vehicle_type_id":"4","last_reported":1748092803,"current_range_meters":8400,"station_id":"ce4bhu92rcd13ifvqi70","pricing_plan_id":"cebpf4jnsgd1na2vs0mg"},{"bike_id":"b4ea427a-5c0c-4ff8-8c8f-a58618bb5e9f","system_id":"levelo_inurba_marseille","lat":43.27362,"lon":5.36249,"is_reserved":false,"is_disabled":false,"rental_uris":{"android":"levelo://app?vid=b4ea427a-5c0c-4ff8-8c8f-a58618bb5e9f","ios":"levelo://app?vid=b4ea427a-5c0c-4ff8-8c8f-a58618bb5e9f"},"vehicle_type_id":"4","last_reported":1748092803,"current_range_meters":8400,"station_id":"ce4bhbh2rcd13ifvqeo0","pricing_plan_id":"cebpf4jnsgd1na2vs0mg"},{"bike_id":"5c7e0a2d-5eac-4399-98c7-f62f88444af9","system_id":"levelo_inurba_marseille","lat":43.24075,"lon":5.37756,"is_reserved":false,"is_disabled":false,"rental_uris":{"android":"levelo://app?vid=5c7e0a2d-5eac-4399-98c7-f62f88444af9","ios":"levelo://app?vid=5c7e0a2d-5eac-4399-98c7-f62f88444af9"},"vehicle_type_id":"4","last_reported":1748092803,"current_range_meters":8400,"station_id":"ce4bhnp2rcd13ifvqgvg","pricing_plan_id":"cebpf4jnsgd1na2vs0mg"},{"bike_id":"2fe9827a-9f31-42c9-8a8e-6999447352d0","system_id":"levelo_inurba_marseille","lat":43.28611,"lon":5.35097,"is_reserved":false,"is_disabled":false,"rental_uris":{"android":"levelo://app?vid=2fe9827a-9f31-42c9-8a8e-6999447352d0","ios":"levelo://app?vid=2fe9827a-9f31-42c9-8a8e-6999447352d0"},"vehicle_type_id":"4","last_reported":1748092803,"current_range_meters":8400,"station_id":"ce4bhch2rcd13ifvqeug","pricing_plan_id":"cebpf4jnsgd1na2vs0mg"},{"bike_id":"a0b0d364-fe4a-42b0-9e2f-4ba1df5120c9","system_id":"levelo_inurba_marseille","lat":43.24176,"lon":5.36405,"is_reserved":false,"is_disabled":false,"rental_uris":{"android":"levelo://app?vid=a0b0d364-fe4a-42b0-9e2f-4ba1df5120c9","ios":"levelo://app?vid=a0b0d364-fe4a-42b0-9e2f-4ba1df5120c9"},"vehicle_type_id":"4","last_reported":1748092803,"current_range_meters":8400,"station_id":"cpo36qri1sfpv3e86is0","pricing_plan_id":"cebpf4jnsgd1na2vs0mg"},{"bike_id":"2bd3ad3d-824f-46fc-8381-d2ab33a0afa8","system_id":"levelo_inurba_marseille","lat":43.2961,"lon":5.37183,"is_reserved":false,"is_disabled":false,"rental_uris":{"android":"levelo://app?vid=2bd3ad3d-824f-46fc-8381-d2ab33a0afa8","ios":"levelo://app?vid=2bd3ad3d-824f-46fc-8381-d2ab33a0afa8"},"vehicle_type_id":"4","last_reported":1748092803,"current_range_meters":8400,"station_id":"ce4bgnh2rcd13ifvqc0g","pricing_plan_id":"cebpf4jnsgd1na2vs0mg"},{"bike_id":"ea8aecbc-7116-433a-8d4d-6b7437f4f7a0","system_id":"levelo_inurba_marseille","lat":43.29534,"lon":5.38543,"is_reserved":false,"is_disabled":false,"rental_uris":{"android":"levelo://app?vid=ea8aecbc-7116-433a-8d4d-6b7437f4f7a0","ios":"levelo://app?vid=ea8aecbc-7116-433a-8d4d-6b7437f4f7a0"},"vehicle_type_id":"4","last_reported":1748092803,"current_range_meters":10000,"station_id":"ce4bgih2rcd13ifvqba0","pricing_plan_id":"cebpf4jnsgd1na2vs0mg"},{"bike_id":"720fed77-eca5-44ee-bb0b-ee1c8f229b58","system_id":"levelo_inurba_marseille","lat":43.24549,"lon":5.3955,"is_reserved":false,"is_disabled":false,"rental_uris":{"android":"levelo://app?vid=720fed77-eca5-44ee-bb0b-ee1c8f229b58","ios":"levelo://app?vid=720fed77-eca5-44ee-bb0b-ee1c8f229b58"},"vehicle_type_id":"4","last_reported":1748092803,"current_range_meters":8800,"station_id":"ce4bhlp2rcd13ifvqgjg","pricing_plan_id":"cebpf4jnsgd1na2vs0mg"},{"bike_id":"b5f8464e-abcc-4f11-9834-afaca35e9824","system_id":"levelo_inurba_marseille","lat":43.28286,"lon":5.35091,"is_reserved":false,"is_disabled":false,"rental_uris":{"android":"levelo://app?vid=b5f8464e-abcc-4f11-9834-afaca35e9824","ios":"levelo://app?vid=b5f8464e-abcc-4f11-9834-afaca35e9824"},"vehicle_type_id":"4","last_reported":1748092803,"current_range_meters":8400,"station_id":"ce4bhbp2rcd13ifvqerg","pricing_plan_id":"cebpf4jnsgd1na2vs0mg"},{"bike_id":"2ea50577-1176-467c-8d1f-ce07d6571fb8","system_id":"levelo_inurba_marseille","lat":43.23189,"lon":5.35561,"is_reserved":false,"is_disabled":false,"rental_uris":{"android":"levelo://app?vid=2ea50577-1176-467c-8d1f-ce07d6571fb8","ios":"levelo://app?vid=2ea50577-1176-467c-8d1f-ce07d6571fb8"},"vehicle_type_id":"4","last_reported":1748092803,"current_range_meters":8400,"station_id":"ce4bhu92rcd13ifvqi70","pricing_plan_id":"cebpf4jnsgd1na2vs0mg"},{"bike_id":"d3442389-9735-4568-8f47-c4651fa5ee09","system_id":"levelo_inurba_marseille","lat":43.30802,"lon":5.43535,"is_reserved":false,"is_disabled":false,"rental_uris":{"android":"levelo://app?vid=d3442389-9735-4568-8f47-c4651fa5ee09","ios":"levelo://app?vid=d3442389-9735-4568-8f47-c4651fa5ee09"},"vehicle_type_id":"4","last_reported":1748092803,"current_range_meters":8400,"station_id":"ce4bhph2rcd13ifvqheg","pricing_plan_id":"cebpf4jnsgd1na2vs0mg"},{"bike_id":"bf662ae0-26e4-4bb7-9f9e-d0df53c116b8","system_id":"levelo_inurba_marseille","lat":43.23193,"lon":5.35557,"is_reserved":false,"is_disabled":false,"rental_uris":{"android":"levelo://app?vid=bf662ae0-26e4-4bb7-9f9e-d0df53c116b8","ios":"levelo://app?vid=bf662ae0-26e4-4bb7-9f9e-d0df53c116b8"},"vehicle_type_id":"4","last_reported":1748092803,"current_range_meters":8400,"station_id":"ce4bhu92rcd13ifvqi70","pricing_plan_id":"cebpf4jnsgd1na2vs0mg"},{"bike_id":"ffd64551-c411-4632-8bdc-c195effc115e","system_id":"levelo_inurba_marseille","lat":43.25869,"lon":5.39903,"is_reserved":false,"is_disabled":false,"rental_uris":{"android":"levelo://app?vid=ffd64551-c411-4632-8bdc-c195effc115e","ios":"levelo://app?vid=ffd64551-c411-4632-8bdc-c195effc115e"},"vehicle_type_id":"4","last_reported":1748092803,"current_range_meters":8800,"station_id":"ce4bhl92rcd13ifvqghg","pricing_plan_id":"cebpf4jnsgd1na2vs0mg"},{"bike_id":"5d28f196-40ba-439c-939d-8dba0353db13","system_id":"levelo_inurba_marseille","lat":43.27387,"lon":5.36258,"is_reserved":false,"is_disabled":false,"rental_uris":{"android":"levelo://app?vid=5d28f196-40ba-439c-939d-8dba0353db13","ios":"levelo://app?vid=5d28f196-40ba-439c-939d-8dba0353db13"},"vehicle_type_id":"4","last_reported":1748092803,"current_range_meters":8800,"station_id":"","pricing_plan_id":"cebpf4jnsgd1na2vs0mg"},{"bike_id":"4525f9a3-55f1-43a7-ae74-1a1c22f30cac","system_id":"levelo_inurba_marseille","lat":43.32115,"lon":5.36802,"is_reserved":false,"is_disabled":false,"rental_uris":{"android":"levelo://app?vid=4525f9a3-55f1-43a7-ae74-1a1c22f30cac","ios":"levelo://app?vid=4525f9a3-55f1-43a7-ae74-1a1c22f30cac"},"vehicle_type_id":"4","last_reported":1748092803,"current_range_meters":8800,"station_id":"ce4bhrh2rcd13ifvqhug","pricing_plan_id":"cebpf4jnsgd1na2vs0mg"},{"bike_id":"eeb53103-7169-471a-9137-3cbd5afd6387","system_id":"levelo_inurba_marseille","lat":43.23059,"lon":5.35499,"is_reserved":false,"is_disabled":false,"rental_uris":{"android":"levelo://app?vid=eeb53103-7169-471a-9137-3cbd5afd6387","ios":"levelo://app?vid=eeb53103-7169-471a-9137-3cbd5afd6387"},"vehicle_type_id":"4","last_reported":1748092803,"current_range_meters":8800,"station_id":"cpo3342slgdg3j2ifvpg","pricing_plan_id":"cebpf4jnsgd1na2vs0mg"},{"bike_id":"adf6ce69-44ca-4204-8de8-14f7bb69e27d","system_id":"levelo_inurba_marseille","lat":43.28611,"lon":5.351,"is_reserved":false,"is_disabled":false,"rental_uris":{"android":"levelo://app?vid=adf6ce69-44ca-4204-8de8-14f7bb69e27d","ios":"levelo://app?vid=adf6ce69-44ca-4204-8de8-14f7bb69e27d"},"vehicle_type_id":"4","last_reported":1748092803,"current_range_meters":8800,"station_id":"ce4bhch2rcd13ifvqeug","pricing_plan_id":"cebpf4jnsgd1na2vs0mg"},{"bike_id":"5cd0e45e-59bf-43bf-a16d-9b2668fef265","system_id":"levelo_inurba_marseille","lat":43.28626,"lon":5.35109,"is_reserved":false,"is_disabled":false,"rental_uris":{"android":"levelo://app?vid=5cd0e45e-59bf-43bf-a16d-9b2668fef265","ios":"levelo://app?vid=5cd0e45e-59bf-43bf-a16d-9b2668fef265"},"vehicle_type_id":"4","last_reported":1748092803,"current_range_meters":8800,"station_id":"ce4bhch2rcd13ifvqeug","pricing_plan_id":"cebpf4jnsgd1na2vs0mg"},{"bike_id":"945acc1a-3c63-4d4b-bbd9-1be2997af620","system_id":"levelo_inurba_marseille","lat":43.284496,"lon":5.392018,"is_reserved":false,"is_disabled":false,"rental_uris":{"android":"levelo://app?vid=945acc1a-3c63-4d4b-bbd9-1be2997af620","ios":"levelo://app?vid=945acc1a-3c63-4d4b-bbd9-1be2997af620"},"vehicle_type_id":"4","last_reported":1748092803,"current_range_meters":8800,"station_id":"","pricing_plan_id":"cebpf4jnsgd1na2vs0mg"},{"bike_id":"d6c890f3-c981-43d3-818e-9e0f418529fd","system_id":"levelo_inurba_marseille","lat":43.3118,"lon":5.38717,"is_reserved":false,"is_disabled":false,"rental_uris":{"android":"levelo://app?vid=d6c890f3-c981-43d3-818e-9e0f418529fd","ios":"levelo://app?vid=d6c890f3-c981-43d3-818e-9e0f418529fd"},"vehicle_type_id":"4","last_reported":1748092803,"current_range_meters":8800,"station_id":"ce4bgv12rcd13ifvqcp0","pricing_plan_id":"cebpf4jnsgd1na2vs0mg"},{"bike_id":"578006ec-03b8-442f-8118-bdf39d04f156","system_id":"levelo_inurba_marseille","lat":43.28666,"lon":5.36342,"is_reserved":false,"is_disabled":false,"rental_uris":{"android":"levelo://app?vid=578006ec-03b8-442f-8118-bdf39d04f156","ios":"levelo://app?vid=578006ec-03b8-442f-8118-bdf39d04f156"},"vehicle_type_id":"4","last_reported":1748092803,"current_range_meters":8800,"station_id":"ce4bhah2rcd13ifvqej0","pricing_plan_id":"cebpf4jnsgd1na2vs0mg"},{"bike_id":"80b2bc07-19f8-4df1-9449-0565365dd22a","system_id":"levelo_inurba_marseille","lat":43.302,"lon":5.36632,"is_reserved":false,"is_disabled":false,"rental_uris":{"android":"levelo://app?vid=80b2bc07-19f8-4df1-9449-0565365dd22a","ios":"levelo://app?vid=80b2bc07-19f8-4df1-9449-0565365dd22a"},"vehicle_type_id":"4","last_reported":1748092803,"current_range_meters":8800,"station_id":"ce4bgrh2rcd13ifvqc8g","pricing_plan_id":"cebpf4jnsgd1na2vs0mg"},{"bike_id":"c8f6c219-6fad-4f7d-93cc-47e4c25f6e5d","system_id":"levelo_inurba_marseille","lat":43.2621,"lon":5.37943,"is_reserved":false,"is_disabled":false,"rental_uris":{"android":"levelo://app?vid=c8f6c219-6fad-4f7d-93cc-47e4c25f6e5d","ios":"levelo://app?vid=c8f6c219-6fad-4f7d-93cc-47e4c25f6e5d"},"vehicle_type_id":"4","last_reported":1748092803,"current_range_meters":9200,"station_id":"ce4bhjp2rcd13ifvqg90","pricing_plan_id":"cebpf4jnsgd1na2vs0mg"},{"bike_id":"95edf1fe-5c53-43a0-84f5-09c90cb78393","system_id":"levelo_inurba_marseille","lat":43.288447,"lon":5.358385,"is_reserved":false,"is_disabled":false,"rental_uris":{"android":"levelo://app?vid=95edf1fe-5c53-43a0-84f5-09c90cb78393","ios":"levelo://app?vid=95edf1fe-5c53-43a0-84f5-09c90cb78393"},"vehicle_type_id":"4","last_reported":1748092803,"current_range_meters":9200,"station_id":"ce4bhb12rcd13ifvqem0","pricing_plan_id":"cebpf4jnsgd1na2vs0mg"},{"bike_id":"7170f7ab-5f66-4d01-a144-f9e1bea7bf6d","system_id":"levelo_inurba_marseille","lat":43.30358,"lon":5.41871,"is_reserved":false,"is_disabled":false,"rental_uris":{"android":"levelo://app?vid=7170f7ab-5f66-4d01-a144-f9e1bea7bf6d","ios":"levelo://app?vid=7170f7ab-5f66-4d01-a144-f9e1bea7bf6d"},"vehicle_type_id":"4","last_reported":1748092803,"current_range_meters":9200,"station_id":"ce4bhop2rcd13ifvqh7g","pricing_plan_id":"cebpf4jnsgd1na2vs0mg"},{"bike_id":"6f7d724d-7ddb-4b2e-8910-6aee87af21ff","system_id":"levelo_inurba_marseille","lat":43.23151,"lon":5.43723,"is_reserved":false,"is_disabled":false,"rental_uris":{"android":"levelo://app?vid=6f7d724d-7ddb-4b2e-8910-6aee87af21ff","ios":"levelo://app?vid=6f7d724d-7ddb-4b2e-8910-6aee87af21ff"},"vehicle_type_id":"4","last_reported":1748092803,"current_range_meters":9200,"station_id":"ce4bhmp2rcd13ifvqgog","pricing_plan_id":"cebpf4jnsgd1na2vs0mg"},{"bike_id":"1ff76d99-49ad-48e4-bbad-5b9614e0f72a","system_id":"levelo_inurba_marseille","lat":43.269238,"lon":5.402629,"is_reserved":false,"is_disabled":false,"rental_uris":{"android":"levelo://app?vid=1ff76d99-49ad-48e4-bbad-5b9614e0f72a","ios":"levelo://app?vid=1ff76d99-49ad-48e4-bbad-5b9614e0f72a"},"vehicle_type_id":"4","last_reported":1748092803,"current_range_meters":9200,"station_id":"cjm6bp8fraef2m0cb0m0","pricing_plan_id":"cebpf4jnsgd1na2vs0mg"},{"bike_id":"d2f552da-71df-4824-8e93-24fbcf507e5c","system_id":"levelo_inurba_marseille","lat":43.27383,"lon":5.3627,"is_reserved":false,"is_disabled":false,"rental_uris":{"android":"levelo://app?vid=d2f552da-71df-4824-8e93-24fbcf507e5c","ios":"levelo://app?vid=d2f552da-71df-4824-8e93-24fbcf507e5c"},"vehicle_type_id":"4","last_reported":1748092803,"current_range_meters":9200,"station_id":"ce4bhbh2rcd13ifvqeo0","pricing_plan_id":"cebpf4jnsgd1na2vs0mg"},{"bike_id":"38f90460-921d-40e9-86a1-53ee5d440e0a","system_id":"levelo_inurba_marseille","lat":43.25832,"lon":5.39447,"is_reserved":false,"is_disabled":false,"rental_uris":{"android":"levelo://app?vid=38f90460-921d-40e9-86a1-53ee5d440e0a","ios":"levelo://app?vid=38f90460-921d-40e9-86a1-53ee5d440e0a"},"vehicle_type_id":"4","last_reported":1748092803,"current_range_meters":9200,"station_id":"ce4bhip2rcd13ifvqft0","pricing_plan_id":"cebpf4jnsgd1na2vs0mg"},{"bike_id":"17fba07d-356b-4dc9-9e5f-f46bf860123b","system_id":"levelo_inurba_marseille","lat":43.27071,"lon":5.4228,"is_reserved":false,"is_disabled":false,"rental_uris":{"android":"levelo://app?vid=17fba07d-356b-4dc9-9e5f-f46bf860123b","ios":"levelo://app?vid=17fba07d-356b-4dc9-9e5f-f46bf860123b"},"vehicle_type_id":"4","last_reported":1748092803,"current_range_meters":9200,"station_id":"ce4bhk92rcd13ifvqgb0","pricing_plan_id":"cebpf4jnsgd1na2vs0mg"},{"bike_id":"35ec9360-ebfa-4748-b39f-1899c3320609","system_id":"levelo_inurba_marseille","lat":43.28002,"lon":5.41663,"is_reserved":false,"is_disabled":false,"rental_uris":{"android":"levelo://app?vid=35ec9360-ebfa-4748-b39f-1899c3320609","ios":"levelo://app?vid=35ec9360-ebfa-4748-b39f-1899c3320609"},"vehicle_type_id":"4","last_reported":1748092803,"current_range_meters":8800,"station_id":"ce4bho12rcd13ifvqh1g","pricing_plan_id":"cebpf4jnsgd1na2vs0mg"},{"bike_id":"c16413fd-5d65-4ca2-8681-abb95bdf2d2a","system_id":"levelo_inurba_marseille","lat":43.30956,"lon":5.37136,"is_reserved":false,"is_disabled":false,"rental_uris":{"android":"levelo://app?vid=c16413fd-5d65-4ca2-8681-abb95bdf2d2a","ios":"levelo://app?vid=c16413fd-5d65-4ca2-8681-abb95bdf2d2a"},"vehicle_type_id":"4","last_reported":1748092803,"current_range_meters":9200,"station_id":"","pricing_plan_id":"cebpf4jnsgd1na2vs0mg"},{"bike_id":"c6be08e5-b3cc-4691-9cf8-bdc98218578b","system_id":"levelo_inurba_marseille","lat":43.264953,"lon":5.395199,"is_reserved":false,"is_disabled":false,"rental_uris":{"android":"levelo://app?vid=c6be08e5-b3cc-4691-9cf8-bdc98218578b","ios":"levelo://app?vid=c6be08e5-b3cc-4691-9cf8-bdc98218578b"},"vehicle_type_id":"4","last_reported":1748092803,"current_range_meters":8800,"station_id":"ce4bhi12rcd13ifvqfq0","pricing_plan_id":"cebpf4jnsgd1na2vs0mg"},{"bike_id":"8f5b4fd6-0ba7-4984-98d0-d31ac1a53ebd","system_id":"levelo_inurba_marseille","lat":43.25502,"lon":5.37656,"is_reserved":false,"is_disabled":false,"rental_uris":{"android":"levelo://app?vid=8f5b4fd6-0ba7-4984-98d0-d31ac1a53ebd","ios":"levelo://app?vid=8f5b4fd6-0ba7-4984-98d0-d31ac1a53ebd"},"vehicle_type_id":"4","last_reported":1748092803,"current_range_meters":9200,"station_id":"ce4bhh12rcd13ifvqff0","pricing_plan_id":"cebpf4jnsgd1na2vs0mg"},{"bike_id":"b897a302-59b8-4dea-b4dc-60b131b12e95","system_id":"levelo_inurba_marseille","lat":43.25088,"lon":5.39523,"is_reserved":false,"is_disabled":false,"rental_uris":{"android":"levelo://app?vid=b897a302-59b8-4dea-b4dc-60b131b12e95","ios":"levelo://app?vid=b897a302-59b8-4dea-b4dc-60b131b12e95"},"vehicle_type_id":"4","last_reported":1748092803,"current_range_meters":9600,"station_id":"ce4bhm12rcd13ifvqgkg","pricing_plan_id":"cebpf4jnsgd1na2vs0mg"},{"bike_id":"15060533-3a3c-4c76-8d50-6799b5b45673","system_id":"levelo_inurba_marseille","lat":43.23217,"lon":5.35547,"is_reserved":false,"is_disabled":false,"rental_uris":{"android":"levelo://app?vid=15060533-3a3c-4c76-8d50-6799b5b45673","ios":"levelo://app?vid=15060533-3a3c-4c76-8d50-6799b5b45673"},"vehicle_type_id":"4","last_reported":1748092803,"current_range_meters":9600,"station_id":"ce4bhu92rcd13ifvqi70","pricing_plan_id":"cebpf4jnsgd1na2vs0mg"},{"bike_id":"a3f4c86f-e1b5-40d9-8c6a-5c413b7d4243","system_id":"levelo_inurba_marseille","lat":43.25827,"lon":5.39425,"is_reserved":false,"is_disabled":false,"rental_uris":{"android":"levelo://app?vid=a3f4c86f-e1b5-40d9-8c6a-5c413b7d4243","ios":"levelo://app?vid=a3f4c86f-e1b5-40d9-8c6a-5c413b7d4243"},"vehicle_type_id":"4","last_reported":1748092803,"current_range_meters":9600,"station_id":"ce4bhip2rcd13ifvqft0","pricing_plan_id":"cebpf4jnsgd1na2vs0mg"},{"bike_id":"89127d31-03e4-4688-ac98-d46eda547a94","system_id":"levelo_inurba_marseille","lat":43.31166,"lon":5.38715,"is_reserved":false,"is_disabled":false,"rental_uris":{"android":"levelo://app?vid=89127d31-03e4-4688-ac98-d46eda547a94","ios":"levelo://app?vid=89127d31-03e4-4688-ac98-d46eda547a94"},"vehicle_type_id":"4","last_reported":1748092803,"current_range_meters":9600,"station_id":"ce4bgv12rcd13ifvqcp0","pricing_plan_id":"cebpf4jnsgd1na2vs0mg"},{"bike_id":"43092e2f-f68e-458e-8a1d-b33f3e6887c5","system_id":"levelo_inurba_marseille","lat":43.29032,"lon":5.38646,"is_reserved":false,"is_disabled":false,"rental_uris":{"android":"levelo://app?vid=43092e2f-f68e-458e-8a1d-b33f3e6887c5","ios":"levelo://app?vid=43092e2f-f68e-458e-8a1d-b33f3e6887c5"},"vehicle_type_id":"4","last_reported":1748092803,"current_range_meters":9600,"station_id":"ce4bh4p2rcd13ifvqe0g","pricing_plan_id":"cebpf4jnsgd1na2vs0mg"},{"bike_id":"830d8b69-9049-4026-8280-bb58ddb2dd83","system_id":"levelo_inurba_marseille","lat":43.211862,"lon":5.350782,"is_reserved":false,"is_disabled":false,"rental_uris":{"android":"levelo://app?vid=830d8b69-9049-4026-8280-bb58ddb2dd83","ios":"levelo://app?vid=830d8b69-9049-4026-8280-bb58ddb2dd83"},"vehicle_type_id":"4","last_reported":1748092803,"current_range_meters":9600,"station_id":"st_cvj6sg6p6f1abm77japg","pricing_plan_id":"cebpf4jnsgd1na2vs0mg"},{"bike_id":"52269cbf-94f1-4b3a-a7ea-52e773ac04c5","system_id":"levelo_inurba_marseille","lat":43.25558,"lon":5.38248,"is_reserved":false,"is_disabled":false,"rental_uris":{"android":"levelo://app?vid=52269cbf-94f1-4b3a-a7ea-52e773ac04c5","ios":"levelo://app?vid=52269cbf-94f1-4b3a-a7ea-52e773ac04c5"},"vehicle_type_id":"4","last_reported":1748092803,"current_range_meters":10000,"station_id":"ce4bhih2rcd13ifvqfs0","pricing_plan_id":"cebpf4jnsgd1na2vs0mg"},{"bike_id":"6ca9732d-02ad-4a1a-897f-bffa436a5863","system_id":"levelo_inurba_marseille","lat":43.21193,"lon":5.35072,"is_reserved":false,"is_disabled":false,"rental_uris":{"android":"levelo://app?vid=6ca9732d-02ad-4a1a-897f-bffa436a5863","ios":"levelo://app?vid=6ca9732d-02ad-4a1a-897f-bffa436a5863"},"vehicle_type_id":"4","last_reported":1748092803,"current_range_meters":10000,"station_id":"","pricing_plan_id":"cebpf4jnsgd1na2vs0mg"},{"bike_id":"04b3a370-3dca-4d7f-95d6-a32ffe976d6e","system_id":"levelo_inurba_marseille","lat":43.288656,"lon":5.358321,"is_reserved":false,"is_disabled":false,"rental_uris":{"android":"levelo://app?vid=04b3a370-3dca-4d7f-95d6-a32ffe976d6e","ios":"levelo://app?vid=04b3a370-3dca-4d7f-95d6-a32ffe976d6e"},"vehicle_type_id":"4","last_reported":1748092803,"current_range_meters":10000,"station_id":"ce4bhb12rcd13ifvqem0","pricing_plan_id":"cebpf4jnsgd1na2vs0mg"},{"bike_id":"91097e54-5649-495b-8eef-62638004e8f6","system_id":"levelo_inurba_marseille","lat":43.25498,"lon":5.37648,"is_reserved":false,"is_disabled":false,"rental_uris":{"android":"levelo://app?vid=91097e54-5649-495b-8eef-62638004e8f6","ios":"levelo://app?vid=91097e54-5649-495b-8eef-62638004e8f6"},"vehicle_type_id":"4","last_reported":1748092803,"current_range_meters":10000,"station_id":"ce4bhh12rcd13ifvqff0","pricing_plan_id":"cebpf4jnsgd1na2vs0mg"},{"bike_id":"be49e14e-8c9c-4598-838c-e712e62f50f2","system_id":"levelo_inurba_marseille","lat":43.27364,"lon":5.36245,"is_reserved":false,"is_disabled":false,"rental_uris":{"android":"levelo://app?vid=be49e14e-8c9c-4598-838c-e712e62f50f2","ios":"levelo://app?vid=be49e14e-8c9c-4598-838c-e712e62f50f2"},"vehicle_type_id":"4","last_reported":1748092803,"current_range_meters":9600,"station_id":"ce4bhbh2rcd13ifvqeo0","pricing_plan_id":"cebpf4jnsgd1na2vs0mg"},{"bike_id":"154a7454-f37b-4017-a43d-649c7932b03b","system_id":"levelo_inurba_marseille","lat":43.28412,"lon":5.34982,"is_reserved":false,"is_disabled":false,"rental_uris":{"android":"levelo://app?vid=154a7454-f37b-4017-a43d-649c7932b03b","ios":"levelo://app?vid=154a7454-f37b-4017-a43d-649c7932b03b"},"vehicle_type_id":"4","last_reported":1748092803,"current_range_meters":10000,"station_id":"ce4bhbh2rcd13ifvqepg","pricing_plan_id":"cebpf4jnsgd1na2vs0mg"},{"bike_id":"7e013aee-28ae-4eb0-aec6-59f16b50d53d","system_id":"levelo_inurba_marseille","lat":43.28611,"lon":5.37062,"is_reserved":false,"is_disabled":false,"rental_uris":{"android":"levelo://app?vid=7e013aee-28ae-4eb0-aec6-59f16b50d53d","ios":"levelo://app?vid=7e013aee-28ae-4eb0-aec6-59f16b50d53d"},"vehicle_type_id":"4","last_reported":1748092803,"current_range_meters":9600,"station_id":"ce4bht12rcd13ifvqi60","pricing_plan_id":"cebpf4jnsgd1na2vs0mg"},{"bike_id":"a0266583-7b56-4b29-9caa-498cb983b63a","system_id":"levelo_inurba_marseille","lat":43.26484,"lon":5.39541,"is_reserved":false,"is_disabled":true,"rental_uris":{"android":"levelo://app?vid=a0266583-7b56-4b29-9caa-498cb983b63a","ios":"levelo://app?vid=a0266583-7b56-4b29-9caa-498cb983b63a"},"vehicle_type_id":"4","last_reported":1748092803,"current_range_meters":10000,"station_id":"ce4bhi12rcd13ifvqfq0","pricing_plan_id":"cebpf4jnsgd1na2vs0mg"},{"bike_id":"9aa63a22-6fc8-4e79-bb2e-838ca99415eb","system_id":"levelo_inurba_marseille","lat":43.26503,"lon":5.39541,"is_reserved":false,"is_disabled":false,"rental_uris":{"android":"levelo://app?vid=9aa63a22-6fc8-4e79-bb2e-838ca99415eb","ios":"levelo://app?vid=9aa63a22-6fc8-4e79-bb2e-838ca99415eb"},"vehicle_type_id":"4","last_reported":1748092803,"current_range_meters":10000,"station_id":"ce4bhi12rcd13ifvqfq0","pricing_plan_id":"cebpf4jnsgd1na2vs0mg"},{"bike_id":"d7c22e29-495b-46df-a7f0-d2c573a7c083","system_id":"levelo_inurba_marseille","lat":43.27373,"lon":5.36262,"is_reserved":false,"is_disabled":false,"rental_uris":{"android":"levelo://app?vid=d7c22e29-495b-46df-a7f0-d2c573a7c083","ios":"levelo://app?vid=d7c22e29-495b-46df-a7f0-d2c573a7c083"},"vehicle_type_id":"4","last_reported":1748092803,"current_range_meters":10800,"station_id":"ce4bhbh2rcd13ifvqeo0","pricing_plan_id":"cebpf4jnsgd1na2vs0mg"},{"bike_id":"80b170ee-6386-4a90-99f5-0671f66a482b","system_id":"levelo_inurba_marseille","lat":43.23064,"lon":5.35498,"is_reserved":false,"is_disabled":false,"rental_uris":{"android":"levelo://app?vid=80b170ee-6386-4a90-99f5-0671f66a482b","ios":"levelo://app?vid=80b170ee-6386-4a90-99f5-0671f66a482b"},"vehicle_type_id":"4","last_reported":1748092803,"current_range_meters":10800,"station_id":"cpo3342slgdg3j2ifvpg","pricing_plan_id":"cebpf4jnsgd1na2vs0mg"},{"bike_id":"fc8c72ad-ca61-42c6-ae90-f61b57e45328","system_id":"levelo_inurba_marseille","lat":43.278973,"lon":5.418576,"is_reserved":false,"is_disabled":false,"rental_uris":{"android":"levelo://app?vid=fc8c72ad-ca61-42c6-ae90-f61b57e45328","ios":"levelo://app?vid=fc8c72ad-ca61-42c6-ae90-f61b57e45328"},"vehicle_type_id":"4","last_reported":1748092803,"current_range_meters":10800,"station_id":"","pricing_plan_id":"cebpf4jnsgd1na2vs0mg"},{"bike_id":"44d5236d-49b9-40fe-bb8d-0ac3ea3ac1f1","system_id":"levelo_inurba_marseille","lat":43.25494,"lon":5.37644,"is_reserved":false,"is_disabled":false,"rental_uris":{"android":"levelo://app?vid=44d5236d-49b9-40fe-bb8d-0ac3ea3ac1f1","ios":"levelo://app?vid=44d5236d-49b9-40fe-bb8d-0ac3ea3ac1f1"},"vehicle_type_id":"4","last_reported":1748092803,"current_range_meters":10000,"station_id":"ce4bhh12rcd13ifvqff0","pricing_plan_id":"cebpf4jnsgd1na2vs0mg"},{"bike_id":"a8aaea1f-d5aa-4180-b5ea-8c65f466e7c4","system_id":"levelo_inurba_marseille","lat":43.28268,"lon":5.35059,"is_reserved":false,"is_disabled":false,"rental_uris":{"android":"levelo://app?vid=a8aaea1f-d5aa-4180-b5ea-8c65f466e7c4","ios":"levelo://app?vid=a8aaea1f-d5aa-4180-b5ea-8c65f466e7c4"},"vehicle_type_id":"4","last_reported":1748092803,"current_range_meters":10800,"station_id":"","pricing_plan_id":"cebpf4jnsgd1na2vs0mg"},{"bike_id":"6d6663f0-3764-4f68-9ecf-01cded168eeb","system_id":"levelo_inurba_marseille","lat":43.30924,"lon":5.40134,"is_reserved":false,"is_disabled":true,"rental_uris":{"android":"levelo://app?vid=6d6663f0-3764-4f68-9ecf-01cded168eeb","ios":"levelo://app?vid=6d6663f0-3764-4f68-9ecf-01cded168eeb"},"vehicle_type_id":"4","last_reported":1748092803,"current_range_meters":10800,"station_id":"ce4bgvp2rcd13ifvqct0","pricing_plan_id":"cebpf4jnsgd1na2vs0mg"},{"bike_id":"539b259d-af0e-4d8c-b913-4e6a21aca72f","system_id":"levelo_inurba_marseille","lat":43.28475,"lon":5.38424,"is_reserved":false,"is_disabled":true,"rental_uris":{"android":"levelo://app?vid=539b259d-af0e-4d8c-b913-4e6a21aca72f","ios":"levelo://app?vid=539b259d-af0e-4d8c-b913-4e6a21aca72f"},"vehicle_type_id":"4","last_reported":1748092803,"current_range_meters":10800,"station_id":"ce4bh512rcd13ifvqe3g","pricing_plan_id":"cebpf4jnsgd1na2vs0mg"},{"bike_id":"62bbfb97-95ec-4403-a8c1-c0f1a11fe9ab","system_id":"levelo_inurba_marseille","lat":43.23965,"lon":5.36627,"is_reserved":false,"is_disabled":false,"rental_uris":{"android":"levelo://app?vid=62bbfb97-95ec-4403-a8c1-c0f1a11fe9ab","ios":"levelo://app?vid=62bbfb97-95ec-4403-a8c1-c0f1a11fe9ab"},"vehicle_type_id":"4","last_reported":1748092803,"current_range_meters":10800,"station_id":"ce4bhi12rcd13ifvqfp0","pricing_plan_id":"cebpf4jnsgd1na2vs0mg"},{"bike_id":"f90791a6-5497-47d5-858f-c86b7638fc0f","system_id":"levelo_inurba_marseille","lat":43.21203,"lon":5.35072,"is_reserved":false,"is_disabled":false,"rental_uris":{"android":"levelo://app?vid=f90791a6-5497-47d5-858f-c86b7638fc0f","ios":"levelo://app?vid=f90791a6-5497-47d5-858f-c86b7638fc0f"},"vehicle_type_id":"4","last_reported":1748092803,"current_range_meters":10800,"station_id":"st_cvj6sg6p6f1abm77japg","pricing_plan_id":"cebpf4jnsgd1na2vs0mg"},{"bike_id":"3581c28c-41f2-4cb7-b494-0448776c0438","system_id":"levelo_inurba_marseille","lat":43.29632,"lon":5.36033,"is_reserved":false,"is_disabled":false,"rental_uris":{"android":"levelo://app?vid=3581c28c-41f2-4cb7-b494-0448776c0438","ios":"levelo://app?vid=3581c28c-41f2-4cb7-b494-0448776c0438"},"vehicle_type_id":"4","last_reported":1748092803,"current_range_meters":11200,"station_id":"","pricing_plan_id":"cebpf4jnsgd1na2vs0mg"},{"bike_id":"0667b813-f4fc-4060-af6c-0887ec6c9db5","system_id":"levelo_inurba_marseille","lat":43.23195,"lon":5.39993,"is_reserved":false,"is_disabled":false,"rental_uris":{"android":"levelo://app?vid=0667b813-f4fc-4060-af6c-0887ec6c9db5","ios":"levelo://app?vid=0667b813-f4fc-4060-af6c-0887ec6c9db5"},"vehicle_type_id":"4","last_reported":1748092803,"current_range_meters":11200,"station_id":"ce4bhn12rcd13ifvqgqg","pricing_plan_id":"cebpf4jnsgd1na2vs0mg"},{"bike_id":"acaca06a-31d1-4511-89e7-5c45c7b79184","system_id":"levelo_inurba_marseille","lat":43.2842,"lon":5.34996,"is_reserved":false,"is_disabled":false,"rental_uris":{"android":"levelo://app?vid=acaca06a-31d1-4511-89e7-5c45c7b79184","ios":"levelo://app?vid=acaca06a-31d1-4511-89e7-5c45c7b79184"},"vehicle_type_id":"4","last_reported":1748092803,"current_range_meters":11200,"station_id":"ce4bhbh2rcd13ifvqepg","pricing_plan_id":"cebpf4jnsgd1na2vs0mg"},{"bike_id":"56a1bc10-b25d-4c8f-a01c-600806106c49","system_id":"levelo_inurba_marseille","lat":43.28664,"lon":5.36343,"is_reserved":false,"is_disabled":false,"rental_uris":{"android":"levelo://app?vid=56a1bc10-b25d-4c8f-a01c-600806106c49","ios":"levelo://app?vid=56a1bc10-b25d-4c8f-a01c-600806106c49"},"vehicle_type_id":"4","last_reported":1748092803,"current_range_meters":11200,"station_id":"ce4bhah2rcd13ifvqej0","pricing_plan_id":"cebpf4jnsgd1na2vs0mg"},{"bike_id":"37697a75-9b30-44ff-ad71-f0690e655233","system_id":"levelo_inurba_marseille","lat":43.30165,"lon":5.38829,"is_reserved":false,"is_disabled":true,"rental_uris":{"android":"levelo://app?vid=37697a75-9b30-44ff-ad71-f0690e655233","ios":"levelo://app?vid=37697a75-9b30-44ff-ad71-f0690e655233"},"vehicle_type_id":"4","last_reported":1748092803,"current_range_meters":11200,"station_id":"ce4bghh2rcd13ifvqb60","pricing_plan_id":"cebpf4jnsgd1na2vs0mg"},{"bike_id":"3c0573cf-785c-4362-aca8-cfcafde1ae65","system_id":"levelo_inurba_marseille","lat":43.248066,"lon":5.374571,"is_reserved":false,"is_disabled":false,"rental_uris":{"android":"levelo://app?vid=3c0573cf-785c-4362-aca8-cfcafde1ae65","ios":"levelo://app?vid=3c0573cf-785c-4362-aca8-cfcafde1ae65"},"vehicle_type_id":"4","last_reported":1748092803,"current_range_meters":11200,"station_id":"ce4bhgh2rcd13ifvqfb0","pricing_plan_id":"cebpf4jnsgd1na2vs0mg"},{"bike_id":"1423f6c4-6dfd-4b91-b7df-785424981035","system_id":"levelo_inurba_marseille","lat":43.24178,"lon":5.36408,"is_reserved":false,"is_disabled":false,"rental_uris":{"android":"levelo://app?vid=1423f6c4-6dfd-4b91-b7df-785424981035","ios":"levelo://app?vid=1423f6c4-6dfd-4b91-b7df-785424981035"},"vehicle_type_id":"4","last_reported":1748092803,"current_range_meters":11200,"station_id":"","pricing_plan_id":"cebpf4jnsgd1na2vs0mg"},{"bike_id":"2eade79b-0917-4c66-8514-04249621d42b","system_id":"levelo_inurba_marseille","lat":43.25581,"lon":5.382687,"is_reserved":false,"is_disabled":false,"rental_uris":{"android":"levelo://app?vid=2eade79b-0917-4c66-8514-04249621d42b","ios":"levelo://app?vid=2eade79b-0917-4c66-8514-04249621d42b"},"vehicle_type_id":"4","last_reported":1748092803,"current_range_meters":11200,"station_id":"ce4bhih2rcd13ifvqfs0","pricing_plan_id":"cebpf4jnsgd1na2vs0mg"},{"bike_id":"1bf250fd-00b7-4e69-a3d0-cfd9324cbd44","system_id":"levelo_inurba_marseille","lat":43.33775,"lon":5.37443,"is_reserved":false,"is_disabled":false,"rental_uris":{"android":"levelo://app?vid=1bf250fd-00b7-4e69-a3d0-cfd9324cbd44","ios":"levelo://app?vid=1bf250fd-00b7-4e69-a3d0-cfd9324cbd44"},"vehicle_type_id":"4","last_reported":1748092803,"current_range_meters":11600,"station_id":"","pricing_plan_id":"cebpf4jnsgd1na2vs0mg"},{"bike_id":"a342caed-e1f8-417e-884b-3ae7e2e347f7","system_id":"levelo_inurba_marseille","lat":43.26677,"lon":5.38268,"is_reserved":false,"is_disabled":false,"rental_uris":{"android":"levelo://app?vid=a342caed-e1f8-417e-884b-3ae7e2e347f7","ios":"levelo://app?vid=a342caed-e1f8-417e-884b-3ae7e2e347f7"},"vehicle_type_id":"4","last_reported":1748092803,"current_range_meters":11600,"station_id":"ce4bhg92rcd13ifvqf90","pricing_plan_id":"cebpf4jnsgd1na2vs0mg"},{"bike_id":"40e802f4-1aa1-4ef9-bef8-c4063d4f5f5d","system_id":"levelo_inurba_marseille","lat":43.27901,"lon":5.38001,"is_reserved":false,"is_disabled":false,"rental_uris":{"android":"levelo://app?vid=40e802f4-1aa1-4ef9-bef8-c4063d4f5f5d","ios":"levelo://app?vid=40e802f4-1aa1-4ef9-bef8-c4063d4f5f5d"},"vehicle_type_id":"4","last_reported":1748092803,"current_range_meters":11600,"station_id":"ce4bhf92rcd13ifvqf50","pricing_plan_id":"cebpf4jnsgd1na2vs0mg"},{"bike_id":"99a53482-887a-49d5-808a-2a3c9cd98615","system_id":"levelo_inurba_marseille","lat":43.2962,"lon":5.37175,"is_reserved":false,"is_disabled":false,"rental_uris":{"android":"levelo://app?vid=99a53482-887a-49d5-808a-2a3c9cd98615","ios":"levelo://app?vid=99a53482-887a-49d5-808a-2a3c9cd98615"},"vehicle_type_id":"4","last_reported":1748092803,"current_range_meters":11600,"station_id":"ce4bgnh2rcd13ifvqc0g","pricing_plan_id":"cebpf4jnsgd1na2vs0mg"},{"bike_id":"a76509f3-b916-4207-a563-ada5b50565c9","system_id":"levelo_inurba_marseille","lat":43.321097,"lon":5.367967,"is_reserved":false,"is_disabled":false,"rental_uris":{"android":"levelo://app?vid=a76509f3-b916-4207-a563-ada5b50565c9","ios":"levelo://app?vid=a76509f3-b916-4207-a563-ada5b50565c9"},"vehicle_type_id":"4","last_reported":1748092803,"current_range_meters":11600,"station_id":"ce4bhrh2rcd13ifvqhug","pricing_plan_id":"cebpf4jnsgd1na2vs0mg"},{"bike_id":"5c6cbff3-492c-4bb3-82b7-c338f88e0822","system_id":"levelo_inurba_marseille","lat":43.24408,"lon":5.37068,"is_reserved":false,"is_disabled":false,"rental_uris":{"android":"levelo://app?vid=5c6cbff3-492c-4bb3-82b7-c338f88e0822","ios":"levelo://app?vid=5c6cbff3-492c-4bb3-82b7-c338f88e0822"},"vehicle_type_id":"4","last_reported":1748092803,"current_range_meters":12000,"station_id":"ce4bhhh2rcd13ifvqfk0","pricing_plan_id":"cebpf4jnsgd1na2vs0mg"},{"bike_id":"80a80000-a43c-4e73-8b9a-37b25a294420","system_id":"levelo_inurba_marseille","lat":43.21194,"lon":5.35069,"is_reserved":false,"is_disabled":false,"rental_uris":{"android":"levelo://app?vid=80a80000-a43c-4e73-8b9a-37b25a294420","ios":"levelo://app?vid=80a80000-a43c-4e73-8b9a-37b25a294420"},"vehicle_type_id":"4","last_reported":1748092803,"current_range_meters":12000,"station_id":"st_cvj6sg6p6f1abm77japg","pricing_plan_id":"cebpf4jnsgd1na2vs0mg"},{"bike_id":"905513e1-31bc-4509-bfe0-f1f54facc781","system_id":"levelo_inurba_marseille","lat":43.26554,"lon":5.37282,"is_reserved":false,"is_disabled":false,"rental_uris":{"android":"levelo://app?vid=905513e1-31bc-4509-bfe0-f1f54facc781","ios":"levelo://app?vid=905513e1-31bc-4509-bfe0-f1f54facc781"},"vehicle_type_id":"4","last_reported":1748092803,"current_range_meters":12400,"station_id":"ce4bhg12rcd13ifvqf70","pricing_plan_id":"cebpf4jnsgd1na2vs0mg"},{"bike_id":"86aaef93-026b-4d4b-bb81-8930b2e312e8","system_id":"levelo_inurba_marseille","lat":43.337444,"lon":5.374475,"is_reserved":false,"is_disabled":false,"rental_uris":{"android":"levelo://app?vid=86aaef93-026b-4d4b-bb81-8930b2e312e8","ios":"levelo://app?vid=86aaef93-026b-4d4b-bb81-8930b2e312e8"},"vehicle_type_id":"4","last_reported":1748092803,"current_range_meters":12400,"station_id":"","pricing_plan_id":"cebpf4jnsgd1na2vs0mg"},{"bike_id":"caca026b-8f8f-4fc3-8c03-b4a0b2dde3d2","system_id":"levelo_inurba_marseille","lat":43.23194,"lon":5.40018,"is_reserved":false,"is_disabled":false,"rental_uris":{"android":"levelo://app?vid=caca026b-8f8f-4fc3-8c03-b4a0b2dde3d2","ios":"levelo://app?vid=caca026b-8f8f-4fc3-8c03-b4a0b2dde3d2"},"vehicle_type_id":"4","last_reported":1748092803,"current_range_meters":12400,"station_id":"ce4bhn12rcd13ifvqgqg","pricing_plan_id":"cebpf4jnsgd1na2vs0mg"},{"bike_id":"958e962d-b450-4420-8f47-47183cf0866a","system_id":"levelo_inurba_marseille","lat":43.24175,"lon":5.364,"is_reserved":false,"is_disabled":false,"rental_uris":{"android":"levelo://app?vid=958e962d-b450-4420-8f47-47183cf0866a","ios":"levelo://app?vid=958e962d-b450-4420-8f47-47183cf0866a"},"vehicle_type_id":"4","last_reported":1748092803,"current_range_meters":12400,"station_id":"cpo36qri1sfpv3e86is0","pricing_plan_id":"cebpf4jnsgd1na2vs0mg"},{"bike_id":"5a8b51fa-8de8-4057-b273-13f624d1bfd7","system_id":"levelo_inurba_marseille","lat":43.26803,"lon":5.40267,"is_reserved":false,"is_disabled":false,"rental_uris":{"android":"levelo://app?vid=5a8b51fa-8de8-4057-b273-13f624d1bfd7","ios":"levelo://app?vid=5a8b51fa-8de8-4057-b273-13f624d1bfd7"},"vehicle_type_id":"4","last_reported":1748092803,"current_range_meters":12400,"station_id":"ce501612rcd8frsf0b60","pricing_plan_id":"cebpf4jnsgd1na2vs0mg"},{"bike_id":"4f51fadd-c84f-4e01-bd1e-4fe52dd8c84a","system_id":"levelo_inurba_marseille","lat":43.23963,"lon":5.36641,"is_reserved":false,"is_disabled":false,"rental_uris":{"android":"levelo://app?vid=4f51fadd-c84f-4e01-bd1e-4fe52dd8c84a","ios":"levelo://app?vid=4f51fadd-c84f-4e01-bd1e-4fe52dd8c84a"},"vehicle_type_id":"4","last_reported":1748092803,"current_range_meters":12400,"station_id":"ce4bhi12rcd13ifvqfp0","pricing_plan_id":"cebpf4jnsgd1na2vs0mg"},{"bike_id":"ae737702-d136-4642-9c90-a6fc121f15f7","system_id":"levelo_inurba_marseille","lat":43.28615,"lon":5.35102,"is_reserved":false,"is_disabled":false,"rental_uris":{"android":"levelo://app?vid=ae737702-d136-4642-9c90-a6fc121f15f7","ios":"levelo://app?vid=ae737702-d136-4642-9c90-a6fc121f15f7"},"vehicle_type_id":"4","last_reported":1748092803,"current_range_meters":12400,"station_id":"ce4bhch2rcd13ifvqeug","pricing_plan_id":"cebpf4jnsgd1na2vs0mg"},{"bike_id":"41e8aa44-92d2-486b-a6d4-64aef19385db","system_id":"levelo_inurba_marseille","lat":43.255795,"lon":5.382318,"is_reserved":false,"is_disabled":false,"rental_uris":{"android":"levelo://app?vid=41e8aa44-92d2-486b-a6d4-64aef19385db","ios":"levelo://app?vid=41e8aa44-92d2-486b-a6d4-64aef19385db"},"vehicle_type_id":"4","last_reported":1748092803,"current_range_meters":12400,"station_id":"ce4bhih2rcd13ifvqfs0","pricing_plan_id":"cebpf4jnsgd1na2vs0mg"},{"bike_id":"fcd0445e-7c5b-42ee-8871-56a0e45a21f6","system_id":"levelo_inurba_marseille","lat":43.26198,"lon":5.37925,"is_reserved":false,"is_disabled":false,"rental_uris":{"android":"levelo://app?vid=fcd0445e-7c5b-42ee-8871-56a0e45a21f6","ios":"levelo://app?vid=fcd0445e-7c5b-42ee-8871-56a0e45a21f6"},"vehicle_type_id":"4","last_reported":1748092803,"current_range_meters":12400,"station_id":"ce4bhjp2rcd13ifvqg90","pricing_plan_id":"cebpf4jnsgd1na2vs0mg"},{"bike_id":"88ac5a91-56d3-4573-b0f2-5c6bbb7d986b","system_id":"levelo_inurba_marseille","lat":43.26058,"lon":5.39638,"is_reserved":false,"is_disabled":false,"rental_uris":{"android":"levelo://app?vid=88ac5a91-56d3-4573-b0f2-5c6bbb7d986b","ios":"levelo://app?vid=88ac5a91-56d3-4573-b0f2-5c6bbb7d986b"},"vehicle_type_id":"4","last_reported":1748092803,"current_range_meters":12400,"station_id":"","pricing_plan_id":"cebpf4jnsgd1na2vs0mg"},{"bike_id":"f94e0199-807f-497a-b517-90d35031deb1","system_id":"levelo_inurba_marseille","lat":43.273773,"lon":5.362554,"is_reserved":false,"is_disabled":false,"rental_uris":{"android":"levelo://app?vid=f94e0199-807f-497a-b517-90d35031deb1","ios":"levelo://app?vid=f94e0199-807f-497a-b517-90d35031deb1"},"vehicle_type_id":"4","last_reported":1748092803,"current_range_meters":12400,"station_id":"ce4bhbh2rcd13ifvqeo0","pricing_plan_id":"cebpf4jnsgd1na2vs0mg"},{"bike_id":"481dfbdd-9500-4e0b-969b-7b958977ef45","system_id":"levelo_inurba_marseille","lat":43.27373,"lon":5.36261,"is_reserved":false,"is_disabled":false,"rental_uris":{"android":"levelo://app?vid=481dfbdd-9500-4e0b-969b-7b958977ef45","ios":"levelo://app?vid=481dfbdd-9500-4e0b-969b-7b958977ef45"},"vehicle_type_id":"4","last_reported":1748092803,"current_range_meters":12400,"station_id":"ce4bhbh2rcd13ifvqeo0","pricing_plan_id":"cebpf4jnsgd1na2vs0mg"},{"bike_id":"4880fc67-254a-4685-b3f6-006d3322ad2d","system_id":"levelo_inurba_marseille","lat":43.29204,"lon":5.39321,"is_reserved":false,"is_disabled":false,"rental_uris":{"android":"levelo://app?vid=4880fc67-254a-4685-b3f6-006d3322ad2d","ios":"levelo://app?vid=4880fc67-254a-4685-b3f6-006d3322ad2d"},"vehicle_type_id":"4","last_reported":1748092803,"current_range_meters":14400,"station_id":"ce4bh192rcd13ifvqdd0","pricing_plan_id":"cebpf4jnsgd1na2vs0mg"},{"bike_id":"9393184d-8296-4b5c-ac2a-fe6e9444e908","system_id":"levelo_inurba_marseille","lat":43.29261,"lon":5.37616,"is_reserved":false,"is_disabled":false,"rental_uris":{"android":"levelo://app?vid=9393184d-8296-4b5c-ac2a-fe6e9444e908","ios":"levelo://app?vid=9393184d-8296-4b5c-ac2a-fe6e9444e908"},"vehicle_type_id":"4","last_reported":1748092803,"current_range_meters":12400,"station_id":"ce4bgi12rcd13ifvqb80","pricing_plan_id":"cebpf4jnsgd1na2vs0mg"},{"bike_id":"7bb277c8-8548-47e1-8e29-697ca300a8c0","system_id":"levelo_inurba_marseille","lat":43.23069,"lon":5.35482,"is_reserved":false,"is_disabled":false,"rental_uris":{"android":"levelo://app?vid=7bb277c8-8548-47e1-8e29-697ca300a8c0","ios":"levelo://app?vid=7bb277c8-8548-47e1-8e29-697ca300a8c0"},"vehicle_type_id":"4","last_reported":1748092803,"current_range_meters":12400,"station_id":"cpo3342slgdg3j2ifvpg","pricing_plan_id":"cebpf4jnsgd1na2vs0mg"},{"bike_id":"78c31783-0534-4c88-9353-9a13582a3f1f","system_id":"levelo_inurba_marseille","lat":43.278056,"lon":5.37748,"is_reserved":false,"is_disabled":false,"rental_uris":{"android":"levelo://app?vid=78c31783-0534-4c88-9353-9a13582a3f1f","ios":"levelo://app?vid=78c31783-0534-4c88-9353-9a13582a3f1f"},"vehicle_type_id":"4","last_reported":1748092803,"current_range_meters":12800,"station_id":"","pricing_plan_id":"cebpf4jnsgd1na2vs0mg"},{"bike_id":"371ae77d-5b13-43d4-b0b9-e51b312f2ba0","system_id":"levelo_inurba_marseille","lat":43.284176,"lon":5.349838,"is_reserved":false,"is_disabled":false,"rental_uris":{"android":"levelo://app?vid=371ae77d-5b13-43d4-b0b9-e51b312f2ba0","ios":"levelo://app?vid=371ae77d-5b13-43d4-b0b9-e51b312f2ba0"},"vehicle_type_id":"4","last_reported":1748092803,"current_range_meters":12800,"station_id":"ce4bhc92rcd13ifvqetg","pricing_plan_id":"cebpf4jnsgd1na2vs0mg"},{"bike_id":"586f571b-6537-4271-8955-af568939a96c","system_id":"levelo_inurba_marseille","lat":43.29201,"lon":5.36411,"is_reserved":false,"is_disabled":false,"rental_uris":{"android":"levelo://app?vid=586f571b-6537-4271-8955-af568939a96c","ios":"levelo://app?vid=586f571b-6537-4271-8955-af568939a96c"},"vehicle_type_id":"4","last_reported":1748092803,"current_range_meters":12800,"station_id":"","pricing_plan_id":"cebpf4jnsgd1na2vs0mg"},{"bike_id":"c3431646-4237-482a-8545-f58492a24779","system_id":"levelo_inurba_marseille","lat":43.217483,"lon":5.346027,"is_reserved":false,"is_disabled":false,"rental_uris":{"android":"levelo://app?vid=c3431646-4237-482a-8545-f58492a24779","ios":"levelo://app?vid=c3431646-4237-482a-8545-f58492a24779"},"vehicle_type_id":"4","last_reported":1748092803,"current_range_meters":12800,"station_id":"st_cvj6r9ubvosntc0bgbag","pricing_plan_id":"cebpf4jnsgd1na2vs0mg"},{"bike_id":"6abb9ab4-3976-4e3e-b994-f2f72ee02055","system_id":"levelo_inurba_marseille","lat":43.31785,"lon":5.36819,"is_reserved":false,"is_disabled":false,"rental_uris":{"android":"levelo://app?vid=6abb9ab4-3976-4e3e-b994-f2f72ee02055","ios":"levelo://app?vid=6abb9ab4-3976-4e3e-b994-f2f72ee02055"},"vehicle_type_id":"4","last_reported":1748092803,"current_range_meters":12800,"station_id":"","pricing_plan_id":"cebpf4jnsgd1na2vs0mg"},{"bike_id":"87985f4d-64ef-4af9-87d6-b355cd19a5b3","system_id":"levelo_inurba_marseille","lat":43.241672,"lon":5.363893,"is_reserved":false,"is_disabled":false,"rental_uris":{"android":"levelo://app?vid=87985f4d-64ef-4af9-87d6-b355cd19a5b3","ios":"levelo://app?vid=87985f4d-64ef-4af9-87d6-b355cd19a5b3"},"vehicle_type_id":"4","last_reported":1748092803,"current_range_meters":12800,"station_id":"cpo36qri1sfpv3e86is0","pricing_plan_id":"cebpf4jnsgd1na2vs0mg"},{"bike_id":"505500df-eae8-489b-be1c-4c4579aa5d60","system_id":"levelo_inurba_marseille","lat":43.29937,"lon":5.36544,"is_reserved":false,"is_disabled":false,"rental_uris":{"android":"levelo://app?vid=505500df-eae8-489b-be1c-4c4579aa5d60","ios":"levelo://app?vid=505500df-eae8-489b-be1c-4c4579aa5d60"},"vehicle_type_id":"4","last_reported":1748092803,"current_range_meters":12800,"station_id":"","pricing_plan_id":"cebpf4jnsgd1na2vs0mg"},{"bike_id":"0499046f-b883-419e-abd0-53d8ac40c58d","system_id":"levelo_inurba_marseille","lat":43.239679,"lon":5.366249,"is_reserved":false,"is_disabled":false,"rental_uris":{"android":"levelo://app?vid=0499046f-b883-419e-abd0-53d8ac40c58d","ios":"levelo://app?vid=0499046f-b883-419e-abd0-53d8ac40c58d"},"vehicle_type_id":"4","last_reported":1748092803,"current_range_meters":12800,"station_id":"ce4bhi12rcd13ifvqfp0","pricing_plan_id":"cebpf4jnsgd1na2vs0mg"},{"bike_id":"19210598-7f3a-48cd-97e1-e8655b2bae59","system_id":"levelo_inurba_marseille","lat":43.21196,"lon":5.35067,"is_reserved":false,"is_disabled":false,"rental_uris":{"android":"levelo://app?vid=19210598-7f3a-48cd-97e1-e8655b2bae59","ios":"levelo://app?vid=19210598-7f3a-48cd-97e1-e8655b2bae59"},"vehicle_type_id":"4","last_reported":1748092803,"current_range_meters":12800,"station_id":"st_cvj6sg6p6f1abm77japg","pricing_plan_id":"cebpf4jnsgd1na2vs0mg"},{"bike_id":"5b5a1abe-2e5d-4160-b7de-6ef0c5990de4","system_id":"levelo_inurba_marseille","lat":43.25822,"lon":5.3945,"is_reserved":false,"is_disabled":false,"rental_uris":{"android":"levelo://app?vid=5b5a1abe-2e5d-4160-b7de-6ef0c5990de4","ios":"levelo://app?vid=5b5a1abe-2e5d-4160-b7de-6ef0c5990de4"},"vehicle_type_id":"4","last_reported":1748092803,"current_range_meters":12800,"station_id":"ce4bhip2rcd13ifvqft0","pricing_plan_id":"cebpf4jnsgd1na2vs0mg"},{"bike_id":"b2f15c5e-042b-42be-a36b-ef3ea65b0a10","system_id":"levelo_inurba_marseille","lat":43.21749,"lon":5.34607,"is_reserved":false,"is_disabled":false,"rental_uris":{"android":"levelo://app?vid=b2f15c5e-042b-42be-a36b-ef3ea65b0a10","ios":"levelo://app?vid=b2f15c5e-042b-42be-a36b-ef3ea65b0a10"},"vehicle_type_id":"4","last_reported":1748092803,"current_range_meters":13600,"station_id":"","pricing_plan_id":"cebpf4jnsgd1na2vs0mg"},{"bike_id":"d24af453-d781-45a9-805b-3cd93bf73440","system_id":"levelo_inurba_marseille","lat":43.22923,"lon":5.35374,"is_reserved":false,"is_disabled":false,"rental_uris":{"android":"levelo://app?vid=d24af453-d781-45a9-805b-3cd93bf73440","ios":"levelo://app?vid=d24af453-d781-45a9-805b-3cd93bf73440"},"vehicle_type_id":"4","last_reported":1748092803,"current_range_meters":13600,"station_id":"cpo3532slgdg3j2ikp40","pricing_plan_id":"cebpf4jnsgd1na2vs0mg"},{"bike_id":"86c687d0-730d-4b16-9624-a088b293532e","system_id":"levelo_inurba_marseille","lat":43.26029,"lon":5.37546,"is_reserved":false,"is_disabled":false,"rental_uris":{"android":"levelo://app?vid=86c687d0-730d-4b16-9624-a088b293532e","ios":"levelo://app?vid=86c687d0-730d-4b16-9624-a088b293532e"},"vehicle_type_id":"4","last_reported":1748092803,"current_range_meters":13600,"station_id":"ce4bhgh2rcd13ifvqfa0","pricing_plan_id":"cebpf4jnsgd1na2vs0mg"},{"bike_id":"6664c864-9468-4ed1-86ca-f50c9688803c","system_id":"levelo_inurba_marseille","lat":43.28421,"lon":5.35004,"is_reserved":false,"is_disabled":false,"rental_uris":{"android":"levelo://app?vid=6664c864-9468-4ed1-86ca-f50c9688803c","ios":"levelo://app?vid=6664c864-9468-4ed1-86ca-f50c9688803c"},"vehicle_type_id":"4","last_reported":1748092803,"current_range_meters":13600,"station_id":"ce4bhbh2rcd13ifvqepg","pricing_plan_id":"cebpf4jnsgd1na2vs0mg"},{"bike_id":"d332bae2-da7d-471f-a2e7-632a04962589","system_id":"levelo_inurba_marseille","lat":43.21208,"lon":5.35062,"is_reserved":false,"is_disabled":false,"rental_uris":{"android":"levelo://app?vid=d332bae2-da7d-471f-a2e7-632a04962589","ios":"levelo://app?vid=d332bae2-da7d-471f-a2e7-632a04962589"},"vehicle_type_id":"4","last_reported":1748092803,"current_range_meters":13600,"station_id":"st_cvj6sg6p6f1abm77japg","pricing_plan_id":"cebpf4jnsgd1na2vs0mg"},{"bike_id":"0a08c7ad-ab3f-40a3-ab92-225677223d43","system_id":"levelo_inurba_marseille","lat":43.26251,"lon":5.37613,"is_reserved":false,"is_disabled":false,"rental_uris":{"android":"levelo://app?vid=0a08c7ad-ab3f-40a3-ab92-225677223d43","ios":"levelo://app?vid=0a08c7ad-ab3f-40a3-ab92-225677223d43"},"vehicle_type_id":"4","last_reported":1748092803,"current_range_meters":13600,"station_id":"","pricing_plan_id":"cebpf4jnsgd1na2vs0mg"},{"bike_id":"49e871b5-9833-47bf-a34e-16273026fb6d","system_id":"levelo_inurba_marseille","lat":43.23198,"lon":5.35549,"is_reserved":false,"is_disabled":false,"rental_uris":{"android":"levelo://app?vid=49e871b5-9833-47bf-a34e-16273026fb6d","ios":"levelo://app?vid=49e871b5-9833-47bf-a34e-16273026fb6d"},"vehicle_type_id":"4","last_reported":1748092803,"current_range_meters":13600,"station_id":"ce4bhu92rcd13ifvqi70","pricing_plan_id":"cebpf4jnsgd1na2vs0mg"},{"bike_id":"a401a4f1-72ad-4e06-a5c8-404f6428d784","system_id":"levelo_inurba_marseille","lat":43.27374,"lon":5.36258,"is_reserved":false,"is_disabled":false,"rental_uris":{"android":"levelo://app?vid=a401a4f1-72ad-4e06-a5c8-404f6428d784","ios":"levelo://app?vid=a401a4f1-72ad-4e06-a5c8-404f6428d784"},"vehicle_type_id":"4","last_reported":1748092803,"current_range_meters":13600,"station_id":"ce4bhbh2rcd13ifvqeo0","pricing_plan_id":"cebpf4jnsgd1na2vs0mg"},{"bike_id":"8905f232-e5f6-4dc3-83f3-8ced1049cc59","system_id":"levelo_inurba_marseille","lat":43.2815,"lon":5.42638,"is_reserved":false,"is_disabled":false,"rental_uris":{"android":"levelo://app?vid=8905f232-e5f6-4dc3-83f3-8ced1049cc59","ios":"levelo://app?vid=8905f232-e5f6-4dc3-83f3-8ced1049cc59"},"vehicle_type_id":"4","last_reported":1748092803,"current_range_meters":13600,"station_id":"ce4bhnh2rcd13ifvqgug","pricing_plan_id":"cebpf4jnsgd1na2vs0mg"},{"bike_id":"c653471b-1f00-4582-890d-bd1f92288ee4","system_id":"levelo_inurba_marseille","lat":43.28393,"lon":5.3499,"is_reserved":false,"is_disabled":false,"rental_uris":{"android":"levelo://app?vid=c653471b-1f00-4582-890d-bd1f92288ee4","ios":"levelo://app?vid=c653471b-1f00-4582-890d-bd1f92288ee4"},"vehicle_type_id":"4","last_reported":1748092803,"current_range_meters":13600,"station_id":"","pricing_plan_id":"cebpf4jnsgd1na2vs0mg"},{"bike_id":"b72ccfd1-35cf-4b02-9c1a-90aef7c74e5f","system_id":"levelo_inurba_marseille","lat":43.24855,"lon":5.44238,"is_reserved":false,"is_disabled":false,"rental_uris":{"android":"levelo://app?vid=b72ccfd1-35cf-4b02-9c1a-90aef7c74e5f","ios":"levelo://app?vid=b72ccfd1-35cf-4b02-9c1a-90aef7c74e5f"},"vehicle_type_id":"4","last_reported":1748092803,"current_range_meters":13600,"station_id":"","pricing_plan_id":"cebpf4jnsgd1na2vs0mg"},{"bike_id":"a5dde703-d01c-4d62-b7b0-49cf92d8a3d6","system_id":"levelo_inurba_marseille","lat":43.23177,"lon":5.39988,"is_reserved":false,"is_disabled":false,"rental_uris":{"android":"levelo://app?vid=a5dde703-d01c-4d62-b7b0-49cf92d8a3d6","ios":"levelo://app?vid=a5dde703-d01c-4d62-b7b0-49cf92d8a3d6"},"vehicle_type_id":"4","last_reported":1748092803,"current_range_meters":17600,"station_id":"ce4bhn12rcd13ifvqgqg","pricing_plan_id":"cebpf4jnsgd1na2vs0mg"},{"bike_id":"e8db44db-8800-4297-b89b-46d66d6d5de9","system_id":"levelo_inurba_marseille","lat":43.25822,"lon":5.3944,"is_reserved":false,"is_disabled":false,"rental_uris":{"android":"levelo://app?vid=e8db44db-8800-4297-b89b-46d66d6d5de9","ios":"levelo://app?vid=e8db44db-8800-4297-b89b-46d66d6d5de9"},"vehicle_type_id":"4","last_reported":1748092803,"current_range_meters":14000,"station_id":"ce4bhip2rcd13ifvqft0","pricing_plan_id":"cebpf4jnsgd1na2vs0mg"},{"bike_id":"da453a88-f81b-4e0f-9781-5a7f6c1d364c","system_id":"levelo_inurba_marseille","lat":43.337499,"lon":5.374469,"is_reserved":false,"is_disabled":false,"rental_uris":{"android":"levelo://app?vid=da453a88-f81b-4e0f-9781-5a7f6c1d364c","ios":"levelo://app?vid=da453a88-f81b-4e0f-9781-5a7f6c1d364c"},"vehicle_type_id":"4","last_reported":1748092803,"current_range_meters":14000,"station_id":"","pricing_plan_id":"cebpf4jnsgd1na2vs0mg"},{"bike_id":"3baebd23-9c05-4ce5-8c45-7f891c62635b","system_id":"levelo_inurba_marseille","lat":43.28152,"lon":5.42647,"is_reserved":false,"is_disabled":false,"rental_uris":{"android":"levelo://app?vid=3baebd23-9c05-4ce5-8c45-7f891c62635b","ios":"levelo://app?vid=3baebd23-9c05-4ce5-8c45-7f891c62635b"},"vehicle_type_id":"4","last_reported":1748092803,"current_range_meters":14000,"station_id":"ce4bhnh2rcd13ifvqgug","pricing_plan_id":"cebpf4jnsgd1na2vs0mg"},{"bike_id":"40cdc684-ec46-410b-8f3f-0328282f37eb","system_id":"levelo_inurba_marseille","lat":43.30543,"lon":5.38411,"is_reserved":false,"is_disabled":false,"rental_uris":{"android":"levelo://app?vid=40cdc684-ec46-410b-8f3f-0328282f37eb","ios":"levelo://app?vid=40cdc684-ec46-410b-8f3f-0328282f37eb"},"vehicle_type_id":"4","last_reported":1748092803,"current_range_meters":14000,"station_id":"ce4bgg92rcd13ifvqb30","pricing_plan_id":"cebpf4jnsgd1na2vs0mg"},{"bike_id":"512e7919-4136-4f53-9282-2d9b80c3985f","system_id":"levelo_inurba_marseille","lat":43.28612,"lon":5.35097,"is_reserved":false,"is_disabled":false,"rental_uris":{"android":"levelo://app?vid=512e7919-4136-4f53-9282-2d9b80c3985f","ios":"levelo://app?vid=512e7919-4136-4f53-9282-2d9b80c3985f"},"vehicle_type_id":"4","last_reported":1748092803,"current_range_meters":14000,"station_id":"ce4bhch2rcd13ifvqeug","pricing_plan_id":"cebpf4jnsgd1na2vs0mg"},{"bike_id":"edac19a6-5129-489f-b40e-d196e3f71c8f","system_id":"levelo_inurba_marseille","lat":43.25868,"lon":5.39896,"is_reserved":false,"is_disabled":false,"rental_uris":{"android":"levelo://app?vid=edac19a6-5129-489f-b40e-d196e3f71c8f","ios":"levelo://app?vid=edac19a6-5129-489f-b40e-d196e3f71c8f"},"vehicle_type_id":"4","last_reported":1748092803,"current_range_meters":13600,"station_id":"ce4bhl92rcd13ifvqghg","pricing_plan_id":"cebpf4jnsgd1na2vs0mg"},{"bike_id":"5a5dacb6-f26a-42aa-875a-05137988bd9f","system_id":"levelo_inurba_marseille","lat":43.21746,"lon":5.34597,"is_reserved":false,"is_disabled":false,"rental_uris":{"android":"levelo://app?vid=5a5dacb6-f26a-42aa-875a-05137988bd9f","ios":"levelo://app?vid=5a5dacb6-f26a-42aa-875a-05137988bd9f"},"vehicle_type_id":"4","last_reported":1748092803,"current_range_meters":14000,"station_id":"","pricing_plan_id":"cebpf4jnsgd1na2vs0mg"},{"bike_id":"1498d6bf-3b01-4d18-a2e6-1cbb17fd3cca","system_id":"levelo_inurba_marseille","lat":43.24678,"lon":5.38154,"is_reserved":false,"is_disabled":false,"rental_uris":{"android":"levelo://app?vid=1498d6bf-3b01-4d18-a2e6-1cbb17fd3cca","ios":"levelo://app?vid=1498d6bf-3b01-4d18-a2e6-1cbb17fd3cca"},"vehicle_type_id":"4","last_reported":1748092803,"current_range_meters":14000,"station_id":"ce4bhih2rcd13ifvqfr0","pricing_plan_id":"cebpf4jnsgd1na2vs0mg"},{"bike_id":"4b43d9d2-8342-4399-9465-dcbf62b66e2f","system_id":"levelo_inurba_marseille","lat":43.229311,"lon":5.353755,"is_reserved":false,"is_disabled":false,"rental_uris":{"android":"levelo://app?vid=4b43d9d2-8342-4399-9465-dcbf62b66e2f","ios":"levelo://app?vid=4b43d9d2-8342-4399-9465-dcbf62b66e2f"},"vehicle_type_id":"4","last_reported":1748092803,"current_range_meters":14000,"station_id":"cpo3532slgdg3j2ikp40","pricing_plan_id":"cebpf4jnsgd1na2vs0mg"},{"bike_id":"85cadaff-e814-4e0a-837b-e7495bd0d629","system_id":"levelo_inurba_marseille","lat":43.26209,"lon":5.37929,"is_reserved":false,"is_disabled":false,"rental_uris":{"android":"levelo://app?vid=85cadaff-e814-4e0a-837b-e7495bd0d629","ios":"levelo://app?vid=85cadaff-e814-4e0a-837b-e7495bd0d629"},"vehicle_type_id":"4","last_reported":1748092803,"current_range_meters":14000,"station_id":"ce4bhjp2rcd13ifvqg90","pricing_plan_id":"cebpf4jnsgd1na2vs0mg"},{"bike_id":"815e272f-a0e9-44e2-b188-11c8dea353df","system_id":"levelo_inurba_marseille","lat":43.21193,"lon":5.3507,"is_reserved":false,"is_disabled":false,"rental_uris":{"android":"levelo://app?vid=815e272f-a0e9-44e2-b188-11c8dea353df","ios":"levelo://app?vid=815e272f-a0e9-44e2-b188-11c8dea353df"},"vehicle_type_id":"4","last_reported":1748092803,"current_range_meters":14400,"station_id":"st_cvj6sg6p6f1abm77japg","pricing_plan_id":"cebpf4jnsgd1na2vs0mg"},{"bike_id":"acbd6b06-59aa-443e-8581-e4ba0559d494","system_id":"levelo_inurba_marseille","lat":43.28615,"lon":5.3508,"is_reserved":false,"is_disabled":false,"rental_uris":{"android":"levelo://app?vid=acbd6b06-59aa-443e-8581-e4ba0559d494","ios":"levelo://app?vid=acbd6b06-59aa-443e-8581-e4ba0559d494"},"vehicle_type_id":"4","last_reported":1748092803,"current_range_meters":14400,"station_id":"ce4bhch2rcd13ifvqeug","pricing_plan_id":"cebpf4jnsgd1na2vs0mg"},{"bike_id":"4c45e6bb-1bd9-4184-83f1-547b790de018","system_id":"levelo_inurba_marseille","lat":43.258219,"lon":5.394392,"is_reserved":false,"is_disabled":false,"rental_uris":{"android":"levelo://app?vid=4c45e6bb-1bd9-4184-83f1-547b790de018","ios":"levelo://app?vid=4c45e6bb-1bd9-4184-83f1-547b790de018"},"vehicle_type_id":"4","last_reported":1748092803,"current_range_meters":14400,"station_id":"ce4bhip2rcd13ifvqft0","pricing_plan_id":"cebpf4jnsgd1na2vs0mg"},{"bike_id":"9be3b064-244f-4b04-8cfc-5595819219f4","system_id":"levelo_inurba_marseille","lat":43.21188,"lon":5.35073,"is_reserved":false,"is_disabled":false,"rental_uris":{"android":"levelo://app?vid=9be3b064-244f-4b04-8cfc-5595819219f4","ios":"levelo://app?vid=9be3b064-244f-4b04-8cfc-5595819219f4"},"vehicle_type_id":"4","last_reported":1748092803,"current_range_meters":14400,"station_id":"st_cvj6sg6p6f1abm77japg","pricing_plan_id":"cebpf4jnsgd1na2vs0mg"},{"bike_id":"ab63e507-8b19-4404-ab19-b64c7d919630","system_id":"levelo_inurba_marseille","lat":43.22533,"lon":5.34858,"is_reserved":false,"is_disabled":false,"rental_uris":{"android":"levelo://app?vid=ab63e507-8b19-4404-ab19-b64c7d919630","ios":"levelo://app?vid=ab63e507-8b19-4404-ab19-b64c7d919630"},"vehicle_type_id":"4","last_reported":1748092803,"current_range_meters":14400,"station_id":"","pricing_plan_id":"cebpf4jnsgd1na2vs0mg"},{"bike_id":"04777172-7c8c-4c99-b84b-4b493031c2f7","system_id":"levelo_inurba_marseille","lat":43.26808,"lon":5.40267,"is_reserved":false,"is_disabled":false,"rental_uris":{"android":"levelo://app?vid=04777172-7c8c-4c99-b84b-4b493031c2f7","ios":"levelo://app?vid=04777172-7c8c-4c99-b84b-4b493031c2f7"},"vehicle_type_id":"4","last_reported":1748092803,"current_range_meters":14800,"station_id":"ce501612rcd8frsf0b60","pricing_plan_id":"cebpf4jnsgd1na2vs0mg"},{"bike_id":"9d82f289-0ba4-4b4b-9041-e704f15a1777","system_id":"levelo_inurba_marseille","lat":43.29574,"lon":5.37523,"is_reserved":false,"is_disabled":false,"rental_uris":{"android":"levelo://app?vid=9d82f289-0ba4-4b4b-9041-e704f15a1777","ios":"levelo://app?vid=9d82f289-0ba4-4b4b-9041-e704f15a1777"},"vehicle_type_id":"4","last_reported":1748092803,"current_range_meters":14800,"station_id":"ce4bgh92rcd13ifvqb50","pricing_plan_id":"cebpf4jnsgd1na2vs0mg"},{"bike_id":"914d8e8c-94d5-4ca8-a68e-73084d6884b9","system_id":"levelo_inurba_marseille","lat":43.28267,"lon":5.35057,"is_reserved":false,"is_disabled":false,"rental_uris":{"android":"levelo://app?vid=914d8e8c-94d5-4ca8-a68e-73084d6884b9","ios":"levelo://app?vid=914d8e8c-94d5-4ca8-a68e-73084d6884b9"},"vehicle_type_id":"4","last_reported":1748092803,"current_range_meters":14800,"station_id":"ce4bhbp2rcd13ifvqerg","pricing_plan_id":"cebpf4jnsgd1na2vs0mg"},{"bike_id":"5b26482e-7fbf-4652-a3e6-e50afc344c15","system_id":"levelo_inurba_marseille","lat":43.28261,"lon":5.35057,"is_reserved":false,"is_disabled":false,"rental_uris":{"android":"levelo://app?vid=5b26482e-7fbf-4652-a3e6-e50afc344c15","ios":"levelo://app?vid=5b26482e-7fbf-4652-a3e6-e50afc344c15"},"vehicle_type_id":"4","last_reported":1748092803,"current_range_meters":14800,"station_id":"ce4bhbp2rcd13ifvqerg","pricing_plan_id":"cebpf4jnsgd1na2vs0mg"},{"bike_id":"a44f2506-8dc2-4f85-9270-adfcca72358c","system_id":"levelo_inurba_marseille","lat":43.23187,"lon":5.35615,"is_reserved":false,"is_disabled":false,"rental_uris":{"android":"levelo://app?vid=a44f2506-8dc2-4f85-9270-adfcca72358c","ios":"levelo://app?vid=a44f2506-8dc2-4f85-9270-adfcca72358c"},"vehicle_type_id":"4","last_reported":1748092803,"current_range_meters":15200,"station_id":"","pricing_plan_id":"cebpf4jnsgd1na2vs0mg"},{"bike_id":"ce7e05ac-a500-4724-910b-58aa5e4b3e3d","system_id":"levelo_inurba_marseille","lat":43.27397,"lon":5.36299,"is_reserved":false,"is_disabled":false,"rental_uris":{"android":"levelo://app?vid=ce7e05ac-a500-4724-910b-58aa5e4b3e3d","ios":"levelo://app?vid=ce7e05ac-a500-4724-910b-58aa5e4b3e3d"},"vehicle_type_id":"4","last_reported":1748092803,"current_range_meters":15200,"station_id":"ce4bhbh2rcd13ifvqeo0","pricing_plan_id":"cebpf4jnsgd1na2vs0mg"},{"bike_id":"7658d080-7d94-4e4e-9d81-39b5eb8e3a39","system_id":"levelo_inurba_marseille","lat":43.27218,"lon":5.41008,"is_reserved":false,"is_disabled":false,"rental_uris":{"android":"levelo://app?vid=7658d080-7d94-4e4e-9d81-39b5eb8e3a39","ios":"levelo://app?vid=7658d080-7d94-4e4e-9d81-39b5eb8e3a39"},"vehicle_type_id":"4","last_reported":1748092803,"current_range_meters":15200,"station_id":"","pricing_plan_id":"cebpf4jnsgd1na2vs0mg"},{"bike_id":"18575cf2-ee5c-4172-a1f9-cf5662b123ed","system_id":"levelo_inurba_marseille","lat":43.21766,"lon":5.34536,"is_reserved":false,"is_disabled":false,"rental_uris":{"android":"levelo://app?vid=18575cf2-ee5c-4172-a1f9-cf5662b123ed","ios":"levelo://app?vid=18575cf2-ee5c-4172-a1f9-cf5662b123ed"},"vehicle_type_id":"4","last_reported":1748092803,"current_range_meters":15200,"station_id":"","pricing_plan_id":"cebpf4jnsgd1na2vs0mg"},{"bike_id":"05dd174b-9d4f-4a7a-85e3-bb808c3595f0","system_id":"levelo_inurba_marseille","lat":43.336095,"lon":5.41019,"is_reserved":false,"is_disabled":false,"rental_uris":{"android":"levelo://app?vid=05dd174b-9d4f-4a7a-85e3-bb808c3595f0","ios":"levelo://app?vid=05dd174b-9d4f-4a7a-85e3-bb808c3595f0"},"vehicle_type_id":"4","last_reported":1748092803,"current_range_meters":15200,"station_id":"ce4bhqh2rcd13ifvqhmg","pricing_plan_id":"cebpf4jnsgd1na2vs0mg"},{"bike_id":"c3b56345-bb94-49f4-afc5-caa79dccf181","system_id":"levelo_inurba_marseille","lat":43.21199,"lon":5.35087,"is_reserved":false,"is_disabled":false,"rental_uris":{"android":"levelo://app?vid=c3b56345-bb94-49f4-afc5-caa79dccf181","ios":"levelo://app?vid=c3b56345-bb94-49f4-afc5-caa79dccf181"},"vehicle_type_id":"4","last_reported":1748092803,"current_range_meters":15200,"station_id":"st_cvj6sg6p6f1abm77japg","pricing_plan_id":"cebpf4jnsgd1na2vs0mg"},{"bike_id":"a3eae95d-50dc-46ab-a03d-8889ab5f0bf0","system_id":"levelo_inurba_marseille","lat":43.286131,"lon":5.351051,"is_reserved":false,"is_disabled":false,"rental_uris":{"android":"levelo://app?vid=a3eae95d-50dc-46ab-a03d-8889ab5f0bf0","ios":"levelo://app?vid=a3eae95d-50dc-46ab-a03d-8889ab5f0bf0"},"vehicle_type_id":"4","last_reported":1748092803,"current_range_meters":15200,"station_id":"ce4bhch2rcd13ifvqeug","pricing_plan_id":"cebpf4jnsgd1na2vs0mg"},{"bike_id":"b14b938b-1494-4b3c-8d94-6a3c2d441b73","system_id":"levelo_inurba_marseille","lat":43.21753,"lon":5.34603,"is_reserved":false,"is_disabled":false,"rental_uris":{"android":"levelo://app?vid=b14b938b-1494-4b3c-8d94-6a3c2d441b73","ios":"levelo://app?vid=b14b938b-1494-4b3c-8d94-6a3c2d441b73"},"vehicle_type_id":"4","last_reported":1748092803,"current_range_meters":16000,"station_id":"st_cvj6r9ubvosntc0bgbag","pricing_plan_id":"cebpf4jnsgd1na2vs0mg"},{"bike_id":"de51dd89-e6dc-4708-93d3-f620a9179808","system_id":"levelo_inurba_marseille","lat":43.23192,"lon":5.39993,"is_reserved":false,"is_disabled":false,"rental_uris":{"android":"levelo://app?vid=de51dd89-e6dc-4708-93d3-f620a9179808","ios":"levelo://app?vid=de51dd89-e6dc-4708-93d3-f620a9179808"},"vehicle_type_id":"4","last_reported":1748092803,"current_range_meters":16000,"station_id":"ce4bhn12rcd13ifvqgqg","pricing_plan_id":"cebpf4jnsgd1na2vs0mg"},{"bike_id":"81282e20-a5b7-4eb7-9258-e5feff7e46d5","system_id":"levelo_inurba_marseille","lat":43.28645,"lon":5.35114,"is_reserved":false,"is_disabled":false,"rental_uris":{"android":"levelo://app?vid=81282e20-a5b7-4eb7-9258-e5feff7e46d5","ios":"levelo://app?vid=81282e20-a5b7-4eb7-9258-e5feff7e46d5"},"vehicle_type_id":"4","last_reported":1748092803,"current_range_meters":16000,"station_id":"ce4bhch2rcd13ifvqeug","pricing_plan_id":"cebpf4jnsgd1na2vs0mg"},{"bike_id":"95a1d597-5fdc-4200-b9a1-edef032004e0","system_id":"levelo_inurba_marseille","lat":43.29585,"lon":5.36739,"is_reserved":false,"is_disabled":false,"rental_uris":{"android":"levelo://app?vid=95a1d597-5fdc-4200-b9a1-edef032004e0","ios":"levelo://app?vid=95a1d597-5fdc-4200-b9a1-edef032004e0"},"vehicle_type_id":"4","last_reported":1748092803,"current_range_meters":14000,"station_id":"ce4bgph2rcd13ifvqc2g","pricing_plan_id":"cebpf4jnsgd1na2vs0mg"},{"bike_id":"37cd9a57-83dc-4ad5-ad62-3ddaf4eb28b1","system_id":"levelo_inurba_marseille","lat":43.21191,"lon":5.35069,"is_reserved":false,"is_disabled":false,"rental_uris":{"android":"levelo://app?vid=37cd9a57-83dc-4ad5-ad62-3ddaf4eb28b1","ios":"levelo://app?vid=37cd9a57-83dc-4ad5-ad62-3ddaf4eb28b1"},"vehicle_type_id":"4","last_reported":1748092803,"current_range_meters":16000,"station_id":"","pricing_plan_id":"cebpf4jnsgd1na2vs0mg"},