{"last_updated":1773237434,"ttl":60,"version":"2.2","data":{"bikes":[{"bike_id":"08c06ba4-3c46-4749-a4fd-be6c2bcdb1d3","system_id":"levelo_inurba_marseille","lat":43.29753,"lon":5.3767,"is_reserved":false,"is_disabled":false,"rental_uris":{"android":"levelo://app?vid=08c06ba4-3c46-4749-a4fd-be6c2bcdb1d3","ios":"levelo://app?vid=08c06ba4-3c46-4749-a4fd-be6c2bcdb1d3"},"vehicle_type_id":"4","last_reported":1773237435,"current_range_meters":29600,"station_id":"","pricing_plan_id":"cebpf4jnsgd1na2vs0mg"},{"bike_id":"ead3593f-fa2e-4a2b-924f-b78da0a491ce","system_id":"levelo_inurba_marseille","lat":43.30152,"lon":5.37372,"is_reserved":false,"is_disabled":false,"rental_uris":{"android":"levelo://app?vid=ead3593f-fa2e-4a2b-924f-b78da0a491ce","ios":"levelo://app?vid=ead3593f-fa2e-4a2b-924f-b78da0a491ce"},"vehicle_type_id":"4","last_reported":1773237435,"current_range_meters":39200,"station_id":"ce4bgs92rcd13ifvqcc0","pricing_plan_id":"cebpf4jnsgd1na2vs0mg"},{"bike_id":"1e26b16f-b291-489b-9ccd-a0089685a899","system_id":"levelo_inurba_marseille","lat":43.3054,"lon":5.367,"is_reserved":false,"is_disabled":false,"rental_uris":{"android":"levelo://app?vid=1e26b16f-b291-489b-9ccd-a0089685a899","ios":"levelo://app?vid=1e26b16f-b291-489b-9ccd-a0089685a899"},"vehicle_type_id":"4","last_reported":1773237435,"current_range_meters":40000,"station_id":"ce4bgrp2rcd13ifvqc9g","pricing_plan_id":"cebpf4jnsgd1na2vs0mg"},{"bike_id":"74f29a45-4460-4ee1-9332-f7a5685df743","system_id":"levelo_inurba_marseille","lat":43.28853,"lon":5.35856,"is_reserved":false,"is_disabled":false,"rental_uris":{"android":"levelo://app?vid=74f29a45-4460-4ee1-9332-f7a5685df743","ios":"levelo://app?vid=74f29a45-4460-4ee1-9332-f7a5685df743"},"vehicle_type_id":"4","last_reported":1773237435,"current_range_meters":35200,"station_id":"ce4bhb12rcd13ifvqem0","pricing_plan_id":"cebpf4jnsgd1na2vs0mg"},{"bike_id":"b57eaa1e-92fe-4d82-96f3-b9712112bf8e","system_id":"levelo_inurba_marseille","lat":43.29616,"lon":5.37719,"is_reserved":false,"is_disabled":true,"rental_uris":{"android":"levelo://app?vid=b57eaa1e-92fe-4d82-96f3-b9712112bf8e","ios":"levelo://app?vid=b57eaa1e-92fe-4d82-96f3-b9712112bf8e"},"vehicle_type_id":"4","last_reported":1773237435,"current_range_meters":35200,"station_id":"","pricing_plan_id":"cebpf4jnsgd1na2vs0mg"},{"bike_id":"4d2ed247-c300-416c-8c6f-d2ecc9f55d1f","system_id":"levelo_inurba_marseille","lat":43.29279,"lon":5.40113,"is_reserved":false,"is_disabled":false,"rental_uris":{"android":"levelo://app?vid=4d2ed247-c300-416c-8c6f-d2ecc9f55d1f","ios":"levelo://app?vid=4d2ed247-c300-416c-8c6f-d2ecc9f55d1f"},"vehicle_type_id":"4","last_reported":1773237435,"current_range_meters":12400,"station_id":"ce4bh312rcd13ifvqdk0","pricing_plan_id":"cebpf4jnsgd1na2vs0mg"},{"bike_id":"42e10ec5-887c-403e-bb2a-345f5f4847db","system_id":"levelo_inurba_marseille","lat":43.25005,"lon":5.38934,"is_reserved":false,"is_disabled":false,"rental_uris":{"android":"levelo://app?vid=42e10ec5-887c-403e-bb2a-345f5f4847db","ios":"levelo://app?vid=42e10ec5-887c-403e-bb2a-345f5f4847db"},"vehicle_type_id":"4","last_reported":1773237435,"current_range_meters":34000,"station_id":"ce4bhgp2rcd13ifvqfd0","pricing_plan_id":"cebpf4jnsgd1na2vs0mg"},{"bike_id":"5061e64b-7a6f-416d-95f6-434ea56b6a99","system_id":"levelo_inurba_marseille","lat":43.3464,"lon":5.36722,"is_reserved":false,"is_disabled":false,"rental_uris":{"android":"levelo://app?vid=5061e64b-7a6f-416d-95f6-434ea56b6a99","ios":"levelo://app?vid=5061e64b-7a6f-416d-95f6-434ea56b6a99"},"vehicle_type_id":"4","last_reported":1773237435,"current_range_meters":29600,"station_id":"","pricing_plan_id":"cebpf4jnsgd1na2vs0mg"},{"bike_id":"07e66474-47e3-4e90-8266-52e167621e9d","system_id":"levelo_inurba_marseille","lat":43.29569,"lon":5.37506,"is_reserved":false,"is_disabled":false,"rental_uris":{"android":"levelo://app?vid=07e66474-47e3-4e90-8266-52e167621e9d","ios":"levelo://app?vid=07e66474-47e3-4e90-8266-52e167621e9d"},"vehicle_type_id":"4","last_reported":1773237435,"current_range_meters":26000,"station_id":"ce4bgh92rcd13ifvqb50","pricing_plan_id":"cebpf4jnsgd1na2vs0mg"},{"bike_id":"9faea34b-1c48-4a1b-8f51-2bafe5184a50","system_id":"levelo_inurba_marseille","lat":43.28478,"lon":5.48389,"is_reserved":false,"is_disabled":false,"rental_uris":{"android":"levelo://app?vid=9faea34b-1c48-4a1b-8f51-2bafe5184a50","ios":"levelo://app?vid=9faea34b-1c48-4a1b-8f51-2bafe5184a50"},"vehicle_type_id":"4","last_reported":1773237435,"current_range_meters":34800,"station_id":"st_d3svhcjqgbts73a3dn0g","pricing_plan_id":"cebpf4jnsgd1na2vs0mg"},{"bike_id":"f6aab1a6-bca6-41c1-89e6-0a624aa47df5","system_id":"levelo_inurba_marseille","lat":43.29489,"lon":5.37594,"is_reserved":false,"is_disabled":false,"rental_uris":{"android":"levelo://app?vid=f6aab1a6-bca6-41c1-89e6-0a624aa47df5","ios":"levelo://app?vid=f6aab1a6-bca6-41c1-89e6-0a624aa47df5"},"vehicle_type_id":"4","last_reported":1773237435,"current_range_meters":28400,"station_id":"","pricing_plan_id":"cebpf4jnsgd1na2vs0mg"},{"bike_id":"d427d34d-e739-4c0f-a843-74b85111544b","system_id":"levelo_inurba_marseille","lat":43.33138,"lon":5.37704,"is_reserved":false,"is_disabled":false,"rental_uris":{"android":"levelo://app?vid=d427d34d-e739-4c0f-a843-74b85111544b","ios":"levelo://app?vid=d427d34d-e739-4c0f-a843-74b85111544b"},"vehicle_type_id":"4","last_reported":1773237435,"current_range_meters":27600,"station_id":"st_d46cu089ee8s73dldbu0","pricing_plan_id":"cebpf4jnsgd1na2vs0mg"},{"bike_id":"3999e502-b176-4936-9835-ff4821a69795","system_id":"levelo_inurba_marseille","lat":43.29022,"lon":5.38126,"is_reserved":false,"is_disabled":true,"rental_uris":{"android":"levelo://app?vid=3999e502-b176-4936-9835-ff4821a69795","ios":"levelo://app?vid=3999e502-b176-4936-9835-ff4821a69795"},"vehicle_type_id":"4","last_reported":1773237435,"current_range_meters":38400,"station_id":"ce4bh4p2rcd13ifvqe1g","pricing_plan_id":"cebpf4jnsgd1na2vs0mg"},{"bike_id":"c943c8f2-fd97-497f-b02c-47e60712859d","system_id":"levelo_inurba_marseille","lat":43.25857,"lon":5.39418,"is_reserved":false,"is_disabled":false,"rental_uris":{"android":"levelo://app?vid=c943c8f2-fd97-497f-b02c-47e60712859d","ios":"levelo://app?vid=c943c8f2-fd97-497f-b02c-47e60712859d"},"vehicle_type_id":"4","last_reported":1773237435,"current_range_meters":27600,"station_id":"ce4bhip2rcd13ifvqft0","pricing_plan_id":"cebpf4jnsgd1na2vs0mg"},{"bike_id":"f4fb4842-f57c-4125-a41a-fcad472cb541","system_id":"levelo_inurba_marseille","lat":43.31218,"lon":5.36874,"is_reserved":false,"is_disabled":false,"rental_uris":{"android":"levelo://app?vid=f4fb4842-f57c-4125-a41a-fcad472cb541","ios":"levelo://app?vid=f4fb4842-f57c-4125-a41a-fcad472cb541"},"vehicle_type_id":"4","last_reported":1773237435,"current_range_meters":11600,"station_id":"ce4bgl92rcd13ifvqbq0","pricing_plan_id":"cebpf4jnsgd1na2vs0mg"},{"bike_id":"0ac53488-2497-498b-a138-e1d759f1fbf7","system_id":"levelo_inurba_marseille","lat":43.27354,"lon":5.3624,"is_reserved":false,"is_disabled":false,"rental_uris":{"android":"levelo://app?vid=0ac53488-2497-498b-a138-e1d759f1fbf7","ios":"levelo://app?vid=0ac53488-2497-498b-a138-e1d759f1fbf7"},"vehicle_type_id":"4","last_reported":1773237435,"current_range_meters":25600,"station_id":"ce4bhbh2rcd13ifvqeo0","pricing_plan_id":"cebpf4jnsgd1na2vs0mg"},{"bike_id":"63aca6ef-d155-4097-bdd2-67385409e872","system_id":"levelo_inurba_marseille","lat":43.30081,"lon":5.3865,"is_reserved":false,"is_disabled":false,"rental_uris":{"android":"levelo://app?vid=63aca6ef-d155-4097-bdd2-67385409e872","ios":"levelo://app?vid=63aca6ef-d155-4097-bdd2-67385409e872"},"vehicle_type_id":"4","last_reported":1773237435,"current_range_meters":7200,"station_id":"","pricing_plan_id":"cebpf4jnsgd1na2vs0mg"},{"bike_id":"f826064c-304f-4095-bc93-f67872d16f03","system_id":"levelo_inurba_marseille","lat":43.30155,"lon":5.37404,"is_reserved":false,"is_disabled":false,"rental_uris":{"android":"levelo://app?vid=f826064c-304f-4095-bc93-f67872d16f03","ios":"levelo://app?vid=f826064c-304f-4095-bc93-f67872d16f03"},"vehicle_type_id":"4","last_reported":1773237435,"current_range_meters":22000,"station_id":"ce4bgs92rcd13ifvqcc0","pricing_plan_id":"cebpf4jnsgd1na2vs0mg"},{"bike_id":"5a6a65ac-2990-4909-8c8c-e3d077e3a080","system_id":"levelo_inurba_marseille","lat":43.29758,"lon":5.37648,"is_reserved":false,"is_disabled":false,"rental_uris":{"android":"levelo://app?vid=5a6a65ac-2990-4909-8c8c-e3d077e3a080","ios":"levelo://app?vid=5a6a65ac-2990-4909-8c8c-e3d077e3a080"},"vehicle_type_id":"4","last_reported":1773237435,"current_range_meters":39200,"station_id":"","pricing_plan_id":"cebpf4jnsgd1na2vs0mg"},{"bike_id":"5a975b1d-0596-4736-ac6b-10af6b3b727f","system_id":"levelo_inurba_marseille","lat":43.29591,"lon":5.38077,"is_reserved":false,"is_disabled":false,"rental_uris":{"android":"levelo://app?vid=5a975b1d-0596-4736-ac6b-10af6b3b727f","ios":"levelo://app?vid=5a975b1d-0596-4736-ac6b-10af6b3b727f"},"vehicle_type_id":"4","last_reported":1773237435,"current_range_meters":20800,"station_id":"ce4bgl12rcd13ifvqbo0","pricing_plan_id":"cebpf4jnsgd1na2vs0mg"},{"bike_id":"6e60255e-1fe9-4c4e-bc3a-451f60b4c3fc","system_id":"levelo_inurba_marseille","lat":43.25938,"lon":5.40895,"is_reserved":false,"is_disabled":false,"rental_uris":{"android":"levelo://app?vid=6e60255e-1fe9-4c4e-bc3a-451f60b4c3fc","ios":"levelo://app?vid=6e60255e-1fe9-4c4e-bc3a-451f60b4c3fc"},"vehicle_type_id":"4","last_reported":1773237435,"current_range_meters":24800,"station_id":"ce4bhm92rcd13ifvqglg","pricing_plan_id":"cebpf4jnsgd1na2vs0mg"},{"bike_id":"6d389281-b486-4a10-b966-d6e2ee2ccb81","system_id":"levelo_inurba_marseille","lat":43.28204,"lon":5.39039,"is_reserved":false,"is_disabled":false,"rental_uris":{"android":"levelo://app?vid=6d389281-b486-4a10-b966-d6e2ee2ccb81","ios":"levelo://app?vid=6d389281-b486-4a10-b966-d6e2ee2ccb81"},"vehicle_type_id":"4","last_reported":1773237435,"current_range_meters":20800,"station_id":"ce4bhn92rcd13ifvqgsg","pricing_plan_id":"cebpf4jnsgd1na2vs0mg"},{"bike_id":"6d4fd286-ccaf-4a53-9916-d20f5593e84b","system_id":"levelo_inurba_marseille","lat":43.27933,"lon":5.39594,"is_reserved":false,"is_disabled":false,"rental_uris":{"android":"levelo://app?vid=6d4fd286-ccaf-4a53-9916-d20f5593e84b","ios":"levelo://app?vid=6d4fd286-ccaf-4a53-9916-d20f5593e84b"},"vehicle_type_id":"4","last_reported":1773237435,"current_range_meters":36800,"station_id":"ce4bhf92rcd13ifvqf40","pricing_plan_id":"cebpf4jnsgd1na2vs0mg"},{"bike_id":"de489262-d353-4529-a718-c34e1bdeed67","system_id":"levelo_inurba_marseille","lat":43.27508,"lon":5.41596,"is_reserved":false,"is_disabled":true,"rental_uris":{"android":"levelo://app?vid=de489262-d353-4529-a718-c34e1bdeed67","ios":"levelo://app?vid=de489262-d353-4529-a718-c34e1bdeed67"},"vehicle_type_id":"4","last_reported":1773237435,"current_range_meters":800,"station_id":"st_d6im8g6chgec73a5pndg","pricing_plan_id":"cebpf4jnsgd1na2vs0mg"},{"bike_id":"f18a97ed-e43a-4a4a-9a1c-f27f3fa368f5","system_id":"levelo_inurba_marseille","lat":43.27959,"lon":5.41028,"is_reserved":false,"is_disabled":false,"rental_uris":{"android":"levelo://app?vid=f18a97ed-e43a-4a4a-9a1c-f27f3fa368f5","ios":"levelo://app?vid=f18a97ed-e43a-4a4a-9a1c-f27f3fa368f5"},"vehicle_type_id":"4","last_reported":1773237435,"current_range_meters":21600,"station_id":"ce4bhnp2rcd13ifvqh0g","pricing_plan_id":"cebpf4jnsgd1na2vs0mg"},{"bike_id":"2ae42dd6-1c2d-422f-b349-05cc8dc2420e","system_id":"levelo_inurba_marseille","lat":43.24999,"lon":5.38913,"is_reserved":false,"is_disabled":false,"rental_uris":{"android":"levelo://app?vid=2ae42dd6-1c2d-422f-b349-05cc8dc2420e","ios":"levelo://app?vid=2ae42dd6-1c2d-422f-b349-05cc8dc2420e"},"vehicle_type_id":"4","last_reported":1773237435,"current_range_meters":38400,"station_id":"ce4bhgp2rcd13ifvqfd0","pricing_plan_id":"cebpf4jnsgd1na2vs0mg"},{"bike_id":"8392120a-2e1d-4252-96fe-c4c276507ea6","system_id":"levelo_inurba_marseille","lat":43.26548,"lon":5.37291,"is_reserved":false,"is_disabled":false,"rental_uris":{"android":"levelo://app?vid=8392120a-2e1d-4252-96fe-c4c276507ea6","ios":"levelo://app?vid=8392120a-2e1d-4252-96fe-c4c276507ea6"},"vehicle_type_id":"4","last_reported":1773237435,"current_range_meters":35600,"station_id":"ce4bhg12rcd13ifvqf70","pricing_plan_id":"cebpf4jnsgd1na2vs0mg"},{"bike_id":"02067602-734f-45e1-80b0-29e7f751cf5f","system_id":"levelo_inurba_marseille","lat":43.27367,"lon":5.36244,"is_reserved":false,"is_disabled":false,"rental_uris":{"android":"levelo://app?vid=02067602-734f-45e1-80b0-29e7f751cf5f","ios":"levelo://app?vid=02067602-734f-45e1-80b0-29e7f751cf5f"},"vehicle_type_id":"4","last_reported":1773237435,"current_range_meters":34800,"station_id":"ce4bhbh2rcd13ifvqeo0","pricing_plan_id":"cebpf4jnsgd1na2vs0mg"},{"bike_id":"766b808c-f5f1-4e50-8eb2-a3affb8ce0fd","system_id":"levelo_inurba_marseille","lat":43.30478,"lon":5.39739,"is_reserved":false,"is_disabled":false,"rental_uris":{"android":"levelo://app?vid=766b808c-f5f1-4e50-8eb2-a3affb8ce0fd","ios":"levelo://app?vid=766b808c-f5f1-4e50-8eb2-a3affb8ce0fd"},"vehicle_type_id":"4","last_reported":1773237435,"current_range_meters":39200,"station_id":"ce4bh092rcd13ifvqd20","pricing_plan_id":"cebpf4jnsgd1na2vs0mg"},{"bike_id":"2903fad4-26af-4987-ab87-4fbdb3f77c6e","system_id":"levelo_inurba_marseille","lat":43.25005,"lon":5.38927,"is_reserved":false,"is_disabled":false,"rental_uris":{"android":"levelo://app?vid=2903fad4-26af-4987-ab87-4fbdb3f77c6e","ios":"levelo://app?vid=2903fad4-26af-4987-ab87-4fbdb3f77c6e"},"vehicle_type_id":"4","last_reported":1773237435,"current_range_meters":35200,"station_id":"ce4bhgp2rcd13ifvqfd0","pricing_plan_id":"cebpf4jnsgd1na2vs0mg"},{"bike_id":"63980ef3-d779-4f2b-92b4-467558dc8361","system_id":"levelo_inurba_marseille","lat":43.30273,"lon":5.37717,"is_reserved":false,"is_disabled":false,"rental_uris":{"android":"levelo://app?vid=63980ef3-d779-4f2b-92b4-467558dc8361","ios":"levelo://app?vid=63980ef3-d779-4f2b-92b4-467558dc8361"},"vehicle_type_id":"4","last_reported":1773237435,"current_range_meters":22400,"station_id":"ce4bguh2rcd13ifvqcj0","pricing_plan_id":"cebpf4jnsgd1na2vs0mg"},{"bike_id":"78bd55a2-5ccb-407a-9deb-226ba518ca56","system_id":"levelo_inurba_marseille","lat":43.30552,"lon":5.36697,"is_reserved":false,"is_disabled":false,"rental_uris":{"android":"levelo://app?vid=78bd55a2-5ccb-407a-9deb-226ba518ca56","ios":"levelo://app?vid=78bd55a2-5ccb-407a-9deb-226ba518ca56"},"vehicle_type_id":"4","last_reported":1773237435,"current_range_meters":40000,"station_id":"ce4bgrp2rcd13ifvqc9g","pricing_plan_id":"cebpf4jnsgd1na2vs0mg"},{"bike_id":"0f80710e-95c8-4baa-8ac5-00258880beb1","system_id":"levelo_inurba_marseille","lat":43.246503,"lon":5.388946,"is_reserved":false,"is_disabled":false,"rental_uris":{"android":"levelo://app?vid=0f80710e-95c8-4baa-8ac5-00258880beb1","ios":"levelo://app?vid=0f80710e-95c8-4baa-8ac5-00258880beb1"},"vehicle_type_id":"4","last_reported":1773237435,"current_range_meters":32800,"station_id":"ce4bhg12rcd13ifvqf60","pricing_plan_id":"cebpf4jnsgd1na2vs0mg"},{"bike_id":"2149ac68-c5e2-4713-981d-84e5714f9018","system_id":"levelo_inurba_marseille","lat":43.27514,"lon":5.41579,"is_reserved":false,"is_disabled":false,"rental_uris":{"android":"levelo://app?vid=2149ac68-c5e2-4713-981d-84e5714f9018","ios":"levelo://app?vid=2149ac68-c5e2-4713-981d-84e5714f9018"},"vehicle_type_id":"4","last_reported":1773237435,"current_range_meters":38400,"station_id":"st_d6im8g6chgec73a5pndg","pricing_plan_id":"cebpf4jnsgd1na2vs0mg"},{"bike_id":"3a993606-eb1a-49ad-8c38-bbbf6b12074b","system_id":"levelo_inurba_marseille","lat":43.29559,"lon":5.37459,"is_reserved":false,"is_disabled":false,"rental_uris":{"android":"levelo://app?vid=3a993606-eb1a-49ad-8c38-bbbf6b12074b","ios":"levelo://app?vid=3a993606-eb1a-49ad-8c38-bbbf6b12074b"},"vehicle_type_id":"4","last_reported":1773237435,"current_range_meters":39200,"station_id":"ce4bgkp2rcd13ifvqbmg","pricing_plan_id":"cebpf4jnsgd1na2vs0mg"},{"bike_id":"faa6004d-cd41-4008-8bcc-b182163123b5","system_id":"levelo_inurba_marseille","lat":43.24167,"lon":5.36416,"is_reserved":false,"is_disabled":false,"rental_uris":{"android":"levelo://app?vid=faa6004d-cd41-4008-8bcc-b182163123b5","ios":"levelo://app?vid=faa6004d-cd41-4008-8bcc-b182163123b5"},"vehicle_type_id":"4","last_reported":1773237435,"current_range_meters":11600,"station_id":"cpo36qri1sfpv3e86is0","pricing_plan_id":"cebpf4jnsgd1na2vs0mg"},{"bike_id":"9f893884-f162-4631-961f-f6d51cc4426b","system_id":"levelo_inurba_marseille","lat":43.31042,"lon":5.37147,"is_reserved":false,"is_disabled":false,"rental_uris":{"android":"levelo://app?vid=9f893884-f162-4631-961f-f6d51cc4426b","ios":"levelo://app?vid=9f893884-f162-4631-961f-f6d51cc4426b"},"vehicle_type_id":"4","last_reported":1773237435,"current_range_meters":34000,"station_id":"st_d4kl2rp97mjs73e7tdfg","pricing_plan_id":"cebpf4jnsgd1na2vs0mg"},{"bike_id":"9885b561-3c5d-4024-b1a5-0a291b22cfd8","system_id":"levelo_inurba_marseille","lat":43.29407,"lon":5.37395,"is_reserved":false,"is_disabled":false,"rental_uris":{"android":"levelo://app?vid=9885b561-3c5d-4024-b1a5-0a291b22cfd8","ios":"levelo://app?vid=9885b561-3c5d-4024-b1a5-0a291b22cfd8"},"vehicle_type_id":"4","last_reported":1773237435,"current_range_meters":8800,"station_id":"","pricing_plan_id":"cebpf4jnsgd1na2vs0mg"},{"bike_id":"a98a2ffa-f3fb-4c8b-86b7-609f1d5345a7","system_id":"levelo_inurba_marseille","lat":43.30317,"lon":5.36912,"is_reserved":false,"is_disabled":false,"rental_uris":{"android":"levelo://app?vid=a98a2ffa-f3fb-4c8b-86b7-609f1d5345a7","ios":"levelo://app?vid=a98a2ffa-f3fb-4c8b-86b7-609f1d5345a7"},"vehicle_type_id":"4","last_reported":1773237435,"current_range_meters":28800,"station_id":"ce4bgqh2rcd13ifvqc5g","pricing_plan_id":"cebpf4jnsgd1na2vs0mg"},{"bike_id":"72be02f2-0c45-414e-9863-fbd32e0bd8df","system_id":"levelo_inurba_marseille","lat":43.29736,"lon":5.37691,"is_reserved":false,"is_disabled":false,"rental_uris":{"android":"levelo://app?vid=72be02f2-0c45-414e-9863-fbd32e0bd8df","ios":"levelo://app?vid=72be02f2-0c45-414e-9863-fbd32e0bd8df"},"vehicle_type_id":"4","last_reported":1773237435,"current_range_meters":36000,"station_id":"ce4bgkh2rcd13ifvqbl0","pricing_plan_id":"cebpf4jnsgd1na2vs0mg"},{"bike_id":"17ce7070-d813-4eaf-a544-6259968aa271","system_id":"levelo_inurba_marseille","lat":43.31113,"lon":5.36879,"is_reserved":false,"is_disabled":false,"rental_uris":{"android":"levelo://app?vid=17ce7070-d813-4eaf-a544-6259968aa271","ios":"levelo://app?vid=17ce7070-d813-4eaf-a544-6259968aa271"},"vehicle_type_id":"4","last_reported":1773237435,"current_range_meters":8800,"station_id":"","pricing_plan_id":"cebpf4jnsgd1na2vs0mg"},{"bike_id":"149775d8-c772-45f9-afbd-6e4a652723d7","system_id":"levelo_inurba_marseille","lat":43.337444,"lon":5.374475,"is_reserved":false,"is_disabled":true,"rental_uris":{"android":"levelo://app?vid=149775d8-c772-45f9-afbd-6e4a652723d7","ios":"levelo://app?vid=149775d8-c772-45f9-afbd-6e4a652723d7"},"vehicle_type_id":"4","last_reported":1773237435,"current_range_meters":6000,"station_id":"","pricing_plan_id":"cebpf4jnsgd1na2vs0mg"},{"bike_id":"bde9f5bf-4c4f-4d6b-bf9f-b5479919d7dc","system_id":"levelo_inurba_marseille","lat":43.27317,"lon":5.39113,"is_reserved":false,"is_disabled":false,"rental_uris":{"android":"levelo://app?vid=bde9f5bf-4c4f-4d6b-bf9f-b5479919d7dc","ios":"levelo://app?vid=bde9f5bf-4c4f-4d6b-bf9f-b5479919d7dc"},"vehicle_type_id":"4","last_reported":1773237435,"current_range_meters":35200,"station_id":"ce4bhgp2rcd13ifvqfe0","pricing_plan_id":"cebpf4jnsgd1na2vs0mg"},{"bike_id":"84edac93-97f0-4f16-980c-7e1b057bc44a","system_id":"levelo_inurba_marseille","lat":43.25834,"lon":5.3942,"is_reserved":false,"is_disabled":false,"rental_uris":{"android":"levelo://app?vid=84edac93-97f0-4f16-980c-7e1b057bc44a","ios":"levelo://app?vid=84edac93-97f0-4f16-980c-7e1b057bc44a"},"vehicle_type_id":"4","last_reported":1773237435,"current_range_meters":26000,"station_id":"ce4bhip2rcd13ifvqft0","pricing_plan_id":"cebpf4jnsgd1na2vs0mg"},{"bike_id":"16ced00d-b75b-480f-bfe3-587817c52078","system_id":"levelo_inurba_marseille","lat":43.24661,"lon":5.38894,"is_reserved":false,"is_disabled":false,"rental_uris":{"android":"levelo://app?vid=16ced00d-b75b-480f-bfe3-587817c52078","ios":"levelo://app?vid=16ced00d-b75b-480f-bfe3-587817c52078"},"vehicle_type_id":"4","last_reported":1773237435,"current_range_meters":38400,"station_id":"ce4bhg12rcd13ifvqf60","pricing_plan_id":"cebpf4jnsgd1na2vs0mg"},{"bike_id":"095740f3-4e12-4adb-8a1a-03aa33c9cd08","system_id":"levelo_inurba_marseille","lat":43.26567,"lon":5.37267,"is_reserved":false,"is_disabled":false,"rental_uris":{"android":"levelo://app?vid=095740f3-4e12-4adb-8a1a-03aa33c9cd08","ios":"levelo://app?vid=095740f3-4e12-4adb-8a1a-03aa33c9cd08"},"vehicle_type_id":"4","last_reported":1773237435,"current_range_meters":12800,"station_id":"ce4bhg12rcd13ifvqf70","pricing_plan_id":"cebpf4jnsgd1na2vs0mg"},{"bike_id":"b3eb6676-8591-4e75-98ce-a00a7b52ff0c","system_id":"levelo_inurba_marseille","lat":43.28858,"lon":5.35845,"is_reserved":false,"is_disabled":false,"rental_uris":{"android":"levelo://app?vid=b3eb6676-8591-4e75-98ce-a00a7b52ff0c","ios":"levelo://app?vid=b3eb6676-8591-4e75-98ce-a00a7b52ff0c"},"vehicle_type_id":"4","last_reported":1773237435,"current_range_meters":21600,"station_id":"ce4bhb12rcd13ifvqem0","pricing_plan_id":"cebpf4jnsgd1na2vs0mg"},{"bike_id":"566d1d1a-0852-4e0d-907b-e1334e0d6bf9","system_id":"levelo_inurba_marseille","lat":43.23801,"lon":5.36592,"is_reserved":false,"is_disabled":false,"rental_uris":{"android":"levelo://app?vid=566d1d1a-0852-4e0d-907b-e1334e0d6bf9","ios":"levelo://app?vid=566d1d1a-0852-4e0d-907b-e1334e0d6bf9"},"vehicle_type_id":"4","last_reported":1773237435,"current_range_meters":14400,"station_id":"st_d3nk18o9ro0c73en2l3g","pricing_plan_id":"cebpf4jnsgd1na2vs0mg"},{"bike_id":"ba4d6291-f191-48b7-a6a8-ceee01b66f96","system_id":"levelo_inurba_marseille","lat":43.28124,"lon":5.38212,"is_reserved":false,"is_disabled":false,"rental_uris":{"android":"levelo://app?vid=ba4d6291-f191-48b7-a6a8-ceee01b66f96","ios":"levelo://app?vid=ba4d6291-f191-48b7-a6a8-ceee01b66f96"},"vehicle_type_id":"4","last_reported":1773237435,"current_range_meters":21600,"station_id":"","pricing_plan_id":"cebpf4jnsgd1na2vs0mg"},{"bike_id":"dd6d12c4-c00c-4021-839a-f38c2ba6c7b9","system_id":"levelo_inurba_marseille","lat":43.27205,"lon":5.39199,"is_reserved":false,"is_disabled":false,"rental_uris":{"android":"levelo://app?vid=dd6d12c4-c00c-4021-839a-f38c2ba6c7b9","ios":"levelo://app?vid=dd6d12c4-c00c-4021-839a-f38c2ba6c7b9"},"vehicle_type_id":"4","last_reported":1773237435,"current_range_meters":38800,"station_id":"ce4bhhp2rcd13ifvqfm0","pricing_plan_id":"cebpf4jnsgd1na2vs0mg"},{"bike_id":"703ee291-f983-47cc-bd9c-8a6239dbf78c","system_id":"levelo_inurba_marseille","lat":43.28937,"lon":5.36638,"is_reserved":false,"is_disabled":false,"rental_uris":{"android":"levelo://app?vid=703ee291-f983-47cc-bd9c-8a6239dbf78c","ios":"levelo://app?vid=703ee291-f983-47cc-bd9c-8a6239dbf78c"},"vehicle_type_id":"4","last_reported":1773237435,"current_range_meters":3200,"station_id":"ce4bhap2rcd13ifvqek0","pricing_plan_id":"cebpf4jnsgd1na2vs0mg"},{"bike_id":"7c716136-68b8-4157-b95a-cfa69f2603cd","system_id":"levelo_inurba_marseille","lat":43.29794,"lon":5.39339,"is_reserved":false,"is_disabled":false,"rental_uris":{"android":"levelo://app?vid=7c716136-68b8-4157-b95a-cfa69f2603cd","ios":"levelo://app?vid=7c716136-68b8-4157-b95a-cfa69f2603cd"},"vehicle_type_id":"4","last_reported":1773237435,"current_range_meters":27600,"station_id":"chh1huq6cuj3fo74tm60","pricing_plan_id":"cebpf4jnsgd1na2vs0mg"},{"bike_id":"1c573354-cf53-44d3-9111-eb37080df88e","system_id":"levelo_inurba_marseille","lat":43.31569,"lon":5.37392,"is_reserved":false,"is_disabled":false,"rental_uris":{"android":"levelo://app?vid=1c573354-cf53-44d3-9111-eb37080df88e","ios":"levelo://app?vid=1c573354-cf53-44d3-9111-eb37080df88e"},"vehicle_type_id":"4","last_reported":1773237435,"current_range_meters":17200,"station_id":"","pricing_plan_id":"cebpf4jnsgd1na2vs0mg"},{"bike_id":"4681a970-3332-4681-8ab0-503cc4b97467","system_id":"levelo_inurba_marseille","lat":43.27316,"lon":5.39074,"is_reserved":false,"is_disabled":false,"rental_uris":{"android":"levelo://app?vid=4681a970-3332-4681-8ab0-503cc4b97467","ios":"levelo://app?vid=4681a970-3332-4681-8ab0-503cc4b97467"},"vehicle_type_id":"4","last_reported":1773237435,"current_range_meters":38400,"station_id":"ce4bhgp2rcd13ifvqfe0","pricing_plan_id":"cebpf4jnsgd1na2vs0mg"},{"bike_id":"8b783c91-f0ea-46f4-943f-be57fd8cd390","system_id":"levelo_inurba_marseille","lat":43.25934,"lon":5.40891,"is_reserved":false,"is_disabled":false,"rental_uris":{"android":"levelo://app?vid=8b783c91-f0ea-46f4-943f-be57fd8cd390","ios":"levelo://app?vid=8b783c91-f0ea-46f4-943f-be57fd8cd390"},"vehicle_type_id":"4","last_reported":1773237435,"current_range_meters":14000,"station_id":"ce4bhm92rcd13ifvqglg","pricing_plan_id":"cebpf4jnsgd1na2vs0mg"},{"bike_id":"969b32d1-6601-49f4-ad5b-5870b4d098ed","system_id":"levelo_inurba_marseille","lat":43.25579,"lon":5.3823,"is_reserved":false,"is_disabled":false,"rental_uris":{"android":"levelo://app?vid=969b32d1-6601-49f4-ad5b-5870b4d098ed","ios":"levelo://app?vid=969b32d1-6601-49f4-ad5b-5870b4d098ed"},"vehicle_type_id":"4","last_reported":1773237435,"current_range_meters":25600,"station_id":"ce4bhih2rcd13ifvqfs0","pricing_plan_id":"cebpf4jnsgd1na2vs0mg"},{"bike_id":"c33732c3-34b3-43cf-9550-258c10091c04","system_id":"levelo_inurba_marseille","lat":43.29117,"lon":5.40052,"is_reserved":false,"is_disabled":false,"rental_uris":{"android":"levelo://app?vid=c33732c3-34b3-43cf-9550-258c10091c04","ios":"levelo://app?vid=c33732c3-34b3-43cf-9550-258c10091c04"},"vehicle_type_id":"4","last_reported":1773237435,"current_range_meters":38400,"station_id":"","pricing_plan_id":"cebpf4jnsgd1na2vs0mg"},{"bike_id":"38d64d90-bc77-43f0-a98c-12d498a8594c","system_id":"levelo_inurba_marseille","lat":43.29806,"lon":5.38108,"is_reserved":false,"is_disabled":false,"rental_uris":{"android":"levelo://app?vid=38d64d90-bc77-43f0-a98c-12d498a8594c","ios":"levelo://app?vid=38d64d90-bc77-43f0-a98c-12d498a8594c"},"vehicle_type_id":"4","last_reported":1773237435,"current_range_meters":24000,"station_id":"ce4bgip2rcd13ifvqbb0","pricing_plan_id":"cebpf4jnsgd1na2vs0mg"},{"bike_id":"70369fb9-61b2-42b8-be1e-4463fbb10ce0","system_id":"levelo_inurba_marseille","lat":43.29302,"lon":5.37138,"is_reserved":false,"is_disabled":false,"rental_uris":{"android":"levelo://app?vid=70369fb9-61b2-42b8-be1e-4463fbb10ce0","ios":"levelo://app?vid=70369fb9-61b2-42b8-be1e-4463fbb10ce0"},"vehicle_type_id":"4","last_reported":1773237435,"current_range_meters":28800,"station_id":"ce4bgh92rcd13ifvqb40","pricing_plan_id":"cebpf4jnsgd1na2vs0mg"},{"bike_id":"c0f5bd4a-cbc2-427a-92f0-0be45de4abfd","system_id":"levelo_inurba_marseille","lat":43.2855,"lon":5.4409,"is_reserved":false,"is_disabled":false,"rental_uris":{"android":"levelo://app?vid=c0f5bd4a-cbc2-427a-92f0-0be45de4abfd","ios":"levelo://app?vid=c0f5bd4a-cbc2-427a-92f0-0be45de4abfd"},"vehicle_type_id":"4","last_reported":1773237435,"current_range_meters":5600,"station_id":"st_d3j3df2ikq2c7380ej80","pricing_plan_id":"cebpf4jnsgd1na2vs0mg"},{"bike_id":"98a69b82-3426-4662-b314-8ddb62a05de5","system_id":"levelo_inurba_marseille","lat":43.30168,"lon":5.43761,"is_reserved":false,"is_disabled":false,"rental_uris":{"android":"levelo://app?vid=98a69b82-3426-4662-b314-8ddb62a05de5","ios":"levelo://app?vid=98a69b82-3426-4662-b314-8ddb62a05de5"},"vehicle_type_id":"4","last_reported":1773237435,"current_range_meters":30000,"station_id":"","pricing_plan_id":"cebpf4jnsgd1na2vs0mg"},{"bike_id":"c6c0ebab-0295-4a0b-844e-e34d619beca3","system_id":"levelo_inurba_marseille","lat":43.23191,"lon":5.40012,"is_reserved":false,"is_disabled":false,"rental_uris":{"android":"levelo://app?vid=c6c0ebab-0295-4a0b-844e-e34d619beca3","ios":"levelo://app?vid=c6c0ebab-0295-4a0b-844e-e34d619beca3"},"vehicle_type_id":"4","last_reported":1773237435,"current_range_meters":37600,"station_id":"ce4bhn12rcd13ifvqgqg","pricing_plan_id":"cebpf4jnsgd1na2vs0mg"},{"bike_id":"7dc63890-af70-4d0f-a841-d757b61b94bf","system_id":"levelo_inurba_marseille","lat":43.30541,"lon":5.36517,"is_reserved":false,"is_disabled":false,"rental_uris":{"android":"levelo://app?vid=7dc63890-af70-4d0f-a841-d757b61b94bf","ios":"levelo://app?vid=7dc63890-af70-4d0f-a841-d757b61b94bf"},"vehicle_type_id":"4","last_reported":1773237435,"current_range_meters":24800,"station_id":"ce4bgs12rcd13ifvqcag","pricing_plan_id":"cebpf4jnsgd1na2vs0mg"},{"bike_id":"a5eb7e2e-f45f-42c7-8ba3-bf76c2472338","system_id":"levelo_inurba_marseille","lat":43.30207,"lon":5.39438,"is_reserved":false,"is_disabled":false,"rental_uris":{"android":"levelo://app?vid=a5eb7e2e-f45f-42c7-8ba3-bf76c2472338","ios":"levelo://app?vid=a5eb7e2e-f45f-42c7-8ba3-bf76c2472338"},"vehicle_type_id":"4","last_reported":1773237435,"current_range_meters":24000,"station_id":"ce4bh0p2rcd13ifvqd70","pricing_plan_id":"cebpf4jnsgd1na2vs0mg"},{"bike_id":"bb4d2406-b5bc-49be-9f7c-f47fcdbe593b","system_id":"levelo_inurba_marseille","lat":43.30571,"lon":5.36697,"is_reserved":false,"is_disabled":true,"rental_uris":{"android":"levelo://app?vid=bb4d2406-b5bc-49be-9f7c-f47fcdbe593b","ios":"levelo://app?vid=bb4d2406-b5bc-49be-9f7c-f47fcdbe593b"},"vehicle_type_id":"4","last_reported":1773237435,"current_range_meters":38000,"station_id":"ce4bgrp2rcd13ifvqc9g","pricing_plan_id":"cebpf4jnsgd1na2vs0mg"},{"bike_id":"fda7a845-f92c-419b-81b8-71eaee9a407d","system_id":"levelo_inurba_marseille","lat":43.29525,"lon":5.37495,"is_reserved":false,"is_disabled":false,"rental_uris":{"android":"levelo://app?vid=fda7a845-f92c-419b-81b8-71eaee9a407d","ios":"levelo://app?vid=fda7a845-f92c-419b-81b8-71eaee9a407d"},"vehicle_type_id":"4","last_reported":1773237435,"current_range_meters":39200,"station_id":"ce4bgkp2rcd13ifvqbmg","pricing_plan_id":"cebpf4jnsgd1na2vs0mg"},{"bike_id":"5f72350b-2c43-4ae3-97f1-1beffc338161","system_id":"levelo_inurba_marseille","lat":43.23967,"lon":5.3664,"is_reserved":false,"is_disabled":false,"rental_uris":{"android":"levelo://app?vid=5f72350b-2c43-4ae3-97f1-1beffc338161","ios":"levelo://app?vid=5f72350b-2c43-4ae3-97f1-1beffc338161"},"vehicle_type_id":"4","last_reported":1773237435,"current_range_meters":40000,"station_id":"ce4bhi12rcd13ifvqfp0","pricing_plan_id":"cebpf4jnsgd1na2vs0mg"},{"bike_id":"00adc013-06bc-44f0-92b9-114da8a17fc8","system_id":"levelo_inurba_marseille","lat":43.2966,"lon":5.39356,"is_reserved":false,"is_disabled":false,"rental_uris":{"android":"levelo://app?vid=00adc013-06bc-44f0-92b9-114da8a17fc8","ios":"levelo://app?vid=00adc013-06bc-44f0-92b9-114da8a17fc8"},"vehicle_type_id":"4","last_reported":1773237435,"current_range_meters":8800,"station_id":"","pricing_plan_id":"cebpf4jnsgd1na2vs0mg"},{"bike_id":"718baa53-7af6-4d89-a25d-40acb3335493","system_id":"levelo_inurba_marseille","lat":43.29552,"lon":5.42288,"is_reserved":false,"is_disabled":false,"rental_uris":{"android":"levelo://app?vid=718baa53-7af6-4d89-a25d-40acb3335493","ios":"levelo://app?vid=718baa53-7af6-4d89-a25d-40acb3335493"},"vehicle_type_id":"4","last_reported":1773237435,"current_range_meters":24800,"station_id":"ce4bhph2rcd13ifvqhdg","pricing_plan_id":"cebpf4jnsgd1na2vs0mg"},{"bike_id":"73355373-2d2c-4850-beb6-f530137cdd8e","system_id":"levelo_inurba_marseille","lat":43.33154,"lon":5.37735,"is_reserved":false,"is_disabled":false,"rental_uris":{"android":"levelo://app?vid=73355373-2d2c-4850-beb6-f530137cdd8e","ios":"levelo://app?vid=73355373-2d2c-4850-beb6-f530137cdd8e"},"vehicle_type_id":"4","last_reported":1773237435,"current_range_meters":16800,"station_id":"st_d46cu089ee8s73dldbu0","pricing_plan_id":"cebpf4jnsgd1na2vs0mg"},{"bike_id":"3d7b1bec-2a06-47da-a7d0-796cda99d14f","system_id":"levelo_inurba_marseille","lat":43.27067,"lon":5.38308,"is_reserved":false,"is_disabled":false,"rental_uris":{"android":"levelo://app?vid=3d7b1bec-2a06-47da-a7d0-796cda99d14f","ios":"levelo://app?vid=3d7b1bec-2a06-47da-a7d0-796cda99d14f"},"vehicle_type_id":"4","last_reported":1773237435,"current_range_meters":19600,"station_id":"st_d3n2fo6cfp8s73cte1j0","pricing_plan_id":"cebpf4jnsgd1na2vs0mg"},{"bike_id":"571cdadb-645f-4884-a710-d1e512ca8e71","system_id":"levelo_inurba_marseille","lat":43.31356,"lon":5.36706,"is_reserved":false,"is_disabled":false,"rental_uris":{"android":"levelo://app?vid=571cdadb-645f-4884-a710-d1e512ca8e71","ios":"levelo://app?vid=571cdadb-645f-4884-a710-d1e512ca8e71"},"vehicle_type_id":"4","last_reported":1773237435,"current_range_meters":38000,"station_id":"ce4bgr92rcd13ifvqc6g","pricing_plan_id":"cebpf4jnsgd1na2vs0mg"},{"bike_id":"c570e558-cc0f-4e56-99a3-7b52b05122d9","system_id":"levelo_inurba_marseille","lat":43.29611,"lon":5.37737,"is_reserved":false,"is_disabled":false,"rental_uris":{"android":"levelo://app?vid=c570e558-cc0f-4e56-99a3-7b52b05122d9","ios":"levelo://app?vid=c570e558-cc0f-4e56-99a3-7b52b05122d9"},"vehicle_type_id":"4","last_reported":1773237435,"current_range_meters":18000,"station_id":"ce4bgi92rcd13ifvqb90","pricing_plan_id":"cebpf4jnsgd1na2vs0mg"},{"bike_id":"988db3b8-861f-418c-a7ec-7ae78131696e","system_id":"levelo_inurba_marseille","lat":43.24682,"lon":5.43355,"is_reserved":false,"is_disabled":false,"rental_uris":{"android":"levelo://app?vid=988db3b8-861f-418c-a7ec-7ae78131696e","ios":"levelo://app?vid=988db3b8-861f-418c-a7ec-7ae78131696e"},"vehicle_type_id":"4","last_reported":1773237435,"current_range_meters":28800,"station_id":"","pricing_plan_id":"cebpf4jnsgd1na2vs0mg"},{"bike_id":"937372f5-5b7b-47bc-8f0c-ea6079dd82b4","system_id":"levelo_inurba_marseille","lat":43.25945,"lon":5.40932,"is_reserved":false,"is_disabled":false,"rental_uris":{"android":"levelo://app?vid=937372f5-5b7b-47bc-8f0c-ea6079dd82b4","ios":"levelo://app?vid=937372f5-5b7b-47bc-8f0c-ea6079dd82b4"},"vehicle_type_id":"4","last_reported":1773237435,"current_range_meters":9200,"station_id":"ce4bhm92rcd13ifvqglg","pricing_plan_id":"cebpf4jnsgd1na2vs0mg"},{"bike_id":"dd854777-f378-4132-94e6-63027cc18b82","system_id":"levelo_inurba_marseille","lat":43.29727,"lon":5.41059,"is_reserved":false,"is_disabled":false,"rental_uris":{"android":"levelo://app?vid=dd854777-f378-4132-94e6-63027cc18b82","ios":"levelo://app?vid=dd854777-f378-4132-94e6-63027cc18b82"},"vehicle_type_id":"4","last_reported":1773237435,"current_range_meters":28400,"station_id":"","pricing_plan_id":"cebpf4jnsgd1na2vs0mg"},{"bike_id":"f1cad9aa-705a-437f-9b01-fe99d50698e0","system_id":"levelo_inurba_marseille","lat":43.3042,"lon":5.41256,"is_reserved":false,"is_disabled":false,"rental_uris":{"android":"levelo://app?vid=f1cad9aa-705a-437f-9b01-fe99d50698e0","ios":"levelo://app?vid=f1cad9aa-705a-437f-9b01-fe99d50698e0"},"vehicle_type_id":"4","last_reported":1773237435,"current_range_meters":8800,"station_id":"ce4bhop2rcd13ifvqh8g","pricing_plan_id":"cebpf4jnsgd1na2vs0mg"},{"bike_id":"fca48394-ecb7-48fe-a623-7858b59241b1","system_id":"levelo_inurba_marseille","lat":43.27225,"lon":5.39038,"is_reserved":false,"is_disabled":false,"rental_uris":{"android":"levelo://app?vid=fca48394-ecb7-48fe-a623-7858b59241b1","ios":"levelo://app?vid=fca48394-ecb7-48fe-a623-7858b59241b1"},"vehicle_type_id":"4","last_reported":1773237435,"current_range_meters":30000,"station_id":"","pricing_plan_id":"cebpf4jnsgd1na2vs0mg"},{"bike_id":"56a58e6d-4aa0-4bea-859d-9b216e906f64","system_id":"levelo_inurba_marseille","lat":43.2987,"lon":5.39729,"is_reserved":false,"is_disabled":false,"rental_uris":{"android":"levelo://app?vid=56a58e6d-4aa0-4bea-859d-9b216e906f64","ios":"levelo://app?vid=56a58e6d-4aa0-4bea-859d-9b216e906f64"},"vehicle_type_id":"4","last_reported":1773237435,"current_range_meters":32800,"station_id":"ce4bh0h2rcd13ifvqd50","pricing_plan_id":"cebpf4jnsgd1na2vs0mg"},{"bike_id":"fe571005-a99a-4824-bf79-48152ec521cc","system_id":"levelo_inurba_marseille","lat":43.29885,"lon":5.3891,"is_reserved":false,"is_disabled":false,"rental_uris":{"android":"levelo://app?vid=fe571005-a99a-4824-bf79-48152ec521cc","ios":"levelo://app?vid=fe571005-a99a-4824-bf79-48152ec521cc"},"vehicle_type_id":"4","last_reported":1773237435,"current_range_meters":39200,"station_id":"ce4bh392rcd13ifvqdl0","pricing_plan_id":"cebpf4jnsgd1na2vs0mg"},{"bike_id":"532f1fe9-6384-4056-88f3-ddfdd084688a","system_id":"levelo_inurba_marseille","lat":43.29811,"lon":5.4188,"is_reserved":false,"is_disabled":false,"rental_uris":{"android":"levelo://app?vid=532f1fe9-6384-4056-88f3-ddfdd084688a","ios":"levelo://app?vid=532f1fe9-6384-4056-88f3-ddfdd084688a"},"vehicle_type_id":"4","last_reported":1773237435,"current_range_meters":29600,"station_id":"","pricing_plan_id":"cebpf4jnsgd1na2vs0mg"},{"bike_id":"7b13b3db-41b1-4922-a06b-13fea874a109","system_id":"levelo_inurba_marseille","lat":43.31265,"lon":5.36867,"is_reserved":false,"is_disabled":false,"rental_uris":{"android":"levelo://app?vid=7b13b3db-41b1-4922-a06b-13fea874a109","ios":"levelo://app?vid=7b13b3db-41b1-4922-a06b-13fea874a109"},"vehicle_type_id":"4","last_reported":1773237435,"current_range_meters":26000,"station_id":"ce4bgl92rcd13ifvqbq0","pricing_plan_id":"cebpf4jnsgd1na2vs0mg"},{"bike_id":"3c8d6bce-d9c4-4269-82c6-7e6f35ffe4b3","system_id":"levelo_inurba_marseille","lat":43.29574,"lon":5.37501,"is_reserved":false,"is_disabled":false,"rental_uris":{"android":"levelo://app?vid=3c8d6bce-d9c4-4269-82c6-7e6f35ffe4b3","ios":"levelo://app?vid=3c8d6bce-d9c4-4269-82c6-7e6f35ffe4b3"},"vehicle_type_id":"4","last_reported":1773237435,"current_range_meters":9200,"station_id":"ce4bgh92rcd13ifvqb50","pricing_plan_id":"cebpf4jnsgd1na2vs0mg"},{"bike_id":"cc593fe5-fc64-4ca2-9559-ba18291eaedc","system_id":"levelo_inurba_marseille","lat":43.28418,"lon":5.34982,"is_reserved":false,"is_disabled":false,"rental_uris":{"android":"levelo://app?vid=cc593fe5-fc64-4ca2-9559-ba18291eaedc","ios":"levelo://app?vid=cc593fe5-fc64-4ca2-9559-ba18291eaedc"},"vehicle_type_id":"4","last_reported":1773237435,"current_range_meters":22800,"station_id":"ce4bhbh2rcd13ifvqepg","pricing_plan_id":"cebpf4jnsgd1na2vs0mg"},{"bike_id":"f3aa073f-48b3-4a32-af09-7955b12779b7","system_id":"levelo_inurba_marseille","lat":43.23189,"lon":5.39984,"is_reserved":false,"is_disabled":false,"rental_uris":{"android":"levelo://app?vid=f3aa073f-48b3-4a32-af09-7955b12779b7","ios":"levelo://app?vid=f3aa073f-48b3-4a32-af09-7955b12779b7"},"vehicle_type_id":"4","last_reported":1773237435,"current_range_meters":31200,"station_id":"ce4bhn12rcd13ifvqgqg","pricing_plan_id":"cebpf4jnsgd1na2vs0mg"},{"bike_id":"5131722c-75b1-4d85-b37b-c31cab24de2e","system_id":"levelo_inurba_marseille","lat":43.26225,"lon":5.40449,"is_reserved":false,"is_disabled":false,"rental_uris":{"android":"levelo://app?vid=5131722c-75b1-4d85-b37b-c31cab24de2e","ios":"levelo://app?vid=5131722c-75b1-4d85-b37b-c31cab24de2e"},"vehicle_type_id":"4","last_reported":1773237435,"current_range_meters":33200,"station_id":"ce4bhmh2rcd13ifvqgmg","pricing_plan_id":"cebpf4jnsgd1na2vs0mg"},{"bike_id":"5ff4eed9-cc94-417e-b8b0-f370f495b41d","system_id":"levelo_inurba_marseille","lat":43.28171,"lon":5.42632,"is_reserved":false,"is_disabled":false,"rental_uris":{"android":"levelo://app?vid=5ff4eed9-cc94-417e-b8b0-f370f495b41d","ios":"levelo://app?vid=5ff4eed9-cc94-417e-b8b0-f370f495b41d"},"vehicle_type_id":"4","last_reported":1773237435,"current_range_meters":23200,"station_id":"ce4bhnh2rcd13ifvqgug","pricing_plan_id":"cebpf4jnsgd1na2vs0mg"},{"bike_id":"b6cbf464-c7db-40d2-aba2-9c673ee4ba21","system_id":"levelo_inurba_marseille","lat":43.29724,"lon":5.37686,"is_reserved":false,"is_disabled":false,"rental_uris":{"android":"levelo://app?vid=b6cbf464-c7db-40d2-aba2-9c673ee4ba21","ios":"levelo://app?vid=b6cbf464-c7db-40d2-aba2-9c673ee4ba21"},"vehicle_type_id":"4","last_reported":1773237435,"current_range_meters":36000,"station_id":"ce4bgkh2rcd13ifvqbl0","pricing_plan_id":"cebpf4jnsgd1na2vs0mg"},{"bike_id":"9c43543f-fc19-4ea8-90b0-d1837be6e5d0","system_id":"levelo_inurba_marseille","lat":43.2653,"lon":5.37299,"is_reserved":false,"is_disabled":false,"rental_uris":{"android":"levelo://app?vid=9c43543f-fc19-4ea8-90b0-d1837be6e5d0","ios":"levelo://app?vid=9c43543f-fc19-4ea8-90b0-d1837be6e5d0"},"vehicle_type_id":"4","last_reported":1773237435,"current_range_meters":39200,"station_id":"ce4bhg12rcd13ifvqf70","pricing_plan_id":"cebpf4jnsgd1na2vs0mg"},{"bike_id":"1db2ee9f-e736-4670-9bc3-7e0d6ea6ba6e","system_id":"levelo_inurba_marseille","lat":43.29975,"lon":5.41293,"is_reserved":false,"is_disabled":false,"rental_uris":{"android":"levelo://app?vid=1db2ee9f-e736-4670-9bc3-7e0d6ea6ba6e","ios":"levelo://app?vid=1db2ee9f-e736-4670-9bc3-7e0d6ea6ba6e"},"vehicle_type_id":"4","last_reported":1773237435,"current_range_meters":38400,"station_id":"ce4bhp12rcd13ifvqh9g","pricing_plan_id":"cebpf4jnsgd1na2vs0mg"},{"bike_id":"b94c3b6d-7912-4bb7-bd16-b874ff101a3d","system_id":"levelo_inurba_marseille","lat":43.24807,"lon":5.37447,"is_reserved":false,"is_disabled":false,"rental_uris":{"android":"levelo://app?vid=b94c3b6d-7912-4bb7-bd16-b874ff101a3d","ios":"levelo://app?vid=b94c3b6d-7912-4bb7-bd16-b874ff101a3d"},"vehicle_type_id":"4","last_reported":1773237435,"current_range_meters":28400,"station_id":"ce4bhgh2rcd13ifvqfb0","pricing_plan_id":"cebpf4jnsgd1na2vs0mg"},{"bike_id":"3268841f-fecd-44bf-a7ce-948df12685f0","system_id":"levelo_inurba_marseille","lat":43.30522,"lon":5.36721,"is_reserved":false,"is_disabled":false,"rental_uris":{"android":"levelo://app?vid=3268841f-fecd-44bf-a7ce-948df12685f0","ios":"levelo://app?vid=3268841f-fecd-44bf-a7ce-948df12685f0"},"vehicle_type_id":"4","last_reported":1773237435,"current_range_meters":33600,"station_id":"ce4bgrp2rcd13ifvqc9g","pricing_plan_id":"cebpf4jnsgd1na2vs0mg"},{"bike_id":"05f10376-920a-4e54-ab2d-37940827b657","system_id":"levelo_inurba_marseille","lat":43.32087,"lon":5.36779,"is_reserved":false,"is_disabled":false,"rental_uris":{"android":"levelo://app?vid=05f10376-920a-4e54-ab2d-37940827b657","ios":"levelo://app?vid=05f10376-920a-4e54-ab2d-37940827b657"},"vehicle_type_id":"4","last_reported":1773237435,"current_range_meters":31200,"station_id":"ce4bhrh2rcd13ifvqhug","pricing_plan_id":"cebpf4jnsgd1na2vs0mg"},{"bike_id":"7de6ca69-27cb-4f01-b0b4-5059a464752e","system_id":"levelo_inurba_marseille","lat":43.26704,"lon":5.38276,"is_reserved":false,"is_disabled":false,"rental_uris":{"android":"levelo://app?vid=7de6ca69-27cb-4f01-b0b4-5059a464752e","ios":"levelo://app?vid=7de6ca69-27cb-4f01-b0b4-5059a464752e"},"vehicle_type_id":"4","last_reported":1773237435,"current_range_meters":39200,"station_id":"ce4bhg92rcd13ifvqf90","pricing_plan_id":"cebpf4jnsgd1na2vs0mg"},{"bike_id":"fc65fca5-0c42-4153-a673-eab904040ad1","system_id":"levelo_inurba_marseille","lat":43.32332,"lon":5.37746,"is_reserved":false,"is_disabled":false,"rental_uris":{"android":"levelo://app?vid=fc65fca5-0c42-4153-a673-eab904040ad1","ios":"levelo://app?vid=fc65fca5-0c42-4153-a673-eab904040ad1"},"vehicle_type_id":"4","last_reported":1773237435,"current_range_meters":35200,"station_id":"","pricing_plan_id":"cebpf4jnsgd1na2vs0mg"},{"bike_id":"c52459fc-dfb2-4ddf-a65d-9bbba8809c07","system_id":"levelo_inurba_marseille","lat":43.22531,"lon":5.3483,"is_reserved":false,"is_disabled":true,"rental_uris":{"android":"levelo://app?vid=c52459fc-dfb2-4ddf-a65d-9bbba8809c07","ios":"levelo://app?vid=c52459fc-dfb2-4ddf-a65d-9bbba8809c07"},"vehicle_type_id":"4","last_reported":1773237435,"current_range_meters":0,"station_id":"st_cvj5dfep6f1abm77gieg","pricing_plan_id":"cebpf4jnsgd1na2vs0mg"},{"bike_id":"1571cd23-3e05-4a34-a3fd-964238daee25","system_id":"levelo_inurba_marseille","lat":43.31225,"lon":5.36874,"is_reserved":false,"is_disabled":false,"rental_uris":{"android":"levelo://app?vid=1571cd23-3e05-4a34-a3fd-964238daee25","ios":"levelo://app?vid=1571cd23-3e05-4a34-a3fd-964238daee25"},"vehicle_type_id":"4","last_reported":1773237435,"current_range_meters":39200,"station_id":"ce4bgl92rcd13ifvqbq0","pricing_plan_id":"cebpf4jnsgd1na2vs0mg"},{"bike_id":"ab921ae6-933d-4778-81d3-92e579030c6b","system_id":"levelo_inurba_marseille","lat":43.29623,"lon":5.37169,"is_reserved":false,"is_disabled":false,"rental_uris":{"android":"levelo://app?vid=ab921ae6-933d-4778-81d3-92e579030c6b","ios":"levelo://app?vid=ab921ae6-933d-4778-81d3-92e579030c6b"},"vehicle_type_id":"4","last_reported":1773237435,"current_range_meters":39200,"station_id":"ce4bgnh2rcd13ifvqc0g","pricing_plan_id":"cebpf4jnsgd1na2vs0mg"},{"bike_id":"54b4edaa-4eb5-4701-b972-9c0f8b9dfbbf","system_id":"levelo_inurba_marseille","lat":43.29628,"lon":5.37723,"is_reserved":false,"is_disabled":false,"rental_uris":{"android":"levelo://app?vid=54b4edaa-4eb5-4701-b972-9c0f8b9dfbbf","ios":"levelo://app?vid=54b4edaa-4eb5-4701-b972-9c0f8b9dfbbf"},"vehicle_type_id":"4","last_reported":1773237435,"current_range_meters":26000,"station_id":"ce4bgi92rcd13ifvqb90","pricing_plan_id":"cebpf4jnsgd1na2vs0mg"},{"bike_id":"2301d092-fcd2-45f3-804a-bf87c6aa69a3","system_id":"levelo_inurba_marseille","lat":43.29567,"lon":5.37633,"is_reserved":false,"is_disabled":false,"rental_uris":{"android":"levelo://app?vid=2301d092-fcd2-45f3-804a-bf87c6aa69a3","ios":"levelo://app?vid=2301d092-fcd2-45f3-804a-bf87c6aa69a3"},"vehicle_type_id":"4","last_reported":1773237435,"current_range_meters":18000,"station_id":"","pricing_plan_id":"cebpf4jnsgd1na2vs0mg"},{"bike_id":"61a991f1-1c61-4cf7-8c66-0365b5426fe3","system_id":"levelo_inurba_marseille","lat":43.25582,"lon":5.38225,"is_reserved":false,"is_disabled":false,"rental_uris":{"android":"levelo://app?vid=61a991f1-1c61-4cf7-8c66-0365b5426fe3","ios":"levelo://app?vid=61a991f1-1c61-4cf7-8c66-0365b5426fe3"},"vehicle_type_id":"4","last_reported":1773237435,"current_range_meters":30400,"station_id":"ce4bhih2rcd13ifvqfs0","pricing_plan_id":"cebpf4jnsgd1na2vs0mg"},{"bike_id":"d2bcd2b3-b9c0-44b8-b65e-328220c5307e","system_id":"levelo_inurba_marseille","lat":43.29159,"lon":5.4291,"is_reserved":false,"is_disabled":false,"rental_uris":{"android":"levelo://app?vid=d2bcd2b3-b9c0-44b8-b65e-328220c5307e","ios":"levelo://app?vid=d2bcd2b3-b9c0-44b8-b65e-328220c5307e"},"vehicle_type_id":"4","last_reported":1773237435,"current_range_meters":39200,"station_id":"","pricing_plan_id":"cebpf4jnsgd1na2vs0mg"},{"bike_id":"365c3509-57ed-4404-baee-a5d6c5f1d9f0","system_id":"levelo_inurba_marseille","lat":43.3015,"lon":5.38086,"is_reserved":false,"is_disabled":false,"rental_uris":{"android":"levelo://app?vid=365c3509-57ed-4404-baee-a5d6c5f1d9f0","ios":"levelo://app?vid=365c3509-57ed-4404-baee-a5d6c5f1d9f0"},"vehicle_type_id":"4","last_reported":1773237435,"current_range_meters":38800,"station_id":"ce4bgjp2rcd13ifvqbh0","pricing_plan_id":"cebpf4jnsgd1na2vs0mg"},{"bike_id":"d9dee29b-e806-47cb-a973-ee0e5df7896e","system_id":"levelo_inurba_marseille","lat":43.31119,"lon":5.37782,"is_reserved":false,"is_disabled":false,"rental_uris":{"android":"levelo://app?vid=d9dee29b-e806-47cb-a973-ee0e5df7896e","ios":"levelo://app?vid=d9dee29b-e806-47cb-a973-ee0e5df7896e"},"vehicle_type_id":"4","last_reported":1773237435,"current_range_meters":36400,"station_id":"ce4bgt92rcd13ifvqcg0","pricing_plan_id":"cebpf4jnsgd1na2vs0mg"},{"bike_id":"da8afc32-a324-49b8-b98b-eccd284df7b0","system_id":"levelo_inurba_marseille","lat":43.23188,"lon":5.39978,"is_reserved":false,"is_disabled":false,"rental_uris":{"android":"levelo://app?vid=da8afc32-a324-49b8-b98b-eccd284df7b0","ios":"levelo://app?vid=da8afc32-a324-49b8-b98b-eccd284df7b0"},"vehicle_type_id":"4","last_reported":1773237435,"current_range_meters":18000,"station_id":"ce4bhn12rcd13ifvqgqg","pricing_plan_id":"cebpf4jnsgd1na2vs0mg"},{"bike_id":"896440e6-cef8-4268-bb86-ac2c6e2de747","system_id":"levelo_inurba_marseille","lat":43.28466,"lon":5.48393,"is_reserved":false,"is_disabled":false,"rental_uris":{"android":"levelo://app?vid=896440e6-cef8-4268-bb86-ac2c6e2de747","ios":"levelo://app?vid=896440e6-cef8-4268-bb86-ac2c6e2de747"},"vehicle_type_id":"4","last_reported":1773237435,"current_range_meters":30000,"station_id":"","pricing_plan_id":"cebpf4jnsgd1na2vs0mg"},{"bike_id":"144d0f12-8c50-4356-9304-ba9c305ea568","system_id":"levelo_inurba_marseille","lat":43.31341,"lon":5.36966,"is_reserved":false,"is_disabled":false,"rental_uris":{"android":"levelo://app?vid=144d0f12-8c50-4356-9304-ba9c305ea568","ios":"levelo://app?vid=144d0f12-8c50-4356-9304-ba9c305ea568"},"vehicle_type_id":"4","last_reported":1773237435,"current_range_meters":26800,"station_id":"","pricing_plan_id":"cebpf4jnsgd1na2vs0mg"},{"bike_id":"a1c55758-fb71-4aa2-b63d-b2eac86df266","system_id":"levelo_inurba_marseille","lat":43.29609,"lon":5.38104,"is_reserved":false,"is_disabled":false,"rental_uris":{"android":"levelo://app?vid=a1c55758-fb71-4aa2-b63d-b2eac86df266","ios":"levelo://app?vid=a1c55758-fb71-4aa2-b63d-b2eac86df266"},"vehicle_type_id":"4","last_reported":1773237435,"current_range_meters":27200,"station_id":"ce4bgl12rcd13ifvqbo0","pricing_plan_id":"cebpf4jnsgd1na2vs0mg"},{"bike_id":"2c1215f2-9624-4e50-bbbb-a53264cdd31e","system_id":"levelo_inurba_marseille","lat":43.2845,"lon":5.48391,"is_reserved":false,"is_disabled":false,"rental_uris":{"android":"levelo://app?vid=2c1215f2-9624-4e50-bbbb-a53264cdd31e","ios":"levelo://app?vid=2c1215f2-9624-4e50-bbbb-a53264cdd31e"},"vehicle_type_id":"4","last_reported":1773237435,"current_range_meters":27600,"station_id":"","pricing_plan_id":"cebpf4jnsgd1na2vs0mg"},{"bike_id":"60a57b5e-57db-4a7e-a306-ebc7321eb1ba","system_id":"levelo_inurba_marseille","lat":43.27495,"lon":5.41609,"is_reserved":false,"is_disabled":false,"rental_uris":{"android":"levelo://app?vid=60a57b5e-57db-4a7e-a306-ebc7321eb1ba","ios":"levelo://app?vid=60a57b5e-57db-4a7e-a306-ebc7321eb1ba"},"vehicle_type_id":"4","last_reported":1773237435,"current_range_meters":30800,"station_id":"st_d6im8g6chgec73a5pndg","pricing_plan_id":"cebpf4jnsgd1na2vs0mg"},{"bike_id":"c1db54c2-038e-4f3d-a503-c0e3fc6c96ed","system_id":"levelo_inurba_marseille","lat":43.33526,"lon":5.37447,"is_reserved":false,"is_disabled":false,"rental_uris":{"android":"levelo://app?vid=c1db54c2-038e-4f3d-a503-c0e3fc6c96ed","ios":"levelo://app?vid=c1db54c2-038e-4f3d-a503-c0e3fc6c96ed"},"vehicle_type_id":"4","last_reported":1773237435,"current_range_meters":14000,"station_id":"st_d46tts09ee8s73dlu43g","pricing_plan_id":"cebpf4jnsgd1na2vs0mg"},{"bike_id":"a0ab89fd-d4e3-4039-8377-577b0acf001d","system_id":"levelo_inurba_marseille","lat":43.24379,"lon":5.44094,"is_reserved":false,"is_disabled":true,"rental_uris":{"android":"levelo://app?vid=a0ab89fd-d4e3-4039-8377-577b0acf001d","ios":"levelo://app?vid=a0ab89fd-d4e3-4039-8377-577b0acf001d"},"vehicle_type_id":"4","last_reported":1773237435,"current_range_meters":10000,"station_id":"","pricing_plan_id":"cebpf4jnsgd1na2vs0mg"},{"bike_id":"33558fd0-e176-4a19-a7df-a0642f4e239f","system_id":"levelo_inurba_marseille","lat":43.27941,"lon":5.41031,"is_reserved":false,"is_disabled":false,"rental_uris":{"android":"levelo://app?vid=33558fd0-e176-4a19-a7df-a0642f4e239f","ios":"levelo://app?vid=33558fd0-e176-4a19-a7df-a0642f4e239f"},"vehicle_type_id":"4","last_reported":1773237435,"current_range_meters":38800,"station_id":"ce4bhnp2rcd13ifvqh0g","pricing_plan_id":"cebpf4jnsgd1na2vs0mg"},{"bike_id":"3848849f-8b5c-4f22-abad-8aa3329f0d32","system_id":"levelo_inurba_marseille","lat":43.31383,"lon":5.3667,"is_reserved":false,"is_disabled":false,"rental_uris":{"android":"levelo://app?vid=3848849f-8b5c-4f22-abad-8aa3329f0d32","ios":"levelo://app?vid=3848849f-8b5c-4f22-abad-8aa3329f0d32"},"vehicle_type_id":"4","last_reported":1773237435,"current_range_meters":40000,"station_id":"ce4bgr92rcd13ifvqc6g","pricing_plan_id":"cebpf4jnsgd1na2vs0mg"},{"bike_id":"defeeabf-5f13-4c4b-8142-2a954b4ffcd4","system_id":"levelo_inurba_marseille","lat":43.30141,"lon":5.38063,"is_reserved":false,"is_disabled":false,"rental_uris":{"android":"levelo://app?vid=defeeabf-5f13-4c4b-8142-2a954b4ffcd4","ios":"levelo://app?vid=defeeabf-5f13-4c4b-8142-2a954b4ffcd4"},"vehicle_type_id":"4","last_reported":1773237435,"current_range_meters":22000,"station_id":"ce4bgjp2rcd13ifvqbh0","pricing_plan_id":"cebpf4jnsgd1na2vs0mg"},{"bike_id":"c9fdec63-7232-4c40-8487-75579466936b","system_id":"levelo_inurba_marseille","lat":43.26675,"lon":5.38283,"is_reserved":false,"is_disabled":false,"rental_uris":{"android":"levelo://app?vid=c9fdec63-7232-4c40-8487-75579466936b","ios":"levelo://app?vid=c9fdec63-7232-4c40-8487-75579466936b"},"vehicle_type_id":"4","last_reported":1773237435,"current_range_meters":28800,"station_id":"ce4bhg92rcd13ifvqf90","pricing_plan_id":"cebpf4jnsgd1na2vs0mg"},{"bike_id":"e8b7d766-9ece-4870-a1b8-5b316a1b8e67","system_id":"levelo_inurba_marseille","lat":43.2256,"lon":5.41608,"is_reserved":false,"is_disabled":false,"rental_uris":{"android":"levelo://app?vid=e8b7d766-9ece-4870-a1b8-5b316a1b8e67","ios":"levelo://app?vid=e8b7d766-9ece-4870-a1b8-5b316a1b8e67"},"vehicle_type_id":"4","last_reported":1773237435,"current_range_meters":19200,"station_id":"st_d2o4gvlbi1j2169b742g","pricing_plan_id":"cebpf4jnsgd1na2vs0mg"},{"bike_id":"7f11766f-a4e3-407c-8c37-c09dddc0793b","system_id":"levelo_inurba_marseille","lat":43.27823,"lon":5.39202,"is_reserved":false,"is_disabled":false,"rental_uris":{"android":"levelo://app?vid=7f11766f-a4e3-407c-8c37-c09dddc0793b","ios":"levelo://app?vid=7f11766f-a4e3-407c-8c37-c09dddc0793b"},"vehicle_type_id":"4","last_reported":1773237435,"current_range_meters":39200,"station_id":"ce4bhjp2rcd13ifvqga0","pricing_plan_id":"cebpf4jnsgd1na2vs0mg"},{"bike_id":"7fec08d5-ee68-460a-ac18-925555054430","system_id":"levelo_inurba_marseille","lat":43.24171,"lon":5.36397,"is_reserved":false,"is_disabled":false,"rental_uris":{"android":"levelo://app?vid=7fec08d5-ee68-460a-ac18-925555054430","ios":"levelo://app?vid=7fec08d5-ee68-460a-ac18-925555054430"},"vehicle_type_id":"4","last_reported":1773237435,"current_range_meters":16800,"station_id":"cpo36qri1sfpv3e86is0","pricing_plan_id":"cebpf4jnsgd1na2vs0mg"},{"bike_id":"e7ede997-8031-4ef1-ae70-21cfb8a06e17","system_id":"levelo_inurba_marseille","lat":43.32495,"lon":5.38295,"is_reserved":false,"is_disabled":false,"rental_uris":{"android":"levelo://app?vid=e7ede997-8031-4ef1-ae70-21cfb8a06e17","ios":"levelo://app?vid=e7ede997-8031-4ef1-ae70-21cfb8a06e17"},"vehicle_type_id":"4","last_reported":1773237435,"current_range_meters":32000,"station_id":"st_d4asgbiv49dc73anf9m0","pricing_plan_id":"cebpf4jnsgd1na2vs0mg"},{"bike_id":"a1566711-255c-4efb-a4e5-75062eaa13e1","system_id":"levelo_inurba_marseille","lat":43.31336,"lon":5.3966,"is_reserved":false,"is_disabled":false,"rental_uris":{"android":"levelo://app?vid=a1566711-255c-4efb-a4e5-75062eaa13e1","ios":"levelo://app?vid=a1566711-255c-4efb-a4e5-75062eaa13e1"},"vehicle_type_id":"4","last_reported":1773237435,"current_range_meters":36800,"station_id":"ce4bgvp2rcd13ifvqcu0","pricing_plan_id":"cebpf4jnsgd1na2vs0mg"},{"bike_id":"fbacc4e2-20d2-440b-8334-f840b8c13084","system_id":"levelo_inurba_marseille","lat":43.23153,"lon":5.43699,"is_reserved":false,"is_disabled":false,"rental_uris":{"android":"levelo://app?vid=fbacc4e2-20d2-440b-8334-f840b8c13084","ios":"levelo://app?vid=fbacc4e2-20d2-440b-8334-f840b8c13084"},"vehicle_type_id":"4","last_reported":1773237435,"current_range_meters":23200,"station_id":"ce4bhmp2rcd13ifvqgog","pricing_plan_id":"cebpf4jnsgd1na2vs0mg"},{"bike_id":"e50c6797-fb66-441b-97d0-c7fbbc3eb9c6","system_id":"levelo_inurba_marseille","lat":43.31684,"lon":5.43665,"is_reserved":false,"is_disabled":false,"rental_uris":{"android":"levelo://app?vid=e50c6797-fb66-441b-97d0-c7fbbc3eb9c6","ios":"levelo://app?vid=e50c6797-fb66-441b-97d0-c7fbbc3eb9c6"},"vehicle_type_id":"4","last_reported":1773237435,"current_range_meters":29600,"station_id":"ce4bhp92rcd13ifvqhcg","pricing_plan_id":"cebpf4jnsgd1na2vs0mg"},{"bike_id":"37be29a5-87cc-4e3b-a47e-72940815ec30","system_id":"levelo_inurba_marseille","lat":43.29555,"lon":5.39936,"is_reserved":false,"is_disabled":false,"rental_uris":{"android":"levelo://app?vid=37be29a5-87cc-4e3b-a47e-72940815ec30","ios":"levelo://app?vid=37be29a5-87cc-4e3b-a47e-72940815ec30"},"vehicle_type_id":"4","last_reported":1773237435,"current_range_meters":38800,"station_id":"ce4bh312rcd13ifvqdj0","pricing_plan_id":"cebpf4jnsgd1na2vs0mg"},{"bike_id":"d936ee88-e6c5-41eb-94c9-c0f089a32b91","system_id":"levelo_inurba_marseille","lat":43.31186,"lon":5.37719,"is_reserved":false,"is_disabled":false,"rental_uris":{"android":"levelo://app?vid=d936ee88-e6c5-41eb-94c9-c0f089a32b91","ios":"levelo://app?vid=d936ee88-e6c5-41eb-94c9-c0f089a32b91"},"vehicle_type_id":"4","last_reported":1773237435,"current_range_meters":33200,"station_id":"","pricing_plan_id":"cebpf4jnsgd1na2vs0mg"},{"bike_id":"64db144a-07de-49ea-9432-4bcd2298dea1","system_id":"levelo_inurba_marseille","lat":43.26685,"lon":5.3828,"is_reserved":false,"is_disabled":false,"rental_uris":{"android":"levelo://app?vid=64db144a-07de-49ea-9432-4bcd2298dea1","ios":"levelo://app?vid=64db144a-07de-49ea-9432-4bcd2298dea1"},"vehicle_type_id":"4","last_reported":1773237435,"current_range_meters":17600,"station_id":"ce4bhg92rcd13ifvqf90","pricing_plan_id":"cebpf4jnsgd1na2vs0mg"},{"bike_id":"d5be094d-a9aa-42fe-839f-a90170bc328f","system_id":"levelo_inurba_marseille","lat":43.24539,"lon":5.39521,"is_reserved":false,"is_disabled":false,"rental_uris":{"android":"levelo://app?vid=d5be094d-a9aa-42fe-839f-a90170bc328f","ios":"levelo://app?vid=d5be094d-a9aa-42fe-839f-a90170bc328f"},"vehicle_type_id":"4","last_reported":1773237435,"current_range_meters":18000,"station_id":"ce4bhlp2rcd13ifvqgjg","pricing_plan_id":"cebpf4jnsgd1na2vs0mg"},{"bike_id":"90e4ebea-690f-4e00-aeb2-15f726d01347","system_id":"levelo_inurba_marseille","lat":43.29526,"lon":5.37513,"is_reserved":false,"is_disabled":false,"rental_uris":{"android":"levelo://app?vid=90e4ebea-690f-4e00-aeb2-15f726d01347","ios":"levelo://app?vid=90e4ebea-690f-4e00-aeb2-15f726d01347"},"vehicle_type_id":"4","last_reported":1773237435,"current_range_meters":39200,"station_id":"ce4bgkp2rcd13ifvqbmg","pricing_plan_id":"cebpf4jnsgd1na2vs0mg"},{"bike_id":"7c5d90d1-8ba7-4d11-a859-9263fa5d367b","system_id":"levelo_inurba_marseille","lat":43.337444,"lon":5.374475,"is_reserved":false,"is_disabled":true,"rental_uris":{"android":"levelo://app?vid=7c5d90d1-8ba7-4d11-a859-9263fa5d367b","ios":"levelo://app?vid=7c5d90d1-8ba7-4d11-a859-9263fa5d367b"},"vehicle_type_id":"4","last_reported":1773237435,"current_range_meters":11600,"station_id":"","pricing_plan_id":"cebpf4jnsgd1na2vs0mg"},{"bike_id":"3c154df9-1769-4d41-803d-415a3e643bb9","system_id":"levelo_inurba_marseille","lat":43.28944,"lon":5.36384,"is_reserved":false,"is_disabled":false,"rental_uris":{"android":"levelo://app?vid=3c154df9-1769-4d41-803d-415a3e643bb9","ios":"levelo://app?vid=3c154df9-1769-4d41-803d-415a3e643bb9"},"vehicle_type_id":"4","last_reported":1773237435,"current_range_meters":20000,"station_id":"ce4bhc92rcd13ifvqetg","pricing_plan_id":"cebpf4jnsgd1na2vs0mg"},{"bike_id":"e13c909f-c0cc-4488-a44b-5ce34241d3ae","system_id":"levelo_inurba_marseille","lat":43.2668,"lon":5.3827,"is_reserved":false,"is_disabled":false,"rental_uris":{"android":"levelo://app?vid=e13c909f-c0cc-4488-a44b-5ce34241d3ae","ios":"levelo://app?vid=e13c909f-c0cc-4488-a44b-5ce34241d3ae"},"vehicle_type_id":"4","last_reported":1773237435,"current_range_meters":30400,"station_id":"ce4bhg92rcd13ifvqf90","pricing_plan_id":"cebpf4jnsgd1na2vs0mg"},{"bike_id":"302da97d-6164-4efb-a8ae-be5297c8f943","system_id":"levelo_inurba_marseille","lat":43.29268,"lon":5.36861,"is_reserved":false,"is_disabled":false,"rental_uris":{"android":"levelo://app?vid=302da97d-6164-4efb-a8ae-be5297c8f943","ios":"levelo://app?vid=302da97d-6164-4efb-a8ae-be5297c8f943"},"vehicle_type_id":"4","last_reported":1773237435,"current_range_meters":24800,"station_id":"ce4bhbp2rcd13ifvqesg","pricing_plan_id":"cebpf4jnsgd1na2vs0mg"},{"bike_id":"e1daaeaf-bf8c-48ab-8873-5e4be03cff58","system_id":"levelo_inurba_marseille","lat":43.30431,"lon":5.3974,"is_reserved":false,"is_disabled":false,"rental_uris":{"android":"levelo://app?vid=e1daaeaf-bf8c-48ab-8873-5e4be03cff58","ios":"levelo://app?vid=e1daaeaf-bf8c-48ab-8873-5e4be03cff58"},"vehicle_type_id":"4","last_reported":1773237435,"current_range_meters":22400,"station_id":"ce4bh092rcd13ifvqd20","pricing_plan_id":"cebpf4jnsgd1na2vs0mg"},{"bike_id":"f62cbee2-12e5-4cdd-bfbc-04088f9f32fa","system_id":"levelo_inurba_marseille","lat":43.2848,"lon":5.48381,"is_reserved":false,"is_disabled":false,"rental_uris":{"android":"levelo://app?vid=f62cbee2-12e5-4cdd-bfbc-04088f9f32fa","ios":"levelo://app?vid=f62cbee2-12e5-4cdd-bfbc-04088f9f32fa"},"vehicle_type_id":"4","last_reported":1773237435,"current_range_meters":20400,"station_id":"","pricing_plan_id":"cebpf4jnsgd1na2vs0mg"},{"bike_id":"7ac56760-0833-4a18-a6cf-5947e0e74876","system_id":"levelo_inurba_marseille","lat":43.2655,"lon":5.37281,"is_reserved":false,"is_disabled":false,"rental_uris":{"android":"levelo://app?vid=7ac56760-0833-4a18-a6cf-5947e0e74876","ios":"levelo://app?vid=7ac56760-0833-4a18-a6cf-5947e0e74876"},"vehicle_type_id":"4","last_reported":1773237435,"current_range_meters":39200,"station_id":"ce4bhg12rcd13ifvqf70","pricing_plan_id":"cebpf4jnsgd1na2vs0mg"},{"bike_id":"bee33239-5c3c-4b65-9c48-8fa3b957f997","system_id":"levelo_inurba_marseille","lat":43.27993,"lon":5.40008,"is_reserved":false,"is_disabled":false,"rental_uris":{"android":"levelo://app?vid=bee33239-5c3c-4b65-9c48-8fa3b957f997","ios":"levelo://app?vid=bee33239-5c3c-4b65-9c48-8fa3b957f997"},"vehicle_type_id":"4","last_reported":1773237435,"current_range_meters":24000,"station_id":"ce4bho92rcd13ifvqh4g","pricing_plan_id":"cebpf4jnsgd1na2vs0mg"},{"bike_id":"8271e8a9-b689-401c-99e4-7ad999e13ed5","system_id":"levelo_inurba_marseille","lat":43.29556,"lon":5.42279,"is_reserved":false,"is_disabled":false,"rental_uris":{"android":"levelo://app?vid=8271e8a9-b689-401c-99e4-7ad999e13ed5","ios":"levelo://app?vid=8271e8a9-b689-401c-99e4-7ad999e13ed5"},"vehicle_type_id":"4","last_reported":1773237435,"current_range_meters":39200,"station_id":"ce4bhph2rcd13ifvqhdg","pricing_plan_id":"cebpf4jnsgd1na2vs0mg"},{"bike_id":"681fca49-d7d0-4d64-ba5f-a1615360789c","system_id":"levelo_inurba_marseille","lat":43.25829,"lon":5.39433,"is_reserved":false,"is_disabled":false,"rental_uris":{"android":"levelo://app?vid=681fca49-d7d0-4d64-ba5f-a1615360789c","ios":"levelo://app?vid=681fca49-d7d0-4d64-ba5f-a1615360789c"},"vehicle_type_id":"4","last_reported":1773237435,"current_range_meters":36800,"station_id":"ce4bhip2rcd13ifvqft0","pricing_plan_id":"cebpf4jnsgd1na2vs0mg"},{"bike_id":"ba3a231f-10a0-4302-b0e7-08f11861cd04","system_id":"levelo_inurba_marseille","lat":43.2847,"lon":5.48395,"is_reserved":false,"is_disabled":false,"rental_uris":{"android":"levelo://app?vid=ba3a231f-10a0-4302-b0e7-08f11861cd04","ios":"levelo://app?vid=ba3a231f-10a0-4302-b0e7-08f11861cd04"},"vehicle_type_id":"4","last_reported":1773237435,"current_range_meters":38400,"station_id":"","pricing_plan_id":"cebpf4jnsgd1na2vs0mg"},{"bike_id":"e7625e6d-5097-42ee-a08b-05f4f8eab3c7","system_id":"levelo_inurba_marseille","lat":43.29542,"lon":5.37444,"is_reserved":false,"is_disabled":false,"rental_uris":{"android":"levelo://app?vid=e7625e6d-5097-42ee-a08b-05f4f8eab3c7","ios":"levelo://app?vid=e7625e6d-5097-42ee-a08b-05f4f8eab3c7"},"vehicle_type_id":"4","last_reported":1773237435,"current_range_meters":36800,"station_id":"ce4bgkp2rcd13ifvqbmg","pricing_plan_id":"cebpf4jnsgd1na2vs0mg"},{"bike_id":"0b3a6178-c659-4afa-a1c1-935435363474","system_id":"levelo_inurba_marseille","lat":43.23966,"lon":5.36642,"is_reserved":false,"is_disabled":false,"rental_uris":{"android":"levelo://app?vid=0b3a6178-c659-4afa-a1c1-935435363474","ios":"levelo://app?vid=0b3a6178-c659-4afa-a1c1-935435363474"},"vehicle_type_id":"4","last_reported":1773237435,"current_range_meters":38800,"station_id":"ce4bhi12rcd13ifvqfp0","pricing_plan_id":"cebpf4jnsgd1na2vs0mg"},{"bike_id":"17867356-13e1-49c9-a8b9-6fe6e7e5b65e","system_id":"levelo_inurba_marseille","lat":43.30538,"lon":5.36707,"is_reserved":false,"is_disabled":false,"rental_uris":{"android":"levelo://app?vid=17867356-13e1-49c9-a8b9-6fe6e7e5b65e","ios":"levelo://app?vid=17867356-13e1-49c9-a8b9-6fe6e7e5b65e"},"vehicle_type_id":"4","last_reported":1773237435,"current_range_meters":32400,"station_id":"ce4bgrp2rcd13ifvqc9g","pricing_plan_id":"cebpf4jnsgd1na2vs0mg"},{"bike_id":"352c9f7d-89b4-42e5-9e2e-76d972a274bd","system_id":"levelo_inurba_marseille","lat":43.29716,"lon":5.42582,"is_reserved":false,"is_disabled":false,"rental_uris":{"android":"levelo://app?vid=352c9f7d-89b4-42e5-9e2e-76d972a274bd","ios":"levelo://app?vid=352c9f7d-89b4-42e5-9e2e-76d972a274bd"},"vehicle_type_id":"4","last_reported":1773237435,"current_range_meters":10800,"station_id":"","pricing_plan_id":"cebpf4jnsgd1na2vs0mg"},{"bike_id":"04a17b6d-7ebf-4022-9d3a-a2dd2cbb9c97","system_id":"levelo_inurba_marseille","lat":43.30562,"lon":5.36721,"is_reserved":false,"is_disabled":false,"rental_uris":{"android":"levelo://app?vid=04a17b6d-7ebf-4022-9d3a-a2dd2cbb9c97","ios":"levelo://app?vid=04a17b6d-7ebf-4022-9d3a-a2dd2cbb9c97"},"vehicle_type_id":"4","last_reported":1773237435,"current_range_meters":40000,"station_id":"ce4bgrp2rcd13ifvqc9g","pricing_plan_id":"cebpf4jnsgd1na2vs0mg"},{"bike_id":"bfee60c3-8b74-4c9f-aef3-67f690ec877a","system_id":"levelo_inurba_marseille","lat":43.30313,"lon":5.36891,"is_reserved":false,"is_disabled":false,"rental_uris":{"android":"levelo://app?vid=bfee60c3-8b74-4c9f-aef3-67f690ec877a","ios":"levelo://app?vid=bfee60c3-8b74-4c9f-aef3-67f690ec877a"},"vehicle_type_id":"4","last_reported":1773237435,"current_range_meters":14000,"station_id":"ce4bgqh2rcd13ifvqc5g","pricing_plan_id":"cebpf4jnsgd1na2vs0mg"},{"bike_id":"c59a5209-1b70-42df-8250-859beecf23e1","system_id":"levelo_inurba_marseille","lat":43.23176,"lon":5.356,"is_reserved":false,"is_disabled":false,"rental_uris":{"android":"levelo://app?vid=c59a5209-1b70-42df-8250-859beecf23e1","ios":"levelo://app?vid=c59a5209-1b70-42df-8250-859beecf23e1"},"vehicle_type_id":"4","last_reported":1773237435,"current_range_meters":36400,"station_id":"ce4bhu92rcd13ifvqi70","pricing_plan_id":"cebpf4jnsgd1na2vs0mg"},{"bike_id":"f336589f-866f-46c6-b212-a692ab2ba293","system_id":"levelo_inurba_marseille","lat":43.29679,"lon":5.37113,"is_reserved":false,"is_disabled":false,"rental_uris":{"android":"levelo://app?vid=f336589f-866f-46c6-b212-a692ab2ba293","ios":"levelo://app?vid=f336589f-866f-46c6-b212-a692ab2ba293"},"vehicle_type_id":"4","last_reported":1773237435,"current_range_meters":13600,"station_id":"","pricing_plan_id":"cebpf4jnsgd1na2vs0mg"},{"bike_id":"fed428a6-a508-4132-94d7-783075e10fe3","system_id":"levelo_inurba_marseille","lat":43.32356,"lon":5.36733,"is_reserved":false,"is_disabled":false,"rental_uris":{"android":"levelo://app?vid=fed428a6-a508-4132-94d7-783075e10fe3","ios":"levelo://app?vid=fed428a6-a508-4132-94d7-783075e10fe3"},"vehicle_type_id":"4","last_reported":1773237435,"current_range_meters":35600,"station_id":"ce4bhsh2rcd13ifvqi2g","pricing_plan_id":"cebpf4jnsgd1na2vs0mg"},{"bike_id":"b77fb604-0801-47d9-99a2-3844aa44df9a","system_id":"levelo_inurba_marseille","lat":43.25334,"lon":5.42171,"is_reserved":false,"is_disabled":false,"rental_uris":{"android":"levelo://app?vid=b77fb604-0801-47d9-99a2-3844aa44df9a","ios":"levelo://app?vid=b77fb604-0801-47d9-99a2-3844aa44df9a"},"vehicle_type_id":"4","last_reported":1773237435,"current_range_meters":28400,"station_id":"st_d2m65c5bi1j21697t3ng","pricing_plan_id":"cebpf4jnsgd1na2vs0mg"},{"bike_id":"dcad9259-a4d3-4cc7-94fc-0c8a7321317d","system_id":"levelo_inurba_marseille","lat":43.27068,"lon":5.38311,"is_reserved":false,"is_disabled":false,"rental_uris":{"android":"levelo://app?vid=dcad9259-a4d3-4cc7-94fc-0c8a7321317d","ios":"levelo://app?vid=dcad9259-a4d3-4cc7-94fc-0c8a7321317d"},"vehicle_type_id":"4","last_reported":1773237435,"current_range_meters":30000,"station_id":"st_d3n2fo6cfp8s73cte1j0","pricing_plan_id":"cebpf4jnsgd1na2vs0mg"},{"bike_id":"54dedf02-9946-4658-9e75-e2e8b7cf4198","system_id":"levelo_inurba_marseille","lat":43.24129,"lon":5.37627,"is_reserved":false,"is_disabled":false,"rental_uris":{"android":"levelo://app?vid=54dedf02-9946-4658-9e75-e2e8b7cf4198","ios":"levelo://app?vid=54dedf02-9946-4658-9e75-e2e8b7cf4198"},"vehicle_type_id":"4","last_reported":1773237435,"current_range_meters":17600,"station_id":"","pricing_plan_id":"cebpf4jnsgd1na2vs0mg"},{"bike_id":"67eb373c-a8bb-49a1-86e4-ecf0c7fe642b","system_id":"levelo_inurba_marseille","lat":43.27372,"lon":5.36255,"is_reserved":false,"is_disabled":false,"rental_uris":{"android":"levelo://app?vid=67eb373c-a8bb-49a1-86e4-ecf0c7fe642b","ios":"levelo://app?vid=67eb373c-a8bb-49a1-86e4-ecf0c7fe642b"},"vehicle_type_id":"4","last_reported":1773237435,"current_range_meters":30800,"station_id":"ce4bhbh2rcd13ifvqeo0","pricing_plan_id":"cebpf4jnsgd1na2vs0mg"},{"bike_id":"0bd65bd6-432d-4f03-9bc1-a502b4962690","system_id":"levelo_inurba_marseille","lat":43.30238,"lon":5.36833,"is_reserved":false,"is_disabled":false,"rental_uris":{"android":"levelo://app?vid=0bd65bd6-432d-4f03-9bc1-a502b4962690","ios":"levelo://app?vid=0bd65bd6-432d-4f03-9bc1-a502b4962690"},"vehicle_type_id":"4","last_reported":1773237435,"current_range_meters":28000,"station_id":"","pricing_plan_id":"cebpf4jnsgd1na2vs0mg"},{"bike_id":"b6942993-6967-4f6c-b7e8-d4ca854e4d0e","system_id":"levelo_inurba_marseille","lat":43.24996,"lon":5.38928,"is_reserved":false,"is_disabled":false,"rental_uris":{"android":"levelo://app?vid=b6942993-6967-4f6c-b7e8-d4ca854e4d0e","ios":"levelo://app?vid=b6942993-6967-4f6c-b7e8-d4ca854e4d0e"},"vehicle_type_id":"4","last_reported":1773237435,"current_range_meters":39200,"station_id":"ce4bhgp2rcd13ifvqfd0","pricing_plan_id":"cebpf4jnsgd1na2vs0mg"},{"bike_id":"a540b441-3928-4042-84dc-78cbd8de6fd0","system_id":"levelo_inurba_marseille","lat":43.24386,"lon":5.37095,"is_reserved":false,"is_disabled":false,"rental_uris":{"android":"levelo://app?vid=a540b441-3928-4042-84dc-78cbd8de6fd0","ios":"levelo://app?vid=a540b441-3928-4042-84dc-78cbd8de6fd0"},"vehicle_type_id":"4","last_reported":1773237435,"current_range_meters":34000,"station_id":"ce4bhhh2rcd13ifvqfk0","pricing_plan_id":"cebpf4jnsgd1na2vs0mg"},{"bike_id":"d2a1bddb-abc2-4ccc-9c5f-dc2c9be0a497","system_id":"levelo_inurba_marseille","lat":43.29774,"lon":5.42698,"is_reserved":false,"is_disabled":true,"rental_uris":{"android":"levelo://app?vid=d2a1bddb-abc2-4ccc-9c5f-dc2c9be0a497","ios":"levelo://app?vid=d2a1bddb-abc2-4ccc-9c5f-dc2c9be0a497"},"vehicle_type_id":"4","last_reported":1773237435,"current_range_meters":800,"station_id":"","pricing_plan_id":"cebpf4jnsgd1na2vs0mg"},{"bike_id":"036c5a32-32e5-4f44-95cd-657874406d11","system_id":"levelo_inurba_marseille","lat":43.29786,"lon":5.38107,"is_reserved":false,"is_disabled":false,"rental_uris":{"android":"levelo://app?vid=036c5a32-32e5-4f44-95cd-657874406d11","ios":"levelo://app?vid=036c5a32-32e5-4f44-95cd-657874406d11"},"vehicle_type_id":"4","last_reported":1773237435,"current_range_meters":38400,"station_id":"ce4bgip2rcd13ifvqbb0","pricing_plan_id":"cebpf4jnsgd1na2vs0mg"},{"bike_id":"d0bd5c6f-b422-4e04-8688-72f194772fbd","system_id":"levelo_inurba_marseille","lat":43.29787,"lon":5.39357,"is_reserved":false,"is_disabled":false,"rental_uris":{"android":"levelo://app?vid=d0bd5c6f-b422-4e04-8688-72f194772fbd","ios":"levelo://app?vid=d0bd5c6f-b422-4e04-8688-72f194772fbd"},"vehicle_type_id":"4","last_reported":1773237435,"current_range_meters":6800,"station_id":"","pricing_plan_id":"cebpf4jnsgd1na2vs0mg"},{"bike_id":"4a415183-4d40-452c-9d2d-b724e2dfa905","system_id":"levelo_inurba_marseille","lat":43.29273,"lon":5.36851,"is_reserved":false,"is_disabled":false,"rental_uris":{"android":"levelo://app?vid=4a415183-4d40-452c-9d2d-b724e2dfa905","ios":"levelo://app?vid=4a415183-4d40-452c-9d2d-b724e2dfa905"},"vehicle_type_id":"4","last_reported":1773237435,"current_range_meters":30800,"station_id":"ce4bhbp2rcd13ifvqesg","pricing_plan_id":"cebpf4jnsgd1na2vs0mg"},{"bike_id":"2ac129ef-0500-4e15-8179-6818cd0eb7ac","system_id":"levelo_inurba_marseille","lat":43.27077,"lon":5.42293,"is_reserved":false,"is_disabled":false,"rental_uris":{"android":"levelo://app?vid=2ac129ef-0500-4e15-8179-6818cd0eb7ac","ios":"levelo://app?vid=2ac129ef-0500-4e15-8179-6818cd0eb7ac"},"vehicle_type_id":"4","last_reported":1773237435,"current_range_meters":8400,"station_id":"ce4bhk92rcd13ifvqgb0","pricing_plan_id":"cebpf4jnsgd1na2vs0mg"},{"bike_id":"09b51f1e-4608-4273-bc57-8753e2939ff2","system_id":"levelo_inurba_marseille","lat":43.29928,"lon":5.36523,"is_reserved":false,"is_disabled":false,"rental_uris":{"android":"levelo://app?vid=09b51f1e-4608-4273-bc57-8753e2939ff2","ios":"levelo://app?vid=09b51f1e-4608-4273-bc57-8753e2939ff2"},"vehicle_type_id":"4","last_reported":1773237435,"current_range_meters":33200,"station_id":"ce4bgm92rcd13ifvqbr0","pricing_plan_id":"cebpf4jnsgd1na2vs0mg"},{"bike_id":"bf087080-fbd0-45e9-b421-f3cbdc582b45","system_id":"levelo_inurba_marseille","lat":43.29872,"lon":5.37629,"is_reserved":false,"is_disabled":false,"rental_uris":{"android":"levelo://app?vid=bf087080-fbd0-45e9-b421-f3cbdc582b45","ios":"levelo://app?vid=bf087080-fbd0-45e9-b421-f3cbdc582b45"},"vehicle_type_id":"4","last_reported":1773237435,"current_range_meters":27200,"station_id":"","pricing_plan_id":"cebpf4jnsgd1na2vs0mg"},{"bike_id":"412ebc32-5589-4f6e-8ac6-13ac9134d8c4","system_id":"levelo_inurba_marseille","lat":43.279694,"lon":5.387333,"is_reserved":false,"is_disabled":false,"rental_uris":{"android":"levelo://app?vid=412ebc32-5589-4f6e-8ac6-13ac9134d8c4","ios":"levelo://app?vid=412ebc32-5589-4f6e-8ac6-13ac9134d8c4"},"vehicle_type_id":"4","last_reported":1773237435,"current_range_meters":14000,"station_id":"ce4bhg12rcd13ifvqf80","pricing_plan_id":"cebpf4jnsgd1na2vs0mg"},{"bike_id":"66073d47-bc21-461c-b8fb-233cd3102cda","system_id":"levelo_inurba_marseille","lat":43.29296,"lon":5.37458,"is_reserved":false,"is_disabled":false,"rental_uris":{"android":"levelo://app?vid=66073d47-bc21-461c-b8fb-233cd3102cda","ios":"levelo://app?vid=66073d47-bc21-461c-b8fb-233cd3102cda"},"vehicle_type_id":"4","last_reported":1773237435,"current_range_meters":21600,"station_id":"ce4bgi12rcd13ifvqb70","pricing_plan_id":"cebpf4jnsgd1na2vs0mg"},{"bike_id":"42ad98ee-dfe1-4261-a276-fba11b95eb9e","system_id":"levelo_inurba_marseille","lat":43.26211,"lon":5.37448,"is_reserved":false,"is_disabled":false,"rental_uris":{"android":"levelo://app?vid=42ad98ee-dfe1-4261-a276-fba11b95eb9e","ios":"levelo://app?vid=42ad98ee-dfe1-4261-a276-fba11b95eb9e"},"vehicle_type_id":"4","last_reported":1773237435,"current_range_meters":36400,"station_id":"ce4bhgp2rcd13ifvqfc0","pricing_plan_id":"cebpf4jnsgd1na2vs0mg"},{"bike_id":"5d35e186-9ea2-469b-87a9-367aebad843f","system_id":"levelo_inurba_marseille","lat":43.24149,"lon":5.39695,"is_reserved":false,"is_disabled":false,"rental_uris":{"android":"levelo://app?vid=5d35e186-9ea2-469b-87a9-367aebad843f","ios":"levelo://app?vid=5d35e186-9ea2-469b-87a9-367aebad843f"},"vehicle_type_id":"4","last_reported":1773237435,"current_range_meters":6000,"station_id":"ce4bhn12rcd13ifvqgpg","pricing_plan_id":"cebpf4jnsgd1na2vs0mg"},{"bike_id":"da8163bf-a494-4792-912b-7a9e8c51c23b","system_id":"levelo_inurba_marseille","lat":43.23961,"lon":5.36633,"is_reserved":false,"is_disabled":false,"rental_uris":{"android":"levelo://app?vid=da8163bf-a494-4792-912b-7a9e8c51c23b","ios":"levelo://app?vid=da8163bf-a494-4792-912b-7a9e8c51c23b"},"vehicle_type_id":"4","last_reported":1773237435,"current_range_meters":39200,"station_id":"ce4bhi12rcd13ifvqfp0","pricing_plan_id":"cebpf4jnsgd1na2vs0mg"},{"bike_id":"f1bd63c5-a502-46f8-ba07-32edd3c6a892","system_id":"levelo_inurba_marseille","lat":43.293789,"lon":5.378553,"is_reserved":false,"is_disabled":false,"rental_uris":{"android":"levelo://app?vid=f1bd63c5-a502-46f8-ba07-32edd3c6a892","ios":"levelo://app?vid=f1bd63c5-a502-46f8-ba07-32edd3c6a892"},"vehicle_type_id":"4","last_reported":1773237435,"current_range_meters":2800,"station_id":"ce4bgjh2rcd13ifvqbf0","pricing_plan_id":"cebpf4jnsgd1na2vs0mg"},{"bike_id":"0a2f9b28-6219-4106-b011-3026133a767c","system_id":"levelo_inurba_marseille","lat":43.29611,"lon":5.38112,"is_reserved":false,"is_disabled":true,"rental_uris":{"android":"levelo://app?vid=0a2f9b28-6219-4106-b011-3026133a767c","ios":"levelo://app?vid=0a2f9b28-6219-4106-b011-3026133a767c"},"vehicle_type_id":"4","last_reported":1773237435,"current_range_meters":21600,"station_id":"ce4bgl12rcd13ifvqbo0","pricing_plan_id":"cebpf4jnsgd1na2vs0mg"},{"bike_id":"18ee2a4e-b47f-4581-9a71-2dfe98aa4518","system_id":"levelo_inurba_marseille","lat":43.28603,"lon":5.37059,"is_reserved":false,"is_disabled":false,"rental_uris":{"android":"levelo://app?vid=18ee2a4e-b47f-4581-9a71-2dfe98aa4518","ios":"levelo://app?vid=18ee2a4e-b47f-4581-9a71-2dfe98aa4518"},"vehicle_type_id":"4","last_reported":1773237435,"current_range_meters":20800,"station_id":"ce4bht12rcd13ifvqi60","pricing_plan_id":"cebpf4jnsgd1na2vs0mg"},{"bike_id":"333c1115-21ab-4cac-9273-ad709bdfe532","system_id":"levelo_inurba_marseille","lat":43.27491,"lon":5.42464,"is_reserved":false,"is_disabled":false,"rental_uris":{"android":"levelo://app?vid=333c1115-21ab-4cac-9273-ad709bdfe532","ios":"levelo://app?vid=333c1115-21ab-4cac-9273-ad709bdfe532"},"vehicle_type_id":"4","last_reported":1773237435,"current_range_meters":38000,"station_id":"ce4bhn92rcd13ifvqgrg","pricing_plan_id":"cebpf4jnsgd1na2vs0mg"},{"bike_id":"a9025efe-1c6a-4fbe-8fd2-6611e61df634","system_id":"levelo_inurba_marseille","lat":43.2898,"lon":5.37851,"is_reserved":false,"is_disabled":false,"rental_uris":{"android":"levelo://app?vid=a9025efe-1c6a-4fbe-8fd2-6611e61df634","ios":"levelo://app?vid=a9025efe-1c6a-4fbe-8fd2-6611e61df634"},"vehicle_type_id":"4","last_reported":1773237435,"current_range_meters":34000,"station_id":"ce4bh9p2rcd13ifvqed0","pricing_plan_id":"cebpf4jnsgd1na2vs0mg"},{"bike_id":"01c56011-233a-4c07-9933-91e369243105","system_id":"levelo_inurba_marseille","lat":43.34137,"lon":5.40905,"is_reserved":false,"is_disabled":false,"rental_uris":{"android":"levelo://app?vid=01c56011-233a-4c07-9933-91e369243105","ios":"levelo://app?vid=01c56011-233a-4c07-9933-91e369243105"},"vehicle_type_id":"4","last_reported":1773237435,"current_range_meters":36800,"station_id":"ce4bhqh2rcd13ifvqhlg","pricing_plan_id":"cebpf4jnsgd1na2vs0mg"},{"bike_id":"87800740-e01e-418a-8c31-3787287c2d0b","system_id":"levelo_inurba_marseille","lat":43.23143,"lon":5.43713,"is_reserved":false,"is_disabled":false,"rental_uris":{"android":"levelo://app?vid=87800740-e01e-418a-8c31-3787287c2d0b","ios":"levelo://app?vid=87800740-e01e-418a-8c31-3787287c2d0b"},"vehicle_type_id":"4","last_reported":1773237435,"current_range_meters":17200,"station_id":"ce4bhmp2rcd13ifvqgog","pricing_plan_id":"cebpf4jnsgd1na2vs0mg"},{"bike_id":"c73dc152-9938-46ce-972e-77003c30697b","system_id":"levelo_inurba_marseille","lat":43.25821,"lon":5.39435,"is_reserved":false,"is_disabled":false,"rental_uris":{"android":"levelo://app?vid=c73dc152-9938-46ce-972e-77003c30697b","ios":"levelo://app?vid=c73dc152-9938-46ce-972e-77003c30697b"},"vehicle_type_id":"4","last_reported":1773237435,"current_range_meters":38800,"station_id":"ce4bhip2rcd13ifvqft0","pricing_plan_id":"cebpf4jnsgd1na2vs0mg"},{"bike_id":"22915830-6358-4633-a528-3f8de9c99f7d","system_id":"levelo_inurba_marseille","lat":43.27326,"lon":5.3911,"is_reserved":false,"is_disabled":false,"rental_uris":{"android":"levelo://app?vid=22915830-6358-4633-a528-3f8de9c99f7d","ios":"levelo://app?vid=22915830-6358-4633-a528-3f8de9c99f7d"},"vehicle_type_id":"4","last_reported":1773237435,"current_range_meters":14400,"station_id":"ce4bhgp2rcd13ifvqfe0","pricing_plan_id":"cebpf4jnsgd1na2vs0mg"},{"bike_id":"7567ece7-d0eb-41af-8836-79be3883e346","system_id":"levelo_inurba_marseille","lat":43.27219,"lon":5.39174,"is_reserved":false,"is_disabled":false,"rental_uris":{"android":"levelo://app?vid=7567ece7-d0eb-41af-8836-79be3883e346","ios":"levelo://app?vid=7567ece7-d0eb-41af-8836-79be3883e346"},"vehicle_type_id":"4","last_reported":1773237435,"current_range_meters":26800,"station_id":"ce4bhhp2rcd13ifvqfm0","pricing_plan_id":"cebpf4jnsgd1na2vs0mg"},{"bike_id":"4e572166-5228-4a3b-a03b-a70a0df15a95","system_id":"levelo_inurba_marseille","lat":43.29259,"lon":5.40909,"is_reserved":false,"is_disabled":false,"rental_uris":{"android":"levelo://app?vid=4e572166-5228-4a3b-a03b-a70a0df15a95","ios":"levelo://app?vid=4e572166-5228-4a3b-a03b-a70a0df15a95"},"vehicle_type_id":"4","last_reported":1773237435,"current_range_meters":24800,"station_id":"ce4bh192rcd13ifvqdc0","pricing_plan_id":"cebpf4jnsgd1na2vs0mg"},{"bike_id":"aed86b01-743d-440d-a139-4282c98e0c95","system_id":"levelo_inurba_marseille","lat":43.24064,"lon":5.37733,"is_reserved":false,"is_disabled":false,"rental_uris":{"android":"levelo://app?vid=aed86b01-743d-440d-a139-4282c98e0c95","ios":"levelo://app?vid=aed86b01-743d-440d-a139-4282c98e0c95"},"vehicle_type_id":"4","last_reported":1773237435,"current_range_meters":12000,"station_id":"ce4bhnp2rcd13ifvqgvg","pricing_plan_id":"cebpf4jnsgd1na2vs0mg"},{"bike_id":"a9367e58-ac86-48c3-ac19-45dcca523fd2","system_id":"levelo_inurba_marseille","lat":43.3013,"lon":5.37419,"is_reserved":false,"is_disabled":false,"rental_uris":{"android":"levelo://app?vid=a9367e58-ac86-48c3-ac19-45dcca523fd2","ios":"levelo://app?vid=a9367e58-ac86-48c3-ac19-45dcca523fd2"},"vehicle_type_id":"4","last_reported":1773237435,"current_range_meters":26800,"station_id":"ce4bgs92rcd13ifvqcc0","pricing_plan_id":"cebpf4jnsgd1na2vs0mg"},{"bike_id":"7a84d681-2381-484e-9868-38e7157c47d4","system_id":"levelo_inurba_marseille","lat":43.28479,"lon":5.3587,"is_reserved":false,"is_disabled":false,"rental_uris":{"android":"levelo://app?vid=7a84d681-2381-484e-9868-38e7157c47d4","ios":"levelo://app?vid=7a84d681-2381-484e-9868-38e7157c47d4"},"vehicle_type_id":"4","last_reported":1773237435,"current_range_meters":9200,"station_id":"ce4bhah2rcd13ifvqei0","pricing_plan_id":"cebpf4jnsgd1na2vs0mg"},{"bike_id":"569485b9-bdc6-4692-ab97-c12d7cce1f5d","system_id":"levelo_inurba_marseille","lat":43.28728,"lon":5.36099,"is_reserved":false,"is_disabled":false,"rental_uris":{"android":"levelo://app?vid=569485b9-bdc6-4692-ab97-c12d7cce1f5d","ios":"levelo://app?vid=569485b9-bdc6-4692-ab97-c12d7cce1f5d"},"vehicle_type_id":"4","last_reported":1773237435,"current_range_meters":38800,"station_id":"cki0cbj6b192h4jlfktg","pricing_plan_id":"cebpf4jnsgd1na2vs0mg"},{"bike_id":"64f1b489-4a25-44e7-89b3-f99bf684c698","system_id":"levelo_inurba_marseille","lat":43.2956,"lon":5.37498,"is_reserved":false,"is_disabled":true,"rental_uris":{"android":"levelo://app?vid=64f1b489-4a25-44e7-89b3-f99bf684c698","ios":"levelo://app?vid=64f1b489-4a25-44e7-89b3-f99bf684c698"},"vehicle_type_id":"4","last_reported":1773237435,"current_range_meters":0,"station_id":"ce4bgh92rcd13ifvqb50","pricing_plan_id":"cebpf4jnsgd1na2vs0mg"},{"bike_id":"3e7d4306-0e73-489e-9de5-5d65178e92cd","system_id":"levelo_inurba_marseille","lat":43.28417,"lon":5.34974,"is_reserved":false,"is_disabled":false,"rental_uris":{"android":"levelo://app?vid=3e7d4306-0e73-489e-9de5-5d65178e92cd","ios":"levelo://app?vid=3e7d4306-0e73-489e-9de5-5d65178e92cd"},"vehicle_type_id":"4","last_reported":1773237435,"current_range_meters":40000,"station_id":"ce4bhbh2rcd13ifvqepg","pricing_plan_id":"cebpf4jnsgd1na2vs0mg"},{"bike_id":"4eb01288-23f5-4e80-9a9a-837bb161c164","system_id":"levelo_inurba_marseille","lat":43.27059,"lon":5.383,"is_reserved":false,"is_disabled":false,"rental_uris":{"android":"levelo://app?vid=4eb01288-23f5-4e80-9a9a-837bb161c164","ios":"levelo://app?vid=4eb01288-23f5-4e80-9a9a-837bb161c164"},"vehicle_type_id":"4","last_reported":1773237435,"current_range_meters":36800,"station_id":"st_d3n2fo6cfp8s73cte1j0","pricing_plan_id":"cebpf4jnsgd1na2vs0mg"},{"bike_id":"afa069de-b6cc-4e04-9780-082a34513279","system_id":"levelo_inurba_marseille","lat":43.304265,"lon":5.397476,"is_reserved":false,"is_disabled":false,"rental_uris":{"android":"levelo://app?vid=afa069de-b6cc-4e04-9780-082a34513279","ios":"levelo://app?vid=afa069de-b6cc-4e04-9780-082a34513279"},"vehicle_type_id":"4","last_reported":1773237435,"current_range_meters":39200,"station_id":"ce4bh092rcd13ifvqd20","pricing_plan_id":"cebpf4jnsgd1na2vs0mg"},{"bike_id":"faec2436-d48c-4b11-8b30-20bb4a2e1087","system_id":"levelo_inurba_marseille","lat":43.27327,"lon":5.39091,"is_reserved":false,"is_disabled":false,"rental_uris":{"android":"levelo://app?vid=faec2436-d48c-4b11-8b30-20bb4a2e1087","ios":"levelo://app?vid=faec2436-d48c-4b11-8b30-20bb4a2e1087"},"vehicle_type_id":"4","last_reported":1773237435,"current_range_meters":38000,"station_id":"ce4bhgp2rcd13ifvqfe0","pricing_plan_id":"cebpf4jnsgd1na2vs0mg"},{"bike_id":"8ca3bc24-525f-427f-82ef-18e9228352e9","system_id":"levelo_inurba_marseille","lat":43.2862,"lon":5.35087,"is_reserved":false,"is_disabled":false,"rental_uris":{"android":"levelo://app?vid=8ca3bc24-525f-427f-82ef-18e9228352e9","ios":"levelo://app?vid=8ca3bc24-525f-427f-82ef-18e9228352e9"},"vehicle_type_id":"4","last_reported":1773237435,"current_range_meters":16000,"station_id":"ce4bhch2rcd13ifvqeug","pricing_plan_id":"cebpf4jnsgd1na2vs0mg"},{"bike_id":"a63d22a1-9803-47da-97c5-9eb5069b8019","system_id":"levelo_inurba_marseille","lat":43.25821,"lon":5.39442,"is_reserved":false,"is_disabled":false,"rental_uris":{"android":"levelo://app?vid=a63d22a1-9803-47da-97c5-9eb5069b8019","ios":"levelo://app?vid=a63d22a1-9803-47da-97c5-9eb5069b8019"},"vehicle_type_id":"4","last_reported":1773237435,"current_range_meters":38800,"station_id":"ce4bhip2rcd13ifvqft0","pricing_plan_id":"cebpf4jnsgd1na2vs0mg"},{"bike_id":"893e0a49-3615-4028-ba62-16f7e52631a3","system_id":"levelo_inurba_marseille","lat":43.31398,"lon":5.36622,"is_reserved":false,"is_disabled":false,"rental_uris":{"android":"levelo://app?vid=893e0a49-3615-4028-ba62-16f7e52631a3","ios":"levelo://app?vid=893e0a49-3615-4028-ba62-16f7e52631a3"},"vehicle_type_id":"4","last_reported":1773237435,"current_range_meters":22800,"station_id":"","pricing_plan_id":"cebpf4jnsgd1na2vs0mg"},{"bike_id":"712f73a5-ccbd-4df8-a2bf-f8199628c205","system_id":"levelo_inurba_marseille","lat":43.25934,"lon":5.409,"is_reserved":false,"is_disabled":false,"rental_uris":{"android":"levelo://app?vid=712f73a5-ccbd-4df8-a2bf-f8199628c205","ios":"levelo://app?vid=712f73a5-ccbd-4df8-a2bf-f8199628c205"},"vehicle_type_id":"4","last_reported":1773237435,"current_range_meters":2800,"station_id":"ce4bhm92rcd13ifvqglg","pricing_plan_id":"cebpf4jnsgd1na2vs0mg"},{"bike_id":"4f780ed7-b04b-4e8f-95a0-067809d6cc8f","system_id":"levelo_inurba_marseille","lat":43.29902,"lon":5.38139,"is_reserved":false,"is_disabled":false,"rental_uris":{"android":"levelo://app?vid=4f780ed7-b04b-4e8f-95a0-067809d6cc8f","ios":"levelo://app?vid=4f780ed7-b04b-4e8f-95a0-067809d6cc8f"},"vehicle_type_id":"4","last_reported":1773237435,"current_range_meters":36000,"station_id":"ce4bgj12rcd13ifvqbc0","pricing_plan_id":"cebpf4jnsgd1na2vs0mg"},{"bike_id":"8b2e521b-1101-44fe-9d4a-0344f080c81c","system_id":"levelo_inurba_marseille","lat":43.28476,"lon":5.48399,"is_reserved":false,"is_disabled":false,"rental_uris":{"android":"levelo://app?vid=8b2e521b-1101-44fe-9d4a-0344f080c81c","ios":"levelo://app?vid=8b2e521b-1101-44fe-9d4a-0344f080c81c"},"vehicle_type_id":"4","last_reported":1773237435,"current_range_meters":36800,"station_id":"","pricing_plan_id":"cebpf4jnsgd1na2vs0mg"},{"bike_id":"47211649-8614-4b6a-9490-eec4357ab879","system_id":"levelo_inurba_marseille","lat":43.27668,"lon":5.388803,"is_reserved":false,"is_disabled":false,"rental_uris":{"android":"levelo://app?vid=47211649-8614-4b6a-9490-eec4357ab879","ios":"levelo://app?vid=47211649-8614-4b6a-9490-eec4357ab879"},"vehicle_type_id":"4","last_reported":1773237435,"current_range_meters":38800,"station_id":"ce4bhi12rcd13ifvqfo0","pricing_plan_id":"cebpf4jnsgd1na2vs0mg"},{"bike_id":"cb02cc24-380b-4eac-aa31-405aa1f933b5","system_id":"levelo_inurba_marseille","lat":43.27209,"lon":5.39202,"is_reserved":false,"is_disabled":false,"rental_uris":{"android":"levelo://app?vid=cb02cc24-380b-4eac-aa31-405aa1f933b5","ios":"levelo://app?vid=cb02cc24-380b-4eac-aa31-405aa1f933b5"},"vehicle_type_id":"4","last_reported":1773237435,"current_range_meters":8400,"station_id":"ce4bhhp2rcd13ifvqfm0","pricing_plan_id":"cebpf4jnsgd1na2vs0mg"},{"bike_id":"1697678c-c8a4-4c47-ade7-901915c540a8","system_id":"levelo_inurba_marseille","lat":43.29601,"lon":5.38102,"is_reserved":false,"is_disabled":true,"rental_uris":{"android":"levelo://app?vid=1697678c-c8a4-4c47-ade7-901915c540a8","ios":"levelo://app?vid=1697678c-c8a4-4c47-ade7-901915c540a8"},"vehicle_type_id":"4","last_reported":1773237435,"current_range_meters":6800,"station_id":"ce4bgl12rcd13ifvqbo0","pricing_plan_id":"cebpf4jnsgd1na2vs0mg"},{"bike_id":"c218a525-9f9c-4fa7-ade2-984f84feab52","system_id":"levelo_inurba_marseille","lat":43.30918,"lon":5.36856,"is_reserved":false,"is_disabled":false,"rental_uris":{"android":"levelo://app?vid=c218a525-9f9c-4fa7-ade2-984f84feab52","ios":"levelo://app?vid=c218a525-9f9c-4fa7-ade2-984f84feab52"},"vehicle_type_id":"4","last_reported":1773237435,"current_range_meters":38400,"station_id":"ce4bgn92rcd13ifvqbvg","pricing_plan_id":"cebpf4jnsgd1na2vs0mg"},{"bike_id":"9f771103-8db9-4e4d-8970-6580b0d7771b","system_id":"levelo_inurba_marseille","lat":43.30536,"lon":5.36703,"is_reserved":false,"is_disabled":false,"rental_uris":{"android":"levelo://app?vid=9f771103-8db9-4e4d-8970-6580b0d7771b","ios":"levelo://app?vid=9f771103-8db9-4e4d-8970-6580b0d7771b"},"vehicle_type_id":"4","last_reported":1773237435,"current_range_meters":24800,"station_id":"ce4bgrp2rcd13ifvqc9g","pricing_plan_id":"cebpf4jnsgd1na2vs0mg"},{"bike_id":"561ca4be-7967-40e8-9488-f1ed7c14943e","system_id":"levelo_inurba_marseille","lat":43.2901,"lon":5.35605,"is_reserved":false,"is_disabled":false,"rental_uris":{"android":"levelo://app?vid=561ca4be-7967-40e8-9488-f1ed7c14943e","ios":"levelo://app?vid=561ca4be-7967-40e8-9488-f1ed7c14943e"},"vehicle_type_id":"4","last_reported":1773237435,"current_range_meters":16800,"station_id":"ce4bhb92rcd13ifvqen0","pricing_plan_id":"cebpf4jnsgd1na2vs0mg"},{"bike_id":"bc8846b0-d567-493b-8d14-5a421dbe54aa","system_id":"levelo_inurba_marseille","lat":43.29569,"lon":5.37485,"is_reserved":false,"is_disabled":false,"rental_uris":{"android":"levelo://app?vid=bc8846b0-d567-493b-8d14-5a421dbe54aa","ios":"levelo://app?vid=bc8846b0-d567-493b-8d14-5a421dbe54aa"},"vehicle_type_id":"4","last_reported":1773237435,"current_range_meters":24000,"station_id":"ce4bgh92rcd13ifvqb50","pricing_plan_id":"cebpf4jnsgd1na2vs0mg"},{"bike_id":"8f5b92eb-f243-48fe-85aa-4ca28886946a","system_id":"levelo_inurba_marseille","lat":43.24662,"lon":5.38167,"is_reserved":false,"is_disabled":false,"rental_uris":{"android":"levelo://app?vid=8f5b92eb-f243-48fe-85aa-4ca28886946a","ios":"levelo://app?vid=8f5b92eb-f243-48fe-85aa-4ca28886946a"},"vehicle_type_id":"4","last_reported":1773237435,"current_range_meters":16400,"station_id":"ce4bhih2rcd13ifvqfr0","pricing_plan_id":"cebpf4jnsgd1na2vs0mg"},{"bike_id":"52813c27-21ef-4d11-8794-c314eff46cea","system_id":"levelo_inurba_marseille","lat":43.24661,"lon":5.38146,"is_reserved":false,"is_disabled":false,"rental_uris":{"android":"levelo://app?vid=52813c27-21ef-4d11-8794-c314eff46cea","ios":"levelo://app?vid=52813c27-21ef-4d11-8794-c314eff46cea"},"vehicle_type_id":"4","last_reported":1773237435,"current_range_meters":13600,"station_id":"ce4bhih2rcd13ifvqfr0","pricing_plan_id":"cebpf4jnsgd1na2vs0mg"},{"bike_id":"84f24c4f-c2e8-44eb-93b8-496d29da2656","system_id":"levelo_inurba_marseille","lat":43.30879,"lon":5.36841,"is_reserved":false,"is_disabled":false,"rental_uris":{"android":"levelo://app?vid=84f24c4f-c2e8-44eb-93b8-496d29da2656","ios":"levelo://app?vid=84f24c4f-c2e8-44eb-93b8-496d29da2656"},"vehicle_type_id":"4","last_reported":1773237435,"current_range_meters":36400,"station_id":"ce4bgn92rcd13ifvqbvg","pricing_plan_id":"cebpf4jnsgd1na2vs0mg"},{"bike_id":"d8fb0563-4b9c-474d-af91-4151d99113bf","system_id":"levelo_inurba_marseille","lat":43.33153,"lon":5.37695,"is_reserved":false,"is_disabled":false,"rental_uris":{"android":"levelo://app?vid=d8fb0563-4b9c-474d-af91-4151d99113bf","ios":"levelo://app?vid=d8fb0563-4b9c-474d-af91-4151d99113bf"},"vehicle_type_id":"4","last_reported":1773237435,"current_range_meters":32800,"station_id":"st_d46cu089ee8s73dldbu0","pricing_plan_id":"cebpf4jnsgd1na2vs0mg"},{"bike_id":"629a5b04-9225-42cf-b2f9-d31afe3f11aa","system_id":"levelo_inurba_marseille","lat":43.26555,"lon":5.37304,"is_reserved":false,"is_disabled":false,"rental_uris":{"android":"levelo://app?vid=629a5b04-9225-42cf-b2f9-d31afe3f11aa","ios":"levelo://app?vid=629a5b04-9225-42cf-b2f9-d31afe3f11aa"},"vehicle_type_id":"4","last_reported":1773237435,"current_range_meters":39200,"station_id":"ce4bhg12rcd13ifvqf70","pricing_plan_id":"cebpf4jnsgd1na2vs0mg"},{"bike_id":"26a6b2e2-002a-4072-a1a2-b594f4e8b66c","system_id":"levelo_inurba_marseille","lat":43.30879,"lon":5.37342,"is_reserved":false,"is_disabled":false,"rental_uris":{"android":"levelo://app?vid=26a6b2e2-002a-4072-a1a2-b594f4e8b66c","ios":"levelo://app?vid=26a6b2e2-002a-4072-a1a2-b594f4e8b66c"},"vehicle_type_id":"4","last_reported":1773237435,"current_range_meters":30400,"station_id":"","pricing_plan_id":"cebpf4jnsgd1na2vs0mg"},{"bike_id":"c0f412de-40e6-4a94-a5dd-7c358ceb2433","system_id":"levelo_inurba_marseille","lat":43.23192,"lon":5.39967,"is_reserved":false,"is_disabled":false,"rental_uris":{"android":"levelo://app?vid=c0f412de-40e6-4a94-a5dd-7c358ceb2433","ios":"levelo://app?vid=c0f412de-40e6-4a94-a5dd-7c358ceb2433"},"vehicle_type_id":"4","last_reported":1773237435,"current_range_meters":39200,"station_id":"ce4bhn12rcd13ifvqgqg","pricing_plan_id":"cebpf4jnsgd1na2vs0mg"},{"bike_id":"34442958-43b2-4a68-9875-0a9f86e4ffcd","system_id":"levelo_inurba_marseille","lat":43.31061,"lon":5.37149,"is_reserved":false,"is_disabled":false,"rental_uris":{"android":"levelo://app?vid=34442958-43b2-4a68-9875-0a9f86e4ffcd","ios":"levelo://app?vid=34442958-43b2-4a68-9875-0a9f86e4ffcd"},"vehicle_type_id":"4","last_reported":1773237435,"current_range_meters":34800,"station_id":"st_d4kl2rp97mjs73e7tdfg","pricing_plan_id":"cebpf4jnsgd1na2vs0mg"},{"bike_id":"fd7d5543-5a5d-41d6-9fce-f29d16997315","system_id":"levelo_inurba_marseille","lat":43.2495,"lon":5.40504,"is_reserved":false,"is_disabled":false,"rental_uris":{"android":"levelo://app?vid=fd7d5543-5a5d-41d6-9fce-f29d16997315","ios":"levelo://app?vid=fd7d5543-5a5d-41d6-9fce-f29d16997315"},"vehicle_type_id":"4","last_reported":1773237435,"current_range_meters":30800,"station_id":"st_d2ngiaodas8pm72gd1h0","pricing_plan_id":"cebpf4jnsgd1na2vs0mg"},{"bike_id":"231581b3-46e8-4052-85e7-dfb6a3c34fca","system_id":"levelo_inurba_marseille","lat":43.31897,"lon":5.40707,"is_reserved":false,"is_disabled":false,"rental_uris":{"android":"levelo://app?vid=231581b3-46e8-4052-85e7-dfb6a3c34fca","ios":"levelo://app?vid=231581b3-46e8-4052-85e7-dfb6a3c34fca"},"vehicle_type_id":"4","last_reported":1773237435,"current_range_meters":38800,"station_id":"","pricing_plan_id":"cebpf4jnsgd1na2vs0mg"},{"bike_id":"a37a0d29-230e-418c-a265-c71222811efa","system_id":"levelo_inurba_marseille","lat":43.26949,"lon":5.38651,"is_reserved":false,"is_disabled":false,"rental_uris":{"android":"levelo://app?vid=a37a0d29-230e-418c-a265-c71222811efa","ios":"levelo://app?vid=a37a0d29-230e-418c-a265-c71222811efa"},"vehicle_type_id":"4","last_reported":1773237435,"current_range_meters":39200,"station_id":"ce4bhh92rcd13ifvqfh0","pricing_plan_id":"cebpf4jnsgd1na2vs0mg"},{"bike_id":"f46b5aee-9b48-4ec0-8861-80cf0777d963","system_id":"levelo_inurba_marseille","lat":43.29621,"lon":5.37713,"is_reserved":false,"is_disabled":false,"rental_uris":{"android":"levelo://app?vid=f46b5aee-9b48-4ec0-8861-80cf0777d963","ios":"levelo://app?vid=f46b5aee-9b48-4ec0-8861-80cf0777d963"},"vehicle_type_id":"4","last_reported":1773237435,"current_range_meters":16000,"station_id":"ce4bgi92rcd13ifvqb90","pricing_plan_id":"cebpf4jnsgd1na2vs0mg"},{"bike_id":"1ee72bea-0dcf-4c08-a2ea-67b653a699c4","system_id":"levelo_inurba_marseille","lat":43.30544,"lon":5.36516,"is_reserved":false,"is_disabled":false,"rental_uris":{"android":"levelo://app?vid=1ee72bea-0dcf-4c08-a2ea-67b653a699c4","ios":"levelo://app?vid=1ee72bea-0dcf-4c08-a2ea-67b653a699c4"},"vehicle_type_id":"4","last_reported":1773237435,"current_range_meters":11600,"station_id":"ce4bgs12rcd13ifvqcag","pricing_plan_id":"cebpf4jnsgd1na2vs0mg"},{"bike_id":"354b5bda-3949-4498-85b6-eb76538c91b8","system_id":"levelo_inurba_marseille","lat":43.33544,"lon":5.37469,"is_reserved":false,"is_disabled":false,"rental_uris":{"android":"levelo://app?vid=354b5bda-3949-4498-85b6-eb76538c91b8","ios":"levelo://app?vid=354b5bda-3949-4498-85b6-eb76538c91b8"},"vehicle_type_id":"4","last_reported":1773237435,"current_range_meters":32800,"station_id":"st_d46tts09ee8s73dlu43g","pricing_plan_id":"cebpf4jnsgd1na2vs0mg"},{"bike_id":"31eab7aa-d2ff-4d19-8af0-c2c63f0c6b5f","system_id":"levelo_inurba_marseille","lat":43.232,"lon":5.35555,"is_reserved":false,"is_disabled":false,"rental_uris":{"android":"levelo://app?vid=31eab7aa-d2ff-4d19-8af0-c2c63f0c6b5f","ios":"levelo://app?vid=31eab7aa-d2ff-4d19-8af0-c2c63f0c6b5f"},"vehicle_type_id":"4","last_reported":1773237435,"current_range_meters":25200,"station_id":"ce4bhu92rcd13ifvqi70","pricing_plan_id":"cebpf4jnsgd1na2vs0mg"},{"bike_id":"6ed2579b-f5de-4d3b-9ebf-1f39021367ee","system_id":"levelo_inurba_marseille","lat":43.27206,"lon":5.39213,"is_reserved":false,"is_disabled":false,"rental_uris":{"android":"levelo://app?vid=6ed2579b-f5de-4d3b-9ebf-1f39021367ee","ios":"levelo://app?vid=6ed2579b-f5de-4d3b-9ebf-1f39021367ee"},"vehicle_type_id":"4","last_reported":1773237435,"current_range_meters":36800,"station_id":"ce4bhhp2rcd13ifvqfm0","pricing_plan_id":"cebpf4jnsgd1na2vs0mg"},{"bike_id":"dc6f76f8-b5a4-4cdf-8162-fa9c60638688","system_id":"levelo_inurba_marseille","lat":43.2922,"lon":5.35808,"is_reserved":false,"is_disabled":false,"rental_uris":{"android":"levelo://app?vid=dc6f76f8-b5a4-4cdf-8162-fa9c60638688","ios":"levelo://app?vid=dc6f76f8-b5a4-4cdf-8162-fa9c60638688"},"vehicle_type_id":"4","last_reported":1773237435,"current_range_meters":16400,"station_id":"ce4bhb12rcd13ifvqel0","pricing_plan_id":"cebpf4jnsgd1na2vs0mg"},{"bike_id":"358135ca-c3f5-4edc-b039-6456adc8657b","system_id":"levelo_inurba_marseille","lat":43.26664,"lon":5.38271,"is_reserved":false,"is_disabled":false,"rental_uris":{"android":"levelo://app?vid=358135ca-c3f5-4edc-b039-6456adc8657b","ios":"levelo://app?vid=358135ca-c3f5-4edc-b039-6456adc8657b"},"vehicle_type_id":"4","last_reported":1773237435,"current_range_meters":19200,"station_id":"ce4bhg92rcd13ifvqf90","pricing_plan_id":"cebpf4jnsgd1na2vs0mg"},{"bike_id":"5b555774-77f1-42fd-879e-5dc88bd88d77","system_id":"levelo_inurba_marseille","lat":43.269562,"lon":5.386288,"is_reserved":false,"is_disabled":false,"rental_uris":{"android":"levelo://app?vid=5b555774-77f1-42fd-879e-5dc88bd88d77","ios":"levelo://app?vid=5b555774-77f1-42fd-879e-5dc88bd88d77"},"vehicle_type_id":"4","last_reported":1773237435,"current_range_meters":28800,"station_id":"ce4bhh92rcd13ifvqfh0","pricing_plan_id":"cebpf4jnsgd1na2vs0mg"},{"bike_id":"a0aa8461-cd6a-4db7-9d35-4a39cc18dc6b","system_id":"levelo_inurba_marseille","lat":43.30513,"lon":5.36647,"is_reserved":false,"is_disabled":true,"rental_uris":{"android":"levelo://app?vid=a0aa8461-cd6a-4db7-9d35-4a39cc18dc6b","ios":"levelo://app?vid=a0aa8461-cd6a-4db7-9d35-4a39cc18dc6b"},"vehicle_type_id":"4","last_reported":1773237435,"current_range_meters":25600,"station_id":"","pricing_plan_id":"cebpf4jnsgd1na2vs0mg"},