{"last_updated":1684947968,"ttl":30,"version":"2.2","data":{"bikes":[{"bike_id":"a90311e2-22e5-43bb-a86e-8f5fcc309573","system_id":"levelo_inurba_marseille","lat":43.314811,"lon":5.373103,"is_reserved":false,"is_disabled":false,"rental_uris":{"android":"levelo://app?vid=a90311e2-22e5-43bb-a86e-8f5fcc309573","ios":"levelo://app?vid=a90311e2-22e5-43bb-a86e-8f5fcc309573"},"vehicle_type_id":"4","last_reported":1684947968,"current_range_meters":0,"station_id":"ce4bgt12rcd13ifvqcd0","pricing_plan_id":"free"},{"bike_id":"372a8a38-690c-4329-80c7-254303a6702a","system_id":"levelo_inurba_marseille","lat":43.314811,"lon":5.373103,"is_reserved":false,"is_disabled":false,"rental_uris":{"android":"levelo://app?vid=372a8a38-690c-4329-80c7-254303a6702a","ios":"levelo://app?vid=372a8a38-690c-4329-80c7-254303a6702a"},"vehicle_type_id":"4","last_reported":1684947968,"current_range_meters":19200,"station_id":"ce4bgt12rcd13ifvqcd0","pricing_plan_id":"free"},{"bike_id":"688ebb7c-c8fa-48ad-ac31-c85678a17a9a","system_id":"levelo_inurba_marseille","lat":43.308614,"lon":5.372098,"is_reserved":false,"is_disabled":false,"rental_uris":{"android":"levelo://app?vid=688ebb7c-c8fa-48ad-ac31-c85678a17a9a","ios":"levelo://app?vid=688ebb7c-c8fa-48ad-ac31-c85678a17a9a"},"vehicle_type_id":"4","last_reported":1684947968,"current_range_meters":22800,"station_id":"ce4bguh2rcd13ifvqckg","pricing_plan_id":"free"},{"bike_id":"b6faf8b3-2a0c-46a6-b739-d70a593e59ae","system_id":"levelo_inurba_marseille","lat":43.317075,"lon":5.377367,"is_reserved":false,"is_disabled":false,"rental_uris":{"android":"levelo://app?vid=b6faf8b3-2a0c-46a6-b739-d70a593e59ae","ios":"levelo://app?vid=b6faf8b3-2a0c-46a6-b739-d70a593e59ae"},"vehicle_type_id":"4","last_reported":1684947968,"current_range_meters":4800,"station_id":"ce4bgth2rcd13ifvqch0","pricing_plan_id":"free"},{"bike_id":"e0e51ede-c4ac-4630-bc22-0e3c383745d9","system_id":"levelo_inurba_marseille","lat":43.3171,"lon":5.37733,"is_reserved":false,"is_disabled":false,"rental_uris":{"android":"levelo://app?vid=e0e51ede-c4ac-4630-bc22-0e3c383745d9","ios":"levelo://app?vid=e0e51ede-c4ac-4630-bc22-0e3c383745d9"},"vehicle_type_id":"4","last_reported":1684947968,"current_range_meters":22000,"station_id":"ce4bgth2rcd13ifvqch0","pricing_plan_id":"free"},{"bike_id":"68553df9-2b4c-4244-a834-2447f191355a","system_id":"levelo_inurba_marseille","lat":43.317075,"lon":5.377367,"is_reserved":false,"is_disabled":false,"rental_uris":{"android":"levelo://app?vid=68553df9-2b4c-4244-a834-2447f191355a","ios":"levelo://app?vid=68553df9-2b4c-4244-a834-2447f191355a"},"vehicle_type_id":"4","last_reported":1684947968,"current_range_meters":9600,"station_id":"ce4bgth2rcd13ifvqch0","pricing_plan_id":"free"},{"bike_id":"c1e64ba5-f673-404d-a689-e1fb0c714013","system_id":"levelo_inurba_marseille","lat":43.317075,"lon":5.377367,"is_reserved":false,"is_disabled":false,"rental_uris":{"android":"levelo://app?vid=c1e64ba5-f673-404d-a689-e1fb0c714013","ios":"levelo://app?vid=c1e64ba5-f673-404d-a689-e1fb0c714013"},"vehicle_type_id":"4","last_reported":1684947968,"current_range_meters":28800,"station_id":"ce4bgth2rcd13ifvqch0","pricing_plan_id":"free"},{"bike_id":"16e7282a-4eed-47c3-83b3-d7e0dee6c006","system_id":"levelo_inurba_marseille","lat":43.31705,"lon":5.37771,"is_reserved":false,"is_disabled":false,"rental_uris":{"android":"levelo://app?vid=16e7282a-4eed-47c3-83b3-d7e0dee6c006","ios":"levelo://app?vid=16e7282a-4eed-47c3-83b3-d7e0dee6c006"},"vehicle_type_id":"4","last_reported":1684947968,"current_range_meters":25600,"station_id":"ce4bgth2rcd13ifvqch0","pricing_plan_id":"free"},{"bike_id":"2372b2d1-d59a-4078-a8d7-f70f42d8a2c3","system_id":"levelo_inurba_marseille","lat":43.30301,"lon":5.36882,"is_reserved":false,"is_disabled":false,"rental_uris":{"android":"levelo://app?vid=2372b2d1-d59a-4078-a8d7-f70f42d8a2c3","ios":"levelo://app?vid=2372b2d1-d59a-4078-a8d7-f70f42d8a2c3"},"vehicle_type_id":"4","last_reported":1684947968,"current_range_meters":4800,"station_id":"ce4bgqh2rcd13ifvqc5g","pricing_plan_id":"free"},{"bike_id":"56aea466-0c35-47d7-8fea-495c51573bf5","system_id":"levelo_inurba_marseille","lat":43.30806,"lon":5.38167,"is_reserved":false,"is_disabled":false,"rental_uris":{"android":"levelo://app?vid=56aea466-0c35-47d7-8fea-495c51573bf5","ios":"levelo://app?vid=56aea466-0c35-47d7-8fea-495c51573bf5"},"vehicle_type_id":"4","last_reported":1684947968,"current_range_meters":0,"station_id":"ce4bgt12rcd13ifvqce0","pricing_plan_id":"free"},{"bike_id":"4d49198d-0c21-455c-8552-caece06db062","system_id":"levelo_inurba_marseille","lat":43.3014,"lon":5.37411,"is_reserved":false,"is_disabled":false,"rental_uris":{"android":"levelo://app?vid=4d49198d-0c21-455c-8552-caece06db062","ios":"levelo://app?vid=4d49198d-0c21-455c-8552-caece06db062"},"vehicle_type_id":"4","last_reported":1684947968,"current_range_meters":7200,"station_id":"","pricing_plan_id":"free"},{"bike_id":"ca6734a0-a0ee-4445-bc44-dc7854a1d3b0","system_id":"levelo_inurba_marseille","lat":43.319935,"lon":5.381699,"is_reserved":false,"is_disabled":false,"rental_uris":{"android":"levelo://app?vid=ca6734a0-a0ee-4445-bc44-dc7854a1d3b0","ios":"levelo://app?vid=ca6734a0-a0ee-4445-bc44-dc7854a1d3b0"},"vehicle_type_id":"4","last_reported":1684947968,"current_range_meters":14000,"station_id":"ce4bhr12rcd13ifvqhpg","pricing_plan_id":"free"},{"bike_id":"e5571f58-adb6-49b7-8c86-2d757ae8e1a0","system_id":"levelo_inurba_marseille","lat":43.319935,"lon":5.381699,"is_reserved":false,"is_disabled":false,"rental_uris":{"android":"levelo://app?vid=e5571f58-adb6-49b7-8c86-2d757ae8e1a0","ios":"levelo://app?vid=e5571f58-adb6-49b7-8c86-2d757ae8e1a0"},"vehicle_type_id":"4","last_reported":1684947968,"current_range_meters":26000,"station_id":"ce4bhr12rcd13ifvqhpg","pricing_plan_id":"free"},{"bike_id":"7c23ccfd-a335-42ff-a6a8-1227ff41620e","system_id":"levelo_inurba_marseille","lat":43.313571,"lon":5.384829,"is_reserved":false,"is_disabled":false,"rental_uris":{"android":"levelo://app?vid=7c23ccfd-a335-42ff-a6a8-1227ff41620e","ios":"levelo://app?vid=7c23ccfd-a335-42ff-a6a8-1227ff41620e"},"vehicle_type_id":"4","last_reported":1684947968,"current_range_meters":6800,"station_id":"ce4bgt92rcd13ifvqcf0","pricing_plan_id":"free"},{"bike_id":"dc47f961-9e77-4ce7-84e0-976d4fa7555e","system_id":"levelo_inurba_marseille","lat":43.29933,"lon":5.36544,"is_reserved":false,"is_disabled":false,"rental_uris":{"android":"levelo://app?vid=dc47f961-9e77-4ce7-84e0-976d4fa7555e","ios":"levelo://app?vid=dc47f961-9e77-4ce7-84e0-976d4fa7555e"},"vehicle_type_id":"4","last_reported":1684947968,"current_range_meters":14800,"station_id":"","pricing_plan_id":"free"},{"bike_id":"ac51d98a-9a0f-47bf-a129-e246c158be92","system_id":"levelo_inurba_marseille","lat":43.289184,"lon":5.366408,"is_reserved":false,"is_disabled":false,"rental_uris":{"android":"levelo://app?vid=ac51d98a-9a0f-47bf-a129-e246c158be92","ios":"levelo://app?vid=ac51d98a-9a0f-47bf-a129-e246c158be92"},"vehicle_type_id":"4","last_reported":1684947968,"current_range_meters":16400,"station_id":"ce4bhap2rcd13ifvqek0","pricing_plan_id":"free"},{"bike_id":"a72cd3ab-e87f-4964-a87c-25d1d90e9843","system_id":"levelo_inurba_marseille","lat":43.328371,"lon":5.366912,"is_reserved":false,"is_disabled":false,"rental_uris":{"android":"levelo://app?vid=a72cd3ab-e87f-4964-a87c-25d1d90e9843","ios":"levelo://app?vid=a72cd3ab-e87f-4964-a87c-25d1d90e9843"},"vehicle_type_id":"4","last_reported":1684947968,"current_range_meters":22400,"station_id":"ce4bhs92rcd13ifvqi0g","pricing_plan_id":"free"},{"bike_id":"35901c7f-e5e4-4029-b5a9-18278de222ca","system_id":"levelo_inurba_marseille","lat":43.32824,"lon":5.36684,"is_reserved":false,"is_disabled":false,"rental_uris":{"android":"levelo://app?vid=35901c7f-e5e4-4029-b5a9-18278de222ca","ios":"levelo://app?vid=35901c7f-e5e4-4029-b5a9-18278de222ca"},"vehicle_type_id":"4","last_reported":1684947968,"current_range_meters":18400,"station_id":"ce4bhs92rcd13ifvqi0g","pricing_plan_id":"free"},{"bike_id":"fad50468-bff6-4eb0-bc39-08e7203bec60","system_id":"levelo_inurba_marseille","lat":43.328371,"lon":5.366912,"is_reserved":false,"is_disabled":false,"rental_uris":{"android":"levelo://app?vid=fad50468-bff6-4eb0-bc39-08e7203bec60","ios":"levelo://app?vid=fad50468-bff6-4eb0-bc39-08e7203bec60"},"vehicle_type_id":"4","last_reported":1684947968,"current_range_meters":20800,"station_id":"ce4bhs92rcd13ifvqi0g","pricing_plan_id":"free"},{"bike_id":"e5415a7d-d573-4d2c-b68e-9e5973358ec5","system_id":"levelo_inurba_marseille","lat":43.328284,"lon":5.367011,"is_reserved":false,"is_disabled":false,"rental_uris":{"android":"levelo://app?vid=e5415a7d-d573-4d2c-b68e-9e5973358ec5","ios":"levelo://app?vid=e5415a7d-d573-4d2c-b68e-9e5973358ec5"},"vehicle_type_id":"4","last_reported":1684947968,"current_range_meters":15600,"station_id":"ce4bhs92rcd13ifvqi0g","pricing_plan_id":"free"},{"bike_id":"83f3f744-359d-493d-a816-556264b34e9c","system_id":"levelo_inurba_marseille","lat":43.328371,"lon":5.366912,"is_reserved":false,"is_disabled":false,"rental_uris":{"android":"levelo://app?vid=83f3f744-359d-493d-a816-556264b34e9c","ios":"levelo://app?vid=83f3f744-359d-493d-a816-556264b34e9c"},"vehicle_type_id":"4","last_reported":1684947968,"current_range_meters":10400,"station_id":"ce4bhs92rcd13ifvqi0g","pricing_plan_id":"free"},{"bike_id":"e7ef1aca-2dd3-482c-945f-ebaedbd97a95","system_id":"levelo_inurba_marseille","lat":43.328371,"lon":5.366909,"is_reserved":false,"is_disabled":false,"rental_uris":{"android":"levelo://app?vid=e7ef1aca-2dd3-482c-945f-ebaedbd97a95","ios":"levelo://app?vid=e7ef1aca-2dd3-482c-945f-ebaedbd97a95"},"vehicle_type_id":"4","last_reported":1684947968,"current_range_meters":4800,"station_id":"ce4bhs92rcd13ifvqi0g","pricing_plan_id":"free"},{"bike_id":"07d0f5f8-594a-4c99-bd5f-efd86e16327f","system_id":"levelo_inurba_marseille","lat":43.328371,"lon":5.366912,"is_reserved":false,"is_disabled":false,"rental_uris":{"android":"levelo://app?vid=07d0f5f8-594a-4c99-bd5f-efd86e16327f","ios":"levelo://app?vid=07d0f5f8-594a-4c99-bd5f-efd86e16327f"},"vehicle_type_id":"4","last_reported":1684947968,"current_range_meters":15600,"station_id":"ce4bhs92rcd13ifvqi0g","pricing_plan_id":"free"},{"bike_id":"8333c9d2-b3dd-42a7-aba7-ef1274181b0e","system_id":"levelo_inurba_marseille","lat":43.29709,"lon":5.36607,"is_reserved":false,"is_disabled":false,"rental_uris":{"android":"levelo://app?vid=8333c9d2-b3dd-42a7-aba7-ef1274181b0e","ios":"levelo://app?vid=8333c9d2-b3dd-42a7-aba7-ef1274181b0e"},"vehicle_type_id":"4","last_reported":1684947968,"current_range_meters":23600,"station_id":"","pricing_plan_id":"free"},{"bike_id":"dfb52382-7a42-4067-a8ab-8343d1e0d18f","system_id":"levelo_inurba_marseille","lat":43.305364,"lon":5.384119,"is_reserved":false,"is_disabled":false,"rental_uris":{"android":"levelo://app?vid=dfb52382-7a42-4067-a8ab-8343d1e0d18f","ios":"levelo://app?vid=dfb52382-7a42-4067-a8ab-8343d1e0d18f"},"vehicle_type_id":"4","last_reported":1684947968,"current_range_meters":26000,"station_id":"ce4bgg92rcd13ifvqb30","pricing_plan_id":"free"},{"bike_id":"3ed33090-eba0-45f8-aee3-3b6214c01ba8","system_id":"levelo_inurba_marseille","lat":43.299397,"lon":5.381264,"is_reserved":false,"is_disabled":false,"rental_uris":{"android":"levelo://app?vid=3ed33090-eba0-45f8-aee3-3b6214c01ba8","ios":"levelo://app?vid=3ed33090-eba0-45f8-aee3-3b6214c01ba8"},"vehicle_type_id":"4","last_reported":1684947968,"current_range_meters":19200,"station_id":"","pricing_plan_id":"free"},{"bike_id":"7187ccfd-8c7a-4cc5-91e7-248a68a678e4","system_id":"levelo_inurba_marseille","lat":43.3168,"lon":5.3896,"is_reserved":false,"is_disabled":false,"rental_uris":{"android":"levelo://app?vid=7187ccfd-8c7a-4cc5-91e7-248a68a678e4","ios":"levelo://app?vid=7187ccfd-8c7a-4cc5-91e7-248a68a678e4"},"vehicle_type_id":"4","last_reported":1684947968,"current_range_meters":5200,"station_id":"","pricing_plan_id":"free"},{"bike_id":"dc088b35-dc2b-4c31-979e-94ee94ada8c6","system_id":"levelo_inurba_marseille","lat":43.296935,"lon":5.376544,"is_reserved":false,"is_disabled":false,"rental_uris":{"android":"levelo://app?vid=dc088b35-dc2b-4c31-979e-94ee94ada8c6","ios":"levelo://app?vid=dc088b35-dc2b-4c31-979e-94ee94ada8c6"},"vehicle_type_id":"4","last_reported":1684947968,"current_range_meters":6000,"station_id":"ce4bgkh2rcd13ifvqbl0","pricing_plan_id":"free"},{"bike_id":"5eb36ead-9c48-45f8-8205-c2fbeab916f6","system_id":"levelo_inurba_marseille","lat":43.309589,"lon":5.390258,"is_reserved":false,"is_disabled":false,"rental_uris":{"android":"levelo://app?vid=5eb36ead-9c48-45f8-8205-c2fbeab916f6","ios":"levelo://app?vid=5eb36ead-9c48-45f8-8205-c2fbeab916f6"},"vehicle_type_id":"4","last_reported":1684947968,"current_range_meters":5200,"station_id":"ce4bgup2rcd13ifvqco0","pricing_plan_id":"free"},{"bike_id":"481c55a4-6c90-4e38-a941-55a3398df56a","system_id":"levelo_inurba_marseille","lat":43.317557,"lon":5.390173,"is_reserved":false,"is_disabled":false,"rental_uris":{"android":"levelo://app?vid=481c55a4-6c90-4e38-a941-55a3398df56a","ios":"levelo://app?vid=481c55a4-6c90-4e38-a941-55a3398df56a"},"vehicle_type_id":"4","last_reported":1684947968,"current_range_meters":23200,"station_id":"ce4bhqp2rcd13ifvqhng","pricing_plan_id":"free"},{"bike_id":"c2cfe1f5-b76d-4dfe-a783-66f277204fe3","system_id":"levelo_inurba_marseille","lat":43.317557,"lon":5.390173,"is_reserved":false,"is_disabled":false,"rental_uris":{"android":"levelo://app?vid=c2cfe1f5-b76d-4dfe-a783-66f277204fe3","ios":"levelo://app?vid=c2cfe1f5-b76d-4dfe-a783-66f277204fe3"},"vehicle_type_id":"4","last_reported":1684947968,"current_range_meters":19200,"station_id":"ce4bhqp2rcd13ifvqhng","pricing_plan_id":"free"},{"bike_id":"54df68d7-4268-4738-93bb-10a2f87deb07","system_id":"levelo_inurba_marseille","lat":43.317557,"lon":5.390173,"is_reserved":false,"is_disabled":false,"rental_uris":{"android":"levelo://app?vid=54df68d7-4268-4738-93bb-10a2f87deb07","ios":"levelo://app?vid=54df68d7-4268-4738-93bb-10a2f87deb07"},"vehicle_type_id":"4","last_reported":1684947968,"current_range_meters":8000,"station_id":"ce4bhqp2rcd13ifvqhng","pricing_plan_id":"free"},{"bike_id":"bbf63458-7ad7-4d0a-8e9f-4cd2be55a81e","system_id":"levelo_inurba_marseille","lat":43.298037,"lon":5.381066,"is_reserved":false,"is_disabled":false,"rental_uris":{"android":"levelo://app?vid=bbf63458-7ad7-4d0a-8e9f-4cd2be55a81e","ios":"levelo://app?vid=bbf63458-7ad7-4d0a-8e9f-4cd2be55a81e"},"vehicle_type_id":"4","last_reported":1684947968,"current_range_meters":0,"station_id":"ce4bgip2rcd13ifvqbb0","pricing_plan_id":"free"},{"bike_id":"97cf97be-dae2-4532-9f5f-76d1b87b10c1","system_id":"levelo_inurba_marseille","lat":43.295748,"lon":5.37522,"is_reserved":false,"is_disabled":false,"rental_uris":{"android":"levelo://app?vid=97cf97be-dae2-4532-9f5f-76d1b87b10c1","ios":"levelo://app?vid=97cf97be-dae2-4532-9f5f-76d1b87b10c1"},"vehicle_type_id":"4","last_reported":1684947968,"current_range_meters":17200,"station_id":"ce4bgh92rcd13ifvqb50","pricing_plan_id":"free"},{"bike_id":"8f26dbfb-e7d1-4584-b322-f6c4d797d187","system_id":"levelo_inurba_marseille","lat":43.297912,"lon":5.381155,"is_reserved":false,"is_disabled":false,"rental_uris":{"android":"levelo://app?vid=8f26dbfb-e7d1-4584-b322-f6c4d797d187","ios":"levelo://app?vid=8f26dbfb-e7d1-4584-b322-f6c4d797d187"},"vehicle_type_id":"4","last_reported":1684947968,"current_range_meters":25600,"station_id":"ce4bgip2rcd13ifvqbb0","pricing_plan_id":"free"},{"bike_id":"5012c581-0418-4735-b2fa-595c8e09b833","system_id":"levelo_inurba_marseille","lat":43.304274,"lon":5.388873,"is_reserved":false,"is_disabled":false,"rental_uris":{"android":"levelo://app?vid=5012c581-0418-4735-b2fa-595c8e09b833","ios":"levelo://app?vid=5012c581-0418-4735-b2fa-595c8e09b833"},"vehicle_type_id":"4","last_reported":1684947968,"current_range_meters":15200,"station_id":"ce4bgk12rcd13ifvqbi0","pricing_plan_id":"free"},{"bike_id":"57794093-b074-4ae2-a352-f7b68e16763f","system_id":"levelo_inurba_marseille","lat":43.296263,"lon":5.377094,"is_reserved":false,"is_disabled":false,"rental_uris":{"android":"levelo://app?vid=57794093-b074-4ae2-a352-f7b68e16763f","ios":"levelo://app?vid=57794093-b074-4ae2-a352-f7b68e16763f"},"vehicle_type_id":"4","last_reported":1684947968,"current_range_meters":15200,"station_id":"ce4bgi92rcd13ifvqb90","pricing_plan_id":"free"},{"bike_id":"9055129f-64aa-4801-8260-ebfe6e7b1591","system_id":"levelo_inurba_marseille","lat":43.296277,"lon":5.377108,"is_reserved":false,"is_disabled":false,"rental_uris":{"android":"levelo://app?vid=9055129f-64aa-4801-8260-ebfe6e7b1591","ios":"levelo://app?vid=9055129f-64aa-4801-8260-ebfe6e7b1591"},"vehicle_type_id":"4","last_reported":1684947968,"current_range_meters":13600,"station_id":"ce4bgi92rcd13ifvqb90","pricing_plan_id":"free"},{"bike_id":"b6bad518-6f3c-48aa-8322-5dadeed6e600","system_id":"levelo_inurba_marseille","lat":43.296263,"lon":5.377094,"is_reserved":false,"is_disabled":false,"rental_uris":{"android":"levelo://app?vid=b6bad518-6f3c-48aa-8322-5dadeed6e600","ios":"levelo://app?vid=b6bad518-6f3c-48aa-8322-5dadeed6e600"},"vehicle_type_id":"4","last_reported":1684947968,"current_range_meters":0,"station_id":"ce4bgi92rcd13ifvqb90","pricing_plan_id":"free"},{"bike_id":"2ed22eab-9615-4789-a0b1-b5ceda052320","system_id":"levelo_inurba_marseille","lat":43.299717,"lon":5.384845,"is_reserved":false,"is_disabled":false,"rental_uris":{"android":"levelo://app?vid=2ed22eab-9615-4789-a0b1-b5ceda052320","ios":"levelo://app?vid=2ed22eab-9615-4789-a0b1-b5ceda052320"},"vehicle_type_id":"4","last_reported":1684947968,"current_range_meters":22000,"station_id":"ce4bgj92rcd13ifvqbd0","pricing_plan_id":"free"},{"bike_id":"4693aee4-b0e8-4eec-be29-18a4c848b735","system_id":"levelo_inurba_marseille","lat":43.29963,"lon":5.38492,"is_reserved":false,"is_disabled":false,"rental_uris":{"android":"levelo://app?vid=4693aee4-b0e8-4eec-be29-18a4c848b735","ios":"levelo://app?vid=4693aee4-b0e8-4eec-be29-18a4c848b735"},"vehicle_type_id":"4","last_reported":1684947968,"current_range_meters":7600,"station_id":"ce4bgj92rcd13ifvqbd0","pricing_plan_id":"free"},{"bike_id":"9c5bfb5c-f6a7-40c5-8abe-8acb9d584e6a","system_id":"levelo_inurba_marseille","lat":43.292311,"lon":5.360731,"is_reserved":false,"is_disabled":false,"rental_uris":{"android":"levelo://app?vid=9c5bfb5c-f6a7-40c5-8abe-8acb9d584e6a","ios":"levelo://app?vid=9c5bfb5c-f6a7-40c5-8abe-8acb9d584e6a"},"vehicle_type_id":"4","last_reported":1684947968,"current_range_meters":24000,"station_id":"ce4bhbh2rcd13ifvqeqg","pricing_plan_id":"free"},{"bike_id":"0ffa3a73-8660-4919-9071-a02331675b0e","system_id":"levelo_inurba_marseille","lat":43.29601,"lon":5.381084,"is_reserved":false,"is_disabled":false,"rental_uris":{"android":"levelo://app?vid=0ffa3a73-8660-4919-9071-a02331675b0e","ios":"levelo://app?vid=0ffa3a73-8660-4919-9071-a02331675b0e"},"vehicle_type_id":"4","last_reported":1684947968,"current_range_meters":6400,"station_id":"ce4bgl12rcd13ifvqbo0","pricing_plan_id":"free"},{"bike_id":"3467e675-839d-4cf8-be2a-1a1d58716c62","system_id":"levelo_inurba_marseille","lat":43.295279,"lon":5.375048,"is_reserved":false,"is_disabled":false,"rental_uris":{"android":"levelo://app?vid=3467e675-839d-4cf8-be2a-1a1d58716c62","ios":"levelo://app?vid=3467e675-839d-4cf8-be2a-1a1d58716c62"},"vehicle_type_id":"4","last_reported":1684947968,"current_range_meters":27200,"station_id":"ce4bgkp2rcd13ifvqbmg","pricing_plan_id":"free"},{"bike_id":"e8645d3c-a62e-4ac4-9831-34c8aeb85188","system_id":"levelo_inurba_marseille","lat":43.2936,"lon":5.37835,"is_reserved":false,"is_disabled":false,"rental_uris":{"android":"levelo://app?vid=e8645d3c-a62e-4ac4-9831-34c8aeb85188","ios":"levelo://app?vid=e8645d3c-a62e-4ac4-9831-34c8aeb85188"},"vehicle_type_id":"4","last_reported":1684947968,"current_range_meters":22800,"station_id":"ce4bgjh2rcd13ifvqbf0","pricing_plan_id":"free"},{"bike_id":"ced73f61-346c-436f-ab45-5d66079f676e","system_id":"levelo_inurba_marseille","lat":43.293636,"lon":5.378411,"is_reserved":false,"is_disabled":false,"rental_uris":{"android":"levelo://app?vid=ced73f61-346c-436f-ab45-5d66079f676e","ios":"levelo://app?vid=ced73f61-346c-436f-ab45-5d66079f676e"},"vehicle_type_id":"4","last_reported":1684947968,"current_range_meters":21600,"station_id":"ce4bgjh2rcd13ifvqbf0","pricing_plan_id":"free"},{"bike_id":"42772ffa-a904-467f-aefc-2216db0cdb00","system_id":"levelo_inurba_marseille","lat":43.292311,"lon":5.360731,"is_reserved":false,"is_disabled":false,"rental_uris":{"android":"levelo://app?vid=42772ffa-a904-467f-aefc-2216db0cdb00","ios":"levelo://app?vid=42772ffa-a904-467f-aefc-2216db0cdb00"},"vehicle_type_id":"4","last_reported":1684947968,"current_range_meters":0,"station_id":"ce4bhbh2rcd13ifvqeqg","pricing_plan_id":"free"},{"bike_id":"2259b5ae-a7d3-43f2-a715-abad0cf4f19c","system_id":"levelo_inurba_marseille","lat":43.292311,"lon":5.360731,"is_reserved":false,"is_disabled":false,"rental_uris":{"android":"levelo://app?vid=2259b5ae-a7d3-43f2-a715-abad0cf4f19c","ios":"levelo://app?vid=2259b5ae-a7d3-43f2-a715-abad0cf4f19c"},"vehicle_type_id":"4","last_reported":1684947968,"current_range_meters":21600,"station_id":"ce4bhbh2rcd13ifvqeqg","pricing_plan_id":"free"},{"bike_id":"54517d2c-705e-4144-9e09-e677e153b76f","system_id":"levelo_inurba_marseille","lat":43.292311,"lon":5.360731,"is_reserved":false,"is_disabled":false,"rental_uris":{"android":"levelo://app?vid=54517d2c-705e-4144-9e09-e677e153b76f","ios":"levelo://app?vid=54517d2c-705e-4144-9e09-e677e153b76f"},"vehicle_type_id":"4","last_reported":1684947968,"current_range_meters":1200,"station_id":"ce4bhbh2rcd13ifvqeqg","pricing_plan_id":"free"},{"bike_id":"93cb4bc3-3abe-43ed-af9b-7b881db4d8e2","system_id":"levelo_inurba_marseille","lat":43.300852,"lon":5.390859,"is_reserved":false,"is_disabled":false,"rental_uris":{"android":"levelo://app?vid=93cb4bc3-3abe-43ed-af9b-7b881db4d8e2","ios":"levelo://app?vid=93cb4bc3-3abe-43ed-af9b-7b881db4d8e2"},"vehicle_type_id":"4","last_reported":1684947968,"current_range_meters":0,"station_id":"ce4bh192rcd13ifvqdb0","pricing_plan_id":"free"},{"bike_id":"5803fec1-ab28-45eb-98ae-5ef47b09a5cc","system_id":"levelo_inurba_marseille","lat":43.30094,"lon":5.39095,"is_reserved":false,"is_disabled":false,"rental_uris":{"android":"levelo://app?vid=5803fec1-ab28-45eb-98ae-5ef47b09a5cc","ios":"levelo://app?vid=5803fec1-ab28-45eb-98ae-5ef47b09a5cc"},"vehicle_type_id":"4","last_reported":1684947968,"current_range_meters":0,"station_id":"ce4bh192rcd13ifvqdb0","pricing_plan_id":"free"},{"bike_id":"c8adb02d-3b3c-41cc-acdf-f426a652b72d","system_id":"levelo_inurba_marseille","lat":43.292663,"lon":5.376394,"is_reserved":false,"is_disabled":false,"rental_uris":{"android":"levelo://app?vid=c8adb02d-3b3c-41cc-acdf-f426a652b72d","ios":"levelo://app?vid=c8adb02d-3b3c-41cc-acdf-f426a652b72d"},"vehicle_type_id":"4","last_reported":1684947968,"current_range_meters":20000,"station_id":"ce4bgi12rcd13ifvqb80","pricing_plan_id":"free"},{"bike_id":"18f93b84-e8e9-4a7a-86bc-2cc2224d96c7","system_id":"levelo_inurba_marseille","lat":43.292659,"lon":5.37631,"is_reserved":false,"is_disabled":false,"rental_uris":{"android":"levelo://app?vid=18f93b84-e8e9-4a7a-86bc-2cc2224d96c7","ios":"levelo://app?vid=18f93b84-e8e9-4a7a-86bc-2cc2224d96c7"},"vehicle_type_id":"4","last_reported":1684947968,"current_range_meters":3200,"station_id":"","pricing_plan_id":"free"},{"bike_id":"96af5ba5-504f-4e48-9f95-1f85401d8d5d","system_id":"levelo_inurba_marseille","lat":43.298764,"lon":5.388973,"is_reserved":false,"is_disabled":false,"rental_uris":{"android":"levelo://app?vid=96af5ba5-504f-4e48-9f95-1f85401d8d5d","ios":"levelo://app?vid=96af5ba5-504f-4e48-9f95-1f85401d8d5d"},"vehicle_type_id":"4","last_reported":1684947968,"current_range_meters":8400,"station_id":"ce4bh392rcd13ifvqdl0","pricing_plan_id":"free"},{"bike_id":"8bcadbed-d000-4f20-b8df-b6e4279633cb","system_id":"levelo_inurba_marseille","lat":43.291675,"lon":5.371583,"is_reserved":false,"is_disabled":false,"rental_uris":{"android":"levelo://app?vid=8bcadbed-d000-4f20-b8df-b6e4279633cb","ios":"levelo://app?vid=8bcadbed-d000-4f20-b8df-b6e4279633cb"},"vehicle_type_id":"4","last_reported":1684947968,"current_range_meters":8000,"station_id":"ce4bha92rcd13ifvqeh0","pricing_plan_id":"free"},{"bike_id":"b842a883-baab-4aaa-9c22-726d37235f77","system_id":"levelo_inurba_marseille","lat":43.32765,"lon":5.38813,"is_reserved":false,"is_disabled":false,"rental_uris":{"android":"levelo://app?vid=b842a883-baab-4aaa-9c22-726d37235f77","ios":"levelo://app?vid=b842a883-baab-4aaa-9c22-726d37235f77"},"vehicle_type_id":"4","last_reported":1684947968,"current_range_meters":9600,"station_id":"","pricing_plan_id":"free"},{"bike_id":"32510dd8-eb97-4ca6-a636-e77ccfb94f7d","system_id":"levelo_inurba_marseille","lat":43.291994,"lon":5.357886,"is_reserved":false,"is_disabled":false,"rental_uris":{"android":"levelo://app?vid=32510dd8-eb97-4ca6-a636-e77ccfb94f7d","ios":"levelo://app?vid=32510dd8-eb97-4ca6-a636-e77ccfb94f7d"},"vehicle_type_id":"4","last_reported":1684947968,"current_range_meters":31200,"station_id":"ce4bhb12rcd13ifvqel0","pricing_plan_id":"free"},{"bike_id":"949566c6-dde2-4e8b-aee1-18db17fc174e","system_id":"levelo_inurba_marseille","lat":43.291994,"lon":5.357886,"is_reserved":false,"is_disabled":false,"rental_uris":{"android":"levelo://app?vid=949566c6-dde2-4e8b-aee1-18db17fc174e","ios":"levelo://app?vid=949566c6-dde2-4e8b-aee1-18db17fc174e"},"vehicle_type_id":"4","last_reported":1684947968,"current_range_meters":23200,"station_id":"ce4bhb12rcd13ifvqel0","pricing_plan_id":"free"},{"bike_id":"b7dc8e89-3981-4ab7-afd2-3b69403ee522","system_id":"levelo_inurba_marseille","lat":43.313291,"lon":5.396838,"is_reserved":false,"is_disabled":false,"rental_uris":{"android":"levelo://app?vid=b7dc8e89-3981-4ab7-afd2-3b69403ee522","ios":"levelo://app?vid=b7dc8e89-3981-4ab7-afd2-3b69403ee522"},"vehicle_type_id":"4","last_reported":1684947968,"current_range_meters":17600,"station_id":"ce4bgvp2rcd13ifvqcu0","pricing_plan_id":"free"},{"bike_id":"5afb875f-309c-48b4-aac4-19a2f4e8983f","system_id":"levelo_inurba_marseille","lat":43.313291,"lon":5.396838,"is_reserved":false,"is_disabled":false,"rental_uris":{"android":"levelo://app?vid=5afb875f-309c-48b4-aac4-19a2f4e8983f","ios":"levelo://app?vid=5afb875f-309c-48b4-aac4-19a2f4e8983f"},"vehicle_type_id":"4","last_reported":1684947968,"current_range_meters":26400,"station_id":"ce4bgvp2rcd13ifvqcu0","pricing_plan_id":"free"},{"bike_id":"07955834-0802-4708-9847-138d2e792e2e","system_id":"levelo_inurba_marseille","lat":43.308956,"lon":5.396575,"is_reserved":false,"is_disabled":false,"rental_uris":{"android":"levelo://app?vid=07955834-0802-4708-9847-138d2e792e2e","ios":"levelo://app?vid=07955834-0802-4708-9847-138d2e792e2e"},"vehicle_type_id":"4","last_reported":1684947968,"current_range_meters":0,"station_id":"","pricing_plan_id":"free"},{"bike_id":"31ad45cc-cd55-4fa4-8819-4f1a25288b6a","system_id":"levelo_inurba_marseille","lat":43.313291,"lon":5.396838,"is_reserved":false,"is_disabled":false,"rental_uris":{"android":"levelo://app?vid=31ad45cc-cd55-4fa4-8819-4f1a25288b6a","ios":"levelo://app?vid=31ad45cc-cd55-4fa4-8819-4f1a25288b6a"},"vehicle_type_id":"4","last_reported":1684947968,"current_range_meters":9200,"station_id":"ce4bgvp2rcd13ifvqcu0","pricing_plan_id":"free"},{"bike_id":"ce2230b3-5873-4e72-a718-1670e15c2050","system_id":"levelo_inurba_marseille","lat":43.309038,"lon":5.396546,"is_reserved":false,"is_disabled":false,"rental_uris":{"android":"levelo://app?vid=ce2230b3-5873-4e72-a718-1670e15c2050","ios":"levelo://app?vid=ce2230b3-5873-4e72-a718-1670e15c2050"},"vehicle_type_id":"4","last_reported":1684947968,"current_range_meters":6400,"station_id":"ce4bh012rcd13ifvqcv0","pricing_plan_id":"free"},{"bike_id":"40b68277-6f5f-4aac-8216-847d33e7dfd3","system_id":"levelo_inurba_marseille","lat":43.309038,"lon":5.396546,"is_reserved":false,"is_disabled":false,"rental_uris":{"android":"levelo://app?vid=40b68277-6f5f-4aac-8216-847d33e7dfd3","ios":"levelo://app?vid=40b68277-6f5f-4aac-8216-847d33e7dfd3"},"vehicle_type_id":"4","last_reported":1684947968,"current_range_meters":15200,"station_id":"ce4bh012rcd13ifvqcv0","pricing_plan_id":"free"},{"bike_id":"6d89fe34-d719-40f6-b5d4-74de5b856c67","system_id":"levelo_inurba_marseille","lat":43.29529,"lon":5.385581,"is_reserved":false,"is_disabled":false,"rental_uris":{"android":"levelo://app?vid=6d89fe34-d719-40f6-b5d4-74de5b856c67","ios":"levelo://app?vid=6d89fe34-d719-40f6-b5d4-74de5b856c67"},"vehicle_type_id":"4","last_reported":1684947968,"current_range_meters":22800,"station_id":"ce4bgih2rcd13ifvqba0","pricing_plan_id":"free"},{"bike_id":"e69bdab0-9224-4778-931f-a5155aced08c","system_id":"levelo_inurba_marseille","lat":43.29529,"lon":5.385581,"is_reserved":false,"is_disabled":false,"rental_uris":{"android":"levelo://app?vid=e69bdab0-9224-4778-931f-a5155aced08c","ios":"levelo://app?vid=e69bdab0-9224-4778-931f-a5155aced08c"},"vehicle_type_id":"4","last_reported":1684947968,"current_range_meters":12000,"station_id":"ce4bgih2rcd13ifvqba0","pricing_plan_id":"free"},{"bike_id":"22455e5b-dcd3-47b3-9352-f2b4542c7bc6","system_id":"levelo_inurba_marseille","lat":43.29529,"lon":5.385581,"is_reserved":false,"is_disabled":false,"rental_uris":{"android":"levelo://app?vid=22455e5b-dcd3-47b3-9352-f2b4542c7bc6","ios":"levelo://app?vid=22455e5b-dcd3-47b3-9352-f2b4542c7bc6"},"vehicle_type_id":"4","last_reported":1684947968,"current_range_meters":26400,"station_id":"ce4bgih2rcd13ifvqba0","pricing_plan_id":"free"},{"bike_id":"3ea4a9c0-367f-4995-b680-4900789cca47","system_id":"levelo_inurba_marseille","lat":43.291671,"lon":5.371575,"is_reserved":false,"is_disabled":false,"rental_uris":{"android":"levelo://app?vid=3ea4a9c0-367f-4995-b680-4900789cca47","ios":"levelo://app?vid=3ea4a9c0-367f-4995-b680-4900789cca47"},"vehicle_type_id":"4","last_reported":1684947968,"current_range_meters":22000,"station_id":"ce4bha92rcd13ifvqeh0","pricing_plan_id":"free"},{"bike_id":"750f1c3a-1065-429c-8844-41df085cc1d1","system_id":"levelo_inurba_marseille","lat":43.291671,"lon":5.371575,"is_reserved":false,"is_disabled":false,"rental_uris":{"android":"levelo://app?vid=750f1c3a-1065-429c-8844-41df085cc1d1","ios":"levelo://app?vid=750f1c3a-1065-429c-8844-41df085cc1d1"},"vehicle_type_id":"4","last_reported":1684947968,"current_range_meters":21200,"station_id":"ce4bha92rcd13ifvqeh0","pricing_plan_id":"free"},{"bike_id":"454ac116-cdd7-45ed-8228-4fdc17b650b9","system_id":"levelo_inurba_marseille","lat":43.302008,"lon":5.394694,"is_reserved":false,"is_disabled":false,"rental_uris":{"android":"levelo://app?vid=454ac116-cdd7-45ed-8228-4fdc17b650b9","ios":"levelo://app?vid=454ac116-cdd7-45ed-8228-4fdc17b650b9"},"vehicle_type_id":"4","last_reported":1684947968,"current_range_meters":0,"station_id":"ce4bh0p2rcd13ifvqd70","pricing_plan_id":"free"},{"bike_id":"0ab38684-e522-41ae-af08-8a5d3f12627a","system_id":"levelo_inurba_marseille","lat":43.294162,"lon":5.386292,"is_reserved":false,"is_disabled":false,"rental_uris":{"android":"levelo://app?vid=0ab38684-e522-41ae-af08-8a5d3f12627a","ios":"levelo://app?vid=0ab38684-e522-41ae-af08-8a5d3f12627a"},"vehicle_type_id":"4","last_reported":1684947968,"current_range_meters":13600,"station_id":"ce4bh2h2rcd13ifvqdh0","pricing_plan_id":"free"},{"bike_id":"9a064e2d-3181-4415-82bc-24125bfe56df","system_id":"levelo_inurba_marseille","lat":43.294153,"lon":5.386305,"is_reserved":false,"is_disabled":false,"rental_uris":{"android":"levelo://app?vid=9a064e2d-3181-4415-82bc-24125bfe56df","ios":"levelo://app?vid=9a064e2d-3181-4415-82bc-24125bfe56df"},"vehicle_type_id":"4","last_reported":1684947968,"current_range_meters":24800,"station_id":"ce4bh2h2rcd13ifvqdh0","pricing_plan_id":"free"},{"bike_id":"c45e7155-2956-440e-a19f-fd25bcffaea9","system_id":"levelo_inurba_marseille","lat":43.294162,"lon":5.386292,"is_reserved":false,"is_disabled":false,"rental_uris":{"android":"levelo://app?vid=c45e7155-2956-440e-a19f-fd25bcffaea9","ios":"levelo://app?vid=c45e7155-2956-440e-a19f-fd25bcffaea9"},"vehicle_type_id":"4","last_reported":1684947968,"current_range_meters":10000,"station_id":"ce4bh2h2rcd13ifvqdh0","pricing_plan_id":"free"},{"bike_id":"a19fcd00-1b2d-4c8e-8cf8-7d26da0918ad","system_id":"levelo_inurba_marseille","lat":43.294162,"lon":5.386292,"is_reserved":false,"is_disabled":false,"rental_uris":{"android":"levelo://app?vid=a19fcd00-1b2d-4c8e-8cf8-7d26da0918ad","ios":"levelo://app?vid=a19fcd00-1b2d-4c8e-8cf8-7d26da0918ad"},"vehicle_type_id":"4","last_reported":1684947968,"current_range_meters":3200,"station_id":"ce4bh2h2rcd13ifvqdh0","pricing_plan_id":"free"},{"bike_id":"3fa401c0-8d35-4ac9-8302-1fbe9dc2ce01","system_id":"levelo_inurba_marseille","lat":43.294162,"lon":5.386292,"is_reserved":false,"is_disabled":false,"rental_uris":{"android":"levelo://app?vid=3fa401c0-8d35-4ac9-8302-1fbe9dc2ce01","ios":"levelo://app?vid=3fa401c0-8d35-4ac9-8302-1fbe9dc2ce01"},"vehicle_type_id":"4","last_reported":1684947968,"current_range_meters":13600,"station_id":"ce4bh2h2rcd13ifvqdh0","pricing_plan_id":"free"},{"bike_id":"d94e21b6-c1bc-4537-89b9-f0b490296924","system_id":"levelo_inurba_marseille","lat":43.29411,"lon":5.3862,"is_reserved":false,"is_disabled":false,"rental_uris":{"android":"levelo://app?vid=d94e21b6-c1bc-4537-89b9-f0b490296924","ios":"levelo://app?vid=d94e21b6-c1bc-4537-89b9-f0b490296924"},"vehicle_type_id":"4","last_reported":1684947968,"current_range_meters":6000,"station_id":"ce4bh2h2rcd13ifvqdh0","pricing_plan_id":"free"},{"bike_id":"5b132f6e-7086-4f2d-8ed0-b1400e2958e8","system_id":"levelo_inurba_marseille","lat":43.294162,"lon":5.386292,"is_reserved":false,"is_disabled":false,"rental_uris":{"android":"levelo://app?vid=5b132f6e-7086-4f2d-8ed0-b1400e2958e8","ios":"levelo://app?vid=5b132f6e-7086-4f2d-8ed0-b1400e2958e8"},"vehicle_type_id":"4","last_reported":1684947968,"current_range_meters":10000,"station_id":"ce4bh2h2rcd13ifvqdh0","pricing_plan_id":"free"},{"bike_id":"88881fbd-25e4-4aef-ab02-666e35baf557","system_id":"levelo_inurba_marseille","lat":43.289184,"lon":5.366408,"is_reserved":false,"is_disabled":false,"rental_uris":{"android":"levelo://app?vid=88881fbd-25e4-4aef-ab02-666e35baf557","ios":"levelo://app?vid=88881fbd-25e4-4aef-ab02-666e35baf557"},"vehicle_type_id":"4","last_reported":1684947968,"current_range_meters":25200,"station_id":"ce4bhap2rcd13ifvqek0","pricing_plan_id":"free"},{"bike_id":"227006d1-84da-489e-b6d7-2e31ed294967","system_id":"levelo_inurba_marseille","lat":43.289468,"lon":5.363719,"is_reserved":false,"is_disabled":false,"rental_uris":{"android":"levelo://app?vid=227006d1-84da-489e-b6d7-2e31ed294967","ios":"levelo://app?vid=227006d1-84da-489e-b6d7-2e31ed294967"},"vehicle_type_id":"4","last_reported":1684947968,"current_range_meters":21200,"station_id":"ce4bhc92rcd13ifvqetg","pricing_plan_id":"free"},{"bike_id":"46696ed2-d580-4384-8ea3-fdf53de0c143","system_id":"levelo_inurba_marseille","lat":43.289184,"lon":5.366408,"is_reserved":false,"is_disabled":false,"rental_uris":{"android":"levelo://app?vid=46696ed2-d580-4384-8ea3-fdf53de0c143","ios":"levelo://app?vid=46696ed2-d580-4384-8ea3-fdf53de0c143"},"vehicle_type_id":"4","last_reported":1684947968,"current_range_meters":400,"station_id":"ce4bhap2rcd13ifvqek0","pricing_plan_id":"free"},{"bike_id":"42131e8d-3241-4aed-8ed4-9164fce5a9f5","system_id":"levelo_inurba_marseille","lat":43.28933,"lon":5.3663,"is_reserved":false,"is_disabled":false,"rental_uris":{"android":"levelo://app?vid=42131e8d-3241-4aed-8ed4-9164fce5a9f5","ios":"levelo://app?vid=42131e8d-3241-4aed-8ed4-9164fce5a9f5"},"vehicle_type_id":"4","last_reported":1684947968,"current_range_meters":31600,"station_id":"ce4bhap2rcd13ifvqek0","pricing_plan_id":"free"},{"bike_id":"5274a845-8ff6-4ad4-bc58-4dbcacd18dbe","system_id":"levelo_inurba_marseille","lat":43.289468,"lon":5.363719,"is_reserved":false,"is_disabled":false,"rental_uris":{"android":"levelo://app?vid=5274a845-8ff6-4ad4-bc58-4dbcacd18dbe","ios":"levelo://app?vid=5274a845-8ff6-4ad4-bc58-4dbcacd18dbe"},"vehicle_type_id":"4","last_reported":1684947968,"current_range_meters":17200,"station_id":"ce4bhc92rcd13ifvqetg","pricing_plan_id":"free"},{"bike_id":"5c06f3d9-3c64-44c4-bd57-21850afed209","system_id":"levelo_inurba_marseille","lat":43.292644,"lon":5.384257,"is_reserved":false,"is_disabled":false,"rental_uris":{"android":"levelo://app?vid=5c06f3d9-3c64-44c4-bd57-21850afed209","ios":"levelo://app?vid=5c06f3d9-3c64-44c4-bd57-21850afed209"},"vehicle_type_id":"4","last_reported":1684947968,"current_range_meters":19200,"station_id":"ce4bh692rcd13ifvqea0","pricing_plan_id":"free"},{"bike_id":"44c09ba2-632a-4a0a-b1fb-2f09b6af310f","system_id":"levelo_inurba_marseille","lat":43.29264,"lon":5.38442,"is_reserved":false,"is_disabled":false,"rental_uris":{"android":"levelo://app?vid=44c09ba2-632a-4a0a-b1fb-2f09b6af310f","ios":"levelo://app?vid=44c09ba2-632a-4a0a-b1fb-2f09b6af310f"},"vehicle_type_id":"4","last_reported":1684947968,"current_range_meters":9200,"station_id":"ce4bh692rcd13ifvqea0","pricing_plan_id":"free"},{"bike_id":"c43b9415-a2e8-4cc5-9a90-55f37e666461","system_id":"levelo_inurba_marseille","lat":43.29262,"lon":5.38441,"is_reserved":false,"is_disabled":false,"rental_uris":{"android":"levelo://app?vid=c43b9415-a2e8-4cc5-9a90-55f37e666461","ios":"levelo://app?vid=c43b9415-a2e8-4cc5-9a90-55f37e666461"},"vehicle_type_id":"4","last_reported":1684947968,"current_range_meters":14000,"station_id":"ce4bh692rcd13ifvqea0","pricing_plan_id":"free"},{"bike_id":"451b6941-9da6-41c9-9b46-e38c33205415","system_id":"levelo_inurba_marseille","lat":43.29255,"lon":5.38431,"is_reserved":false,"is_disabled":false,"rental_uris":{"android":"levelo://app?vid=451b6941-9da6-41c9-9b46-e38c33205415","ios":"levelo://app?vid=451b6941-9da6-41c9-9b46-e38c33205415"},"vehicle_type_id":"4","last_reported":1684947968,"current_range_meters":25600,"station_id":"ce4bh692rcd13ifvqea0","pricing_plan_id":"free"},{"bike_id":"d6159e40-50bf-4629-a8a7-6cfdda24171b","system_id":"levelo_inurba_marseille","lat":43.29261,"lon":5.38447,"is_reserved":false,"is_disabled":false,"rental_uris":{"android":"levelo://app?vid=d6159e40-50bf-4629-a8a7-6cfdda24171b","ios":"levelo://app?vid=d6159e40-50bf-4629-a8a7-6cfdda24171b"},"vehicle_type_id":"4","last_reported":1684947968,"current_range_meters":0,"station_id":"ce4bh692rcd13ifvqea0","pricing_plan_id":"free"},{"bike_id":"90721398-4b8a-4e9e-a977-3f32368e12c0","system_id":"levelo_inurba_marseille","lat":43.29254,"lon":5.38444,"is_reserved":false,"is_disabled":false,"rental_uris":{"android":"levelo://app?vid=90721398-4b8a-4e9e-a977-3f32368e12c0","ios":"levelo://app?vid=90721398-4b8a-4e9e-a977-3f32368e12c0"},"vehicle_type_id":"4","last_reported":1684947968,"current_range_meters":13200,"station_id":"ce4bh692rcd13ifvqea0","pricing_plan_id":"free"},{"bike_id":"501e66d7-9a0c-4712-8a3e-279c2550fab3","system_id":"levelo_inurba_marseille","lat":43.33041,"lon":5.38921,"is_reserved":false,"is_disabled":false,"rental_uris":{"android":"levelo://app?vid=501e66d7-9a0c-4712-8a3e-279c2550fab3","ios":"levelo://app?vid=501e66d7-9a0c-4712-8a3e-279c2550fab3"},"vehicle_type_id":"4","last_reported":1684947968,"current_range_meters":30800,"station_id":"ce4bhr92rcd13ifvqhrg","pricing_plan_id":"free"},{"bike_id":"2ee208d5-10f4-4d17-a5cc-474e4c5b2676","system_id":"levelo_inurba_marseille","lat":43.33042,"lon":5.38923,"is_reserved":false,"is_disabled":false,"rental_uris":{"android":"levelo://app?vid=2ee208d5-10f4-4d17-a5cc-474e4c5b2676","ios":"levelo://app?vid=2ee208d5-10f4-4d17-a5cc-474e4c5b2676"},"vehicle_type_id":"4","last_reported":1684947968,"current_range_meters":9600,"station_id":"ce4bhr92rcd13ifvqhrg","pricing_plan_id":"free"},{"bike_id":"2fc2c6b3-1be8-4eda-8376-caa8cb2396aa","system_id":"levelo_inurba_marseille","lat":43.3305,"lon":5.38915,"is_reserved":false,"is_disabled":false,"rental_uris":{"android":"levelo://app?vid=2fc2c6b3-1be8-4eda-8376-caa8cb2396aa","ios":"levelo://app?vid=2fc2c6b3-1be8-4eda-8376-caa8cb2396aa"},"vehicle_type_id":"4","last_reported":1684947968,"current_range_meters":17600,"station_id":"ce4bhr92rcd13ifvqhrg","pricing_plan_id":"free"},{"bike_id":"79d410b5-e714-41eb-ad81-80d28990c152","system_id":"levelo_inurba_marseille","lat":43.33046,"lon":5.38922,"is_reserved":false,"is_disabled":false,"rental_uris":{"android":"levelo://app?vid=79d410b5-e714-41eb-ad81-80d28990c152","ios":"levelo://app?vid=79d410b5-e714-41eb-ad81-80d28990c152"},"vehicle_type_id":"4","last_reported":1684947968,"current_range_meters":30800,"station_id":"ce4bhr92rcd13ifvqhrg","pricing_plan_id":"free"},{"bike_id":"31ecf159-3547-4fe7-8624-9b22c5dd5498","system_id":"levelo_inurba_marseille","lat":43.290103,"lon":5.356114,"is_reserved":false,"is_disabled":false,"rental_uris":{"android":"levelo://app?vid=31ecf159-3547-4fe7-8624-9b22c5dd5498","ios":"levelo://app?vid=31ecf159-3547-4fe7-8624-9b22c5dd5498"},"vehicle_type_id":"4","last_reported":1684947968,"current_range_meters":1600,"station_id":"ce4bhb92rcd13ifvqen0","pricing_plan_id":"free"},{"bike_id":"076edc52-d082-4450-94f4-1a4182e65d4f","system_id":"levelo_inurba_marseille","lat":43.290932,"lon":5.381277,"is_reserved":false,"is_disabled":false,"rental_uris":{"android":"levelo://app?vid=076edc52-d082-4450-94f4-1a4182e65d4f","ios":"levelo://app?vid=076edc52-d082-4450-94f4-1a4182e65d4f"},"vehicle_type_id":"4","last_reported":1684947968,"current_range_meters":400,"station_id":"ce4bh512rcd13ifvqe2g","pricing_plan_id":"free"},{"bike_id":"35baf8de-eca0-474f-869c-f6855290a9c3","system_id":"levelo_inurba_marseille","lat":43.290995,"lon":5.381361,"is_reserved":false,"is_disabled":false,"rental_uris":{"android":"levelo://app?vid=35baf8de-eca0-474f-869c-f6855290a9c3","ios":"levelo://app?vid=35baf8de-eca0-474f-869c-f6855290a9c3"},"vehicle_type_id":"4","last_reported":1684947968,"current_range_meters":0,"station_id":"ce4bh512rcd13ifvqe2g","pricing_plan_id":"free"},{"bike_id":"abdc696e-965b-4103-923b-d11c5fcf232d","system_id":"levelo_inurba_marseille","lat":43.297814,"lon":5.393513,"is_reserved":false,"is_disabled":false,"rental_uris":{"android":"levelo://app?vid=abdc696e-965b-4103-923b-d11c5fcf232d","ios":"levelo://app?vid=abdc696e-965b-4103-923b-d11c5fcf232d"},"vehicle_type_id":"4","last_reported":1684947968,"current_range_meters":19600,"station_id":"chh1huq6cuj3fo74tm60","pricing_plan_id":"free"},{"bike_id":"7df4f53e-988b-4544-baaa-2350deb74ed8","system_id":"levelo_inurba_marseille","lat":43.295169,"lon":5.390426,"is_reserved":false,"is_disabled":false,"rental_uris":{"android":"levelo://app?vid=7df4f53e-988b-4544-baaa-2350deb74ed8","ios":"levelo://app?vid=7df4f53e-988b-4544-baaa-2350deb74ed8"},"vehicle_type_id":"4","last_reported":1684947968,"current_range_meters":0,"station_id":"ce4bh3p2rcd13ifvqdp0","pricing_plan_id":"free"},{"bike_id":"3bda98fe-12d0-4f1b-a1ad-d2d55fbd02b8","system_id":"levelo_inurba_marseille","lat":43.28856,"lon":5.358371,"is_reserved":false,"is_disabled":false,"rental_uris":{"android":"levelo://app?vid=3bda98fe-12d0-4f1b-a1ad-d2d55fbd02b8","ios":"levelo://app?vid=3bda98fe-12d0-4f1b-a1ad-d2d55fbd02b8"},"vehicle_type_id":"4","last_reported":1684947968,"current_range_meters":2800,"station_id":"ce4bhb12rcd13ifvqem0","pricing_plan_id":"free"},{"bike_id":"d3f0b408-dc74-4349-9798-178d2536570b","system_id":"levelo_inurba_marseille","lat":43.290094,"lon":5.381264,"is_reserved":false,"is_disabled":false,"rental_uris":{"android":"levelo://app?vid=d3f0b408-dc74-4349-9798-178d2536570b","ios":"levelo://app?vid=d3f0b408-dc74-4349-9798-178d2536570b"},"vehicle_type_id":"4","last_reported":1684947968,"current_range_meters":400,"station_id":"ce4bh4p2rcd13ifvqe1g","pricing_plan_id":"free"},{"bike_id":"868ef87d-4735-4eec-8652-eee397602ee7","system_id":"levelo_inurba_marseille","lat":43.28856,"lon":5.358371,"is_reserved":false,"is_disabled":false,"rental_uris":{"android":"levelo://app?vid=868ef87d-4735-4eec-8652-eee397602ee7","ios":"levelo://app?vid=868ef87d-4735-4eec-8652-eee397602ee7"},"vehicle_type_id":"4","last_reported":1684947968,"current_range_meters":6400,"station_id":"ce4bhb12rcd13ifvqem0","pricing_plan_id":"free"},{"bike_id":"548d1fd6-17d0-4645-9c6b-34856e6746b9","system_id":"levelo_inurba_marseille","lat":43.28856,"lon":5.358371,"is_reserved":false,"is_disabled":false,"rental_uris":{"android":"levelo://app?vid=548d1fd6-17d0-4645-9c6b-34856e6746b9","ios":"levelo://app?vid=548d1fd6-17d0-4645-9c6b-34856e6746b9"},"vehicle_type_id":"4","last_reported":1684947968,"current_range_meters":3200,"station_id":"ce4bhb12rcd13ifvqem0","pricing_plan_id":"free"},{"bike_id":"283c9de8-733f-4744-a46e-74f3b41d7d42","system_id":"levelo_inurba_marseille","lat":43.28856,"lon":5.358371,"is_reserved":false,"is_disabled":false,"rental_uris":{"android":"levelo://app?vid=283c9de8-733f-4744-a46e-74f3b41d7d42","ios":"levelo://app?vid=283c9de8-733f-4744-a46e-74f3b41d7d42"},"vehicle_type_id":"4","last_reported":1684947968,"current_range_meters":16800,"station_id":"ce4bhb12rcd13ifvqem0","pricing_plan_id":"free"},{"bike_id":"40b58590-091a-4add-9f25-2c62b7c16693","system_id":"levelo_inurba_marseille","lat":43.33747,"lon":5.37438,"is_reserved":false,"is_disabled":false,"rental_uris":{"android":"levelo://app?vid=40b58590-091a-4add-9f25-2c62b7c16693","ios":"levelo://app?vid=40b58590-091a-4add-9f25-2c62b7c16693"},"vehicle_type_id":"4","last_reported":1684947968,"current_range_meters":30000,"station_id":"","pricing_plan_id":"free"},{"bike_id":"deccdead-3a19-4eb1-a04e-30061fe6dc26","system_id":"levelo_inurba_marseille","lat":43.33754,"lon":5.37447,"is_reserved":false,"is_disabled":false,"rental_uris":{"android":"levelo://app?vid=deccdead-3a19-4eb1-a04e-30061fe6dc26","ios":"levelo://app?vid=deccdead-3a19-4eb1-a04e-30061fe6dc26"},"vehicle_type_id":"4","last_reported":1684947968,"current_range_meters":24000,"station_id":"","pricing_plan_id":"free"},{"bike_id":"b5fd9918-f4b8-4618-bcb3-ec74ff85bc47","system_id":"levelo_inurba_marseille","lat":43.33761,"lon":5.37455,"is_reserved":false,"is_disabled":false,"rental_uris":{"android":"levelo://app?vid=b5fd9918-f4b8-4618-bcb3-ec74ff85bc47","ios":"levelo://app?vid=b5fd9918-f4b8-4618-bcb3-ec74ff85bc47"},"vehicle_type_id":"4","last_reported":1684947968,"current_range_meters":26000,"station_id":"","pricing_plan_id":"free"},{"bike_id":"154cb1eb-e8ef-4344-91cf-935882db7b5f","system_id":"levelo_inurba_marseille","lat":43.33772,"lon":5.37503,"is_reserved":false,"is_disabled":false,"rental_uris":{"android":"levelo://app?vid=154cb1eb-e8ef-4344-91cf-935882db7b5f","ios":"levelo://app?vid=154cb1eb-e8ef-4344-91cf-935882db7b5f"},"vehicle_type_id":"4","last_reported":1684947968,"current_range_meters":30400,"station_id":"","pricing_plan_id":"free"},{"bike_id":"f7679e77-bd33-4993-8973-83829661d46d","system_id":"levelo_inurba_marseille","lat":43.301117,"lon":5.398795,"is_reserved":false,"is_disabled":false,"rental_uris":{"android":"levelo://app?vid=f7679e77-bd33-4993-8973-83829661d46d","ios":"levelo://app?vid=f7679e77-bd33-4993-8973-83829661d46d"},"vehicle_type_id":"4","last_reported":1684947968,"current_range_meters":18400,"station_id":"ce4bh0h2rcd13ifvqd40","pricing_plan_id":"free"},{"bike_id":"b622f945-b9e9-4c07-9cd7-04b4f4550390","system_id":"levelo_inurba_marseille","lat":43.301117,"lon":5.398795,"is_reserved":false,"is_disabled":false,"rental_uris":{"android":"levelo://app?vid=b622f945-b9e9-4c07-9cd7-04b4f4550390","ios":"levelo://app?vid=b622f945-b9e9-4c07-9cd7-04b4f4550390"},"vehicle_type_id":"4","last_reported":1684947968,"current_range_meters":18400,"station_id":"ce4bh0h2rcd13ifvqd40","pricing_plan_id":"free"},{"bike_id":"8bf05c14-da3c-4eba-a333-b4c491ccf44e","system_id":"levelo_inurba_marseille","lat":43.301117,"lon":5.398795,"is_reserved":false,"is_disabled":false,"rental_uris":{"android":"levelo://app?vid=8bf05c14-da3c-4eba-a333-b4c491ccf44e","ios":"levelo://app?vid=8bf05c14-da3c-4eba-a333-b4c491ccf44e"},"vehicle_type_id":"4","last_reported":1684947968,"current_range_meters":22800,"station_id":"ce4bh0h2rcd13ifvqd40","pricing_plan_id":"free"},{"bike_id":"6f039c3a-a4f7-4c2a-a20b-689a1f3e743a","system_id":"levelo_inurba_marseille","lat":43.30133,"lon":5.39869,"is_reserved":false,"is_disabled":false,"rental_uris":{"android":"levelo://app?vid=6f039c3a-a4f7-4c2a-a20b-689a1f3e743a","ios":"levelo://app?vid=6f039c3a-a4f7-4c2a-a20b-689a1f3e743a"},"vehicle_type_id":"4","last_reported":1684947968,"current_range_meters":12800,"station_id":"ce4bh0h2rcd13ifvqd40","pricing_plan_id":"free"},{"bike_id":"d67391b2-9616-443e-b8cf-eeb4b1c48a37","system_id":"levelo_inurba_marseille","lat":43.30137,"lon":5.39884,"is_reserved":false,"is_disabled":false,"rental_uris":{"android":"levelo://app?vid=d67391b2-9616-443e-b8cf-eeb4b1c48a37","ios":"levelo://app?vid=d67391b2-9616-443e-b8cf-eeb4b1c48a37"},"vehicle_type_id":"4","last_reported":1684947968,"current_range_meters":27200,"station_id":"","pricing_plan_id":"free"},{"bike_id":"123621fb-6c15-4df2-915d-88cc0203612d","system_id":"levelo_inurba_marseille","lat":43.30431,"lon":5.40088,"is_reserved":false,"is_disabled":false,"rental_uris":{"android":"levelo://app?vid=123621fb-6c15-4df2-915d-88cc0203612d","ios":"levelo://app?vid=123621fb-6c15-4df2-915d-88cc0203612d"},"vehicle_type_id":"4","last_reported":1684947968,"current_range_meters":13600,"station_id":"","pricing_plan_id":"free"},{"bike_id":"1385e885-58eb-4a29-8aef-8457e21c4ff3","system_id":"levelo_inurba_marseille","lat":43.298681,"lon":5.397225,"is_reserved":false,"is_disabled":false,"rental_uris":{"android":"levelo://app?vid=1385e885-58eb-4a29-8aef-8457e21c4ff3","ios":"levelo://app?vid=1385e885-58eb-4a29-8aef-8457e21c4ff3"},"vehicle_type_id":"4","last_reported":1684947968,"current_range_meters":10400,"station_id":"ce4bh0h2rcd13ifvqd50","pricing_plan_id":"free"},{"bike_id":"8c124c7c-81f4-4a89-900a-233184b0bba5","system_id":"levelo_inurba_marseille","lat":43.286591,"lon":5.363346,"is_reserved":false,"is_disabled":false,"rental_uris":{"android":"levelo://app?vid=8c124c7c-81f4-4a89-900a-233184b0bba5","ios":"levelo://app?vid=8c124c7c-81f4-4a89-900a-233184b0bba5"},"vehicle_type_id":"4","last_reported":1684947968,"current_range_meters":18000,"station_id":"ce4bhah2rcd13ifvqej0","pricing_plan_id":"free"},{"bike_id":"670162fc-ccb5-4ebd-85d5-158a1668ef8e","system_id":"levelo_inurba_marseille","lat":43.295196,"lon":5.39397,"is_reserved":false,"is_disabled":false,"rental_uris":{"android":"levelo://app?vid=670162fc-ccb5-4ebd-85d5-158a1668ef8e","ios":"levelo://app?vid=670162fc-ccb5-4ebd-85d5-158a1668ef8e"},"vehicle_type_id":"4","last_reported":1684947968,"current_range_meters":21200,"station_id":"ce4bh292rcd13ifvqdf0","pricing_plan_id":"free"},{"bike_id":"14d9a509-70fc-488d-9e97-165dc5e07bc8","system_id":"levelo_inurba_marseille","lat":43.295196,"lon":5.39397,"is_reserved":false,"is_disabled":false,"rental_uris":{"android":"levelo://app?vid=14d9a509-70fc-488d-9e97-165dc5e07bc8","ios":"levelo://app?vid=14d9a509-70fc-488d-9e97-165dc5e07bc8"},"vehicle_type_id":"4","last_reported":1684947968,"current_range_meters":28800,"station_id":"ce4bh292rcd13ifvqdf0","pricing_plan_id":"free"},{"bike_id":"a960a54a-9eeb-48a8-b918-592d75f827ff","system_id":"levelo_inurba_marseille","lat":43.29514,"lon":5.39404,"is_reserved":false,"is_disabled":false,"rental_uris":{"android":"levelo://app?vid=a960a54a-9eeb-48a8-b918-592d75f827ff","ios":"levelo://app?vid=a960a54a-9eeb-48a8-b918-592d75f827ff"},"vehicle_type_id":"4","last_reported":1684947968,"current_range_meters":23600,"station_id":"ce4bh292rcd13ifvqdf0","pricing_plan_id":"free"},{"bike_id":"13ae784a-0fd3-4cf8-b112-0fc7944cb76e","system_id":"levelo_inurba_marseille","lat":43.302759,"lon":5.400793,"is_reserved":false,"is_disabled":false,"rental_uris":{"android":"levelo://app?vid=13ae784a-0fd3-4cf8-b112-0fc7944cb76e","ios":"levelo://app?vid=13ae784a-0fd3-4cf8-b112-0fc7944cb76e"},"vehicle_type_id":"4","last_reported":1684947968,"current_range_meters":14000,"station_id":"ce4bgvh2rcd13ifvqcs0","pricing_plan_id":"free"},{"bike_id":"ac891235-b421-4e5c-8c8d-34da5ae189e9","system_id":"levelo_inurba_marseille","lat":43.302759,"lon":5.400793,"is_reserved":false,"is_disabled":false,"rental_uris":{"android":"levelo://app?vid=ac891235-b421-4e5c-8c8d-34da5ae189e9","ios":"levelo://app?vid=ac891235-b421-4e5c-8c8d-34da5ae189e9"},"vehicle_type_id":"4","last_reported":1684947968,"current_range_meters":12400,"station_id":"ce4bgvh2rcd13ifvqcs0","pricing_plan_id":"free"},{"bike_id":"e5954e20-432b-422b-a69b-3a003c08acea","system_id":"levelo_inurba_marseille","lat":43.290336,"lon":5.386425,"is_reserved":false,"is_disabled":false,"rental_uris":{"android":"levelo://app?vid=e5954e20-432b-422b-a69b-3a003c08acea","ios":"levelo://app?vid=e5954e20-432b-422b-a69b-3a003c08acea"},"vehicle_type_id":"4","last_reported":1684947968,"current_range_meters":1200,"station_id":"ce4bh4p2rcd13ifvqe0g","pricing_plan_id":"free"},{"bike_id":"5733da62-e872-45a3-b8bc-ba4dd03d5f5d","system_id":"levelo_inurba_marseille","lat":43.29025,"lon":5.38637,"is_reserved":false,"is_disabled":false,"rental_uris":{"android":"levelo://app?vid=5733da62-e872-45a3-b8bc-ba4dd03d5f5d","ios":"levelo://app?vid=5733da62-e872-45a3-b8bc-ba4dd03d5f5d"},"vehicle_type_id":"4","last_reported":1684947968,"current_range_meters":17600,"station_id":"ce4bh4p2rcd13ifvqe0g","pricing_plan_id":"free"},{"bike_id":"f5bf5e96-520e-49cf-9b08-94fa2ddd1e19","system_id":"levelo_inurba_marseille","lat":43.290336,"lon":5.386425,"is_reserved":false,"is_disabled":false,"rental_uris":{"android":"levelo://app?vid=f5bf5e96-520e-49cf-9b08-94fa2ddd1e19","ios":"levelo://app?vid=f5bf5e96-520e-49cf-9b08-94fa2ddd1e19"},"vehicle_type_id":"4","last_reported":1684947968,"current_range_meters":7200,"station_id":"ce4bh4p2rcd13ifvqe0g","pricing_plan_id":"free"},{"bike_id":"ece7d790-caa1-4c89-9e5f-dcedb7891bf4","system_id":"levelo_inurba_marseille","lat":43.30267,"lon":5.40079,"is_reserved":false,"is_disabled":false,"rental_uris":{"android":"levelo://app?vid=ece7d790-caa1-4c89-9e5f-dcedb7891bf4","ios":"levelo://app?vid=ece7d790-caa1-4c89-9e5f-dcedb7891bf4"},"vehicle_type_id":"4","last_reported":1684947968,"current_range_meters":21600,"station_id":"ce4bgvh2rcd13ifvqcs0","pricing_plan_id":"free"},{"bike_id":"e66afad5-61d2-4e09-b87e-6a97b85bc626","system_id":"levelo_inurba_marseille","lat":43.30247,"lon":5.4007,"is_reserved":false,"is_disabled":false,"rental_uris":{"android":"levelo://app?vid=e66afad5-61d2-4e09-b87e-6a97b85bc626","ios":"levelo://app?vid=e66afad5-61d2-4e09-b87e-6a97b85bc626"},"vehicle_type_id":"4","last_reported":1684947968,"current_range_meters":0,"station_id":"","pricing_plan_id":"free"},{"bike_id":"bd393303-0c11-4102-b792-86f9bcada7c2","system_id":"levelo_inurba_marseille","lat":43.286039,"lon":5.370681,"is_reserved":false,"is_disabled":false,"rental_uris":{"android":"levelo://app?vid=bd393303-0c11-4102-b792-86f9bcada7c2","ios":"levelo://app?vid=bd393303-0c11-4102-b792-86f9bcada7c2"},"vehicle_type_id":"4","last_reported":1684947968,"current_range_meters":19200,"station_id":"ce4bht12rcd13ifvqi60","pricing_plan_id":"free"},{"bike_id":"bd5dc608-405e-435a-bd5f-1ca275cc9269","system_id":"levelo_inurba_marseille","lat":43.286039,"lon":5.370679,"is_reserved":false,"is_disabled":false,"rental_uris":{"android":"levelo://app?vid=bd5dc608-405e-435a-bd5f-1ca275cc9269","ios":"levelo://app?vid=bd5dc608-405e-435a-bd5f-1ca275cc9269"},"vehicle_type_id":"4","last_reported":1684947968,"current_range_meters":16000,"station_id":"ce4bht12rcd13ifvqi60","pricing_plan_id":"free"},{"bike_id":"fdbf2b19-1602-4b07-925e-2622e35101aa","system_id":"levelo_inurba_marseille","lat":43.286039,"lon":5.370679,"is_reserved":false,"is_disabled":false,"rental_uris":{"android":"levelo://app?vid=fdbf2b19-1602-4b07-925e-2622e35101aa","ios":"levelo://app?vid=fdbf2b19-1602-4b07-925e-2622e35101aa"},"vehicle_type_id":"4","last_reported":1684947968,"current_range_meters":10800,"station_id":"ce4bht12rcd13ifvqi60","pricing_plan_id":"free"},{"bike_id":"37fd9491-07f7-4ed1-a57e-2f93d38f2b95","system_id":"levelo_inurba_marseille","lat":43.287184,"lon":5.37937,"is_reserved":false,"is_disabled":false,"rental_uris":{"android":"levelo://app?vid=37fd9491-07f7-4ed1-a57e-2f93d38f2b95","ios":"levelo://app?vid=37fd9491-07f7-4ed1-a57e-2f93d38f2b95"},"vehicle_type_id":"4","last_reported":1684947968,"current_range_meters":0,"station_id":"ce4bh9p2rcd13ifvqec0","pricing_plan_id":"free"},{"bike_id":"71163dc9-bb09-41e5-9d8d-df804b53c296","system_id":"levelo_inurba_marseille","lat":43.287184,"lon":5.37937,"is_reserved":false,"is_disabled":false,"rental_uris":{"android":"levelo://app?vid=71163dc9-bb09-41e5-9d8d-df804b53c296","ios":"levelo://app?vid=71163dc9-bb09-41e5-9d8d-df804b53c296"},"vehicle_type_id":"4","last_reported":1684947968,"current_range_meters":24000,"station_id":"ce4bh9p2rcd13ifvqec0","pricing_plan_id":"free"},{"bike_id":"fc3667f5-aadf-44c7-90fd-ce607fcb719c","system_id":"levelo_inurba_marseille","lat":43.31643,"lon":5.40429,"is_reserved":false,"is_disabled":false,"rental_uris":{"android":"levelo://app?vid=fc3667f5-aadf-44c7-90fd-ce607fcb719c","ios":"levelo://app?vid=fc3667f5-aadf-44c7-90fd-ce607fcb719c"},"vehicle_type_id":"4","last_reported":1684947968,"current_range_meters":3200,"station_id":"ce4bh012rcd13ifvqd00","pricing_plan_id":"free"},{"bike_id":"b3803a7c-5397-4a27-bb24-f533c2e10e00","system_id":"levelo_inurba_marseille","lat":43.31641,"lon":5.40436,"is_reserved":false,"is_disabled":false,"rental_uris":{"android":"levelo://app?vid=b3803a7c-5397-4a27-bb24-f533c2e10e00","ios":"levelo://app?vid=b3803a7c-5397-4a27-bb24-f533c2e10e00"},"vehicle_type_id":"4","last_reported":1684947968,"current_range_meters":0,"station_id":"ce4bh012rcd13ifvqd00","pricing_plan_id":"free"},{"bike_id":"60a95bc6-8106-4662-81ba-6147a70c27e6","system_id":"levelo_inurba_marseille","lat":43.292,"lon":5.39313,"is_reserved":false,"is_disabled":false,"rental_uris":{"android":"levelo://app?vid=60a95bc6-8106-4662-81ba-6147a70c27e6","ios":"levelo://app?vid=60a95bc6-8106-4662-81ba-6147a70c27e6"},"vehicle_type_id":"4","last_reported":1684947968,"current_range_meters":15600,"station_id":"","pricing_plan_id":"free"},{"bike_id":"18203d37-7fa1-42d7-b24a-a125563d16f0","system_id":"levelo_inurba_marseille","lat":43.28463,"lon":5.35905,"is_reserved":false,"is_disabled":false,"rental_uris":{"android":"levelo://app?vid=18203d37-7fa1-42d7-b24a-a125563d16f0","ios":"levelo://app?vid=18203d37-7fa1-42d7-b24a-a125563d16f0"},"vehicle_type_id":"4","last_reported":1684947968,"current_range_meters":28000,"station_id":"","pricing_plan_id":"free"},{"bike_id":"297aa68e-82f1-443c-8514-0b577d056843","system_id":"levelo_inurba_marseille","lat":43.284534,"lon":5.358662,"is_reserved":false,"is_disabled":false,"rental_uris":{"android":"levelo://app?vid=297aa68e-82f1-443c-8514-0b577d056843","ios":"levelo://app?vid=297aa68e-82f1-443c-8514-0b577d056843"},"vehicle_type_id":"4","last_reported":1684947968,"current_range_meters":14800,"station_id":"ce4bhah2rcd13ifvqei0","pricing_plan_id":"free"},{"bike_id":"a5fdcb60-401d-4308-a6b9-aeff2f4bddcc","system_id":"levelo_inurba_marseille","lat":43.284534,"lon":5.358662,"is_reserved":false,"is_disabled":false,"rental_uris":{"android":"levelo://app?vid=a5fdcb60-401d-4308-a6b9-aeff2f4bddcc","ios":"levelo://app?vid=a5fdcb60-401d-4308-a6b9-aeff2f4bddcc"},"vehicle_type_id":"4","last_reported":1684947968,"current_range_meters":31200,"station_id":"ce4bhah2rcd13ifvqei0","pricing_plan_id":"free"},{"bike_id":"fb2761fb-e67d-4545-8237-ad26b3bafddf","system_id":"levelo_inurba_marseille","lat":43.284534,"lon":5.358662,"is_reserved":false,"is_disabled":false,"rental_uris":{"android":"levelo://app?vid=fb2761fb-e67d-4545-8237-ad26b3bafddf","ios":"levelo://app?vid=fb2761fb-e67d-4545-8237-ad26b3bafddf"},"vehicle_type_id":"4","last_reported":1684947968,"current_range_meters":30800,"station_id":"ce4bhah2rcd13ifvqei0","pricing_plan_id":"free"},{"bike_id":"61a1f783-03b6-4c96-a256-d44463b639e5","system_id":"levelo_inurba_marseille","lat":43.284534,"lon":5.358662,"is_reserved":false,"is_disabled":false,"rental_uris":{"android":"levelo://app?vid=61a1f783-03b6-4c96-a256-d44463b639e5","ios":"levelo://app?vid=61a1f783-03b6-4c96-a256-d44463b639e5"},"vehicle_type_id":"4","last_reported":1684947968,"current_range_meters":30800,"station_id":"ce4bhah2rcd13ifvqei0","pricing_plan_id":"free"},{"bike_id":"c02d7b81-00b6-4bde-9e71-5acfc36d5e48","system_id":"levelo_inurba_marseille","lat":43.2846,"lon":5.35894,"is_reserved":false,"is_disabled":false,"rental_uris":{"android":"levelo://app?vid=c02d7b81-00b6-4bde-9e71-5acfc36d5e48","ios":"levelo://app?vid=c02d7b81-00b6-4bde-9e71-5acfc36d5e48"},"vehicle_type_id":"4","last_reported":1684947968,"current_range_meters":31200,"station_id":"ce4bhah2rcd13ifvqei0","pricing_plan_id":"free"},{"bike_id":"e824315a-6e7a-4bf6-a292-5a4f78749a17","system_id":"levelo_inurba_marseille","lat":43.284534,"lon":5.358662,"is_reserved":false,"is_disabled":false,"rental_uris":{"android":"levelo://app?vid=e824315a-6e7a-4bf6-a292-5a4f78749a17","ios":"levelo://app?vid=e824315a-6e7a-4bf6-a292-5a4f78749a17"},"vehicle_type_id":"4","last_reported":1684947968,"current_range_meters":5200,"station_id":"ce4bhah2rcd13ifvqei0","pricing_plan_id":"free"},{"bike_id":"5be0682c-3f50-4b30-9737-84dd32593fbb","system_id":"levelo_inurba_marseille","lat":43.284534,"lon":5.358662,"is_reserved":false,"is_disabled":false,"rental_uris":{"android":"levelo://app?vid=5be0682c-3f50-4b30-9737-84dd32593fbb","ios":"levelo://app?vid=5be0682c-3f50-4b30-9737-84dd32593fbb"},"vehicle_type_id":"4","last_reported":1684947968,"current_range_meters":31200,"station_id":"ce4bhah2rcd13ifvqei0","pricing_plan_id":"free"},{"bike_id":"29a3f711-522e-4ead-91b6-5a7af811c2b0","system_id":"levelo_inurba_marseille","lat":43.28458,"lon":5.35895,"is_reserved":false,"is_disabled":false,"rental_uris":{"android":"levelo://app?vid=29a3f711-522e-4ead-91b6-5a7af811c2b0","ios":"levelo://app?vid=29a3f711-522e-4ead-91b6-5a7af811c2b0"},"vehicle_type_id":"4","last_reported":1684947968,"current_range_meters":8400,"station_id":"ce4bhah2rcd13ifvqei0","pricing_plan_id":"free"},{"bike_id":"a3146e3f-9a13-408b-a15a-7b57fc4a1be2","system_id":"levelo_inurba_marseille","lat":43.28459,"lon":5.35882,"is_reserved":false,"is_disabled":false,"rental_uris":{"android":"levelo://app?vid=a3146e3f-9a13-408b-a15a-7b57fc4a1be2","ios":"levelo://app?vid=a3146e3f-9a13-408b-a15a-7b57fc4a1be2"},"vehicle_type_id":"4","last_reported":1684947968,"current_range_meters":0,"station_id":"ce4bhah2rcd13ifvqei0","pricing_plan_id":"free"},{"bike_id":"d500490b-4027-42c5-9dc3-be5dea81d5de","system_id":"levelo_inurba_marseille","lat":43.284534,"lon":5.358662,"is_reserved":false,"is_disabled":false,"rental_uris":{"android":"levelo://app?vid=d500490b-4027-42c5-9dc3-be5dea81d5de","ios":"levelo://app?vid=d500490b-4027-42c5-9dc3-be5dea81d5de"},"vehicle_type_id":"4","last_reported":1684947968,"current_range_meters":4800,"station_id":"ce4bhah2rcd13ifvqei0","pricing_plan_id":"free"},{"bike_id":"1c75ff16-6539-4b49-b407-044be78db8ab","system_id":"levelo_inurba_marseille","lat":43.28457,"lon":5.35889,"is_reserved":false,"is_disabled":false,"rental_uris":{"android":"levelo://app?vid=1c75ff16-6539-4b49-b407-044be78db8ab","ios":"levelo://app?vid=1c75ff16-6539-4b49-b407-044be78db8ab"},"vehicle_type_id":"4","last_reported":1684947968,"current_range_meters":1600,"station_id":"ce4bhah2rcd13ifvqei0","pricing_plan_id":"free"},{"bike_id":"d7a00bbe-f093-4357-9f49-beb4019c95f1","system_id":"levelo_inurba_marseille","lat":43.284534,"lon":5.358662,"is_reserved":false,"is_disabled":false,"rental_uris":{"android":"levelo://app?vid=d7a00bbe-f093-4357-9f49-beb4019c95f1","ios":"levelo://app?vid=d7a00bbe-f093-4357-9f49-beb4019c95f1"},"vehicle_type_id":"4","last_reported":1684947968,"current_range_meters":0,"station_id":"ce4bhah2rcd13ifvqei0","pricing_plan_id":"free"},{"bike_id":"4c22ae23-65be-41ea-8f54-c71b2f899471","system_id":"levelo_inurba_marseille","lat":43.284534,"lon":5.358662,"is_reserved":false,"is_disabled":false,"rental_uris":{"android":"levelo://app?vid=4c22ae23-65be-41ea-8f54-c71b2f899471","ios":"levelo://app?vid=4c22ae23-65be-41ea-8f54-c71b2f899471"},"vehicle_type_id":"4","last_reported":1684947968,"current_range_meters":10800,"station_id":"ce4bhah2rcd13ifvqei0","pricing_plan_id":"free"},{"bike_id":"8e41d456-b90a-4a44-bc74-12e63f565845","system_id":"levelo_inurba_marseille","lat":43.28452,"lon":5.35887,"is_reserved":false,"is_disabled":false,"rental_uris":{"android":"levelo://app?vid=8e41d456-b90a-4a44-bc74-12e63f565845","ios":"levelo://app?vid=8e41d456-b90a-4a44-bc74-12e63f565845"},"vehicle_type_id":"4","last_reported":1684947968,"current_range_meters":0,"station_id":"ce4bhah2rcd13ifvqei0","pricing_plan_id":"free"},{"bike_id":"a914ace4-30dd-44ab-b5ab-941a963cdc04","system_id":"levelo_inurba_marseille","lat":43.284534,"lon":5.358662,"is_reserved":false,"is_disabled":false,"rental_uris":{"android":"levelo://app?vid=a914ace4-30dd-44ab-b5ab-941a963cdc04","ios":"levelo://app?vid=a914ace4-30dd-44ab-b5ab-941a963cdc04"},"vehicle_type_id":"4","last_reported":1684947968,"current_range_meters":6000,"station_id":"ce4bhah2rcd13ifvqei0","pricing_plan_id":"free"},{"bike_id":"111518e9-cb13-49ac-bfd2-f4218793a321","system_id":"levelo_inurba_marseille","lat":43.295713,"lon":5.399639,"is_reserved":false,"is_disabled":false,"rental_uris":{"android":"levelo://app?vid=111518e9-cb13-49ac-bfd2-f4218793a321","ios":"levelo://app?vid=111518e9-cb13-49ac-bfd2-f4218793a321"},"vehicle_type_id":"4","last_reported":1684947968,"current_range_meters":8800,"station_id":"ce4bh312rcd13ifvqdj0","pricing_plan_id":"free"},{"bike_id":"2f33726a-1922-4ecf-8770-b20681d28edf","system_id":"levelo_inurba_marseille","lat":43.28437,"lon":5.37827,"is_reserved":false,"is_disabled":false,"rental_uris":{"android":"levelo://app?vid=2f33726a-1922-4ecf-8770-b20681d28edf","ios":"levelo://app?vid=2f33726a-1922-4ecf-8770-b20681d28edf"},"vehicle_type_id":"4","last_reported":1684947968,"current_range_meters":12000,"station_id":"","pricing_plan_id":"free"},{"bike_id":"5aaccbdd-56eb-431f-ae7d-2963b035d6fe","system_id":"levelo_inurba_marseille","lat":43.286595,"lon":5.386795,"is_reserved":false,"is_disabled":false,"rental_uris":{"android":"levelo://app?vid=5aaccbdd-56eb-431f-ae7d-2963b035d6fe","ios":"levelo://app?vid=5aaccbdd-56eb-431f-ae7d-2963b035d6fe"},"vehicle_type_id":"4","last_reported":1684947968,"current_range_meters":1600,"station_id":"ce4bh492rcd13ifvqdug","pricing_plan_id":"free"},{"bike_id":"733e7a7d-d153-4ccc-b8f8-335ea3e07b56","system_id":"levelo_inurba_marseille","lat":43.286595,"lon":5.386795,"is_reserved":false,"is_disabled":false,"rental_uris":{"android":"levelo://app?vid=733e7a7d-d153-4ccc-b8f8-335ea3e07b56","ios":"levelo://app?vid=733e7a7d-d153-4ccc-b8f8-335ea3e07b56"},"vehicle_type_id":"4","last_reported":1684947968,"current_range_meters":800,"station_id":"ce4bh492rcd13ifvqdug","pricing_plan_id":"free"},{"bike_id":"f5a122c9-3966-45d9-b3e2-5c512a9d7800","system_id":"levelo_inurba_marseille","lat":43.286595,"lon":5.386795,"is_reserved":false,"is_disabled":false,"rental_uris":{"android":"levelo://app?vid=f5a122c9-3966-45d9-b3e2-5c512a9d7800","ios":"levelo://app?vid=f5a122c9-3966-45d9-b3e2-5c512a9d7800"},"vehicle_type_id":"4","last_reported":1684947968,"current_range_meters":4000,"station_id":"ce4bh492rcd13ifvqdug","pricing_plan_id":"free"},{"bike_id":"ed0bb795-c299-4ac9-a921-40577888b589","system_id":"levelo_inurba_marseille","lat":43.286595,"lon":5.386795,"is_reserved":false,"is_disabled":false,"rental_uris":{"android":"levelo://app?vid=ed0bb795-c299-4ac9-a921-40577888b589","ios":"levelo://app?vid=ed0bb795-c299-4ac9-a921-40577888b589"},"vehicle_type_id":"4","last_reported":1684947968,"current_range_meters":26400,"station_id":"ce4bh492rcd13ifvqdug","pricing_plan_id":"free"},{"bike_id":"1b883f39-b8c8-4b58-ab48-426719e68662","system_id":"levelo_inurba_marseille","lat":43.286595,"lon":5.386795,"is_reserved":false,"is_disabled":false,"rental_uris":{"android":"levelo://app?vid=1b883f39-b8c8-4b58-ab48-426719e68662","ios":"levelo://app?vid=1b883f39-b8c8-4b58-ab48-426719e68662"},"vehicle_type_id":"4","last_reported":1684947968,"current_range_meters":4800,"station_id":"ce4bh492rcd13ifvqdug","pricing_plan_id":"free"},{"bike_id":"1c24cb46-22c6-475a-a656-4560e5012f20","system_id":"levelo_inurba_marseille","lat":43.284793,"lon":5.384119,"is_reserved":false,"is_disabled":false,"rental_uris":{"android":"levelo://app?vid=1c24cb46-22c6-475a-a656-4560e5012f20","ios":"levelo://app?vid=1c24cb46-22c6-475a-a656-4560e5012f20"},"vehicle_type_id":"4","last_reported":1684947968,"current_range_meters":8000,"station_id":"ce4bh512rcd13ifvqe3g","pricing_plan_id":"free"},{"bike_id":"df0feadd-82e2-40ee-96d1-24849a74feae","system_id":"levelo_inurba_marseille","lat":43.284793,"lon":5.384113,"is_reserved":false,"is_disabled":false,"rental_uris":{"android":"levelo://app?vid=df0feadd-82e2-40ee-96d1-24849a74feae","ios":"levelo://app?vid=df0feadd-82e2-40ee-96d1-24849a74feae"},"vehicle_type_id":"4","last_reported":1684947968,"current_range_meters":15600,"station_id":"ce4bh512rcd13ifvqe3g","pricing_plan_id":"free"},{"bike_id":"33651d66-6729-476e-ba0d-81586d62f71f","system_id":"levelo_inurba_marseille","lat":43.284793,"lon":5.384113,"is_reserved":false,"is_disabled":false,"rental_uris":{"android":"levelo://app?vid=33651d66-6729-476e-ba0d-81586d62f71f","ios":"levelo://app?vid=33651d66-6729-476e-ba0d-81586d62f71f"},"vehicle_type_id":"4","last_reported":1684947968,"current_range_meters":20400,"station_id":"ce4bh512rcd13ifvqe3g","pricing_plan_id":"free"},{"bike_id":"edacfbfb-08a1-4873-b142-1e75568979bf","system_id":"levelo_inurba_marseille","lat":43.288497,"lon":5.393089,"is_reserved":false,"is_disabled":false,"rental_uris":{"android":"levelo://app?vid=edacfbfb-08a1-4873-b142-1e75568979bf","ios":"levelo://app?vid=edacfbfb-08a1-4873-b142-1e75568979bf"},"vehicle_type_id":"4","last_reported":1684947968,"current_range_meters":10400,"station_id":"ce4bh2p2rcd13ifvqdi0","pricing_plan_id":"free"},{"bike_id":"2e6323fb-9ebb-4623-ad9b-e213effe397d","system_id":"levelo_inurba_marseille","lat":43.284787,"lon":5.384116,"is_reserved":false,"is_disabled":false,"rental_uris":{"android":"levelo://app?vid=2e6323fb-9ebb-4623-ad9b-e213effe397d","ios":"levelo://app?vid=2e6323fb-9ebb-4623-ad9b-e213effe397d"},"vehicle_type_id":"4","last_reported":1684947968,"current_range_meters":6400,"station_id":"ce4bh512rcd13ifvqe3g","pricing_plan_id":"free"},{"bike_id":"11d00a64-e133-441f-ab66-bf287984c2d3","system_id":"levelo_inurba_marseille","lat":43.288497,"lon":5.393089,"is_reserved":false,"is_disabled":false,"rental_uris":{"android":"levelo://app?vid=11d00a64-e133-441f-ab66-bf287984c2d3","ios":"levelo://app?vid=11d00a64-e133-441f-ab66-bf287984c2d3"},"vehicle_type_id":"4","last_reported":1684947968,"current_range_meters":12400,"station_id":"ce4bh2p2rcd13ifvqdi0","pricing_plan_id":"free"},{"bike_id":"7fc184c6-d04c-4808-bdb2-3f14e38f4994","system_id":"levelo_inurba_marseille","lat":43.288497,"lon":5.393089,"is_reserved":false,"is_disabled":false,"rental_uris":{"android":"levelo://app?vid=7fc184c6-d04c-4808-bdb2-3f14e38f4994","ios":"levelo://app?vid=7fc184c6-d04c-4808-bdb2-3f14e38f4994"},"vehicle_type_id":"4","last_reported":1684947968,"current_range_meters":22000,"station_id":"ce4bh2p2rcd13ifvqdi0","pricing_plan_id":"free"},{"bike_id":"e50030f3-03db-4ee5-8b13-bfe9c88287ea","system_id":"levelo_inurba_marseille","lat":43.288501,"lon":5.393087,"is_reserved":false,"is_disabled":false,"rental_uris":{"android":"levelo://app?vid=e50030f3-03db-4ee5-8b13-bfe9c88287ea","ios":"levelo://app?vid=e50030f3-03db-4ee5-8b13-bfe9c88287ea"},"vehicle_type_id":"4","last_reported":1684947968,"current_range_meters":0,"station_id":"ce4bh2p2rcd13ifvqdi0","pricing_plan_id":"free"},{"bike_id":"5136f93f-35c7-40be-8fcc-406b83a2ef19","system_id":"levelo_inurba_marseille","lat":43.288501,"lon":5.393087,"is_reserved":false,"is_disabled":false,"rental_uris":{"android":"levelo://app?vid=5136f93f-35c7-40be-8fcc-406b83a2ef19","ios":"levelo://app?vid=5136f93f-35c7-40be-8fcc-406b83a2ef19"},"vehicle_type_id":"4","last_reported":1684947968,"current_range_meters":25200,"station_id":"ce4bh2p2rcd13ifvqdi0","pricing_plan_id":"free"},{"bike_id":"d5c1cb89-c542-4b83-aade-e58360cb538a","system_id":"levelo_inurba_marseille","lat":43.284219,"lon":5.3497,"is_reserved":false,"is_disabled":false,"rental_uris":{"android":"levelo://app?vid=d5c1cb89-c542-4b83-aade-e58360cb538a","ios":"levelo://app?vid=d5c1cb89-c542-4b83-aade-e58360cb538a"},"vehicle_type_id":"4","last_reported":1684947968,"current_range_meters":10000,"station_id":"ce4bhbh2rcd13ifvqepg","pricing_plan_id":"free"},{"bike_id":"9a7acc88-e2ce-40cb-882f-e38e0b2c2b1d","system_id":"levelo_inurba_marseille","lat":43.284219,"lon":5.3497,"is_reserved":false,"is_disabled":false,"rental_uris":{"android":"levelo://app?vid=9a7acc88-e2ce-40cb-882f-e38e0b2c2b1d","ios":"levelo://app?vid=9a7acc88-e2ce-40cb-882f-e38e0b2c2b1d"},"vehicle_type_id":"4","last_reported":1684947968,"current_range_meters":0,"station_id":"ce4bhbh2rcd13ifvqepg","pricing_plan_id":"free"},{"bike_id":"60365cd4-a046-474a-945f-d2595aba0742","system_id":"levelo_inurba_marseille","lat":43.284217,"lon":5.349697,"is_reserved":false,"is_disabled":false,"rental_uris":{"android":"levelo://app?vid=60365cd4-a046-474a-945f-d2595aba0742","ios":"levelo://app?vid=60365cd4-a046-474a-945f-d2595aba0742"},"vehicle_type_id":"4","last_reported":1684947968,"current_range_meters":2000,"station_id":"ce4bhbh2rcd13ifvqepg","pricing_plan_id":"free"},{"bike_id":"919243c0-62ff-40bc-8c1d-55f2164979c8","system_id":"levelo_inurba_marseille","lat":43.284217,"lon":5.349697,"is_reserved":false,"is_disabled":false,"rental_uris":{"android":"levelo://app?vid=919243c0-62ff-40bc-8c1d-55f2164979c8","ios":"levelo://app?vid=919243c0-62ff-40bc-8c1d-55f2164979c8"},"vehicle_type_id":"4","last_reported":1684947968,"current_range_meters":14400,"station_id":"ce4bhbh2rcd13ifvqepg","pricing_plan_id":"free"},{"bike_id":"4bbc32bf-8260-4a54-a58c-dcc93caa4063","system_id":"levelo_inurba_marseille","lat":43.284217,"lon":5.349697,"is_reserved":false,"is_disabled":false,"rental_uris":{"android":"levelo://app?vid=4bbc32bf-8260-4a54-a58c-dcc93caa4063","ios":"levelo://app?vid=4bbc32bf-8260-4a54-a58c-dcc93caa4063"},"vehicle_type_id":"4","last_reported":1684947968,"current_range_meters":11600,"station_id":"ce4bhbh2rcd13ifvqepg","pricing_plan_id":"free"},{"bike_id":"6fbec87e-167f-443f-b981-a0a8858e941a","system_id":"levelo_inurba_marseille","lat":43.29279,"lon":5.40115,"is_reserved":false,"is_disabled":false,"rental_uris":{"android":"levelo://app?vid=6fbec87e-167f-443f-b981-a0a8858e941a","ios":"levelo://app?vid=6fbec87e-167f-443f-b981-a0a8858e941a"},"vehicle_type_id":"4","last_reported":1684947968,"current_range_meters":7200,"station_id":"ce4bh312rcd13ifvqdk0","pricing_plan_id":"free"},{"bike_id":"e8e7aa4a-dec7-46cc-b626-2f2953f37877","system_id":"levelo_inurba_marseille","lat":43.29272,"lon":5.40121,"is_reserved":false,"is_disabled":false,"rental_uris":{"android":"levelo://app?vid=e8e7aa4a-dec7-46cc-b626-2f2953f37877","ios":"levelo://app?vid=e8e7aa4a-dec7-46cc-b626-2f2953f37877"},"vehicle_type_id":"4","last_reported":1684947968,"current_range_meters":0,"station_id":"ce4bh312rcd13ifvqdk0","pricing_plan_id":"free"},{"bike_id":"bb531e22-6ea2-4ee2-88ff-19dc72438645","system_id":"levelo_inurba_marseille","lat":43.283502,"lon":5.386471,"is_reserved":false,"is_disabled":false,"rental_uris":{"android":"levelo://app?vid=bb531e22-6ea2-4ee2-88ff-19dc72438645","ios":"levelo://app?vid=bb531e22-6ea2-4ee2-88ff-19dc72438645"},"vehicle_type_id":"4","last_reported":1684947968,"current_range_meters":21600,"station_id":"ce4bh492rcd13ifvqdvg","pricing_plan_id":"free"},{"bike_id":"9bee5d85-91e0-4004-89b1-ef7effb57220","system_id":"levelo_inurba_marseille","lat":43.282754,"lon":5.350519,"is_reserved":false,"is_disabled":false,"rental_uris":{"android":"levelo://app?vid=9bee5d85-91e0-4004-89b1-ef7effb57220","ios":"levelo://app?vid=9bee5d85-91e0-4004-89b1-ef7effb57220"},"vehicle_type_id":"4","last_reported":1684947968,"current_range_meters":18800,"station_id":"ce4bhbp2rcd13ifvqerg","pricing_plan_id":"free"},{"bike_id":"c53caa03-12da-439d-a4e5-f992969388d3","system_id":"levelo_inurba_marseille","lat":43.282754,"lon":5.350519,"is_reserved":false,"is_disabled":false,"rental_uris":{"android":"levelo://app?vid=c53caa03-12da-439d-a4e5-f992969388d3","ios":"levelo://app?vid=c53caa03-12da-439d-a4e5-f992969388d3"},"vehicle_type_id":"4","last_reported":1684947968,"current_range_meters":20000,"station_id":"ce4bhbp2rcd13ifvqerg","pricing_plan_id":"free"},{"bike_id":"99bdb551-c804-49b3-9993-2140f6d2b228","system_id":"levelo_inurba_marseille","lat":43.282744,"lon":5.350533,"is_reserved":false,"is_disabled":false,"rental_uris":{"android":"levelo://app?vid=99bdb551-c804-49b3-9993-2140f6d2b228","ios":"levelo://app?vid=99bdb551-c804-49b3-9993-2140f6d2b228"},"vehicle_type_id":"4","last_reported":1684947968,"current_range_meters":5600,"station_id":"ce4bhbp2rcd13ifvqerg","pricing_plan_id":"free"},{"bike_id":"ff15d13e-b613-4f5d-b86e-b3b5bf774be4","system_id":"levelo_inurba_marseille","lat":43.28039,"lon":5.369297,"is_reserved":false,"is_disabled":false,"rental_uris":{"android":"levelo://app?vid=ff15d13e-b613-4f5d-b86e-b3b5bf774be4","ios":"levelo://app?vid=ff15d13e-b613-4f5d-b86e-b3b5bf774be4"},"vehicle_type_id":"4","last_reported":1684947968,"current_range_meters":10800,"station_id":"ce4bha12rcd13ifvqef0","pricing_plan_id":"free"},{"bike_id":"4d86ce40-e406-44d0-9e2e-59dcfae65e59","system_id":"levelo_inurba_marseille","lat":43.29041,"lon":5.39947,"is_reserved":false,"is_disabled":false,"rental_uris":{"android":"levelo://app?vid=4d86ce40-e406-44d0-9e2e-59dcfae65e59","ios":"levelo://app?vid=4d86ce40-e406-44d0-9e2e-59dcfae65e59"},"vehicle_type_id":"4","last_reported":1684947968,"current_range_meters":6800,"station_id":"ce4bh392rcd13ifvqdm0","pricing_plan_id":"free"},{"bike_id":"e5d65c19-ea4c-447b-81ee-a1ee1d400817","system_id":"levelo_inurba_marseille","lat":43.281044,"lon":5.378308,"is_reserved":false,"is_disabled":false,"rental_uris":{"android":"levelo://app?vid=e5d65c19-ea4c-447b-81ee-a1ee1d400817","ios":"levelo://app?vid=e5d65c19-ea4c-447b-81ee-a1ee1d400817"},"vehicle_type_id":"4","last_reported":1684947968,"current_range_meters":19600,"station_id":"ce4bha12rcd13ifvqee0","pricing_plan_id":"free"},{"bike_id":"693a6587-f4f8-4dc5-bf4f-e59de1a9a4b8","system_id":"levelo_inurba_marseille","lat":43.296263,"lon":5.40601,"is_reserved":false,"is_disabled":false,"rental_uris":{"android":"levelo://app?vid=693a6587-f4f8-4dc5-bf4f-e59de1a9a4b8","ios":"levelo://app?vid=693a6587-f4f8-4dc5-bf4f-e59de1a9a4b8"},"vehicle_type_id":"4","last_reported":1684947968,"current_range_meters":17200,"station_id":"ce4bh0h2rcd13ifvqd60","pricing_plan_id":"free"},{"bike_id":"41d3e69b-4dbc-4401-9845-20c1b37f0c2e","system_id":"levelo_inurba_marseille","lat":43.281044,"lon":5.378308,"is_reserved":false,"is_disabled":false,"rental_uris":{"android":"levelo://app?vid=41d3e69b-4dbc-4401-9845-20c1b37f0c2e","ios":"levelo://app?vid=41d3e69b-4dbc-4401-9845-20c1b37f0c2e"},"vehicle_type_id":"4","last_reported":1684947968,"current_range_meters":0,"station_id":"ce4bha12rcd13ifvqee0","pricing_plan_id":"free"},{"bike_id":"015be2c9-cacf-4789-b843-53f182990199","system_id":"levelo_inurba_marseille","lat":43.281,"lon":5.37832,"is_reserved":false,"is_disabled":false,"rental_uris":{"android":"levelo://app?vid=015be2c9-cacf-4789-b843-53f182990199","ios":"levelo://app?vid=015be2c9-cacf-4789-b843-53f182990199"},"vehicle_type_id":"4","last_reported":1684947968,"current_range_meters":12000,"station_id":"ce4bha12rcd13ifvqee0","pricing_plan_id":"free"},{"bike_id":"1c175f70-2d72-4713-ac0f-bc8ade6d9dab","system_id":"levelo_inurba_marseille","lat":43.296263,"lon":5.40601,"is_reserved":false,"is_disabled":false,"rental_uris":{"android":"levelo://app?vid=1c175f70-2d72-4713-ac0f-bc8ade6d9dab","ios":"levelo://app?vid=1c175f70-2d72-4713-ac0f-bc8ade6d9dab"},"vehicle_type_id":"4","last_reported":1684947968,"current_range_meters":16000,"station_id":"ce4bh0h2rcd13ifvqd60","pricing_plan_id":"free"},{"bike_id":"39c5de49-9ce9-4247-a0a8-e37553a30fba","system_id":"levelo_inurba_marseille","lat":43.296263,"lon":5.40601,"is_reserved":false,"is_disabled":false,"rental_uris":{"android":"levelo://app?vid=39c5de49-9ce9-4247-a0a8-e37553a30fba","ios":"levelo://app?vid=39c5de49-9ce9-4247-a0a8-e37553a30fba"},"vehicle_type_id":"4","last_reported":1684947968,"current_range_meters":6400,"station_id":"ce4bh0h2rcd13ifvqd60","pricing_plan_id":"free"},{"bike_id":"592ec164-7b75-44f7-9529-0057e5987590","system_id":"levelo_inurba_marseille","lat":43.296263,"lon":5.40601,"is_reserved":false,"is_disabled":false,"rental_uris":{"android":"levelo://app?vid=592ec164-7b75-44f7-9529-0057e5987590","ios":"levelo://app?vid=592ec164-7b75-44f7-9529-0057e5987590"},"vehicle_type_id":"4","last_reported":1684947968,"current_range_meters":4400,"station_id":"ce4bh0h2rcd13ifvqd60","pricing_plan_id":"free"},{"bike_id":"968e57fe-c0e7-460f-92fc-845a56409e89","system_id":"levelo_inurba_marseille","lat":43.284462,"lon":5.392121,"is_reserved":false,"is_disabled":false,"rental_uris":{"android":"levelo://app?vid=968e57fe-c0e7-460f-92fc-845a56409e89","ios":"levelo://app?vid=968e57fe-c0e7-460f-92fc-845a56409e89"},"vehicle_type_id":"4","last_reported":1684947968,"current_range_meters":5600,"station_id":"ce4bhoh2rcd13ifvqh5g","pricing_plan_id":"free"},{"bike_id":"8f84111e-7188-41c7-8eeb-ad106c0d5190","system_id":"levelo_inurba_marseille","lat":43.284462,"lon":5.392121,"is_reserved":false,"is_disabled":false,"rental_uris":{"android":"levelo://app?vid=8f84111e-7188-41c7-8eeb-ad106c0d5190","ios":"levelo://app?vid=8f84111e-7188-41c7-8eeb-ad106c0d5190"},"vehicle_type_id":"4","last_reported":1684947968,"current_range_meters":18000,"station_id":"ce4bhoh2rcd13ifvqh5g","pricing_plan_id":"free"},{"bike_id":"14e119ad-8a2b-40a8-a184-d6a0f394a7b1","system_id":"levelo_inurba_marseille","lat":43.284462,"lon":5.392121,"is_reserved":false,"is_disabled":false,"rental_uris":{"android":"levelo://app?vid=14e119ad-8a2b-40a8-a184-d6a0f394a7b1","ios":"levelo://app?vid=14e119ad-8a2b-40a8-a184-d6a0f394a7b1"},"vehicle_type_id":"4","last_reported":1684947968,"current_range_meters":400,"station_id":"ce4bhoh2rcd13ifvqh5g","pricing_plan_id":"free"},{"bike_id":"0c87ed9a-5e33-416b-b87b-676ecff5365c","system_id":"levelo_inurba_marseille","lat":43.284462,"lon":5.392121,"is_reserved":false,"is_disabled":false,"rental_uris":{"android":"levelo://app?vid=0c87ed9a-5e33-416b-b87b-676ecff5365c","ios":"levelo://app?vid=0c87ed9a-5e33-416b-b87b-676ecff5365c"},"vehicle_type_id":"4","last_reported":1684947968,"current_range_meters":14800,"station_id":"ce4bhoh2rcd13ifvqh5g","pricing_plan_id":"free"},{"bike_id":"52a6d489-35bf-4f24-b304-6b95057fa280","system_id":"levelo_inurba_marseille","lat":43.284462,"lon":5.392121,"is_reserved":false,"is_disabled":false,"rental_uris":{"android":"levelo://app?vid=52a6d489-35bf-4f24-b304-6b95057fa280","ios":"levelo://app?vid=52a6d489-35bf-4f24-b304-6b95057fa280"},"vehicle_type_id":"4","last_reported":1684947968,"current_range_meters":22400,"station_id":"ce4bhoh2rcd13ifvqh5g","pricing_plan_id":"free"},{"bike_id":"e5ab0f4c-d66e-4cea-9944-db34c60a5699","system_id":"levelo_inurba_marseille","lat":43.28573,"lon":5.394992,"is_reserved":false,"is_disabled":false,"rental_uris":{"android":"levelo://app?vid=e5ab0f4c-d66e-4cea-9944-db34c60a5699","ios":"levelo://app?vid=e5ab0f4c-d66e-4cea-9944-db34c60a5699"},"vehicle_type_id":"4","last_reported":1684947968,"current_range_meters":24000,"station_id":"ce4bh292rcd13ifvqdg0","pricing_plan_id":"free"},{"bike_id":"5c3aab33-a434-4304-9baa-5d8866de8776","system_id":"levelo_inurba_marseille","lat":43.304188,"lon":5.412904,"is_reserved":false,"is_disabled":false,"rental_uris":{"android":"levelo://app?vid=5c3aab33-a434-4304-9baa-5d8866de8776","ios":"levelo://app?vid=5c3aab33-a434-4304-9baa-5d8866de8776"},"vehicle_type_id":"4","last_reported":1684947968,"current_range_meters":30400,"station_id":"ce4bhop2rcd13ifvqh8g","pricing_plan_id":"free"},{"bike_id":"8a812bbd-63e5-497c-8bb8-cb9bb15c0ceb","system_id":"levelo_inurba_marseille","lat":43.304188,"lon":5.412904,"is_reserved":false,"is_disabled":false,"rental_uris":{"android":"levelo://app?vid=8a812bbd-63e5-497c-8bb8-cb9bb15c0ceb","ios":"levelo://app?vid=8a812bbd-63e5-497c-8bb8-cb9bb15c0ceb"},"vehicle_type_id":"4","last_reported":1684947968,"current_range_meters":12400,"station_id":"ce4bhop2rcd13ifvqh8g","pricing_plan_id":"free"},{"bike_id":"9d9bb60e-093b-4dc5-ae41-55dc521659a9","system_id":"levelo_inurba_marseille","lat":43.34721,"lon":5.36839,"is_reserved":false,"is_disabled":false,"rental_uris":{"android":"levelo://app?vid=9d9bb60e-093b-4dc5-ae41-55dc521659a9","ios":"levelo://app?vid=9d9bb60e-093b-4dc5-ae41-55dc521659a9"},"vehicle_type_id":"4","last_reported":1684947968,"current_range_meters":2800,"station_id":"","pricing_plan_id":"free"},{"bike_id":"c5a82e3e-3e0b-4876-bec5-2a0f536158d5","system_id":"levelo_inurba_marseille","lat":43.30419,"lon":5.41285,"is_reserved":false,"is_disabled":false,"rental_uris":{"android":"levelo://app?vid=c5a82e3e-3e0b-4876-bec5-2a0f536158d5","ios":"levelo://app?vid=c5a82e3e-3e0b-4876-bec5-2a0f536158d5"},"vehicle_type_id":"4","last_reported":1684947968,"current_range_meters":2800,"station_id":"ce4bhop2rcd13ifvqh8g","pricing_plan_id":"free"},{"bike_id":"6cb1b647-c5ba-44cc-ab5f-ea743841e8f6","system_id":"levelo_inurba_marseille","lat":43.287154,"lon":5.399979,"is_reserved":false,"is_disabled":false,"rental_uris":{"android":"levelo://app?vid=6cb1b647-c5ba-44cc-ab5f-ea743841e8f6","ios":"levelo://app?vid=6cb1b647-c5ba-44cc-ab5f-ea743841e8f6"},"vehicle_type_id":"4","last_reported":1684947968,"current_range_meters":2000,"station_id":"ce4bho92rcd13ifvqh3g","pricing_plan_id":"free"},{"bike_id":"d774e7a4-28ee-451e-82b5-e094cd2d6bdc","system_id":"levelo_inurba_marseille","lat":43.320045,"lon":5.415046,"is_reserved":false,"is_disabled":false,"rental_uris":{"android":"levelo://app?vid=d774e7a4-28ee-451e-82b5-e094cd2d6bdc","ios":"levelo://app?vid=d774e7a4-28ee-451e-82b5-e094cd2d6bdc"},"vehicle_type_id":"4","last_reported":1684947968,"current_range_meters":16800,"station_id":"ce4bhq92rcd13ifvqhkg","pricing_plan_id":"free"},{"bike_id":"f43b66d9-946d-4e7d-9f9b-376aed2c7463","system_id":"levelo_inurba_marseille","lat":43.292569,"lon":5.409107,"is_reserved":false,"is_disabled":false,"rental_uris":{"android":"levelo://app?vid=f43b66d9-946d-4e7d-9f9b-376aed2c7463","ios":"levelo://app?vid=f43b66d9-946d-4e7d-9f9b-376aed2c7463"},"vehicle_type_id":"4","last_reported":1684947968,"current_range_meters":6000,"station_id":"ce4bh192rcd13ifvqdc0","pricing_plan_id":"free"},{"bike_id":"f67e0914-2276-49ca-9381-eb1178d4ff12","system_id":"levelo_inurba_marseille","lat":43.292569,"lon":5.409107,"is_reserved":false,"is_disabled":false,"rental_uris":{"android":"levelo://app?vid=f67e0914-2276-49ca-9381-eb1178d4ff12","ios":"levelo://app?vid=f67e0914-2276-49ca-9381-eb1178d4ff12"},"vehicle_type_id":"4","last_reported":1684947968,"current_range_meters":23200,"station_id":"ce4bh192rcd13ifvqdc0","pricing_plan_id":"free"},{"bike_id":"8a0b5df2-4699-48e1-b516-db82a89f9320","system_id":"levelo_inurba_marseille","lat":43.292569,"lon":5.409107,"is_reserved":false,"is_disabled":false,"rental_uris":{"android":"levelo://app?vid=8a0b5df2-4699-48e1-b516-db82a89f9320","ios":"levelo://app?vid=8a0b5df2-4699-48e1-b516-db82a89f9320"},"vehicle_type_id":"4","last_reported":1684947968,"current_range_meters":0,"station_id":"ce4bh192rcd13ifvqdc0","pricing_plan_id":"free"},{"bike_id":"68d9c459-6ed3-460e-b162-a632c1cb20df","system_id":"levelo_inurba_marseille","lat":43.292571,"lon":5.409107,"is_reserved":false,"is_disabled":false,"rental_uris":{"android":"levelo://app?vid=68d9c459-6ed3-460e-b162-a632c1cb20df","ios":"levelo://app?vid=68d9c459-6ed3-460e-b162-a632c1cb20df"},"vehicle_type_id":"4","last_reported":1684947968,"current_range_meters":5600,"station_id":"ce4bh192rcd13ifvqdc0","pricing_plan_id":"free"},{"bike_id":"a044e2da-c16c-4687-93b2-042dca7c2eee","system_id":"levelo_inurba_marseille","lat":43.292571,"lon":5.409107,"is_reserved":false,"is_disabled":false,"rental_uris":{"android":"levelo://app?vid=a044e2da-c16c-4687-93b2-042dca7c2eee","ios":"levelo://app?vid=a044e2da-c16c-4687-93b2-042dca7c2eee"},"vehicle_type_id":"4","last_reported":1684947968,"current_range_meters":14800,"station_id":"ce4bh192rcd13ifvqdc0","pricing_plan_id":"free"},{"bike_id":"94dd14eb-9c02-43d9-87ab-92770998b9dc","system_id":"levelo_inurba_marseille","lat":43.292571,"lon":5.409107,"is_reserved":false,"is_disabled":false,"rental_uris":{"android":"levelo://app?vid=94dd14eb-9c02-43d9-87ab-92770998b9dc","ios":"levelo://app?vid=94dd14eb-9c02-43d9-87ab-92770998b9dc"},"vehicle_type_id":"4","last_reported":1684947968,"current_range_meters":23200,"station_id":"ce4bh192rcd13ifvqdc0","pricing_plan_id":"free"},{"bike_id":"d1f7bd5a-a9b9-424a-9df6-f93ed5bb754c","system_id":"levelo_inurba_marseille","lat":43.292571,"lon":5.409107,"is_reserved":false,"is_disabled":false,"rental_uris":{"android":"levelo://app?vid=d1f7bd5a-a9b9-424a-9df6-f93ed5bb754c","ios":"levelo://app?vid=d1f7bd5a-a9b9-424a-9df6-f93ed5bb754c"},"vehicle_type_id":"4","last_reported":1684947968,"current_range_meters":12400,"station_id":"ce4bh192rcd13ifvqdc0","pricing_plan_id":"free"},{"bike_id":"f1cfab59-4fe4-48eb-8647-8da13f4043f3","system_id":"levelo_inurba_marseille","lat":43.292571,"lon":5.409107,"is_reserved":false,"is_disabled":false,"rental_uris":{"android":"levelo://app?vid=f1cfab59-4fe4-48eb-8647-8da13f4043f3","ios":"levelo://app?vid=f1cfab59-4fe4-48eb-8647-8da13f4043f3"},"vehicle_type_id":"4","last_reported":1684947968,"current_range_meters":12400,"station_id":"ce4bh192rcd13ifvqdc0","pricing_plan_id":"free"},{"bike_id":"0f620204-10b2-4edb-a882-9f7eefa50f23","system_id":"levelo_inurba_marseille","lat":43.292569,"lon":5.409107,"is_reserved":false,"is_disabled":false,"rental_uris":{"android":"levelo://app?vid=0f620204-10b2-4edb-a882-9f7eefa50f23","ios":"levelo://app?vid=0f620204-10b2-4edb-a882-9f7eefa50f23"},"vehicle_type_id":"4","last_reported":1684947968,"current_range_meters":17200,"station_id":"ce4bh192rcd13ifvqdc0","pricing_plan_id":"free"},{"bike_id":"cf438fd0-1bff-4b1f-8e0d-5d731920a697","system_id":"levelo_inurba_marseille","lat":43.27618,"lon":5.361009,"is_reserved":false,"is_disabled":false,"rental_uris":{"android":"levelo://app?vid=cf438fd0-1bff-4b1f-8e0d-5d731920a697","ios":"levelo://app?vid=cf438fd0-1bff-4b1f-8e0d-5d731920a697"},"vehicle_type_id":"4","last_reported":1684947968,"current_range_meters":18800,"station_id":"ce4bgj92rcd13ifvqbe0","pricing_plan_id":"free"},{"bike_id":"ca7dcedb-0aaa-42aa-afc5-2bc2a36da951","system_id":"levelo_inurba_marseille","lat":43.27618,"lon":5.361009,"is_reserved":false,"is_disabled":false,"rental_uris":{"android":"levelo://app?vid=ca7dcedb-0aaa-42aa-afc5-2bc2a36da951","ios":"levelo://app?vid=ca7dcedb-0aaa-42aa-afc5-2bc2a36da951"},"vehicle_type_id":"4","last_reported":1684947968,"current_range_meters":27600,"station_id":"ce4bgj92rcd13ifvqbe0","pricing_plan_id":"free"},{"bike_id":"cad082ab-2992-48b3-8874-dbd189f97d2e","system_id":"levelo_inurba_marseille","lat":43.273613,"lon":5.362705,"is_reserved":false,"is_disabled":false,"rental_uris":{"android":"levelo://app?vid=cad082ab-2992-48b3-8874-dbd189f97d2e","ios":"levelo://app?vid=cad082ab-2992-48b3-8874-dbd189f97d2e"},"vehicle_type_id":"4","last_reported":1684947968,"current_range_meters":14000,"station_id":"ce4bhbh2rcd13ifvqeo0","pricing_plan_id":"free"},{"bike_id":"74bc9772-7b25-47a7-b781-350ba55a6add","system_id":"levelo_inurba_marseille","lat":43.273613,"lon":5.362705,"is_reserved":false,"is_disabled":false,"rental_uris":{"android":"levelo://app?vid=74bc9772-7b25-47a7-b781-350ba55a6add","ios":"levelo://app?vid=74bc9772-7b25-47a7-b781-350ba55a6add"},"vehicle_type_id":"4","last_reported":1684947968,"current_range_meters":14400,"station_id":"ce4bhbh2rcd13ifvqeo0","pricing_plan_id":"free"},{"bike_id":"5207e28a-cfaf-42fa-a277-0c7051e585be","system_id":"levelo_inurba_marseille","lat":43.273613,"lon":5.362705,"is_reserved":false,"is_disabled":false,"rental_uris":{"android":"levelo://app?vid=5207e28a-cfaf-42fa-a277-0c7051e585be","ios":"levelo://app?vid=5207e28a-cfaf-42fa-a277-0c7051e585be"},"vehicle_type_id":"4","last_reported":1684947968,"current_range_meters":31200,"station_id":"ce4bhbh2rcd13ifvqeo0","pricing_plan_id":"free"},{"bike_id":"bbaeaa87-f38f-4479-a1d0-3b01ad73565f","system_id":"levelo_inurba_marseille","lat":43.273613,"lon":5.362705,"is_reserved":false,"is_disabled":false,"rental_uris":{"android":"levelo://app?vid=bbaeaa87-f38f-4479-a1d0-3b01ad73565f","ios":"levelo://app?vid=bbaeaa87-f38f-4479-a1d0-3b01ad73565f"},"vehicle_type_id":"4","last_reported":1684947968,"current_range_meters":31200,"station_id":"ce4bhbh2rcd13ifvqeo0","pricing_plan_id":"free"},{"bike_id":"fb51fe5e-c9ac-49dc-8a7b-8725a91c6f23","system_id":"levelo_inurba_marseille","lat":43.273609,"lon":5.362708,"is_reserved":false,"is_disabled":false,"rental_uris":{"android":"levelo://app?vid=fb51fe5e-c9ac-49dc-8a7b-8725a91c6f23","ios":"levelo://app?vid=fb51fe5e-c9ac-49dc-8a7b-8725a91c6f23"},"vehicle_type_id":"4","last_reported":1684947968,"current_range_meters":11600,"station_id":"ce4bhbh2rcd13ifvqeo0","pricing_plan_id":"free"},{"bike_id":"c6cbdd1a-8f6b-4186-9cb7-4189848ce64d","system_id":"levelo_inurba_marseille","lat":43.273609,"lon":5.362708,"is_reserved":false,"is_disabled":false,"rental_uris":{"android":"levelo://app?vid=c6cbdd1a-8f6b-4186-9cb7-4189848ce64d","ios":"levelo://app?vid=c6cbdd1a-8f6b-4186-9cb7-4189848ce64d"},"vehicle_type_id":"4","last_reported":1684947968,"current_range_meters":24000,"station_id":"ce4bhbh2rcd13ifvqeo0","pricing_plan_id":"free"},{"bike_id":"58b2eb12-8748-4bb0-9d09-fab03f680965","system_id":"levelo_inurba_marseille","lat":43.276769,"lon":5.388787,"is_reserved":false,"is_disabled":false,"rental_uris":{"android":"levelo://app?vid=58b2eb12-8748-4bb0-9d09-fab03f680965","ios":"levelo://app?vid=58b2eb12-8748-4bb0-9d09-fab03f680965"},"vehicle_type_id":"4","last_reported":1684947968,"current_range_meters":18400,"station_id":"ce4bhi12rcd13ifvqfo0","pricing_plan_id":"free"},{"bike_id":"4456706a-9f7b-4e9a-a602-4fcbfb9e7489","system_id":"levelo_inurba_marseille","lat":43.27661,"lon":5.38869,"is_reserved":false,"is_disabled":false,"rental_uris":{"android":"levelo://app?vid=4456706a-9f7b-4e9a-a602-4fcbfb9e7489","ios":"levelo://app?vid=4456706a-9f7b-4e9a-a602-4fcbfb9e7489"},"vehicle_type_id":"4","last_reported":1684947968,"current_range_meters":400,"station_id":"ce4bhi12rcd13ifvqfo0","pricing_plan_id":"free"},{"bike_id":"ef7b7229-2f2a-4b04-aa5e-96c94ee7fc3f","system_id":"levelo_inurba_marseille","lat":43.27662,"lon":5.38875,"is_reserved":false,"is_disabled":false,"rental_uris":{"android":"levelo://app?vid=ef7b7229-2f2a-4b04-aa5e-96c94ee7fc3f","ios":"levelo://app?vid=ef7b7229-2f2a-4b04-aa5e-96c94ee7fc3f"},"vehicle_type_id":"4","last_reported":1684947968,"current_range_meters":18400,"station_id":"ce4bhi12rcd13ifvqfo0","pricing_plan_id":"free"},{"bike_id":"1f347b98-b4fc-46fd-9c19-a96ed84abc75","system_id":"levelo_inurba_marseille","lat":43.27484,"lon":5.38483,"is_reserved":false,"is_disabled":false,"rental_uris":{"android":"levelo://app?vid=1f347b98-b4fc-46fd-9c19-a96ed84abc75","ios":"levelo://app?vid=1f347b98-b4fc-46fd-9c19-a96ed84abc75"},"vehicle_type_id":"4","last_reported":1684947968,"current_range_meters":16400,"station_id":"","pricing_plan_id":"free"},{"bike_id":"d5d8d5ed-d608-475f-b4b8-89565d0b7088","system_id":"levelo_inurba_marseille","lat":43.317121,"lon":5.423936,"is_reserved":false,"is_disabled":false,"rental_uris":{"android":"levelo://app?vid=d5d8d5ed-d608-475f-b4b8-89565d0b7088","ios":"levelo://app?vid=d5d8d5ed-d608-475f-b4b8-89565d0b7088"},"vehicle_type_id":"4","last_reported":1684947968,"current_range_meters":10000,"station_id":"ce4bhp92rcd13ifvqhbg","pricing_plan_id":"free"},{"bike_id":"9e7fd393-ab80-4c2b-a49d-fa6df255fa44","system_id":"levelo_inurba_marseille","lat":43.317121,"lon":5.423936,"is_reserved":false,"is_disabled":false,"rental_uris":{"android":"levelo://app?vid=9e7fd393-ab80-4c2b-a49d-fa6df255fa44","ios":"levelo://app?vid=9e7fd393-ab80-4c2b-a49d-fa6df255fa44"},"vehicle_type_id":"4","last_reported":1684947968,"current_range_meters":18800,"station_id":"ce4bhp92rcd13ifvqhbg","pricing_plan_id":"free"},{"bike_id":"d0a79e6c-9ecb-40f9-ac93-5419e7494d88","system_id":"levelo_inurba_marseille","lat":43.317121,"lon":5.423936,"is_reserved":false,"is_disabled":false,"rental_uris":{"android":"levelo://app?vid=d0a79e6c-9ecb-40f9-ac93-5419e7494d88","ios":"levelo://app?vid=d0a79e6c-9ecb-40f9-ac93-5419e7494d88"},"vehicle_type_id":"4","last_reported":1684947968,"current_range_meters":4000,"station_id":"ce4bhp92rcd13ifvqhbg","pricing_plan_id":"free"},{"bike_id":"ec98951d-a48f-4594-b895-6a8be56b0b3c","system_id":"levelo_inurba_marseille","lat":43.317121,"lon":5.423936,"is_reserved":false,"is_disabled":false,"rental_uris":{"android":"levelo://app?vid=ec98951d-a48f-4594-b895-6a8be56b0b3c","ios":"levelo://app?vid=ec98951d-a48f-4594-b895-6a8be56b0b3c"},"vehicle_type_id":"4","last_reported":1684947968,"current_range_meters":23600,"station_id":"ce4bhp92rcd13ifvqhbg","pricing_plan_id":"free"},{"bike_id":"fb38061f-0704-4004-a06b-a594c3df37e3","system_id":"levelo_inurba_marseille","lat":43.274103,"lon":5.394016,"is_reserved":false,"is_disabled":false,"rental_uris":{"android":"levelo://app?vid=fb38061f-0704-4004-a06b-a594c3df37e3","ios":"levelo://app?vid=fb38061f-0704-4004-a06b-a594c3df37e3"},"vehicle_type_id":"4","last_reported":1684947968,"current_range_meters":18000,"station_id":"ce4bhdp2rcd13ifvqf20","pricing_plan_id":"free"},{"bike_id":"4ab5d770-45af-432d-bd28-c62fbe48c4f8","system_id":"levelo_inurba_marseille","lat":43.2732,"lon":5.39066,"is_reserved":false,"is_disabled":false,"rental_uris":{"android":"levelo://app?vid=4ab5d770-45af-432d-bd28-c62fbe48c4f8","ios":"levelo://app?vid=4ab5d770-45af-432d-bd28-c62fbe48c4f8"},"vehicle_type_id":"4","last_reported":1684947968,"current_range_meters":0,"station_id":"ce4bhgp2rcd13ifvqfe0","pricing_plan_id":"free"},{"bike_id":"8c53b4da-e130-4c80-b965-4af7a0443c2b","system_id":"levelo_inurba_marseille","lat":43.274103,"lon":5.394016,"is_reserved":false,"is_disabled":false,"rental_uris":{"android":"levelo://app?vid=8c53b4da-e130-4c80-b965-4af7a0443c2b","ios":"levelo://app?vid=8c53b4da-e130-4c80-b965-4af7a0443c2b"},"vehicle_type_id":"4","last_reported":1684947968,"current_range_meters":23200,"station_id":"ce4bhdp2rcd13ifvqf20","pricing_plan_id":"free"},{"bike_id":"db8e7847-d716-49f2-adbb-cc872ec92034","system_id":"levelo_inurba_marseille","lat":43.27312,"lon":5.39076,"is_reserved":false,"is_disabled":false,"rental_uris":{"android":"levelo://app?vid=db8e7847-d716-49f2-adbb-cc872ec92034","ios":"levelo://app?vid=db8e7847-d716-49f2-adbb-cc872ec92034"},"vehicle_type_id":"4","last_reported":1684947968,"current_range_meters":23600,"station_id":"","pricing_plan_id":"free"},{"bike_id":"332d15f7-62b5-405f-ac4c-99698078ddac","system_id":"levelo_inurba_marseille","lat":43.295511,"lon":5.422926,"is_reserved":false,"is_disabled":false,"rental_uris":{"android":"levelo://app?vid=332d15f7-62b5-405f-ac4c-99698078ddac","ios":"levelo://app?vid=332d15f7-62b5-405f-ac4c-99698078ddac"},"vehicle_type_id":"4","last_reported":1684947968,"current_range_meters":1600,"station_id":"ce4bhph2rcd13ifvqhdg","pricing_plan_id":"free"},{"bike_id":"7f5bc7a5-1d9b-411e-8b0f-e4f71a62b4f2","system_id":"levelo_inurba_marseille","lat":43.295511,"lon":5.422926,"is_reserved":false,"is_disabled":false,"rental_uris":{"android":"levelo://app?vid=7f5bc7a5-1d9b-411e-8b0f-e4f71a62b4f2","ios":"levelo://app?vid=7f5bc7a5-1d9b-411e-8b0f-e4f71a62b4f2"},"vehicle_type_id":"4","last_reported":1684947968,"current_range_meters":13200,"station_id":"ce4bhph2rcd13ifvqhdg","pricing_plan_id":"free"},