{"last_updated":1726640024,"ttl":30,"version":"2.2","data":{"bikes":[{"bike_id":"322e1fc7-477e-479f-b0df-9ee6bb7c3f34","system_id":"levelo_inurba_marseille","lat":43.327209,"lon":5.413065,"is_reserved":false,"is_disabled":false,"rental_uris":{"android":"levelo://app?vid=322e1fc7-477e-479f-b0df-9ee6bb7c3f34","ios":"levelo://app?vid=322e1fc7-477e-479f-b0df-9ee6bb7c3f34"},"vehicle_type_id":"4","last_reported":1726640024,"current_range_meters":28400,"station_id":"ce4bhq12rcd13ifvqhhg","pricing_plan_id":"cebpf4jnsgd1na2vs0mg"},{"bike_id":"d8a7bbae-3d0e-457c-8e82-e6128d956f4d","system_id":"levelo_inurba_marseille","lat":43.27498,"lon":5.42456,"is_reserved":false,"is_disabled":false,"rental_uris":{"android":"levelo://app?vid=d8a7bbae-3d0e-457c-8e82-e6128d956f4d","ios":"levelo://app?vid=d8a7bbae-3d0e-457c-8e82-e6128d956f4d"},"vehicle_type_id":"4","last_reported":1726640024,"current_range_meters":8800,"station_id":"ce4bhn92rcd13ifvqgrg","pricing_plan_id":"cebpf4jnsgd1na2vs0mg"},{"bike_id":"005b4cb7-40ef-46da-b28a-c870673d83f3","system_id":"levelo_inurba_marseille","lat":43.26949,"lon":5.38619,"is_reserved":false,"is_disabled":false,"rental_uris":{"android":"levelo://app?vid=005b4cb7-40ef-46da-b28a-c870673d83f3","ios":"levelo://app?vid=005b4cb7-40ef-46da-b28a-c870673d83f3"},"vehicle_type_id":"4","last_reported":1726640024,"current_range_meters":33200,"station_id":"ce4bhh92rcd13ifvqfh0","pricing_plan_id":"cebpf4jnsgd1na2vs0mg"},{"bike_id":"1b2eb3bf-704f-4ec9-b5bf-79bc64acc587","system_id":"levelo_inurba_marseille","lat":43.27312,"lon":5.39071,"is_reserved":false,"is_disabled":false,"rental_uris":{"android":"levelo://app?vid=1b2eb3bf-704f-4ec9-b5bf-79bc64acc587","ios":"levelo://app?vid=1b2eb3bf-704f-4ec9-b5bf-79bc64acc587"},"vehicle_type_id":"4","last_reported":1726640024,"current_range_meters":18000,"station_id":"ce4bhgp2rcd13ifvqfe0","pricing_plan_id":"cebpf4jnsgd1na2vs0mg"},{"bike_id":"b03c8bb0-a2f5-486b-a75d-893592988838","system_id":"levelo_inurba_marseille","lat":43.27962,"lon":5.38729,"is_reserved":false,"is_disabled":false,"rental_uris":{"android":"levelo://app?vid=b03c8bb0-a2f5-486b-a75d-893592988838","ios":"levelo://app?vid=b03c8bb0-a2f5-486b-a75d-893592988838"},"vehicle_type_id":"4","last_reported":1726640024,"current_range_meters":26000,"station_id":"ce4bhg12rcd13ifvqf80","pricing_plan_id":"cebpf4jnsgd1na2vs0mg"},{"bike_id":"ac732fa0-f66f-42ff-8122-a5b8fd7054ce","system_id":"levelo_inurba_marseille","lat":43.29987,"lon":5.37173,"is_reserved":false,"is_disabled":false,"rental_uris":{"android":"levelo://app?vid=ac732fa0-f66f-42ff-8122-a5b8fd7054ce","ios":"levelo://app?vid=ac732fa0-f66f-42ff-8122-a5b8fd7054ce"},"vehicle_type_id":"4","last_reported":1726640024,"current_range_meters":37600,"station_id":"ce4bgr92rcd13ifvqc7g","pricing_plan_id":"cebpf4jnsgd1na2vs0mg"},{"bike_id":"43176770-eaee-4996-86c7-d408161e4ce6","system_id":"levelo_inurba_marseille","lat":43.29896,"lon":5.43665,"is_reserved":false,"is_disabled":false,"rental_uris":{"android":"levelo://app?vid=43176770-eaee-4996-86c7-d408161e4ce6","ios":"levelo://app?vid=43176770-eaee-4996-86c7-d408161e4ce6"},"vehicle_type_id":"4","last_reported":1726640024,"current_range_meters":38000,"station_id":"ce4bhpp2rcd13ifvqhfg","pricing_plan_id":"cebpf4jnsgd1na2vs0mg"},{"bike_id":"05976b69-d4de-44ef-87b1-8bce8cd5521e","system_id":"levelo_inurba_marseille","lat":43.24086,"lon":5.37745,"is_reserved":false,"is_disabled":false,"rental_uris":{"android":"levelo://app?vid=05976b69-d4de-44ef-87b1-8bce8cd5521e","ios":"levelo://app?vid=05976b69-d4de-44ef-87b1-8bce8cd5521e"},"vehicle_type_id":"4","last_reported":1726640024,"current_range_meters":38800,"station_id":"ce4bhnp2rcd13ifvqgvg","pricing_plan_id":"cebpf4jnsgd1na2vs0mg"},{"bike_id":"017ad941-2bc7-4c23-aa10-a9af1a423d28","system_id":"levelo_inurba_marseille","lat":43.33013,"lon":5.39057,"is_reserved":false,"is_disabled":false,"rental_uris":{"android":"levelo://app?vid=017ad941-2bc7-4c23-aa10-a9af1a423d28","ios":"levelo://app?vid=017ad941-2bc7-4c23-aa10-a9af1a423d28"},"vehicle_type_id":"4","last_reported":1726640024,"current_range_meters":11200,"station_id":"ce4bhr92rcd13ifvqhrg","pricing_plan_id":"cebpf4jnsgd1na2vs0mg"},{"bike_id":"f85ce8c6-1f53-41f6-90ea-c0a37e5934f8","system_id":"levelo_inurba_marseille","lat":43.27075,"lon":5.42282,"is_reserved":false,"is_disabled":false,"rental_uris":{"android":"levelo://app?vid=f85ce8c6-1f53-41f6-90ea-c0a37e5934f8","ios":"levelo://app?vid=f85ce8c6-1f53-41f6-90ea-c0a37e5934f8"},"vehicle_type_id":"4","last_reported":1726640024,"current_range_meters":31200,"station_id":"ce4bhk92rcd13ifvqgb0","pricing_plan_id":"cebpf4jnsgd1na2vs0mg"},{"bike_id":"a6862d6c-bcdb-4c5e-854a-506954e7f8c0","system_id":"levelo_inurba_marseille","lat":43.259385,"lon":5.409088,"is_reserved":false,"is_disabled":false,"rental_uris":{"android":"levelo://app?vid=a6862d6c-bcdb-4c5e-854a-506954e7f8c0","ios":"levelo://app?vid=a6862d6c-bcdb-4c5e-854a-506954e7f8c0"},"vehicle_type_id":"4","last_reported":1726640024,"current_range_meters":4800,"station_id":"ce4bhm92rcd13ifvqglg","pricing_plan_id":"cebpf4jnsgd1na2vs0mg"},{"bike_id":"59e3679f-c923-412e-9d47-0a022379f072","system_id":"levelo_inurba_marseille","lat":43.30932,"lon":5.40143,"is_reserved":false,"is_disabled":false,"rental_uris":{"android":"levelo://app?vid=59e3679f-c923-412e-9d47-0a022379f072","ios":"levelo://app?vid=59e3679f-c923-412e-9d47-0a022379f072"},"vehicle_type_id":"4","last_reported":1726640024,"current_range_meters":36400,"station_id":"ce4bgvp2rcd13ifvqct0","pricing_plan_id":"cebpf4jnsgd1na2vs0mg"},{"bike_id":"f21a06ba-6870-4c58-864e-f82408fe082c","system_id":"levelo_inurba_marseille","lat":43.3108,"lon":5.3785,"is_reserved":false,"is_disabled":false,"rental_uris":{"android":"levelo://app?vid=f21a06ba-6870-4c58-864e-f82408fe082c","ios":"levelo://app?vid=f21a06ba-6870-4c58-864e-f82408fe082c"},"vehicle_type_id":"4","last_reported":1726640024,"current_range_meters":38400,"station_id":"","pricing_plan_id":"cebpf4jnsgd1na2vs0mg"},{"bike_id":"1ac8a1bd-9b8e-4a86-967b-c04627a27285","system_id":"levelo_inurba_marseille","lat":43.27669,"lon":5.38873,"is_reserved":false,"is_disabled":false,"rental_uris":{"android":"levelo://app?vid=1ac8a1bd-9b8e-4a86-967b-c04627a27285","ios":"levelo://app?vid=1ac8a1bd-9b8e-4a86-967b-c04627a27285"},"vehicle_type_id":"4","last_reported":1726640024,"current_range_meters":33200,"station_id":"ce4bhi12rcd13ifvqfo0","pricing_plan_id":"cebpf4jnsgd1na2vs0mg"},{"bike_id":"07aa3c6e-2121-49da-8fdd-9f4189b36e9f","system_id":"levelo_inurba_marseille","lat":43.3095,"lon":5.39027,"is_reserved":false,"is_disabled":false,"rental_uris":{"android":"levelo://app?vid=07aa3c6e-2121-49da-8fdd-9f4189b36e9f","ios":"levelo://app?vid=07aa3c6e-2121-49da-8fdd-9f4189b36e9f"},"vehicle_type_id":"4","last_reported":1726640024,"current_range_meters":24400,"station_id":"ce4bgup2rcd13ifvqco0","pricing_plan_id":"cebpf4jnsgd1na2vs0mg"},{"bike_id":"dafbdf09-d9eb-43c5-a6eb-8a0c6ae0fc63","system_id":"levelo_inurba_marseille","lat":43.31756,"lon":5.39019,"is_reserved":false,"is_disabled":false,"rental_uris":{"android":"levelo://app?vid=dafbdf09-d9eb-43c5-a6eb-8a0c6ae0fc63","ios":"levelo://app?vid=dafbdf09-d9eb-43c5-a6eb-8a0c6ae0fc63"},"vehicle_type_id":"4","last_reported":1726640024,"current_range_meters":38800,"station_id":"ce4bhqp2rcd13ifvqhng","pricing_plan_id":"cebpf4jnsgd1na2vs0mg"},{"bike_id":"b5890725-bfd6-4476-9287-9e093cd096fb","system_id":"levelo_inurba_marseille","lat":43.33022,"lon":5.39039,"is_reserved":false,"is_disabled":false,"rental_uris":{"android":"levelo://app?vid=b5890725-bfd6-4476-9287-9e093cd096fb","ios":"levelo://app?vid=b5890725-bfd6-4476-9287-9e093cd096fb"},"vehicle_type_id":"4","last_reported":1726640024,"current_range_meters":6400,"station_id":"ce4bhr92rcd13ifvqhrg","pricing_plan_id":"cebpf4jnsgd1na2vs0mg"},{"bike_id":"de672d3e-6631-4f79-a15a-ca2546ba213b","system_id":"levelo_inurba_marseille","lat":43.24074,"lon":5.37758,"is_reserved":false,"is_disabled":false,"rental_uris":{"android":"levelo://app?vid=de672d3e-6631-4f79-a15a-ca2546ba213b","ios":"levelo://app?vid=de672d3e-6631-4f79-a15a-ca2546ba213b"},"vehicle_type_id":"4","last_reported":1726640024,"current_range_meters":11200,"station_id":"ce4bhnp2rcd13ifvqgvg","pricing_plan_id":"cebpf4jnsgd1na2vs0mg"},{"bike_id":"553a82d5-e222-4603-9da6-f2b592b1881b","system_id":"levelo_inurba_marseille","lat":43.3047,"lon":5.37903,"is_reserved":false,"is_disabled":false,"rental_uris":{"android":"levelo://app?vid=553a82d5-e222-4603-9da6-f2b592b1881b","ios":"levelo://app?vid=553a82d5-e222-4603-9da6-f2b592b1881b"},"vehicle_type_id":"4","last_reported":1726640024,"current_range_meters":16000,"station_id":"ce4bgup2rcd13ifvqcn0","pricing_plan_id":"cebpf4jnsgd1na2vs0mg"},{"bike_id":"5309d39c-1795-43e9-bfff-4830328841b6","system_id":"levelo_inurba_marseille","lat":43.23151,"lon":5.43719,"is_reserved":false,"is_disabled":false,"rental_uris":{"android":"levelo://app?vid=5309d39c-1795-43e9-bfff-4830328841b6","ios":"levelo://app?vid=5309d39c-1795-43e9-bfff-4830328841b6"},"vehicle_type_id":"4","last_reported":1726640024,"current_range_meters":27600,"station_id":"ce4bhmp2rcd13ifvqgog","pricing_plan_id":"cebpf4jnsgd1na2vs0mg"},{"bike_id":"5a957f6d-1510-4b43-8292-61ee12b61d0c","system_id":"levelo_inurba_marseille","lat":43.27059,"lon":5.40258,"is_reserved":false,"is_disabled":false,"rental_uris":{"android":"levelo://app?vid=5a957f6d-1510-4b43-8292-61ee12b61d0c","ios":"levelo://app?vid=5a957f6d-1510-4b43-8292-61ee12b61d0c"},"vehicle_type_id":"4","last_reported":1726640024,"current_range_meters":34000,"station_id":"ce4bhk92rcd13ifvqgc0","pricing_plan_id":"cebpf4jnsgd1na2vs0mg"},{"bike_id":"c3c364f4-0fa8-4b51-8626-4a339baace73","system_id":"levelo_inurba_marseille","lat":43.240479,"lon":5.377757,"is_reserved":false,"is_disabled":false,"rental_uris":{"android":"levelo://app?vid=c3c364f4-0fa8-4b51-8626-4a339baace73","ios":"levelo://app?vid=c3c364f4-0fa8-4b51-8626-4a339baace73"},"vehicle_type_id":"4","last_reported":1726640024,"current_range_meters":29600,"station_id":"ce4bhnp2rcd13ifvqgvg","pricing_plan_id":"cebpf4jnsgd1na2vs0mg"},{"bike_id":"33c75069-6d89-4fa7-9c01-e0016a252dc6","system_id":"levelo_inurba_marseille","lat":43.28855,"lon":5.3584,"is_reserved":false,"is_disabled":false,"rental_uris":{"android":"levelo://app?vid=33c75069-6d89-4fa7-9c01-e0016a252dc6","ios":"levelo://app?vid=33c75069-6d89-4fa7-9c01-e0016a252dc6"},"vehicle_type_id":"4","last_reported":1726640024,"current_range_meters":34800,"station_id":"ce4bhb12rcd13ifvqem0","pricing_plan_id":"cebpf4jnsgd1na2vs0mg"},{"bike_id":"94306d42-ea71-4ff6-9cf4-02f2bfbb1144","system_id":"levelo_inurba_marseille","lat":43.289398,"lon":5.364045,"is_reserved":false,"is_disabled":false,"rental_uris":{"android":"levelo://app?vid=94306d42-ea71-4ff6-9cf4-02f2bfbb1144","ios":"levelo://app?vid=94306d42-ea71-4ff6-9cf4-02f2bfbb1144"},"vehicle_type_id":"4","last_reported":1726640024,"current_range_meters":38000,"station_id":"ce4bhc92rcd13ifvqetg","pricing_plan_id":"cebpf4jnsgd1na2vs0mg"},{"bike_id":"103a716b-dbc7-4e49-a7f2-16e378e92b85","system_id":"levelo_inurba_marseille","lat":43.22927,"lon":5.35373,"is_reserved":false,"is_disabled":false,"rental_uris":{"android":"levelo://app?vid=103a716b-dbc7-4e49-a7f2-16e378e92b85","ios":"levelo://app?vid=103a716b-dbc7-4e49-a7f2-16e378e92b85"},"vehicle_type_id":"4","last_reported":1726640024,"current_range_meters":26800,"station_id":"cpo3532slgdg3j2ikp40","pricing_plan_id":"cebpf4jnsgd1na2vs0mg"},{"bike_id":"06bfb82b-72f8-467a-abe6-3935f8a7f2de","system_id":"levelo_inurba_marseille","lat":43.27811,"lon":5.40712,"is_reserved":false,"is_disabled":false,"rental_uris":{"android":"levelo://app?vid=06bfb82b-72f8-467a-abe6-3935f8a7f2de","ios":"levelo://app?vid=06bfb82b-72f8-467a-abe6-3935f8a7f2de"},"vehicle_type_id":"4","last_reported":1726640024,"current_range_meters":26800,"station_id":"ce4bhnh2rcd13ifvqgtg","pricing_plan_id":"cebpf4jnsgd1na2vs0mg"},{"bike_id":"04c5cc2a-93cc-4839-933f-fb21d144e766","system_id":"levelo_inurba_marseille","lat":43.28705,"lon":5.39986,"is_reserved":false,"is_disabled":false,"rental_uris":{"android":"levelo://app?vid=04c5cc2a-93cc-4839-933f-fb21d144e766","ios":"levelo://app?vid=04c5cc2a-93cc-4839-933f-fb21d144e766"},"vehicle_type_id":"4","last_reported":1726640024,"current_range_meters":38800,"station_id":"ce4bho92rcd13ifvqh3g","pricing_plan_id":"cebpf4jnsgd1na2vs0mg"},{"bike_id":"3efe9825-d6f0-40ec-b43e-f8cb7807c480","system_id":"levelo_inurba_marseille","lat":43.29806,"lon":5.37104,"is_reserved":false,"is_disabled":false,"rental_uris":{"android":"levelo://app?vid=3efe9825-d6f0-40ec-b43e-f8cb7807c480","ios":"levelo://app?vid=3efe9825-d6f0-40ec-b43e-f8cb7807c480"},"vehicle_type_id":"4","last_reported":1726640024,"current_range_meters":38800,"station_id":"ce4bgop2rcd13ifvqc1g","pricing_plan_id":"cebpf4jnsgd1na2vs0mg"},{"bike_id":"a02531e7-e816-40db-83bd-a99a7ebc00d2","system_id":"levelo_inurba_marseille","lat":43.30472,"lon":5.37904,"is_reserved":false,"is_disabled":false,"rental_uris":{"android":"levelo://app?vid=a02531e7-e816-40db-83bd-a99a7ebc00d2","ios":"levelo://app?vid=a02531e7-e816-40db-83bd-a99a7ebc00d2"},"vehicle_type_id":"4","last_reported":1726640024,"current_range_meters":35200,"station_id":"ce4bgup2rcd13ifvqcn0","pricing_plan_id":"cebpf4jnsgd1na2vs0mg"},{"bike_id":"86ed3f1f-3283-4776-9c43-a8bb74233353","system_id":"levelo_inurba_marseille","lat":43.29077,"lon":5.40011,"is_reserved":false,"is_disabled":false,"rental_uris":{"android":"levelo://app?vid=86ed3f1f-3283-4776-9c43-a8bb74233353","ios":"levelo://app?vid=86ed3f1f-3283-4776-9c43-a8bb74233353"},"vehicle_type_id":"4","last_reported":1726640024,"current_range_meters":40000,"station_id":"ce4bh392rcd13ifvqdm0","pricing_plan_id":"cebpf4jnsgd1na2vs0mg"},{"bike_id":"7a25e7c4-ec2b-4ebe-8166-d355e2a41fb9","system_id":"levelo_inurba_marseille","lat":43.302216,"lon":5.379597,"is_reserved":false,"is_disabled":false,"rental_uris":{"android":"levelo://app?vid=7a25e7c4-ec2b-4ebe-8166-d355e2a41fb9","ios":"levelo://app?vid=7a25e7c4-ec2b-4ebe-8166-d355e2a41fb9"},"vehicle_type_id":"4","last_reported":1726640024,"current_range_meters":35200,"station_id":"ce4bgup2rcd13ifvqcn0","pricing_plan_id":"cebpf4jnsgd1na2vs0mg"},{"bike_id":"3865a787-eeae-426d-8d42-5d04bb282598","system_id":"levelo_inurba_marseille","lat":43.29006,"lon":5.35607,"is_reserved":false,"is_disabled":false,"rental_uris":{"android":"levelo://app?vid=3865a787-eeae-426d-8d42-5d04bb282598","ios":"levelo://app?vid=3865a787-eeae-426d-8d42-5d04bb282598"},"vehicle_type_id":"4","last_reported":1726640024,"current_range_meters":19200,"station_id":"ce4bhc92rcd13ifvqetg","pricing_plan_id":"cebpf4jnsgd1na2vs0mg"},{"bike_id":"aa05126f-221c-49dd-b90a-c43df209aff8","system_id":"levelo_inurba_marseille","lat":43.28471,"lon":5.38423,"is_reserved":false,"is_disabled":false,"rental_uris":{"android":"levelo://app?vid=aa05126f-221c-49dd-b90a-c43df209aff8","ios":"levelo://app?vid=aa05126f-221c-49dd-b90a-c43df209aff8"},"vehicle_type_id":"4","last_reported":1726640024,"current_range_meters":37600,"station_id":"ce4bh512rcd13ifvqe3g","pricing_plan_id":"cebpf4jnsgd1na2vs0mg"},{"bike_id":"36744953-19f6-4f64-90f3-a1f3800261f1","system_id":"levelo_inurba_marseille","lat":43.28042,"lon":5.36938,"is_reserved":false,"is_disabled":false,"rental_uris":{"android":"levelo://app?vid=36744953-19f6-4f64-90f3-a1f3800261f1","ios":"levelo://app?vid=36744953-19f6-4f64-90f3-a1f3800261f1"},"vehicle_type_id":"4","last_reported":1726640024,"current_range_meters":37600,"station_id":"ce4bha12rcd13ifvqef0","pricing_plan_id":"cebpf4jnsgd1na2vs0mg"},{"bike_id":"8fd7179e-20ef-461b-87a3-d989a052c2de","system_id":"levelo_inurba_marseille","lat":43.28044,"lon":5.36939,"is_reserved":false,"is_disabled":false,"rental_uris":{"android":"levelo://app?vid=8fd7179e-20ef-461b-87a3-d989a052c2de","ios":"levelo://app?vid=8fd7179e-20ef-461b-87a3-d989a052c2de"},"vehicle_type_id":"4","last_reported":1726640024,"current_range_meters":32800,"station_id":"ce4bha12rcd13ifvqef0","pricing_plan_id":"cebpf4jnsgd1na2vs0mg"},{"bike_id":"d897a00a-b494-4acd-a7b3-c8cdab149c92","system_id":"levelo_inurba_marseille","lat":43.25574,"lon":5.3823,"is_reserved":false,"is_disabled":false,"rental_uris":{"android":"levelo://app?vid=d897a00a-b494-4acd-a7b3-c8cdab149c92","ios":"levelo://app?vid=d897a00a-b494-4acd-a7b3-c8cdab149c92"},"vehicle_type_id":"4","last_reported":1726640024,"current_range_meters":37600,"station_id":"ce4bhih2rcd13ifvqfs0","pricing_plan_id":"cebpf4jnsgd1na2vs0mg"},{"bike_id":"2a5808e5-1612-4dc1-a62b-b9c71459256c","system_id":"levelo_inurba_marseille","lat":43.34098,"lon":5.39108,"is_reserved":false,"is_disabled":false,"rental_uris":{"android":"levelo://app?vid=2a5808e5-1612-4dc1-a62b-b9c71459256c","ios":"levelo://app?vid=2a5808e5-1612-4dc1-a62b-b9c71459256c"},"vehicle_type_id":"4","last_reported":1726640024,"current_range_meters":6800,"station_id":"","pricing_plan_id":"cebpf4jnsgd1na2vs0mg"},{"bike_id":"9def4d63-7cec-4ef3-bac5-883bf42519e2","system_id":"levelo_inurba_marseille","lat":43.28467,"lon":5.35864,"is_reserved":false,"is_disabled":false,"rental_uris":{"android":"levelo://app?vid=9def4d63-7cec-4ef3-bac5-883bf42519e2","ios":"levelo://app?vid=9def4d63-7cec-4ef3-bac5-883bf42519e2"},"vehicle_type_id":"4","last_reported":1726640024,"current_range_meters":12800,"station_id":"ce4bhah2rcd13ifvqei0","pricing_plan_id":"cebpf4jnsgd1na2vs0mg"},{"bike_id":"9a632c71-23c5-4e6c-81fa-9127173665eb","system_id":"levelo_inurba_marseille","lat":43.28715,"lon":5.39984,"is_reserved":false,"is_disabled":false,"rental_uris":{"android":"levelo://app?vid=9a632c71-23c5-4e6c-81fa-9127173665eb","ios":"levelo://app?vid=9a632c71-23c5-4e6c-81fa-9127173665eb"},"vehicle_type_id":"4","last_reported":1726640024,"current_range_meters":38000,"station_id":"ce4bho92rcd13ifvqh3g","pricing_plan_id":"cebpf4jnsgd1na2vs0mg"},{"bike_id":"69fabb06-4e65-4b54-9c62-ea4ce601487a","system_id":"levelo_inurba_marseille","lat":43.32283,"lon":5.38275,"is_reserved":false,"is_disabled":false,"rental_uris":{"android":"levelo://app?vid=69fabb06-4e65-4b54-9c62-ea4ce601487a","ios":"levelo://app?vid=69fabb06-4e65-4b54-9c62-ea4ce601487a"},"vehicle_type_id":"4","last_reported":1726640024,"current_range_meters":38800,"station_id":"ce4bhr12rcd13ifvqhqg","pricing_plan_id":"cebpf4jnsgd1na2vs0mg"},{"bike_id":"94825388-aeee-4d05-9c6f-f2708e17a7f3","system_id":"levelo_inurba_marseille","lat":43.30147,"lon":5.38082,"is_reserved":false,"is_disabled":false,"rental_uris":{"android":"levelo://app?vid=94825388-aeee-4d05-9c6f-f2708e17a7f3","ios":"levelo://app?vid=94825388-aeee-4d05-9c6f-f2708e17a7f3"},"vehicle_type_id":"4","last_reported":1726640024,"current_range_meters":36800,"station_id":"ce4bgjp2rcd13ifvqbh0","pricing_plan_id":"cebpf4jnsgd1na2vs0mg"},{"bike_id":"6444b746-3e51-4ea8-932e-7fcd12c8d71c","system_id":"levelo_inurba_marseille","lat":43.26064,"lon":5.39395,"is_reserved":false,"is_disabled":false,"rental_uris":{"android":"levelo://app?vid=6444b746-3e51-4ea8-932e-7fcd12c8d71c","ios":"levelo://app?vid=6444b746-3e51-4ea8-932e-7fcd12c8d71c"},"vehicle_type_id":"4","last_reported":1726640024,"current_range_meters":31200,"station_id":"ce4bhh92rcd13ifvqfj0","pricing_plan_id":"cebpf4jnsgd1na2vs0mg"},{"bike_id":"65eaf48d-8e15-4c50-a81a-08d7b23a7362","system_id":"levelo_inurba_marseille","lat":43.310824,"lon":5.424317,"is_reserved":false,"is_disabled":false,"rental_uris":{"android":"levelo://app?vid=65eaf48d-8e15-4c50-a81a-08d7b23a7362","ios":"levelo://app?vid=65eaf48d-8e15-4c50-a81a-08d7b23a7362"},"vehicle_type_id":"4","last_reported":1726640024,"current_range_meters":32800,"station_id":"ce4bhp92rcd13ifvqhag","pricing_plan_id":"cebpf4jnsgd1na2vs0mg"},{"bike_id":"b4450704-51e1-4ff8-a772-08322cc70eb7","system_id":"levelo_inurba_marseille","lat":43.23189,"lon":5.35566,"is_reserved":false,"is_disabled":false,"rental_uris":{"android":"levelo://app?vid=b4450704-51e1-4ff8-a772-08322cc70eb7","ios":"levelo://app?vid=b4450704-51e1-4ff8-a772-08322cc70eb7"},"vehicle_type_id":"4","last_reported":1726640024,"current_range_meters":36400,"station_id":"ce4bhu92rcd13ifvqi70","pricing_plan_id":"cebpf4jnsgd1na2vs0mg"},{"bike_id":"30294502-e765-463a-9ed5-c4caba98194b","system_id":"levelo_inurba_marseille","lat":43.311737,"lon":5.387136,"is_reserved":false,"is_disabled":false,"rental_uris":{"android":"levelo://app?vid=30294502-e765-463a-9ed5-c4caba98194b","ios":"levelo://app?vid=30294502-e765-463a-9ed5-c4caba98194b"},"vehicle_type_id":"4","last_reported":1726640024,"current_range_meters":26800,"station_id":"ce4bhap2rcd13ifvqek0","pricing_plan_id":"cebpf4jnsgd1na2vs0mg"},{"bike_id":"f884c139-5e70-4b5c-839d-930bc641f4ea","system_id":"levelo_inurba_marseille","lat":43.25004,"lon":5.38924,"is_reserved":false,"is_disabled":false,"rental_uris":{"android":"levelo://app?vid=f884c139-5e70-4b5c-839d-930bc641f4ea","ios":"levelo://app?vid=f884c139-5e70-4b5c-839d-930bc641f4ea"},"vehicle_type_id":"4","last_reported":1726640024,"current_range_meters":38800,"station_id":"ce4bhgp2rcd13ifvqfd0","pricing_plan_id":"cebpf4jnsgd1na2vs0mg"},{"bike_id":"11c25784-46c1-41d9-bcf5-3b71e59e2d8e","system_id":"levelo_inurba_marseille","lat":43.25502,"lon":5.37653,"is_reserved":false,"is_disabled":false,"rental_uris":{"android":"levelo://app?vid=11c25784-46c1-41d9-bcf5-3b71e59e2d8e","ios":"levelo://app?vid=11c25784-46c1-41d9-bcf5-3b71e59e2d8e"},"vehicle_type_id":"4","last_reported":1726640024,"current_range_meters":35600,"station_id":"ce4bhh12rcd13ifvqff0","pricing_plan_id":"cebpf4jnsgd1na2vs0mg"},{"bike_id":"c2667222-5d26-4d9c-a938-761c480fe584","system_id":"levelo_inurba_marseille","lat":43.33023,"lon":5.39048,"is_reserved":false,"is_disabled":false,"rental_uris":{"android":"levelo://app?vid=c2667222-5d26-4d9c-a938-761c480fe584","ios":"levelo://app?vid=c2667222-5d26-4d9c-a938-761c480fe584"},"vehicle_type_id":"4","last_reported":1726640024,"current_range_meters":11600,"station_id":"ce4bhr92rcd13ifvqhrg","pricing_plan_id":"cebpf4jnsgd1na2vs0mg"},{"bike_id":"d7c0ad22-cde4-4cdf-85cf-0dab83311860","system_id":"levelo_inurba_marseille","lat":43.280375,"lon":5.36945,"is_reserved":false,"is_disabled":false,"rental_uris":{"android":"levelo://app?vid=d7c0ad22-cde4-4cdf-85cf-0dab83311860","ios":"levelo://app?vid=d7c0ad22-cde4-4cdf-85cf-0dab83311860"},"vehicle_type_id":"4","last_reported":1726640024,"current_range_meters":28400,"station_id":"ce4bha12rcd13ifvqef0","pricing_plan_id":"cebpf4jnsgd1na2vs0mg"},{"bike_id":"442c5059-0433-4ca9-94c3-1cf6dbafc57d","system_id":"levelo_inurba_marseille","lat":43.30158,"lon":5.38088,"is_reserved":false,"is_disabled":false,"rental_uris":{"android":"levelo://app?vid=442c5059-0433-4ca9-94c3-1cf6dbafc57d","ios":"levelo://app?vid=442c5059-0433-4ca9-94c3-1cf6dbafc57d"},"vehicle_type_id":"4","last_reported":1726640024,"current_range_meters":33600,"station_id":"ce4bgjp2rcd13ifvqbh0","pricing_plan_id":"cebpf4jnsgd1na2vs0mg"},{"bike_id":"3e38a0f1-ac66-46d9-b0fb-b80f693fdba9","system_id":"levelo_inurba_marseille","lat":43.27964,"lon":5.3872,"is_reserved":false,"is_disabled":false,"rental_uris":{"android":"levelo://app?vid=3e38a0f1-ac66-46d9-b0fb-b80f693fdba9","ios":"levelo://app?vid=3e38a0f1-ac66-46d9-b0fb-b80f693fdba9"},"vehicle_type_id":"4","last_reported":1726640024,"current_range_meters":39200,"station_id":"ce4bhg12rcd13ifvqf80","pricing_plan_id":"cebpf4jnsgd1na2vs0mg"},{"bike_id":"0ed7d266-2831-490c-be75-922df18b0d8d","system_id":"levelo_inurba_marseille","lat":43.30468,"lon":5.37912,"is_reserved":false,"is_disabled":false,"rental_uris":{"android":"levelo://app?vid=0ed7d266-2831-490c-be75-922df18b0d8d","ios":"levelo://app?vid=0ed7d266-2831-490c-be75-922df18b0d8d"},"vehicle_type_id":"4","last_reported":1726640024,"current_range_meters":32000,"station_id":"ce4bgup2rcd13ifvqcn0","pricing_plan_id":"cebpf4jnsgd1na2vs0mg"},{"bike_id":"adc3d03c-1a26-4c6b-978d-4c30cce189a2","system_id":"levelo_inurba_marseille","lat":43.25498,"lon":5.37655,"is_reserved":false,"is_disabled":false,"rental_uris":{"android":"levelo://app?vid=adc3d03c-1a26-4c6b-978d-4c30cce189a2","ios":"levelo://app?vid=adc3d03c-1a26-4c6b-978d-4c30cce189a2"},"vehicle_type_id":"4","last_reported":1726640024,"current_range_meters":32000,"station_id":"ce4bhh12rcd13ifvqff0","pricing_plan_id":"cebpf4jnsgd1na2vs0mg"},{"bike_id":"3dba76c9-fa18-41a4-9a4c-0e9431ab96c8","system_id":"levelo_inurba_marseille","lat":43.311221,"lon":5.377649,"is_reserved":false,"is_disabled":false,"rental_uris":{"android":"levelo://app?vid=3dba76c9-fa18-41a4-9a4c-0e9431ab96c8","ios":"levelo://app?vid=3dba76c9-fa18-41a4-9a4c-0e9431ab96c8"},"vehicle_type_id":"4","last_reported":1726640024,"current_range_meters":36400,"station_id":"ce4bgn12rcd13ifvqbt0","pricing_plan_id":"cebpf4jnsgd1na2vs0mg"},{"bike_id":"39e98e65-bb50-4ca8-bef8-9baaf8cec1ef","system_id":"levelo_inurba_marseille","lat":43.27499,"lon":5.42447,"is_reserved":false,"is_disabled":false,"rental_uris":{"android":"levelo://app?vid=39e98e65-bb50-4ca8-bef8-9baaf8cec1ef","ios":"levelo://app?vid=39e98e65-bb50-4ca8-bef8-9baaf8cec1ef"},"vehicle_type_id":"4","last_reported":1726640024,"current_range_meters":28000,"station_id":"ce4bhn92rcd13ifvqgrg","pricing_plan_id":"cebpf4jnsgd1na2vs0mg"},{"bike_id":"0ca86180-5cb3-46a7-9899-332acb885aba","system_id":"levelo_inurba_marseille","lat":43.27921,"lon":5.39567,"is_reserved":false,"is_disabled":false,"rental_uris":{"android":"levelo://app?vid=0ca86180-5cb3-46a7-9899-332acb885aba","ios":"levelo://app?vid=0ca86180-5cb3-46a7-9899-332acb885aba"},"vehicle_type_id":"4","last_reported":1726640024,"current_range_meters":35200,"station_id":"ce4bhf92rcd13ifvqf40","pricing_plan_id":"cebpf4jnsgd1na2vs0mg"},{"bike_id":"b127a4cd-f7e2-40d8-8ded-978d3f74b6a4","system_id":"levelo_inurba_marseille","lat":43.24074,"lon":5.3776,"is_reserved":false,"is_disabled":false,"rental_uris":{"android":"levelo://app?vid=b127a4cd-f7e2-40d8-8ded-978d3f74b6a4","ios":"levelo://app?vid=b127a4cd-f7e2-40d8-8ded-978d3f74b6a4"},"vehicle_type_id":"4","last_reported":1726640024,"current_range_meters":21600,"station_id":"ce4bhnp2rcd13ifvqgvg","pricing_plan_id":"cebpf4jnsgd1na2vs0mg"},{"bike_id":"d9cd8e64-f0e8-4451-863f-a14224a06409","system_id":"levelo_inurba_marseille","lat":43.32546,"lon":5.41458,"is_reserved":false,"is_disabled":false,"rental_uris":{"android":"levelo://app?vid=d9cd8e64-f0e8-4451-863f-a14224a06409","ios":"levelo://app?vid=d9cd8e64-f0e8-4451-863f-a14224a06409"},"vehicle_type_id":"4","last_reported":1726640024,"current_range_meters":38000,"station_id":"ce4bhq12rcd13ifvqhhg","pricing_plan_id":"cebpf4jnsgd1na2vs0mg"},{"bike_id":"9ec75349-5981-4540-9c85-67e247bba546","system_id":"levelo_inurba_marseille","lat":43.3169,"lon":5.40468,"is_reserved":false,"is_disabled":false,"rental_uris":{"android":"levelo://app?vid=9ec75349-5981-4540-9c85-67e247bba546","ios":"levelo://app?vid=9ec75349-5981-4540-9c85-67e247bba546"},"vehicle_type_id":"4","last_reported":1726640024,"current_range_meters":37600,"station_id":"ce4bh012rcd13ifvqd00","pricing_plan_id":"cebpf4jnsgd1na2vs0mg"},{"bike_id":"394e6ae4-aa38-47e5-ad65-1154f489383d","system_id":"levelo_inurba_marseille","lat":43.29119,"lon":5.35565,"is_reserved":false,"is_disabled":false,"rental_uris":{"android":"levelo://app?vid=394e6ae4-aa38-47e5-ad65-1154f489383d","ios":"levelo://app?vid=394e6ae4-aa38-47e5-ad65-1154f489383d"},"vehicle_type_id":"4","last_reported":1726640024,"current_range_meters":22800,"station_id":"","pricing_plan_id":"cebpf4jnsgd1na2vs0mg"},{"bike_id":"fce0cb52-b446-42cb-b9ba-d6a8b457b81e","system_id":"levelo_inurba_marseille","lat":43.29535,"lon":5.38552,"is_reserved":false,"is_disabled":false,"rental_uris":{"android":"levelo://app?vid=fce0cb52-b446-42cb-b9ba-d6a8b457b81e","ios":"levelo://app?vid=fce0cb52-b446-42cb-b9ba-d6a8b457b81e"},"vehicle_type_id":"4","last_reported":1726640024,"current_range_meters":20800,"station_id":"ce4bgih2rcd13ifvqba0","pricing_plan_id":"cebpf4jnsgd1na2vs0mg"},{"bike_id":"5b097206-c811-4983-b7d9-6f2b3c164fb0","system_id":"levelo_inurba_marseille","lat":43.29502,"lon":5.381848,"is_reserved":false,"is_disabled":false,"rental_uris":{"android":"levelo://app?vid=5b097206-c811-4983-b7d9-6f2b3c164fb0","ios":"levelo://app?vid=5b097206-c811-4983-b7d9-6f2b3c164fb0"},"vehicle_type_id":"4","last_reported":1726640024,"current_range_meters":36400,"station_id":"","pricing_plan_id":"cebpf4jnsgd1na2vs0mg"},{"bike_id":"afeea569-28f0-4bf3-a669-44b195cfbe8d","system_id":"levelo_inurba_marseille","lat":43.25584,"lon":5.38226,"is_reserved":false,"is_disabled":false,"rental_uris":{"android":"levelo://app?vid=afeea569-28f0-4bf3-a669-44b195cfbe8d","ios":"levelo://app?vid=afeea569-28f0-4bf3-a669-44b195cfbe8d"},"vehicle_type_id":"4","last_reported":1726640024,"current_range_meters":38000,"station_id":"ce4bhih2rcd13ifvqfs0","pricing_plan_id":"cebpf4jnsgd1na2vs0mg"},{"bike_id":"e10c20be-fb2a-4a7f-843d-2b792cd319c4","system_id":"levelo_inurba_marseille","lat":43.29606,"lon":5.3809,"is_reserved":false,"is_disabled":false,"rental_uris":{"android":"levelo://app?vid=e10c20be-fb2a-4a7f-843d-2b792cd319c4","ios":"levelo://app?vid=e10c20be-fb2a-4a7f-843d-2b792cd319c4"},"vehicle_type_id":"4","last_reported":1726640024,"current_range_meters":38000,"station_id":"ce4bgl12rcd13ifvqbo0","pricing_plan_id":"cebpf4jnsgd1na2vs0mg"},{"bike_id":"e2ee6c47-636c-428c-bca5-9b48d7bfa727","system_id":"levelo_inurba_marseille","lat":43.289529,"lon":5.364226,"is_reserved":false,"is_disabled":false,"rental_uris":{"android":"levelo://app?vid=e2ee6c47-636c-428c-bca5-9b48d7bfa727","ios":"levelo://app?vid=e2ee6c47-636c-428c-bca5-9b48d7bfa727"},"vehicle_type_id":"4","last_reported":1726640024,"current_range_meters":32000,"station_id":"ce4bhc92rcd13ifvqetg","pricing_plan_id":"cebpf4jnsgd1na2vs0mg"},{"bike_id":"60b74028-b66a-4980-8686-5a91db51275a","system_id":"levelo_inurba_marseille","lat":43.29794,"lon":5.38116,"is_reserved":false,"is_disabled":false,"rental_uris":{"android":"levelo://app?vid=60b74028-b66a-4980-8686-5a91db51275a","ios":"levelo://app?vid=60b74028-b66a-4980-8686-5a91db51275a"},"vehicle_type_id":"4","last_reported":1726640024,"current_range_meters":30000,"station_id":"ce4bhip2rcd13ifvqft0","pricing_plan_id":"cebpf4jnsgd1na2vs0mg"},{"bike_id":"f6aec2ac-749b-4274-8687-baf04e36cba5","system_id":"levelo_inurba_marseille","lat":43.28364,"lon":5.38635,"is_reserved":false,"is_disabled":false,"rental_uris":{"android":"levelo://app?vid=f6aec2ac-749b-4274-8687-baf04e36cba5","ios":"levelo://app?vid=f6aec2ac-749b-4274-8687-baf04e36cba5"},"vehicle_type_id":"4","last_reported":1726640024,"current_range_meters":38800,"station_id":"ce4bh492rcd13ifvqdvg","pricing_plan_id":"cebpf4jnsgd1na2vs0mg"},{"bike_id":"3e7ce37c-10df-40e8-9edd-0456ebc908cc","system_id":"levelo_inurba_marseille","lat":43.29611,"lon":5.38104,"is_reserved":false,"is_disabled":false,"rental_uris":{"android":"levelo://app?vid=3e7ce37c-10df-40e8-9edd-0456ebc908cc","ios":"levelo://app?vid=3e7ce37c-10df-40e8-9edd-0456ebc908cc"},"vehicle_type_id":"4","last_reported":1726640024,"current_range_meters":35200,"station_id":"ce4bgl12rcd13ifvqbo0","pricing_plan_id":"cebpf4jnsgd1na2vs0mg"},{"bike_id":"0c18f7de-b7f3-4589-a11a-fa026d3b54c3","system_id":"levelo_inurba_marseille","lat":43.28154,"lon":5.42657,"is_reserved":false,"is_disabled":false,"rental_uris":{"android":"levelo://app?vid=0c18f7de-b7f3-4589-a11a-fa026d3b54c3","ios":"levelo://app?vid=0c18f7de-b7f3-4589-a11a-fa026d3b54c3"},"vehicle_type_id":"4","last_reported":1726640024,"current_range_meters":20000,"station_id":"ce4bhnh2rcd13ifvqgug","pricing_plan_id":"cebpf4jnsgd1na2vs0mg"},{"bike_id":"ee7cab51-ac41-4df2-a570-0b8afed077f6","system_id":"levelo_inurba_marseille","lat":43.33019,"lon":5.39038,"is_reserved":false,"is_disabled":false,"rental_uris":{"android":"levelo://app?vid=ee7cab51-ac41-4df2-a570-0b8afed077f6","ios":"levelo://app?vid=ee7cab51-ac41-4df2-a570-0b8afed077f6"},"vehicle_type_id":"4","last_reported":1726640024,"current_range_meters":27200,"station_id":"ce4bhr92rcd13ifvqhrg","pricing_plan_id":"cebpf4jnsgd1na2vs0mg"},{"bike_id":"c7f93bf2-2b30-4c5c-aa72-447b3f4a28ea","system_id":"levelo_inurba_marseille","lat":43.29895,"lon":5.43659,"is_reserved":false,"is_disabled":false,"rental_uris":{"android":"levelo://app?vid=c7f93bf2-2b30-4c5c-aa72-447b3f4a28ea","ios":"levelo://app?vid=c7f93bf2-2b30-4c5c-aa72-447b3f4a28ea"},"vehicle_type_id":"4","last_reported":1726640024,"current_range_meters":6000,"station_id":"ce4bhpp2rcd13ifvqhfg","pricing_plan_id":"cebpf4jnsgd1na2vs0mg"},{"bike_id":"a3efd81c-da06-42d6-889e-44923da28ff8","system_id":"levelo_inurba_marseille","lat":43.28101,"lon":5.37849,"is_reserved":false,"is_disabled":false,"rental_uris":{"android":"levelo://app?vid=a3efd81c-da06-42d6-889e-44923da28ff8","ios":"levelo://app?vid=a3efd81c-da06-42d6-889e-44923da28ff8"},"vehicle_type_id":"4","last_reported":1726640024,"current_range_meters":17200,"station_id":"ce4bha12rcd13ifvqee0","pricing_plan_id":"cebpf4jnsgd1na2vs0mg"},{"bike_id":"9d7979ee-6109-4f33-a1fb-6a8eefd1632d","system_id":"levelo_inurba_marseille","lat":43.26957,"lon":5.38632,"is_reserved":false,"is_disabled":false,"rental_uris":{"android":"levelo://app?vid=9d7979ee-6109-4f33-a1fb-6a8eefd1632d","ios":"levelo://app?vid=9d7979ee-6109-4f33-a1fb-6a8eefd1632d"},"vehicle_type_id":"4","last_reported":1726640024,"current_range_meters":17200,"station_id":"ce4bhh92rcd13ifvqfh0","pricing_plan_id":"cebpf4jnsgd1na2vs0mg"},{"bike_id":"96d2615a-7a6d-4d9f-ac4c-2cf8d43109bf","system_id":"levelo_inurba_marseille","lat":43.28715,"lon":5.37932,"is_reserved":false,"is_disabled":false,"rental_uris":{"android":"levelo://app?vid=96d2615a-7a6d-4d9f-ac4c-2cf8d43109bf","ios":"levelo://app?vid=96d2615a-7a6d-4d9f-ac4c-2cf8d43109bf"},"vehicle_type_id":"4","last_reported":1726640024,"current_range_meters":26800,"station_id":"ce4bh9p2rcd13ifvqec0","pricing_plan_id":"cebpf4jnsgd1na2vs0mg"},{"bike_id":"8979f834-c522-4b42-8539-71985fcf8b55","system_id":"levelo_inurba_marseille","lat":43.28349,"lon":5.38088,"is_reserved":false,"is_disabled":false,"rental_uris":{"android":"levelo://app?vid=8979f834-c522-4b42-8539-71985fcf8b55","ios":"levelo://app?vid=8979f834-c522-4b42-8539-71985fcf8b55"},"vehicle_type_id":"4","last_reported":1726640024,"current_range_meters":36000,"station_id":"ce4bh412rcd13ifvqdr0","pricing_plan_id":"cebpf4jnsgd1na2vs0mg"},{"bike_id":"02830946-db9d-4d4f-a7f1-55c2a08e5ad8","system_id":"levelo_inurba_marseille","lat":43.30355,"lon":5.41876,"is_reserved":false,"is_disabled":false,"rental_uris":{"android":"levelo://app?vid=02830946-db9d-4d4f-a7f1-55c2a08e5ad8","ios":"levelo://app?vid=02830946-db9d-4d4f-a7f1-55c2a08e5ad8"},"vehicle_type_id":"4","last_reported":1726640024,"current_range_meters":10000,"station_id":"ce4bhop2rcd13ifvqh7g","pricing_plan_id":"cebpf4jnsgd1na2vs0mg"},{"bike_id":"1b5a3615-4988-4982-8b62-9226ed5a66a6","system_id":"levelo_inurba_marseille","lat":43.31355,"lon":5.38313,"is_reserved":false,"is_disabled":false,"rental_uris":{"android":"levelo://app?vid=1b5a3615-4988-4982-8b62-9226ed5a66a6","ios":"levelo://app?vid=1b5a3615-4988-4982-8b62-9226ed5a66a6"},"vehicle_type_id":"4","last_reported":1726640024,"current_range_meters":4400,"station_id":"","pricing_plan_id":"cebpf4jnsgd1na2vs0mg"},{"bike_id":"4c9534f9-1d44-4672-ac6d-a3a42322bfa9","system_id":"levelo_inurba_marseille","lat":43.26574,"lon":5.38992,"is_reserved":false,"is_disabled":false,"rental_uris":{"android":"levelo://app?vid=4c9534f9-1d44-4672-ac6d-a3a42322bfa9","ios":"levelo://app?vid=4c9534f9-1d44-4672-ac6d-a3a42322bfa9"},"vehicle_type_id":"4","last_reported":1726640024,"current_range_meters":10000,"station_id":"ce4bhe12rcd13ifvqf30","pricing_plan_id":"cebpf4jnsgd1na2vs0mg"},{"bike_id":"80d1eb54-6334-4c2f-a160-7e4b5cb79537","system_id":"levelo_inurba_marseille","lat":43.2996,"lon":5.41344,"is_reserved":false,"is_disabled":false,"rental_uris":{"android":"levelo://app?vid=80d1eb54-6334-4c2f-a160-7e4b5cb79537","ios":"levelo://app?vid=80d1eb54-6334-4c2f-a160-7e4b5cb79537"},"vehicle_type_id":"4","last_reported":1726640024,"current_range_meters":36400,"station_id":"ce4bhp12rcd13ifvqh9g","pricing_plan_id":"cebpf4jnsgd1na2vs0mg"},{"bike_id":"4c67eed8-4f25-429b-86dd-f604b09d3752","system_id":"levelo_inurba_marseille","lat":43.28358,"lon":5.38627,"is_reserved":false,"is_disabled":false,"rental_uris":{"android":"levelo://app?vid=4c67eed8-4f25-429b-86dd-f604b09d3752","ios":"levelo://app?vid=4c67eed8-4f25-429b-86dd-f604b09d3752"},"vehicle_type_id":"4","last_reported":1726640024,"current_range_meters":35600,"station_id":"ce4bh492rcd13ifvqdvg","pricing_plan_id":"cebpf4jnsgd1na2vs0mg"},{"bike_id":"2df18966-5fec-4175-82c5-cee36a200007","system_id":"levelo_inurba_marseille","lat":43.30593,"lon":5.39351,"is_reserved":false,"is_disabled":false,"rental_uris":{"android":"levelo://app?vid=2df18966-5fec-4175-82c5-cee36a200007","ios":"levelo://app?vid=2df18966-5fec-4175-82c5-cee36a200007"},"vehicle_type_id":"4","last_reported":1726640024,"current_range_meters":11200,"station_id":"ce4bh0p2rcd13ifvqd80","pricing_plan_id":"cebpf4jnsgd1na2vs0mg"},{"bike_id":"56ad2826-df50-4ac2-b99c-54afe9e7c028","system_id":"levelo_inurba_marseille","lat":43.259001,"lon":5.375919,"is_reserved":false,"is_disabled":false,"rental_uris":{"android":"levelo://app?vid=56ad2826-df50-4ac2-b99c-54afe9e7c028","ios":"levelo://app?vid=56ad2826-df50-4ac2-b99c-54afe9e7c028"},"vehicle_type_id":"4","last_reported":1726640024,"current_range_meters":28800,"station_id":"ce4bhgh2rcd13ifvqfa0","pricing_plan_id":"cebpf4jnsgd1na2vs0mg"},{"bike_id":"a61689aa-5c1a-4413-8538-941f73ca00b9","system_id":"levelo_inurba_marseille","lat":43.2619,"lon":5.37455,"is_reserved":false,"is_disabled":false,"rental_uris":{"android":"levelo://app?vid=a61689aa-5c1a-4413-8538-941f73ca00b9","ios":"levelo://app?vid=a61689aa-5c1a-4413-8538-941f73ca00b9"},"vehicle_type_id":"4","last_reported":1726640024,"current_range_meters":36800,"station_id":"ce4bhgp2rcd13ifvqfc0","pricing_plan_id":"cebpf4jnsgd1na2vs0mg"},{"bike_id":"b88d8bac-711e-49d2-9eee-8f0f2fcec434","system_id":"levelo_inurba_marseille","lat":43.33025,"lon":5.39046,"is_reserved":false,"is_disabled":false,"rental_uris":{"android":"levelo://app?vid=b88d8bac-711e-49d2-9eee-8f0f2fcec434","ios":"levelo://app?vid=b88d8bac-711e-49d2-9eee-8f0f2fcec434"},"vehicle_type_id":"4","last_reported":1726640024,"current_range_meters":26800,"station_id":"ce4bhr92rcd13ifvqhrg","pricing_plan_id":"cebpf4jnsgd1na2vs0mg"},{"bike_id":"2189c212-ccd8-46f4-bde9-9d5f8bd683d8","system_id":"levelo_inurba_marseille","lat":43.2656,"lon":5.39004,"is_reserved":false,"is_disabled":false,"rental_uris":{"android":"levelo://app?vid=2189c212-ccd8-46f4-bde9-9d5f8bd683d8","ios":"levelo://app?vid=2189c212-ccd8-46f4-bde9-9d5f8bd683d8"},"vehicle_type_id":"4","last_reported":1726640024,"current_range_meters":30800,"station_id":"ce4bhe12rcd13ifvqf30","pricing_plan_id":"cebpf4jnsgd1na2vs0mg"},{"bike_id":"2e2254f6-d3ed-4277-af5f-ee204e464f40","system_id":"levelo_inurba_marseille","lat":43.29938,"lon":5.41324,"is_reserved":false,"is_disabled":false,"rental_uris":{"android":"levelo://app?vid=2e2254f6-d3ed-4277-af5f-ee204e464f40","ios":"levelo://app?vid=2e2254f6-d3ed-4277-af5f-ee204e464f40"},"vehicle_type_id":"4","last_reported":1726640024,"current_range_meters":36800,"station_id":"ce4bhp12rcd13ifvqh9g","pricing_plan_id":"cebpf4jnsgd1na2vs0mg"},{"bike_id":"26190074-3e78-4a92-868d-14389f21c79a","system_id":"levelo_inurba_marseille","lat":43.30279,"lon":5.37702,"is_reserved":false,"is_disabled":false,"rental_uris":{"android":"levelo://app?vid=26190074-3e78-4a92-868d-14389f21c79a","ios":"levelo://app?vid=26190074-3e78-4a92-868d-14389f21c79a"},"vehicle_type_id":"4","last_reported":1726640024,"current_range_meters":36800,"station_id":"ce4bguh2rcd13ifvqcj0","pricing_plan_id":"cebpf4jnsgd1na2vs0mg"},{"bike_id":"48b8c62b-97d6-4eba-92db-23d731a096db","system_id":"levelo_inurba_marseille","lat":43.31688,"lon":5.40472,"is_reserved":false,"is_disabled":false,"rental_uris":{"android":"levelo://app?vid=48b8c62b-97d6-4eba-92db-23d731a096db","ios":"levelo://app?vid=48b8c62b-97d6-4eba-92db-23d731a096db"},"vehicle_type_id":"4","last_reported":1726640024,"current_range_meters":38000,"station_id":"ce4bh012rcd13ifvqd00","pricing_plan_id":"cebpf4jnsgd1na2vs0mg"},{"bike_id":"7ffa0a34-2412-4cf6-a653-08d8c8ef67dd","system_id":"levelo_inurba_marseille","lat":43.31984,"lon":5.43849,"is_reserved":false,"is_disabled":false,"rental_uris":{"android":"levelo://app?vid=7ffa0a34-2412-4cf6-a653-08d8c8ef67dd","ios":"levelo://app?vid=7ffa0a34-2412-4cf6-a653-08d8c8ef67dd"},"vehicle_type_id":"4","last_reported":1726640024,"current_range_meters":13600,"station_id":"","pricing_plan_id":"cebpf4jnsgd1na2vs0mg"},{"bike_id":"8899b238-a8f8-41f2-a37b-1507fa728d84","system_id":"levelo_inurba_marseille","lat":43.30217,"lon":5.39464,"is_reserved":false,"is_disabled":false,"rental_uris":{"android":"levelo://app?vid=8899b238-a8f8-41f2-a37b-1507fa728d84","ios":"levelo://app?vid=8899b238-a8f8-41f2-a37b-1507fa728d84"},"vehicle_type_id":"4","last_reported":1726640024,"current_range_meters":20800,"station_id":"ce4bh0p2rcd13ifvqd70","pricing_plan_id":"cebpf4jnsgd1na2vs0mg"},{"bike_id":"8cb592d9-f82f-4171-894f-8d7ffa6525e5","system_id":"levelo_inurba_marseille","lat":43.23196,"lon":5.35549,"is_reserved":false,"is_disabled":false,"rental_uris":{"android":"levelo://app?vid=8cb592d9-f82f-4171-894f-8d7ffa6525e5","ios":"levelo://app?vid=8cb592d9-f82f-4171-894f-8d7ffa6525e5"},"vehicle_type_id":"4","last_reported":1726640024,"current_range_meters":15200,"station_id":"ce4bhu92rcd13ifvqi70","pricing_plan_id":"cebpf4jnsgd1na2vs0mg"},{"bike_id":"79cad5b6-9cb0-4262-b39c-374cdf1c25d1","system_id":"levelo_inurba_marseille","lat":43.3248,"lon":5.36556,"is_reserved":false,"is_disabled":false,"rental_uris":{"android":"levelo://app?vid=79cad5b6-9cb0-4262-b39c-374cdf1c25d1","ios":"levelo://app?vid=79cad5b6-9cb0-4262-b39c-374cdf1c25d1"},"vehicle_type_id":"4","last_reported":1726640024,"current_range_meters":38800,"station_id":"ce4bhs12rcd13ifvqhvg","pricing_plan_id":"cebpf4jnsgd1na2vs0mg"},{"bike_id":"8d88c07c-4556-43d6-8940-ca6809bdad6b","system_id":"levelo_inurba_marseille","lat":43.28083,"lon":5.39661,"is_reserved":false,"is_disabled":false,"rental_uris":{"android":"levelo://app?vid=8d88c07c-4556-43d6-8940-ca6809bdad6b","ios":"levelo://app?vid=8d88c07c-4556-43d6-8940-ca6809bdad6b"},"vehicle_type_id":"4","last_reported":1726640024,"current_range_meters":38800,"station_id":"ce4bho12rcd13ifvqh2g","pricing_plan_id":"cebpf4jnsgd1na2vs0mg"},{"bike_id":"699d09b8-17ae-4b5a-81a4-f0906a954e6d","system_id":"levelo_inurba_marseille","lat":43.3229,"lon":5.38268,"is_reserved":false,"is_disabled":false,"rental_uris":{"android":"levelo://app?vid=699d09b8-17ae-4b5a-81a4-f0906a954e6d","ios":"levelo://app?vid=699d09b8-17ae-4b5a-81a4-f0906a954e6d"},"vehicle_type_id":"4","last_reported":1726640024,"current_range_meters":10800,"station_id":"ce4bhr12rcd13ifvqhqg","pricing_plan_id":"cebpf4jnsgd1na2vs0mg"},{"bike_id":"d9cbdfa1-b828-4c80-81bc-9e6f72e73509","system_id":"levelo_inurba_marseille","lat":43.290372,"lon":5.399586,"is_reserved":false,"is_disabled":false,"rental_uris":{"android":"levelo://app?vid=d9cbdfa1-b828-4c80-81bc-9e6f72e73509","ios":"levelo://app?vid=d9cbdfa1-b828-4c80-81bc-9e6f72e73509"},"vehicle_type_id":"4","last_reported":1726640024,"current_range_meters":37600,"station_id":"ce4bh392rcd13ifvqdm0","pricing_plan_id":"cebpf4jnsgd1na2vs0mg"},{"bike_id":"63e4801a-21bd-41de-87d7-ce8bcadbbc61","system_id":"levelo_inurba_marseille","lat":43.30355,"lon":5.41875,"is_reserved":false,"is_disabled":false,"rental_uris":{"android":"levelo://app?vid=63e4801a-21bd-41de-87d7-ce8bcadbbc61","ios":"levelo://app?vid=63e4801a-21bd-41de-87d7-ce8bcadbbc61"},"vehicle_type_id":"4","last_reported":1726640024,"current_range_meters":14000,"station_id":"ce4bhop2rcd13ifvqh7g","pricing_plan_id":"cebpf4jnsgd1na2vs0mg"},{"bike_id":"9cd2158d-f3f3-4a97-a884-99e19ad4bcb7","system_id":"levelo_inurba_marseille","lat":43.23155,"lon":5.43709,"is_reserved":false,"is_disabled":false,"rental_uris":{"android":"levelo://app?vid=9cd2158d-f3f3-4a97-a884-99e19ad4bcb7","ios":"levelo://app?vid=9cd2158d-f3f3-4a97-a884-99e19ad4bcb7"},"vehicle_type_id":"4","last_reported":1726640024,"current_range_meters":30000,"station_id":"ce4bhmp2rcd13ifvqgog","pricing_plan_id":"cebpf4jnsgd1na2vs0mg"},{"bike_id":"c3bcca86-6294-4639-9d07-9722d40f464e","system_id":"levelo_inurba_marseille","lat":43.29899,"lon":5.43669,"is_reserved":false,"is_disabled":false,"rental_uris":{"android":"levelo://app?vid=c3bcca86-6294-4639-9d07-9722d40f464e","ios":"levelo://app?vid=c3bcca86-6294-4639-9d07-9722d40f464e"},"vehicle_type_id":"4","last_reported":1726640024,"current_range_meters":25600,"station_id":"ce4bhpp2rcd13ifvqhfg","pricing_plan_id":"cebpf4jnsgd1na2vs0mg"},{"bike_id":"9242cf14-e007-46a6-bf57-3daf8a7e8d69","system_id":"levelo_inurba_marseille","lat":43.2835,"lon":5.38112,"is_reserved":false,"is_disabled":false,"rental_uris":{"android":"levelo://app?vid=9242cf14-e007-46a6-bf57-3daf8a7e8d69","ios":"levelo://app?vid=9242cf14-e007-46a6-bf57-3daf8a7e8d69"},"vehicle_type_id":"4","last_reported":1726640024,"current_range_meters":28800,"station_id":"ce4bh412rcd13ifvqdr0","pricing_plan_id":"cebpf4jnsgd1na2vs0mg"},{"bike_id":"464b765a-5bcf-418f-9058-526dab1b44f9","system_id":"levelo_inurba_marseille","lat":43.3229,"lon":5.38273,"is_reserved":false,"is_disabled":false,"rental_uris":{"android":"levelo://app?vid=464b765a-5bcf-418f-9058-526dab1b44f9","ios":"levelo://app?vid=464b765a-5bcf-418f-9058-526dab1b44f9"},"vehicle_type_id":"4","last_reported":1726640024,"current_range_meters":20800,"station_id":"ce4bhr12rcd13ifvqhqg","pricing_plan_id":"cebpf4jnsgd1na2vs0mg"},{"bike_id":"edfb28d5-b66c-4090-b4b8-2607f3c4f6ab","system_id":"levelo_inurba_marseille","lat":43.3254,"lon":5.41424,"is_reserved":false,"is_disabled":false,"rental_uris":{"android":"levelo://app?vid=edfb28d5-b66c-4090-b4b8-2607f3c4f6ab","ios":"levelo://app?vid=edfb28d5-b66c-4090-b4b8-2607f3c4f6ab"},"vehicle_type_id":"4","last_reported":1726640024,"current_range_meters":32000,"station_id":"ce4bhq12rcd13ifvqhhg","pricing_plan_id":"cebpf4jnsgd1na2vs0mg"},{"bike_id":"22683c37-5f0a-43ba-b756-0c6e1c5263f2","system_id":"levelo_inurba_marseille","lat":43.2847,"lon":5.35879,"is_reserved":false,"is_disabled":false,"rental_uris":{"android":"levelo://app?vid=22683c37-5f0a-43ba-b756-0c6e1c5263f2","ios":"levelo://app?vid=22683c37-5f0a-43ba-b756-0c6e1c5263f2"},"vehicle_type_id":"4","last_reported":1726640024,"current_range_meters":38800,"station_id":"ce4bhah2rcd13ifvqei0","pricing_plan_id":"cebpf4jnsgd1na2vs0mg"},{"bike_id":"8e3c84db-879d-4669-8d43-f74eed3d4c1b","system_id":"levelo_inurba_marseille","lat":43.27372,"lon":5.36258,"is_reserved":false,"is_disabled":false,"rental_uris":{"android":"levelo://app?vid=8e3c84db-879d-4669-8d43-f74eed3d4c1b","ios":"levelo://app?vid=8e3c84db-879d-4669-8d43-f74eed3d4c1b"},"vehicle_type_id":"4","last_reported":1726640024,"current_range_meters":38800,"station_id":"ce4bhbh2rcd13ifvqeo0","pricing_plan_id":"cebpf4jnsgd1na2vs0mg"},{"bike_id":"95de6f39-c349-4389-b4cf-decf8fff6702","system_id":"levelo_inurba_marseille","lat":43.27992,"lon":5.40013,"is_reserved":false,"is_disabled":false,"rental_uris":{"android":"levelo://app?vid=95de6f39-c349-4389-b4cf-decf8fff6702","ios":"levelo://app?vid=95de6f39-c349-4389-b4cf-decf8fff6702"},"vehicle_type_id":"4","last_reported":1726640024,"current_range_meters":33600,"station_id":"ce4bho92rcd13ifvqh4g","pricing_plan_id":"cebpf4jnsgd1na2vs0mg"},{"bike_id":"52c511fd-d130-4748-a3f4-735520b972b4","system_id":"levelo_inurba_marseille","lat":43.29783,"lon":5.39336,"is_reserved":false,"is_disabled":false,"rental_uris":{"android":"levelo://app?vid=52c511fd-d130-4748-a3f4-735520b972b4","ios":"levelo://app?vid=52c511fd-d130-4748-a3f4-735520b972b4"},"vehicle_type_id":"4","last_reported":1726640024,"current_range_meters":38000,"station_id":"chh1huq6cuj3fo74tm60","pricing_plan_id":"cebpf4jnsgd1na2vs0mg"},{"bike_id":"654b7b92-8c6a-4217-896e-d43a6fbf4d0d","system_id":"levelo_inurba_marseille","lat":43.27998,"lon":5.40017,"is_reserved":false,"is_disabled":false,"rental_uris":{"android":"levelo://app?vid=654b7b92-8c6a-4217-896e-d43a6fbf4d0d","ios":"levelo://app?vid=654b7b92-8c6a-4217-896e-d43a6fbf4d0d"},"vehicle_type_id":"4","last_reported":1726640024,"current_range_meters":39200,"station_id":"ce4bho92rcd13ifvqh4g","pricing_plan_id":"cebpf4jnsgd1na2vs0mg"},{"bike_id":"b1db6496-7d7b-4acc-a88c-e5406d38e100","system_id":"levelo_inurba_marseille","lat":43.23195,"lon":5.35546,"is_reserved":false,"is_disabled":false,"rental_uris":{"android":"levelo://app?vid=b1db6496-7d7b-4acc-a88c-e5406d38e100","ios":"levelo://app?vid=b1db6496-7d7b-4acc-a88c-e5406d38e100"},"vehicle_type_id":"4","last_reported":1726640024,"current_range_meters":24000,"station_id":"ce4bhu92rcd13ifvqi70","pricing_plan_id":"cebpf4jnsgd1na2vs0mg"},{"bike_id":"d2e41afa-cdb1-4281-adbb-7f02b04acc69","system_id":"levelo_inurba_marseille","lat":43.24079,"lon":5.37753,"is_reserved":false,"is_disabled":false,"rental_uris":{"android":"levelo://app?vid=d2e41afa-cdb1-4281-adbb-7f02b04acc69","ios":"levelo://app?vid=d2e41afa-cdb1-4281-adbb-7f02b04acc69"},"vehicle_type_id":"4","last_reported":1726640024,"current_range_meters":28400,"station_id":"ce4bhnp2rcd13ifvqgvg","pricing_plan_id":"cebpf4jnsgd1na2vs0mg"},{"bike_id":"c5dd8dba-78b0-4c14-9935-8388ca880159","system_id":"levelo_inurba_marseille","lat":43.28347,"lon":5.38102,"is_reserved":false,"is_disabled":false,"rental_uris":{"android":"levelo://app?vid=c5dd8dba-78b0-4c14-9935-8388ca880159","ios":"levelo://app?vid=c5dd8dba-78b0-4c14-9935-8388ca880159"},"vehicle_type_id":"4","last_reported":1726640024,"current_range_meters":32400,"station_id":"ce4bh412rcd13ifvqdr0","pricing_plan_id":"cebpf4jnsgd1na2vs0mg"},{"bike_id":"2bcffd6b-54ed-4cfe-b51b-1d7fce1ffe15","system_id":"levelo_inurba_marseille","lat":43.28853,"lon":5.35834,"is_reserved":false,"is_disabled":false,"rental_uris":{"android":"levelo://app?vid=2bcffd6b-54ed-4cfe-b51b-1d7fce1ffe15","ios":"levelo://app?vid=2bcffd6b-54ed-4cfe-b51b-1d7fce1ffe15"},"vehicle_type_id":"4","last_reported":1726640024,"current_range_meters":38800,"station_id":"ce4bhb12rcd13ifvqem0","pricing_plan_id":"cebpf4jnsgd1na2vs0mg"},{"bike_id":"8860824d-3af4-405f-b438-ef63fd7fa4f4","system_id":"levelo_inurba_marseille","lat":43.292795,"lon":5.401213,"is_reserved":false,"is_disabled":false,"rental_uris":{"android":"levelo://app?vid=8860824d-3af4-405f-b438-ef63fd7fa4f4","ios":"levelo://app?vid=8860824d-3af4-405f-b438-ef63fd7fa4f4"},"vehicle_type_id":"4","last_reported":1726640024,"current_range_meters":28400,"station_id":"ce4bh312rcd13ifvqdk0","pricing_plan_id":"cebpf4jnsgd1na2vs0mg"},{"bike_id":"16e28fa7-bd7d-4453-a33e-16cba01a517d","system_id":"levelo_inurba_marseille","lat":43.2847,"lon":5.39852,"is_reserved":false,"is_disabled":false,"rental_uris":{"android":"levelo://app?vid=16e28fa7-bd7d-4453-a33e-16cba01a517d","ios":"levelo://app?vid=16e28fa7-bd7d-4453-a33e-16cba01a517d"},"vehicle_type_id":"4","last_reported":1726640024,"current_range_meters":21600,"station_id":"","pricing_plan_id":"cebpf4jnsgd1na2vs0mg"},{"bike_id":"6c5ca08a-1754-45de-9327-1d1cacb6faf1","system_id":"levelo_inurba_marseille","lat":43.28857,"lon":5.3586,"is_reserved":false,"is_disabled":false,"rental_uris":{"android":"levelo://app?vid=6c5ca08a-1754-45de-9327-1d1cacb6faf1","ios":"levelo://app?vid=6c5ca08a-1754-45de-9327-1d1cacb6faf1"},"vehicle_type_id":"4","last_reported":1726640024,"current_range_meters":38800,"station_id":"ce4bhb12rcd13ifvqem0","pricing_plan_id":"cebpf4jnsgd1na2vs0mg"},{"bike_id":"20c8f008-5dd3-4031-8dcd-3c7859fc2c41","system_id":"levelo_inurba_marseille","lat":43.30931,"lon":5.40145,"is_reserved":false,"is_disabled":false,"rental_uris":{"android":"levelo://app?vid=20c8f008-5dd3-4031-8dcd-3c7859fc2c41","ios":"levelo://app?vid=20c8f008-5dd3-4031-8dcd-3c7859fc2c41"},"vehicle_type_id":"4","last_reported":1726640024,"current_range_meters":38800,"station_id":"ce4bgvp2rcd13ifvqct0","pricing_plan_id":"cebpf4jnsgd1na2vs0mg"},{"bike_id":"657d2ce3-df51-45da-bb47-734f0cd56ed6","system_id":"levelo_inurba_marseille","lat":43.26998,"lon":5.42095,"is_reserved":false,"is_disabled":false,"rental_uris":{"android":"levelo://app?vid=657d2ce3-df51-45da-bb47-734f0cd56ed6","ios":"levelo://app?vid=657d2ce3-df51-45da-bb47-734f0cd56ed6"},"vehicle_type_id":"4","last_reported":1726640024,"current_range_meters":38800,"station_id":"","pricing_plan_id":"cebpf4jnsgd1na2vs0mg"},{"bike_id":"1e490c7b-e360-427f-bee4-a08e58a98640","system_id":"levelo_inurba_marseille","lat":43.24081,"lon":5.37751,"is_reserved":false,"is_disabled":false,"rental_uris":{"android":"levelo://app?vid=1e490c7b-e360-427f-bee4-a08e58a98640","ios":"levelo://app?vid=1e490c7b-e360-427f-bee4-a08e58a98640"},"vehicle_type_id":"4","last_reported":1726640024,"current_range_meters":28400,"station_id":"ce4bhnp2rcd13ifvqgvg","pricing_plan_id":"cebpf4jnsgd1na2vs0mg"},{"bike_id":"806cac2a-bfa5-4b02-a061-2bb66ffe7b7a","system_id":"levelo_inurba_marseille","lat":43.30592,"lon":5.39355,"is_reserved":false,"is_disabled":false,"rental_uris":{"android":"levelo://app?vid=806cac2a-bfa5-4b02-a061-2bb66ffe7b7a","ios":"levelo://app?vid=806cac2a-bfa5-4b02-a061-2bb66ffe7b7a"},"vehicle_type_id":"4","last_reported":1726640024,"current_range_meters":38800,"station_id":"ce4bh0p2rcd13ifvqd80","pricing_plan_id":"cebpf4jnsgd1na2vs0mg"},{"bike_id":"b645ac77-0d58-4fa9-8ad3-947af8bdb1d9","system_id":"levelo_inurba_marseille","lat":43.29892,"lon":5.43655,"is_reserved":false,"is_disabled":false,"rental_uris":{"android":"levelo://app?vid=b645ac77-0d58-4fa9-8ad3-947af8bdb1d9","ios":"levelo://app?vid=b645ac77-0d58-4fa9-8ad3-947af8bdb1d9"},"vehicle_type_id":"4","last_reported":1726640024,"current_range_meters":20400,"station_id":"ce4bhpp2rcd13ifvqhfg","pricing_plan_id":"cebpf4jnsgd1na2vs0mg"},{"bike_id":"f9c92d35-e4f4-470a-ad7b-9cdd33c0a030","system_id":"levelo_inurba_marseille","lat":43.24547,"lon":5.39523,"is_reserved":false,"is_disabled":false,"rental_uris":{"android":"levelo://app?vid=f9c92d35-e4f4-470a-ad7b-9cdd33c0a030","ios":"levelo://app?vid=f9c92d35-e4f4-470a-ad7b-9cdd33c0a030"},"vehicle_type_id":"4","last_reported":1726640024,"current_range_meters":19600,"station_id":"ce4bhlp2rcd13ifvqgjg","pricing_plan_id":"cebpf4jnsgd1na2vs0mg"},{"bike_id":"c70646b5-0ed7-4f41-b696-bc25c65851c4","system_id":"levelo_inurba_marseille","lat":43.26451,"lon":5.40408,"is_reserved":false,"is_disabled":false,"rental_uris":{"android":"levelo://app?vid=c70646b5-0ed7-4f41-b696-bc25c65851c4","ios":"levelo://app?vid=c70646b5-0ed7-4f41-b696-bc25c65851c4"},"vehicle_type_id":"4","last_reported":1726640024,"current_range_meters":6800,"station_id":"","pricing_plan_id":"cebpf4jnsgd1na2vs0mg"},{"bike_id":"80309080-224d-4802-807c-89cffe1685bc","system_id":"levelo_inurba_marseille","lat":43.283478,"lon":5.381119,"is_reserved":false,"is_disabled":false,"rental_uris":{"android":"levelo://app?vid=80309080-224d-4802-807c-89cffe1685bc","ios":"levelo://app?vid=80309080-224d-4802-807c-89cffe1685bc"},"vehicle_type_id":"4","last_reported":1726640024,"current_range_meters":19200,"station_id":"ce4bh412rcd13ifvqdr0","pricing_plan_id":"cebpf4jnsgd1na2vs0mg"},{"bike_id":"2af9a202-7fb8-49d8-ab39-6e62a11da5c7","system_id":"levelo_inurba_marseille","lat":43.28107,"lon":5.37838,"is_reserved":false,"is_disabled":false,"rental_uris":{"android":"levelo://app?vid=2af9a202-7fb8-49d8-ab39-6e62a11da5c7","ios":"levelo://app?vid=2af9a202-7fb8-49d8-ab39-6e62a11da5c7"},"vehicle_type_id":"4","last_reported":1726640024,"current_range_meters":22000,"station_id":"ce4bha12rcd13ifvqee0","pricing_plan_id":"cebpf4jnsgd1na2vs0mg"},{"bike_id":"b5e90bb7-e82a-462c-bfee-b09b8e8e60c6","system_id":"levelo_inurba_marseille","lat":43.25935,"lon":5.40911,"is_reserved":false,"is_disabled":false,"rental_uris":{"android":"levelo://app?vid=b5e90bb7-e82a-462c-bfee-b09b8e8e60c6","ios":"levelo://app?vid=b5e90bb7-e82a-462c-bfee-b09b8e8e60c6"},"vehicle_type_id":"4","last_reported":1726640024,"current_range_meters":36000,"station_id":"ce4bhm92rcd13ifvqglg","pricing_plan_id":"cebpf4jnsgd1na2vs0mg"},{"bike_id":"e712a7cb-d76a-4dcd-b3a5-9055e5eca858","system_id":"levelo_inurba_marseille","lat":43.30472,"lon":5.37903,"is_reserved":false,"is_disabled":false,"rental_uris":{"android":"levelo://app?vid=e712a7cb-d76a-4dcd-b3a5-9055e5eca858","ios":"levelo://app?vid=e712a7cb-d76a-4dcd-b3a5-9055e5eca858"},"vehicle_type_id":"4","last_reported":1726640024,"current_range_meters":38800,"station_id":"ce4bgup2rcd13ifvqcn0","pricing_plan_id":"cebpf4jnsgd1na2vs0mg"},{"bike_id":"8ceb5aea-b40e-4dad-98b0-1dcabb72c74a","system_id":"levelo_inurba_marseille","lat":43.32286,"lon":5.38268,"is_reserved":false,"is_disabled":false,"rental_uris":{"android":"levelo://app?vid=8ceb5aea-b40e-4dad-98b0-1dcabb72c74a","ios":"levelo://app?vid=8ceb5aea-b40e-4dad-98b0-1dcabb72c74a"},"vehicle_type_id":"4","last_reported":1726640024,"current_range_meters":27200,"station_id":"ce4bhr12rcd13ifvqhqg","pricing_plan_id":"cebpf4jnsgd1na2vs0mg"},{"bike_id":"1433a10c-9f4f-46c9-9fb4-2c8ee9ba7ffa","system_id":"levelo_inurba_marseille","lat":43.23151,"lon":5.43715,"is_reserved":false,"is_disabled":false,"rental_uris":{"android":"levelo://app?vid=1433a10c-9f4f-46c9-9fb4-2c8ee9ba7ffa","ios":"levelo://app?vid=1433a10c-9f4f-46c9-9fb4-2c8ee9ba7ffa"},"vehicle_type_id":"4","last_reported":1726640024,"current_range_meters":20400,"station_id":"ce4bhmp2rcd13ifvqgog","pricing_plan_id":"cebpf4jnsgd1na2vs0mg"},{"bike_id":"677498c9-746b-4650-9a8e-2c7479635944","system_id":"levelo_inurba_marseille","lat":43.33023,"lon":5.3905,"is_reserved":false,"is_disabled":false,"rental_uris":{"android":"levelo://app?vid=677498c9-746b-4650-9a8e-2c7479635944","ios":"levelo://app?vid=677498c9-746b-4650-9a8e-2c7479635944"},"vehicle_type_id":"4","last_reported":1726640024,"current_range_meters":16800,"station_id":"ce4bhr92rcd13ifvqhrg","pricing_plan_id":"cebpf4jnsgd1na2vs0mg"},{"bike_id":"3f4ad6b1-b353-4549-97f8-480748235e09","system_id":"levelo_inurba_marseille","lat":43.23153,"lon":5.43721,"is_reserved":false,"is_disabled":false,"rental_uris":{"android":"levelo://app?vid=3f4ad6b1-b353-4549-97f8-480748235e09","ios":"levelo://app?vid=3f4ad6b1-b353-4549-97f8-480748235e09"},"vehicle_type_id":"4","last_reported":1726640024,"current_range_meters":14000,"station_id":"ce4bhmp2rcd13ifvqgog","pricing_plan_id":"cebpf4jnsgd1na2vs0mg"},{"bike_id":"2b6686af-adcb-4f0c-b71f-73fe9b9a5c36","system_id":"levelo_inurba_marseille","lat":43.3415,"lon":5.40892,"is_reserved":false,"is_disabled":false,"rental_uris":{"android":"levelo://app?vid=2b6686af-adcb-4f0c-b71f-73fe9b9a5c36","ios":"levelo://app?vid=2b6686af-adcb-4f0c-b71f-73fe9b9a5c36"},"vehicle_type_id":"4","last_reported":1726640024,"current_range_meters":38400,"station_id":"ce4bhqh2rcd13ifvqhlg","pricing_plan_id":"cebpf4jnsgd1na2vs0mg"},{"bike_id":"1d0e82e0-c627-46a9-9900-72456a2e4f58","system_id":"levelo_inurba_marseille","lat":43.24076,"lon":5.37759,"is_reserved":false,"is_disabled":false,"rental_uris":{"android":"levelo://app?vid=1d0e82e0-c627-46a9-9900-72456a2e4f58","ios":"levelo://app?vid=1d0e82e0-c627-46a9-9900-72456a2e4f58"},"vehicle_type_id":"4","last_reported":1726640024,"current_range_meters":36800,"station_id":"ce4bhnp2rcd13ifvqgvg","pricing_plan_id":"cebpf4jnsgd1na2vs0mg"},{"bike_id":"f0aacb69-415a-4040-b111-d3c122e75969","system_id":"levelo_inurba_marseille","lat":43.28349,"lon":5.38095,"is_reserved":false,"is_disabled":false,"rental_uris":{"android":"levelo://app?vid=f0aacb69-415a-4040-b111-d3c122e75969","ios":"levelo://app?vid=f0aacb69-415a-4040-b111-d3c122e75969"},"vehicle_type_id":"4","last_reported":1726640024,"current_range_meters":33200,"station_id":"ce4bh412rcd13ifvqdr0","pricing_plan_id":"cebpf4jnsgd1na2vs0mg"},{"bike_id":"0a90983e-e0da-4a21-b2b5-e81e1d512719","system_id":"levelo_inurba_marseille","lat":43.32373,"lon":5.38886,"is_reserved":false,"is_disabled":false,"rental_uris":{"android":"levelo://app?vid=0a90983e-e0da-4a21-b2b5-e81e1d512719","ios":"levelo://app?vid=0a90983e-e0da-4a21-b2b5-e81e1d512719"},"vehicle_type_id":"4","last_reported":1726640024,"current_range_meters":20000,"station_id":"ce4bhqp2rcd13ifvqhog","pricing_plan_id":"cebpf4jnsgd1na2vs0mg"},{"bike_id":"1e93cb79-1aaf-4438-84c7-042ca661621c","system_id":"levelo_inurba_marseille","lat":43.31535,"lon":5.38028,"is_reserved":false,"is_disabled":false,"rental_uris":{"android":"levelo://app?vid=1e93cb79-1aaf-4438-84c7-042ca661621c","ios":"levelo://app?vid=1e93cb79-1aaf-4438-84c7-042ca661621c"},"vehicle_type_id":"4","last_reported":1726640024,"current_range_meters":10800,"station_id":"ce4bhsp2rcd13ifvqi50","pricing_plan_id":"cebpf4jnsgd1na2vs0mg"},{"bike_id":"f6c738da-8313-4c11-b9e7-c1d7fc004296","system_id":"levelo_inurba_marseille","lat":43.26024,"lon":5.3755,"is_reserved":false,"is_disabled":false,"rental_uris":{"android":"levelo://app?vid=f6c738da-8313-4c11-b9e7-c1d7fc004296","ios":"levelo://app?vid=f6c738da-8313-4c11-b9e7-c1d7fc004296"},"vehicle_type_id":"4","last_reported":1726640024,"current_range_meters":36800,"station_id":"ce4bhgh2rcd13ifvqfa0","pricing_plan_id":"cebpf4jnsgd1na2vs0mg"},{"bike_id":"4b161963-0c95-42fe-91a5-17368c2caba2","system_id":"levelo_inurba_marseille","lat":43.28075,"lon":5.39652,"is_reserved":false,"is_disabled":false,"rental_uris":{"android":"levelo://app?vid=4b161963-0c95-42fe-91a5-17368c2caba2","ios":"levelo://app?vid=4b161963-0c95-42fe-91a5-17368c2caba2"},"vehicle_type_id":"4","last_reported":1726640024,"current_range_meters":30000,"station_id":"ce4bho12rcd13ifvqh2g","pricing_plan_id":"cebpf4jnsgd1na2vs0mg"},{"bike_id":"2f028e8e-73d1-44c0-aac5-f68fa982e53d","system_id":"levelo_inurba_marseille","lat":43.29004,"lon":5.35611,"is_reserved":false,"is_disabled":false,"rental_uris":{"android":"levelo://app?vid=2f028e8e-73d1-44c0-aac5-f68fa982e53d","ios":"levelo://app?vid=2f028e8e-73d1-44c0-aac5-f68fa982e53d"},"vehicle_type_id":"4","last_reported":1726640024,"current_range_meters":39200,"station_id":"ce4bhb92rcd13ifvqen0","pricing_plan_id":"cebpf4jnsgd1na2vs0mg"},{"bike_id":"3a86cb65-3233-4f16-a4ce-b82fd671cddf","system_id":"levelo_inurba_marseille","lat":43.24547,"lon":5.39528,"is_reserved":false,"is_disabled":false,"rental_uris":{"android":"levelo://app?vid=3a86cb65-3233-4f16-a4ce-b82fd671cddf","ios":"levelo://app?vid=3a86cb65-3233-4f16-a4ce-b82fd671cddf"},"vehicle_type_id":"4","last_reported":1726640024,"current_range_meters":39200,"station_id":"ce4bhlp2rcd13ifvqgjg","pricing_plan_id":"cebpf4jnsgd1na2vs0mg"},{"bike_id":"8746bc86-84bc-469d-bc9c-452476199d12","system_id":"levelo_inurba_marseille","lat":43.26947,"lon":5.38631,"is_reserved":false,"is_disabled":false,"rental_uris":{"android":"levelo://app?vid=8746bc86-84bc-469d-bc9c-452476199d12","ios":"levelo://app?vid=8746bc86-84bc-469d-bc9c-452476199d12"},"vehicle_type_id":"4","last_reported":1726640024,"current_range_meters":38000,"station_id":"ce4bhh92rcd13ifvqfh0","pricing_plan_id":"cebpf4jnsgd1na2vs0mg"},{"bike_id":"3f0f49b2-7b9f-4f81-9b92-02cf815ca1d4","system_id":"levelo_inurba_marseille","lat":43.30471,"lon":5.37901,"is_reserved":false,"is_disabled":false,"rental_uris":{"android":"levelo://app?vid=3f0f49b2-7b9f-4f81-9b92-02cf815ca1d4","ios":"levelo://app?vid=3f0f49b2-7b9f-4f81-9b92-02cf815ca1d4"},"vehicle_type_id":"4","last_reported":1726640024,"current_range_meters":38000,"station_id":"ce4bgup2rcd13ifvqcn0","pricing_plan_id":"cebpf4jnsgd1na2vs0mg"},{"bike_id":"f7f3e2a5-0c68-4eb6-bd2e-bcd5fb09951d","system_id":"levelo_inurba_marseille","lat":43.32549,"lon":5.41461,"is_reserved":false,"is_disabled":false,"rental_uris":{"android":"levelo://app?vid=f7f3e2a5-0c68-4eb6-bd2e-bcd5fb09951d","ios":"levelo://app?vid=f7f3e2a5-0c68-4eb6-bd2e-bcd5fb09951d"},"vehicle_type_id":"4","last_reported":1726640024,"current_range_meters":24400,"station_id":"ce4bhq12rcd13ifvqhhg","pricing_plan_id":"cebpf4jnsgd1na2vs0mg"},{"bike_id":"f5beae20-6559-445f-ac60-a1371290e408","system_id":"levelo_inurba_marseille","lat":43.28417,"lon":5.34993,"is_reserved":false,"is_disabled":false,"rental_uris":{"android":"levelo://app?vid=f5beae20-6559-445f-ac60-a1371290e408","ios":"levelo://app?vid=f5beae20-6559-445f-ac60-a1371290e408"},"vehicle_type_id":"4","last_reported":1726640024,"current_range_meters":37600,"station_id":"ce4bhbh2rcd13ifvqepg","pricing_plan_id":"cebpf4jnsgd1na2vs0mg"},{"bike_id":"0dd917e9-49bd-4a0f-97a1-4ca49bb8c23e","system_id":"levelo_inurba_marseille","lat":43.25109,"lon":5.40321,"is_reserved":false,"is_disabled":false,"rental_uris":{"android":"levelo://app?vid=0dd917e9-49bd-4a0f-97a1-4ca49bb8c23e","ios":"levelo://app?vid=0dd917e9-49bd-4a0f-97a1-4ca49bb8c23e"},"vehicle_type_id":"4","last_reported":1726640024,"current_range_meters":36000,"station_id":"ce4bhlh2rcd13ifvqgig","pricing_plan_id":"cebpf4jnsgd1na2vs0mg"},{"bike_id":"e4310468-b479-45b9-b96a-b8bf52d6476b","system_id":"levelo_inurba_marseille","lat":43.28572,"lon":5.39489,"is_reserved":false,"is_disabled":false,"rental_uris":{"android":"levelo://app?vid=e4310468-b479-45b9-b96a-b8bf52d6476b","ios":"levelo://app?vid=e4310468-b479-45b9-b96a-b8bf52d6476b"},"vehicle_type_id":"4","last_reported":1726640024,"current_range_meters":38800,"station_id":"ce4bh292rcd13ifvqdg0","pricing_plan_id":"cebpf4jnsgd1na2vs0mg"},{"bike_id":"db6ca3d2-972c-4d3c-b709-a1d5b0f7b5cc","system_id":"levelo_inurba_marseille","lat":43.25816,"lon":5.39432,"is_reserved":false,"is_disabled":false,"rental_uris":{"android":"levelo://app?vid=db6ca3d2-972c-4d3c-b709-a1d5b0f7b5cc","ios":"levelo://app?vid=db6ca3d2-972c-4d3c-b709-a1d5b0f7b5cc"},"vehicle_type_id":"4","last_reported":1726640024,"current_range_meters":20400,"station_id":"ce4bhip2rcd13ifvqft0","pricing_plan_id":"cebpf4jnsgd1na2vs0mg"},{"bike_id":"a6e01dcd-4201-4f56-9890-bc39271003fb","system_id":"levelo_inurba_marseille","lat":43.28345,"lon":5.38101,"is_reserved":false,"is_disabled":false,"rental_uris":{"android":"levelo://app?vid=a6e01dcd-4201-4f56-9890-bc39271003fb","ios":"levelo://app?vid=a6e01dcd-4201-4f56-9890-bc39271003fb"},"vehicle_type_id":"4","last_reported":1726640024,"current_range_meters":32000,"station_id":"ce4bh412rcd13ifvqdr0","pricing_plan_id":"cebpf4jnsgd1na2vs0mg"},{"bike_id":"9dbc1275-dff3-4f6f-ac47-2da20b7eaced","system_id":"levelo_inurba_marseille","lat":43.24078,"lon":5.37745,"is_reserved":false,"is_disabled":false,"rental_uris":{"android":"levelo://app?vid=9dbc1275-dff3-4f6f-ac47-2da20b7eaced","ios":"levelo://app?vid=9dbc1275-dff3-4f6f-ac47-2da20b7eaced"},"vehicle_type_id":"4","last_reported":1726640024,"current_range_meters":37600,"station_id":"ce4bhnp2rcd13ifvqgvg","pricing_plan_id":"cebpf4jnsgd1na2vs0mg"},{"bike_id":"99684f50-b398-427b-a4e9-7ca0a0382c79","system_id":"levelo_inurba_marseille","lat":43.23195,"lon":5.35552,"is_reserved":false,"is_disabled":false,"rental_uris":{"android":"levelo://app?vid=99684f50-b398-427b-a4e9-7ca0a0382c79","ios":"levelo://app?vid=99684f50-b398-427b-a4e9-7ca0a0382c79"},"vehicle_type_id":"4","last_reported":1726640024,"current_range_meters":38800,"station_id":"ce4bhu92rcd13ifvqi70","pricing_plan_id":"cebpf4jnsgd1na2vs0mg"},{"bike_id":"004161ea-2444-4d2f-bb89-87c083836a64","system_id":"levelo_inurba_marseille","lat":43.25929,"lon":5.40917,"is_reserved":false,"is_disabled":false,"rental_uris":{"android":"levelo://app?vid=004161ea-2444-4d2f-bb89-87c083836a64","ios":"levelo://app?vid=004161ea-2444-4d2f-bb89-87c083836a64"},"vehicle_type_id":"4","last_reported":1726640024,"current_range_meters":37600,"station_id":"ce4bhm92rcd13ifvqglg","pricing_plan_id":"cebpf4jnsgd1na2vs0mg"},{"bike_id":"d782c430-b2c7-45ce-aaaf-78dc9a80ca97","system_id":"levelo_inurba_marseille","lat":43.3302,"lon":5.3904,"is_reserved":false,"is_disabled":false,"rental_uris":{"android":"levelo://app?vid=d782c430-b2c7-45ce-aaaf-78dc9a80ca97","ios":"levelo://app?vid=d782c430-b2c7-45ce-aaaf-78dc9a80ca97"},"vehicle_type_id":"4","last_reported":1726640024,"current_range_meters":26000,"station_id":"ce4bhr92rcd13ifvqhrg","pricing_plan_id":"cebpf4jnsgd1na2vs0mg"},{"bike_id":"5333cff1-e981-4d0a-bd96-58a6ca3be68b","system_id":"levelo_inurba_marseille","lat":43.28486,"lon":5.38414,"is_reserved":false,"is_disabled":false,"rental_uris":{"android":"levelo://app?vid=5333cff1-e981-4d0a-bd96-58a6ca3be68b","ios":"levelo://app?vid=5333cff1-e981-4d0a-bd96-58a6ca3be68b"},"vehicle_type_id":"4","last_reported":1726640024,"current_range_meters":35200,"station_id":"ce4bh512rcd13ifvqe3g","pricing_plan_id":"cebpf4jnsgd1na2vs0mg"},{"bike_id":"0eeaef0e-62e6-41dc-9054-d7f222173449","system_id":"levelo_inurba_marseille","lat":43.32538,"lon":5.41423,"is_reserved":false,"is_disabled":false,"rental_uris":{"android":"levelo://app?vid=0eeaef0e-62e6-41dc-9054-d7f222173449","ios":"levelo://app?vid=0eeaef0e-62e6-41dc-9054-d7f222173449"},"vehicle_type_id":"4","last_reported":1726640024,"current_range_meters":16400,"station_id":"ce4bhq12rcd13ifvqhhg","pricing_plan_id":"cebpf4jnsgd1na2vs0mg"},{"bike_id":"4ef9e179-7825-44c6-bd40-ffbbd962a463","system_id":"levelo_inurba_marseille","lat":43.2846,"lon":5.358903,"is_reserved":false,"is_disabled":false,"rental_uris":{"android":"levelo://app?vid=4ef9e179-7825-44c6-bd40-ffbbd962a463","ios":"levelo://app?vid=4ef9e179-7825-44c6-bd40-ffbbd962a463"},"vehicle_type_id":"4","last_reported":1726640024,"current_range_meters":38800,"station_id":"ce4bgh92rcd13ifvqb50","pricing_plan_id":"cebpf4jnsgd1na2vs0mg"},{"bike_id":"8903f4ef-48ce-46af-9247-c84df1839bc1","system_id":"levelo_inurba_marseille","lat":43.30478,"lon":5.37905,"is_reserved":false,"is_disabled":false,"rental_uris":{"android":"levelo://app?vid=8903f4ef-48ce-46af-9247-c84df1839bc1","ios":"levelo://app?vid=8903f4ef-48ce-46af-9247-c84df1839bc1"},"vehicle_type_id":"4","last_reported":1726640024,"current_range_meters":35200,"station_id":"ce4bgup2rcd13ifvqcn0","pricing_plan_id":"cebpf4jnsgd1na2vs0mg"},{"bike_id":"47133906-9fa2-4a01-9a28-bb59b8316dff","system_id":"levelo_inurba_marseille","lat":43.302626,"lon":5.400699,"is_reserved":false,"is_disabled":false,"rental_uris":{"android":"levelo://app?vid=47133906-9fa2-4a01-9a28-bb59b8316dff","ios":"levelo://app?vid=47133906-9fa2-4a01-9a28-bb59b8316dff"},"vehicle_type_id":"4","last_reported":1726640024,"current_range_meters":25600,"station_id":"ce4bgvh2rcd13ifvqcs0","pricing_plan_id":"cebpf4jnsgd1na2vs0mg"},{"bike_id":"2b714e73-49f8-4f26-bb6d-7d72ce23aabc","system_id":"levelo_inurba_marseille","lat":43.23054,"lon":5.35487,"is_reserved":false,"is_disabled":false,"rental_uris":{"android":"levelo://app?vid=2b714e73-49f8-4f26-bb6d-7d72ce23aabc","ios":"levelo://app?vid=2b714e73-49f8-4f26-bb6d-7d72ce23aabc"},"vehicle_type_id":"4","last_reported":1726640024,"current_range_meters":8800,"station_id":"cpo3342slgdg3j2ifvpg","pricing_plan_id":"cebpf4jnsgd1na2vs0mg"},{"bike_id":"51b45b68-4a15-47ee-a2ec-8f41cb8227f7","system_id":"levelo_inurba_marseille","lat":43.30938,"lon":5.40144,"is_reserved":false,"is_disabled":false,"rental_uris":{"android":"levelo://app?vid=51b45b68-4a15-47ee-a2ec-8f41cb8227f7","ios":"levelo://app?vid=51b45b68-4a15-47ee-a2ec-8f41cb8227f7"},"vehicle_type_id":"4","last_reported":1726640024,"current_range_meters":38800,"station_id":"ce4bgvp2rcd13ifvqct0","pricing_plan_id":"cebpf4jnsgd1na2vs0mg"},{"bike_id":"21502955-a934-4c74-a542-7ea501ef54c7","system_id":"levelo_inurba_marseille","lat":43.30443,"lon":5.38886,"is_reserved":false,"is_disabled":false,"rental_uris":{"android":"levelo://app?vid=21502955-a934-4c74-a542-7ea501ef54c7","ios":"levelo://app?vid=21502955-a934-4c74-a542-7ea501ef54c7"},"vehicle_type_id":"4","last_reported":1726640024,"current_range_meters":37600,"station_id":"ce4bgk12rcd13ifvqbi0","pricing_plan_id":"cebpf4jnsgd1na2vs0mg"},{"bike_id":"254be443-d968-4d66-9923-e7b0733a451f","system_id":"levelo_inurba_marseille","lat":43.30542,"lon":5.36699,"is_reserved":false,"is_disabled":false,"rental_uris":{"android":"levelo://app?vid=254be443-d968-4d66-9923-e7b0733a451f","ios":"levelo://app?vid=254be443-d968-4d66-9923-e7b0733a451f"},"vehicle_type_id":"4","last_reported":1726640024,"current_range_meters":38800,"station_id":"ce4bgrp2rcd13ifvqc9g","pricing_plan_id":"cebpf4jnsgd1na2vs0mg"},{"bike_id":"459391a2-7378-4a0b-9a46-bad263ec195c","system_id":"levelo_inurba_marseille","lat":43.31532,"lon":5.38027,"is_reserved":false,"is_disabled":false,"rental_uris":{"android":"levelo://app?vid=459391a2-7378-4a0b-9a46-bad263ec195c","ios":"levelo://app?vid=459391a2-7378-4a0b-9a46-bad263ec195c"},"vehicle_type_id":"4","last_reported":1726640024,"current_range_meters":36000,"station_id":"ce4bhsp2rcd13ifvqi50","pricing_plan_id":"cebpf4jnsgd1na2vs0mg"},{"bike_id":"8b9810ec-eb8f-4062-84f1-d58c3b0311fa","system_id":"levelo_inurba_marseille","lat":43.30471,"lon":5.37915,"is_reserved":false,"is_disabled":false,"rental_uris":{"android":"levelo://app?vid=8b9810ec-eb8f-4062-84f1-d58c3b0311fa","ios":"levelo://app?vid=8b9810ec-eb8f-4062-84f1-d58c3b0311fa"},"vehicle_type_id":"4","last_reported":1726640024,"current_range_meters":12800,"station_id":"ce4bgup2rcd13ifvqcn0","pricing_plan_id":"cebpf4jnsgd1na2vs0mg"},{"bike_id":"33f69f3f-8823-49c1-90ed-ec30bb04d814","system_id":"levelo_inurba_marseille","lat":43.24073,"lon":5.37758,"is_reserved":false,"is_disabled":false,"rental_uris":{"android":"levelo://app?vid=33f69f3f-8823-49c1-90ed-ec30bb04d814","ios":"levelo://app?vid=33f69f3f-8823-49c1-90ed-ec30bb04d814"},"vehicle_type_id":"4","last_reported":1726640024,"current_range_meters":37600,"station_id":"ce4bhnp2rcd13ifvqgvg","pricing_plan_id":"cebpf4jnsgd1na2vs0mg"},{"bike_id":"f4137065-1be2-45d7-b462-c1f961d76c83","system_id":"levelo_inurba_marseille","lat":43.26065,"lon":5.39394,"is_reserved":false,"is_disabled":false,"rental_uris":{"android":"levelo://app?vid=f4137065-1be2-45d7-b462-c1f961d76c83","ios":"levelo://app?vid=f4137065-1be2-45d7-b462-c1f961d76c83"},"vehicle_type_id":"4","last_reported":1726640024,"current_range_meters":29600,"station_id":"ce4bhh92rcd13ifvqfj0","pricing_plan_id":"cebpf4jnsgd1na2vs0mg"},{"bike_id":"e8befb56-1303-484d-9ed5-cb1654ca2bd2","system_id":"levelo_inurba_marseille","lat":43.23962,"lon":5.36624,"is_reserved":false,"is_disabled":false,"rental_uris":{"android":"levelo://app?vid=e8befb56-1303-484d-9ed5-cb1654ca2bd2","ios":"levelo://app?vid=e8befb56-1303-484d-9ed5-cb1654ca2bd2"},"vehicle_type_id":"4","last_reported":1726640024,"current_range_meters":37600,"station_id":"ce4bhi12rcd13ifvqfp0","pricing_plan_id":"cebpf4jnsgd1na2vs0mg"},{"bike_id":"2e4c0d1a-a4a2-40d5-9c70-26993c46a5f6","system_id":"levelo_inurba_marseille","lat":43.23207,"lon":5.35589,"is_reserved":false,"is_disabled":false,"rental_uris":{"android":"levelo://app?vid=2e4c0d1a-a4a2-40d5-9c70-26993c46a5f6","ios":"levelo://app?vid=2e4c0d1a-a4a2-40d5-9c70-26993c46a5f6"},"vehicle_type_id":"4","last_reported":1726640024,"current_range_meters":38000,"station_id":"ce4bhu92rcd13ifvqi70","pricing_plan_id":"cebpf4jnsgd1na2vs0mg"},{"bike_id":"21084f93-3279-4437-98bc-21d82c8332a5","system_id":"levelo_inurba_marseille","lat":43.309064,"lon":5.36851,"is_reserved":false,"is_disabled":false,"rental_uris":{"android":"levelo://app?vid=21084f93-3279-4437-98bc-21d82c8332a5","ios":"levelo://app?vid=21084f93-3279-4437-98bc-21d82c8332a5"},"vehicle_type_id":"4","last_reported":1726640024,"current_range_meters":24400,"station_id":"ce4bgn92rcd13ifvqbvg","pricing_plan_id":"cebpf4jnsgd1na2vs0mg"},{"bike_id":"723d9cba-0b7b-4081-9b5b-6c3cb81c2943","system_id":"levelo_inurba_marseille","lat":43.28574,"lon":5.39491,"is_reserved":false,"is_disabled":false,"rental_uris":{"android":"levelo://app?vid=723d9cba-0b7b-4081-9b5b-6c3cb81c2943","ios":"levelo://app?vid=723d9cba-0b7b-4081-9b5b-6c3cb81c2943"},"vehicle_type_id":"4","last_reported":1726640024,"current_range_meters":10800,"station_id":"ce4bh292rcd13ifvqdg0","pricing_plan_id":"cebpf4jnsgd1na2vs0mg"},{"bike_id":"4e2c2699-3b3a-4d93-8b4c-cf2922b45c99","system_id":"levelo_inurba_marseille","lat":43.24078,"lon":5.3775,"is_reserved":false,"is_disabled":false,"rental_uris":{"android":"levelo://app?vid=4e2c2699-3b3a-4d93-8b4c-cf2922b45c99","ios":"levelo://app?vid=4e2c2699-3b3a-4d93-8b4c-cf2922b45c99"},"vehicle_type_id":"4","last_reported":1726640024,"current_range_meters":29600,"station_id":"ce4bhnp2rcd13ifvqgvg","pricing_plan_id":"cebpf4jnsgd1na2vs0mg"},{"bike_id":"11844f37-ec33-42cb-8263-5f2bde8f61a0","system_id":"levelo_inurba_marseille","lat":43.31696,"lon":5.40468,"is_reserved":false,"is_disabled":false,"rental_uris":{"android":"levelo://app?vid=11844f37-ec33-42cb-8263-5f2bde8f61a0","ios":"levelo://app?vid=11844f37-ec33-42cb-8263-5f2bde8f61a0"},"vehicle_type_id":"4","last_reported":1726640024,"current_range_meters":12400,"station_id":"ce4bh012rcd13ifvqd00","pricing_plan_id":"cebpf4jnsgd1na2vs0mg"},{"bike_id":"c3c66152-4cc7-4227-88b4-4aaa5885cbf1","system_id":"levelo_inurba_marseille","lat":43.30477,"lon":5.37904,"is_reserved":false,"is_disabled":false,"rental_uris":{"android":"levelo://app?vid=c3c66152-4cc7-4227-88b4-4aaa5885cbf1","ios":"levelo://app?vid=c3c66152-4cc7-4227-88b4-4aaa5885cbf1"},"vehicle_type_id":"4","last_reported":1726640024,"current_range_meters":37600,"station_id":"ce4bgup2rcd13ifvqcn0","pricing_plan_id":"cebpf4jnsgd1na2vs0mg"},{"bike_id":"20bc09e1-f4e5-4e42-ae67-8e1c76c63af5","system_id":"levelo_inurba_marseille","lat":43.3016,"lon":5.38082,"is_reserved":false,"is_disabled":false,"rental_uris":{"android":"levelo://app?vid=20bc09e1-f4e5-4e42-ae67-8e1c76c63af5","ios":"levelo://app?vid=20bc09e1-f4e5-4e42-ae67-8e1c76c63af5"},"vehicle_type_id":"4","last_reported":1726640024,"current_range_meters":36800,"station_id":"ce4bgjp2rcd13ifvqbh0","pricing_plan_id":"cebpf4jnsgd1na2vs0mg"},{"bike_id":"255def12-1a7e-4787-b2e4-a6a54888a394","system_id":"levelo_inurba_marseille","lat":43.32479,"lon":5.36582,"is_reserved":false,"is_disabled":false,"rental_uris":{"android":"levelo://app?vid=255def12-1a7e-4787-b2e4-a6a54888a394","ios":"levelo://app?vid=255def12-1a7e-4787-b2e4-a6a54888a394"},"vehicle_type_id":"4","last_reported":1726640024,"current_range_meters":38800,"station_id":"ce4bhs12rcd13ifvqhvg","pricing_plan_id":"cebpf4jnsgd1na2vs0mg"},{"bike_id":"6dd17a2f-59bb-4453-859d-2c09ab795824","system_id":"levelo_inurba_marseille","lat":43.33026,"lon":5.39049,"is_reserved":false,"is_disabled":false,"rental_uris":{"android":"levelo://app?vid=6dd17a2f-59bb-4453-859d-2c09ab795824","ios":"levelo://app?vid=6dd17a2f-59bb-4453-859d-2c09ab795824"},"vehicle_type_id":"4","last_reported":1726640024,"current_range_meters":26800,"station_id":"ce4bhr92rcd13ifvqhrg","pricing_plan_id":"cebpf4jnsgd1na2vs0mg"},{"bike_id":"9740b922-5de1-4684-a3be-d5f1fc782fef","system_id":"levelo_inurba_marseille","lat":43.28577,"lon":5.39491,"is_reserved":false,"is_disabled":false,"rental_uris":{"android":"levelo://app?vid=9740b922-5de1-4684-a3be-d5f1fc782fef","ios":"levelo://app?vid=9740b922-5de1-4684-a3be-d5f1fc782fef"},"vehicle_type_id":"4","last_reported":1726640024,"current_range_meters":37600,"station_id":"ce4bh292rcd13ifvqdg0","pricing_plan_id":"cebpf4jnsgd1na2vs0mg"},{"bike_id":"db3fc979-9333-49eb-869c-0b4dd335ac12","system_id":"levelo_inurba_marseille","lat":43.30476,"lon":5.379,"is_reserved":false,"is_disabled":false,"rental_uris":{"android":"levelo://app?vid=db3fc979-9333-49eb-869c-0b4dd335ac12","ios":"levelo://app?vid=db3fc979-9333-49eb-869c-0b4dd335ac12"},"vehicle_type_id":"4","last_reported":1726640024,"current_range_meters":38800,"station_id":"ce4bgup2rcd13ifvqcn0","pricing_plan_id":"cebpf4jnsgd1na2vs0mg"},{"bike_id":"e6000598-f8ea-4801-a783-e86eee308b19","system_id":"levelo_inurba_marseille","lat":43.29689,"lon":5.37293,"is_reserved":false,"is_disabled":false,"rental_uris":{"android":"levelo://app?vid=e6000598-f8ea-4801-a783-e86eee308b19","ios":"levelo://app?vid=e6000598-f8ea-4801-a783-e86eee308b19"},"vehicle_type_id":"4","last_reported":1726640024,"current_range_meters":38000,"station_id":"ce4bgk12rcd13ifvqbj0","pricing_plan_id":"cebpf4jnsgd1na2vs0mg"},{"bike_id":"b5cc2522-fe3f-434d-9e99-cfc395c50a4e","system_id":"levelo_inurba_marseille","lat":43.27971,"lon":5.38753,"is_reserved":false,"is_disabled":false,"rental_uris":{"android":"levelo://app?vid=b5cc2522-fe3f-434d-9e99-cfc395c50a4e","ios":"levelo://app?vid=b5cc2522-fe3f-434d-9e99-cfc395c50a4e"},"vehicle_type_id":"4","last_reported":1726640024,"current_range_meters":38800,"station_id":"ce4bhg12rcd13ifvqf80","pricing_plan_id":"cebpf4jnsgd1na2vs0mg"},{"bike_id":"64fd5105-3845-4cfa-b329-1df8a6d8bed2","system_id":"levelo_inurba_marseille","lat":43.29043,"lon":5.37564,"is_reserved":false,"is_disabled":false,"rental_uris":{"android":"levelo://app?vid=64fd5105-3845-4cfa-b329-1df8a6d8bed2","ios":"levelo://app?vid=64fd5105-3845-4cfa-b329-1df8a6d8bed2"},"vehicle_type_id":"4","last_reported":1726640024,"current_range_meters":21600,"station_id":"ce4bh692rcd13ifvqe90","pricing_plan_id":"cebpf4jnsgd1na2vs0mg"},{"bike_id":"4b8b78f3-f005-4335-bdfa-f817b956c065","system_id":"levelo_inurba_marseille","lat":43.25581,"lon":5.38231,"is_reserved":false,"is_disabled":false,"rental_uris":{"android":"levelo://app?vid=4b8b78f3-f005-4335-bdfa-f817b956c065","ios":"levelo://app?vid=4b8b78f3-f005-4335-bdfa-f817b956c065"},"vehicle_type_id":"4","last_reported":1726640024,"current_range_meters":37600,"station_id":"ce4bhih2rcd13ifvqfs0","pricing_plan_id":"cebpf4jnsgd1na2vs0mg"},{"bike_id":"41e6c322-5ad0-4aee-87e8-f7c73e21197f","system_id":"levelo_inurba_marseille","lat":43.26781,"lon":5.39416,"is_reserved":false,"is_disabled":false,"rental_uris":{"android":"levelo://app?vid=41e6c322-5ad0-4aee-87e8-f7c73e21197f","ios":"levelo://app?vid=41e6c322-5ad0-4aee-87e8-f7c73e21197f"},"vehicle_type_id":"4","last_reported":1726640024,"current_range_meters":34800,"station_id":"ce4bhh12rcd13ifvqfg0","pricing_plan_id":"cebpf4jnsgd1na2vs0mg"},{"bike_id":"0b417632-b4a4-451a-b48f-4e8cacf6fe0b","system_id":"levelo_inurba_marseille","lat":43.23192,"lon":5.39987,"is_reserved":false,"is_disabled":false,"rental_uris":{"android":"levelo://app?vid=0b417632-b4a4-451a-b48f-4e8cacf6fe0b","ios":"levelo://app?vid=0b417632-b4a4-451a-b48f-4e8cacf6fe0b"},"vehicle_type_id":"4","last_reported":1726640024,"current_range_meters":38400,"station_id":"ce4bhn12rcd13ifvqgqg","pricing_plan_id":"cebpf4jnsgd1na2vs0mg"},{"bike_id":"70fc7e83-326c-4da5-9b44-70451b78b4c2","system_id":"levelo_inurba_marseille","lat":43.32487,"lon":5.36572,"is_reserved":false,"is_disabled":false,"rental_uris":{"android":"levelo://app?vid=70fc7e83-326c-4da5-9b44-70451b78b4c2","ios":"levelo://app?vid=70fc7e83-326c-4da5-9b44-70451b78b4c2"},"vehicle_type_id":"4","last_reported":1726640024,"current_range_meters":11200,"station_id":"ce4bhs12rcd13ifvqhvg","pricing_plan_id":"cebpf4jnsgd1na2vs0mg"},{"bike_id":"cf6962a5-0181-4fd0-8203-7f48ae64b44e","system_id":"levelo_inurba_marseille","lat":43.31694,"lon":5.40464,"is_reserved":false,"is_disabled":false,"rental_uris":{"android":"levelo://app?vid=cf6962a5-0181-4fd0-8203-7f48ae64b44e","ios":"levelo://app?vid=cf6962a5-0181-4fd0-8203-7f48ae64b44e"},"vehicle_type_id":"4","last_reported":1726640024,"current_range_meters":4800,"station_id":"ce4bh012rcd13ifvqd00","pricing_plan_id":"cebpf4jnsgd1na2vs0mg"},{"bike_id":"d1b0f718-a844-4768-b3b3-4f5290ad0f1c","system_id":"levelo_inurba_marseille","lat":43.28347,"lon":5.381,"is_reserved":false,"is_disabled":false,"rental_uris":{"android":"levelo://app?vid=d1b0f718-a844-4768-b3b3-4f5290ad0f1c","ios":"levelo://app?vid=d1b0f718-a844-4768-b3b3-4f5290ad0f1c"},"vehicle_type_id":"4","last_reported":1726640024,"current_range_meters":2800,"station_id":"ce4bh412rcd13ifvqdr0","pricing_plan_id":"cebpf4jnsgd1na2vs0mg"},{"bike_id":"d51458f5-7695-4e6e-b2eb-f41ee3c9152c","system_id":"levelo_inurba_marseille","lat":43.30466,"lon":5.37901,"is_reserved":false,"is_disabled":false,"rental_uris":{"android":"levelo://app?vid=d51458f5-7695-4e6e-b2eb-f41ee3c9152c","ios":"levelo://app?vid=d51458f5-7695-4e6e-b2eb-f41ee3c9152c"},"vehicle_type_id":"4","last_reported":1726640024,"current_range_meters":11200,"station_id":"ce4bgup2rcd13ifvqcn0","pricing_plan_id":"cebpf4jnsgd1na2vs0mg"},{"bike_id":"e3d2d803-d68d-4d22-bfaf-cfb1fffe94fb","system_id":"levelo_inurba_marseille","lat":43.299655,"lon":5.371615,"is_reserved":false,"is_disabled":false,"rental_uris":{"android":"levelo://app?vid=e3d2d803-d68d-4d22-bfaf-cfb1fffe94fb","ios":"levelo://app?vid=e3d2d803-d68d-4d22-bfaf-cfb1fffe94fb"},"vehicle_type_id":"4","last_reported":1726640024,"current_range_meters":35200,"station_id":"ce4bgr92rcd13ifvqc7g","pricing_plan_id":"cebpf4jnsgd1na2vs0mg"},{"bike_id":"8d9f1c04-c36f-42f8-8dd4-e869b55a7d2c","system_id":"levelo_inurba_marseille","lat":43.24186,"lon":5.39721,"is_reserved":false,"is_disabled":false,"rental_uris":{"android":"levelo://app?vid=8d9f1c04-c36f-42f8-8dd4-e869b55a7d2c","ios":"levelo://app?vid=8d9f1c04-c36f-42f8-8dd4-e869b55a7d2c"},"vehicle_type_id":"4","last_reported":1726640024,"current_range_meters":24400,"station_id":"ce4bhn12rcd13ifvqgpg","pricing_plan_id":"cebpf4jnsgd1na2vs0mg"},{"bike_id":"446b2bff-a89e-45e8-a0b9-5ba39ecd2ea0","system_id":"levelo_inurba_marseille","lat":43.27371,"lon":5.3626,"is_reserved":false,"is_disabled":false,"rental_uris":{"android":"levelo://app?vid=446b2bff-a89e-45e8-a0b9-5ba39ecd2ea0","ios":"levelo://app?vid=446b2bff-a89e-45e8-a0b9-5ba39ecd2ea0"},"vehicle_type_id":"4","last_reported":1726640024,"current_range_meters":26800,"station_id":"ce4bhbh2rcd13ifvqeo0","pricing_plan_id":"cebpf4jnsgd1na2vs0mg"},{"bike_id":"1d46955e-c9c7-47ad-b988-ece98be05552","system_id":"levelo_inurba_marseille","lat":43.2913,"lon":5.39998,"is_reserved":false,"is_disabled":false,"rental_uris":{"android":"levelo://app?vid=1d46955e-c9c7-47ad-b988-ece98be05552","ios":"levelo://app?vid=1d46955e-c9c7-47ad-b988-ece98be05552"},"vehicle_type_id":"4","last_reported":1726640024,"current_range_meters":37600,"station_id":"ce4bh9p2rcd13ifvqec0","pricing_plan_id":"cebpf4jnsgd1na2vs0mg"},{"bike_id":"b08d12bb-ff28-4ad7-9a74-fc070aa5cfa2","system_id":"levelo_inurba_marseille","lat":43.25871,"lon":5.39902,"is_reserved":false,"is_disabled":false,"rental_uris":{"android":"levelo://app?vid=b08d12bb-ff28-4ad7-9a74-fc070aa5cfa2","ios":"levelo://app?vid=b08d12bb-ff28-4ad7-9a74-fc070aa5cfa2"},"vehicle_type_id":"4","last_reported":1726640024,"current_range_meters":28400,"station_id":"ce4bhl92rcd13ifvqghg","pricing_plan_id":"cebpf4jnsgd1na2vs0mg"},{"bike_id":"1b6ea9d5-cd36-44b2-9989-7721fa48826d","system_id":"levelo_inurba_marseille","lat":43.29791,"lon":5.38096,"is_reserved":false,"is_disabled":false,"rental_uris":{"android":"levelo://app?vid=1b6ea9d5-cd36-44b2-9989-7721fa48826d","ios":"levelo://app?vid=1b6ea9d5-cd36-44b2-9989-7721fa48826d"},"vehicle_type_id":"4","last_reported":1726640024,"current_range_meters":34800,"station_id":"ce4bgip2rcd13ifvqbb0","pricing_plan_id":"cebpf4jnsgd1na2vs0mg"},{"bike_id":"97c8ef90-0352-4101-be5b-1a47bd6ebd57","system_id":"levelo_inurba_marseille","lat":43.245463,"lon":5.39522,"is_reserved":false,"is_disabled":false,"rental_uris":{"android":"levelo://app?vid=97c8ef90-0352-4101-be5b-1a47bd6ebd57","ios":"levelo://app?vid=97c8ef90-0352-4101-be5b-1a47bd6ebd57"},"vehicle_type_id":"4","last_reported":1726640024,"current_range_meters":27600,"station_id":"ce4bhhp2rcd13ifvqfm0","pricing_plan_id":"cebpf4jnsgd1na2vs0mg"},{"bike_id":"85f35905-070a-4a43-b69b-19cfcf5195a8","system_id":"levelo_inurba_marseille","lat":43.29565,"lon":5.42294,"is_reserved":false,"is_disabled":false,"rental_uris":{"android":"levelo://app?vid=85f35905-070a-4a43-b69b-19cfcf5195a8","ios":"levelo://app?vid=85f35905-070a-4a43-b69b-19cfcf5195a8"},"vehicle_type_id":"4","last_reported":1726640024,"current_range_meters":38800,"station_id":"ce4bhph2rcd13ifvqhdg","pricing_plan_id":"cebpf4jnsgd1na2vs0mg"},{"bike_id":"c2d7a4e9-2bce-436c-a813-42e9ad3751ba","system_id":"levelo_inurba_marseille","lat":43.26569,"lon":5.38993,"is_reserved":false,"is_disabled":false,"rental_uris":{"android":"levelo://app?vid=c2d7a4e9-2bce-436c-a813-42e9ad3751ba","ios":"levelo://app?vid=c2d7a4e9-2bce-436c-a813-42e9ad3751ba"},"vehicle_type_id":"4","last_reported":1726640024,"current_range_meters":38400,"station_id":"ce4bhe12rcd13ifvqf30","pricing_plan_id":"cebpf4jnsgd1na2vs0mg"},{"bike_id":"86f0de27-5dd6-4ef7-b4fd-e0893339cc78","system_id":"levelo_inurba_marseille","lat":43.28936,"lon":5.39625,"is_reserved":false,"is_disabled":false,"rental_uris":{"android":"levelo://app?vid=86f0de27-5dd6-4ef7-b4fd-e0893339cc78","ios":"levelo://app?vid=86f0de27-5dd6-4ef7-b4fd-e0893339cc78"},"vehicle_type_id":"4","last_reported":1726640024,"current_range_meters":38800,"station_id":"ce4bh3h2rcd13ifvqdn0","pricing_plan_id":"cebpf4jnsgd1na2vs0mg"},{"bike_id":"b0591abe-38b4-4fa2-b167-95a5100b6c8a","system_id":"levelo_inurba_marseille","lat":43.2991,"lon":5.38141,"is_reserved":false,"is_disabled":false,"rental_uris":{"android":"levelo://app?vid=b0591abe-38b4-4fa2-b167-95a5100b6c8a","ios":"levelo://app?vid=b0591abe-38b4-4fa2-b167-95a5100b6c8a"},"vehicle_type_id":"4","last_reported":1726640024,"current_range_meters":19600,"station_id":"ce4bgj12rcd13ifvqbc0","pricing_plan_id":"cebpf4jnsgd1na2vs0mg"},{"bike_id":"5ad76090-8691-48ec-9040-016e70c34f7b","system_id":"levelo_inurba_marseille","lat":43.28034,"lon":5.36942,"is_reserved":false,"is_disabled":false,"rental_uris":{"android":"levelo://app?vid=5ad76090-8691-48ec-9040-016e70c34f7b","ios":"levelo://app?vid=5ad76090-8691-48ec-9040-016e70c34f7b"},"vehicle_type_id":"4","last_reported":1726640024,"current_range_meters":28800,"station_id":"ce4bha12rcd13ifvqef0","pricing_plan_id":"cebpf4jnsgd1na2vs0mg"},{"bike_id":"54c25936-0917-4d26-b1d6-5f1b310d5d09","system_id":"levelo_inurba_marseille","lat":43.26061,"lon":5.39396,"is_reserved":false,"is_disabled":false,"rental_uris":{"android":"levelo://app?vid=54c25936-0917-4d26-b1d6-5f1b310d5d09","ios":"levelo://app?vid=54c25936-0917-4d26-b1d6-5f1b310d5d09"},"vehicle_type_id":"4","last_reported":1726640024,"current_range_meters":38800,"station_id":"ce4bhh92rcd13ifvqfj0","pricing_plan_id":"cebpf4jnsgd1na2vs0mg"},{"bike_id":"5f881f74-4e32-4422-8964-f37b0ec3b171","system_id":"levelo_inurba_marseille","lat":43.28714,"lon":5.37933,"is_reserved":false,"is_disabled":false,"rental_uris":{"android":"levelo://app?vid=5f881f74-4e32-4422-8964-f37b0ec3b171","ios":"levelo://app?vid=5f881f74-4e32-4422-8964-f37b0ec3b171"},"vehicle_type_id":"4","last_reported":1726640024,"current_range_meters":36800,"station_id":"ce4bh9p2rcd13ifvqec0","pricing_plan_id":"cebpf4jnsgd1na2vs0mg"},{"bike_id":"7231c74c-5278-429f-90a8-a50ab6504eee","system_id":"levelo_inurba_marseille","lat":43.32486,"lon":5.36565,"is_reserved":false,"is_disabled":false,"rental_uris":{"android":"levelo://app?vid=7231c74c-5278-429f-90a8-a50ab6504eee","ios":"levelo://app?vid=7231c74c-5278-429f-90a8-a50ab6504eee"},"vehicle_type_id":"4","last_reported":1726640024,"current_range_meters":28800,"station_id":"ce4bhs12rcd13ifvqhvg","pricing_plan_id":"cebpf4jnsgd1na2vs0mg"},{"bike_id":"ae753038-95a8-4344-a977-7ee5d93e8f6c","system_id":"levelo_inurba_marseille","lat":43.26216,"lon":5.37439,"is_reserved":false,"is_disabled":false,"rental_uris":{"android":"levelo://app?vid=ae753038-95a8-4344-a977-7ee5d93e8f6c","ios":"levelo://app?vid=ae753038-95a8-4344-a977-7ee5d93e8f6c"},"vehicle_type_id":"4","last_reported":1726640024,"current_range_meters":6400,"station_id":"ce4bhgp2rcd13ifvqfc0","pricing_plan_id":"cebpf4jnsgd1na2vs0mg"},{"bike_id":"ab24a954-34a3-48ed-808a-51904da89fe4","system_id":"levelo_inurba_marseille","lat":43.28091,"lon":5.39658,"is_reserved":false,"is_disabled":false,"rental_uris":{"android":"levelo://app?vid=ab24a954-34a3-48ed-808a-51904da89fe4","ios":"levelo://app?vid=ab24a954-34a3-48ed-808a-51904da89fe4"},"vehicle_type_id":"4","last_reported":1726640024,"current_range_meters":35200,"station_id":"ce4bho12rcd13ifvqh2g","pricing_plan_id":"cebpf4jnsgd1na2vs0mg"},{"bike_id":"e1055f26-c66c-41ee-bf2f-25406c6db080","system_id":"levelo_inurba_marseille","lat":43.33027,"lon":5.39045,"is_reserved":false,"is_disabled":false,"rental_uris":{"android":"levelo://app?vid=e1055f26-c66c-41ee-bf2f-25406c6db080","ios":"levelo://app?vid=e1055f26-c66c-41ee-bf2f-25406c6db080"},"vehicle_type_id":"4","last_reported":1726640024,"current_range_meters":36000,"station_id":"ce4bhr92rcd13ifvqhrg","pricing_plan_id":"cebpf4jnsgd1na2vs0mg"},{"bike_id":"feca41f6-7b48-4e3a-9568-9d8f30bcd4a4","system_id":"levelo_inurba_marseille","lat":43.30539,"lon":5.384244,"is_reserved":false,"is_disabled":false,"rental_uris":{"android":"levelo://app?vid=feca41f6-7b48-4e3a-9568-9d8f30bcd4a4","ios":"levelo://app?vid=feca41f6-7b48-4e3a-9568-9d8f30bcd4a4"},"vehicle_type_id":"4","last_reported":1726640024,"current_range_meters":29600,"station_id":"ce4bgg92rcd13ifvqb30","pricing_plan_id":"cebpf4jnsgd1na2vs0mg"},{"bike_id":"a13b8302-4ea2-4c29-8731-e0e42e68149a","system_id":"levelo_inurba_marseille","lat":43.3229,"lon":5.38277,"is_reserved":false,"is_disabled":false,"rental_uris":{"android":"levelo://app?vid=a13b8302-4ea2-4c29-8731-e0e42e68149a","ios":"levelo://app?vid=a13b8302-4ea2-4c29-8731-e0e42e68149a"},"vehicle_type_id":"4","last_reported":1726640024,"current_range_meters":38800,"station_id":"ce4bhr12rcd13ifvqhqg","pricing_plan_id":"cebpf4jnsgd1na2vs0mg"},{"bike_id":"db381cdf-55c6-4f38-8057-033c0e412d46","system_id":"levelo_inurba_marseille","lat":43.29615,"lon":5.38106,"is_reserved":false,"is_disabled":false,"rental_uris":{"android":"levelo://app?vid=db381cdf-55c6-4f38-8057-033c0e412d46","ios":"levelo://app?vid=db381cdf-55c6-4f38-8057-033c0e412d46"},"vehicle_type_id":"4","last_reported":1726640024,"current_range_meters":34800,"station_id":"ce4bgl12rcd13ifvqbo0","pricing_plan_id":"cebpf4jnsgd1na2vs0mg"},{"bike_id":"ba18b907-3678-4cbf-b957-7c6dc3cf3b56","system_id":"levelo_inurba_marseille","lat":43.27497,"lon":5.42453,"is_reserved":false,"is_disabled":false,"rental_uris":{"android":"levelo://app?vid=ba18b907-3678-4cbf-b957-7c6dc3cf3b56","ios":"levelo://app?vid=ba18b907-3678-4cbf-b957-7c6dc3cf3b56"},"vehicle_type_id":"4","last_reported":1726640024,"current_range_meters":4400,"station_id":"ce4bhn92rcd13ifvqgrg","pricing_plan_id":"cebpf4jnsgd1na2vs0mg"},{"bike_id":"6bd9ded0-3c8c-45da-99b3-18d0a913781c","system_id":"levelo_inurba_marseille","lat":43.284119,"lon":5.384351,"is_reserved":false,"is_disabled":false,"rental_uris":{"android":"levelo://app?vid=6bd9ded0-3c8c-45da-99b3-18d0a913781c","ios":"levelo://app?vid=6bd9ded0-3c8c-45da-99b3-18d0a913781c"},"vehicle_type_id":"4","last_reported":1726640024,"current_range_meters":38400,"station_id":"ce4bhjp2rcd13ifvqg90","pricing_plan_id":"cebpf4jnsgd1na2vs0mg"},{"bike_id":"05cb0619-24ae-46f7-9b9a-80260989f72c","system_id":"levelo_inurba_marseille","lat":43.28148,"lon":5.42634,"is_reserved":false,"is_disabled":false,"rental_uris":{"android":"levelo://app?vid=05cb0619-24ae-46f7-9b9a-80260989f72c","ios":"levelo://app?vid=05cb0619-24ae-46f7-9b9a-80260989f72c"},"vehicle_type_id":"4","last_reported":1726640024,"current_range_meters":38400,"station_id":"ce4bhnh2rcd13ifvqgug","pricing_plan_id":"cebpf4jnsgd1na2vs0mg"},{"bike_id":"5bb70ad8-c337-4b16-bd17-f7ed9d2bf49a","system_id":"levelo_inurba_marseille","lat":43.2835,"lon":5.38111,"is_reserved":false,"is_disabled":false,"rental_uris":{"android":"levelo://app?vid=5bb70ad8-c337-4b16-bd17-f7ed9d2bf49a","ios":"levelo://app?vid=5bb70ad8-c337-4b16-bd17-f7ed9d2bf49a"},"vehicle_type_id":"4","last_reported":1726640024,"current_range_meters":10800,"station_id":"ce4bh412rcd13ifvqdr0","pricing_plan_id":"cebpf4jnsgd1na2vs0mg"},{"bike_id":"cbaf03bf-0340-4293-a424-18d0ef0b595f","system_id":"levelo_inurba_marseille","lat":43.29896,"lon":5.43662,"is_reserved":false,"is_disabled":false,"rental_uris":{"android":"levelo://app?vid=cbaf03bf-0340-4293-a424-18d0ef0b595f","ios":"levelo://app?vid=cbaf03bf-0340-4293-a424-18d0ef0b595f"},"vehicle_type_id":"4","last_reported":1726640024,"current_range_meters":17200,"station_id":"ce4bhpp2rcd13ifvqhfg","pricing_plan_id":"cebpf4jnsgd1na2vs0mg"},{"bike_id":"bcd57de9-d46c-427e-94ee-4889338f80c0","system_id":"levelo_inurba_marseille","lat":43.26492,"lon":5.39548,"is_reserved":false,"is_disabled":false,"rental_uris":{"android":"levelo://app?vid=bcd57de9-d46c-427e-94ee-4889338f80c0","ios":"levelo://app?vid=bcd57de9-d46c-427e-94ee-4889338f80c0"},"vehicle_type_id":"4","last_reported":1726640024,"current_range_meters":38800,"station_id":"ce4bhi12rcd13ifvqfq0","pricing_plan_id":"cebpf4jnsgd1na2vs0mg"},{"bike_id":"54eccf0a-626a-4c3e-a34b-2d2d03cdb4eb","system_id":"levelo_inurba_marseille","lat":43.28097,"lon":5.39658,"is_reserved":false,"is_disabled":false,"rental_uris":{"android":"levelo://app?vid=54eccf0a-626a-4c3e-a34b-2d2d03cdb4eb","ios":"levelo://app?vid=54eccf0a-626a-4c3e-a34b-2d2d03cdb4eb"},"vehicle_type_id":"4","last_reported":1726640024,"current_range_meters":6400,"station_id":"ce4bho12rcd13ifvqh2g","pricing_plan_id":"cebpf4jnsgd1na2vs0mg"},{"bike_id":"d8e751ce-68d8-4843-af31-f29be99d953d","system_id":"levelo_inurba_marseille","lat":43.2396,"lon":5.36634,"is_reserved":false,"is_disabled":false,"rental_uris":{"android":"levelo://app?vid=d8e751ce-68d8-4843-af31-f29be99d953d","ios":"levelo://app?vid=d8e751ce-68d8-4843-af31-f29be99d953d"},"vehicle_type_id":"4","last_reported":1726640024,"current_range_meters":8800,"station_id":"ce4bhi12rcd13ifvqfp0","pricing_plan_id":"cebpf4jnsgd1na2vs0mg"},{"bike_id":"b8ad8177-1715-49af-aca6-84dee5ecb3f3","system_id":"levelo_inurba_marseille","lat":43.29959,"lon":5.41318,"is_reserved":false,"is_disabled":false,"rental_uris":{"android":"levelo://app?vid=b8ad8177-1715-49af-aca6-84dee5ecb3f3","ios":"levelo://app?vid=b8ad8177-1715-49af-aca6-84dee5ecb3f3"},"vehicle_type_id":"4","last_reported":1726640024,"current_range_meters":38800,"station_id":"ce4bhp12rcd13ifvqh9g","pricing_plan_id":"cebpf4jnsgd1na2vs0mg"},{"bike_id":"20bfa4aa-a956-4cc5-ae63-9ec868e54692","system_id":"levelo_inurba_marseille","lat":43.28706,"lon":5.3998,"is_reserved":false,"is_disabled":false,"rental_uris":{"android":"levelo://app?vid=20bfa4aa-a956-4cc5-ae63-9ec868e54692","ios":"levelo://app?vid=20bfa4aa-a956-4cc5-ae63-9ec868e54692"},"vehicle_type_id":"4","last_reported":1726640024,"current_range_meters":38000,"station_id":"ce4bho92rcd13ifvqh3g","pricing_plan_id":"cebpf4jnsgd1na2vs0mg"},{"bike_id":"73e17ec8-e47d-415b-a693-9917ccf29905","system_id":"levelo_inurba_marseille","lat":43.31758,"lon":5.39014,"is_reserved":false,"is_disabled":false,"rental_uris":{"android":"levelo://app?vid=73e17ec8-e47d-415b-a693-9917ccf29905","ios":"levelo://app?vid=73e17ec8-e47d-415b-a693-9917ccf29905"},"vehicle_type_id":"4","last_reported":1726640024,"current_range_meters":38800,"station_id":"ce4bhqp2rcd13ifvqhng","pricing_plan_id":"cebpf4jnsgd1na2vs0mg"},{"bike_id":"420d052b-d5a1-4886-a260-869dee22c8ec","system_id":"levelo_inurba_marseille","lat":43.30591,"lon":5.39353,"is_reserved":false,"is_disabled":false,"rental_uris":{"android":"levelo://app?vid=420d052b-d5a1-4886-a260-869dee22c8ec","ios":"levelo://app?vid=420d052b-d5a1-4886-a260-869dee22c8ec"},"vehicle_type_id":"4","last_reported":1726640024,"current_range_meters":36400,"station_id":"ce4bh0p2rcd13ifvqd80","pricing_plan_id":"cebpf4jnsgd1na2vs0mg"},{"bike_id":"fdfa3fb4-fd07-4e9b-91b8-ff627b7b5340","system_id":"levelo_inurba_marseille","lat":43.30155,"lon":5.39863,"is_reserved":false,"is_disabled":false,"rental_uris":{"android":"levelo://app?vid=fdfa3fb4-fd07-4e9b-91b8-ff627b7b5340","ios":"levelo://app?vid=fdfa3fb4-fd07-4e9b-91b8-ff627b7b5340"},"vehicle_type_id":"4","last_reported":1726640024,"current_range_meters":34000,"station_id":"ce4bh0h2rcd13ifvqd40","pricing_plan_id":"cebpf4jnsgd1na2vs0mg"},{"bike_id":"c58b33a0-2e42-4f1a-853f-2589818eb46d","system_id":"levelo_inurba_marseille","lat":43.325348,"lon":5.414344,"is_reserved":false,"is_disabled":false,"rental_uris":{"android":"levelo://app?vid=c58b33a0-2e42-4f1a-853f-2589818eb46d","ios":"levelo://app?vid=c58b33a0-2e42-4f1a-853f-2589818eb46d"},"vehicle_type_id":"4","last_reported":1726640024,"current_range_meters":29600,"station_id":"ce4bhq12rcd13ifvqhhg","pricing_plan_id":"cebpf4jnsgd1na2vs0mg"},