{"last_updated":1703016390,"ttl":30,"version":"2.2","data":{"bikes":[{"bike_id":"15c7edea-86ab-4b62-9286-30eaeca9bae0","system_id":"levelo_inurba_marseille","lat":43.31341,"lon":5.367098,"is_reserved":false,"is_disabled":false,"rental_uris":{"android":"levelo://app?vid=15c7edea-86ab-4b62-9286-30eaeca9bae0","ios":"levelo://app?vid=15c7edea-86ab-4b62-9286-30eaeca9bae0"},"vehicle_type_id":"4","last_reported":1703016391,"current_range_meters":30000,"station_id":"ce4bgr92rcd13ifvqc6g","pricing_plan_id":"free"},{"bike_id":"e2590c4a-8761-4bfb-9ba8-49d2545b1402","system_id":"levelo_inurba_marseille","lat":43.312239,"lon":5.368562,"is_reserved":false,"is_disabled":false,"rental_uris":{"android":"levelo://app?vid=e2590c4a-8761-4bfb-9ba8-49d2545b1402","ios":"levelo://app?vid=e2590c4a-8761-4bfb-9ba8-49d2545b1402"},"vehicle_type_id":"4","last_reported":1703016391,"current_range_meters":21200,"station_id":"ce4bgl92rcd13ifvqbq0","pricing_plan_id":"free"},{"bike_id":"b9f6aa9c-f486-4ff8-aa57-43a2e1371d6c","system_id":"levelo_inurba_marseille","lat":43.31227,"lon":5.36865,"is_reserved":false,"is_disabled":false,"rental_uris":{"android":"levelo://app?vid=b9f6aa9c-f486-4ff8-aa57-43a2e1371d6c","ios":"levelo://app?vid=b9f6aa9c-f486-4ff8-aa57-43a2e1371d6c"},"vehicle_type_id":"4","last_reported":1703016391,"current_range_meters":12000,"station_id":"ce4bgl92rcd13ifvqbq0","pricing_plan_id":"free"},{"bike_id":"440f7f17-c77e-4878-9430-dfdee0958ec8","system_id":"levelo_inurba_marseille","lat":43.314811,"lon":5.373103,"is_reserved":false,"is_disabled":false,"rental_uris":{"android":"levelo://app?vid=440f7f17-c77e-4878-9430-dfdee0958ec8","ios":"levelo://app?vid=440f7f17-c77e-4878-9430-dfdee0958ec8"},"vehicle_type_id":"4","last_reported":1703016391,"current_range_meters":0,"station_id":"ce4bgt12rcd13ifvqcd0","pricing_plan_id":"free"},{"bike_id":"dbc05aaf-d7cf-4120-b642-7f61140a9031","system_id":"levelo_inurba_marseille","lat":43.309039,"lon":5.371797,"is_reserved":false,"is_disabled":false,"rental_uris":{"android":"levelo://app?vid=dbc05aaf-d7cf-4120-b642-7f61140a9031","ios":"levelo://app?vid=dbc05aaf-d7cf-4120-b642-7f61140a9031"},"vehicle_type_id":"4","last_reported":1703016391,"current_range_meters":19200,"station_id":"ce4bguh2rcd13ifvqckg","pricing_plan_id":"free"},{"bike_id":"aa3eb507-db67-47ed-a100-b64174be716f","system_id":"levelo_inurba_marseille","lat":43.309039,"lon":5.371797,"is_reserved":false,"is_disabled":false,"rental_uris":{"android":"levelo://app?vid=aa3eb507-db67-47ed-a100-b64174be716f","ios":"levelo://app?vid=aa3eb507-db67-47ed-a100-b64174be716f"},"vehicle_type_id":"4","last_reported":1703016391,"current_range_meters":30800,"station_id":"ce4bguh2rcd13ifvqckg","pricing_plan_id":"free"},{"bike_id":"8ca35f86-e471-4e02-8c78-7fca94f395ce","system_id":"levelo_inurba_marseille","lat":43.307945,"lon":5.376487,"is_reserved":false,"is_disabled":false,"rental_uris":{"android":"levelo://app?vid=8ca35f86-e471-4e02-8c78-7fca94f395ce","ios":"levelo://app?vid=8ca35f86-e471-4e02-8c78-7fca94f395ce"},"vehicle_type_id":"4","last_reported":1703016391,"current_range_meters":15600,"station_id":"ce4bgv92rcd13ifvqcq0","pricing_plan_id":"free"},{"bike_id":"4f38870a-d1ef-4593-880e-604481155ddf","system_id":"levelo_inurba_marseille","lat":43.307945,"lon":5.376487,"is_reserved":false,"is_disabled":false,"rental_uris":{"android":"levelo://app?vid=4f38870a-d1ef-4593-880e-604481155ddf","ios":"levelo://app?vid=4f38870a-d1ef-4593-880e-604481155ddf"},"vehicle_type_id":"4","last_reported":1703016391,"current_range_meters":800,"station_id":"ce4bgv92rcd13ifvqcq0","pricing_plan_id":"free"},{"bike_id":"434ac7bc-c4ee-4178-8066-57cd65d9dfc7","system_id":"levelo_inurba_marseille","lat":43.31337,"lon":5.37931,"is_reserved":false,"is_disabled":false,"rental_uris":{"android":"levelo://app?vid=434ac7bc-c4ee-4178-8066-57cd65d9dfc7","ios":"levelo://app?vid=434ac7bc-c4ee-4178-8066-57cd65d9dfc7"},"vehicle_type_id":"4","last_reported":1703016391,"current_range_meters":2400,"station_id":"","pricing_plan_id":"free"},{"bike_id":"42fa07c7-2d88-48ea-b407-e335afeb3037","system_id":"levelo_inurba_marseille","lat":43.315293,"lon":5.380349,"is_reserved":false,"is_disabled":false,"rental_uris":{"android":"levelo://app?vid=42fa07c7-2d88-48ea-b407-e335afeb3037","ios":"levelo://app?vid=42fa07c7-2d88-48ea-b407-e335afeb3037"},"vehicle_type_id":"4","last_reported":1703016391,"current_range_meters":6000,"station_id":"ce4bhsp2rcd13ifvqi50","pricing_plan_id":"free"},{"bike_id":"9d264bc2-7cee-4e3d-b93c-fde55f46e751","system_id":"levelo_inurba_marseille","lat":43.308012,"lon":5.381511,"is_reserved":false,"is_disabled":false,"rental_uris":{"android":"levelo://app?vid=9d264bc2-7cee-4e3d-b93c-fde55f46e751","ios":"levelo://app?vid=9d264bc2-7cee-4e3d-b93c-fde55f46e751"},"vehicle_type_id":"4","last_reported":1703016391,"current_range_meters":16800,"station_id":"ce4bgt12rcd13ifvqce0","pricing_plan_id":"free"},{"bike_id":"1d47b93b-fec2-43c7-b08d-ef8c42c093e5","system_id":"levelo_inurba_marseille","lat":43.319935,"lon":5.381699,"is_reserved":false,"is_disabled":false,"rental_uris":{"android":"levelo://app?vid=1d47b93b-fec2-43c7-b08d-ef8c42c093e5","ios":"levelo://app?vid=1d47b93b-fec2-43c7-b08d-ef8c42c093e5"},"vehicle_type_id":"4","last_reported":1703016391,"current_range_meters":24400,"station_id":"ce4bhr12rcd13ifvqhpg","pricing_plan_id":"free"},{"bike_id":"73ec7247-bcd3-4193-9351-c056112d3952","system_id":"levelo_inurba_marseille","lat":43.319935,"lon":5.381699,"is_reserved":false,"is_disabled":false,"rental_uris":{"android":"levelo://app?vid=73ec7247-bcd3-4193-9351-c056112d3952","ios":"levelo://app?vid=73ec7247-bcd3-4193-9351-c056112d3952"},"vehicle_type_id":"4","last_reported":1703016391,"current_range_meters":29600,"station_id":"ce4bhr12rcd13ifvqhpg","pricing_plan_id":"free"},{"bike_id":"ff61b42d-58ff-4b73-913b-03f3caec66e0","system_id":"levelo_inurba_marseille","lat":43.319935,"lon":5.381699,"is_reserved":false,"is_disabled":false,"rental_uris":{"android":"levelo://app?vid=ff61b42d-58ff-4b73-913b-03f3caec66e0","ios":"levelo://app?vid=ff61b42d-58ff-4b73-913b-03f3caec66e0"},"vehicle_type_id":"4","last_reported":1703016391,"current_range_meters":25600,"station_id":"ce4bhr12rcd13ifvqhpg","pricing_plan_id":"free"},{"bike_id":"a11de423-f1d7-45b1-894b-01454f92bdb6","system_id":"levelo_inurba_marseille","lat":43.319935,"lon":5.381699,"is_reserved":false,"is_disabled":false,"rental_uris":{"android":"levelo://app?vid=a11de423-f1d7-45b1-894b-01454f92bdb6","ios":"levelo://app?vid=a11de423-f1d7-45b1-894b-01454f92bdb6"},"vehicle_type_id":"4","last_reported":1703016391,"current_range_meters":1200,"station_id":"ce4bhr12rcd13ifvqhpg","pricing_plan_id":"free"},{"bike_id":"650a6a29-298f-463c-8ec9-03eada453efa","system_id":"levelo_inurba_marseille","lat":43.31363,"lon":5.38489,"is_reserved":false,"is_disabled":false,"rental_uris":{"android":"levelo://app?vid=650a6a29-298f-463c-8ec9-03eada453efa","ios":"levelo://app?vid=650a6a29-298f-463c-8ec9-03eada453efa"},"vehicle_type_id":"4","last_reported":1703016391,"current_range_meters":17600,"station_id":"ce4bgt92rcd13ifvqcf0","pricing_plan_id":"free"},{"bike_id":"da5460fd-25e7-4594-bb1a-3be3518b6305","system_id":"levelo_inurba_marseille","lat":43.313571,"lon":5.384829,"is_reserved":false,"is_disabled":false,"rental_uris":{"android":"levelo://app?vid=da5460fd-25e7-4594-bb1a-3be3518b6305","ios":"levelo://app?vid=da5460fd-25e7-4594-bb1a-3be3518b6305"},"vehicle_type_id":"4","last_reported":1703016391,"current_range_meters":5200,"station_id":"ce4bgt92rcd13ifvqcf0","pricing_plan_id":"free"},{"bike_id":"b94bc742-e48d-40ea-9ed4-e39890955bc0","system_id":"levelo_inurba_marseille","lat":43.313607,"lon":5.384941,"is_reserved":false,"is_disabled":false,"rental_uris":{"android":"levelo://app?vid=b94bc742-e48d-40ea-9ed4-e39890955bc0","ios":"levelo://app?vid=b94bc742-e48d-40ea-9ed4-e39890955bc0"},"vehicle_type_id":"4","last_reported":1703016391,"current_range_meters":26000,"station_id":"ce4bgt92rcd13ifvqcf0","pricing_plan_id":"free"},{"bike_id":"49e6fbff-48ad-4699-b140-c3ec3f3115ad","system_id":"levelo_inurba_marseille","lat":43.31362,"lon":5.384953,"is_reserved":false,"is_disabled":false,"rental_uris":{"android":"levelo://app?vid=49e6fbff-48ad-4699-b140-c3ec3f3115ad","ios":"levelo://app?vid=49e6fbff-48ad-4699-b140-c3ec3f3115ad"},"vehicle_type_id":"4","last_reported":1703016391,"current_range_meters":25200,"station_id":"ce4bgt92rcd13ifvqcf0","pricing_plan_id":"free"},{"bike_id":"9d72f84c-e239-4de9-a8d1-b1964ce4b190","system_id":"levelo_inurba_marseille","lat":43.31365,"lon":5.38497,"is_reserved":false,"is_disabled":false,"rental_uris":{"android":"levelo://app?vid=9d72f84c-e239-4de9-a8d1-b1964ce4b190","ios":"levelo://app?vid=9d72f84c-e239-4de9-a8d1-b1964ce4b190"},"vehicle_type_id":"4","last_reported":1703016391,"current_range_meters":29200,"station_id":"ce4bgt92rcd13ifvqcf0","pricing_plan_id":"free"},{"bike_id":"1d405565-81fe-483d-b06d-9ddd014114e3","system_id":"levelo_inurba_marseille","lat":43.3137,"lon":5.38497,"is_reserved":false,"is_disabled":false,"rental_uris":{"android":"levelo://app?vid=1d405565-81fe-483d-b06d-9ddd014114e3","ios":"levelo://app?vid=1d405565-81fe-483d-b06d-9ddd014114e3"},"vehicle_type_id":"4","last_reported":1703016391,"current_range_meters":31200,"station_id":"ce4bgt92rcd13ifvqcf0","pricing_plan_id":"free"},{"bike_id":"8fc63f90-e42f-45a5-8ef8-f3e9aca8ac5d","system_id":"levelo_inurba_marseille","lat":43.313646,"lon":5.384979,"is_reserved":false,"is_disabled":false,"rental_uris":{"android":"levelo://app?vid=8fc63f90-e42f-45a5-8ef8-f3e9aca8ac5d","ios":"levelo://app?vid=8fc63f90-e42f-45a5-8ef8-f3e9aca8ac5d"},"vehicle_type_id":"4","last_reported":1703016391,"current_range_meters":24400,"station_id":"ce4bgt92rcd13ifvqcf0","pricing_plan_id":"free"},{"bike_id":"01ee7429-cfde-4b62-856f-75cf388216af","system_id":"levelo_inurba_marseille","lat":43.313655,"lon":5.385007,"is_reserved":false,"is_disabled":false,"rental_uris":{"android":"levelo://app?vid=01ee7429-cfde-4b62-856f-75cf388216af","ios":"levelo://app?vid=01ee7429-cfde-4b62-856f-75cf388216af"},"vehicle_type_id":"4","last_reported":1703016391,"current_range_meters":28400,"station_id":"ce4bgt92rcd13ifvqcf0","pricing_plan_id":"free"},{"bike_id":"8fae39fe-f351-4775-bf17-ce9800288018","system_id":"levelo_inurba_marseille","lat":43.313661,"lon":5.385012,"is_reserved":false,"is_disabled":false,"rental_uris":{"android":"levelo://app?vid=8fae39fe-f351-4775-bf17-ce9800288018","ios":"levelo://app?vid=8fae39fe-f351-4775-bf17-ce9800288018"},"vehicle_type_id":"4","last_reported":1703016391,"current_range_meters":31200,"station_id":"ce4bgt92rcd13ifvqcf0","pricing_plan_id":"free"},{"bike_id":"93e3f275-51de-4ff5-beb2-171840114c6c","system_id":"levelo_inurba_marseille","lat":43.313648,"lon":5.38502,"is_reserved":false,"is_disabled":false,"rental_uris":{"android":"levelo://app?vid=93e3f275-51de-4ff5-beb2-171840114c6c","ios":"levelo://app?vid=93e3f275-51de-4ff5-beb2-171840114c6c"},"vehicle_type_id":"4","last_reported":1703016391,"current_range_meters":20400,"station_id":"ce4bgt92rcd13ifvqcf0","pricing_plan_id":"free"},{"bike_id":"70eb36af-de42-4fb1-a432-324b2faa8d96","system_id":"levelo_inurba_marseille","lat":43.31354,"lon":5.38504,"is_reserved":false,"is_disabled":false,"rental_uris":{"android":"levelo://app?vid=70eb36af-de42-4fb1-a432-324b2faa8d96","ios":"levelo://app?vid=70eb36af-de42-4fb1-a432-324b2faa8d96"},"vehicle_type_id":"4","last_reported":1703016391,"current_range_meters":22000,"station_id":"ce4bgt92rcd13ifvqcf0","pricing_plan_id":"free"},{"bike_id":"02979e21-1cd7-4347-8576-d3b3ff19b990","system_id":"levelo_inurba_marseille","lat":43.299222,"lon":5.365554,"is_reserved":false,"is_disabled":false,"rental_uris":{"android":"levelo://app?vid=02979e21-1cd7-4347-8576-d3b3ff19b990","ios":"levelo://app?vid=02979e21-1cd7-4347-8576-d3b3ff19b990"},"vehicle_type_id":"4","last_reported":1703016391,"current_range_meters":16000,"station_id":"ce4bgm92rcd13ifvqbr0","pricing_plan_id":"free"},{"bike_id":"2007e5a3-35e3-495c-816f-de72eb9bf76c","system_id":"levelo_inurba_marseille","lat":43.299724,"lon":5.371829,"is_reserved":false,"is_disabled":false,"rental_uris":{"android":"levelo://app?vid=2007e5a3-35e3-495c-816f-de72eb9bf76c","ios":"levelo://app?vid=2007e5a3-35e3-495c-816f-de72eb9bf76c"},"vehicle_type_id":"4","last_reported":1703016391,"current_range_meters":30000,"station_id":"ce4bgr92rcd13ifvqc7g","pricing_plan_id":"free"},{"bike_id":"6f5f34e2-b8e3-4e5c-8442-d4f6e7552139","system_id":"levelo_inurba_marseille","lat":43.299724,"lon":5.371829,"is_reserved":false,"is_disabled":false,"rental_uris":{"android":"levelo://app?vid=6f5f34e2-b8e3-4e5c-8442-d4f6e7552139","ios":"levelo://app?vid=6f5f34e2-b8e3-4e5c-8442-d4f6e7552139"},"vehicle_type_id":"4","last_reported":1703016391,"current_range_meters":8000,"station_id":"ce4bgr92rcd13ifvqc7g","pricing_plan_id":"free"},{"bike_id":"752ce282-9193-45a0-8054-78ab0a11ba42","system_id":"levelo_inurba_marseille","lat":43.299222,"lon":5.365554,"is_reserved":false,"is_disabled":false,"rental_uris":{"android":"levelo://app?vid=752ce282-9193-45a0-8054-78ab0a11ba42","ios":"levelo://app?vid=752ce282-9193-45a0-8054-78ab0a11ba42"},"vehicle_type_id":"4","last_reported":1703016391,"current_range_meters":12800,"station_id":"ce4bgm92rcd13ifvqbr0","pricing_plan_id":"free"},{"bike_id":"86aae9e3-2a37-4044-85fe-9cc7ced859cc","system_id":"levelo_inurba_marseille","lat":43.299724,"lon":5.371829,"is_reserved":false,"is_disabled":false,"rental_uris":{"android":"levelo://app?vid=86aae9e3-2a37-4044-85fe-9cc7ced859cc","ios":"levelo://app?vid=86aae9e3-2a37-4044-85fe-9cc7ced859cc"},"vehicle_type_id":"4","last_reported":1703016391,"current_range_meters":2000,"station_id":"ce4bgr92rcd13ifvqc7g","pricing_plan_id":"free"},{"bike_id":"2bfaf5f6-eccc-47d1-8df0-65f4da4f2804","system_id":"levelo_inurba_marseille","lat":43.299724,"lon":5.371829,"is_reserved":false,"is_disabled":false,"rental_uris":{"android":"levelo://app?vid=2bfaf5f6-eccc-47d1-8df0-65f4da4f2804","ios":"levelo://app?vid=2bfaf5f6-eccc-47d1-8df0-65f4da4f2804"},"vehicle_type_id":"4","last_reported":1703016391,"current_range_meters":18000,"station_id":"ce4bgr92rcd13ifvqc7g","pricing_plan_id":"free"},{"bike_id":"0130e675-319a-415e-a3cb-121f1d3ebc89","system_id":"levelo_inurba_marseille","lat":43.305364,"lon":5.384119,"is_reserved":false,"is_disabled":false,"rental_uris":{"android":"levelo://app?vid=0130e675-319a-415e-a3cb-121f1d3ebc89","ios":"levelo://app?vid=0130e675-319a-415e-a3cb-121f1d3ebc89"},"vehicle_type_id":"4","last_reported":1703016391,"current_range_meters":6800,"station_id":"ce4bgg92rcd13ifvqb30","pricing_plan_id":"free"},{"bike_id":"2ae20d45-e93d-400c-adca-adc164cbd0e9","system_id":"levelo_inurba_marseille","lat":43.305364,"lon":5.384119,"is_reserved":false,"is_disabled":false,"rental_uris":{"android":"levelo://app?vid=2ae20d45-e93d-400c-adca-adc164cbd0e9","ios":"levelo://app?vid=2ae20d45-e93d-400c-adca-adc164cbd0e9"},"vehicle_type_id":"4","last_reported":1703016391,"current_range_meters":26800,"station_id":"ce4bgg92rcd13ifvqb30","pricing_plan_id":"free"},{"bike_id":"45cc6009-a587-4fd0-bf50-c97d16a6cd28","system_id":"levelo_inurba_marseille","lat":43.299243,"lon":5.374807,"is_reserved":false,"is_disabled":false,"rental_uris":{"android":"levelo://app?vid=45cc6009-a587-4fd0-bf50-c97d16a6cd28","ios":"levelo://app?vid=45cc6009-a587-4fd0-bf50-c97d16a6cd28"},"vehicle_type_id":"4","last_reported":1703016391,"current_range_meters":0,"station_id":"ce4bgjh2rcd13ifvqbg0","pricing_plan_id":"free"},{"bike_id":"c87853fb-14eb-4bda-b52e-c8913e6670eb","system_id":"levelo_inurba_marseille","lat":43.311722,"lon":5.387247,"is_reserved":false,"is_disabled":false,"rental_uris":{"android":"levelo://app?vid=c87853fb-14eb-4bda-b52e-c8913e6670eb","ios":"levelo://app?vid=c87853fb-14eb-4bda-b52e-c8913e6670eb"},"vehicle_type_id":"4","last_reported":1703016391,"current_range_meters":17200,"station_id":"ce4bgv12rcd13ifvqcp0","pricing_plan_id":"free"},{"bike_id":"ca0834b0-077b-48e5-8d61-d563b65c06e3","system_id":"levelo_inurba_marseille","lat":43.305476,"lon":5.384555,"is_reserved":false,"is_disabled":false,"rental_uris":{"android":"levelo://app?vid=ca0834b0-077b-48e5-8d61-d563b65c06e3","ios":"levelo://app?vid=ca0834b0-077b-48e5-8d61-d563b65c06e3"},"vehicle_type_id":"4","last_reported":1703016391,"current_range_meters":1600,"station_id":"ce4bgg92rcd13ifvqb30","pricing_plan_id":"free"},{"bike_id":"624bb959-e3bc-4209-8a60-387132b3b63d","system_id":"levelo_inurba_marseille","lat":43.31166,"lon":5.38717,"is_reserved":false,"is_disabled":false,"rental_uris":{"android":"levelo://app?vid=624bb959-e3bc-4209-8a60-387132b3b63d","ios":"levelo://app?vid=624bb959-e3bc-4209-8a60-387132b3b63d"},"vehicle_type_id":"4","last_reported":1703016391,"current_range_meters":30400,"station_id":"ce4bgv12rcd13ifvqcp0","pricing_plan_id":"free"},{"bike_id":"1f2c67f0-15a4-4ee2-b5e2-58311f7a5d86","system_id":"levelo_inurba_marseille","lat":43.311722,"lon":5.387247,"is_reserved":false,"is_disabled":false,"rental_uris":{"android":"levelo://app?vid=1f2c67f0-15a4-4ee2-b5e2-58311f7a5d86","ios":"levelo://app?vid=1f2c67f0-15a4-4ee2-b5e2-58311f7a5d86"},"vehicle_type_id":"4","last_reported":1703016391,"current_range_meters":12400,"station_id":"ce4bgv12rcd13ifvqcp0","pricing_plan_id":"free"},{"bike_id":"55b7bdce-f270-4ee7-8a23-96f05df61019","system_id":"levelo_inurba_marseille","lat":43.311722,"lon":5.387247,"is_reserved":false,"is_disabled":false,"rental_uris":{"android":"levelo://app?vid=55b7bdce-f270-4ee7-8a23-96f05df61019","ios":"levelo://app?vid=55b7bdce-f270-4ee7-8a23-96f05df61019"},"vehicle_type_id":"4","last_reported":1703016391,"current_range_meters":8000,"station_id":"ce4bgv12rcd13ifvqcp0","pricing_plan_id":"free"},{"bike_id":"65af709a-db4b-40ee-93f5-e7767d49b3ef","system_id":"levelo_inurba_marseille","lat":43.311722,"lon":5.387247,"is_reserved":false,"is_disabled":false,"rental_uris":{"android":"levelo://app?vid=65af709a-db4b-40ee-93f5-e7767d49b3ef","ios":"levelo://app?vid=65af709a-db4b-40ee-93f5-e7767d49b3ef"},"vehicle_type_id":"4","last_reported":1703016391,"current_range_meters":2400,"station_id":"ce4bgv12rcd13ifvqcp0","pricing_plan_id":"free"},{"bike_id":"06f7ecc2-a81a-445d-91c4-92fc3a1d9ef2","system_id":"levelo_inurba_marseille","lat":43.297774,"lon":5.370875,"is_reserved":false,"is_disabled":false,"rental_uris":{"android":"levelo://app?vid=06f7ecc2-a81a-445d-91c4-92fc3a1d9ef2","ios":"levelo://app?vid=06f7ecc2-a81a-445d-91c4-92fc3a1d9ef2"},"vehicle_type_id":"4","last_reported":1703016391,"current_range_meters":1600,"station_id":"ce4bgop2rcd13ifvqc1g","pricing_plan_id":"free"},{"bike_id":"3bed26bb-0ada-42b3-9c7f-dfbaac3937fa","system_id":"levelo_inurba_marseille","lat":43.322872,"lon":5.382756,"is_reserved":false,"is_disabled":false,"rental_uris":{"android":"levelo://app?vid=3bed26bb-0ada-42b3-9c7f-dfbaac3937fa","ios":"levelo://app?vid=3bed26bb-0ada-42b3-9c7f-dfbaac3937fa"},"vehicle_type_id":"4","last_reported":1703016391,"current_range_meters":28000,"station_id":"ce4bhr12rcd13ifvqhqg","pricing_plan_id":"free"},{"bike_id":"873a287b-4e8b-4542-834f-91bce629838e","system_id":"levelo_inurba_marseille","lat":43.32292,"lon":5.38273,"is_reserved":false,"is_disabled":false,"rental_uris":{"android":"levelo://app?vid=873a287b-4e8b-4542-834f-91bce629838e","ios":"levelo://app?vid=873a287b-4e8b-4542-834f-91bce629838e"},"vehicle_type_id":"4","last_reported":1703016391,"current_range_meters":24800,"station_id":"ce4bhr12rcd13ifvqhqg","pricing_plan_id":"free"},{"bike_id":"eb8ebe7d-6983-4780-997c-9447c3c0c6e2","system_id":"levelo_inurba_marseille","lat":43.32823,"lon":5.36682,"is_reserved":false,"is_disabled":false,"rental_uris":{"android":"levelo://app?vid=eb8ebe7d-6983-4780-997c-9447c3c0c6e2","ios":"levelo://app?vid=eb8ebe7d-6983-4780-997c-9447c3c0c6e2"},"vehicle_type_id":"4","last_reported":1703016391,"current_range_meters":31200,"station_id":"ce4bhs92rcd13ifvqi0g","pricing_plan_id":"free"},{"bike_id":"c22e4b9f-ba20-4a7c-a7c8-fd0a73d903e0","system_id":"levelo_inurba_marseille","lat":43.328371,"lon":5.366909,"is_reserved":false,"is_disabled":false,"rental_uris":{"android":"levelo://app?vid=c22e4b9f-ba20-4a7c-a7c8-fd0a73d903e0","ios":"levelo://app?vid=c22e4b9f-ba20-4a7c-a7c8-fd0a73d903e0"},"vehicle_type_id":"4","last_reported":1703016391,"current_range_meters":26400,"station_id":"ce4bhs92rcd13ifvqi0g","pricing_plan_id":"free"},{"bike_id":"c12df297-168e-4ca3-95d9-a300ff1ffbd9","system_id":"levelo_inurba_marseille","lat":43.328371,"lon":5.366909,"is_reserved":false,"is_disabled":false,"rental_uris":{"android":"levelo://app?vid=c12df297-168e-4ca3-95d9-a300ff1ffbd9","ios":"levelo://app?vid=c12df297-168e-4ca3-95d9-a300ff1ffbd9"},"vehicle_type_id":"4","last_reported":1703016391,"current_range_meters":31200,"station_id":"ce4bhs92rcd13ifvqi0g","pricing_plan_id":"free"},{"bike_id":"48ebe570-3797-4c11-9550-8036b565ccb1","system_id":"levelo_inurba_marseille","lat":43.328371,"lon":5.366909,"is_reserved":false,"is_disabled":false,"rental_uris":{"android":"levelo://app?vid=48ebe570-3797-4c11-9550-8036b565ccb1","ios":"levelo://app?vid=48ebe570-3797-4c11-9550-8036b565ccb1"},"vehicle_type_id":"4","last_reported":1703016391,"current_range_meters":30000,"station_id":"ce4bhs92rcd13ifvqi0g","pricing_plan_id":"free"},{"bike_id":"4f9c7a8d-2008-43b1-b77b-15fa4e5785f4","system_id":"levelo_inurba_marseille","lat":43.297163,"lon":5.365866,"is_reserved":false,"is_disabled":false,"rental_uris":{"android":"levelo://app?vid=4f9c7a8d-2008-43b1-b77b-15fa4e5785f4","ios":"levelo://app?vid=4f9c7a8d-2008-43b1-b77b-15fa4e5785f4"},"vehicle_type_id":"4","last_reported":1703016391,"current_range_meters":23600,"station_id":"ce4bgn12rcd13ifvqbt0","pricing_plan_id":"free"},{"bike_id":"0b82d8e8-de0d-443a-895f-ce4c9860ab11","system_id":"levelo_inurba_marseille","lat":43.297163,"lon":5.365866,"is_reserved":false,"is_disabled":false,"rental_uris":{"android":"levelo://app?vid=0b82d8e8-de0d-443a-895f-ce4c9860ab11","ios":"levelo://app?vid=0b82d8e8-de0d-443a-895f-ce4c9860ab11"},"vehicle_type_id":"4","last_reported":1703016391,"current_range_meters":23600,"station_id":"ce4bgn12rcd13ifvqbt0","pricing_plan_id":"free"},{"bike_id":"13e9a3c6-9c71-40da-9199-1d9ca373ba82","system_id":"levelo_inurba_marseille","lat":43.29601,"lon":5.36559,"is_reserved":false,"is_disabled":false,"rental_uris":{"android":"levelo://app?vid=13e9a3c6-9c71-40da-9199-1d9ca373ba82","ios":"levelo://app?vid=13e9a3c6-9c71-40da-9199-1d9ca373ba82"},"vehicle_type_id":"4","last_reported":1703016391,"current_range_meters":28000,"station_id":"","pricing_plan_id":"free"},{"bike_id":"263d6afd-74bf-40a1-972e-6e0e762b7bf5","system_id":"levelo_inurba_marseille","lat":43.29573,"lon":5.367355,"is_reserved":false,"is_disabled":false,"rental_uris":{"android":"levelo://app?vid=263d6afd-74bf-40a1-972e-6e0e762b7bf5","ios":"levelo://app?vid=263d6afd-74bf-40a1-972e-6e0e762b7bf5"},"vehicle_type_id":"4","last_reported":1703016391,"current_range_meters":22400,"station_id":"ce4bgph2rcd13ifvqc2g","pricing_plan_id":"free"},{"bike_id":"8c4fa6df-927a-41b1-8fb1-9dac069dd028","system_id":"levelo_inurba_marseille","lat":43.317557,"lon":5.390173,"is_reserved":false,"is_disabled":false,"rental_uris":{"android":"levelo://app?vid=8c4fa6df-927a-41b1-8fb1-9dac069dd028","ios":"levelo://app?vid=8c4fa6df-927a-41b1-8fb1-9dac069dd028"},"vehicle_type_id":"4","last_reported":1703016391,"current_range_meters":28000,"station_id":"ce4bhqp2rcd13ifvqhng","pricing_plan_id":"free"},{"bike_id":"360a3f56-011b-4494-b054-b56c3c75c0e4","system_id":"levelo_inurba_marseille","lat":43.317557,"lon":5.390173,"is_reserved":false,"is_disabled":false,"rental_uris":{"android":"levelo://app?vid=360a3f56-011b-4494-b054-b56c3c75c0e4","ios":"levelo://app?vid=360a3f56-011b-4494-b054-b56c3c75c0e4"},"vehicle_type_id":"4","last_reported":1703016391,"current_range_meters":3600,"station_id":"ce4bhqp2rcd13ifvqhng","pricing_plan_id":"free"},{"bike_id":"76d47860-82dc-4abd-a29d-51face51d019","system_id":"levelo_inurba_marseille","lat":43.317557,"lon":5.390173,"is_reserved":false,"is_disabled":false,"rental_uris":{"android":"levelo://app?vid=76d47860-82dc-4abd-a29d-51face51d019","ios":"levelo://app?vid=76d47860-82dc-4abd-a29d-51face51d019"},"vehicle_type_id":"4","last_reported":1703016391,"current_range_meters":14000,"station_id":"ce4bhqp2rcd13ifvqhng","pricing_plan_id":"free"},{"bike_id":"40554fe8-87bf-41d5-b75a-7fd0e2ec929c","system_id":"levelo_inurba_marseille","lat":43.317557,"lon":5.390173,"is_reserved":false,"is_disabled":false,"rental_uris":{"android":"levelo://app?vid=40554fe8-87bf-41d5-b75a-7fd0e2ec929c","ios":"levelo://app?vid=40554fe8-87bf-41d5-b75a-7fd0e2ec929c"},"vehicle_type_id":"4","last_reported":1703016391,"current_range_meters":31200,"station_id":"ce4bhqp2rcd13ifvqhng","pricing_plan_id":"free"},{"bike_id":"5eb2bd39-1f40-4daa-aef3-38b62445e1a4","system_id":"levelo_inurba_marseille","lat":43.317557,"lon":5.390173,"is_reserved":false,"is_disabled":false,"rental_uris":{"android":"levelo://app?vid=5eb2bd39-1f40-4daa-aef3-38b62445e1a4","ios":"levelo://app?vid=5eb2bd39-1f40-4daa-aef3-38b62445e1a4"},"vehicle_type_id":"4","last_reported":1703016391,"current_range_meters":4800,"station_id":"ce4bhqp2rcd13ifvqhng","pricing_plan_id":"free"},{"bike_id":"f6c944ac-76c5-4af7-bad2-2080808a45f4","system_id":"levelo_inurba_marseille","lat":43.32367,"lon":5.388836,"is_reserved":false,"is_disabled":false,"rental_uris":{"android":"levelo://app?vid=f6c944ac-76c5-4af7-bad2-2080808a45f4","ios":"levelo://app?vid=f6c944ac-76c5-4af7-bad2-2080808a45f4"},"vehicle_type_id":"4","last_reported":1703016391,"current_range_meters":30800,"station_id":"ce4bhqp2rcd13ifvqhog","pricing_plan_id":"free"},{"bike_id":"22a4fc37-cd0c-439a-9715-4a11508bb4b3","system_id":"levelo_inurba_marseille","lat":43.32367,"lon":5.388836,"is_reserved":false,"is_disabled":false,"rental_uris":{"android":"levelo://app?vid=22a4fc37-cd0c-439a-9715-4a11508bb4b3","ios":"levelo://app?vid=22a4fc37-cd0c-439a-9715-4a11508bb4b3"},"vehicle_type_id":"4","last_reported":1703016391,"current_range_meters":22400,"station_id":"ce4bhqp2rcd13ifvqhog","pricing_plan_id":"free"},{"bike_id":"70fda661-87d6-419e-9b40-f9c4076436b5","system_id":"levelo_inurba_marseille","lat":43.32367,"lon":5.388836,"is_reserved":false,"is_disabled":false,"rental_uris":{"android":"levelo://app?vid=70fda661-87d6-419e-9b40-f9c4076436b5","ios":"levelo://app?vid=70fda661-87d6-419e-9b40-f9c4076436b5"},"vehicle_type_id":"4","last_reported":1703016391,"current_range_meters":31200,"station_id":"ce4bhqp2rcd13ifvqhog","pricing_plan_id":"free"},{"bike_id":"85ac0a0b-bce2-449e-be1b-418bf5b3ab12","system_id":"levelo_inurba_marseille","lat":43.293249,"lon":5.371578,"is_reserved":false,"is_disabled":false,"rental_uris":{"android":"levelo://app?vid=85ac0a0b-bce2-449e-be1b-418bf5b3ab12","ios":"levelo://app?vid=85ac0a0b-bce2-449e-be1b-418bf5b3ab12"},"vehicle_type_id":"4","last_reported":1703016391,"current_range_meters":7200,"station_id":"ce4bgh92rcd13ifvqb40","pricing_plan_id":"free"},{"bike_id":"113c8283-abe7-4851-af5d-9846adb758b2","system_id":"levelo_inurba_marseille","lat":43.292749,"lon":5.368402,"is_reserved":false,"is_disabled":false,"rental_uris":{"android":"levelo://app?vid=113c8283-abe7-4851-af5d-9846adb758b2","ios":"levelo://app?vid=113c8283-abe7-4851-af5d-9846adb758b2"},"vehicle_type_id":"4","last_reported":1703016391,"current_range_meters":2400,"station_id":"ce4bhbp2rcd13ifvqesg","pricing_plan_id":"free"},{"bike_id":"2902d48a-41f9-4670-9378-985888d01563","system_id":"levelo_inurba_marseille","lat":43.293009,"lon":5.374584,"is_reserved":false,"is_disabled":false,"rental_uris":{"android":"levelo://app?vid=2902d48a-41f9-4670-9378-985888d01563","ios":"levelo://app?vid=2902d48a-41f9-4670-9378-985888d01563"},"vehicle_type_id":"4","last_reported":1703016391,"current_range_meters":30000,"station_id":"ce4bgi12rcd13ifvqb70","pricing_plan_id":"free"},{"bike_id":"14fdd7dc-6f80-4b49-9d83-04a821351b28","system_id":"levelo_inurba_marseille","lat":43.300852,"lon":5.390859,"is_reserved":false,"is_disabled":false,"rental_uris":{"android":"levelo://app?vid=14fdd7dc-6f80-4b49-9d83-04a821351b28","ios":"levelo://app?vid=14fdd7dc-6f80-4b49-9d83-04a821351b28"},"vehicle_type_id":"4","last_reported":1703016391,"current_range_meters":25600,"station_id":"ce4bh192rcd13ifvqdb0","pricing_plan_id":"free"},{"bike_id":"efc24c3e-b92a-4eb5-938f-90b693740d4c","system_id":"levelo_inurba_marseille","lat":43.300852,"lon":5.390859,"is_reserved":false,"is_disabled":false,"rental_uris":{"android":"levelo://app?vid=efc24c3e-b92a-4eb5-938f-90b693740d4c","ios":"levelo://app?vid=efc24c3e-b92a-4eb5-938f-90b693740d4c"},"vehicle_type_id":"4","last_reported":1703016391,"current_range_meters":10400,"station_id":"ce4bh192rcd13ifvqdb0","pricing_plan_id":"free"},{"bike_id":"3aae2b91-aff2-45cf-98d0-4096be38d29a","system_id":"levelo_inurba_marseille","lat":43.300961,"lon":5.390836,"is_reserved":false,"is_disabled":false,"rental_uris":{"android":"levelo://app?vid=3aae2b91-aff2-45cf-98d0-4096be38d29a","ios":"levelo://app?vid=3aae2b91-aff2-45cf-98d0-4096be38d29a"},"vehicle_type_id":"4","last_reported":1703016391,"current_range_meters":27600,"station_id":"","pricing_plan_id":"free"},{"bike_id":"87dfdd56-b92b-46de-b182-b73a46f440ce","system_id":"levelo_inurba_marseille","lat":43.30085,"lon":5.390856,"is_reserved":false,"is_disabled":false,"rental_uris":{"android":"levelo://app?vid=87dfdd56-b92b-46de-b182-b73a46f440ce","ios":"levelo://app?vid=87dfdd56-b92b-46de-b182-b73a46f440ce"},"vehicle_type_id":"4","last_reported":1703016391,"current_range_meters":28000,"station_id":"ce4bh192rcd13ifvqdb0","pricing_plan_id":"free"},{"bike_id":"3768d052-7ae1-4c0f-a125-8008d04b045f","system_id":"levelo_inurba_marseille","lat":43.300852,"lon":5.390859,"is_reserved":false,"is_disabled":false,"rental_uris":{"android":"levelo://app?vid=3768d052-7ae1-4c0f-a125-8008d04b045f","ios":"levelo://app?vid=3768d052-7ae1-4c0f-a125-8008d04b045f"},"vehicle_type_id":"4","last_reported":1703016391,"current_range_meters":29200,"station_id":"ce4bh192rcd13ifvqdb0","pricing_plan_id":"free"},{"bike_id":"8bf53562-76a0-40b2-83fd-89708cf80543","system_id":"levelo_inurba_marseille","lat":43.30085,"lon":5.390856,"is_reserved":false,"is_disabled":false,"rental_uris":{"android":"levelo://app?vid=8bf53562-76a0-40b2-83fd-89708cf80543","ios":"levelo://app?vid=8bf53562-76a0-40b2-83fd-89708cf80543"},"vehicle_type_id":"4","last_reported":1703016391,"current_range_meters":14800,"station_id":"ce4bh192rcd13ifvqdb0","pricing_plan_id":"free"},{"bike_id":"ce6c1e02-c9aa-49b8-b6bd-335811693372","system_id":"levelo_inurba_marseille","lat":43.30085,"lon":5.390856,"is_reserved":false,"is_disabled":false,"rental_uris":{"android":"levelo://app?vid=ce6c1e02-c9aa-49b8-b6bd-335811693372","ios":"levelo://app?vid=ce6c1e02-c9aa-49b8-b6bd-335811693372"},"vehicle_type_id":"4","last_reported":1703016391,"current_range_meters":2800,"station_id":"ce4bh192rcd13ifvqdb0","pricing_plan_id":"free"},{"bike_id":"67dbc710-e248-4701-92da-b94e6f063a32","system_id":"levelo_inurba_marseille","lat":43.322958,"lon":5.392478,"is_reserved":false,"is_disabled":false,"rental_uris":{"android":"levelo://app?vid=67dbc710-e248-4701-92da-b94e6f063a32","ios":"levelo://app?vid=67dbc710-e248-4701-92da-b94e6f063a32"},"vehicle_type_id":"4","last_reported":1703016391,"current_range_meters":7600,"station_id":"","pricing_plan_id":"free"},{"bike_id":"4d58e6f0-9efe-4656-9012-bc6cc6bcee5b","system_id":"levelo_inurba_marseille","lat":43.29878,"lon":5.38901,"is_reserved":false,"is_disabled":false,"rental_uris":{"android":"levelo://app?vid=4d58e6f0-9efe-4656-9012-bc6cc6bcee5b","ios":"levelo://app?vid=4d58e6f0-9efe-4656-9012-bc6cc6bcee5b"},"vehicle_type_id":"4","last_reported":1703016391,"current_range_meters":2800,"station_id":"","pricing_plan_id":"free"},{"bike_id":"942a356d-735b-4fb1-ba1b-b18af9f90271","system_id":"levelo_inurba_marseille","lat":43.29872,"lon":5.389,"is_reserved":false,"is_disabled":false,"rental_uris":{"android":"levelo://app?vid=942a356d-735b-4fb1-ba1b-b18af9f90271","ios":"levelo://app?vid=942a356d-735b-4fb1-ba1b-b18af9f90271"},"vehicle_type_id":"4","last_reported":1703016391,"current_range_meters":14800,"station_id":"","pricing_plan_id":"free"},{"bike_id":"56394360-69b5-4f1a-82ba-539594180d8d","system_id":"levelo_inurba_marseille","lat":43.291671,"lon":5.371575,"is_reserved":false,"is_disabled":false,"rental_uris":{"android":"levelo://app?vid=56394360-69b5-4f1a-82ba-539594180d8d","ios":"levelo://app?vid=56394360-69b5-4f1a-82ba-539594180d8d"},"vehicle_type_id":"4","last_reported":1703016391,"current_range_meters":22000,"station_id":"ce4bha92rcd13ifvqeh0","pricing_plan_id":"free"},{"bike_id":"f2410063-9401-44bb-9627-6471ca1f9221","system_id":"levelo_inurba_marseille","lat":43.309038,"lon":5.396546,"is_reserved":false,"is_disabled":false,"rental_uris":{"android":"levelo://app?vid=f2410063-9401-44bb-9627-6471ca1f9221","ios":"levelo://app?vid=f2410063-9401-44bb-9627-6471ca1f9221"},"vehicle_type_id":"4","last_reported":1703016391,"current_range_meters":24800,"station_id":"ce4bh012rcd13ifvqcv0","pricing_plan_id":"free"},{"bike_id":"4d3ce14d-6692-40a8-8b80-e3a11365aabd","system_id":"levelo_inurba_marseille","lat":43.291994,"lon":5.357886,"is_reserved":false,"is_disabled":false,"rental_uris":{"android":"levelo://app?vid=4d3ce14d-6692-40a8-8b80-e3a11365aabd","ios":"levelo://app?vid=4d3ce14d-6692-40a8-8b80-e3a11365aabd"},"vehicle_type_id":"4","last_reported":1703016391,"current_range_meters":13600,"station_id":"ce4bhb12rcd13ifvqel0","pricing_plan_id":"free"},{"bike_id":"269c9be6-1557-4ea6-9a7e-6b575d4289f4","system_id":"levelo_inurba_marseille","lat":43.309047,"lon":5.396551,"is_reserved":false,"is_disabled":false,"rental_uris":{"android":"levelo://app?vid=269c9be6-1557-4ea6-9a7e-6b575d4289f4","ios":"levelo://app?vid=269c9be6-1557-4ea6-9a7e-6b575d4289f4"},"vehicle_type_id":"4","last_reported":1703016391,"current_range_meters":31600,"station_id":"ce4bh012rcd13ifvqcv0","pricing_plan_id":"free"},{"bike_id":"123f6846-4316-4d20-a0b1-d9640ea3a43d","system_id":"levelo_inurba_marseille","lat":43.313291,"lon":5.396838,"is_reserved":false,"is_disabled":false,"rental_uris":{"android":"levelo://app?vid=123f6846-4316-4d20-a0b1-d9640ea3a43d","ios":"levelo://app?vid=123f6846-4316-4d20-a0b1-d9640ea3a43d"},"vehicle_type_id":"4","last_reported":1703016391,"current_range_meters":31200,"station_id":"ce4bgvp2rcd13ifvqcu0","pricing_plan_id":"free"},{"bike_id":"8e672063-b80a-4e5c-bf41-eef17536e40a","system_id":"levelo_inurba_marseille","lat":43.313291,"lon":5.396838,"is_reserved":false,"is_disabled":false,"rental_uris":{"android":"levelo://app?vid=8e672063-b80a-4e5c-bf41-eef17536e40a","ios":"levelo://app?vid=8e672063-b80a-4e5c-bf41-eef17536e40a"},"vehicle_type_id":"4","last_reported":1703016391,"current_range_meters":31200,"station_id":"ce4bgvp2rcd13ifvqcu0","pricing_plan_id":"free"},{"bike_id":"f5079527-0dca-4ebe-bbbb-7bc2e62b1226","system_id":"levelo_inurba_marseille","lat":43.309038,"lon":5.396546,"is_reserved":false,"is_disabled":false,"rental_uris":{"android":"levelo://app?vid=f5079527-0dca-4ebe-bbbb-7bc2e62b1226","ios":"levelo://app?vid=f5079527-0dca-4ebe-bbbb-7bc2e62b1226"},"vehicle_type_id":"4","last_reported":1703016391,"current_range_meters":17200,"station_id":"ce4bh012rcd13ifvqcv0","pricing_plan_id":"free"},{"bike_id":"9fef07b5-f14a-447a-b396-eeadc64a5474","system_id":"levelo_inurba_marseille","lat":43.309047,"lon":5.396551,"is_reserved":false,"is_disabled":false,"rental_uris":{"android":"levelo://app?vid=9fef07b5-f14a-447a-b396-eeadc64a5474","ios":"levelo://app?vid=9fef07b5-f14a-447a-b396-eeadc64a5474"},"vehicle_type_id":"4","last_reported":1703016391,"current_range_meters":4000,"station_id":"ce4bh012rcd13ifvqcv0","pricing_plan_id":"free"},{"bike_id":"bcf0430e-8202-4d15-ab3a-b8ee516097f0","system_id":"levelo_inurba_marseille","lat":43.29529,"lon":5.385581,"is_reserved":false,"is_disabled":false,"rental_uris":{"android":"levelo://app?vid=bcf0430e-8202-4d15-ab3a-b8ee516097f0","ios":"levelo://app?vid=bcf0430e-8202-4d15-ab3a-b8ee516097f0"},"vehicle_type_id":"4","last_reported":1703016391,"current_range_meters":13200,"station_id":"ce4bgih2rcd13ifvqba0","pricing_plan_id":"free"},{"bike_id":"71ccdf22-e951-42c0-bdfb-c1282a8d3baf","system_id":"levelo_inurba_marseille","lat":43.294153,"lon":5.386305,"is_reserved":false,"is_disabled":false,"rental_uris":{"android":"levelo://app?vid=71ccdf22-e951-42c0-bdfb-c1282a8d3baf","ios":"levelo://app?vid=71ccdf22-e951-42c0-bdfb-c1282a8d3baf"},"vehicle_type_id":"4","last_reported":1703016391,"current_range_meters":13200,"station_id":"ce4bh2h2rcd13ifvqdh0","pricing_plan_id":"free"},{"bike_id":"bf09b181-7345-4b08-828c-88048df105c6","system_id":"levelo_inurba_marseille","lat":43.29529,"lon":5.385581,"is_reserved":false,"is_disabled":false,"rental_uris":{"android":"levelo://app?vid=bf09b181-7345-4b08-828c-88048df105c6","ios":"levelo://app?vid=bf09b181-7345-4b08-828c-88048df105c6"},"vehicle_type_id":"4","last_reported":1703016391,"current_range_meters":14400,"station_id":"ce4bgih2rcd13ifvqba0","pricing_plan_id":"free"},{"bike_id":"4ca1de24-ffe3-407b-b75b-ee729bbdefc7","system_id":"levelo_inurba_marseille","lat":43.302028,"lon":5.394654,"is_reserved":false,"is_disabled":false,"rental_uris":{"android":"levelo://app?vid=4ca1de24-ffe3-407b-b75b-ee729bbdefc7","ios":"levelo://app?vid=4ca1de24-ffe3-407b-b75b-ee729bbdefc7"},"vehicle_type_id":"4","last_reported":1703016391,"current_range_meters":0,"station_id":"ce4bh0p2rcd13ifvqd70","pricing_plan_id":"free"},{"bike_id":"292af548-92e0-4228-baed-2504baf9e8d3","system_id":"levelo_inurba_marseille","lat":43.290631,"lon":5.359244,"is_reserved":false,"is_disabled":false,"rental_uris":{"android":"levelo://app?vid=292af548-92e0-4228-baed-2504baf9e8d3","ios":"levelo://app?vid=292af548-92e0-4228-baed-2504baf9e8d3"},"vehicle_type_id":"4","last_reported":1703016391,"current_range_meters":13600,"station_id":"ce4bha92rcd13ifvqeg0","pricing_plan_id":"free"},{"bike_id":"0c02f659-e6a6-49f7-99b5-95bbe7b7f4c1","system_id":"levelo_inurba_marseille","lat":43.290631,"lon":5.359244,"is_reserved":false,"is_disabled":false,"rental_uris":{"android":"levelo://app?vid=0c02f659-e6a6-49f7-99b5-95bbe7b7f4c1","ios":"levelo://app?vid=0c02f659-e6a6-49f7-99b5-95bbe7b7f4c1"},"vehicle_type_id":"4","last_reported":1703016391,"current_range_meters":23200,"station_id":"ce4bha92rcd13ifvqeg0","pricing_plan_id":"free"},{"bike_id":"f98c4127-dbba-42b8-82c2-bfe6629678ee","system_id":"levelo_inurba_marseille","lat":43.294153,"lon":5.386305,"is_reserved":false,"is_disabled":false,"rental_uris":{"android":"levelo://app?vid=f98c4127-dbba-42b8-82c2-bfe6629678ee","ios":"levelo://app?vid=f98c4127-dbba-42b8-82c2-bfe6629678ee"},"vehicle_type_id":"4","last_reported":1703016391,"current_range_meters":7600,"station_id":"ce4bh2h2rcd13ifvqdh0","pricing_plan_id":"free"},{"bike_id":"76e57cd1-2ce0-4590-befa-4bbd4d1e13af","system_id":"levelo_inurba_marseille","lat":43.289468,"lon":5.363719,"is_reserved":false,"is_disabled":false,"rental_uris":{"android":"levelo://app?vid=76e57cd1-2ce0-4590-befa-4bbd4d1e13af","ios":"levelo://app?vid=76e57cd1-2ce0-4590-befa-4bbd4d1e13af"},"vehicle_type_id":"4","last_reported":1703016391,"current_range_meters":22000,"station_id":"ce4bhc92rcd13ifvqetg","pricing_plan_id":"free"},{"bike_id":"9a2ece42-6e19-4bb5-ac33-a330c5b9b4c4","system_id":"levelo_inurba_marseille","lat":43.294162,"lon":5.386292,"is_reserved":false,"is_disabled":false,"rental_uris":{"android":"levelo://app?vid=9a2ece42-6e19-4bb5-ac33-a330c5b9b4c4","ios":"levelo://app?vid=9a2ece42-6e19-4bb5-ac33-a330c5b9b4c4"},"vehicle_type_id":"4","last_reported":1703016391,"current_range_meters":24800,"station_id":"ce4bh2h2rcd13ifvqdh0","pricing_plan_id":"free"},{"bike_id":"c29d9fe9-e4b4-434f-94ef-b220173db50d","system_id":"levelo_inurba_marseille","lat":43.289184,"lon":5.366408,"is_reserved":false,"is_disabled":false,"rental_uris":{"android":"levelo://app?vid=c29d9fe9-e4b4-434f-94ef-b220173db50d","ios":"levelo://app?vid=c29d9fe9-e4b4-434f-94ef-b220173db50d"},"vehicle_type_id":"4","last_reported":1703016391,"current_range_meters":6800,"station_id":"ce4bhap2rcd13ifvqek0","pricing_plan_id":"free"},{"bike_id":"858720f6-6194-4993-9a5d-a463aa615b3b","system_id":"levelo_inurba_marseille","lat":43.289184,"lon":5.366408,"is_reserved":false,"is_disabled":false,"rental_uris":{"android":"levelo://app?vid=858720f6-6194-4993-9a5d-a463aa615b3b","ios":"levelo://app?vid=858720f6-6194-4993-9a5d-a463aa615b3b"},"vehicle_type_id":"4","last_reported":1703016391,"current_range_meters":22400,"station_id":"ce4bhap2rcd13ifvqek0","pricing_plan_id":"free"},{"bike_id":"267db500-57a9-4857-898b-ef92b9c5a9cf","system_id":"levelo_inurba_marseille","lat":43.289468,"lon":5.363719,"is_reserved":false,"is_disabled":false,"rental_uris":{"android":"levelo://app?vid=267db500-57a9-4857-898b-ef92b9c5a9cf","ios":"levelo://app?vid=267db500-57a9-4857-898b-ef92b9c5a9cf"},"vehicle_type_id":"4","last_reported":1703016391,"current_range_meters":20800,"station_id":"ce4bhc92rcd13ifvqetg","pricing_plan_id":"free"},{"bike_id":"873f8d6f-264b-4e11-a61b-e7e8022f2baa","system_id":"levelo_inurba_marseille","lat":43.292644,"lon":5.384257,"is_reserved":false,"is_disabled":false,"rental_uris":{"android":"levelo://app?vid=873f8d6f-264b-4e11-a61b-e7e8022f2baa","ios":"levelo://app?vid=873f8d6f-264b-4e11-a61b-e7e8022f2baa"},"vehicle_type_id":"4","last_reported":1703016391,"current_range_meters":8000,"station_id":"ce4bh692rcd13ifvqea0","pricing_plan_id":"free"},{"bike_id":"f4f44346-9d58-4854-94bf-be9ca773cc6f","system_id":"levelo_inurba_marseille","lat":43.292642,"lon":5.384254,"is_reserved":false,"is_disabled":false,"rental_uris":{"android":"levelo://app?vid=f4f44346-9d58-4854-94bf-be9ca773cc6f","ios":"levelo://app?vid=f4f44346-9d58-4854-94bf-be9ca773cc6f"},"vehicle_type_id":"4","last_reported":1703016391,"current_range_meters":6400,"station_id":"ce4bh692rcd13ifvqea0","pricing_plan_id":"free"},{"bike_id":"08bc5949-3096-45c9-8d3f-58d7e8ed0c24","system_id":"levelo_inurba_marseille","lat":43.330442,"lon":5.389148,"is_reserved":false,"is_disabled":false,"rental_uris":{"android":"levelo://app?vid=08bc5949-3096-45c9-8d3f-58d7e8ed0c24","ios":"levelo://app?vid=08bc5949-3096-45c9-8d3f-58d7e8ed0c24"},"vehicle_type_id":"4","last_reported":1703016391,"current_range_meters":5200,"station_id":"ce4bhr92rcd13ifvqhrg","pricing_plan_id":"free"},{"bike_id":"639a8833-5868-49ff-94bf-b86cf708051a","system_id":"levelo_inurba_marseille","lat":43.330442,"lon":5.389148,"is_reserved":false,"is_disabled":false,"rental_uris":{"android":"levelo://app?vid=639a8833-5868-49ff-94bf-b86cf708051a","ios":"levelo://app?vid=639a8833-5868-49ff-94bf-b86cf708051a"},"vehicle_type_id":"4","last_reported":1703016391,"current_range_meters":6400,"station_id":"ce4bhr92rcd13ifvqhrg","pricing_plan_id":"free"},{"bike_id":"f9de8fb0-d0f9-4855-8451-afff0b454db2","system_id":"levelo_inurba_marseille","lat":43.330442,"lon":5.389148,"is_reserved":false,"is_disabled":false,"rental_uris":{"android":"levelo://app?vid=f9de8fb0-d0f9-4855-8451-afff0b454db2","ios":"levelo://app?vid=f9de8fb0-d0f9-4855-8451-afff0b454db2"},"vehicle_type_id":"4","last_reported":1703016391,"current_range_meters":26800,"station_id":"ce4bhr92rcd13ifvqhrg","pricing_plan_id":"free"},{"bike_id":"73480e66-4884-4d83-9700-e0acd3cc4734","system_id":"levelo_inurba_marseille","lat":43.330442,"lon":5.389148,"is_reserved":false,"is_disabled":false,"rental_uris":{"android":"levelo://app?vid=73480e66-4884-4d83-9700-e0acd3cc4734","ios":"levelo://app?vid=73480e66-4884-4d83-9700-e0acd3cc4734"},"vehicle_type_id":"4","last_reported":1703016391,"current_range_meters":17200,"station_id":"ce4bhr92rcd13ifvqhrg","pricing_plan_id":"free"},{"bike_id":"2fb71484-fd85-4cf1-841b-c6fa44a405e2","system_id":"levelo_inurba_marseille","lat":43.330442,"lon":5.389148,"is_reserved":false,"is_disabled":false,"rental_uris":{"android":"levelo://app?vid=2fb71484-fd85-4cf1-841b-c6fa44a405e2","ios":"levelo://app?vid=2fb71484-fd85-4cf1-841b-c6fa44a405e2"},"vehicle_type_id":"4","last_reported":1703016391,"current_range_meters":1600,"station_id":"ce4bhr92rcd13ifvqhrg","pricing_plan_id":"free"},{"bike_id":"7ce82c8b-e8cc-4ee9-ae39-6c00230f93d9","system_id":"levelo_inurba_marseille","lat":43.330442,"lon":5.389148,"is_reserved":false,"is_disabled":false,"rental_uris":{"android":"levelo://app?vid=7ce82c8b-e8cc-4ee9-ae39-6c00230f93d9","ios":"levelo://app?vid=7ce82c8b-e8cc-4ee9-ae39-6c00230f93d9"},"vehicle_type_id":"4","last_reported":1703016391,"current_range_meters":5600,"station_id":"ce4bhr92rcd13ifvqhrg","pricing_plan_id":"free"},{"bike_id":"03cab1e7-d703-4d5f-a324-dcac8ce22b0d","system_id":"levelo_inurba_marseille","lat":43.290103,"lon":5.356114,"is_reserved":false,"is_disabled":false,"rental_uris":{"android":"levelo://app?vid=03cab1e7-d703-4d5f-a324-dcac8ce22b0d","ios":"levelo://app?vid=03cab1e7-d703-4d5f-a324-dcac8ce22b0d"},"vehicle_type_id":"4","last_reported":1703016391,"current_range_meters":10800,"station_id":"ce4bhb92rcd13ifvqen0","pricing_plan_id":"free"},{"bike_id":"443597df-af7c-4f17-b3ba-e7bf51c31e68","system_id":"levelo_inurba_marseille","lat":43.29787,"lon":5.39338,"is_reserved":false,"is_disabled":false,"rental_uris":{"android":"levelo://app?vid=443597df-af7c-4f17-b3ba-e7bf51c31e68","ios":"levelo://app?vid=443597df-af7c-4f17-b3ba-e7bf51c31e68"},"vehicle_type_id":"4","last_reported":1703016391,"current_range_meters":15200,"station_id":"chh1huq6cuj3fo74tm60","pricing_plan_id":"free"},{"bike_id":"f769c34e-4a0a-4af9-a6af-653ef2a6cae9","system_id":"levelo_inurba_marseille","lat":43.297815,"lon":5.393548,"is_reserved":false,"is_disabled":false,"rental_uris":{"android":"levelo://app?vid=f769c34e-4a0a-4af9-a6af-653ef2a6cae9","ios":"levelo://app?vid=f769c34e-4a0a-4af9-a6af-653ef2a6cae9"},"vehicle_type_id":"4","last_reported":1703016391,"current_range_meters":18400,"station_id":"chh1huq6cuj3fo74tm60","pricing_plan_id":"free"},{"bike_id":"989d8d42-4c1f-4cb7-b01a-25185bf1fe2e","system_id":"levelo_inurba_marseille","lat":43.297815,"lon":5.393548,"is_reserved":false,"is_disabled":false,"rental_uris":{"android":"levelo://app?vid=989d8d42-4c1f-4cb7-b01a-25185bf1fe2e","ios":"levelo://app?vid=989d8d42-4c1f-4cb7-b01a-25185bf1fe2e"},"vehicle_type_id":"4","last_reported":1703016391,"current_range_meters":12400,"station_id":"chh1huq6cuj3fo74tm60","pricing_plan_id":"free"},{"bike_id":"f59218f1-058e-4fe9-888d-e80063101f69","system_id":"levelo_inurba_marseille","lat":43.309371,"lon":5.401449,"is_reserved":false,"is_disabled":false,"rental_uris":{"android":"levelo://app?vid=f59218f1-058e-4fe9-888d-e80063101f69","ios":"levelo://app?vid=f59218f1-058e-4fe9-888d-e80063101f69"},"vehicle_type_id":"4","last_reported":1703016391,"current_range_meters":7200,"station_id":"ce4bgvp2rcd13ifvqct0","pricing_plan_id":"free"},{"bike_id":"25d32a4e-2431-4469-aff9-239e16262af8","system_id":"levelo_inurba_marseille","lat":43.309371,"lon":5.401449,"is_reserved":false,"is_disabled":false,"rental_uris":{"android":"levelo://app?vid=25d32a4e-2431-4469-aff9-239e16262af8","ios":"levelo://app?vid=25d32a4e-2431-4469-aff9-239e16262af8"},"vehicle_type_id":"4","last_reported":1703016391,"current_range_meters":24800,"station_id":"ce4bgvp2rcd13ifvqct0","pricing_plan_id":"free"},{"bike_id":"2054c906-6809-49e3-931b-c23603bf0296","system_id":"levelo_inurba_marseille","lat":43.30923,"lon":5.40141,"is_reserved":false,"is_disabled":false,"rental_uris":{"android":"levelo://app?vid=2054c906-6809-49e3-931b-c23603bf0296","ios":"levelo://app?vid=2054c906-6809-49e3-931b-c23603bf0296"},"vehicle_type_id":"4","last_reported":1703016391,"current_range_meters":0,"station_id":"ce4bgvp2rcd13ifvqct0","pricing_plan_id":"free"},{"bike_id":"4ec3578a-a5b4-4bad-af64-fa1a231c0de3","system_id":"levelo_inurba_marseille","lat":43.309371,"lon":5.401449,"is_reserved":false,"is_disabled":false,"rental_uris":{"android":"levelo://app?vid=4ec3578a-a5b4-4bad-af64-fa1a231c0de3","ios":"levelo://app?vid=4ec3578a-a5b4-4bad-af64-fa1a231c0de3"},"vehicle_type_id":"4","last_reported":1703016391,"current_range_meters":16400,"station_id":"ce4bgvp2rcd13ifvqct0","pricing_plan_id":"free"},{"bike_id":"9a6099ab-a40d-4b6a-8582-715d207e2801","system_id":"levelo_inurba_marseille","lat":43.309371,"lon":5.401449,"is_reserved":false,"is_disabled":false,"rental_uris":{"android":"levelo://app?vid=9a6099ab-a40d-4b6a-8582-715d207e2801","ios":"levelo://app?vid=9a6099ab-a40d-4b6a-8582-715d207e2801"},"vehicle_type_id":"4","last_reported":1703016391,"current_range_meters":30400,"station_id":"ce4bgvp2rcd13ifvqct0","pricing_plan_id":"free"},{"bike_id":"f45ce3b5-af32-4ddb-a1ff-10c5533ea990","system_id":"levelo_inurba_marseille","lat":43.302992,"lon":5.392136,"is_reserved":false,"is_disabled":false,"rental_uris":{"android":"levelo://app?vid=f45ce3b5-af32-4ddb-a1ff-10c5533ea990","ios":"levelo://app?vid=f45ce3b5-af32-4ddb-a1ff-10c5533ea990"},"vehicle_type_id":"4","last_reported":1703016391,"current_range_meters":9200,"station_id":"ce4bgkh2rcd13ifvqbk0","pricing_plan_id":"free"},{"bike_id":"c3c3cbbb-aa08-4874-94d9-d40777882ceb","system_id":"levelo_inurba_marseille","lat":43.33763,"lon":5.374294,"is_reserved":false,"is_disabled":false,"rental_uris":{"android":"levelo://app?vid=c3c3cbbb-aa08-4874-94d9-d40777882ceb","ios":"levelo://app?vid=c3c3cbbb-aa08-4874-94d9-d40777882ceb"},"vehicle_type_id":"4","last_reported":1703016391,"current_range_meters":8000,"station_id":"","pricing_plan_id":"free"},{"bike_id":"f2e2d772-8917-4548-9b6e-fef35e4d712b","system_id":"levelo_inurba_marseille","lat":43.30642,"lon":5.401031,"is_reserved":false,"is_disabled":false,"rental_uris":{"android":"levelo://app?vid=f2e2d772-8917-4548-9b6e-fef35e4d712b","ios":"levelo://app?vid=f2e2d772-8917-4548-9b6e-fef35e4d712b"},"vehicle_type_id":"4","last_reported":1703016391,"current_range_meters":21200,"station_id":"ce4bh112rcd13ifvqda0","pricing_plan_id":"free"},{"bike_id":"b928e8f0-5cfc-4105-a69d-8b07fd154e70","system_id":"levelo_inurba_marseille","lat":43.33761,"lon":5.37464,"is_reserved":false,"is_disabled":false,"rental_uris":{"android":"levelo://app?vid=b928e8f0-5cfc-4105-a69d-8b07fd154e70","ios":"levelo://app?vid=b928e8f0-5cfc-4105-a69d-8b07fd154e70"},"vehicle_type_id":"4","last_reported":1703016391,"current_range_meters":30400,"station_id":"","pricing_plan_id":"free"},{"bike_id":"3873cd9d-0dad-4022-aaf9-5cd4b6535c11","system_id":"levelo_inurba_marseille","lat":43.306412,"lon":5.401035,"is_reserved":false,"is_disabled":false,"rental_uris":{"android":"levelo://app?vid=3873cd9d-0dad-4022-aaf9-5cd4b6535c11","ios":"levelo://app?vid=3873cd9d-0dad-4022-aaf9-5cd4b6535c11"},"vehicle_type_id":"4","last_reported":1703016391,"current_range_meters":22400,"station_id":"ce4bh112rcd13ifvqda0","pricing_plan_id":"free"},{"bike_id":"5fa020a0-b1b2-46a1-84ac-c939d0ea5e1f","system_id":"levelo_inurba_marseille","lat":43.30642,"lon":5.401031,"is_reserved":false,"is_disabled":false,"rental_uris":{"android":"levelo://app?vid=5fa020a0-b1b2-46a1-84ac-c939d0ea5e1f","ios":"levelo://app?vid=5fa020a0-b1b2-46a1-84ac-c939d0ea5e1f"},"vehicle_type_id":"4","last_reported":1703016391,"current_range_meters":10000,"station_id":"ce4bh112rcd13ifvqda0","pricing_plan_id":"free"},{"bike_id":"f0a5fa9e-a884-4294-bcda-570073da6ced","system_id":"levelo_inurba_marseille","lat":43.30642,"lon":5.401031,"is_reserved":false,"is_disabled":false,"rental_uris":{"android":"levelo://app?vid=f0a5fa9e-a884-4294-bcda-570073da6ced","ios":"levelo://app?vid=f0a5fa9e-a884-4294-bcda-570073da6ced"},"vehicle_type_id":"4","last_reported":1703016391,"current_range_meters":22800,"station_id":"ce4bh112rcd13ifvqda0","pricing_plan_id":"free"},{"bike_id":"19cfd516-a736-4af7-b0ce-b2a57c2bdc2d","system_id":"levelo_inurba_marseille","lat":43.306412,"lon":5.401035,"is_reserved":false,"is_disabled":false,"rental_uris":{"android":"levelo://app?vid=19cfd516-a736-4af7-b0ce-b2a57c2bdc2d","ios":"levelo://app?vid=19cfd516-a736-4af7-b0ce-b2a57c2bdc2d"},"vehicle_type_id":"4","last_reported":1703016391,"current_range_meters":29200,"station_id":"ce4bh112rcd13ifvqda0","pricing_plan_id":"free"},{"bike_id":"5259431d-fc0e-490a-b2e0-82ae98df3779","system_id":"levelo_inurba_marseille","lat":43.301117,"lon":5.398795,"is_reserved":false,"is_disabled":false,"rental_uris":{"android":"levelo://app?vid=5259431d-fc0e-490a-b2e0-82ae98df3779","ios":"levelo://app?vid=5259431d-fc0e-490a-b2e0-82ae98df3779"},"vehicle_type_id":"4","last_reported":1703016391,"current_range_meters":11600,"station_id":"ce4bh0h2rcd13ifvqd40","pricing_plan_id":"free"},{"bike_id":"ca435372-d267-478e-b653-8396709afa5b","system_id":"levelo_inurba_marseille","lat":43.301117,"lon":5.398795,"is_reserved":false,"is_disabled":false,"rental_uris":{"android":"levelo://app?vid=ca435372-d267-478e-b653-8396709afa5b","ios":"levelo://app?vid=ca435372-d267-478e-b653-8396709afa5b"},"vehicle_type_id":"4","last_reported":1703016391,"current_range_meters":800,"station_id":"ce4bh0h2rcd13ifvqd40","pricing_plan_id":"free"},{"bike_id":"187a5928-1dea-4a55-a57b-8dc0877abe4d","system_id":"levelo_inurba_marseille","lat":43.30132,"lon":5.39874,"is_reserved":false,"is_disabled":false,"rental_uris":{"android":"levelo://app?vid=187a5928-1dea-4a55-a57b-8dc0877abe4d","ios":"levelo://app?vid=187a5928-1dea-4a55-a57b-8dc0877abe4d"},"vehicle_type_id":"4","last_reported":1703016391,"current_range_meters":0,"station_id":"ce4bh0h2rcd13ifvqd40","pricing_plan_id":"free"},{"bike_id":"e280059d-869f-4060-96a6-679d3ac88c32","system_id":"levelo_inurba_marseille","lat":43.301117,"lon":5.398795,"is_reserved":false,"is_disabled":false,"rental_uris":{"android":"levelo://app?vid=e280059d-869f-4060-96a6-679d3ac88c32","ios":"levelo://app?vid=e280059d-869f-4060-96a6-679d3ac88c32"},"vehicle_type_id":"4","last_reported":1703016391,"current_range_meters":2800,"station_id":"ce4bh0h2rcd13ifvqd40","pricing_plan_id":"free"},{"bike_id":"088146c4-68d1-4d15-964b-03879b0208c3","system_id":"levelo_inurba_marseille","lat":43.28727,"lon":5.36078,"is_reserved":false,"is_disabled":false,"rental_uris":{"android":"levelo://app?vid=088146c4-68d1-4d15-964b-03879b0208c3","ios":"levelo://app?vid=088146c4-68d1-4d15-964b-03879b0208c3"},"vehicle_type_id":"4","last_reported":1703016391,"current_range_meters":14400,"station_id":"cki0cbj6b192h4jlfktg","pricing_plan_id":"free"},{"bike_id":"765426f4-36f4-4c64-842a-1d28ae82cd2b","system_id":"levelo_inurba_marseille","lat":43.298681,"lon":5.397225,"is_reserved":false,"is_disabled":false,"rental_uris":{"android":"levelo://app?vid=765426f4-36f4-4c64-842a-1d28ae82cd2b","ios":"levelo://app?vid=765426f4-36f4-4c64-842a-1d28ae82cd2b"},"vehicle_type_id":"4","last_reported":1703016391,"current_range_meters":10400,"station_id":"ce4bh0h2rcd13ifvqd50","pricing_plan_id":"free"},{"bike_id":"01eee4d5-f7e7-46f8-acf2-259b84eeb2b0","system_id":"levelo_inurba_marseille","lat":43.298681,"lon":5.397225,"is_reserved":false,"is_disabled":false,"rental_uris":{"android":"levelo://app?vid=01eee4d5-f7e7-46f8-acf2-259b84eeb2b0","ios":"levelo://app?vid=01eee4d5-f7e7-46f8-acf2-259b84eeb2b0"},"vehicle_type_id":"4","last_reported":1703016391,"current_range_meters":30800,"station_id":"ce4bh0h2rcd13ifvqd50","pricing_plan_id":"free"},{"bike_id":"5fc03f1e-d33b-48c7-b7cc-2d2383dc9ed7","system_id":"levelo_inurba_marseille","lat":43.295196,"lon":5.39397,"is_reserved":false,"is_disabled":false,"rental_uris":{"android":"levelo://app?vid=5fc03f1e-d33b-48c7-b7cc-2d2383dc9ed7","ios":"levelo://app?vid=5fc03f1e-d33b-48c7-b7cc-2d2383dc9ed7"},"vehicle_type_id":"4","last_reported":1703016391,"current_range_meters":8800,"station_id":"ce4bh292rcd13ifvqdf0","pricing_plan_id":"free"},{"bike_id":"66dcd65a-18c1-4dae-84d2-4258ab34024e","system_id":"levelo_inurba_marseille","lat":43.295196,"lon":5.39397,"is_reserved":false,"is_disabled":false,"rental_uris":{"android":"levelo://app?vid=66dcd65a-18c1-4dae-84d2-4258ab34024e","ios":"levelo://app?vid=66dcd65a-18c1-4dae-84d2-4258ab34024e"},"vehicle_type_id":"4","last_reported":1703016391,"current_range_meters":15200,"station_id":"ce4bh292rcd13ifvqdf0","pricing_plan_id":"free"},{"bike_id":"dc743a73-d789-4f29-927f-baf8af11d33e","system_id":"levelo_inurba_marseille","lat":43.295194,"lon":5.39397,"is_reserved":false,"is_disabled":false,"rental_uris":{"android":"levelo://app?vid=dc743a73-d789-4f29-927f-baf8af11d33e","ios":"levelo://app?vid=dc743a73-d789-4f29-927f-baf8af11d33e"},"vehicle_type_id":"4","last_reported":1703016391,"current_range_meters":7200,"station_id":"ce4bh292rcd13ifvqdf0","pricing_plan_id":"free"},{"bike_id":"3fe4ca94-b986-43fd-b609-ffdab4be449a","system_id":"levelo_inurba_marseille","lat":43.295194,"lon":5.39397,"is_reserved":false,"is_disabled":false,"rental_uris":{"android":"levelo://app?vid=3fe4ca94-b986-43fd-b609-ffdab4be449a","ios":"levelo://app?vid=3fe4ca94-b986-43fd-b609-ffdab4be449a"},"vehicle_type_id":"4","last_reported":1703016391,"current_range_meters":8400,"station_id":"ce4bh292rcd13ifvqdf0","pricing_plan_id":"free"},{"bike_id":"d968e840-2fbe-45e3-9b75-7bc3ca959097","system_id":"levelo_inurba_marseille","lat":43.295194,"lon":5.39397,"is_reserved":false,"is_disabled":false,"rental_uris":{"android":"levelo://app?vid=d968e840-2fbe-45e3-9b75-7bc3ca959097","ios":"levelo://app?vid=d968e840-2fbe-45e3-9b75-7bc3ca959097"},"vehicle_type_id":"4","last_reported":1703016391,"current_range_meters":0,"station_id":"ce4bh292rcd13ifvqdf0","pricing_plan_id":"free"},{"bike_id":"538be743-59db-4ed2-9eeb-58486bd39976","system_id":"levelo_inurba_marseille","lat":43.302759,"lon":5.400793,"is_reserved":false,"is_disabled":false,"rental_uris":{"android":"levelo://app?vid=538be743-59db-4ed2-9eeb-58486bd39976","ios":"levelo://app?vid=538be743-59db-4ed2-9eeb-58486bd39976"},"vehicle_type_id":"4","last_reported":1703016391,"current_range_meters":15200,"station_id":"ce4bgvh2rcd13ifvqcs0","pricing_plan_id":"free"},{"bike_id":"d3d64d66-0fc8-4ddb-b8f5-6d9867610ddc","system_id":"levelo_inurba_marseille","lat":43.295194,"lon":5.39397,"is_reserved":false,"is_disabled":false,"rental_uris":{"android":"levelo://app?vid=d3d64d66-0fc8-4ddb-b8f5-6d9867610ddc","ios":"levelo://app?vid=d3d64d66-0fc8-4ddb-b8f5-6d9867610ddc"},"vehicle_type_id":"4","last_reported":1703016391,"current_range_meters":0,"station_id":"ce4bh292rcd13ifvqdf0","pricing_plan_id":"free"},{"bike_id":"92d191cb-b6d0-4e28-8537-e4bbbc02e601","system_id":"levelo_inurba_marseille","lat":43.302759,"lon":5.400793,"is_reserved":false,"is_disabled":false,"rental_uris":{"android":"levelo://app?vid=92d191cb-b6d0-4e28-8537-e4bbbc02e601","ios":"levelo://app?vid=92d191cb-b6d0-4e28-8537-e4bbbc02e601"},"vehicle_type_id":"4","last_reported":1703016391,"current_range_meters":10800,"station_id":"ce4bgvh2rcd13ifvqcs0","pricing_plan_id":"free"},{"bike_id":"de2b0f7f-2e51-4dbb-8ff3-ca6bc6811c64","system_id":"levelo_inurba_marseille","lat":43.302759,"lon":5.400793,"is_reserved":false,"is_disabled":false,"rental_uris":{"android":"levelo://app?vid=de2b0f7f-2e51-4dbb-8ff3-ca6bc6811c64","ios":"levelo://app?vid=de2b0f7f-2e51-4dbb-8ff3-ca6bc6811c64"},"vehicle_type_id":"4","last_reported":1703016391,"current_range_meters":11600,"station_id":"ce4bgvh2rcd13ifvqcs0","pricing_plan_id":"free"},{"bike_id":"3bf2ea02-e0bd-4c5e-b18d-455712b7549f","system_id":"levelo_inurba_marseille","lat":43.302759,"lon":5.400793,"is_reserved":false,"is_disabled":false,"rental_uris":{"android":"levelo://app?vid=3bf2ea02-e0bd-4c5e-b18d-455712b7549f","ios":"levelo://app?vid=3bf2ea02-e0bd-4c5e-b18d-455712b7549f"},"vehicle_type_id":"4","last_reported":1703016391,"current_range_meters":27200,"station_id":"ce4bgvh2rcd13ifvqcs0","pricing_plan_id":"free"},{"bike_id":"4eadb2dd-f471-42b5-bae1-77698aaa0ab6","system_id":"levelo_inurba_marseille","lat":43.289307,"lon":5.38406,"is_reserved":false,"is_disabled":false,"rental_uris":{"android":"levelo://app?vid=4eadb2dd-f471-42b5-bae1-77698aaa0ab6","ios":"levelo://app?vid=4eadb2dd-f471-42b5-bae1-77698aaa0ab6"},"vehicle_type_id":"4","last_reported":1703016391,"current_range_meters":26000,"station_id":"ce4bh612rcd13ifvqe6g","pricing_plan_id":"free"},{"bike_id":"eca2d76b-644d-41c2-a971-06deb8c29a9f","system_id":"levelo_inurba_marseille","lat":43.290345,"lon":5.38646,"is_reserved":false,"is_disabled":false,"rental_uris":{"android":"levelo://app?vid=eca2d76b-644d-41c2-a971-06deb8c29a9f","ios":"levelo://app?vid=eca2d76b-644d-41c2-a971-06deb8c29a9f"},"vehicle_type_id":"4","last_reported":1703016391,"current_range_meters":11600,"station_id":"ce4bh4p2rcd13ifvqe0g","pricing_plan_id":"free"},{"bike_id":"9bef25cd-88ab-4b9f-8d00-91cbd7007a44","system_id":"levelo_inurba_marseille","lat":43.302759,"lon":5.400793,"is_reserved":false,"is_disabled":false,"rental_uris":{"android":"levelo://app?vid=9bef25cd-88ab-4b9f-8d00-91cbd7007a44","ios":"levelo://app?vid=9bef25cd-88ab-4b9f-8d00-91cbd7007a44"},"vehicle_type_id":"4","last_reported":1703016391,"current_range_meters":0,"station_id":"ce4bgvh2rcd13ifvqcs0","pricing_plan_id":"free"},{"bike_id":"72586fa1-7c49-43a9-bc7b-f5c8eb87adff","system_id":"levelo_inurba_marseille","lat":43.302759,"lon":5.400793,"is_reserved":false,"is_disabled":false,"rental_uris":{"android":"levelo://app?vid=72586fa1-7c49-43a9-bc7b-f5c8eb87adff","ios":"levelo://app?vid=72586fa1-7c49-43a9-bc7b-f5c8eb87adff"},"vehicle_type_id":"4","last_reported":1703016391,"current_range_meters":26400,"station_id":"ce4bgvh2rcd13ifvqcs0","pricing_plan_id":"free"},{"bike_id":"8f903639-8eae-4028-a1e8-25556c652eb1","system_id":"levelo_inurba_marseille","lat":43.302759,"lon":5.400793,"is_reserved":false,"is_disabled":false,"rental_uris":{"android":"levelo://app?vid=8f903639-8eae-4028-a1e8-25556c652eb1","ios":"levelo://app?vid=8f903639-8eae-4028-a1e8-25556c652eb1"},"vehicle_type_id":"4","last_reported":1703016391,"current_range_meters":14400,"station_id":"ce4bgvh2rcd13ifvqcs0","pricing_plan_id":"free"},{"bike_id":"06b064c1-de8e-49ad-a24f-4f2182e02d63","system_id":"levelo_inurba_marseille","lat":43.302759,"lon":5.400793,"is_reserved":false,"is_disabled":false,"rental_uris":{"android":"levelo://app?vid=06b064c1-de8e-49ad-a24f-4f2182e02d63","ios":"levelo://app?vid=06b064c1-de8e-49ad-a24f-4f2182e02d63"},"vehicle_type_id":"4","last_reported":1703016391,"current_range_meters":2400,"station_id":"ce4bgvh2rcd13ifvqcs0","pricing_plan_id":"free"},{"bike_id":"de063bfa-a518-4a27-8130-9aa920c1fc2f","system_id":"levelo_inurba_marseille","lat":43.302759,"lon":5.400793,"is_reserved":false,"is_disabled":false,"rental_uris":{"android":"levelo://app?vid=de063bfa-a518-4a27-8130-9aa920c1fc2f","ios":"levelo://app?vid=de063bfa-a518-4a27-8130-9aa920c1fc2f"},"vehicle_type_id":"4","last_reported":1703016391,"current_range_meters":18800,"station_id":"ce4bgvh2rcd13ifvqcs0","pricing_plan_id":"free"},{"bike_id":"dde628e6-7da8-42bf-8404-e1df8d234e44","system_id":"levelo_inurba_marseille","lat":43.302759,"lon":5.400793,"is_reserved":false,"is_disabled":false,"rental_uris":{"android":"levelo://app?vid=dde628e6-7da8-42bf-8404-e1df8d234e44","ios":"levelo://app?vid=dde628e6-7da8-42bf-8404-e1df8d234e44"},"vehicle_type_id":"4","last_reported":1703016391,"current_range_meters":2800,"station_id":"ce4bgvh2rcd13ifvqcs0","pricing_plan_id":"free"},{"bike_id":"bf02d7d9-440a-4814-9542-48577d367985","system_id":"levelo_inurba_marseille","lat":43.302759,"lon":5.400793,"is_reserved":false,"is_disabled":false,"rental_uris":{"android":"levelo://app?vid=bf02d7d9-440a-4814-9542-48577d367985","ios":"levelo://app?vid=bf02d7d9-440a-4814-9542-48577d367985"},"vehicle_type_id":"4","last_reported":1703016391,"current_range_meters":7600,"station_id":"ce4bgvh2rcd13ifvqcs0","pricing_plan_id":"free"},{"bike_id":"dd4d805a-cb06-4d21-9fe6-494f9b6b3f1e","system_id":"levelo_inurba_marseille","lat":43.302759,"lon":5.400793,"is_reserved":false,"is_disabled":false,"rental_uris":{"android":"levelo://app?vid=dd4d805a-cb06-4d21-9fe6-494f9b6b3f1e","ios":"levelo://app?vid=dd4d805a-cb06-4d21-9fe6-494f9b6b3f1e"},"vehicle_type_id":"4","last_reported":1703016391,"current_range_meters":19200,"station_id":"ce4bgvh2rcd13ifvqcs0","pricing_plan_id":"free"},{"bike_id":"a5ab0f6e-cb1e-43c6-8bca-1c02e17f1b90","system_id":"levelo_inurba_marseille","lat":43.286039,"lon":5.370679,"is_reserved":false,"is_disabled":false,"rental_uris":{"android":"levelo://app?vid=a5ab0f6e-cb1e-43c6-8bca-1c02e17f1b90","ios":"levelo://app?vid=a5ab0f6e-cb1e-43c6-8bca-1c02e17f1b90"},"vehicle_type_id":"4","last_reported":1703016391,"current_range_meters":30000,"station_id":"ce4bht12rcd13ifvqi60","pricing_plan_id":"free"},{"bike_id":"548e92f4-3f8c-47b4-91d7-5899c5f0fa43","system_id":"levelo_inurba_marseille","lat":43.287185,"lon":5.379373,"is_reserved":false,"is_disabled":false,"rental_uris":{"android":"levelo://app?vid=548e92f4-3f8c-47b4-91d7-5899c5f0fa43","ios":"levelo://app?vid=548e92f4-3f8c-47b4-91d7-5899c5f0fa43"},"vehicle_type_id":"4","last_reported":1703016391,"current_range_meters":25200,"station_id":"ce4bh9p2rcd13ifvqec0","pricing_plan_id":"free"},{"bike_id":"18f5d6a8-288d-46db-8899-351082875d82","system_id":"levelo_inurba_marseille","lat":43.316828,"lon":5.404723,"is_reserved":false,"is_disabled":false,"rental_uris":{"android":"levelo://app?vid=18f5d6a8-288d-46db-8899-351082875d82","ios":"levelo://app?vid=18f5d6a8-288d-46db-8899-351082875d82"},"vehicle_type_id":"4","last_reported":1703016391,"current_range_meters":25200,"station_id":"ce4bh012rcd13ifvqd00","pricing_plan_id":"free"},{"bike_id":"5ff770d4-30b4-422d-9d3c-b068bbc6ef2b","system_id":"levelo_inurba_marseille","lat":43.316828,"lon":5.404723,"is_reserved":false,"is_disabled":false,"rental_uris":{"android":"levelo://app?vid=5ff770d4-30b4-422d-9d3c-b068bbc6ef2b","ios":"levelo://app?vid=5ff770d4-30b4-422d-9d3c-b068bbc6ef2b"},"vehicle_type_id":"4","last_reported":1703016391,"current_range_meters":21200,"station_id":"ce4bh012rcd13ifvqd00","pricing_plan_id":"free"},{"bike_id":"9336a5e7-eda6-454b-b363-20141663bb32","system_id":"levelo_inurba_marseille","lat":43.294314,"lon":5.397498,"is_reserved":false,"is_disabled":false,"rental_uris":{"android":"levelo://app?vid=9336a5e7-eda6-454b-b363-20141663bb32","ios":"levelo://app?vid=9336a5e7-eda6-454b-b363-20141663bb32"},"vehicle_type_id":"4","last_reported":1703016391,"current_range_meters":25600,"station_id":"ce4bh3h2rcd13ifvqdo0","pricing_plan_id":"free"},{"bike_id":"e4d010c6-dcf5-43b9-acca-1eec9c2e54cc","system_id":"levelo_inurba_marseille","lat":43.294314,"lon":5.397498,"is_reserved":false,"is_disabled":false,"rental_uris":{"android":"levelo://app?vid=e4d010c6-dcf5-43b9-acca-1eec9c2e54cc","ios":"levelo://app?vid=e4d010c6-dcf5-43b9-acca-1eec9c2e54cc"},"vehicle_type_id":"4","last_reported":1703016391,"current_range_meters":23600,"station_id":"ce4bh3h2rcd13ifvqdo0","pricing_plan_id":"free"},{"bike_id":"4a3bf0b1-66fa-4ba1-95be-5c0a76ccad27","system_id":"levelo_inurba_marseille","lat":43.285856,"lon":5.350771,"is_reserved":false,"is_disabled":false,"rental_uris":{"android":"levelo://app?vid=4a3bf0b1-66fa-4ba1-95be-5c0a76ccad27","ios":"levelo://app?vid=4a3bf0b1-66fa-4ba1-95be-5c0a76ccad27"},"vehicle_type_id":"4","last_reported":1703016391,"current_range_meters":22800,"station_id":"ce4bhch2rcd13ifvqeug","pricing_plan_id":"free"},{"bike_id":"36cf4d02-bd22-413f-a81d-3c2efead6ba1","system_id":"levelo_inurba_marseille","lat":43.285856,"lon":5.350771,"is_reserved":false,"is_disabled":false,"rental_uris":{"android":"levelo://app?vid=36cf4d02-bd22-413f-a81d-3c2efead6ba1","ios":"levelo://app?vid=36cf4d02-bd22-413f-a81d-3c2efead6ba1"},"vehicle_type_id":"4","last_reported":1703016391,"current_range_meters":18000,"station_id":"ce4bhch2rcd13ifvqeug","pricing_plan_id":"free"},{"bike_id":"998d686e-dc18-4afa-87c3-300a2c373a21","system_id":"levelo_inurba_marseille","lat":43.285856,"lon":5.350771,"is_reserved":false,"is_disabled":false,"rental_uris":{"android":"levelo://app?vid=998d686e-dc18-4afa-87c3-300a2c373a21","ios":"levelo://app?vid=998d686e-dc18-4afa-87c3-300a2c373a21"},"vehicle_type_id":"4","last_reported":1703016391,"current_range_meters":13600,"station_id":"ce4bhch2rcd13ifvqeug","pricing_plan_id":"free"},{"bike_id":"50a15c4b-e449-4648-8e85-935cca8d8f78","system_id":"levelo_inurba_marseille","lat":43.285856,"lon":5.350771,"is_reserved":false,"is_disabled":false,"rental_uris":{"android":"levelo://app?vid=50a15c4b-e449-4648-8e85-935cca8d8f78","ios":"levelo://app?vid=50a15c4b-e449-4648-8e85-935cca8d8f78"},"vehicle_type_id":"4","last_reported":1703016391,"current_range_meters":800,"station_id":"ce4bhch2rcd13ifvqeug","pricing_plan_id":"free"},{"bike_id":"d6f1cb3a-139c-45ba-88a4-26cff8954219","system_id":"levelo_inurba_marseille","lat":43.285856,"lon":5.350771,"is_reserved":false,"is_disabled":false,"rental_uris":{"android":"levelo://app?vid=d6f1cb3a-139c-45ba-88a4-26cff8954219","ios":"levelo://app?vid=d6f1cb3a-139c-45ba-88a4-26cff8954219"},"vehicle_type_id":"4","last_reported":1703016391,"current_range_meters":22000,"station_id":"ce4bhch2rcd13ifvqeug","pricing_plan_id":"free"},{"bike_id":"2eb52441-f2b5-4053-a57b-7908913c3b82","system_id":"levelo_inurba_marseille","lat":43.285856,"lon":5.350771,"is_reserved":false,"is_disabled":false,"rental_uris":{"android":"levelo://app?vid=2eb52441-f2b5-4053-a57b-7908913c3b82","ios":"levelo://app?vid=2eb52441-f2b5-4053-a57b-7908913c3b82"},"vehicle_type_id":"4","last_reported":1703016391,"current_range_meters":15200,"station_id":"ce4bhch2rcd13ifvqeug","pricing_plan_id":"free"},{"bike_id":"0c689767-e565-4fdc-b74c-9192458db94e","system_id":"levelo_inurba_marseille","lat":43.285856,"lon":5.350771,"is_reserved":false,"is_disabled":false,"rental_uris":{"android":"levelo://app?vid=0c689767-e565-4fdc-b74c-9192458db94e","ios":"levelo://app?vid=0c689767-e565-4fdc-b74c-9192458db94e"},"vehicle_type_id":"4","last_reported":1703016391,"current_range_meters":21200,"station_id":"ce4bhch2rcd13ifvqeug","pricing_plan_id":"free"},{"bike_id":"f3b85f34-8342-42b3-9689-e6718d9bce90","system_id":"levelo_inurba_marseille","lat":43.285856,"lon":5.350771,"is_reserved":false,"is_disabled":false,"rental_uris":{"android":"levelo://app?vid=f3b85f34-8342-42b3-9689-e6718d9bce90","ios":"levelo://app?vid=f3b85f34-8342-42b3-9689-e6718d9bce90"},"vehicle_type_id":"4","last_reported":1703016391,"current_range_meters":13600,"station_id":"ce4bhch2rcd13ifvqeug","pricing_plan_id":"free"},{"bike_id":"69955788-238a-411d-87b5-baf0f415db21","system_id":"levelo_inurba_marseille","lat":43.285856,"lon":5.350771,"is_reserved":false,"is_disabled":false,"rental_uris":{"android":"levelo://app?vid=69955788-238a-411d-87b5-baf0f415db21","ios":"levelo://app?vid=69955788-238a-411d-87b5-baf0f415db21"},"vehicle_type_id":"4","last_reported":1703016391,"current_range_meters":15600,"station_id":"ce4bhch2rcd13ifvqeug","pricing_plan_id":"free"},{"bike_id":"05435e1e-93de-4800-ade7-2ab5b5ccd9cc","system_id":"levelo_inurba_marseille","lat":43.285856,"lon":5.350771,"is_reserved":false,"is_disabled":false,"rental_uris":{"android":"levelo://app?vid=05435e1e-93de-4800-ade7-2ab5b5ccd9cc","ios":"levelo://app?vid=05435e1e-93de-4800-ade7-2ab5b5ccd9cc"},"vehicle_type_id":"4","last_reported":1703016391,"current_range_meters":20400,"station_id":"ce4bhch2rcd13ifvqeug","pricing_plan_id":"free"},{"bike_id":"aaa07f64-d8ff-4e64-be71-7ab399227c99","system_id":"levelo_inurba_marseille","lat":43.285856,"lon":5.350771,"is_reserved":false,"is_disabled":false,"rental_uris":{"android":"levelo://app?vid=aaa07f64-d8ff-4e64-be71-7ab399227c99","ios":"levelo://app?vid=aaa07f64-d8ff-4e64-be71-7ab399227c99"},"vehicle_type_id":"4","last_reported":1703016391,"current_range_meters":2000,"station_id":"ce4bhch2rcd13ifvqeug","pricing_plan_id":"free"},{"bike_id":"f830c1ee-419b-4ba9-b9b5-13d3fe124a69","system_id":"levelo_inurba_marseille","lat":43.285856,"lon":5.350771,"is_reserved":false,"is_disabled":false,"rental_uris":{"android":"levelo://app?vid=f830c1ee-419b-4ba9-b9b5-13d3fe124a69","ios":"levelo://app?vid=f830c1ee-419b-4ba9-b9b5-13d3fe124a69"},"vehicle_type_id":"4","last_reported":1703016391,"current_range_meters":14400,"station_id":"ce4bhch2rcd13ifvqeug","pricing_plan_id":"free"},{"bike_id":"07f7c081-6f04-4157-b0db-1eececa16aa5","system_id":"levelo_inurba_marseille","lat":43.285856,"lon":5.350771,"is_reserved":false,"is_disabled":false,"rental_uris":{"android":"levelo://app?vid=07f7c081-6f04-4157-b0db-1eececa16aa5","ios":"levelo://app?vid=07f7c081-6f04-4157-b0db-1eececa16aa5"},"vehicle_type_id":"4","last_reported":1703016391,"current_range_meters":12400,"station_id":"ce4bhch2rcd13ifvqeug","pricing_plan_id":"free"},{"bike_id":"af78bb99-56bf-4ce3-bd35-5d8880adec47","system_id":"levelo_inurba_marseille","lat":43.295713,"lon":5.399639,"is_reserved":false,"is_disabled":false,"rental_uris":{"android":"levelo://app?vid=af78bb99-56bf-4ce3-bd35-5d8880adec47","ios":"levelo://app?vid=af78bb99-56bf-4ce3-bd35-5d8880adec47"},"vehicle_type_id":"4","last_reported":1703016391,"current_range_meters":12400,"station_id":"ce4bh312rcd13ifvqdj0","pricing_plan_id":"free"},{"bike_id":"8538e6dd-dbef-4a5a-a119-9a857fd021ad","system_id":"levelo_inurba_marseille","lat":43.33218,"lon":5.397067,"is_reserved":false,"is_disabled":false,"rental_uris":{"android":"levelo://app?vid=8538e6dd-dbef-4a5a-a119-9a857fd021ad","ios":"levelo://app?vid=8538e6dd-dbef-4a5a-a119-9a857fd021ad"},"vehicle_type_id":"4","last_reported":1703016391,"current_range_meters":400,"station_id":"","pricing_plan_id":"free"},{"bike_id":"d503f52c-3dce-44a6-b846-ba568ce9adce","system_id":"levelo_inurba_marseille","lat":43.295713,"lon":5.399639,"is_reserved":false,"is_disabled":false,"rental_uris":{"android":"levelo://app?vid=d503f52c-3dce-44a6-b846-ba568ce9adce","ios":"levelo://app?vid=d503f52c-3dce-44a6-b846-ba568ce9adce"},"vehicle_type_id":"4","last_reported":1703016391,"current_range_meters":1200,"station_id":"ce4bh312rcd13ifvqdj0","pricing_plan_id":"free"},{"bike_id":"6ef1931b-9751-4a0e-9f83-360587689828","system_id":"levelo_inurba_marseille","lat":43.319179,"lon":5.407725,"is_reserved":false,"is_disabled":false,"rental_uris":{"android":"levelo://app?vid=6ef1931b-9751-4a0e-9f83-360587689828","ios":"levelo://app?vid=6ef1931b-9751-4a0e-9f83-360587689828"},"vehicle_type_id":"4","last_reported":1703016391,"current_range_meters":31600,"station_id":"ce4bhq12rcd13ifvqhig","pricing_plan_id":"free"},{"bike_id":"552ecd1b-51e2-45dc-8ae7-b724fc949a20","system_id":"levelo_inurba_marseille","lat":43.319179,"lon":5.407725,"is_reserved":false,"is_disabled":false,"rental_uris":{"android":"levelo://app?vid=552ecd1b-51e2-45dc-8ae7-b724fc949a20","ios":"levelo://app?vid=552ecd1b-51e2-45dc-8ae7-b724fc949a20"},"vehicle_type_id":"4","last_reported":1703016391,"current_range_meters":26400,"station_id":"ce4bhq12rcd13ifvqhig","pricing_plan_id":"free"},{"bike_id":"27628269-9f0b-4c51-9659-7fb830c4871d","system_id":"levelo_inurba_marseille","lat":43.323464,"lon":5.406297,"is_reserved":false,"is_disabled":false,"rental_uris":{"android":"levelo://app?vid=27628269-9f0b-4c51-9659-7fb830c4871d","ios":"levelo://app?vid=27628269-9f0b-4c51-9659-7fb830c4871d"},"vehicle_type_id":"4","last_reported":1703016391,"current_range_meters":28400,"station_id":"ce4bhq92rcd13ifvqhjg","pricing_plan_id":"free"},{"bike_id":"0d3723e6-d938-4c03-9af2-216becb6f325","system_id":"levelo_inurba_marseille","lat":43.284793,"lon":5.384113,"is_reserved":false,"is_disabled":false,"rental_uris":{"android":"levelo://app?vid=0d3723e6-d938-4c03-9af2-216becb6f325","ios":"levelo://app?vid=0d3723e6-d938-4c03-9af2-216becb6f325"},"vehicle_type_id":"4","last_reported":1703016391,"current_range_meters":1200,"station_id":"ce4bh512rcd13ifvqe3g","pricing_plan_id":"free"},{"bike_id":"3eebc176-57c1-45d9-9bc0-22f9a8f92e1b","system_id":"levelo_inurba_marseille","lat":43.297946,"lon":5.404063,"is_reserved":false,"is_disabled":false,"rental_uris":{"android":"levelo://app?vid=3eebc176-57c1-45d9-9bc0-22f9a8f92e1b","ios":"levelo://app?vid=3eebc176-57c1-45d9-9bc0-22f9a8f92e1b"},"vehicle_type_id":"4","last_reported":1703016391,"current_range_meters":27200,"station_id":"ce4bh112rcd13ifvqd90","pricing_plan_id":"free"},{"bike_id":"347f68d6-0e09-4fb0-9b86-ffe45d4c5e74","system_id":"levelo_inurba_marseille","lat":43.28855,"lon":5.39312,"is_reserved":false,"is_disabled":false,"rental_uris":{"android":"levelo://app?vid=347f68d6-0e09-4fb0-9b86-ffe45d4c5e74","ios":"levelo://app?vid=347f68d6-0e09-4fb0-9b86-ffe45d4c5e74"},"vehicle_type_id":"4","last_reported":1703016391,"current_range_meters":22400,"station_id":"ce4bh2p2rcd13ifvqdi0","pricing_plan_id":"free"},{"bike_id":"a4439d0f-225b-4886-aca6-90513e6d4d1d","system_id":"levelo_inurba_marseille","lat":43.28853,"lon":5.39314,"is_reserved":false,"is_disabled":false,"rental_uris":{"android":"levelo://app?vid=a4439d0f-225b-4886-aca6-90513e6d4d1d","ios":"levelo://app?vid=a4439d0f-225b-4886-aca6-90513e6d4d1d"},"vehicle_type_id":"4","last_reported":1703016391,"current_range_meters":21200,"station_id":"ce4bh2p2rcd13ifvqdi0","pricing_plan_id":"free"},{"bike_id":"f5332b34-8259-4323-952e-7bd465eb247c","system_id":"levelo_inurba_marseille","lat":43.29795,"lon":5.404086,"is_reserved":false,"is_disabled":false,"rental_uris":{"android":"levelo://app?vid=f5332b34-8259-4323-952e-7bd465eb247c","ios":"levelo://app?vid=f5332b34-8259-4323-952e-7bd465eb247c"},"vehicle_type_id":"4","last_reported":1703016391,"current_range_meters":0,"station_id":"ce4bh112rcd13ifvqd90","pricing_plan_id":"free"},{"bike_id":"1f979b92-28c5-4b7d-91ff-3863a490bedd","system_id":"levelo_inurba_marseille","lat":43.288501,"lon":5.393087,"is_reserved":false,"is_disabled":false,"rental_uris":{"android":"levelo://app?vid=1f979b92-28c5-4b7d-91ff-3863a490bedd","ios":"levelo://app?vid=1f979b92-28c5-4b7d-91ff-3863a490bedd"},"vehicle_type_id":"4","last_reported":1703016391,"current_range_meters":22400,"station_id":"ce4bh2p2rcd13ifvqdi0","pricing_plan_id":"free"},{"bike_id":"35385d14-b780-4d84-a627-95c353df6d29","system_id":"levelo_inurba_marseille","lat":43.283494,"lon":5.380945,"is_reserved":false,"is_disabled":false,"rental_uris":{"android":"levelo://app?vid=35385d14-b780-4d84-a627-95c353df6d29","ios":"levelo://app?vid=35385d14-b780-4d84-a627-95c353df6d29"},"vehicle_type_id":"4","last_reported":1703016391,"current_range_meters":28800,"station_id":"ce4bh412rcd13ifvqdr0","pricing_plan_id":"free"},{"bike_id":"eed03dce-e6cc-46b1-8527-45439af6f114","system_id":"levelo_inurba_marseille","lat":43.284214,"lon":5.349706,"is_reserved":false,"is_disabled":false,"rental_uris":{"android":"levelo://app?vid=eed03dce-e6cc-46b1-8527-45439af6f114","ios":"levelo://app?vid=eed03dce-e6cc-46b1-8527-45439af6f114"},"vehicle_type_id":"4","last_reported":1703016391,"current_range_meters":23600,"station_id":"ce4bhbh2rcd13ifvqepg","pricing_plan_id":"free"},{"bike_id":"04a71634-e8e0-487c-a4e8-e709a9c897ea","system_id":"levelo_inurba_marseille","lat":43.283498,"lon":5.380948,"is_reserved":false,"is_disabled":false,"rental_uris":{"android":"levelo://app?vid=04a71634-e8e0-487c-a4e8-e709a9c897ea","ios":"levelo://app?vid=04a71634-e8e0-487c-a4e8-e709a9c897ea"},"vehicle_type_id":"4","last_reported":1703016391,"current_range_meters":29200,"station_id":"ce4bh412rcd13ifvqdr0","pricing_plan_id":"free"},{"bike_id":"35e5c977-c3ec-4302-85e4-7f44ba15ca6f","system_id":"levelo_inurba_marseille","lat":43.306412,"lon":5.401035,"is_reserved":false,"is_disabled":false,"rental_uris":{"android":"levelo://app?vid=35e5c977-c3ec-4302-85e4-7f44ba15ca6f","ios":"levelo://app?vid=35e5c977-c3ec-4302-85e4-7f44ba15ca6f"},"vehicle_type_id":"4","last_reported":1703016391,"current_range_meters":22000,"station_id":"ce4bh112rcd13ifvqda0","pricing_plan_id":"free"},{"bike_id":"147b8378-26d2-462d-8dd1-bd97361a39d1","system_id":"levelo_inurba_marseille","lat":43.292724,"lon":5.401131,"is_reserved":false,"is_disabled":false,"rental_uris":{"android":"levelo://app?vid=147b8378-26d2-462d-8dd1-bd97361a39d1","ios":"levelo://app?vid=147b8378-26d2-462d-8dd1-bd97361a39d1"},"vehicle_type_id":"4","last_reported":1703016391,"current_range_meters":10000,"station_id":"ce4bh312rcd13ifvqdk0","pricing_plan_id":"free"},{"bike_id":"725c62a2-53d1-4c72-8be5-a3f6a6bd9459","system_id":"levelo_inurba_marseille","lat":43.282744,"lon":5.350533,"is_reserved":false,"is_disabled":false,"rental_uris":{"android":"levelo://app?vid=725c62a2-53d1-4c72-8be5-a3f6a6bd9459","ios":"levelo://app?vid=725c62a2-53d1-4c72-8be5-a3f6a6bd9459"},"vehicle_type_id":"4","last_reported":1703016391,"current_range_meters":26800,"station_id":"ce4bhbp2rcd13ifvqerg","pricing_plan_id":"free"},{"bike_id":"3c7e21be-52ca-4f31-b25a-94d45be13004","system_id":"levelo_inurba_marseille","lat":43.28271,"lon":5.35073,"is_reserved":false,"is_disabled":false,"rental_uris":{"android":"levelo://app?vid=3c7e21be-52ca-4f31-b25a-94d45be13004","ios":"levelo://app?vid=3c7e21be-52ca-4f31-b25a-94d45be13004"},"vehicle_type_id":"4","last_reported":1703016391,"current_range_meters":2000,"station_id":"ce4bhbp2rcd13ifvqerg","pricing_plan_id":"free"},{"bike_id":"a53f681d-51b5-4ecc-bca6-1cb8d12861b1","system_id":"levelo_inurba_marseille","lat":43.282744,"lon":5.350533,"is_reserved":false,"is_disabled":false,"rental_uris":{"android":"levelo://app?vid=a53f681d-51b5-4ecc-bca6-1cb8d12861b1","ios":"levelo://app?vid=a53f681d-51b5-4ecc-bca6-1cb8d12861b1"},"vehicle_type_id":"4","last_reported":1703016391,"current_range_meters":6800,"station_id":"ce4bhbp2rcd13ifvqerg","pricing_plan_id":"free"},{"bike_id":"f98a0bdb-bb25-4d27-a108-2fdd9bafc3d5","system_id":"levelo_inurba_marseille","lat":43.283502,"lon":5.386471,"is_reserved":false,"is_disabled":false,"rental_uris":{"android":"levelo://app?vid=f98a0bdb-bb25-4d27-a108-2fdd9bafc3d5","ios":"levelo://app?vid=f98a0bdb-bb25-4d27-a108-2fdd9bafc3d5"},"vehicle_type_id":"4","last_reported":1703016391,"current_range_meters":24000,"station_id":"ce4bh492rcd13ifvqdvg","pricing_plan_id":"free"},{"bike_id":"2fe4c2f8-c94b-46f7-b569-e5e3379780c6","system_id":"levelo_inurba_marseille","lat":43.282754,"lon":5.350519,"is_reserved":false,"is_disabled":false,"rental_uris":{"android":"levelo://app?vid=2fe4c2f8-c94b-46f7-b569-e5e3379780c6","ios":"levelo://app?vid=2fe4c2f8-c94b-46f7-b569-e5e3379780c6"},"vehicle_type_id":"4","last_reported":1703016391,"current_range_meters":7200,"station_id":"ce4bhbp2rcd13ifvqerg","pricing_plan_id":"free"},{"bike_id":"7a9c501a-a88f-4b20-a3be-0f05afe0b8e1","system_id":"levelo_inurba_marseille","lat":43.282754,"lon":5.350519,"is_reserved":false,"is_disabled":false,"rental_uris":{"android":"levelo://app?vid=7a9c501a-a88f-4b20-a3be-0f05afe0b8e1","ios":"levelo://app?vid=7a9c501a-a88f-4b20-a3be-0f05afe0b8e1"},"vehicle_type_id":"4","last_reported":1703016391,"current_range_meters":25600,"station_id":"ce4bhbp2rcd13ifvqerg","pricing_plan_id":"free"},{"bike_id":"7415b361-4875-4231-90b5-c9caee2a9d88","system_id":"levelo_inurba_marseille","lat":43.282754,"lon":5.350519,"is_reserved":false,"is_disabled":false,"rental_uris":{"android":"levelo://app?vid=7415b361-4875-4231-90b5-c9caee2a9d88","ios":"levelo://app?vid=7415b361-4875-4231-90b5-c9caee2a9d88"},"vehicle_type_id":"4","last_reported":1703016391,"current_range_meters":5600,"station_id":"ce4bhbp2rcd13ifvqerg","pricing_plan_id":"free"},{"bike_id":"7aecbcde-a0be-4ee7-9fb3-c08e2ed7a241","system_id":"levelo_inurba_marseille","lat":43.280382,"lon":5.369291,"is_reserved":false,"is_disabled":false,"rental_uris":{"android":"levelo://app?vid=7aecbcde-a0be-4ee7-9fb3-c08e2ed7a241","ios":"levelo://app?vid=7aecbcde-a0be-4ee7-9fb3-c08e2ed7a241"},"vehicle_type_id":"4","last_reported":1703016391,"current_range_meters":30800,"station_id":"ce4bha12rcd13ifvqef0","pricing_plan_id":"free"},{"bike_id":"f8789b7e-178a-4ac9-806e-d390a30c58d8","system_id":"levelo_inurba_marseille","lat":43.28039,"lon":5.369297,"is_reserved":false,"is_disabled":false,"rental_uris":{"android":"levelo://app?vid=f8789b7e-178a-4ac9-806e-d390a30c58d8","ios":"levelo://app?vid=f8789b7e-178a-4ac9-806e-d390a30c58d8"},"vehicle_type_id":"4","last_reported":1703016391,"current_range_meters":7600,"station_id":"ce4bha12rcd13ifvqef0","pricing_plan_id":"free"},{"bike_id":"f93b9b08-462a-45e1-b20a-7bf6d9e0f690","system_id":"levelo_inurba_marseille","lat":43.28039,"lon":5.369297,"is_reserved":false,"is_disabled":false,"rental_uris":{"android":"levelo://app?vid=f93b9b08-462a-45e1-b20a-7bf6d9e0f690","ios":"levelo://app?vid=f93b9b08-462a-45e1-b20a-7bf6d9e0f690"},"vehicle_type_id":"4","last_reported":1703016391,"current_range_meters":10800,"station_id":"ce4bha12rcd13ifvqef0","pricing_plan_id":"free"},{"bike_id":"00e6e8f2-c721-4109-a9a1-5c6e7f8bced6","system_id":"levelo_inurba_marseille","lat":43.281044,"lon":5.378308,"is_reserved":false,"is_disabled":false,"rental_uris":{"android":"levelo://app?vid=00e6e8f2-c721-4109-a9a1-5c6e7f8bced6","ios":"levelo://app?vid=00e6e8f2-c721-4109-a9a1-5c6e7f8bced6"},"vehicle_type_id":"4","last_reported":1703016391,"current_range_meters":22400,"station_id":"ce4bha12rcd13ifvqee0","pricing_plan_id":"free"},{"bike_id":"ef25e6a9-c72d-441f-9242-441be32c480b","system_id":"levelo_inurba_marseille","lat":43.296263,"lon":5.40601,"is_reserved":false,"is_disabled":false,"rental_uris":{"android":"levelo://app?vid=ef25e6a9-c72d-441f-9242-441be32c480b","ios":"levelo://app?vid=ef25e6a9-c72d-441f-9242-441be32c480b"},"vehicle_type_id":"4","last_reported":1703016391,"current_range_meters":24800,"station_id":"ce4bh0h2rcd13ifvqd60","pricing_plan_id":"free"},{"bike_id":"2a57214e-3f96-4a9b-8638-201ae3fd5599","system_id":"levelo_inurba_marseille","lat":43.281044,"lon":5.378308,"is_reserved":false,"is_disabled":false,"rental_uris":{"android":"levelo://app?vid=2a57214e-3f96-4a9b-8638-201ae3fd5599","ios":"levelo://app?vid=2a57214e-3f96-4a9b-8638-201ae3fd5599"},"vehicle_type_id":"4","last_reported":1703016391,"current_range_meters":8400,"station_id":"ce4bha12rcd13ifvqee0","pricing_plan_id":"free"},{"bike_id":"3fc6aae6-4ea2-448b-b7c5-c5776b7b1744","system_id":"levelo_inurba_marseille","lat":43.284462,"lon":5.392121,"is_reserved":false,"is_disabled":false,"rental_uris":{"android":"levelo://app?vid=3fc6aae6-4ea2-448b-b7c5-c5776b7b1744","ios":"levelo://app?vid=3fc6aae6-4ea2-448b-b7c5-c5776b7b1744"},"vehicle_type_id":"4","last_reported":1703016391,"current_range_meters":25200,"station_id":"ce4bhoh2rcd13ifvqh5g","pricing_plan_id":"free"},{"bike_id":"5990443f-e6d3-4be2-8855-21cbe59f89c6","system_id":"levelo_inurba_marseille","lat":43.284462,"lon":5.392121,"is_reserved":false,"is_disabled":false,"rental_uris":{"android":"levelo://app?vid=5990443f-e6d3-4be2-8855-21cbe59f89c6","ios":"levelo://app?vid=5990443f-e6d3-4be2-8855-21cbe59f89c6"},"vehicle_type_id":"4","last_reported":1703016391,"current_range_meters":6400,"station_id":"ce4bhoh2rcd13ifvqh5g","pricing_plan_id":"free"},{"bike_id":"714cf04f-cdd7-45a6-ac51-b262dbb9c513","system_id":"levelo_inurba_marseille","lat":43.284462,"lon":5.392121,"is_reserved":false,"is_disabled":false,"rental_uris":{"android":"levelo://app?vid=714cf04f-cdd7-45a6-ac51-b262dbb9c513","ios":"levelo://app?vid=714cf04f-cdd7-45a6-ac51-b262dbb9c513"},"vehicle_type_id":"4","last_reported":1703016391,"current_range_meters":20000,"station_id":"ce4bhoh2rcd13ifvqh5g","pricing_plan_id":"free"},{"bike_id":"a61f137e-5761-4df0-bc22-2f4cf22a985c","system_id":"levelo_inurba_marseille","lat":43.284462,"lon":5.392121,"is_reserved":false,"is_disabled":false,"rental_uris":{"android":"levelo://app?vid=a61f137e-5761-4df0-bc22-2f4cf22a985c","ios":"levelo://app?vid=a61f137e-5761-4df0-bc22-2f4cf22a985c"},"vehicle_type_id":"4","last_reported":1703016391,"current_range_meters":30400,"station_id":"ce4bhoh2rcd13ifvqh5g","pricing_plan_id":"free"},{"bike_id":"93b3c9ee-b751-403b-8e55-bdb1acb294ba","system_id":"levelo_inurba_marseille","lat":43.285742,"lon":5.395004,"is_reserved":false,"is_disabled":false,"rental_uris":{"android":"levelo://app?vid=93b3c9ee-b751-403b-8e55-bdb1acb294ba","ios":"levelo://app?vid=93b3c9ee-b751-403b-8e55-bdb1acb294ba"},"vehicle_type_id":"4","last_reported":1703016391,"current_range_meters":16000,"station_id":"ce4bh292rcd13ifvqdg0","pricing_plan_id":"free"},{"bike_id":"cb91fd1d-514e-49e4-9bf1-9c562b38ed19","system_id":"levelo_inurba_marseille","lat":43.28573,"lon":5.394992,"is_reserved":false,"is_disabled":false,"rental_uris":{"android":"levelo://app?vid=cb91fd1d-514e-49e4-9bf1-9c562b38ed19","ios":"levelo://app?vid=cb91fd1d-514e-49e4-9bf1-9c562b38ed19"},"vehicle_type_id":"4","last_reported":1703016391,"current_range_meters":24000,"station_id":"ce4bh292rcd13ifvqdg0","pricing_plan_id":"free"},{"bike_id":"5a19dc98-4b6a-4cac-8617-bec854bef98e","system_id":"levelo_inurba_marseille","lat":43.304188,"lon":5.412904,"is_reserved":false,"is_disabled":false,"rental_uris":{"android":"levelo://app?vid=5a19dc98-4b6a-4cac-8617-bec854bef98e","ios":"levelo://app?vid=5a19dc98-4b6a-4cac-8617-bec854bef98e"},"vehicle_type_id":"4","last_reported":1703016391,"current_range_meters":31200,"station_id":"ce4bhop2rcd13ifvqh8g","pricing_plan_id":"free"},{"bike_id":"e8751b82-614c-4867-ac0a-700df9401231","system_id":"levelo_inurba_marseille","lat":43.279087,"lon":5.380114,"is_reserved":false,"is_disabled":false,"rental_uris":{"android":"levelo://app?vid=e8751b82-614c-4867-ac0a-700df9401231","ios":"levelo://app?vid=e8751b82-614c-4867-ac0a-700df9401231"},"vehicle_type_id":"4","last_reported":1703016391,"current_range_meters":7200,"station_id":"ce4bhf92rcd13ifvqf50","pricing_plan_id":"free"},{"bike_id":"151c85e2-3ac4-46bd-a73a-fe2a38ca362c","system_id":"levelo_inurba_marseille","lat":43.287154,"lon":5.399979,"is_reserved":false,"is_disabled":false,"rental_uris":{"android":"levelo://app?vid=151c85e2-3ac4-46bd-a73a-fe2a38ca362c","ios":"levelo://app?vid=151c85e2-3ac4-46bd-a73a-fe2a38ca362c"},"vehicle_type_id":"4","last_reported":1703016391,"current_range_meters":2000,"station_id":"ce4bho92rcd13ifvqh3g","pricing_plan_id":"free"},{"bike_id":"cb0668d4-d46c-4efe-a7e0-185ebe495ab4","system_id":"levelo_inurba_marseille","lat":43.280474,"lon":5.389138,"is_reserved":false,"is_disabled":false,"rental_uris":{"android":"levelo://app?vid=cb0668d4-d46c-4efe-a7e0-185ebe495ab4","ios":"levelo://app?vid=cb0668d4-d46c-4efe-a7e0-185ebe495ab4"},"vehicle_type_id":"4","last_reported":1703016391,"current_range_meters":10800,"station_id":"","pricing_plan_id":"free"},{"bike_id":"c036bd36-4187-4a30-8cdc-02e1f7c2bd35","system_id":"levelo_inurba_marseille","lat":43.279742,"lon":5.38744,"is_reserved":false,"is_disabled":false,"rental_uris":{"android":"levelo://app?vid=c036bd36-4187-4a30-8cdc-02e1f7c2bd35","ios":"levelo://app?vid=c036bd36-4187-4a30-8cdc-02e1f7c2bd35"},"vehicle_type_id":"4","last_reported":1703016391,"current_range_meters":2400,"station_id":"ce4bhg12rcd13ifvqf80","pricing_plan_id":"free"},{"bike_id":"0121c00f-66de-4472-970c-6ae9ae14cf86","system_id":"levelo_inurba_marseille","lat":43.276179,"lon":5.361009,"is_reserved":false,"is_disabled":false,"rental_uris":{"android":"levelo://app?vid=0121c00f-66de-4472-970c-6ae9ae14cf86","ios":"levelo://app?vid=0121c00f-66de-4472-970c-6ae9ae14cf86"},"vehicle_type_id":"4","last_reported":1703016391,"current_range_meters":4000,"station_id":"ce4bgj92rcd13ifvqbe0","pricing_plan_id":"free"},{"bike_id":"1e497f28-e901-459f-8b1d-9b439cad7cc3","system_id":"levelo_inurba_marseille","lat":43.280784,"lon":5.396622,"is_reserved":false,"is_disabled":false,"rental_uris":{"android":"levelo://app?vid=1e497f28-e901-459f-8b1d-9b439cad7cc3","ios":"levelo://app?vid=1e497f28-e901-459f-8b1d-9b439cad7cc3"},"vehicle_type_id":"4","last_reported":1703016391,"current_range_meters":9200,"station_id":"ce4bho12rcd13ifvqh2g","pricing_plan_id":"free"},{"bike_id":"1abc6eed-38ce-451a-9c9d-4262d661e40f","system_id":"levelo_inurba_marseille","lat":43.280784,"lon":5.396622,"is_reserved":false,"is_disabled":false,"rental_uris":{"android":"levelo://app?vid=1abc6eed-38ce-451a-9c9d-4262d661e40f","ios":"levelo://app?vid=1abc6eed-38ce-451a-9c9d-4262d661e40f"},"vehicle_type_id":"4","last_reported":1703016391,"current_range_meters":25200,"station_id":"ce4bho12rcd13ifvqh2g","pricing_plan_id":"free"},{"bike_id":"36af9a1f-d2f4-411c-bb09-6306beff53ec","system_id":"levelo_inurba_marseille","lat":43.278401,"lon":5.392152,"is_reserved":false,"is_disabled":false,"rental_uris":{"android":"levelo://app?vid=36af9a1f-d2f4-411c-bb09-6306beff53ec","ios":"levelo://app?vid=36af9a1f-d2f4-411c-bb09-6306beff53ec"},"vehicle_type_id":"4","last_reported":1703016391,"current_range_meters":30800,"station_id":"ce4bhjp2rcd13ifvqga0","pricing_plan_id":"free"},{"bike_id":"3cf11b1d-a06e-48a7-a075-343af492dd10","system_id":"levelo_inurba_marseille","lat":43.278255,"lon":5.391995,"is_reserved":false,"is_disabled":false,"rental_uris":{"android":"levelo://app?vid=3cf11b1d-a06e-48a7-a075-343af492dd10","ios":"levelo://app?vid=3cf11b1d-a06e-48a7-a075-343af492dd10"},"vehicle_type_id":"4","last_reported":1703016391,"current_range_meters":0,"station_id":"ce4bhjp2rcd13ifvqga0","pricing_plan_id":"free"},{"bike_id":"a453e506-6946-4623-9512-82735d696064","system_id":"levelo_inurba_marseille","lat":43.273609,"lon":5.362708,"is_reserved":false,"is_disabled":false,"rental_uris":{"android":"levelo://app?vid=a453e506-6946-4623-9512-82735d696064","ios":"levelo://app?vid=a453e506-6946-4623-9512-82735d696064"},"vehicle_type_id":"4","last_reported":1703016391,"current_range_meters":27600,"station_id":"ce4bhbh2rcd13ifvqeo0","pricing_plan_id":"free"},{"bike_id":"b2ef9683-85fd-448f-8b5f-fbcebbf2a996","system_id":"levelo_inurba_marseille","lat":43.279952,"lon":5.400085,"is_reserved":false,"is_disabled":false,"rental_uris":{"android":"levelo://app?vid=b2ef9683-85fd-448f-8b5f-fbcebbf2a996","ios":"levelo://app?vid=b2ef9683-85fd-448f-8b5f-fbcebbf2a996"},"vehicle_type_id":"4","last_reported":1703016391,"current_range_meters":18000,"station_id":"ce4bho92rcd13ifvqh4g","pricing_plan_id":"free"},{"bike_id":"8aaafce3-32e4-45e5-9f96-e6fe6d7e4f5b","system_id":"levelo_inurba_marseille","lat":43.31718,"lon":5.42391,"is_reserved":false,"is_disabled":false,"rental_uris":{"android":"levelo://app?vid=8aaafce3-32e4-45e5-9f96-e6fe6d7e4f5b","ios":"levelo://app?vid=8aaafce3-32e4-45e5-9f96-e6fe6d7e4f5b"},"vehicle_type_id":"4","last_reported":1703016391,"current_range_meters":16800,"station_id":"ce4bhp92rcd13ifvqhbg","pricing_plan_id":"free"},{"bike_id":"905a6c74-af0c-489d-930a-338c6f3bbfd5","system_id":"levelo_inurba_marseille","lat":43.317179,"lon":5.423953,"is_reserved":false,"is_disabled":false,"rental_uris":{"android":"levelo://app?vid=905a6c74-af0c-489d-930a-338c6f3bbfd5","ios":"levelo://app?vid=905a6c74-af0c-489d-930a-338c6f3bbfd5"},"vehicle_type_id":"4","last_reported":1703016391,"current_range_meters":11200,"station_id":"ce4bhp92rcd13ifvqhbg","pricing_plan_id":"free"},{"bike_id":"6aeb72c6-7795-421e-8c99-8e89a08bfac6","system_id":"levelo_inurba_marseille","lat":43.317121,"lon":5.423936,"is_reserved":false,"is_disabled":false,"rental_uris":{"android":"levelo://app?vid=6aeb72c6-7795-421e-8c99-8e89a08bfac6","ios":"levelo://app?vid=6aeb72c6-7795-421e-8c99-8e89a08bfac6"},"vehicle_type_id":"4","last_reported":1703016391,"current_range_meters":30400,"station_id":"ce4bhp92rcd13ifvqhbg","pricing_plan_id":"free"},{"bike_id":"af2bfa4a-dd0b-4ea4-a7b9-5a41e65701bc","system_id":"levelo_inurba_marseille","lat":43.340804,"lon":5.410219,"is_reserved":false,"is_disabled":false,"rental_uris":{"android":"levelo://app?vid=af2bfa4a-dd0b-4ea4-a7b9-5a41e65701bc","ios":"levelo://app?vid=af2bfa4a-dd0b-4ea4-a7b9-5a41e65701bc"},"vehicle_type_id":"4","last_reported":1703016391,"current_range_meters":4000,"station_id":"ce4bhqh2rcd13ifvqhlg","pricing_plan_id":"free"},{"bike_id":"974dc7db-ff3c-4554-8964-132f9db52d9b","system_id":"levelo_inurba_marseille","lat":43.276092,"lon":5.395289,"is_reserved":false,"is_disabled":false,"rental_uris":{"android":"levelo://app?vid=974dc7db-ff3c-4554-8964-132f9db52d9b","ios":"levelo://app?vid=974dc7db-ff3c-4554-8964-132f9db52d9b"},"vehicle_type_id":"4","last_reported":1703016391,"current_range_meters":6400,"station_id":"","pricing_plan_id":"free"},{"bike_id":"a9a8bd6d-6677-4765-a3df-48dba09a4445","system_id":"levelo_inurba_marseille","lat":43.274103,"lon":5.394016,"is_reserved":false,"is_disabled":false,"rental_uris":{"android":"levelo://app?vid=a9a8bd6d-6677-4765-a3df-48dba09a4445","ios":"levelo://app?vid=a9a8bd6d-6677-4765-a3df-48dba09a4445"},"vehicle_type_id":"4","last_reported":1703016391,"current_range_meters":2000,"station_id":"ce4bhdp2rcd13ifvqf20","pricing_plan_id":"free"},{"bike_id":"1aaeade2-16f7-4c2d-b598-dfecd6c04985","system_id":"levelo_inurba_marseille","lat":43.29551,"lon":5.42287,"is_reserved":false,"is_disabled":false,"rental_uris":{"android":"levelo://app?vid=1aaeade2-16f7-4c2d-b598-dfecd6c04985","ios":"levelo://app?vid=1aaeade2-16f7-4c2d-b598-dfecd6c04985"},"vehicle_type_id":"4","last_reported":1703016391,"current_range_meters":18000,"station_id":"ce4bhph2rcd13ifvqhdg","pricing_plan_id":"free"},{"bike_id":"ca314493-3848-477b-95b3-e1722a7aef04","system_id":"levelo_inurba_marseille","lat":43.295151,"lon":5.422675,"is_reserved":false,"is_disabled":false,"rental_uris":{"android":"levelo://app?vid=ca314493-3848-477b-95b3-e1722a7aef04","ios":"levelo://app?vid=ca314493-3848-477b-95b3-e1722a7aef04"},"vehicle_type_id":"4","last_reported":1703016391,"current_range_meters":14400,"station_id":"ce4bhph2rcd13ifvqhdg","pricing_plan_id":"free"},{"bike_id":"9c6826b7-5273-425c-ae07-ee8f8a402ab4","system_id":"levelo_inurba_marseille","lat":43.295523,"lon":5.422926,"is_reserved":false,"is_disabled":false,"rental_uris":{"android":"levelo://app?vid=9c6826b7-5273-425c-ae07-ee8f8a402ab4","ios":"levelo://app?vid=9c6826b7-5273-425c-ae07-ee8f8a402ab4"},"vehicle_type_id":"4","last_reported":1703016391,"current_range_meters":26800,"station_id":"ce4bhph2rcd13ifvqhdg","pricing_plan_id":"free"},{"bike_id":"2e647513-0d9e-4726-a909-fd1d686a3048","system_id":"levelo_inurba_marseille","lat":43.26974,"lon":5.38146,"is_reserved":false,"is_disabled":false,"rental_uris":{"android":"levelo://app?vid=2e647513-0d9e-4726-a909-fd1d686a3048","ios":"levelo://app?vid=2e647513-0d9e-4726-a909-fd1d686a3048"},"vehicle_type_id":"4","last_reported":1703016391,"current_range_meters":10400,"station_id":"","pricing_plan_id":"free"},{"bike_id":"3596ffe6-624b-4dc7-9170-dafc2adf1848","system_id":"levelo_inurba_marseille","lat":43.27188,"lon":5.39224,"is_reserved":false,"is_disabled":false,"rental_uris":{"android":"levelo://app?vid=3596ffe6-624b-4dc7-9170-dafc2adf1848","ios":"levelo://app?vid=3596ffe6-624b-4dc7-9170-dafc2adf1848"},"vehicle_type_id":"4","last_reported":1703016391,"current_range_meters":9200,"station_id":"ce4bhhp2rcd13ifvqfm0","pricing_plan_id":"free"},{"bike_id":"a8fcc8a6-5665-4904-b944-4f0d966a182a","system_id":"levelo_inurba_marseille","lat":43.278128,"lon":5.407195,"is_reserved":false,"is_disabled":false,"rental_uris":{"android":"levelo://app?vid=a8fcc8a6-5665-4904-b944-4f0d966a182a","ios":"levelo://app?vid=a8fcc8a6-5665-4904-b944-4f0d966a182a"},"vehicle_type_id":"4","last_reported":1703016391,"current_range_meters":15200,"station_id":"ce4bhnh2rcd13ifvqgtg","pricing_plan_id":"free"},{"bike_id":"3d2db7ca-e45f-4741-8115-12effce8f3e1","system_id":"levelo_inurba_marseille","lat":43.278128,"lon":5.407195,"is_reserved":false,"is_disabled":false,"rental_uris":{"android":"levelo://app?vid=3d2db7ca-e45f-4741-8115-12effce8f3e1","ios":"levelo://app?vid=3d2db7ca-e45f-4741-8115-12effce8f3e1"},"vehicle_type_id":"4","last_reported":1703016391,"current_range_meters":19200,"station_id":"ce4bhnh2rcd13ifvqgtg","pricing_plan_id":"free"},{"bike_id":"d2b95e8a-c18d-44c4-ab96-4e53aa3122fa","system_id":"levelo_inurba_marseille","lat":43.278128,"lon":5.407195,"is_reserved":false,"is_disabled":false,"rental_uris":{"android":"levelo://app?vid=d2b95e8a-c18d-44c4-ab96-4e53aa3122fa","ios":"levelo://app?vid=d2b95e8a-c18d-44c4-ab96-4e53aa3122fa"},"vehicle_type_id":"4","last_reported":1703016391,"current_range_meters":4000,"station_id":"ce4bhnh2rcd13ifvqgtg","pricing_plan_id":"free"},