{"last_updated":1744827250,"ttl":60,"version":"2.2","data":{"bikes":[{"bike_id":"bcf239e5-1c97-40ce-8461-eb9df025a556","system_id":"levelo_inurba_marseille","lat":43.28478,"lon":5.38468,"is_reserved":false,"is_disabled":false,"rental_uris":{"android":"levelo://app?vid=bcf239e5-1c97-40ce-8461-eb9df025a556","ios":"levelo://app?vid=bcf239e5-1c97-40ce-8461-eb9df025a556"},"vehicle_type_id":"4","last_reported":1744827250,"current_range_meters":3200,"station_id":"ce4bh512rcd13ifvqe3g","pricing_plan_id":"cebpf4jnsgd1na2vs0mg"},{"bike_id":"2d97c993-f86a-49b7-9f00-34348c06d90f","system_id":"levelo_inurba_marseille","lat":43.28401,"lon":5.37527,"is_reserved":false,"is_disabled":false,"rental_uris":{"android":"levelo://app?vid=2d97c993-f86a-49b7-9f00-34348c06d90f","ios":"levelo://app?vid=2d97c993-f86a-49b7-9f00-34348c06d90f"},"vehicle_type_id":"4","last_reported":1744827250,"current_range_meters":3200,"station_id":"ce4bh412rcd13ifvqds0","pricing_plan_id":"cebpf4jnsgd1na2vs0mg"},{"bike_id":"4498d630-bfff-4e89-8eb3-30d4f4721b64","system_id":"levelo_inurba_marseille","lat":43.293,"lon":5.37181,"is_reserved":false,"is_disabled":false,"rental_uris":{"android":"levelo://app?vid=4498d630-bfff-4e89-8eb3-30d4f4721b64","ios":"levelo://app?vid=4498d630-bfff-4e89-8eb3-30d4f4721b64"},"vehicle_type_id":"4","last_reported":1744827250,"current_range_meters":4000,"station_id":"ce4bgh92rcd13ifvqb40","pricing_plan_id":"cebpf4jnsgd1na2vs0mg"},{"bike_id":"7e7496f4-89cb-4451-96ba-77c175ebfc51","system_id":"levelo_inurba_marseille","lat":43.279972,"lon":5.416571,"is_reserved":false,"is_disabled":false,"rental_uris":{"android":"levelo://app?vid=7e7496f4-89cb-4451-96ba-77c175ebfc51","ios":"levelo://app?vid=7e7496f4-89cb-4451-96ba-77c175ebfc51"},"vehicle_type_id":"4","last_reported":1744827250,"current_range_meters":4000,"station_id":"ce4bho12rcd13ifvqh1g","pricing_plan_id":"cebpf4jnsgd1na2vs0mg"},{"bike_id":"c273cedc-5337-4dec-91b4-1636fd7d09ad","system_id":"levelo_inurba_marseille","lat":43.31424,"lon":5.37612,"is_reserved":false,"is_disabled":false,"rental_uris":{"android":"levelo://app?vid=c273cedc-5337-4dec-91b4-1636fd7d09ad","ios":"levelo://app?vid=c273cedc-5337-4dec-91b4-1636fd7d09ad"},"vehicle_type_id":"4","last_reported":1744827250,"current_range_meters":4400,"station_id":"","pricing_plan_id":"cebpf4jnsgd1na2vs0mg"},{"bike_id":"27a55245-8dd2-4f1a-af63-95a9d7b71690","system_id":"levelo_inurba_marseille","lat":43.31074,"lon":5.37852,"is_reserved":false,"is_disabled":false,"rental_uris":{"android":"levelo://app?vid=27a55245-8dd2-4f1a-af63-95a9d7b71690","ios":"levelo://app?vid=27a55245-8dd2-4f1a-af63-95a9d7b71690"},"vehicle_type_id":"4","last_reported":1744827250,"current_range_meters":5600,"station_id":"","pricing_plan_id":"cebpf4jnsgd1na2vs0mg"},{"bike_id":"a0636e31-c89e-4ae1-aea4-880988d0da0e","system_id":"levelo_inurba_marseille","lat":43.29564,"lon":5.42283,"is_reserved":false,"is_disabled":false,"rental_uris":{"android":"levelo://app?vid=a0636e31-c89e-4ae1-aea4-880988d0da0e","ios":"levelo://app?vid=a0636e31-c89e-4ae1-aea4-880988d0da0e"},"vehicle_type_id":"4","last_reported":1744827250,"current_range_meters":6400,"station_id":"ce4bhph2rcd13ifvqhdg","pricing_plan_id":"cebpf4jnsgd1na2vs0mg"},{"bike_id":"05f570b2-afc9-4c77-992a-b9725eb72121","system_id":"levelo_inurba_marseille","lat":43.258674,"lon":5.398997,"is_reserved":false,"is_disabled":false,"rental_uris":{"android":"levelo://app?vid=05f570b2-afc9-4c77-992a-b9725eb72121","ios":"levelo://app?vid=05f570b2-afc9-4c77-992a-b9725eb72121"},"vehicle_type_id":"4","last_reported":1744827250,"current_range_meters":6400,"station_id":"ce4bhl92rcd13ifvqghg","pricing_plan_id":"cebpf4jnsgd1na2vs0mg"},{"bike_id":"a9e686f5-21b0-4661-b2e0-97b1cff552a7","system_id":"levelo_inurba_marseille","lat":43.255039,"lon":5.376522,"is_reserved":false,"is_disabled":false,"rental_uris":{"android":"levelo://app?vid=a9e686f5-21b0-4661-b2e0-97b1cff552a7","ios":"levelo://app?vid=a9e686f5-21b0-4661-b2e0-97b1cff552a7"},"vehicle_type_id":"4","last_reported":1744827250,"current_range_meters":6800,"station_id":"ce4bhh12rcd13ifvqff0","pricing_plan_id":"cebpf4jnsgd1na2vs0mg"},{"bike_id":"ff4ba1b6-26e4-4bc3-a692-2becb59c8c4c","system_id":"levelo_inurba_marseille","lat":43.30888,"lon":5.39662,"is_reserved":false,"is_disabled":false,"rental_uris":{"android":"levelo://app?vid=ff4ba1b6-26e4-4bc3-a692-2becb59c8c4c","ios":"levelo://app?vid=ff4ba1b6-26e4-4bc3-a692-2becb59c8c4c"},"vehicle_type_id":"4","last_reported":1744827250,"current_range_meters":7200,"station_id":"ce4bh012rcd13ifvqcv0","pricing_plan_id":"cebpf4jnsgd1na2vs0mg"},{"bike_id":"b8c0f4ed-d3f6-42e7-b069-4359275224b7","system_id":"levelo_inurba_marseille","lat":43.279785,"lon":5.387042,"is_reserved":false,"is_disabled":false,"rental_uris":{"android":"levelo://app?vid=b8c0f4ed-d3f6-42e7-b069-4359275224b7","ios":"levelo://app?vid=b8c0f4ed-d3f6-42e7-b069-4359275224b7"},"vehicle_type_id":"4","last_reported":1744827250,"current_range_meters":7200,"station_id":"ce4bhg12rcd13ifvqf80","pricing_plan_id":"cebpf4jnsgd1na2vs0mg"},{"bike_id":"105b34d5-b784-4a27-ab6b-1f24fd649f25","system_id":"levelo_inurba_marseille","lat":43.29737,"lon":5.37695,"is_reserved":false,"is_disabled":false,"rental_uris":{"android":"levelo://app?vid=105b34d5-b784-4a27-ab6b-1f24fd649f25","ios":"levelo://app?vid=105b34d5-b784-4a27-ab6b-1f24fd649f25"},"vehicle_type_id":"4","last_reported":1744827250,"current_range_meters":8000,"station_id":"ce4bgkh2rcd13ifvqbl0","pricing_plan_id":"cebpf4jnsgd1na2vs0mg"},{"bike_id":"e8e79942-55e0-48fb-91f8-74bea8bf8a50","system_id":"levelo_inurba_marseille","lat":43.29683,"lon":5.37305,"is_reserved":false,"is_disabled":false,"rental_uris":{"android":"levelo://app?vid=e8e79942-55e0-48fb-91f8-74bea8bf8a50","ios":"levelo://app?vid=e8e79942-55e0-48fb-91f8-74bea8bf8a50"},"vehicle_type_id":"4","last_reported":1744827250,"current_range_meters":8000,"station_id":"ce4bgk12rcd13ifvqbj0","pricing_plan_id":"cebpf4jnsgd1na2vs0mg"},{"bike_id":"376f754b-7bba-4962-babe-b49b1468281c","system_id":"levelo_inurba_marseille","lat":43.30964,"lon":5.40146,"is_reserved":false,"is_disabled":true,"rental_uris":{"android":"levelo://app?vid=376f754b-7bba-4962-babe-b49b1468281c","ios":"levelo://app?vid=376f754b-7bba-4962-babe-b49b1468281c"},"vehicle_type_id":"4","last_reported":1744827250,"current_range_meters":8000,"station_id":"ce4bgvp2rcd13ifvqct0","pricing_plan_id":"cebpf4jnsgd1na2vs0mg"},{"bike_id":"5ac62bad-dbc0-41b8-84e6-1e41dc1d2778","system_id":"levelo_inurba_marseille","lat":43.316898,"lon":5.40468,"is_reserved":false,"is_disabled":false,"rental_uris":{"android":"levelo://app?vid=5ac62bad-dbc0-41b8-84e6-1e41dc1d2778","ios":"levelo://app?vid=5ac62bad-dbc0-41b8-84e6-1e41dc1d2778"},"vehicle_type_id":"4","last_reported":1744827250,"current_range_meters":8400,"station_id":"ce4bh012rcd13ifvqd00","pricing_plan_id":"cebpf4jnsgd1na2vs0mg"},{"bike_id":"2797dcdb-c4e1-48b2-82d6-5677d371fa39","system_id":"levelo_inurba_marseille","lat":43.24172,"lon":5.36413,"is_reserved":false,"is_disabled":false,"rental_uris":{"android":"levelo://app?vid=2797dcdb-c4e1-48b2-82d6-5677d371fa39","ios":"levelo://app?vid=2797dcdb-c4e1-48b2-82d6-5677d371fa39"},"vehicle_type_id":"4","last_reported":1744827250,"current_range_meters":8400,"station_id":"cpo36qri1sfpv3e86is0","pricing_plan_id":"cebpf4jnsgd1na2vs0mg"},{"bike_id":"27d65429-e235-4ad4-8e99-624219bf772a","system_id":"levelo_inurba_marseille","lat":43.30733,"lon":5.42428,"is_reserved":false,"is_disabled":false,"rental_uris":{"android":"levelo://app?vid=27d65429-e235-4ad4-8e99-624219bf772a","ios":"levelo://app?vid=27d65429-e235-4ad4-8e99-624219bf772a"},"vehicle_type_id":"4","last_reported":1744827250,"current_range_meters":8400,"station_id":"st_cvj6ca6bvosntc0bfgr0","pricing_plan_id":"cebpf4jnsgd1na2vs0mg"},{"bike_id":"1021195a-1d57-49a5-a021-5d5c77bd4874","system_id":"levelo_inurba_marseille","lat":43.29031,"lon":5.38642,"is_reserved":false,"is_disabled":false,"rental_uris":{"android":"levelo://app?vid=1021195a-1d57-49a5-a021-5d5c77bd4874","ios":"levelo://app?vid=1021195a-1d57-49a5-a021-5d5c77bd4874"},"vehicle_type_id":"4","last_reported":1744827250,"current_range_meters":9200,"station_id":"ce4bh4p2rcd13ifvqe0g","pricing_plan_id":"cebpf4jnsgd1na2vs0mg"},{"bike_id":"45c6b552-68fd-454d-84d3-cf79221aaee4","system_id":"levelo_inurba_marseille","lat":43.298539,"lon":5.40897,"is_reserved":false,"is_disabled":false,"rental_uris":{"android":"levelo://app?vid=45c6b552-68fd-454d-84d3-cf79221aaee4","ios":"levelo://app?vid=45c6b552-68fd-454d-84d3-cf79221aaee4"},"vehicle_type_id":"4","last_reported":1744827250,"current_range_meters":9200,"station_id":"","pricing_plan_id":"cebpf4jnsgd1na2vs0mg"},{"bike_id":"0a28e206-b3dd-43f2-8495-1759cdcbbe79","system_id":"levelo_inurba_marseille","lat":43.29882,"lon":5.38902,"is_reserved":false,"is_disabled":false,"rental_uris":{"android":"levelo://app?vid=0a28e206-b3dd-43f2-8495-1759cdcbbe79","ios":"levelo://app?vid=0a28e206-b3dd-43f2-8495-1759cdcbbe79"},"vehicle_type_id":"4","last_reported":1744827250,"current_range_meters":9600,"station_id":"ce4bh392rcd13ifvqdl0","pricing_plan_id":"cebpf4jnsgd1na2vs0mg"},{"bike_id":"dcdb828e-d7a2-4da1-8c17-ffc6718c49bd","system_id":"levelo_inurba_marseille","lat":43.304548,"lon":5.378811,"is_reserved":false,"is_disabled":false,"rental_uris":{"android":"levelo://app?vid=dcdb828e-d7a2-4da1-8c17-ffc6718c49bd","ios":"levelo://app?vid=dcdb828e-d7a2-4da1-8c17-ffc6718c49bd"},"vehicle_type_id":"4","last_reported":1744827250,"current_range_meters":9600,"station_id":"ce4bh612rcd13ifvqe6g","pricing_plan_id":"cebpf4jnsgd1na2vs0mg"},{"bike_id":"13212ea6-c79f-428f-bf88-2ce269adcaff","system_id":"levelo_inurba_marseille","lat":43.24808,"lon":5.37462,"is_reserved":false,"is_disabled":false,"rental_uris":{"android":"levelo://app?vid=13212ea6-c79f-428f-bf88-2ce269adcaff","ios":"levelo://app?vid=13212ea6-c79f-428f-bf88-2ce269adcaff"},"vehicle_type_id":"4","last_reported":1744827250,"current_range_meters":9600,"station_id":"ce4bhgh2rcd13ifvqfb0","pricing_plan_id":"cebpf4jnsgd1na2vs0mg"},{"bike_id":"5ee9cb5d-fa74-40d5-8a83-21e8433df95b","system_id":"levelo_inurba_marseille","lat":43.3014,"lon":5.38781,"is_reserved":false,"is_disabled":false,"rental_uris":{"android":"levelo://app?vid=5ee9cb5d-fa74-40d5-8a83-21e8433df95b","ios":"levelo://app?vid=5ee9cb5d-fa74-40d5-8a83-21e8433df95b"},"vehicle_type_id":"4","last_reported":1744827250,"current_range_meters":10000,"station_id":"ce4bghh2rcd13ifvqb60","pricing_plan_id":"cebpf4jnsgd1na2vs0mg"},{"bike_id":"eeec4aa3-87e9-4496-be2e-938ceb91cf85","system_id":"levelo_inurba_marseille","lat":43.293144,"lon":5.372197,"is_reserved":false,"is_disabled":true,"rental_uris":{"android":"levelo://app?vid=eeec4aa3-87e9-4496-be2e-938ceb91cf85","ios":"levelo://app?vid=eeec4aa3-87e9-4496-be2e-938ceb91cf85"},"vehicle_type_id":"4","last_reported":1744827250,"current_range_meters":10000,"station_id":"ce4bgh92rcd13ifvqb40","pricing_plan_id":"cebpf4jnsgd1na2vs0mg"},{"bike_id":"ae669bac-ccfa-4f88-b834-b0199f708b96","system_id":"levelo_inurba_marseille","lat":43.28852,"lon":5.3589,"is_reserved":false,"is_disabled":false,"rental_uris":{"android":"levelo://app?vid=ae669bac-ccfa-4f88-b834-b0199f708b96","ios":"levelo://app?vid=ae669bac-ccfa-4f88-b834-b0199f708b96"},"vehicle_type_id":"4","last_reported":1744827250,"current_range_meters":10000,"station_id":"ce4bhb12rcd13ifvqem0","pricing_plan_id":"cebpf4jnsgd1na2vs0mg"},{"bike_id":"27a6f127-71e5-48b2-bbd0-c438c579128d","system_id":"levelo_inurba_marseille","lat":43.25579,"lon":5.38246,"is_reserved":false,"is_disabled":false,"rental_uris":{"android":"levelo://app?vid=27a6f127-71e5-48b2-bbd0-c438c579128d","ios":"levelo://app?vid=27a6f127-71e5-48b2-bbd0-c438c579128d"},"vehicle_type_id":"4","last_reported":1744827250,"current_range_meters":10000,"station_id":"ce4bhih2rcd13ifvqfs0","pricing_plan_id":"cebpf4jnsgd1na2vs0mg"},{"bike_id":"e8412f40-a8dc-44ee-bbc2-e01b1cf2ab9a","system_id":"levelo_inurba_marseille","lat":43.27831,"lon":5.3921,"is_reserved":false,"is_disabled":false,"rental_uris":{"android":"levelo://app?vid=e8412f40-a8dc-44ee-bbc2-e01b1cf2ab9a","ios":"levelo://app?vid=e8412f40-a8dc-44ee-bbc2-e01b1cf2ab9a"},"vehicle_type_id":"4","last_reported":1744827250,"current_range_meters":10800,"station_id":"ce4bhjp2rcd13ifvqga0","pricing_plan_id":"cebpf4jnsgd1na2vs0mg"},{"bike_id":"4edf85fe-1778-498d-8b3a-bac18bb104ac","system_id":"levelo_inurba_marseille","lat":43.30927,"lon":5.40142,"is_reserved":false,"is_disabled":false,"rental_uris":{"android":"levelo://app?vid=4edf85fe-1778-498d-8b3a-bac18bb104ac","ios":"levelo://app?vid=4edf85fe-1778-498d-8b3a-bac18bb104ac"},"vehicle_type_id":"4","last_reported":1744827250,"current_range_meters":10800,"station_id":"ce4bgvp2rcd13ifvqct0","pricing_plan_id":"cebpf4jnsgd1na2vs0mg"},{"bike_id":"561936ef-54e4-4d15-b2a7-dfd018b9e12e","system_id":"levelo_inurba_marseille","lat":43.298233,"lon":5.402686,"is_reserved":false,"is_disabled":false,"rental_uris":{"android":"levelo://app?vid=561936ef-54e4-4d15-b2a7-dfd018b9e12e","ios":"levelo://app?vid=561936ef-54e4-4d15-b2a7-dfd018b9e12e"},"vehicle_type_id":"4","last_reported":1744827250,"current_range_meters":10800,"station_id":"","pricing_plan_id":"cebpf4jnsgd1na2vs0mg"},{"bike_id":"325ea596-c8f5-416a-973e-14196dc3b94a","system_id":"levelo_inurba_marseille","lat":43.27943,"lon":5.41048,"is_reserved":false,"is_disabled":false,"rental_uris":{"android":"levelo://app?vid=325ea596-c8f5-416a-973e-14196dc3b94a","ios":"levelo://app?vid=325ea596-c8f5-416a-973e-14196dc3b94a"},"vehicle_type_id":"4","last_reported":1744827250,"current_range_meters":10800,"station_id":"ce4bhnp2rcd13ifvqh0g","pricing_plan_id":"cebpf4jnsgd1na2vs0mg"},{"bike_id":"56228466-73dd-44b5-9dbe-ffa95483668e","system_id":"levelo_inurba_marseille","lat":43.26192,"lon":5.37448,"is_reserved":false,"is_disabled":false,"rental_uris":{"android":"levelo://app?vid=56228466-73dd-44b5-9dbe-ffa95483668e","ios":"levelo://app?vid=56228466-73dd-44b5-9dbe-ffa95483668e"},"vehicle_type_id":"4","last_reported":1744827250,"current_range_meters":10800,"station_id":"ce4bhgp2rcd13ifvqfc0","pricing_plan_id":"cebpf4jnsgd1na2vs0mg"},{"bike_id":"f0225059-73c2-4052-90f7-bfacbf2597d5","system_id":"levelo_inurba_marseille","lat":43.30146,"lon":5.38797,"is_reserved":false,"is_disabled":false,"rental_uris":{"android":"levelo://app?vid=f0225059-73c2-4052-90f7-bfacbf2597d5","ios":"levelo://app?vid=f0225059-73c2-4052-90f7-bfacbf2597d5"},"vehicle_type_id":"4","last_reported":1744827250,"current_range_meters":11200,"station_id":"ce4bghh2rcd13ifvqb60","pricing_plan_id":"cebpf4jnsgd1na2vs0mg"},{"bike_id":"d44754b3-b16d-4b8d-91e4-99fb309a8039","system_id":"levelo_inurba_marseille","lat":43.2558,"lon":5.38239,"is_reserved":false,"is_disabled":false,"rental_uris":{"android":"levelo://app?vid=d44754b3-b16d-4b8d-91e4-99fb309a8039","ios":"levelo://app?vid=d44754b3-b16d-4b8d-91e4-99fb309a8039"},"vehicle_type_id":"4","last_reported":1744827250,"current_range_meters":11200,"station_id":"ce4bhih2rcd13ifvqfs0","pricing_plan_id":"cebpf4jnsgd1na2vs0mg"},{"bike_id":"dfc90e23-a51a-46c2-9aff-a5e54b4a553f","system_id":"levelo_inurba_marseille","lat":43.26231,"lon":5.40457,"is_reserved":false,"is_disabled":false,"rental_uris":{"android":"levelo://app?vid=dfc90e23-a51a-46c2-9aff-a5e54b4a553f","ios":"levelo://app?vid=dfc90e23-a51a-46c2-9aff-a5e54b4a553f"},"vehicle_type_id":"4","last_reported":1744827250,"current_range_meters":11200,"station_id":"ce4bhmh2rcd13ifvqgmg","pricing_plan_id":"cebpf4jnsgd1na2vs0mg"},{"bike_id":"2c032a6e-a514-4c75-ac58-67d0e95dcf42","system_id":"levelo_inurba_marseille","lat":43.2862,"lon":5.35103,"is_reserved":false,"is_disabled":false,"rental_uris":{"android":"levelo://app?vid=2c032a6e-a514-4c75-ac58-67d0e95dcf42","ios":"levelo://app?vid=2c032a6e-a514-4c75-ac58-67d0e95dcf42"},"vehicle_type_id":"4","last_reported":1744827250,"current_range_meters":11600,"station_id":"ce4bhch2rcd13ifvqeug","pricing_plan_id":"cebpf4jnsgd1na2vs0mg"},{"bike_id":"579017e7-8ac9-4e7f-9699-b4fc2682a973","system_id":"levelo_inurba_marseille","lat":43.28707,"lon":5.37944,"is_reserved":false,"is_disabled":false,"rental_uris":{"android":"levelo://app?vid=579017e7-8ac9-4e7f-9699-b4fc2682a973","ios":"levelo://app?vid=579017e7-8ac9-4e7f-9699-b4fc2682a973"},"vehicle_type_id":"4","last_reported":1744827250,"current_range_meters":11600,"station_id":"ce4bh9p2rcd13ifvqec0","pricing_plan_id":"cebpf4jnsgd1na2vs0mg"},{"bike_id":"d8429927-bb0c-45e5-9987-a64f6d65ebc6","system_id":"levelo_inurba_marseille","lat":43.29436,"lon":5.38647,"is_reserved":false,"is_disabled":false,"rental_uris":{"android":"levelo://app?vid=d8429927-bb0c-45e5-9987-a64f6d65ebc6","ios":"levelo://app?vid=d8429927-bb0c-45e5-9987-a64f6d65ebc6"},"vehicle_type_id":"4","last_reported":1744827250,"current_range_meters":11600,"station_id":"ce4bh2h2rcd13ifvqdh0","pricing_plan_id":"cebpf4jnsgd1na2vs0mg"},{"bike_id":"6cf03e53-20a8-4f81-bab1-47b311b14206","system_id":"levelo_inurba_marseille","lat":43.29418,"lon":5.38635,"is_reserved":false,"is_disabled":false,"rental_uris":{"android":"levelo://app?vid=6cf03e53-20a8-4f81-bab1-47b311b14206","ios":"levelo://app?vid=6cf03e53-20a8-4f81-bab1-47b311b14206"},"vehicle_type_id":"4","last_reported":1744827250,"current_range_meters":11600,"station_id":"ce4bh2h2rcd13ifvqdh0","pricing_plan_id":"cebpf4jnsgd1na2vs0mg"},{"bike_id":"51a64e16-0b88-479c-8f70-cafff67635bb","system_id":"levelo_inurba_marseille","lat":43.28441,"lon":5.37513,"is_reserved":false,"is_disabled":false,"rental_uris":{"android":"levelo://app?vid=51a64e16-0b88-479c-8f70-cafff67635bb","ios":"levelo://app?vid=51a64e16-0b88-479c-8f70-cafff67635bb"},"vehicle_type_id":"4","last_reported":1744827250,"current_range_meters":11600,"station_id":"ce4bh412rcd13ifvqds0","pricing_plan_id":"cebpf4jnsgd1na2vs0mg"},{"bike_id":"a3ac412f-4770-49a4-9aee-c810c02826e3","system_id":"levelo_inurba_marseille","lat":43.312743,"lon":5.401729,"is_reserved":false,"is_disabled":false,"rental_uris":{"android":"levelo://app?vid=a3ac412f-4770-49a4-9aee-c810c02826e3","ios":"levelo://app?vid=a3ac412f-4770-49a4-9aee-c810c02826e3"},"vehicle_type_id":"4","last_reported":1744827250,"current_range_meters":11600,"station_id":"ce4bh092rcd13ifvqd30","pricing_plan_id":"cebpf4jnsgd1na2vs0mg"},{"bike_id":"0e2a933c-24d1-405f-974d-27a813c056d8","system_id":"levelo_inurba_marseille","lat":43.28841,"lon":5.39314,"is_reserved":false,"is_disabled":false,"rental_uris":{"android":"levelo://app?vid=0e2a933c-24d1-405f-974d-27a813c056d8","ios":"levelo://app?vid=0e2a933c-24d1-405f-974d-27a813c056d8"},"vehicle_type_id":"4","last_reported":1744827250,"current_range_meters":12000,"station_id":"ce4bh2p2rcd13ifvqdi0","pricing_plan_id":"cebpf4jnsgd1na2vs0mg"},{"bike_id":"834ec9e1-9d50-4bee-85ae-d1db335c55e5","system_id":"levelo_inurba_marseille","lat":43.31824,"lon":5.36814,"is_reserved":false,"is_disabled":false,"rental_uris":{"android":"levelo://app?vid=834ec9e1-9d50-4bee-85ae-d1db335c55e5","ios":"levelo://app?vid=834ec9e1-9d50-4bee-85ae-d1db335c55e5"},"vehicle_type_id":"4","last_reported":1744827250,"current_range_meters":12000,"station_id":"","pricing_plan_id":"cebpf4jnsgd1na2vs0mg"},{"bike_id":"8a7fa300-7e53-465e-bfb1-ca0489984acb","system_id":"levelo_inurba_marseille","lat":43.26677,"lon":5.38265,"is_reserved":false,"is_disabled":false,"rental_uris":{"android":"levelo://app?vid=8a7fa300-7e53-465e-bfb1-ca0489984acb","ios":"levelo://app?vid=8a7fa300-7e53-465e-bfb1-ca0489984acb"},"vehicle_type_id":"4","last_reported":1744827250,"current_range_meters":12000,"station_id":"ce4bhg92rcd13ifvqf90","pricing_plan_id":"cebpf4jnsgd1na2vs0mg"},{"bike_id":"d92b9b20-6af0-4a88-a94e-9632032dcecc","system_id":"levelo_inurba_marseille","lat":43.30442,"lon":5.38875,"is_reserved":false,"is_disabled":false,"rental_uris":{"android":"levelo://app?vid=d92b9b20-6af0-4a88-a94e-9632032dcecc","ios":"levelo://app?vid=d92b9b20-6af0-4a88-a94e-9632032dcecc"},"vehicle_type_id":"4","last_reported":1744827250,"current_range_meters":12400,"station_id":"ce4bgk12rcd13ifvqbi0","pricing_plan_id":"cebpf4jnsgd1na2vs0mg"},{"bike_id":"a45bf30d-4729-4d27-b96a-a1fe0ede7d00","system_id":"levelo_inurba_marseille","lat":43.29171,"lon":5.37159,"is_reserved":false,"is_disabled":false,"rental_uris":{"android":"levelo://app?vid=a45bf30d-4729-4d27-b96a-a1fe0ede7d00","ios":"levelo://app?vid=a45bf30d-4729-4d27-b96a-a1fe0ede7d00"},"vehicle_type_id":"4","last_reported":1744827250,"current_range_meters":12400,"station_id":"ce4bha92rcd13ifvqeh0","pricing_plan_id":"cebpf4jnsgd1na2vs0mg"},{"bike_id":"16888ce3-1c16-4491-b164-72ebc73c9a04","system_id":"levelo_inurba_marseille","lat":43.31727,"lon":5.42413,"is_reserved":false,"is_disabled":false,"rental_uris":{"android":"levelo://app?vid=16888ce3-1c16-4491-b164-72ebc73c9a04","ios":"levelo://app?vid=16888ce3-1c16-4491-b164-72ebc73c9a04"},"vehicle_type_id":"4","last_reported":1744827250,"current_range_meters":12800,"station_id":"ce4bhp92rcd13ifvqhbg","pricing_plan_id":"cebpf4jnsgd1na2vs0mg"},{"bike_id":"80d9af29-ff98-4569-a09d-d4a9a14d9a42","system_id":"levelo_inurba_marseille","lat":43.30589,"lon":5.39349,"is_reserved":false,"is_disabled":false,"rental_uris":{"android":"levelo://app?vid=80d9af29-ff98-4569-a09d-d4a9a14d9a42","ios":"levelo://app?vid=80d9af29-ff98-4569-a09d-d4a9a14d9a42"},"vehicle_type_id":"4","last_reported":1744827250,"current_range_meters":12800,"station_id":"ce4bh0p2rcd13ifvqd80","pricing_plan_id":"cebpf4jnsgd1na2vs0mg"},{"bike_id":"528b8d36-82b3-42fe-8b08-b9de30d43e09","system_id":"levelo_inurba_marseille","lat":43.29266,"lon":5.38451,"is_reserved":false,"is_disabled":false,"rental_uris":{"android":"levelo://app?vid=528b8d36-82b3-42fe-8b08-b9de30d43e09","ios":"levelo://app?vid=528b8d36-82b3-42fe-8b08-b9de30d43e09"},"vehicle_type_id":"4","last_reported":1744827250,"current_range_meters":13600,"station_id":"ce4bh692rcd13ifvqea0","pricing_plan_id":"cebpf4jnsgd1na2vs0mg"},{"bike_id":"f283711a-8521-4504-86a6-656a2b798205","system_id":"levelo_inurba_marseille","lat":43.28849,"lon":5.35861,"is_reserved":false,"is_disabled":false,"rental_uris":{"android":"levelo://app?vid=f283711a-8521-4504-86a6-656a2b798205","ios":"levelo://app?vid=f283711a-8521-4504-86a6-656a2b798205"},"vehicle_type_id":"4","last_reported":1744827250,"current_range_meters":13600,"station_id":"ce4bhb12rcd13ifvqem0","pricing_plan_id":"cebpf4jnsgd1na2vs0mg"},{"bike_id":"13ce1128-e636-40de-8d54-a74dfb19ee3c","system_id":"levelo_inurba_marseille","lat":43.29933,"lon":5.36558,"is_reserved":false,"is_disabled":false,"rental_uris":{"android":"levelo://app?vid=13ce1128-e636-40de-8d54-a74dfb19ee3c","ios":"levelo://app?vid=13ce1128-e636-40de-8d54-a74dfb19ee3c"},"vehicle_type_id":"4","last_reported":1744827250,"current_range_meters":14000,"station_id":"ce4bgm92rcd13ifvqbr0","pricing_plan_id":"cebpf4jnsgd1na2vs0mg"},{"bike_id":"fac20480-34fa-46e4-98ee-6bbe1a97d579","system_id":"levelo_inurba_marseille","lat":43.30125,"lon":5.39862,"is_reserved":false,"is_disabled":false,"rental_uris":{"android":"levelo://app?vid=fac20480-34fa-46e4-98ee-6bbe1a97d579","ios":"levelo://app?vid=fac20480-34fa-46e4-98ee-6bbe1a97d579"},"vehicle_type_id":"4","last_reported":1744827250,"current_range_meters":14000,"station_id":"ce4bh0h2rcd13ifvqd40","pricing_plan_id":"cebpf4jnsgd1na2vs0mg"},{"bike_id":"93be371e-f079-4065-9c94-f1bd2172cfd1","system_id":"levelo_inurba_marseille","lat":43.28617,"lon":5.3707,"is_reserved":false,"is_disabled":false,"rental_uris":{"android":"levelo://app?vid=93be371e-f079-4065-9c94-f1bd2172cfd1","ios":"levelo://app?vid=93be371e-f079-4065-9c94-f1bd2172cfd1"},"vehicle_type_id":"4","last_reported":1744827250,"current_range_meters":14000,"station_id":"ce4bht12rcd13ifvqi60","pricing_plan_id":"cebpf4jnsgd1na2vs0mg"},{"bike_id":"68ec9c60-1203-4695-94aa-40d8361b0d46","system_id":"levelo_inurba_marseille","lat":43.30841,"lon":5.39611,"is_reserved":false,"is_disabled":false,"rental_uris":{"android":"levelo://app?vid=68ec9c60-1203-4695-94aa-40d8361b0d46","ios":"levelo://app?vid=68ec9c60-1203-4695-94aa-40d8361b0d46"},"vehicle_type_id":"4","last_reported":1744827250,"current_range_meters":14000,"station_id":"","pricing_plan_id":"cebpf4jnsgd1na2vs0mg"},{"bike_id":"dda27a58-e2ca-4fce-a851-41cf6185682c","system_id":"levelo_inurba_marseille","lat":43.30271,"lon":5.3768,"is_reserved":false,"is_disabled":false,"rental_uris":{"android":"levelo://app?vid=dda27a58-e2ca-4fce-a851-41cf6185682c","ios":"levelo://app?vid=dda27a58-e2ca-4fce-a851-41cf6185682c"},"vehicle_type_id":"4","last_reported":1744827250,"current_range_meters":14000,"station_id":"ce4bguh2rcd13ifvqcj0","pricing_plan_id":"cebpf4jnsgd1na2vs0mg"},{"bike_id":"2be2e8c5-ff49-4a5a-963a-4bbeabb11512","system_id":"levelo_inurba_marseille","lat":43.30732,"lon":5.42446,"is_reserved":false,"is_disabled":false,"rental_uris":{"android":"levelo://app?vid=2be2e8c5-ff49-4a5a-963a-4bbeabb11512","ios":"levelo://app?vid=2be2e8c5-ff49-4a5a-963a-4bbeabb11512"},"vehicle_type_id":"4","last_reported":1744827250,"current_range_meters":14000,"station_id":"st_cvj6ca6bvosntc0bfgr0","pricing_plan_id":"cebpf4jnsgd1na2vs0mg"},{"bike_id":"eef0f7e9-3fd3-478d-8d05-1e689878276c","system_id":"levelo_inurba_marseille","lat":43.28,"lon":5.40035,"is_reserved":false,"is_disabled":false,"rental_uris":{"android":"levelo://app?vid=eef0f7e9-3fd3-478d-8d05-1e689878276c","ios":"levelo://app?vid=eef0f7e9-3fd3-478d-8d05-1e689878276c"},"vehicle_type_id":"4","last_reported":1744827250,"current_range_meters":14000,"station_id":"ce4bho92rcd13ifvqh4g","pricing_plan_id":"cebpf4jnsgd1na2vs0mg"},{"bike_id":"1bdba7a7-a82e-4252-906c-80db6beb180e","system_id":"levelo_inurba_marseille","lat":43.24889,"lon":5.39405,"is_reserved":false,"is_disabled":false,"rental_uris":{"android":"levelo://app?vid=1bdba7a7-a82e-4252-906c-80db6beb180e","ios":"levelo://app?vid=1bdba7a7-a82e-4252-906c-80db6beb180e"},"vehicle_type_id":"4","last_reported":1744827250,"current_range_meters":14400,"station_id":"","pricing_plan_id":"cebpf4jnsgd1na2vs0mg"},{"bike_id":"6bf5a380-400e-4cd6-bc1e-356afac9ee45","system_id":"levelo_inurba_marseille","lat":43.24176,"lon":5.36423,"is_reserved":false,"is_disabled":false,"rental_uris":{"android":"levelo://app?vid=6bf5a380-400e-4cd6-bc1e-356afac9ee45","ios":"levelo://app?vid=6bf5a380-400e-4cd6-bc1e-356afac9ee45"},"vehicle_type_id":"4","last_reported":1744827250,"current_range_meters":14400,"station_id":"cpo36qri1sfpv3e86is0","pricing_plan_id":"cebpf4jnsgd1na2vs0mg"},{"bike_id":"88a0cb80-a51d-46bc-8228-c9a9fb028348","system_id":"levelo_inurba_marseille","lat":43.2564,"lon":5.42014,"is_reserved":false,"is_disabled":false,"rental_uris":{"android":"levelo://app?vid=88a0cb80-a51d-46bc-8228-c9a9fb028348","ios":"levelo://app?vid=88a0cb80-a51d-46bc-8228-c9a9fb028348"},"vehicle_type_id":"4","last_reported":1744827250,"current_range_meters":14400,"station_id":"","pricing_plan_id":"cebpf4jnsgd1na2vs0mg"},{"bike_id":"db37a3f6-f3b6-47da-8e67-36ecc280bc85","system_id":"levelo_inurba_marseille","lat":43.29625,"lon":5.40607,"is_reserved":false,"is_disabled":false,"rental_uris":{"android":"levelo://app?vid=db37a3f6-f3b6-47da-8e67-36ecc280bc85","ios":"levelo://app?vid=db37a3f6-f3b6-47da-8e67-36ecc280bc85"},"vehicle_type_id":"4","last_reported":1744827250,"current_range_meters":14400,"station_id":"ce4bh0h2rcd13ifvqd60","pricing_plan_id":"cebpf4jnsgd1na2vs0mg"},{"bike_id":"4b9b1e69-af86-4122-8d46-0d52505b1cab","system_id":"levelo_inurba_marseille","lat":43.275,"lon":5.42511,"is_reserved":false,"is_disabled":false,"rental_uris":{"android":"levelo://app?vid=4b9b1e69-af86-4122-8d46-0d52505b1cab","ios":"levelo://app?vid=4b9b1e69-af86-4122-8d46-0d52505b1cab"},"vehicle_type_id":"4","last_reported":1744827250,"current_range_meters":14400,"station_id":"ce4bhn92rcd13ifvqgrg","pricing_plan_id":"cebpf4jnsgd1na2vs0mg"},{"bike_id":"06040a1f-8298-4f03-b819-7a0487d69ca0","system_id":"levelo_inurba_marseille","lat":43.29257,"lon":5.3844,"is_reserved":false,"is_disabled":false,"rental_uris":{"android":"levelo://app?vid=06040a1f-8298-4f03-b819-7a0487d69ca0","ios":"levelo://app?vid=06040a1f-8298-4f03-b819-7a0487d69ca0"},"vehicle_type_id":"4","last_reported":1744827250,"current_range_meters":14800,"station_id":"ce4bh692rcd13ifvqea0","pricing_plan_id":"cebpf4jnsgd1na2vs0mg"},{"bike_id":"636671d9-0916-4e0f-b7c6-9f741a2cfa8b","system_id":"levelo_inurba_marseille","lat":43.25823,"lon":5.39437,"is_reserved":false,"is_disabled":false,"rental_uris":{"android":"levelo://app?vid=636671d9-0916-4e0f-b7c6-9f741a2cfa8b","ios":"levelo://app?vid=636671d9-0916-4e0f-b7c6-9f741a2cfa8b"},"vehicle_type_id":"4","last_reported":1744827250,"current_range_meters":14800,"station_id":"ce4bhip2rcd13ifvqft0","pricing_plan_id":"cebpf4jnsgd1na2vs0mg"},{"bike_id":"d9e42f3a-4a4d-4825-b0af-69480ece51a9","system_id":"levelo_inurba_marseille","lat":43.29532,"lon":5.38555,"is_reserved":false,"is_disabled":false,"rental_uris":{"android":"levelo://app?vid=d9e42f3a-4a4d-4825-b0af-69480ece51a9","ios":"levelo://app?vid=d9e42f3a-4a4d-4825-b0af-69480ece51a9"},"vehicle_type_id":"4","last_reported":1744827250,"current_range_meters":15200,"station_id":"ce4bgih2rcd13ifvqba0","pricing_plan_id":"cebpf4jnsgd1na2vs0mg"},{"bike_id":"4f3dfbf4-d1ae-44db-8110-b28c7d24107a","system_id":"levelo_inurba_marseille","lat":43.27064,"lon":5.40257,"is_reserved":false,"is_disabled":false,"rental_uris":{"android":"levelo://app?vid=4f3dfbf4-d1ae-44db-8110-b28c7d24107a","ios":"levelo://app?vid=4f3dfbf4-d1ae-44db-8110-b28c7d24107a"},"vehicle_type_id":"4","last_reported":1744827250,"current_range_meters":15200,"station_id":"ce4bhk92rcd13ifvqgc0","pricing_plan_id":"cebpf4jnsgd1na2vs0mg"},{"bike_id":"5c2862f3-ea72-4593-9c74-9fcb61032079","system_id":"levelo_inurba_marseille","lat":43.29047,"lon":5.35922,"is_reserved":false,"is_disabled":false,"rental_uris":{"android":"levelo://app?vid=5c2862f3-ea72-4593-9c74-9fcb61032079","ios":"levelo://app?vid=5c2862f3-ea72-4593-9c74-9fcb61032079"},"vehicle_type_id":"4","last_reported":1744827250,"current_range_meters":15200,"station_id":"ce4bha92rcd13ifvqeg0","pricing_plan_id":"cebpf4jnsgd1na2vs0mg"},{"bike_id":"b37478c9-c9d1-4921-942f-50c7a856681e","system_id":"levelo_inurba_marseille","lat":43.27059,"lon":5.40263,"is_reserved":false,"is_disabled":true,"rental_uris":{"android":"levelo://app?vid=b37478c9-c9d1-4921-942f-50c7a856681e","ios":"levelo://app?vid=b37478c9-c9d1-4921-942f-50c7a856681e"},"vehicle_type_id":"4","last_reported":1744827250,"current_range_meters":15200,"station_id":"ce4bhk92rcd13ifvqgc0","pricing_plan_id":"cebpf4jnsgd1na2vs0mg"},{"bike_id":"1c0c17d4-38c5-4a1c-8a19-a752fa5d90ed","system_id":"levelo_inurba_marseille","lat":43.23191,"lon":5.39992,"is_reserved":false,"is_disabled":false,"rental_uris":{"android":"levelo://app?vid=1c0c17d4-38c5-4a1c-8a19-a752fa5d90ed","ios":"levelo://app?vid=1c0c17d4-38c5-4a1c-8a19-a752fa5d90ed"},"vehicle_type_id":"4","last_reported":1744827250,"current_range_meters":15200,"station_id":"ce4bhn12rcd13ifvqgqg","pricing_plan_id":"cebpf4jnsgd1na2vs0mg"},{"bike_id":"955d86de-64d2-4315-b1fb-bd1c528b00f5","system_id":"levelo_inurba_marseille","lat":43.30131,"lon":5.38774,"is_reserved":false,"is_disabled":false,"rental_uris":{"android":"levelo://app?vid=955d86de-64d2-4315-b1fb-bd1c528b00f5","ios":"levelo://app?vid=955d86de-64d2-4315-b1fb-bd1c528b00f5"},"vehicle_type_id":"4","last_reported":1744827250,"current_range_meters":16000,"station_id":"ce4bghh2rcd13ifvqb60","pricing_plan_id":"cebpf4jnsgd1na2vs0mg"},{"bike_id":"ae05e609-f1c3-41e7-9e17-079a44f9b76a","system_id":"levelo_inurba_marseille","lat":43.25002,"lon":5.38925,"is_reserved":false,"is_disabled":false,"rental_uris":{"android":"levelo://app?vid=ae05e609-f1c3-41e7-9e17-079a44f9b76a","ios":"levelo://app?vid=ae05e609-f1c3-41e7-9e17-079a44f9b76a"},"vehicle_type_id":"4","last_reported":1744827250,"current_range_meters":16000,"station_id":"ce4bhgp2rcd13ifvqfd0","pricing_plan_id":"cebpf4jnsgd1na2vs0mg"},{"bike_id":"b6b4fba7-65bd-4354-9ef8-9be346fbbc8a","system_id":"levelo_inurba_marseille","lat":43.30297,"lon":5.37695,"is_reserved":false,"is_disabled":false,"rental_uris":{"android":"levelo://app?vid=b6b4fba7-65bd-4354-9ef8-9be346fbbc8a","ios":"levelo://app?vid=b6b4fba7-65bd-4354-9ef8-9be346fbbc8a"},"vehicle_type_id":"4","last_reported":1744827250,"current_range_meters":16000,"station_id":"ce4bguh2rcd13ifvqcj0","pricing_plan_id":"cebpf4jnsgd1na2vs0mg"},{"bike_id":"970a4b57-ac2b-4ad4-bc8a-239431db997e","system_id":"levelo_inurba_marseille","lat":43.26945,"lon":5.40232,"is_reserved":false,"is_disabled":false,"rental_uris":{"android":"levelo://app?vid=970a4b57-ac2b-4ad4-bc8a-239431db997e","ios":"levelo://app?vid=970a4b57-ac2b-4ad4-bc8a-239431db997e"},"vehicle_type_id":"4","last_reported":1744827250,"current_range_meters":16000,"station_id":"cjm6bp8fraef2m0cb0m0","pricing_plan_id":"cebpf4jnsgd1na2vs0mg"},{"bike_id":"57406be6-c0b4-4691-8abf-3f6842e4ec81","system_id":"levelo_inurba_marseille","lat":43.28464,"lon":5.39201,"is_reserved":false,"is_disabled":true,"rental_uris":{"android":"levelo://app?vid=57406be6-c0b4-4691-8abf-3f6842e4ec81","ios":"levelo://app?vid=57406be6-c0b4-4691-8abf-3f6842e4ec81"},"vehicle_type_id":"4","last_reported":1744827250,"current_range_meters":16000,"station_id":"ce4bhoh2rcd13ifvqh5g","pricing_plan_id":"cebpf4jnsgd1na2vs0mg"},{"bike_id":"7a607c1d-43f4-4e8d-a768-ab5df87d84d5","system_id":"levelo_inurba_marseille","lat":43.29411,"lon":5.38614,"is_reserved":false,"is_disabled":false,"rental_uris":{"android":"levelo://app?vid=7a607c1d-43f4-4e8d-a768-ab5df87d84d5","ios":"levelo://app?vid=7a607c1d-43f4-4e8d-a768-ab5df87d84d5"},"vehicle_type_id":"4","last_reported":1744827250,"current_range_meters":16000,"station_id":"ce4bh2h2rcd13ifvqdh0","pricing_plan_id":"cebpf4jnsgd1na2vs0mg"},{"bike_id":"93ccd809-f584-4739-8f4e-c335c63d94b9","system_id":"levelo_inurba_marseille","lat":43.32124,"lon":5.36783,"is_reserved":false,"is_disabled":false,"rental_uris":{"android":"levelo://app?vid=93ccd809-f584-4739-8f4e-c335c63d94b9","ios":"levelo://app?vid=93ccd809-f584-4739-8f4e-c335c63d94b9"},"vehicle_type_id":"4","last_reported":1744827250,"current_range_meters":16000,"station_id":"ce4bhrh2rcd13ifvqhug","pricing_plan_id":"cebpf4jnsgd1na2vs0mg"},{"bike_id":"4701365e-6dc4-485f-b569-833f143bd669","system_id":"levelo_inurba_marseille","lat":43.28971,"lon":5.37841,"is_reserved":false,"is_disabled":false,"rental_uris":{"android":"levelo://app?vid=4701365e-6dc4-485f-b569-833f143bd669","ios":"levelo://app?vid=4701365e-6dc4-485f-b569-833f143bd669"},"vehicle_type_id":"4","last_reported":1744827250,"current_range_meters":15200,"station_id":"ce4bh9p2rcd13ifvqed0","pricing_plan_id":"cebpf4jnsgd1na2vs0mg"},{"bike_id":"2a6030df-d29b-4db4-a9ba-f8aeb9ae3f4c","system_id":"levelo_inurba_marseille","lat":43.29302,"lon":5.37166,"is_reserved":false,"is_disabled":false,"rental_uris":{"android":"levelo://app?vid=2a6030df-d29b-4db4-a9ba-f8aeb9ae3f4c","ios":"levelo://app?vid=2a6030df-d29b-4db4-a9ba-f8aeb9ae3f4c"},"vehicle_type_id":"4","last_reported":1744827250,"current_range_meters":16400,"station_id":"ce4bgh92rcd13ifvqb40","pricing_plan_id":"cebpf4jnsgd1na2vs0mg"},{"bike_id":"37b9742a-2ff9-4673-abbf-8a932d12ced7","system_id":"levelo_inurba_marseille","lat":43.2419,"lon":5.39735,"is_reserved":false,"is_disabled":false,"rental_uris":{"android":"levelo://app?vid=37b9742a-2ff9-4673-abbf-8a932d12ced7","ios":"levelo://app?vid=37b9742a-2ff9-4673-abbf-8a932d12ced7"},"vehicle_type_id":"4","last_reported":1744827250,"current_range_meters":16400,"station_id":"ce4bhn12rcd13ifvqgpg","pricing_plan_id":"cebpf4jnsgd1na2vs0mg"},{"bike_id":"748d2a0e-2e42-4df5-a3bc-fcebe663291d","system_id":"levelo_inurba_marseille","lat":43.29899,"lon":5.39759,"is_reserved":false,"is_disabled":false,"rental_uris":{"android":"levelo://app?vid=748d2a0e-2e42-4df5-a3bc-fcebe663291d","ios":"levelo://app?vid=748d2a0e-2e42-4df5-a3bc-fcebe663291d"},"vehicle_type_id":"4","last_reported":1744827250,"current_range_meters":16400,"station_id":"ce4bh0h2rcd13ifvqd50","pricing_plan_id":"cebpf4jnsgd1na2vs0mg"},{"bike_id":"c5c76ae8-2915-4bf5-a264-5e3406fc9f78","system_id":"levelo_inurba_marseille","lat":43.29056,"lon":5.38628,"is_reserved":false,"is_disabled":false,"rental_uris":{"android":"levelo://app?vid=c5c76ae8-2915-4bf5-a264-5e3406fc9f78","ios":"levelo://app?vid=c5c76ae8-2915-4bf5-a264-5e3406fc9f78"},"vehicle_type_id":"4","last_reported":1744827250,"current_range_meters":16400,"station_id":"ce4bh4p2rcd13ifvqe0g","pricing_plan_id":"cebpf4jnsgd1na2vs0mg"},{"bike_id":"da2251a7-2b2b-4dd1-8be8-8f047831f0e4","system_id":"levelo_inurba_marseille","lat":43.30313,"lon":5.39199,"is_reserved":false,"is_disabled":true,"rental_uris":{"android":"levelo://app?vid=da2251a7-2b2b-4dd1-8be8-8f047831f0e4","ios":"levelo://app?vid=da2251a7-2b2b-4dd1-8be8-8f047831f0e4"},"vehicle_type_id":"4","last_reported":1744827250,"current_range_meters":16400,"station_id":"ce4bgkh2rcd13ifvqbk0","pricing_plan_id":"cebpf4jnsgd1na2vs0mg"},{"bike_id":"8be75756-a53c-4ba1-b857-7453ea94c63f","system_id":"levelo_inurba_marseille","lat":43.29414,"lon":5.3863,"is_reserved":false,"is_disabled":false,"rental_uris":{"android":"levelo://app?vid=8be75756-a53c-4ba1-b857-7453ea94c63f","ios":"levelo://app?vid=8be75756-a53c-4ba1-b857-7453ea94c63f"},"vehicle_type_id":"4","last_reported":1744827250,"current_range_meters":16400,"station_id":"ce4bh2h2rcd13ifvqdh0","pricing_plan_id":"cebpf4jnsgd1na2vs0mg"},{"bike_id":"355a64ce-d981-4012-b278-eb66799a5e11","system_id":"levelo_inurba_marseille","lat":43.30104,"lon":5.39059,"is_reserved":false,"is_disabled":false,"rental_uris":{"android":"levelo://app?vid=355a64ce-d981-4012-b278-eb66799a5e11","ios":"levelo://app?vid=355a64ce-d981-4012-b278-eb66799a5e11"},"vehicle_type_id":"4","last_reported":1744827250,"current_range_meters":16400,"station_id":"ce4bh192rcd13ifvqdb0","pricing_plan_id":"cebpf4jnsgd1na2vs0mg"},{"bike_id":"043d36ff-a7b2-4743-bf17-7eaa5436dc0b","system_id":"levelo_inurba_marseille","lat":43.29012,"lon":5.38129,"is_reserved":false,"is_disabled":false,"rental_uris":{"android":"levelo://app?vid=043d36ff-a7b2-4743-bf17-7eaa5436dc0b","ios":"levelo://app?vid=043d36ff-a7b2-4743-bf17-7eaa5436dc0b"},"vehicle_type_id":"4","last_reported":1744827250,"current_range_meters":16400,"station_id":"ce4bh4p2rcd13ifvqe1g","pricing_plan_id":"cebpf4jnsgd1na2vs0mg"},{"bike_id":"b1f42236-afb1-4d50-8c55-a5bd3257f481","system_id":"levelo_inurba_marseille","lat":43.294243,"lon":5.386164,"is_reserved":false,"is_disabled":false,"rental_uris":{"android":"levelo://app?vid=b1f42236-afb1-4d50-8c55-a5bd3257f481","ios":"levelo://app?vid=b1f42236-afb1-4d50-8c55-a5bd3257f481"},"vehicle_type_id":"4","last_reported":1744827250,"current_range_meters":16400,"station_id":"ce4bh2h2rcd13ifvqdh0","pricing_plan_id":"cebpf4jnsgd1na2vs0mg"},{"bike_id":"830bf846-e307-43c6-ad8a-de3dc41759b4","system_id":"levelo_inurba_marseille","lat":43.29029,"lon":5.38654,"is_reserved":false,"is_disabled":false,"rental_uris":{"android":"levelo://app?vid=830bf846-e307-43c6-ad8a-de3dc41759b4","ios":"levelo://app?vid=830bf846-e307-43c6-ad8a-de3dc41759b4"},"vehicle_type_id":"4","last_reported":1744827250,"current_range_meters":16400,"station_id":"ce4bh4p2rcd13ifvqe0g","pricing_plan_id":"cebpf4jnsgd1na2vs0mg"},{"bike_id":"2909136c-832d-48b6-ae24-8dbd950af2de","system_id":"levelo_inurba_marseille","lat":43.28403,"lon":5.37516,"is_reserved":false,"is_disabled":false,"rental_uris":{"android":"levelo://app?vid=2909136c-832d-48b6-ae24-8dbd950af2de","ios":"levelo://app?vid=2909136c-832d-48b6-ae24-8dbd950af2de"},"vehicle_type_id":"4","last_reported":1744827250,"current_range_meters":16400,"station_id":"ce4bh412rcd13ifvqds0","pricing_plan_id":"cebpf4jnsgd1na2vs0mg"},{"bike_id":"043fbf44-7a45-4308-8e31-d456a5ed5198","system_id":"levelo_inurba_marseille","lat":43.25574,"lon":5.38242,"is_reserved":false,"is_disabled":false,"rental_uris":{"android":"levelo://app?vid=043fbf44-7a45-4308-8e31-d456a5ed5198","ios":"levelo://app?vid=043fbf44-7a45-4308-8e31-d456a5ed5198"},"vehicle_type_id":"4","last_reported":1744827250,"current_range_meters":16400,"station_id":"ce4bhih2rcd13ifvqfs0","pricing_plan_id":"cebpf4jnsgd1na2vs0mg"},{"bike_id":"b453c917-0db1-40bd-ad8a-e14424b609f7","system_id":"levelo_inurba_marseille","lat":43.27097,"lon":5.40258,"is_reserved":false,"is_disabled":false,"rental_uris":{"android":"levelo://app?vid=b453c917-0db1-40bd-ad8a-e14424b609f7","ios":"levelo://app?vid=b453c917-0db1-40bd-ad8a-e14424b609f7"},"vehicle_type_id":"4","last_reported":1744827250,"current_range_meters":16800,"station_id":"ce4bhk92rcd13ifvqgc0","pricing_plan_id":"cebpf4jnsgd1na2vs0mg"},{"bike_id":"1e0085ad-f4df-4567-9562-f017c3d23f8e","system_id":"levelo_inurba_marseille","lat":43.284671,"lon":5.380524,"is_reserved":false,"is_disabled":false,"rental_uris":{"android":"levelo://app?vid=1e0085ad-f4df-4567-9562-f017c3d23f8e","ios":"levelo://app?vid=1e0085ad-f4df-4567-9562-f017c3d23f8e"},"vehicle_type_id":"4","last_reported":1744827250,"current_range_meters":16800,"station_id":"ce4bh412rcd13ifvqdr0","pricing_plan_id":"cebpf4jnsgd1na2vs0mg"},{"bike_id":"36403a59-49e2-469a-bb12-26511b319796","system_id":"levelo_inurba_marseille","lat":43.31349,"lon":5.38494,"is_reserved":false,"is_disabled":false,"rental_uris":{"android":"levelo://app?vid=36403a59-49e2-469a-bb12-26511b319796","ios":"levelo://app?vid=36403a59-49e2-469a-bb12-26511b319796"},"vehicle_type_id":"4","last_reported":1744827250,"current_range_meters":16400,"station_id":"ce4bgt92rcd13ifvqcf0","pricing_plan_id":"cebpf4jnsgd1na2vs0mg"},{"bike_id":"78639c4a-dfa5-4f82-b777-6fd3b58b5770","system_id":"levelo_inurba_marseille","lat":43.28095,"lon":5.37834,"is_reserved":false,"is_disabled":false,"rental_uris":{"android":"levelo://app?vid=78639c4a-dfa5-4f82-b777-6fd3b58b5770","ios":"levelo://app?vid=78639c4a-dfa5-4f82-b777-6fd3b58b5770"},"vehicle_type_id":"4","last_reported":1744827250,"current_range_meters":16800,"station_id":"ce4bha12rcd13ifvqee0","pricing_plan_id":"cebpf4jnsgd1na2vs0mg"},{"bike_id":"db62e6d1-8c03-49d0-8332-ec21d631d4e5","system_id":"levelo_inurba_marseille","lat":43.29533,"lon":5.38543,"is_reserved":false,"is_disabled":false,"rental_uris":{"android":"levelo://app?vid=db62e6d1-8c03-49d0-8332-ec21d631d4e5","ios":"levelo://app?vid=db62e6d1-8c03-49d0-8332-ec21d631d4e5"},"vehicle_type_id":"4","last_reported":1744827250,"current_range_meters":16800,"station_id":"ce4bgih2rcd13ifvqba0","pricing_plan_id":"cebpf4jnsgd1na2vs0mg"},{"bike_id":"7d4a7fce-596b-40a1-bf8e-35f954a39aba","system_id":"levelo_inurba_marseille","lat":43.24808,"lon":5.3745,"is_reserved":false,"is_disabled":false,"rental_uris":{"android":"levelo://app?vid=7d4a7fce-596b-40a1-bf8e-35f954a39aba","ios":"levelo://app?vid=7d4a7fce-596b-40a1-bf8e-35f954a39aba"},"vehicle_type_id":"4","last_reported":1744827250,"current_range_meters":17200,"station_id":"ce4bhgh2rcd13ifvqfb0","pricing_plan_id":"cebpf4jnsgd1na2vs0mg"},{"bike_id":"8a7aedd5-7665-4ab4-8bb1-0a54b5f8e959","system_id":"levelo_inurba_marseille","lat":43.28845,"lon":5.39309,"is_reserved":false,"is_disabled":false,"rental_uris":{"android":"levelo://app?vid=8a7aedd5-7665-4ab4-8bb1-0a54b5f8e959","ios":"levelo://app?vid=8a7aedd5-7665-4ab4-8bb1-0a54b5f8e959"},"vehicle_type_id":"4","last_reported":1744827250,"current_range_meters":17200,"station_id":"ce4bh2p2rcd13ifvqdi0","pricing_plan_id":"cebpf4jnsgd1na2vs0mg"},{"bike_id":"660631fc-51be-4aa7-bb7f-ab6c028609a6","system_id":"levelo_inurba_marseille","lat":43.28152,"lon":5.42652,"is_reserved":false,"is_disabled":false,"rental_uris":{"android":"levelo://app?vid=660631fc-51be-4aa7-bb7f-ab6c028609a6","ios":"levelo://app?vid=660631fc-51be-4aa7-bb7f-ab6c028609a6"},"vehicle_type_id":"4","last_reported":1744827250,"current_range_meters":17200,"station_id":"ce4bhnh2rcd13ifvqgug","pricing_plan_id":"cebpf4jnsgd1na2vs0mg"},{"bike_id":"da0699e6-fffb-42fd-bda2-fa249cfedfd8","system_id":"levelo_inurba_marseille","lat":43.31486,"lon":5.37301,"is_reserved":false,"is_disabled":false,"rental_uris":{"android":"levelo://app?vid=da0699e6-fffb-42fd-bda2-fa249cfedfd8","ios":"levelo://app?vid=da0699e6-fffb-42fd-bda2-fa249cfedfd8"},"vehicle_type_id":"4","last_reported":1744827250,"current_range_meters":17600,"station_id":"ce4bgt12rcd13ifvqcd0","pricing_plan_id":"cebpf4jnsgd1na2vs0mg"},{"bike_id":"2d03e3c2-09e4-4978-8dbc-31228f7e9fd5","system_id":"levelo_inurba_marseille","lat":43.25583,"lon":5.38237,"is_reserved":false,"is_disabled":false,"rental_uris":{"android":"levelo://app?vid=2d03e3c2-09e4-4978-8dbc-31228f7e9fd5","ios":"levelo://app?vid=2d03e3c2-09e4-4978-8dbc-31228f7e9fd5"},"vehicle_type_id":"4","last_reported":1744827250,"current_range_meters":17600,"station_id":"ce4bhih2rcd13ifvqfs0","pricing_plan_id":"cebpf4jnsgd1na2vs0mg"},{"bike_id":"3dcd70d8-eea2-4455-8fe6-de34ddfdd0e0","system_id":"levelo_inurba_marseille","lat":43.29416,"lon":5.3863,"is_reserved":false,"is_disabled":false,"rental_uris":{"android":"levelo://app?vid=3dcd70d8-eea2-4455-8fe6-de34ddfdd0e0","ios":"levelo://app?vid=3dcd70d8-eea2-4455-8fe6-de34ddfdd0e0"},"vehicle_type_id":"4","last_reported":1744827250,"current_range_meters":17600,"station_id":"ce4bh2h2rcd13ifvqdh0","pricing_plan_id":"cebpf4jnsgd1na2vs0mg"},{"bike_id":"6d992a7f-8339-4a42-9efc-865513617be3","system_id":"levelo_inurba_marseille","lat":43.27811,"lon":5.40712,"is_reserved":false,"is_disabled":false,"rental_uris":{"android":"levelo://app?vid=6d992a7f-8339-4a42-9efc-865513617be3","ios":"levelo://app?vid=6d992a7f-8339-4a42-9efc-865513617be3"},"vehicle_type_id":"4","last_reported":1744827250,"current_range_meters":17600,"station_id":"ce4bhnh2rcd13ifvqgtg","pricing_plan_id":"cebpf4jnsgd1na2vs0mg"},{"bike_id":"f539c0b1-f431-4f5b-996c-75f09fe021a5","system_id":"levelo_inurba_marseille","lat":43.29968,"lon":5.38492,"is_reserved":false,"is_disabled":false,"rental_uris":{"android":"levelo://app?vid=f539c0b1-f431-4f5b-996c-75f09fe021a5","ios":"levelo://app?vid=f539c0b1-f431-4f5b-996c-75f09fe021a5"},"vehicle_type_id":"4","last_reported":1744827250,"current_range_meters":17200,"station_id":"ce4bgj92rcd13ifvqbd0","pricing_plan_id":"cebpf4jnsgd1na2vs0mg"},{"bike_id":"5e865221-1765-4332-a68a-6f9a4b80a278","system_id":"levelo_inurba_marseille","lat":43.32334,"lon":5.40635,"is_reserved":false,"is_disabled":false,"rental_uris":{"android":"levelo://app?vid=5e865221-1765-4332-a68a-6f9a4b80a278","ios":"levelo://app?vid=5e865221-1765-4332-a68a-6f9a4b80a278"},"vehicle_type_id":"4","last_reported":1744827250,"current_range_meters":17600,"station_id":"ce4bhq92rcd13ifvqhjg","pricing_plan_id":"cebpf4jnsgd1na2vs0mg"},{"bike_id":"9b5e25a7-5eea-4a85-b64e-4f756e67feb2","system_id":"levelo_inurba_marseille","lat":43.29863,"lon":5.39743,"is_reserved":false,"is_disabled":false,"rental_uris":{"android":"levelo://app?vid=9b5e25a7-5eea-4a85-b64e-4f756e67feb2","ios":"levelo://app?vid=9b5e25a7-5eea-4a85-b64e-4f756e67feb2"},"vehicle_type_id":"4","last_reported":1744827250,"current_range_meters":17600,"station_id":"ce4bh0h2rcd13ifvqd50","pricing_plan_id":"cebpf4jnsgd1na2vs0mg"},{"bike_id":"0e7f3c1c-5749-4ea0-8c4b-38be5bb50b3a","system_id":"levelo_inurba_marseille","lat":43.306841,"lon":5.400737,"is_reserved":false,"is_disabled":false,"rental_uris":{"android":"levelo://app?vid=0e7f3c1c-5749-4ea0-8c4b-38be5bb50b3a","ios":"levelo://app?vid=0e7f3c1c-5749-4ea0-8c4b-38be5bb50b3a"},"vehicle_type_id":"4","last_reported":1744827250,"current_range_meters":18000,"station_id":"ce4bh112rcd13ifvqda0","pricing_plan_id":"cebpf4jnsgd1na2vs0mg"},{"bike_id":"d965c79c-e3a0-41ed-b3f9-b680733c3f99","system_id":"levelo_inurba_marseille","lat":43.26809,"lon":5.40277,"is_reserved":false,"is_disabled":false,"rental_uris":{"android":"levelo://app?vid=d965c79c-e3a0-41ed-b3f9-b680733c3f99","ios":"levelo://app?vid=d965c79c-e3a0-41ed-b3f9-b680733c3f99"},"vehicle_type_id":"4","last_reported":1744827250,"current_range_meters":18000,"station_id":"ce501612rcd8frsf0b60","pricing_plan_id":"cebpf4jnsgd1na2vs0mg"},{"bike_id":"47abf2e7-5fd7-4b70-a3bf-07e3aefe97a2","system_id":"levelo_inurba_marseille","lat":43.29264,"lon":5.38437,"is_reserved":false,"is_disabled":false,"rental_uris":{"android":"levelo://app?vid=47abf2e7-5fd7-4b70-a3bf-07e3aefe97a2","ios":"levelo://app?vid=47abf2e7-5fd7-4b70-a3bf-07e3aefe97a2"},"vehicle_type_id":"4","last_reported":1744827250,"current_range_meters":18000,"station_id":"ce4bh692rcd13ifvqea0","pricing_plan_id":"cebpf4jnsgd1na2vs0mg"},{"bike_id":"23718a74-6fe8-478a-899b-f86e82e204e3","system_id":"levelo_inurba_marseille","lat":43.30126,"lon":5.3987,"is_reserved":false,"is_disabled":false,"rental_uris":{"android":"levelo://app?vid=23718a74-6fe8-478a-899b-f86e82e204e3","ios":"levelo://app?vid=23718a74-6fe8-478a-899b-f86e82e204e3"},"vehicle_type_id":"4","last_reported":1744827250,"current_range_meters":18000,"station_id":"ce4bh0h2rcd13ifvqd40","pricing_plan_id":"cebpf4jnsgd1na2vs0mg"},{"bike_id":"f9294aff-5b6f-4d62-9db7-b7bdca4ffaf5","system_id":"levelo_inurba_marseille","lat":43.32532,"lon":5.41437,"is_reserved":false,"is_disabled":false,"rental_uris":{"android":"levelo://app?vid=f9294aff-5b6f-4d62-9db7-b7bdca4ffaf5","ios":"levelo://app?vid=f9294aff-5b6f-4d62-9db7-b7bdca4ffaf5"},"vehicle_type_id":"4","last_reported":1744827250,"current_range_meters":18000,"station_id":"ce4bhq12rcd13ifvqhhg","pricing_plan_id":"cebpf4jnsgd1na2vs0mg"},{"bike_id":"f8ca688b-8d89-46b7-9110-baed5a9ba379","system_id":"levelo_inurba_marseille","lat":43.31146,"lon":5.370443,"is_reserved":false,"is_disabled":false,"rental_uris":{"android":"levelo://app?vid=f8ca688b-8d89-46b7-9110-baed5a9ba379","ios":"levelo://app?vid=f8ca688b-8d89-46b7-9110-baed5a9ba379"},"vehicle_type_id":"4","last_reported":1744827250,"current_range_meters":18800,"station_id":"","pricing_plan_id":"cebpf4jnsgd1na2vs0mg"},{"bike_id":"855b504c-56ae-405c-802d-1c4be0954e8f","system_id":"levelo_inurba_marseille","lat":43.29972,"lon":5.37484,"is_reserved":false,"is_disabled":false,"rental_uris":{"android":"levelo://app?vid=855b504c-56ae-405c-802d-1c4be0954e8f","ios":"levelo://app?vid=855b504c-56ae-405c-802d-1c4be0954e8f"},"vehicle_type_id":"4","last_reported":1744827250,"current_range_meters":18800,"station_id":"","pricing_plan_id":"cebpf4jnsgd1na2vs0mg"},{"bike_id":"5b4e8388-ccca-46df-b25f-f7efe73dd6d2","system_id":"levelo_inurba_marseille","lat":43.29267,"lon":5.38442,"is_reserved":false,"is_disabled":false,"rental_uris":{"android":"levelo://app?vid=5b4e8388-ccca-46df-b25f-f7efe73dd6d2","ios":"levelo://app?vid=5b4e8388-ccca-46df-b25f-f7efe73dd6d2"},"vehicle_type_id":"4","last_reported":1744827250,"current_range_meters":18800,"station_id":"ce4bh692rcd13ifvqea0","pricing_plan_id":"cebpf4jnsgd1na2vs0mg"},{"bike_id":"8bc01458-e04d-4e1e-9f4f-473a9ad28594","system_id":"levelo_inurba_marseille","lat":43.27939,"lon":5.39584,"is_reserved":false,"is_disabled":false,"rental_uris":{"android":"levelo://app?vid=8bc01458-e04d-4e1e-9f4f-473a9ad28594","ios":"levelo://app?vid=8bc01458-e04d-4e1e-9f4f-473a9ad28594"},"vehicle_type_id":"4","last_reported":1744827250,"current_range_meters":18800,"station_id":"ce4bhf92rcd13ifvqf40","pricing_plan_id":"cebpf4jnsgd1na2vs0mg"},{"bike_id":"173d39b4-7a97-4693-9385-db8bda0fe199","system_id":"levelo_inurba_marseille","lat":43.21748,"lon":5.34603,"is_reserved":false,"is_disabled":false,"rental_uris":{"android":"levelo://app?vid=173d39b4-7a97-4693-9385-db8bda0fe199","ios":"levelo://app?vid=173d39b4-7a97-4693-9385-db8bda0fe199"},"vehicle_type_id":"4","last_reported":1744827250,"current_range_meters":18800,"station_id":"st_cvj6r9ubvosntc0bgbag","pricing_plan_id":"cebpf4jnsgd1na2vs0mg"},{"bike_id":"b9ac8560-e6d2-46a4-b308-4f55fc58985b","system_id":"levelo_inurba_marseille","lat":43.29415,"lon":5.38626,"is_reserved":false,"is_disabled":false,"rental_uris":{"android":"levelo://app?vid=b9ac8560-e6d2-46a4-b308-4f55fc58985b","ios":"levelo://app?vid=b9ac8560-e6d2-46a4-b308-4f55fc58985b"},"vehicle_type_id":"4","last_reported":1744827250,"current_range_meters":18800,"station_id":"ce4bh2h2rcd13ifvqdh0","pricing_plan_id":"cebpf4jnsgd1na2vs0mg"},{"bike_id":"0620d2fb-fed7-4ee2-913e-6d03123ff78c","system_id":"levelo_inurba_marseille","lat":43.22933,"lon":5.35377,"is_reserved":false,"is_disabled":false,"rental_uris":{"android":"levelo://app?vid=0620d2fb-fed7-4ee2-913e-6d03123ff78c","ios":"levelo://app?vid=0620d2fb-fed7-4ee2-913e-6d03123ff78c"},"vehicle_type_id":"4","last_reported":1744827250,"current_range_meters":18800,"station_id":"cpo3532slgdg3j2ikp40","pricing_plan_id":"cebpf4jnsgd1na2vs0mg"},{"bike_id":"4df3ed19-add6-4f12-a84b-1d0034335088","system_id":"levelo_inurba_marseille","lat":43.29422,"lon":5.38635,"is_reserved":false,"is_disabled":false,"rental_uris":{"android":"levelo://app?vid=4df3ed19-add6-4f12-a84b-1d0034335088","ios":"levelo://app?vid=4df3ed19-add6-4f12-a84b-1d0034335088"},"vehicle_type_id":"4","last_reported":1744827250,"current_range_meters":18800,"station_id":"ce4bh2h2rcd13ifvqdh0","pricing_plan_id":"cebpf4jnsgd1na2vs0mg"},{"bike_id":"d9c67721-e064-4914-af5c-ea0bdf8cd9f9","system_id":"levelo_inurba_marseille","lat":43.29262,"lon":5.38449,"is_reserved":false,"is_disabled":false,"rental_uris":{"android":"levelo://app?vid=d9c67721-e064-4914-af5c-ea0bdf8cd9f9","ios":"levelo://app?vid=d9c67721-e064-4914-af5c-ea0bdf8cd9f9"},"vehicle_type_id":"4","last_reported":1744827250,"current_range_meters":18800,"station_id":"ce4bh692rcd13ifvqea0","pricing_plan_id":"cebpf4jnsgd1na2vs0mg"},{"bike_id":"a9a13b2f-e2de-4f40-968c-4382de62974d","system_id":"levelo_inurba_marseille","lat":43.27946,"lon":5.41043,"is_reserved":false,"is_disabled":false,"rental_uris":{"android":"levelo://app?vid=a9a13b2f-e2de-4f40-968c-4382de62974d","ios":"levelo://app?vid=a9a13b2f-e2de-4f40-968c-4382de62974d"},"vehicle_type_id":"4","last_reported":1744827250,"current_range_meters":18800,"station_id":"ce4bhnp2rcd13ifvqh0g","pricing_plan_id":"cebpf4jnsgd1na2vs0mg"},{"bike_id":"17c9dc6c-271d-433f-9b4c-f545e7e15d51","system_id":"levelo_inurba_marseille","lat":43.280878,"lon":5.39661,"is_reserved":false,"is_disabled":false,"rental_uris":{"android":"levelo://app?vid=17c9dc6c-271d-433f-9b4c-f545e7e15d51","ios":"levelo://app?vid=17c9dc6c-271d-433f-9b4c-f545e7e15d51"},"vehicle_type_id":"4","last_reported":1744827250,"current_range_meters":18800,"station_id":"ce4bho12rcd13ifvqh2g","pricing_plan_id":"cebpf4jnsgd1na2vs0mg"},{"bike_id":"752e8716-c761-4db8-baf0-a1d8e33d46f2","system_id":"levelo_inurba_marseille","lat":43.28262,"lon":5.35073,"is_reserved":false,"is_disabled":false,"rental_uris":{"android":"levelo://app?vid=752e8716-c761-4db8-baf0-a1d8e33d46f2","ios":"levelo://app?vid=752e8716-c761-4db8-baf0-a1d8e33d46f2"},"vehicle_type_id":"4","last_reported":1744827250,"current_range_meters":18800,"station_id":"ce4bhbp2rcd13ifvqerg","pricing_plan_id":"cebpf4jnsgd1na2vs0mg"},{"bike_id":"84157c13-9c16-40d2-8de5-a5b0f18a5afb","system_id":"levelo_inurba_marseille","lat":43.2931,"lon":5.37186,"is_reserved":false,"is_disabled":false,"rental_uris":{"android":"levelo://app?vid=84157c13-9c16-40d2-8de5-a5b0f18a5afb","ios":"levelo://app?vid=84157c13-9c16-40d2-8de5-a5b0f18a5afb"},"vehicle_type_id":"4","last_reported":1744827250,"current_range_meters":19200,"station_id":"ce4bgh92rcd13ifvqb40","pricing_plan_id":"cebpf4jnsgd1na2vs0mg"},{"bike_id":"bbb1c662-cc65-4c72-8489-de78d2f0f12f","system_id":"levelo_inurba_marseille","lat":43.23065,"lon":5.355,"is_reserved":false,"is_disabled":false,"rental_uris":{"android":"levelo://app?vid=bbb1c662-cc65-4c72-8489-de78d2f0f12f","ios":"levelo://app?vid=bbb1c662-cc65-4c72-8489-de78d2f0f12f"},"vehicle_type_id":"4","last_reported":1744827250,"current_range_meters":19200,"station_id":"cpo3342slgdg3j2ifvpg","pricing_plan_id":"cebpf4jnsgd1na2vs0mg"},{"bike_id":"e99525f5-cbc2-4ae9-8119-ca8722827511","system_id":"levelo_inurba_marseille","lat":43.29272,"lon":5.3845,"is_reserved":false,"is_disabled":false,"rental_uris":{"android":"levelo://app?vid=e99525f5-cbc2-4ae9-8119-ca8722827511","ios":"levelo://app?vid=e99525f5-cbc2-4ae9-8119-ca8722827511"},"vehicle_type_id":"4","last_reported":1744827250,"current_range_meters":19200,"station_id":"ce4bh692rcd13ifvqea0","pricing_plan_id":"cebpf4jnsgd1na2vs0mg"},{"bike_id":"a2366574-14ae-48e0-bee4-8eae195ae43f","system_id":"levelo_inurba_marseille","lat":43.28964,"lon":5.37839,"is_reserved":false,"is_disabled":false,"rental_uris":{"android":"levelo://app?vid=a2366574-14ae-48e0-bee4-8eae195ae43f","ios":"levelo://app?vid=a2366574-14ae-48e0-bee4-8eae195ae43f"},"vehicle_type_id":"4","last_reported":1744827250,"current_range_meters":19200,"station_id":"ce4bh9p2rcd13ifvqed0","pricing_plan_id":"cebpf4jnsgd1na2vs0mg"},{"bike_id":"eea3acad-d6cb-4e08-af37-711222383dfd","system_id":"levelo_inurba_marseille","lat":43.30351,"lon":5.41874,"is_reserved":false,"is_disabled":false,"rental_uris":{"android":"levelo://app?vid=eea3acad-d6cb-4e08-af37-711222383dfd","ios":"levelo://app?vid=eea3acad-d6cb-4e08-af37-711222383dfd"},"vehicle_type_id":"4","last_reported":1744827250,"current_range_meters":19200,"station_id":"ce4bhop2rcd13ifvqh7g","pricing_plan_id":"cebpf4jnsgd1na2vs0mg"},{"bike_id":"043b5fdc-8387-428d-bff2-b56f9d9a2071","system_id":"levelo_inurba_marseille","lat":43.3091,"lon":5.36858,"is_reserved":false,"is_disabled":false,"rental_uris":{"android":"levelo://app?vid=043b5fdc-8387-428d-bff2-b56f9d9a2071","ios":"levelo://app?vid=043b5fdc-8387-428d-bff2-b56f9d9a2071"},"vehicle_type_id":"4","last_reported":1744827250,"current_range_meters":18800,"station_id":"ce4bgn92rcd13ifvqbvg","pricing_plan_id":"cebpf4jnsgd1na2vs0mg"},{"bike_id":"b652bdb7-a4d5-4927-bd0c-73ce3a2e3721","system_id":"levelo_inurba_marseille","lat":43.268,"lon":5.40267,"is_reserved":false,"is_disabled":false,"rental_uris":{"android":"levelo://app?vid=b652bdb7-a4d5-4927-bd0c-73ce3a2e3721","ios":"levelo://app?vid=b652bdb7-a4d5-4927-bd0c-73ce3a2e3721"},"vehicle_type_id":"4","last_reported":1744827250,"current_range_meters":19200,"station_id":"ce501612rcd8frsf0b60","pricing_plan_id":"cebpf4jnsgd1na2vs0mg"},{"bike_id":"a0ddb0a5-f7f0-4281-aa27-9e82747cc573","system_id":"levelo_inurba_marseille","lat":43.337619,"lon":5.374828,"is_reserved":false,"is_disabled":false,"rental_uris":{"android":"levelo://app?vid=a0ddb0a5-f7f0-4281-aa27-9e82747cc573","ios":"levelo://app?vid=a0ddb0a5-f7f0-4281-aa27-9e82747cc573"},"vehicle_type_id":"4","last_reported":1744827250,"current_range_meters":19200,"station_id":"","pricing_plan_id":"cebpf4jnsgd1na2vs0mg"},{"bike_id":"d750596a-6ac6-4755-84cc-45acd4464f3d","system_id":"levelo_inurba_marseille","lat":43.243945,"lon":5.370771,"is_reserved":false,"is_disabled":false,"rental_uris":{"android":"levelo://app?vid=d750596a-6ac6-4755-84cc-45acd4464f3d","ios":"levelo://app?vid=d750596a-6ac6-4755-84cc-45acd4464f3d"},"vehicle_type_id":"4","last_reported":1744827250,"current_range_meters":19600,"station_id":"ce4bhhh2rcd13ifvqfk0","pricing_plan_id":"cebpf4jnsgd1na2vs0mg"},{"bike_id":"7e503a1b-3682-4e82-a0d8-f00043fe70df","system_id":"levelo_inurba_marseille","lat":43.29264,"lon":5.38473,"is_reserved":false,"is_disabled":false,"rental_uris":{"android":"levelo://app?vid=7e503a1b-3682-4e82-a0d8-f00043fe70df","ios":"levelo://app?vid=7e503a1b-3682-4e82-a0d8-f00043fe70df"},"vehicle_type_id":"4","last_reported":1744827250,"current_range_meters":19600,"station_id":"ce4bh692rcd13ifvqea0","pricing_plan_id":"cebpf4jnsgd1na2vs0mg"},{"bike_id":"fa8c5e39-68b3-4613-9a36-a1118543f33a","system_id":"levelo_inurba_marseille","lat":43.2582,"lon":5.39437,"is_reserved":false,"is_disabled":false,"rental_uris":{"android":"levelo://app?vid=fa8c5e39-68b3-4613-9a36-a1118543f33a","ios":"levelo://app?vid=fa8c5e39-68b3-4613-9a36-a1118543f33a"},"vehicle_type_id":"4","last_reported":1744827250,"current_range_meters":19600,"station_id":"ce4bhip2rcd13ifvqft0","pricing_plan_id":"cebpf4jnsgd1na2vs0mg"},{"bike_id":"116f4404-8a06-4191-a52b-63148c33046d","system_id":"levelo_inurba_marseille","lat":43.28925,"lon":5.38399,"is_reserved":false,"is_disabled":false,"rental_uris":{"android":"levelo://app?vid=116f4404-8a06-4191-a52b-63148c33046d","ios":"levelo://app?vid=116f4404-8a06-4191-a52b-63148c33046d"},"vehicle_type_id":"4","last_reported":1744827250,"current_range_meters":19600,"station_id":"ce4bh612rcd13ifvqe6g","pricing_plan_id":"cebpf4jnsgd1na2vs0mg"},{"bike_id":"2e41e041-5a80-4b1c-b829-5630bf943fab","system_id":"levelo_inurba_marseille","lat":43.30141,"lon":5.3879,"is_reserved":false,"is_disabled":false,"rental_uris":{"android":"levelo://app?vid=2e41e041-5a80-4b1c-b829-5630bf943fab","ios":"levelo://app?vid=2e41e041-5a80-4b1c-b829-5630bf943fab"},"vehicle_type_id":"4","last_reported":1744827250,"current_range_meters":19600,"station_id":"ce4bghh2rcd13ifvqb60","pricing_plan_id":"cebpf4jnsgd1na2vs0mg"},{"bike_id":"71df07ff-dc91-44a0-9d7f-d24ae7b29508","system_id":"levelo_inurba_marseille","lat":43.29418,"lon":5.3863,"is_reserved":false,"is_disabled":false,"rental_uris":{"android":"levelo://app?vid=71df07ff-dc91-44a0-9d7f-d24ae7b29508","ios":"levelo://app?vid=71df07ff-dc91-44a0-9d7f-d24ae7b29508"},"vehicle_type_id":"4","last_reported":1744827250,"current_range_meters":19600,"station_id":"ce4bh2h2rcd13ifvqdh0","pricing_plan_id":"cebpf4jnsgd1na2vs0mg"},{"bike_id":"241fd210-5a0d-4a34-b97d-89080f3d067f","system_id":"levelo_inurba_marseille","lat":43.289563,"lon":5.387083,"is_reserved":false,"is_disabled":false,"rental_uris":{"android":"levelo://app?vid=241fd210-5a0d-4a34-b97d-89080f3d067f","ios":"levelo://app?vid=241fd210-5a0d-4a34-b97d-89080f3d067f"},"vehicle_type_id":"4","last_reported":1744827250,"current_range_meters":19600,"station_id":"ce4bhnh2rcd13ifvqgtg","pricing_plan_id":"cebpf4jnsgd1na2vs0mg"},{"bike_id":"6f2360da-5688-4f6a-8ebd-9e32ee7c678f","system_id":"levelo_inurba_marseille","lat":43.317,"lon":5.4047,"is_reserved":false,"is_disabled":false,"rental_uris":{"android":"levelo://app?vid=6f2360da-5688-4f6a-8ebd-9e32ee7c678f","ios":"levelo://app?vid=6f2360da-5688-4f6a-8ebd-9e32ee7c678f"},"vehicle_type_id":"4","last_reported":1744827250,"current_range_meters":19600,"station_id":"ce4bh012rcd13ifvqd00","pricing_plan_id":"cebpf4jnsgd1na2vs0mg"},{"bike_id":"08f4dcee-7656-4957-9022-f13783bb2667","system_id":"levelo_inurba_marseille","lat":43.2969,"lon":5.37199,"is_reserved":false,"is_disabled":false,"rental_uris":{"android":"levelo://app?vid=08f4dcee-7656-4957-9022-f13783bb2667","ios":"levelo://app?vid=08f4dcee-7656-4957-9022-f13783bb2667"},"vehicle_type_id":"4","last_reported":1744827250,"current_range_meters":20000,"station_id":"","pricing_plan_id":"cebpf4jnsgd1na2vs0mg"},{"bike_id":"d39e5537-c00a-4bf8-9f22-53966b448679","system_id":"levelo_inurba_marseille","lat":43.29564,"lon":5.42276,"is_reserved":false,"is_disabled":false,"rental_uris":{"android":"levelo://app?vid=d39e5537-c00a-4bf8-9f22-53966b448679","ios":"levelo://app?vid=d39e5537-c00a-4bf8-9f22-53966b448679"},"vehicle_type_id":"4","last_reported":1744827250,"current_range_meters":20000,"station_id":"ce4bhph2rcd13ifvqhdg","pricing_plan_id":"cebpf4jnsgd1na2vs0mg"},{"bike_id":"daf4df29-c790-44c2-92e0-17a5149e5578","system_id":"levelo_inurba_marseille","lat":43.288498,"lon":5.358426,"is_reserved":false,"is_disabled":false,"rental_uris":{"android":"levelo://app?vid=daf4df29-c790-44c2-92e0-17a5149e5578","ios":"levelo://app?vid=daf4df29-c790-44c2-92e0-17a5149e5578"},"vehicle_type_id":"4","last_reported":1744827250,"current_range_meters":20000,"station_id":"ce4bhb12rcd13ifvqem0","pricing_plan_id":"cebpf4jnsgd1na2vs0mg"},{"bike_id":"ccb7a8e4-757c-4e6f-90e3-f97fac7da5b7","system_id":"levelo_inurba_marseille","lat":43.29254,"lon":5.38441,"is_reserved":false,"is_disabled":false,"rental_uris":{"android":"levelo://app?vid=ccb7a8e4-757c-4e6f-90e3-f97fac7da5b7","ios":"levelo://app?vid=ccb7a8e4-757c-4e6f-90e3-f97fac7da5b7"},"vehicle_type_id":"4","last_reported":1744827250,"current_range_meters":20000,"station_id":"ce4bh692rcd13ifvqea0","pricing_plan_id":"cebpf4jnsgd1na2vs0mg"},{"bike_id":"17c24be1-2cd9-48c4-bfc2-d1fcae2cee78","system_id":"levelo_inurba_marseille","lat":43.30667,"lon":5.40065,"is_reserved":false,"is_disabled":false,"rental_uris":{"android":"levelo://app?vid=17c24be1-2cd9-48c4-bfc2-d1fcae2cee78","ios":"levelo://app?vid=17c24be1-2cd9-48c4-bfc2-d1fcae2cee78"},"vehicle_type_id":"4","last_reported":1744827250,"current_range_meters":20000,"station_id":"ce4bh112rcd13ifvqda0","pricing_plan_id":"cebpf4jnsgd1na2vs0mg"},{"bike_id":"1bf6744e-c11a-42bc-a292-1acd2fb9fe24","system_id":"levelo_inurba_marseille","lat":43.33717,"lon":5.39185,"is_reserved":false,"is_disabled":false,"rental_uris":{"android":"levelo://app?vid=1bf6744e-c11a-42bc-a292-1acd2fb9fe24","ios":"levelo://app?vid=1bf6744e-c11a-42bc-a292-1acd2fb9fe24"},"vehicle_type_id":"4","last_reported":1744827250,"current_range_meters":20000,"station_id":"ce4bhr92rcd13ifvqhsg","pricing_plan_id":"cebpf4jnsgd1na2vs0mg"},{"bike_id":"4a43efb9-5273-4b4f-b214-0217960d7503","system_id":"levelo_inurba_marseille","lat":43.312137,"lon":5.368507,"is_reserved":false,"is_disabled":false,"rental_uris":{"android":"levelo://app?vid=4a43efb9-5273-4b4f-b214-0217960d7503","ios":"levelo://app?vid=4a43efb9-5273-4b4f-b214-0217960d7503"},"vehicle_type_id":"4","last_reported":1744827250,"current_range_meters":20400,"station_id":"ce4bgv12rcd13ifvqcp0","pricing_plan_id":"cebpf4jnsgd1na2vs0mg"},{"bike_id":"2984cec8-23de-4a73-97a3-c0829eb8b5c7","system_id":"levelo_inurba_marseille","lat":43.27924,"lon":5.39597,"is_reserved":false,"is_disabled":false,"rental_uris":{"android":"levelo://app?vid=2984cec8-23de-4a73-97a3-c0829eb8b5c7","ios":"levelo://app?vid=2984cec8-23de-4a73-97a3-c0829eb8b5c7"},"vehicle_type_id":"4","last_reported":1744827250,"current_range_meters":20400,"station_id":"ce4bhf92rcd13ifvqf40","pricing_plan_id":"cebpf4jnsgd1na2vs0mg"},{"bike_id":"47b1c9c3-5635-444d-aca4-771a7da62924","system_id":"levelo_inurba_marseille","lat":43.27911,"lon":5.39579,"is_reserved":false,"is_disabled":false,"rental_uris":{"android":"levelo://app?vid=47b1c9c3-5635-444d-aca4-771a7da62924","ios":"levelo://app?vid=47b1c9c3-5635-444d-aca4-771a7da62924"},"vehicle_type_id":"4","last_reported":1744827250,"current_range_meters":20400,"station_id":"ce4bhf92rcd13ifvqf40","pricing_plan_id":"cebpf4jnsgd1na2vs0mg"},{"bike_id":"f80e59f3-c899-4595-811c-001a073bdeb0","system_id":"levelo_inurba_marseille","lat":43.24183,"lon":5.3975,"is_reserved":false,"is_disabled":false,"rental_uris":{"android":"levelo://app?vid=f80e59f3-c899-4595-811c-001a073bdeb0","ios":"levelo://app?vid=f80e59f3-c899-4595-811c-001a073bdeb0"},"vehicle_type_id":"4","last_reported":1744827250,"current_range_meters":20400,"station_id":"ce4bhn12rcd13ifvqgpg","pricing_plan_id":"cebpf4jnsgd1na2vs0mg"},{"bike_id":"43bf9250-5f81-403b-b2f2-341a8561032d","system_id":"levelo_inurba_marseille","lat":43.31711,"lon":5.40441,"is_reserved":false,"is_disabled":false,"rental_uris":{"android":"levelo://app?vid=43bf9250-5f81-403b-b2f2-341a8561032d","ios":"levelo://app?vid=43bf9250-5f81-403b-b2f2-341a8561032d"},"vehicle_type_id":"4","last_reported":1744827250,"current_range_meters":20400,"station_id":"ce4bh012rcd13ifvqd00","pricing_plan_id":"cebpf4jnsgd1na2vs0mg"},{"bike_id":"935377c0-a8c8-47e7-8726-21d70a212587","system_id":"levelo_inurba_marseille","lat":43.29476,"lon":5.39139,"is_reserved":false,"is_disabled":false,"rental_uris":{"android":"levelo://app?vid=935377c0-a8c8-47e7-8726-21d70a212587","ios":"levelo://app?vid=935377c0-a8c8-47e7-8726-21d70a212587"},"vehicle_type_id":"4","last_reported":1744827250,"current_range_meters":20800,"station_id":"ce4bh2h2rcd13ifvqdh0","pricing_plan_id":"cebpf4jnsgd1na2vs0mg"},{"bike_id":"9a8369d6-7dc8-4dcb-8044-8df10d87d01d","system_id":"levelo_inurba_marseille","lat":43.24806,"lon":5.37464,"is_reserved":false,"is_disabled":false,"rental_uris":{"android":"levelo://app?vid=9a8369d6-7dc8-4dcb-8044-8df10d87d01d","ios":"levelo://app?vid=9a8369d6-7dc8-4dcb-8044-8df10d87d01d"},"vehicle_type_id":"4","last_reported":1744827250,"current_range_meters":20800,"station_id":"ce4bhgh2rcd13ifvqfb0","pricing_plan_id":"cebpf4jnsgd1na2vs0mg"},{"bike_id":"2c317c6b-332b-4115-a95c-460338163ca9","system_id":"levelo_inurba_marseille","lat":43.28615,"lon":5.35101,"is_reserved":false,"is_disabled":false,"rental_uris":{"android":"levelo://app?vid=2c317c6b-332b-4115-a95c-460338163ca9","ios":"levelo://app?vid=2c317c6b-332b-4115-a95c-460338163ca9"},"vehicle_type_id":"4","last_reported":1744827250,"current_range_meters":20800,"station_id":"ce4bhch2rcd13ifvqeug","pricing_plan_id":"cebpf4jnsgd1na2vs0mg"},{"bike_id":"cacad557-44dd-45fd-bf40-ccf696351134","system_id":"levelo_inurba_marseille","lat":43.29274,"lon":5.38427,"is_reserved":false,"is_disabled":false,"rental_uris":{"android":"levelo://app?vid=cacad557-44dd-45fd-bf40-ccf696351134","ios":"levelo://app?vid=cacad557-44dd-45fd-bf40-ccf696351134"},"vehicle_type_id":"4","last_reported":1744827250,"current_range_meters":20800,"station_id":"ce4bh692rcd13ifvqea0","pricing_plan_id":"cebpf4jnsgd1na2vs0mg"},{"bike_id":"8a79da79-45af-4a8b-908d-cc5bfd53b8ab","system_id":"levelo_inurba_marseille","lat":43.30135,"lon":5.38785,"is_reserved":false,"is_disabled":false,"rental_uris":{"android":"levelo://app?vid=8a79da79-45af-4a8b-908d-cc5bfd53b8ab","ios":"levelo://app?vid=8a79da79-45af-4a8b-908d-cc5bfd53b8ab"},"vehicle_type_id":"4","last_reported":1744827250,"current_range_meters":20800,"station_id":"ce4bghh2rcd13ifvqb60","pricing_plan_id":"cebpf4jnsgd1na2vs0mg"},{"bike_id":"2fb675bf-3c74-4dcc-886e-52479cde1b01","system_id":"levelo_inurba_marseille","lat":43.28666,"lon":5.36356,"is_reserved":false,"is_disabled":false,"rental_uris":{"android":"levelo://app?vid=2fb675bf-3c74-4dcc-886e-52479cde1b01","ios":"levelo://app?vid=2fb675bf-3c74-4dcc-886e-52479cde1b01"},"vehicle_type_id":"4","last_reported":1744827250,"current_range_meters":20400,"station_id":"ce4bhah2rcd13ifvqej0","pricing_plan_id":"cebpf4jnsgd1na2vs0mg"},{"bike_id":"6f17e936-7257-40e5-9096-1f1f192ee3d9","system_id":"levelo_inurba_marseille","lat":43.2857,"lon":5.39502,"is_reserved":false,"is_disabled":false,"rental_uris":{"android":"levelo://app?vid=6f17e936-7257-40e5-9096-1f1f192ee3d9","ios":"levelo://app?vid=6f17e936-7257-40e5-9096-1f1f192ee3d9"},"vehicle_type_id":"4","last_reported":1744827250,"current_range_meters":20800,"station_id":"ce4bh292rcd13ifvqdg0","pricing_plan_id":"cebpf4jnsgd1na2vs0mg"},{"bike_id":"8fd2cdd0-07d7-4c01-add2-10309aca4136","system_id":"levelo_inurba_marseille","lat":43.267169,"lon":5.394645,"is_reserved":false,"is_disabled":true,"rental_uris":{"android":"levelo://app?vid=8fd2cdd0-07d7-4c01-add2-10309aca4136","ios":"levelo://app?vid=8fd2cdd0-07d7-4c01-add2-10309aca4136"},"vehicle_type_id":"4","last_reported":1744827250,"current_range_meters":20800,"station_id":"","pricing_plan_id":"cebpf4jnsgd1na2vs0mg"},{"bike_id":"f1215018-f990-4e6e-9ab0-ba62d5351372","system_id":"levelo_inurba_marseille","lat":43.30788,"lon":5.3815,"is_reserved":false,"is_disabled":false,"rental_uris":{"android":"levelo://app?vid=f1215018-f990-4e6e-9ab0-ba62d5351372","ios":"levelo://app?vid=f1215018-f990-4e6e-9ab0-ba62d5351372"},"vehicle_type_id":"4","last_reported":1744827250,"current_range_meters":20800,"station_id":"ce4bgt12rcd13ifvqce0","pricing_plan_id":"cebpf4jnsgd1na2vs0mg"},{"bike_id":"3ef12485-5bdf-46af-b7e2-2aff0121f594","system_id":"levelo_inurba_marseille","lat":43.31725,"lon":5.42397,"is_reserved":false,"is_disabled":false,"rental_uris":{"android":"levelo://app?vid=3ef12485-5bdf-46af-b7e2-2aff0121f594","ios":"levelo://app?vid=3ef12485-5bdf-46af-b7e2-2aff0121f594"},"vehicle_type_id":"4","last_reported":1744827250,"current_range_meters":20800,"station_id":"ce4bhp92rcd13ifvqhbg","pricing_plan_id":"cebpf4jnsgd1na2vs0mg"},{"bike_id":"c785a930-e2fc-4a2c-95ab-2c04b1df45b5","system_id":"levelo_inurba_marseille","lat":43.29256,"lon":5.3762,"is_reserved":false,"is_disabled":false,"rental_uris":{"android":"levelo://app?vid=c785a930-e2fc-4a2c-95ab-2c04b1df45b5","ios":"levelo://app?vid=c785a930-e2fc-4a2c-95ab-2c04b1df45b5"},"vehicle_type_id":"4","last_reported":1744827250,"current_range_meters":20800,"station_id":"ce4bgi12rcd13ifvqb80","pricing_plan_id":"cebpf4jnsgd1na2vs0mg"},{"bike_id":"7bd2339c-58cc-49a5-ad50-37784be10fc7","system_id":"levelo_inurba_marseille","lat":43.29912,"lon":5.3747,"is_reserved":false,"is_disabled":false,"rental_uris":{"android":"levelo://app?vid=7bd2339c-58cc-49a5-ad50-37784be10fc7","ios":"levelo://app?vid=7bd2339c-58cc-49a5-ad50-37784be10fc7"},"vehicle_type_id":"4","last_reported":1744827250,"current_range_meters":21600,"station_id":"ce4bgjh2rcd13ifvqbg0","pricing_plan_id":"cebpf4jnsgd1na2vs0mg"},{"bike_id":"131e48fb-7076-432b-ae79-672bee543425","system_id":"levelo_inurba_marseille","lat":43.26566,"lon":5.3901,"is_reserved":false,"is_disabled":false,"rental_uris":{"android":"levelo://app?vid=131e48fb-7076-432b-ae79-672bee543425","ios":"levelo://app?vid=131e48fb-7076-432b-ae79-672bee543425"},"vehicle_type_id":"4","last_reported":1744827250,"current_range_meters":21600,"station_id":"ce4bhe12rcd13ifvqf30","pricing_plan_id":"cebpf4jnsgd1na2vs0mg"},{"bike_id":"529b17a4-17ae-4940-9fc0-e0cd974da406","system_id":"levelo_inurba_marseille","lat":43.2621,"lon":5.37452,"is_reserved":false,"is_disabled":false,"rental_uris":{"android":"levelo://app?vid=529b17a4-17ae-4940-9fc0-e0cd974da406","ios":"levelo://app?vid=529b17a4-17ae-4940-9fc0-e0cd974da406"},"vehicle_type_id":"4","last_reported":1744827250,"current_range_meters":21600,"station_id":"ce4bhgp2rcd13ifvqfc0","pricing_plan_id":"cebpf4jnsgd1na2vs0mg"},{"bike_id":"41fb0398-f2fe-4abb-ae37-a38f47615ea9","system_id":"levelo_inurba_marseille","lat":43.323515,"lon":5.367606,"is_reserved":false,"is_disabled":false,"rental_uris":{"android":"levelo://app?vid=41fb0398-f2fe-4abb-ae37-a38f47615ea9","ios":"levelo://app?vid=41fb0398-f2fe-4abb-ae37-a38f47615ea9"},"vehicle_type_id":"4","last_reported":1744827250,"current_range_meters":21600,"station_id":"ce4bhsh2rcd13ifvqi2g","pricing_plan_id":"cebpf4jnsgd1na2vs0mg"},{"bike_id":"935d17b3-9c9b-444a-9545-20f784e1180f","system_id":"levelo_inurba_marseille","lat":43.29966,"lon":5.3852,"is_reserved":false,"is_disabled":false,"rental_uris":{"android":"levelo://app?vid=935d17b3-9c9b-444a-9545-20f784e1180f","ios":"levelo://app?vid=935d17b3-9c9b-444a-9545-20f784e1180f"},"vehicle_type_id":"4","last_reported":1744827250,"current_range_meters":21600,"station_id":"ce4bgj92rcd13ifvqbd0","pricing_plan_id":"cebpf4jnsgd1na2vs0mg"},{"bike_id":"04fb422e-0aec-4205-8e11-f392462c55c3","system_id":"levelo_inurba_marseille","lat":43.2681,"lon":5.40266,"is_reserved":false,"is_disabled":false,"rental_uris":{"android":"levelo://app?vid=04fb422e-0aec-4205-8e11-f392462c55c3","ios":"levelo://app?vid=04fb422e-0aec-4205-8e11-f392462c55c3"},"vehicle_type_id":"4","last_reported":1744827250,"current_range_meters":21600,"station_id":"ce501612rcd8frsf0b60","pricing_plan_id":"cebpf4jnsgd1na2vs0mg"},{"bike_id":"af5ab469-125d-47b7-99dc-abc7dbc4fdbf","system_id":"levelo_inurba_marseille","lat":43.30893,"lon":5.37207,"is_reserved":false,"is_disabled":false,"rental_uris":{"android":"levelo://app?vid=af5ab469-125d-47b7-99dc-abc7dbc4fdbf","ios":"levelo://app?vid=af5ab469-125d-47b7-99dc-abc7dbc4fdbf"},"vehicle_type_id":"4","last_reported":1744827250,"current_range_meters":20800,"station_id":"ce4bguh2rcd13ifvqckg","pricing_plan_id":"cebpf4jnsgd1na2vs0mg"},{"bike_id":"ede405a2-552d-4b2a-9a5a-be65a7a28193","system_id":"levelo_inurba_marseille","lat":43.29418,"lon":5.38624,"is_reserved":false,"is_disabled":false,"rental_uris":{"android":"levelo://app?vid=ede405a2-552d-4b2a-9a5a-be65a7a28193","ios":"levelo://app?vid=ede405a2-552d-4b2a-9a5a-be65a7a28193"},"vehicle_type_id":"4","last_reported":1744827250,"current_range_meters":21600,"station_id":"ce4bh2h2rcd13ifvqdh0","pricing_plan_id":"cebpf4jnsgd1na2vs0mg"},{"bike_id":"0b095d6c-18e9-4183-a3c8-f659c6a6352b","system_id":"levelo_inurba_marseille","lat":43.29312,"lon":5.37169,"is_reserved":false,"is_disabled":false,"rental_uris":{"android":"levelo://app?vid=0b095d6c-18e9-4183-a3c8-f659c6a6352b","ios":"levelo://app?vid=0b095d6c-18e9-4183-a3c8-f659c6a6352b"},"vehicle_type_id":"4","last_reported":1744827250,"current_range_meters":20800,"station_id":"ce4bgh92rcd13ifvqb40","pricing_plan_id":"cebpf4jnsgd1na2vs0mg"},{"bike_id":"6d35ab95-89a9-4a02-ab98-2baf528323e2","system_id":"levelo_inurba_marseille","lat":43.301316,"lon":5.386593,"is_reserved":false,"is_disabled":false,"rental_uris":{"android":"levelo://app?vid=6d35ab95-89a9-4a02-ab98-2baf528323e2","ios":"levelo://app?vid=6d35ab95-89a9-4a02-ab98-2baf528323e2"},"vehicle_type_id":"4","last_reported":1744827250,"current_range_meters":21600,"station_id":"ce4bghh2rcd13ifvqb60","pricing_plan_id":"cebpf4jnsgd1na2vs0mg"},{"bike_id":"f238119f-7b18-4c75-bd4e-58d65a904333","system_id":"levelo_inurba_marseille","lat":43.28946,"lon":5.36419,"is_reserved":false,"is_disabled":false,"rental_uris":{"android":"levelo://app?vid=f238119f-7b18-4c75-bd4e-58d65a904333","ios":"levelo://app?vid=f238119f-7b18-4c75-bd4e-58d65a904333"},"vehicle_type_id":"4","last_reported":1744827250,"current_range_meters":21600,"station_id":"ce4bhc92rcd13ifvqetg","pricing_plan_id":"cebpf4jnsgd1na2vs0mg"},{"bike_id":"708a2c46-009d-44c0-8363-20ad3b399370","system_id":"levelo_inurba_marseille","lat":43.29417,"lon":5.38634,"is_reserved":false,"is_disabled":false,"rental_uris":{"android":"levelo://app?vid=708a2c46-009d-44c0-8363-20ad3b399370","ios":"levelo://app?vid=708a2c46-009d-44c0-8363-20ad3b399370"},"vehicle_type_id":"4","last_reported":1744827250,"current_range_meters":22000,"station_id":"ce4bh2h2rcd13ifvqdh0","pricing_plan_id":"cebpf4jnsgd1na2vs0mg"},{"bike_id":"2e47be96-a7b1-4cf4-923a-c7711800fdaa","system_id":"levelo_inurba_marseille","lat":43.29303,"lon":5.36832,"is_reserved":false,"is_disabled":false,"rental_uris":{"android":"levelo://app?vid=2e47be96-a7b1-4cf4-923a-c7711800fdaa","ios":"levelo://app?vid=2e47be96-a7b1-4cf4-923a-c7711800fdaa"},"vehicle_type_id":"4","last_reported":1744827250,"current_range_meters":22000,"station_id":"ce4bhbp2rcd13ifvqesg","pricing_plan_id":"cebpf4jnsgd1na2vs0mg"},{"bike_id":"8934c9ff-b955-4903-b5d2-c595dc711b7c","system_id":"levelo_inurba_marseille","lat":43.295622,"lon":5.399622,"is_reserved":false,"is_disabled":true,"rental_uris":{"android":"levelo://app?vid=8934c9ff-b955-4903-b5d2-c595dc711b7c","ios":"levelo://app?vid=8934c9ff-b955-4903-b5d2-c595dc711b7c"},"vehicle_type_id":"4","last_reported":1744827250,"current_range_meters":22000,"station_id":"ce4bh312rcd13ifvqdj0","pricing_plan_id":"cebpf4jnsgd1na2vs0mg"},{"bike_id":"56c83066-bedb-497e-961f-9116130ef054","system_id":"levelo_inurba_marseille","lat":43.28157,"lon":5.42643,"is_reserved":false,"is_disabled":false,"rental_uris":{"android":"levelo://app?vid=56c83066-bedb-497e-961f-9116130ef054","ios":"levelo://app?vid=56c83066-bedb-497e-961f-9116130ef054"},"vehicle_type_id":"4","last_reported":1744827250,"current_range_meters":22000,"station_id":"ce4bhnh2rcd13ifvqgug","pricing_plan_id":"cebpf4jnsgd1na2vs0mg"},{"bike_id":"b1b66325-8304-4c70-97c9-1d73ebc6ca8a","system_id":"levelo_inurba_marseille","lat":43.31363,"lon":5.38495,"is_reserved":false,"is_disabled":false,"rental_uris":{"android":"levelo://app?vid=b1b66325-8304-4c70-97c9-1d73ebc6ca8a","ios":"levelo://app?vid=b1b66325-8304-4c70-97c9-1d73ebc6ca8a"},"vehicle_type_id":"4","last_reported":1744827250,"current_range_meters":22000,"station_id":"ce4bgt92rcd13ifvqcf0","pricing_plan_id":"cebpf4jnsgd1na2vs0mg"},{"bike_id":"60d18dc0-1189-418e-b779-37619e1d948a","system_id":"levelo_inurba_marseille","lat":43.24803,"lon":5.37457,"is_reserved":false,"is_disabled":false,"rental_uris":{"android":"levelo://app?vid=60d18dc0-1189-418e-b779-37619e1d948a","ios":"levelo://app?vid=60d18dc0-1189-418e-b779-37619e1d948a"},"vehicle_type_id":"4","last_reported":1744827250,"current_range_meters":22000,"station_id":"ce4bhgh2rcd13ifvqfb0","pricing_plan_id":"cebpf4jnsgd1na2vs0mg"},{"bike_id":"e6291780-ee81-4c44-9efc-20407e5a68fe","system_id":"levelo_inurba_marseille","lat":43.292579,"lon":5.384338,"is_reserved":false,"is_disabled":false,"rental_uris":{"android":"levelo://app?vid=e6291780-ee81-4c44-9efc-20407e5a68fe","ios":"levelo://app?vid=e6291780-ee81-4c44-9efc-20407e5a68fe"},"vehicle_type_id":"4","last_reported":1744827250,"current_range_meters":22000,"station_id":"ce4bh692rcd13ifvqea0","pricing_plan_id":"cebpf4jnsgd1na2vs0mg"},{"bike_id":"9b32d9b0-b425-4d34-812f-0c610ee31565","system_id":"levelo_inurba_marseille","lat":43.30229,"lon":5.39467,"is_reserved":false,"is_disabled":true,"rental_uris":{"android":"levelo://app?vid=9b32d9b0-b425-4d34-812f-0c610ee31565","ios":"levelo://app?vid=9b32d9b0-b425-4d34-812f-0c610ee31565"},"vehicle_type_id":"4","last_reported":1744827250,"current_range_meters":22400,"station_id":"ce4bh0p2rcd13ifvqd70","pricing_plan_id":"cebpf4jnsgd1na2vs0mg"},{"bike_id":"8727691d-d7d7-4132-a744-362aee7b3f6d","system_id":"levelo_inurba_marseille","lat":43.29533,"lon":5.38558,"is_reserved":false,"is_disabled":false,"rental_uris":{"android":"levelo://app?vid=8727691d-d7d7-4132-a744-362aee7b3f6d","ios":"levelo://app?vid=8727691d-d7d7-4132-a744-362aee7b3f6d"},"vehicle_type_id":"4","last_reported":1744827250,"current_range_meters":22400,"station_id":"ce4bgih2rcd13ifvqba0","pricing_plan_id":"cebpf4jnsgd1na2vs0mg"},{"bike_id":"fe7e67b0-aedd-4007-bd25-e598105cf82f","system_id":"levelo_inurba_marseille","lat":43.29691,"lon":5.37313,"is_reserved":false,"is_disabled":false,"rental_uris":{"android":"levelo://app?vid=fe7e67b0-aedd-4007-bd25-e598105cf82f","ios":"levelo://app?vid=fe7e67b0-aedd-4007-bd25-e598105cf82f"},"vehicle_type_id":"4","last_reported":1744827250,"current_range_meters":22000,"station_id":"ce4bgk12rcd13ifvqbj0","pricing_plan_id":"cebpf4jnsgd1na2vs0mg"},{"bike_id":"ad15f00b-a807-4908-ac98-bb90e71268db","system_id":"levelo_inurba_marseille","lat":43.2926,"lon":5.38444,"is_reserved":false,"is_disabled":false,"rental_uris":{"android":"levelo://app?vid=ad15f00b-a807-4908-ac98-bb90e71268db","ios":"levelo://app?vid=ad15f00b-a807-4908-ac98-bb90e71268db"},"vehicle_type_id":"4","last_reported":1744827250,"current_range_meters":22400,"station_id":"ce4bh692rcd13ifvqea0","pricing_plan_id":"cebpf4jnsgd1na2vs0mg"},{"bike_id":"9e5f04f2-2289-4e1e-aebc-5788b6e921c7","system_id":"levelo_inurba_marseille","lat":43.26567,"lon":5.39011,"is_reserved":false,"is_disabled":false,"rental_uris":{"android":"levelo://app?vid=9e5f04f2-2289-4e1e-aebc-5788b6e921c7","ios":"levelo://app?vid=9e5f04f2-2289-4e1e-aebc-5788b6e921c7"},"vehicle_type_id":"4","last_reported":1744827250,"current_range_meters":22400,"station_id":"ce4bhe12rcd13ifvqf30","pricing_plan_id":"cebpf4jnsgd1na2vs0mg"},{"bike_id":"4c58a7ae-f640-4be3-9eb5-89821d86dcb4","system_id":"levelo_inurba_marseille","lat":43.23144,"lon":5.43742,"is_reserved":false,"is_disabled":false,"rental_uris":{"android":"levelo://app?vid=4c58a7ae-f640-4be3-9eb5-89821d86dcb4","ios":"levelo://app?vid=4c58a7ae-f640-4be3-9eb5-89821d86dcb4"},"vehicle_type_id":"4","last_reported":1744827250,"current_range_meters":22400,"station_id":"ce4bhmp2rcd13ifvqgog","pricing_plan_id":"cebpf4jnsgd1na2vs0mg"},{"bike_id":"f666d0ab-23d1-4a22-8af2-3e01078165a1","system_id":"levelo_inurba_marseille","lat":43.292635,"lon":5.384385,"is_reserved":false,"is_disabled":false,"rental_uris":{"android":"levelo://app?vid=f666d0ab-23d1-4a22-8af2-3e01078165a1","ios":"levelo://app?vid=f666d0ab-23d1-4a22-8af2-3e01078165a1"},"vehicle_type_id":"4","last_reported":1744827250,"current_range_meters":22400,"station_id":"ce4bh692rcd13ifvqea0","pricing_plan_id":"cebpf4jnsgd1na2vs0mg"},{"bike_id":"7d96129c-869c-4482-9a4e-82531962c924","system_id":"levelo_inurba_marseille","lat":43.30432,"lon":5.38878,"is_reserved":false,"is_disabled":false,"rental_uris":{"android":"levelo://app?vid=7d96129c-869c-4482-9a4e-82531962c924","ios":"levelo://app?vid=7d96129c-869c-4482-9a4e-82531962c924"},"vehicle_type_id":"4","last_reported":1744827250,"current_range_meters":22400,"station_id":"ce4bgk12rcd13ifvqbi0","pricing_plan_id":"cebpf4jnsgd1na2vs0mg"},{"bike_id":"cc3f3f66-6b8d-4f9f-a735-bb0a53b5a2f5","system_id":"levelo_inurba_marseille","lat":43.29788,"lon":5.39344,"is_reserved":false,"is_disabled":false,"rental_uris":{"android":"levelo://app?vid=cc3f3f66-6b8d-4f9f-a735-bb0a53b5a2f5","ios":"levelo://app?vid=cc3f3f66-6b8d-4f9f-a735-bb0a53b5a2f5"},"vehicle_type_id":"4","last_reported":1744827250,"current_range_meters":22800,"station_id":"chh1huq6cuj3fo74tm60","pricing_plan_id":"cebpf4jnsgd1na2vs0mg"},{"bike_id":"606dc33e-792b-4b43-b316-cc539e2b133c","system_id":"levelo_inurba_marseille","lat":43.23149,"lon":5.43718,"is_reserved":false,"is_disabled":false,"rental_uris":{"android":"levelo://app?vid=606dc33e-792b-4b43-b316-cc539e2b133c","ios":"levelo://app?vid=606dc33e-792b-4b43-b316-cc539e2b133c"},"vehicle_type_id":"4","last_reported":1744827250,"current_range_meters":22400,"station_id":"ce4bhmp2rcd13ifvqgog","pricing_plan_id":"cebpf4jnsgd1na2vs0mg"},{"bike_id":"345f3b88-e34e-4d48-9f0c-6592661ae354","system_id":"levelo_inurba_marseille","lat":43.27955,"lon":5.41047,"is_reserved":false,"is_disabled":false,"rental_uris":{"android":"levelo://app?vid=345f3b88-e34e-4d48-9f0c-6592661ae354","ios":"levelo://app?vid=345f3b88-e34e-4d48-9f0c-6592661ae354"},"vehicle_type_id":"4","last_reported":1744827250,"current_range_meters":22800,"station_id":"ce4bhnp2rcd13ifvqh0g","pricing_plan_id":"cebpf4jnsgd1na2vs0mg"},{"bike_id":"789c3822-56ca-4769-bcd4-8845bdea2fda","system_id":"levelo_inurba_marseille","lat":43.2416,"lon":5.36393,"is_reserved":false,"is_disabled":false,"rental_uris":{"android":"levelo://app?vid=789c3822-56ca-4769-bcd4-8845bdea2fda","ios":"levelo://app?vid=789c3822-56ca-4769-bcd4-8845bdea2fda"},"vehicle_type_id":"4","last_reported":1744827250,"current_range_meters":22800,"station_id":"cpo36qri1sfpv3e86is0","pricing_plan_id":"cebpf4jnsgd1na2vs0mg"},{"bike_id":"e87bddf1-d196-4a84-89fa-da3897b97027","system_id":"levelo_inurba_marseille","lat":43.29261,"lon":5.38446,"is_reserved":false,"is_disabled":false,"rental_uris":{"android":"levelo://app?vid=e87bddf1-d196-4a84-89fa-da3897b97027","ios":"levelo://app?vid=e87bddf1-d196-4a84-89fa-da3897b97027"},"vehicle_type_id":"4","last_reported":1744827250,"current_range_meters":22800,"station_id":"ce4bh692rcd13ifvqea0","pricing_plan_id":"cebpf4jnsgd1na2vs0mg"},{"bike_id":"e25d54ea-54a3-4a0b-80c6-c419f32ceb04","system_id":"levelo_inurba_marseille","lat":43.30799,"lon":5.38175,"is_reserved":false,"is_disabled":false,"rental_uris":{"android":"levelo://app?vid=e25d54ea-54a3-4a0b-80c6-c419f32ceb04","ios":"levelo://app?vid=e25d54ea-54a3-4a0b-80c6-c419f32ceb04"},"vehicle_type_id":"4","last_reported":1744827250,"current_range_meters":22800,"station_id":"ce4bgt12rcd13ifvqce0","pricing_plan_id":"cebpf4jnsgd1na2vs0mg"},{"bike_id":"167163f7-3cb8-4582-a946-057cadef0672","system_id":"levelo_inurba_marseille","lat":43.29238,"lon":5.40906,"is_reserved":false,"is_disabled":false,"rental_uris":{"android":"levelo://app?vid=167163f7-3cb8-4582-a946-057cadef0672","ios":"levelo://app?vid=167163f7-3cb8-4582-a946-057cadef0672"},"vehicle_type_id":"4","last_reported":1744827250,"current_range_meters":22800,"station_id":"ce4bh192rcd13ifvqdc0","pricing_plan_id":"cebpf4jnsgd1na2vs0mg"},{"bike_id":"b0b21eda-28c9-44b9-9cd1-635197a25de4","system_id":"levelo_inurba_marseille","lat":43.28861,"lon":5.35895,"is_reserved":false,"is_disabled":false,"rental_uris":{"android":"levelo://app?vid=b0b21eda-28c9-44b9-9cd1-635197a25de4","ios":"levelo://app?vid=b0b21eda-28c9-44b9-9cd1-635197a25de4"},"vehicle_type_id":"4","last_reported":1744827250,"current_range_meters":22800,"station_id":"ce4bhb12rcd13ifvqem0","pricing_plan_id":"cebpf4jnsgd1na2vs0mg"},{"bike_id":"2d94ed43-5644-4e24-a254-01c8094a35f0","system_id":"levelo_inurba_marseille","lat":43.270665,"lon":5.402673,"is_reserved":false,"is_disabled":false,"rental_uris":{"android":"levelo://app?vid=2d94ed43-5644-4e24-a254-01c8094a35f0","ios":"levelo://app?vid=2d94ed43-5644-4e24-a254-01c8094a35f0"},"vehicle_type_id":"4","last_reported":1744827250,"current_range_meters":22800,"station_id":"ce4bhk92rcd13ifvqgc0","pricing_plan_id":"cebpf4jnsgd1na2vs0mg"},{"bike_id":"1b263597-29f0-4b24-99a3-286dac148e19","system_id":"levelo_inurba_marseille","lat":43.29632,"lon":5.40606,"is_reserved":false,"is_disabled":false,"rental_uris":{"android":"levelo://app?vid=1b263597-29f0-4b24-99a3-286dac148e19","ios":"levelo://app?vid=1b263597-29f0-4b24-99a3-286dac148e19"},"vehicle_type_id":"4","last_reported":1744827250,"current_range_meters":22400,"station_id":"ce4bh0h2rcd13ifvqd60","pricing_plan_id":"cebpf4jnsgd1na2vs0mg"},{"bike_id":"bf719354-3a0f-4a08-a3dc-ea01891f96a8","system_id":"levelo_inurba_marseille","lat":43.29271,"lon":5.38428,"is_reserved":false,"is_disabled":true,"rental_uris":{"android":"levelo://app?vid=bf719354-3a0f-4a08-a3dc-ea01891f96a8","ios":"levelo://app?vid=bf719354-3a0f-4a08-a3dc-ea01891f96a8"},"vehicle_type_id":"4","last_reported":1744827250,"current_range_meters":22800,"station_id":"ce4bh692rcd13ifvqea0","pricing_plan_id":"cebpf4jnsgd1na2vs0mg"},{"bike_id":"7eb8853e-3665-40f5-8308-1299f0674652","system_id":"levelo_inurba_marseille","lat":43.30415,"lon":5.42485,"is_reserved":false,"is_disabled":false,"rental_uris":{"android":"levelo://app?vid=7eb8853e-3665-40f5-8308-1299f0674652","ios":"levelo://app?vid=7eb8853e-3665-40f5-8308-1299f0674652"},"vehicle_type_id":"4","last_reported":1744827250,"current_range_meters":22800,"station_id":"ce4bghh2rcd13ifvqb60","pricing_plan_id":"cebpf4jnsgd1na2vs0mg"},{"bike_id":"bc140d56-5426-4329-8de2-925ded4c3ae5","system_id":"levelo_inurba_marseille","lat":43.30553,"lon":5.36706,"is_reserved":false,"is_disabled":false,"rental_uris":{"android":"levelo://app?vid=bc140d56-5426-4329-8de2-925ded4c3ae5","ios":"levelo://app?vid=bc140d56-5426-4329-8de2-925ded4c3ae5"},"vehicle_type_id":"4","last_reported":1744827250,"current_range_meters":22800,"station_id":"ce4bgrp2rcd13ifvqc9g","pricing_plan_id":"cebpf4jnsgd1na2vs0mg"},{"bike_id":"042827cb-15a7-4f74-bf1c-c066e88727a3","system_id":"levelo_inurba_marseille","lat":43.2892,"lon":5.38427,"is_reserved":false,"is_disabled":false,"rental_uris":{"android":"levelo://app?vid=042827cb-15a7-4f74-bf1c-c066e88727a3","ios":"levelo://app?vid=042827cb-15a7-4f74-bf1c-c066e88727a3"},"vehicle_type_id":"4","last_reported":1744827250,"current_range_meters":22800,"station_id":"ce4bh612rcd13ifvqe6g","pricing_plan_id":"cebpf4jnsgd1na2vs0mg"},{"bike_id":"5e6be620-a3d0-49c3-9ff0-b85332cde817","system_id":"levelo_inurba_marseille","lat":43.23189,"lon":5.35549,"is_reserved":false,"is_disabled":false,"rental_uris":{"android":"levelo://app?vid=5e6be620-a3d0-49c3-9ff0-b85332cde817","ios":"levelo://app?vid=5e6be620-a3d0-49c3-9ff0-b85332cde817"},"vehicle_type_id":"4","last_reported":1744827250,"current_range_meters":22800,"station_id":"ce4bhu92rcd13ifvqi70","pricing_plan_id":"cebpf4jnsgd1na2vs0mg"},{"bike_id":"fd6bc4e8-b29f-42f3-91cd-67a1d91128b7","system_id":"levelo_inurba_marseille","lat":43.29284,"lon":5.38471,"is_reserved":false,"is_disabled":false,"rental_uris":{"android":"levelo://app?vid=fd6bc4e8-b29f-42f3-91cd-67a1d91128b7","ios":"levelo://app?vid=fd6bc4e8-b29f-42f3-91cd-67a1d91128b7"},"vehicle_type_id":"4","last_reported":1744827250,"current_range_meters":22800,"station_id":"ce4bh692rcd13ifvqea0","pricing_plan_id":"cebpf4jnsgd1na2vs0mg"},{"bike_id":"1c942854-14db-4279-b065-e661b548e85d","system_id":"levelo_inurba_marseille","lat":43.299033,"lon":5.381547,"is_reserved":false,"is_disabled":false,"rental_uris":{"android":"levelo://app?vid=1c942854-14db-4279-b065-e661b548e85d","ios":"levelo://app?vid=1c942854-14db-4279-b065-e661b548e85d"},"vehicle_type_id":"4","last_reported":1744827250,"current_range_meters":22800,"station_id":"ce4bgj12rcd13ifvqbc0","pricing_plan_id":"cebpf4jnsgd1na2vs0mg"},{"bike_id":"20338809-6e1c-46fd-ae64-bd59b7d6f491","system_id":"levelo_inurba_marseille","lat":43.31697,"lon":5.40463,"is_reserved":false,"is_disabled":false,"rental_uris":{"android":"levelo://app?vid=20338809-6e1c-46fd-ae64-bd59b7d6f491","ios":"levelo://app?vid=20338809-6e1c-46fd-ae64-bd59b7d6f491"},"vehicle_type_id":"4","last_reported":1744827250,"current_range_meters":23200,"station_id":"ce4bh012rcd13ifvqd00","pricing_plan_id":"cebpf4jnsgd1na2vs0mg"},{"bike_id":"f903c897-854d-42ed-934f-18bbd95ce789","system_id":"levelo_inurba_marseille","lat":43.3125,"lon":5.36672,"is_reserved":false,"is_disabled":false,"rental_uris":{"android":"levelo://app?vid=f903c897-854d-42ed-934f-18bbd95ce789","ios":"levelo://app?vid=f903c897-854d-42ed-934f-18bbd95ce789"},"vehicle_type_id":"4","last_reported":1744827250,"current_range_meters":23200,"station_id":"","pricing_plan_id":"cebpf4jnsgd1na2vs0mg"},{"bike_id":"70b3d176-6abc-47f0-8503-6f9187d3b416","system_id":"levelo_inurba_marseille","lat":43.23178,"lon":5.39985,"is_reserved":false,"is_disabled":false,"rental_uris":{"android":"levelo://app?vid=70b3d176-6abc-47f0-8503-6f9187d3b416","ios":"levelo://app?vid=70b3d176-6abc-47f0-8503-6f9187d3b416"},"vehicle_type_id":"4","last_reported":1744827250,"current_range_meters":22800,"station_id":"ce4bhn12rcd13ifvqgqg","pricing_plan_id":"cebpf4jnsgd1na2vs0mg"},{"bike_id":"6838d784-a3b8-4e4f-95eb-1c166a6d3af1","system_id":"levelo_inurba_marseille","lat":43.30139,"lon":5.39886,"is_reserved":false,"is_disabled":false,"rental_uris":{"android":"levelo://app?vid=6838d784-a3b8-4e4f-95eb-1c166a6d3af1","ios":"levelo://app?vid=6838d784-a3b8-4e4f-95eb-1c166a6d3af1"},"vehicle_type_id":"4","last_reported":1744827250,"current_range_meters":23200,"station_id":"ce4bh0h2rcd13ifvqd40","pricing_plan_id":"cebpf4jnsgd1na2vs0mg"},{"bike_id":"7ed91d22-3d5b-4254-83bf-64eb2a7d5481","system_id":"levelo_inurba_marseille","lat":43.22501,"lon":5.34777,"is_reserved":false,"is_disabled":false,"rental_uris":{"android":"levelo://app?vid=7ed91d22-3d5b-4254-83bf-64eb2a7d5481","ios":"levelo://app?vid=7ed91d22-3d5b-4254-83bf-64eb2a7d5481"},"vehicle_type_id":"4","last_reported":1744827250,"current_range_meters":23200,"station_id":"","pricing_plan_id":"cebpf4jnsgd1na2vs0mg"},{"bike_id":"5c50ae30-5f77-4243-86fb-00e2d7606f9b","system_id":"levelo_inurba_marseille","lat":43.297993,"lon":5.380853,"is_reserved":false,"is_disabled":false,"rental_uris":{"android":"levelo://app?vid=5c50ae30-5f77-4243-86fb-00e2d7606f9b","ios":"levelo://app?vid=5c50ae30-5f77-4243-86fb-00e2d7606f9b"},"vehicle_type_id":"4","last_reported":1744827250,"current_range_meters":23200,"station_id":"ce4bgip2rcd13ifvqbb0","pricing_plan_id":"cebpf4jnsgd1na2vs0mg"},{"bike_id":"06302e93-0716-4ac6-ae12-cd2bf4e84f04","system_id":"levelo_inurba_marseille","lat":43.3043,"lon":5.38891,"is_reserved":false,"is_disabled":false,"rental_uris":{"android":"levelo://app?vid=06302e93-0716-4ac6-ae12-cd2bf4e84f04","ios":"levelo://app?vid=06302e93-0716-4ac6-ae12-cd2bf4e84f04"},"vehicle_type_id":"4","last_reported":1744827250,"current_range_meters":23200,"station_id":"ce4bgk12rcd13ifvqbi0","pricing_plan_id":"cebpf4jnsgd1na2vs0mg"},{"bike_id":"c9288a2f-8f21-4bc2-a4ca-a43481e439bc","system_id":"levelo_inurba_marseille","lat":43.286198,"lon":5.351038,"is_reserved":false,"is_disabled":false,"rental_uris":{"android":"levelo://app?vid=c9288a2f-8f21-4bc2-a4ca-a43481e439bc","ios":"levelo://app?vid=c9288a2f-8f21-4bc2-a4ca-a43481e439bc"},"vehicle_type_id":"4","last_reported":1744827250,"current_range_meters":23200,"station_id":"ce4bhch2rcd13ifvqeug","pricing_plan_id":"cebpf4jnsgd1na2vs0mg"},{"bike_id":"bfc0f2bb-f1f4-4fed-b9af-c547a21d1d5d","system_id":"levelo_inurba_marseille","lat":43.28611,"lon":5.35109,"is_reserved":false,"is_disabled":false,"rental_uris":{"android":"levelo://app?vid=bfc0f2bb-f1f4-4fed-b9af-c547a21d1d5d","ios":"levelo://app?vid=bfc0f2bb-f1f4-4fed-b9af-c547a21d1d5d"},"vehicle_type_id":"4","last_reported":1744827250,"current_range_meters":23200,"station_id":"ce4bhch2rcd13ifvqeug","pricing_plan_id":"cebpf4jnsgd1na2vs0mg"},{"bike_id":"33efbe4e-e642-4271-be29-4926b421ca5b","system_id":"levelo_inurba_marseille","lat":43.24166,"lon":5.36408,"is_reserved":false,"is_disabled":false,"rental_uris":{"android":"levelo://app?vid=33efbe4e-e642-4271-be29-4926b421ca5b","ios":"levelo://app?vid=33efbe4e-e642-4271-be29-4926b421ca5b"},"vehicle_type_id":"4","last_reported":1744827250,"current_range_meters":23200,"station_id":"cpo36qri1sfpv3e86is0","pricing_plan_id":"cebpf4jnsgd1na2vs0mg"},{"bike_id":"bf1cb422-7922-468f-9a93-27128fbf419e","system_id":"levelo_inurba_marseille","lat":43.29417,"lon":5.38631,"is_reserved":false,"is_disabled":false,"rental_uris":{"android":"levelo://app?vid=bf1cb422-7922-468f-9a93-27128fbf419e","ios":"levelo://app?vid=bf1cb422-7922-468f-9a93-27128fbf419e"},"vehicle_type_id":"4","last_reported":1744827250,"current_range_meters":23200,"station_id":"ce4bh2h2rcd13ifvqdh0","pricing_plan_id":"cebpf4jnsgd1na2vs0mg"},{"bike_id":"49a87361-9ebc-4490-9a48-8fc25920bffa","system_id":"levelo_inurba_marseille","lat":43.29417,"lon":5.38629,"is_reserved":false,"is_disabled":false,"rental_uris":{"android":"levelo://app?vid=49a87361-9ebc-4490-9a48-8fc25920bffa","ios":"levelo://app?vid=49a87361-9ebc-4490-9a48-8fc25920bffa"},"vehicle_type_id":"4","last_reported":1744827250,"current_range_meters":24000,"station_id":"ce4bh2h2rcd13ifvqdh0","pricing_plan_id":"cebpf4jnsgd1na2vs0mg"},{"bike_id":"cc02cdb7-d6dd-4713-8b60-0ed1220619e4","system_id":"levelo_inurba_marseille","lat":43.293,"lon":5.37465,"is_reserved":false,"is_disabled":true,"rental_uris":{"android":"levelo://app?vid=cc02cdb7-d6dd-4713-8b60-0ed1220619e4","ios":"levelo://app?vid=cc02cdb7-d6dd-4713-8b60-0ed1220619e4"},"vehicle_type_id":"4","last_reported":1744827250,"current_range_meters":24000,"station_id":"ce4bgi12rcd13ifvqb70","pricing_plan_id":"cebpf4jnsgd1na2vs0mg"},{"bike_id":"70e4bfc6-93c5-49fe-9a9f-edb08cfffd36","system_id":"levelo_inurba_marseille","lat":43.30123,"lon":5.3987,"is_reserved":false,"is_disabled":false,"rental_uris":{"android":"levelo://app?vid=70e4bfc6-93c5-49fe-9a9f-edb08cfffd36","ios":"levelo://app?vid=70e4bfc6-93c5-49fe-9a9f-edb08cfffd36"},"vehicle_type_id":"4","last_reported":1744827250,"current_range_meters":23200,"station_id":"ce4bh0h2rcd13ifvqd40","pricing_plan_id":"cebpf4jnsgd1na2vs0mg"},{"bike_id":"68342d9f-f0b6-47e7-b690-b27078e67a77","system_id":"levelo_inurba_marseille","lat":43.24167,"lon":5.36421,"is_reserved":false,"is_disabled":false,"rental_uris":{"android":"levelo://app?vid=68342d9f-f0b6-47e7-b690-b27078e67a77","ios":"levelo://app?vid=68342d9f-f0b6-47e7-b690-b27078e67a77"},"vehicle_type_id":"4","last_reported":1744827250,"current_range_meters":24000,"station_id":"cpo36qri1sfpv3e86is0","pricing_plan_id":"cebpf4jnsgd1na2vs0mg"},{"bike_id":"2a3df68e-728a-4b9c-bbc2-4259a4448e26","system_id":"levelo_inurba_marseille","lat":43.28002,"lon":5.40044,"is_reserved":false,"is_disabled":false,"rental_uris":{"android":"levelo://app?vid=2a3df68e-728a-4b9c-bbc2-4259a4448e26","ios":"levelo://app?vid=2a3df68e-728a-4b9c-bbc2-4259a4448e26"},"vehicle_type_id":"4","last_reported":1744827250,"current_range_meters":24000,"station_id":"ce4bho92rcd13ifvqh4g","pricing_plan_id":"cebpf4jnsgd1na2vs0mg"},{"bike_id":"ec5c28e1-de55-4508-b9d5-2107688d9327","system_id":"levelo_inurba_marseille","lat":43.30594,"lon":5.39359,"is_reserved":false,"is_disabled":false,"rental_uris":{"android":"levelo://app?vid=ec5c28e1-de55-4508-b9d5-2107688d9327","ios":"levelo://app?vid=ec5c28e1-de55-4508-b9d5-2107688d9327"},"vehicle_type_id":"4","last_reported":1744827250,"current_range_meters":24000,"station_id":"ce4bh0p2rcd13ifvqd80","pricing_plan_id":"cebpf4jnsgd1na2vs0mg"},{"bike_id":"71740cb8-b418-49dd-8bcf-5e923913de05","system_id":"levelo_inurba_marseille","lat":43.27422,"lon":5.39416,"is_reserved":false,"is_disabled":false,"rental_uris":{"android":"levelo://app?vid=71740cb8-b418-49dd-8bcf-5e923913de05","ios":"levelo://app?vid=71740cb8-b418-49dd-8bcf-5e923913de05"},"vehicle_type_id":"4","last_reported":1744827250,"current_range_meters":24000,"station_id":"ce4bhdp2rcd13ifvqf20","pricing_plan_id":"cebpf4jnsgd1na2vs0mg"},