{"last_updated":1759223450,"ttl":60,"version":"2.2","data":{"bikes":[{"bike_id":"cefaa9ca-8082-4e29-90cb-e668cd650dfc","system_id":"levelo_inurba_marseille","lat":43.24166,"lon":5.39733,"is_reserved":false,"is_disabled":false,"rental_uris":{"android":"levelo://app?vid=cefaa9ca-8082-4e29-90cb-e668cd650dfc","ios":"levelo://app?vid=cefaa9ca-8082-4e29-90cb-e668cd650dfc"},"vehicle_type_id":"4","last_reported":1759223451,"current_range_meters":2800,"station_id":"ce4bhn12rcd13ifvqgpg","pricing_plan_id":"cebpf4jnsgd1na2vs0mg"},{"bike_id":"eeefb97c-22ab-4c5d-b926-d18fad93e2b0","system_id":"levelo_inurba_marseille","lat":43.28938,"lon":5.36401,"is_reserved":false,"is_disabled":false,"rental_uris":{"android":"levelo://app?vid=eeefb97c-22ab-4c5d-b926-d18fad93e2b0","ios":"levelo://app?vid=eeefb97c-22ab-4c5d-b926-d18fad93e2b0"},"vehicle_type_id":"4","last_reported":1759223451,"current_range_meters":2800,"station_id":"ce4bhc92rcd13ifvqetg","pricing_plan_id":"cebpf4jnsgd1na2vs0mg"},{"bike_id":"055f3cab-4336-4319-8857-6613986fc470","system_id":"levelo_inurba_marseille","lat":43.23515,"lon":5.43619,"is_reserved":false,"is_disabled":false,"rental_uris":{"android":"levelo://app?vid=055f3cab-4336-4319-8857-6613986fc470","ios":"levelo://app?vid=055f3cab-4336-4319-8857-6613986fc470"},"vehicle_type_id":"4","last_reported":1759223451,"current_range_meters":3200,"station_id":"","pricing_plan_id":"cebpf4jnsgd1na2vs0mg"},{"bike_id":"95f02cd1-b0cf-4e3d-8708-b9107583e9a0","system_id":"levelo_inurba_marseille","lat":43.27494,"lon":5.42463,"is_reserved":false,"is_disabled":true,"rental_uris":{"android":"levelo://app?vid=95f02cd1-b0cf-4e3d-8708-b9107583e9a0","ios":"levelo://app?vid=95f02cd1-b0cf-4e3d-8708-b9107583e9a0"},"vehicle_type_id":"4","last_reported":1759223451,"current_range_meters":3200,"station_id":"ce4bhn92rcd13ifvqgrg","pricing_plan_id":"cebpf4jnsgd1na2vs0mg"},{"bike_id":"60ea49ef-1778-4e14-92a6-fcec8012a936","system_id":"levelo_inurba_marseille","lat":43.31318,"lon":5.36808,"is_reserved":false,"is_disabled":false,"rental_uris":{"android":"levelo://app?vid=60ea49ef-1778-4e14-92a6-fcec8012a936","ios":"levelo://app?vid=60ea49ef-1778-4e14-92a6-fcec8012a936"},"vehicle_type_id":"4","last_reported":1759223451,"current_range_meters":3600,"station_id":"","pricing_plan_id":"cebpf4jnsgd1na2vs0mg"},{"bike_id":"fb8f4118-53b4-4e63-9954-e9cb154b75ff","system_id":"levelo_inurba_marseille","lat":43.32538,"lon":5.41424,"is_reserved":false,"is_disabled":false,"rental_uris":{"android":"levelo://app?vid=fb8f4118-53b4-4e63-9954-e9cb154b75ff","ios":"levelo://app?vid=fb8f4118-53b4-4e63-9954-e9cb154b75ff"},"vehicle_type_id":"4","last_reported":1759223451,"current_range_meters":3600,"station_id":"ce4bhq12rcd13ifvqhhg","pricing_plan_id":"cebpf4jnsgd1na2vs0mg"},{"bike_id":"fc1a3aeb-51f5-4191-9c7c-78076c9c164c","system_id":"levelo_inurba_marseille","lat":43.30935,"lon":5.40144,"is_reserved":false,"is_disabled":false,"rental_uris":{"android":"levelo://app?vid=fc1a3aeb-51f5-4191-9c7c-78076c9c164c","ios":"levelo://app?vid=fc1a3aeb-51f5-4191-9c7c-78076c9c164c"},"vehicle_type_id":"4","last_reported":1759223451,"current_range_meters":3600,"station_id":"ce4bgvp2rcd13ifvqct0","pricing_plan_id":"cebpf4jnsgd1na2vs0mg"},{"bike_id":"be7dae0d-94d7-4a0d-89d8-07c528e32b57","system_id":"levelo_inurba_marseille","lat":43.32588,"lon":5.39068,"is_reserved":false,"is_disabled":false,"rental_uris":{"android":"levelo://app?vid=be7dae0d-94d7-4a0d-89d8-07c528e32b57","ios":"levelo://app?vid=be7dae0d-94d7-4a0d-89d8-07c528e32b57"},"vehicle_type_id":"4","last_reported":1759223451,"current_range_meters":3600,"station_id":"","pricing_plan_id":"cebpf4jnsgd1na2vs0mg"},{"bike_id":"8c045487-ac04-4403-9aaf-ed3d3cc7280f","system_id":"levelo_inurba_marseille","lat":43.28601,"lon":5.37067,"is_reserved":false,"is_disabled":false,"rental_uris":{"android":"levelo://app?vid=8c045487-ac04-4403-9aaf-ed3d3cc7280f","ios":"levelo://app?vid=8c045487-ac04-4403-9aaf-ed3d3cc7280f"},"vehicle_type_id":"4","last_reported":1759223451,"current_range_meters":3600,"station_id":"ce4bht12rcd13ifvqi60","pricing_plan_id":"cebpf4jnsgd1na2vs0mg"},{"bike_id":"c9221b58-0637-444d-b483-96e3eb9cd931","system_id":"levelo_inurba_marseille","lat":43.29853,"lon":5.3628,"is_reserved":false,"is_disabled":false,"rental_uris":{"android":"levelo://app?vid=c9221b58-0637-444d-b483-96e3eb9cd931","ios":"levelo://app?vid=c9221b58-0637-444d-b483-96e3eb9cd931"},"vehicle_type_id":"4","last_reported":1759223451,"current_range_meters":4000,"station_id":"ce4bgpp2rcd13ifvqc3g","pricing_plan_id":"cebpf4jnsgd1na2vs0mg"},{"bike_id":"8a4a8404-2223-404b-b9d6-fda388efd3eb","system_id":"levelo_inurba_marseille","lat":43.225399,"lon":5.348524,"is_reserved":false,"is_disabled":false,"rental_uris":{"android":"levelo://app?vid=8a4a8404-2223-404b-b9d6-fda388efd3eb","ios":"levelo://app?vid=8a4a8404-2223-404b-b9d6-fda388efd3eb"},"vehicle_type_id":"4","last_reported":1759223451,"current_range_meters":4000,"station_id":"","pricing_plan_id":"cebpf4jnsgd1na2vs0mg"},{"bike_id":"258ab053-1083-4ca9-a32a-1e85f085fc22","system_id":"levelo_inurba_marseille","lat":43.337444,"lon":5.374475,"is_reserved":false,"is_disabled":false,"rental_uris":{"android":"levelo://app?vid=258ab053-1083-4ca9-a32a-1e85f085fc22","ios":"levelo://app?vid=258ab053-1083-4ca9-a32a-1e85f085fc22"},"vehicle_type_id":"4","last_reported":1759223451,"current_range_meters":4000,"station_id":"","pricing_plan_id":"cebpf4jnsgd1na2vs0mg"},{"bike_id":"aed8b153-a870-4a7f-88f1-087645bcedb0","system_id":"levelo_inurba_marseille","lat":43.29971,"lon":5.37181,"is_reserved":false,"is_disabled":false,"rental_uris":{"android":"levelo://app?vid=aed8b153-a870-4a7f-88f1-087645bcedb0","ios":"levelo://app?vid=aed8b153-a870-4a7f-88f1-087645bcedb0"},"vehicle_type_id":"4","last_reported":1759223451,"current_range_meters":4400,"station_id":"ce4bgr92rcd13ifvqc7g","pricing_plan_id":"cebpf4jnsgd1na2vs0mg"},{"bike_id":"8b353c9e-13c5-42ee-a76f-ccbd6269a3dc","system_id":"levelo_inurba_marseille","lat":43.30444,"lon":5.36689,"is_reserved":false,"is_disabled":false,"rental_uris":{"android":"levelo://app?vid=8b353c9e-13c5-42ee-a76f-ccbd6269a3dc","ios":"levelo://app?vid=8b353c9e-13c5-42ee-a76f-ccbd6269a3dc"},"vehicle_type_id":"4","last_reported":1759223451,"current_range_meters":4800,"station_id":"","pricing_plan_id":"cebpf4jnsgd1na2vs0mg"},{"bike_id":"8eba698c-1343-4776-a7ef-1194c9c853da","system_id":"levelo_inurba_marseille","lat":43.266,"lon":5.39346,"is_reserved":false,"is_disabled":false,"rental_uris":{"android":"levelo://app?vid=8eba698c-1343-4776-a7ef-1194c9c853da","ios":"levelo://app?vid=8eba698c-1343-4776-a7ef-1194c9c853da"},"vehicle_type_id":"4","last_reported":1759223451,"current_range_meters":4800,"station_id":"","pricing_plan_id":"cebpf4jnsgd1na2vs0mg"},{"bike_id":"ba04909b-0d7c-4892-b859-e0ca7e0fbb9f","system_id":"levelo_inurba_marseille","lat":43.27354,"lon":5.42407,"is_reserved":false,"is_disabled":false,"rental_uris":{"android":"levelo://app?vid=ba04909b-0d7c-4892-b859-e0ca7e0fbb9f","ios":"levelo://app?vid=ba04909b-0d7c-4892-b859-e0ca7e0fbb9f"},"vehicle_type_id":"4","last_reported":1759223451,"current_range_meters":4800,"station_id":"","pricing_plan_id":"cebpf4jnsgd1na2vs0mg"},{"bike_id":"e5c2f0de-112b-4cf6-9ba0-0eec9173244c","system_id":"levelo_inurba_marseille","lat":43.275655,"lon":5.384321,"is_reserved":false,"is_disabled":false,"rental_uris":{"android":"levelo://app?vid=e5c2f0de-112b-4cf6-9ba0-0eec9173244c","ios":"levelo://app?vid=e5c2f0de-112b-4cf6-9ba0-0eec9173244c"},"vehicle_type_id":"4","last_reported":1759223451,"current_range_meters":4800,"station_id":"ce4bhh92rcd13ifvqfi0","pricing_plan_id":"cebpf4jnsgd1na2vs0mg"},{"bike_id":"041e387e-5876-49d6-b077-830e7caba110","system_id":"levelo_inurba_marseille","lat":43.29069,"lon":5.37159,"is_reserved":false,"is_disabled":false,"rental_uris":{"android":"levelo://app?vid=041e387e-5876-49d6-b077-830e7caba110","ios":"levelo://app?vid=041e387e-5876-49d6-b077-830e7caba110"},"vehicle_type_id":"4","last_reported":1759223451,"current_range_meters":4400,"station_id":"ce4bh5p2rcd13ifvqe4g","pricing_plan_id":"cebpf4jnsgd1na2vs0mg"},{"bike_id":"1dad2113-89e2-44fc-a0b6-ddd6a09baff1","system_id":"levelo_inurba_marseille","lat":43.337444,"lon":5.374475,"is_reserved":false,"is_disabled":false,"rental_uris":{"android":"levelo://app?vid=1dad2113-89e2-44fc-a0b6-ddd6a09baff1","ios":"levelo://app?vid=1dad2113-89e2-44fc-a0b6-ddd6a09baff1"},"vehicle_type_id":"4","last_reported":1759223451,"current_range_meters":4800,"station_id":"","pricing_plan_id":"cebpf4jnsgd1na2vs0mg"},{"bike_id":"2c6518be-b3f0-42d2-93c9-c1de9e54885f","system_id":"levelo_inurba_marseille","lat":43.29227,"lon":5.38219,"is_reserved":false,"is_disabled":false,"rental_uris":{"android":"levelo://app?vid=2c6518be-b3f0-42d2-93c9-c1de9e54885f","ios":"levelo://app?vid=2c6518be-b3f0-42d2-93c9-c1de9e54885f"},"vehicle_type_id":"4","last_reported":1759223451,"current_range_meters":5600,"station_id":"","pricing_plan_id":"cebpf4jnsgd1na2vs0mg"},{"bike_id":"da0f26e9-0bdb-4063-b9f5-dcfb6728a88e","system_id":"levelo_inurba_marseille","lat":43.22925,"lon":5.35381,"is_reserved":false,"is_disabled":false,"rental_uris":{"android":"levelo://app?vid=da0f26e9-0bdb-4063-b9f5-dcfb6728a88e","ios":"levelo://app?vid=da0f26e9-0bdb-4063-b9f5-dcfb6728a88e"},"vehicle_type_id":"4","last_reported":1759223451,"current_range_meters":5600,"station_id":"cpo3532slgdg3j2ikp40","pricing_plan_id":"cebpf4jnsgd1na2vs0mg"},{"bike_id":"284f49ef-7182-45f3-989f-37a848b3ebcf","system_id":"levelo_inurba_marseille","lat":43.2319,"lon":5.35556,"is_reserved":false,"is_disabled":false,"rental_uris":{"android":"levelo://app?vid=284f49ef-7182-45f3-989f-37a848b3ebcf","ios":"levelo://app?vid=284f49ef-7182-45f3-989f-37a848b3ebcf"},"vehicle_type_id":"4","last_reported":1759223451,"current_range_meters":6000,"station_id":"ce4bhu92rcd13ifvqi70","pricing_plan_id":"cebpf4jnsgd1na2vs0mg"},{"bike_id":"ca660db5-13a2-4b17-89f6-c4a43f402701","system_id":"levelo_inurba_marseille","lat":43.3186,"lon":5.37053,"is_reserved":false,"is_disabled":false,"rental_uris":{"android":"levelo://app?vid=ca660db5-13a2-4b17-89f6-c4a43f402701","ios":"levelo://app?vid=ca660db5-13a2-4b17-89f6-c4a43f402701"},"vehicle_type_id":"4","last_reported":1759223451,"current_range_meters":6400,"station_id":"","pricing_plan_id":"cebpf4jnsgd1na2vs0mg"},{"bike_id":"511cc80f-04a6-4a9f-afdd-004129d93b1f","system_id":"levelo_inurba_marseille","lat":43.26587,"lon":5.39395,"is_reserved":false,"is_disabled":false,"rental_uris":{"android":"levelo://app?vid=511cc80f-04a6-4a9f-afdd-004129d93b1f","ios":"levelo://app?vid=511cc80f-04a6-4a9f-afdd-004129d93b1f"},"vehicle_type_id":"4","last_reported":1759223451,"current_range_meters":6400,"station_id":"","pricing_plan_id":"cebpf4jnsgd1na2vs0mg"},{"bike_id":"35e8f722-b82a-4247-beb8-7e2827829ce6","system_id":"levelo_inurba_marseille","lat":43.32405,"lon":5.3911,"is_reserved":false,"is_disabled":false,"rental_uris":{"android":"levelo://app?vid=35e8f722-b82a-4247-beb8-7e2827829ce6","ios":"levelo://app?vid=35e8f722-b82a-4247-beb8-7e2827829ce6"},"vehicle_type_id":"4","last_reported":1759223451,"current_range_meters":6400,"station_id":"","pricing_plan_id":"cebpf4jnsgd1na2vs0mg"},{"bike_id":"57ab683f-fa40-4c38-bd09-746a9049551e","system_id":"levelo_inurba_marseille","lat":43.265593,"lon":5.372937,"is_reserved":false,"is_disabled":false,"rental_uris":{"android":"levelo://app?vid=57ab683f-fa40-4c38-bd09-746a9049551e","ios":"levelo://app?vid=57ab683f-fa40-4c38-bd09-746a9049551e"},"vehicle_type_id":"4","last_reported":1759223451,"current_range_meters":6400,"station_id":"ce4bhg12rcd13ifvqf70","pricing_plan_id":"cebpf4jnsgd1na2vs0mg"},{"bike_id":"5bc86228-0944-4753-ac30-395123b40571","system_id":"levelo_inurba_marseille","lat":43.30946,"lon":5.39047,"is_reserved":false,"is_disabled":false,"rental_uris":{"android":"levelo://app?vid=5bc86228-0944-4753-ac30-395123b40571","ios":"levelo://app?vid=5bc86228-0944-4753-ac30-395123b40571"},"vehicle_type_id":"4","last_reported":1759223451,"current_range_meters":6400,"station_id":"ce4bgup2rcd13ifvqco0","pricing_plan_id":"cebpf4jnsgd1na2vs0mg"},{"bike_id":"e5378695-fba9-432a-9cfb-3b5b05e40fec","system_id":"levelo_inurba_marseille","lat":43.337986,"lon":5.374304,"is_reserved":false,"is_disabled":false,"rental_uris":{"android":"levelo://app?vid=e5378695-fba9-432a-9cfb-3b5b05e40fec","ios":"levelo://app?vid=e5378695-fba9-432a-9cfb-3b5b05e40fec"},"vehicle_type_id":"4","last_reported":1759223451,"current_range_meters":6400,"station_id":"","pricing_plan_id":"cebpf4jnsgd1na2vs0mg"},{"bike_id":"e8fb35b7-61ca-44c1-8df6-a9404d3f0211","system_id":"levelo_inurba_marseille","lat":43.29968,"lon":5.38493,"is_reserved":false,"is_disabled":false,"rental_uris":{"android":"levelo://app?vid=e8fb35b7-61ca-44c1-8df6-a9404d3f0211","ios":"levelo://app?vid=e8fb35b7-61ca-44c1-8df6-a9404d3f0211"},"vehicle_type_id":"4","last_reported":1759223451,"current_range_meters":6800,"station_id":"ce4bgj92rcd13ifvqbd0","pricing_plan_id":"cebpf4jnsgd1na2vs0mg"},{"bike_id":"9f1ca2df-fbf7-469b-a7a0-4bb672fb7994","system_id":"levelo_inurba_marseille","lat":43.29005,"lon":5.35599,"is_reserved":false,"is_disabled":false,"rental_uris":{"android":"levelo://app?vid=9f1ca2df-fbf7-469b-a7a0-4bb672fb7994","ios":"levelo://app?vid=9f1ca2df-fbf7-469b-a7a0-4bb672fb7994"},"vehicle_type_id":"4","last_reported":1759223451,"current_range_meters":7200,"station_id":"ce4bhb92rcd13ifvqen0","pricing_plan_id":"cebpf4jnsgd1na2vs0mg"},{"bike_id":"f078265d-7cb7-48ee-8d58-6c10ea332ec9","system_id":"levelo_inurba_marseille","lat":43.23155,"lon":5.43709,"is_reserved":false,"is_disabled":false,"rental_uris":{"android":"levelo://app?vid=f078265d-7cb7-48ee-8d58-6c10ea332ec9","ios":"levelo://app?vid=f078265d-7cb7-48ee-8d58-6c10ea332ec9"},"vehicle_type_id":"4","last_reported":1759223451,"current_range_meters":7200,"station_id":"ce4bhmp2rcd13ifvqgog","pricing_plan_id":"cebpf4jnsgd1na2vs0mg"},{"bike_id":"226a9167-bb30-49ab-9577-023520e0b56d","system_id":"levelo_inurba_marseille","lat":43.23204,"lon":5.35544,"is_reserved":false,"is_disabled":false,"rental_uris":{"android":"levelo://app?vid=226a9167-bb30-49ab-9577-023520e0b56d","ios":"levelo://app?vid=226a9167-bb30-49ab-9577-023520e0b56d"},"vehicle_type_id":"4","last_reported":1759223451,"current_range_meters":7200,"station_id":"ce4bhu92rcd13ifvqi70","pricing_plan_id":"cebpf4jnsgd1na2vs0mg"},{"bike_id":"7952d0c5-c3b4-4c29-bacd-f59ef155894d","system_id":"levelo_inurba_marseille","lat":43.30088,"lon":5.39106,"is_reserved":false,"is_disabled":false,"rental_uris":{"android":"levelo://app?vid=7952d0c5-c3b4-4c29-bacd-f59ef155894d","ios":"levelo://app?vid=7952d0c5-c3b4-4c29-bacd-f59ef155894d"},"vehicle_type_id":"4","last_reported":1759223451,"current_range_meters":7200,"station_id":"ce4bh192rcd13ifvqdb0","pricing_plan_id":"cebpf4jnsgd1na2vs0mg"},{"bike_id":"233e96dd-1d31-4184-bce7-4021619d8302","system_id":"levelo_inurba_marseille","lat":43.286998,"lon":5.399777,"is_reserved":false,"is_disabled":false,"rental_uris":{"android":"levelo://app?vid=233e96dd-1d31-4184-bce7-4021619d8302","ios":"levelo://app?vid=233e96dd-1d31-4184-bce7-4021619d8302"},"vehicle_type_id":"4","last_reported":1759223451,"current_range_meters":7200,"station_id":"ce4bho92rcd13ifvqh3g","pricing_plan_id":"cebpf4jnsgd1na2vs0mg"},{"bike_id":"e08cafa0-f44f-44dd-b61c-c8caa849ad4f","system_id":"levelo_inurba_marseille","lat":43.26937,"lon":5.38653,"is_reserved":false,"is_disabled":false,"rental_uris":{"android":"levelo://app?vid=e08cafa0-f44f-44dd-b61c-c8caa849ad4f","ios":"levelo://app?vid=e08cafa0-f44f-44dd-b61c-c8caa849ad4f"},"vehicle_type_id":"4","last_reported":1759223451,"current_range_meters":8000,"station_id":"ce4bhh92rcd13ifvqfh0","pricing_plan_id":"cebpf4jnsgd1na2vs0mg"},{"bike_id":"b17feaf8-f1f6-4569-a6fc-fc60277ff4ff","system_id":"levelo_inurba_marseille","lat":43.32354,"lon":5.36723,"is_reserved":false,"is_disabled":true,"rental_uris":{"android":"levelo://app?vid=b17feaf8-f1f6-4569-a6fc-fc60277ff4ff","ios":"levelo://app?vid=b17feaf8-f1f6-4569-a6fc-fc60277ff4ff"},"vehicle_type_id":"4","last_reported":1759223451,"current_range_meters":8000,"station_id":"ce4bhsh2rcd13ifvqi2g","pricing_plan_id":"cebpf4jnsgd1na2vs0mg"},{"bike_id":"80b98ce0-3233-47ce-84db-722943723d1e","system_id":"levelo_inurba_marseille","lat":43.269329,"lon":5.38928,"is_reserved":false,"is_disabled":false,"rental_uris":{"android":"levelo://app?vid=80b98ce0-3233-47ce-84db-722943723d1e","ios":"levelo://app?vid=80b98ce0-3233-47ce-84db-722943723d1e"},"vehicle_type_id":"4","last_reported":1759223451,"current_range_meters":8000,"station_id":"","pricing_plan_id":"cebpf4jnsgd1na2vs0mg"},{"bike_id":"ea59b303-6900-42ad-9e79-5b0f95bedd6c","system_id":"levelo_inurba_marseille","lat":43.30431,"lon":5.36859,"is_reserved":false,"is_disabled":false,"rental_uris":{"android":"levelo://app?vid=ea59b303-6900-42ad-9e79-5b0f95bedd6c","ios":"levelo://app?vid=ea59b303-6900-42ad-9e79-5b0f95bedd6c"},"vehicle_type_id":"4","last_reported":1759223451,"current_range_meters":8000,"station_id":"","pricing_plan_id":"cebpf4jnsgd1na2vs0mg"},{"bike_id":"03350417-1098-4d6c-b8fe-9e64358744bf","system_id":"levelo_inurba_marseille","lat":43.31134,"lon":5.37592,"is_reserved":false,"is_disabled":true,"rental_uris":{"android":"levelo://app?vid=03350417-1098-4d6c-b8fe-9e64358744bf","ios":"levelo://app?vid=03350417-1098-4d6c-b8fe-9e64358744bf"},"vehicle_type_id":"4","last_reported":1759223451,"current_range_meters":8000,"station_id":"","pricing_plan_id":"cebpf4jnsgd1na2vs0mg"},{"bike_id":"a908192e-eac4-4d04-9705-50594ed02f48","system_id":"levelo_inurba_marseille","lat":43.29361,"lon":5.37859,"is_reserved":false,"is_disabled":false,"rental_uris":{"android":"levelo://app?vid=a908192e-eac4-4d04-9705-50594ed02f48","ios":"levelo://app?vid=a908192e-eac4-4d04-9705-50594ed02f48"},"vehicle_type_id":"4","last_reported":1759223451,"current_range_meters":8000,"station_id":"ce4bgjh2rcd13ifvqbf0","pricing_plan_id":"cebpf4jnsgd1na2vs0mg"},{"bike_id":"370c339b-38e7-451f-ad88-72dee15f422d","system_id":"levelo_inurba_marseille","lat":43.34166,"lon":5.40889,"is_reserved":false,"is_disabled":false,"rental_uris":{"android":"levelo://app?vid=370c339b-38e7-451f-ad88-72dee15f422d","ios":"levelo://app?vid=370c339b-38e7-451f-ad88-72dee15f422d"},"vehicle_type_id":"4","last_reported":1759223451,"current_range_meters":8400,"station_id":"ce4bhqh2rcd13ifvqhlg","pricing_plan_id":"cebpf4jnsgd1na2vs0mg"},{"bike_id":"29fb0313-96d0-4699-a2b9-d9bfae768dba","system_id":"levelo_inurba_marseille","lat":43.2815,"lon":5.42651,"is_reserved":false,"is_disabled":true,"rental_uris":{"android":"levelo://app?vid=29fb0313-96d0-4699-a2b9-d9bfae768dba","ios":"levelo://app?vid=29fb0313-96d0-4699-a2b9-d9bfae768dba"},"vehicle_type_id":"4","last_reported":1759223451,"current_range_meters":8400,"station_id":"ce4bhnh2rcd13ifvqgug","pricing_plan_id":"cebpf4jnsgd1na2vs0mg"},{"bike_id":"008f00ef-5d91-4678-8543-b2d7f596f40f","system_id":"levelo_inurba_marseille","lat":43.31233,"lon":5.36908,"is_reserved":false,"is_disabled":false,"rental_uris":{"android":"levelo://app?vid=008f00ef-5d91-4678-8543-b2d7f596f40f","ios":"levelo://app?vid=008f00ef-5d91-4678-8543-b2d7f596f40f"},"vehicle_type_id":"4","last_reported":1759223451,"current_range_meters":8400,"station_id":"ce4bgl92rcd13ifvqbq0","pricing_plan_id":"cebpf4jnsgd1na2vs0mg"},{"bike_id":"ee96a502-9b76-492e-840a-498b02aefe72","system_id":"levelo_inurba_marseille","lat":43.32358,"lon":5.39224,"is_reserved":false,"is_disabled":false,"rental_uris":{"android":"levelo://app?vid=ee96a502-9b76-492e-840a-498b02aefe72","ios":"levelo://app?vid=ee96a502-9b76-492e-840a-498b02aefe72"},"vehicle_type_id":"4","last_reported":1759223451,"current_range_meters":8400,"station_id":"","pricing_plan_id":"cebpf4jnsgd1na2vs0mg"},{"bike_id":"9c4235da-d3d0-4056-aa6b-c6aa6e8e7367","system_id":"levelo_inurba_marseille","lat":43.306919,"lon":5.37515,"is_reserved":false,"is_disabled":false,"rental_uris":{"android":"levelo://app?vid=9c4235da-d3d0-4056-aa6b-c6aa6e8e7367","ios":"levelo://app?vid=9c4235da-d3d0-4056-aa6b-c6aa6e8e7367"},"vehicle_type_id":"4","last_reported":1759223451,"current_range_meters":8400,"station_id":"","pricing_plan_id":"cebpf4jnsgd1na2vs0mg"},{"bike_id":"76468404-4f55-4468-97f9-6540334ac227","system_id":"levelo_inurba_marseille","lat":43.32486,"lon":5.36568,"is_reserved":false,"is_disabled":false,"rental_uris":{"android":"levelo://app?vid=76468404-4f55-4468-97f9-6540334ac227","ios":"levelo://app?vid=76468404-4f55-4468-97f9-6540334ac227"},"vehicle_type_id":"4","last_reported":1759223451,"current_range_meters":8400,"station_id":"ce4bhs12rcd13ifvqhvg","pricing_plan_id":"cebpf4jnsgd1na2vs0mg"},{"bike_id":"ce5e157e-4ef2-4c41-9b3b-54d3eecbfa45","system_id":"levelo_inurba_marseille","lat":43.2251,"lon":5.34839,"is_reserved":false,"is_disabled":false,"rental_uris":{"android":"levelo://app?vid=ce5e157e-4ef2-4c41-9b3b-54d3eecbfa45","ios":"levelo://app?vid=ce5e157e-4ef2-4c41-9b3b-54d3eecbfa45"},"vehicle_type_id":"4","last_reported":1759223451,"current_range_meters":8400,"station_id":"","pricing_plan_id":"cebpf4jnsgd1na2vs0mg"},{"bike_id":"c56c5690-9289-4184-bdd0-df79979de789","system_id":"levelo_inurba_marseille","lat":43.29299,"lon":5.37458,"is_reserved":false,"is_disabled":false,"rental_uris":{"android":"levelo://app?vid=c56c5690-9289-4184-bdd0-df79979de789","ios":"levelo://app?vid=c56c5690-9289-4184-bdd0-df79979de789"},"vehicle_type_id":"4","last_reported":1759223451,"current_range_meters":8800,"station_id":"ce4bgi12rcd13ifvqb70","pricing_plan_id":"cebpf4jnsgd1na2vs0mg"},{"bike_id":"d8c2c2c0-4619-4a5a-9c31-b9f4ec5c9486","system_id":"levelo_inurba_marseille","lat":43.3078,"lon":5.37652,"is_reserved":false,"is_disabled":false,"rental_uris":{"android":"levelo://app?vid=d8c2c2c0-4619-4a5a-9c31-b9f4ec5c9486","ios":"levelo://app?vid=d8c2c2c0-4619-4a5a-9c31-b9f4ec5c9486"},"vehicle_type_id":"4","last_reported":1759223451,"current_range_meters":8800,"station_id":"ce4bgv92rcd13ifvqcq0","pricing_plan_id":"cebpf4jnsgd1na2vs0mg"},{"bike_id":"831e6a54-bde0-4f77-80bc-8857d66d3744","system_id":"levelo_inurba_marseille","lat":43.279552,"lon":5.410591,"is_reserved":false,"is_disabled":true,"rental_uris":{"android":"levelo://app?vid=831e6a54-bde0-4f77-80bc-8857d66d3744","ios":"levelo://app?vid=831e6a54-bde0-4f77-80bc-8857d66d3744"},"vehicle_type_id":"4","last_reported":1759223451,"current_range_meters":8800,"station_id":"ce4bhnp2rcd13ifvqh0g","pricing_plan_id":"cebpf4jnsgd1na2vs0mg"},{"bike_id":"6c12a327-8239-427c-8bbe-4550474af6ba","system_id":"levelo_inurba_marseille","lat":43.27378,"lon":5.36245,"is_reserved":false,"is_disabled":true,"rental_uris":{"android":"levelo://app?vid=6c12a327-8239-427c-8bbe-4550474af6ba","ios":"levelo://app?vid=6c12a327-8239-427c-8bbe-4550474af6ba"},"vehicle_type_id":"4","last_reported":1759223451,"current_range_meters":8800,"station_id":"ce4bhbh2rcd13ifvqeo0","pricing_plan_id":"cebpf4jnsgd1na2vs0mg"},{"bike_id":"5755f66d-4ed1-4cc5-89b2-1f26fa2d6165","system_id":"levelo_inurba_marseille","lat":43.2873,"lon":5.37929,"is_reserved":false,"is_disabled":false,"rental_uris":{"android":"levelo://app?vid=5755f66d-4ed1-4cc5-89b2-1f26fa2d6165","ios":"levelo://app?vid=5755f66d-4ed1-4cc5-89b2-1f26fa2d6165"},"vehicle_type_id":"4","last_reported":1759223451,"current_range_meters":9200,"station_id":"ce4bh9p2rcd13ifvqec0","pricing_plan_id":"cebpf4jnsgd1na2vs0mg"},{"bike_id":"5901a4c6-8531-46a9-95c5-8d9acf0e1be4","system_id":"levelo_inurba_marseille","lat":43.30883,"lon":5.37166,"is_reserved":false,"is_disabled":false,"rental_uris":{"android":"levelo://app?vid=5901a4c6-8531-46a9-95c5-8d9acf0e1be4","ios":"levelo://app?vid=5901a4c6-8531-46a9-95c5-8d9acf0e1be4"},"vehicle_type_id":"4","last_reported":1759223451,"current_range_meters":8800,"station_id":"ce4bguh2rcd13ifvqckg","pricing_plan_id":"cebpf4jnsgd1na2vs0mg"},{"bike_id":"6d52e4c1-3d50-46d3-b3af-53ad7def4a9e","system_id":"levelo_inurba_marseille","lat":43.26936,"lon":5.38656,"is_reserved":false,"is_disabled":true,"rental_uris":{"android":"levelo://app?vid=6d52e4c1-3d50-46d3-b3af-53ad7def4a9e","ios":"levelo://app?vid=6d52e4c1-3d50-46d3-b3af-53ad7def4a9e"},"vehicle_type_id":"4","last_reported":1759223451,"current_range_meters":8800,"station_id":"ce4bhh92rcd13ifvqfh0","pricing_plan_id":"cebpf4jnsgd1na2vs0mg"},{"bike_id":"6537c04b-d3d7-49e0-be47-85f19d8f44cb","system_id":"levelo_inurba_marseille","lat":43.30113,"lon":5.37206,"is_reserved":false,"is_disabled":false,"rental_uris":{"android":"levelo://app?vid=6537c04b-d3d7-49e0-be47-85f19d8f44cb","ios":"levelo://app?vid=6537c04b-d3d7-49e0-be47-85f19d8f44cb"},"vehicle_type_id":"4","last_reported":1759223451,"current_range_meters":9200,"station_id":"","pricing_plan_id":"cebpf4jnsgd1na2vs0mg"},{"bike_id":"3d400c08-bd40-45e9-99e7-651e4339ef38","system_id":"levelo_inurba_marseille","lat":43.31258,"lon":5.36858,"is_reserved":false,"is_disabled":true,"rental_uris":{"android":"levelo://app?vid=3d400c08-bd40-45e9-99e7-651e4339ef38","ios":"levelo://app?vid=3d400c08-bd40-45e9-99e7-651e4339ef38"},"vehicle_type_id":"4","last_reported":1759223451,"current_range_meters":9200,"station_id":"","pricing_plan_id":"cebpf4jnsgd1na2vs0mg"},{"bike_id":"a2411a4b-e5ef-475f-b05a-622f2fcb8ba4","system_id":"levelo_inurba_marseille","lat":43.31532,"lon":5.37268,"is_reserved":false,"is_disabled":false,"rental_uris":{"android":"levelo://app?vid=a2411a4b-e5ef-475f-b05a-622f2fcb8ba4","ios":"levelo://app?vid=a2411a4b-e5ef-475f-b05a-622f2fcb8ba4"},"vehicle_type_id":"4","last_reported":1759223451,"current_range_meters":9200,"station_id":"","pricing_plan_id":"cebpf4jnsgd1na2vs0mg"},{"bike_id":"a07a513e-e5a9-4481-8592-d991379bc662","system_id":"levelo_inurba_marseille","lat":43.33735,"lon":5.37481,"is_reserved":false,"is_disabled":false,"rental_uris":{"android":"levelo://app?vid=a07a513e-e5a9-4481-8592-d991379bc662","ios":"levelo://app?vid=a07a513e-e5a9-4481-8592-d991379bc662"},"vehicle_type_id":"4","last_reported":1759223451,"current_range_meters":9200,"station_id":"","pricing_plan_id":"cebpf4jnsgd1na2vs0mg"},{"bike_id":"0030cf69-75f8-4719-a372-efc52bdb748a","system_id":"levelo_inurba_marseille","lat":43.32889,"lon":5.45401,"is_reserved":false,"is_disabled":true,"rental_uris":{"android":"levelo://app?vid=0030cf69-75f8-4719-a372-efc52bdb748a","ios":"levelo://app?vid=0030cf69-75f8-4719-a372-efc52bdb748a"},"vehicle_type_id":"4","last_reported":1759223451,"current_range_meters":9600,"station_id":"","pricing_plan_id":"cebpf4jnsgd1na2vs0mg"},{"bike_id":"03db77b5-14b5-45ff-8243-1f5ac9e4008a","system_id":"levelo_inurba_marseille","lat":43.29701,"lon":5.37706,"is_reserved":false,"is_disabled":false,"rental_uris":{"android":"levelo://app?vid=03db77b5-14b5-45ff-8243-1f5ac9e4008a","ios":"levelo://app?vid=03db77b5-14b5-45ff-8243-1f5ac9e4008a"},"vehicle_type_id":"4","last_reported":1759223451,"current_range_meters":9200,"station_id":"ce4bgkh2rcd13ifvqbl0","pricing_plan_id":"cebpf4jnsgd1na2vs0mg"},{"bike_id":"c627b34a-8e81-4438-af3b-4fd0aab1c160","system_id":"levelo_inurba_marseille","lat":43.29689,"lon":5.35998,"is_reserved":false,"is_disabled":false,"rental_uris":{"android":"levelo://app?vid=c627b34a-8e81-4438-af3b-4fd0aab1c160","ios":"levelo://app?vid=c627b34a-8e81-4438-af3b-4fd0aab1c160"},"vehicle_type_id":"4","last_reported":1759223451,"current_range_meters":9600,"station_id":"","pricing_plan_id":"cebpf4jnsgd1na2vs0mg"},{"bike_id":"f396f57c-d447-4381-b541-b966c30aedd6","system_id":"levelo_inurba_marseille","lat":43.311124,"lon":5.377688,"is_reserved":false,"is_disabled":false,"rental_uris":{"android":"levelo://app?vid=f396f57c-d447-4381-b541-b966c30aedd6","ios":"levelo://app?vid=f396f57c-d447-4381-b541-b966c30aedd6"},"vehicle_type_id":"4","last_reported":1759223451,"current_range_meters":11200,"station_id":"ce4bgt92rcd13ifvqcg0","pricing_plan_id":"cebpf4jnsgd1na2vs0mg"},{"bike_id":"c47f5c3e-1ff3-43b7-b740-1c081ef57305","system_id":"levelo_inurba_marseille","lat":43.29675,"lon":5.37648,"is_reserved":false,"is_disabled":false,"rental_uris":{"android":"levelo://app?vid=c47f5c3e-1ff3-43b7-b740-1c081ef57305","ios":"levelo://app?vid=c47f5c3e-1ff3-43b7-b740-1c081ef57305"},"vehicle_type_id":"4","last_reported":1759223451,"current_range_meters":10000,"station_id":"ce4bgkh2rcd13ifvqbl0","pricing_plan_id":"cebpf4jnsgd1na2vs0mg"},{"bike_id":"a710eb27-f43d-434d-b850-f9305cf3e1b4","system_id":"levelo_inurba_marseille","lat":43.31235,"lon":5.36855,"is_reserved":false,"is_disabled":false,"rental_uris":{"android":"levelo://app?vid=a710eb27-f43d-434d-b850-f9305cf3e1b4","ios":"levelo://app?vid=a710eb27-f43d-434d-b850-f9305cf3e1b4"},"vehicle_type_id":"4","last_reported":1759223451,"current_range_meters":10000,"station_id":"ce4bgl92rcd13ifvqbq0","pricing_plan_id":"cebpf4jnsgd1na2vs0mg"},{"bike_id":"385fa573-6758-43e7-a2f4-f27be30ea572","system_id":"levelo_inurba_marseille","lat":43.32091,"lon":5.3678,"is_reserved":false,"is_disabled":false,"rental_uris":{"android":"levelo://app?vid=385fa573-6758-43e7-a2f4-f27be30ea572","ios":"levelo://app?vid=385fa573-6758-43e7-a2f4-f27be30ea572"},"vehicle_type_id":"4","last_reported":1759223451,"current_range_meters":10000,"station_id":"ce4bhrh2rcd13ifvqhug","pricing_plan_id":"cebpf4jnsgd1na2vs0mg"},{"bike_id":"da85755a-becf-4799-9b0a-4cff4b2bea86","system_id":"levelo_inurba_marseille","lat":43.295248,"lon":5.37505,"is_reserved":false,"is_disabled":false,"rental_uris":{"android":"levelo://app?vid=da85755a-becf-4799-9b0a-4cff4b2bea86","ios":"levelo://app?vid=da85755a-becf-4799-9b0a-4cff4b2bea86"},"vehicle_type_id":"4","last_reported":1759223451,"current_range_meters":10000,"station_id":"","pricing_plan_id":"cebpf4jnsgd1na2vs0mg"},{"bike_id":"0731367c-8dc9-4d21-bce5-e500c5ff5674","system_id":"levelo_inurba_marseille","lat":43.28939,"lon":5.36407,"is_reserved":false,"is_disabled":false,"rental_uris":{"android":"levelo://app?vid=0731367c-8dc9-4d21-bce5-e500c5ff5674","ios":"levelo://app?vid=0731367c-8dc9-4d21-bce5-e500c5ff5674"},"vehicle_type_id":"4","last_reported":1759223451,"current_range_meters":10000,"station_id":"ce4bhc92rcd13ifvqetg","pricing_plan_id":"cebpf4jnsgd1na2vs0mg"},{"bike_id":"222c4937-3f3b-4a55-8f4f-1962d87409c4","system_id":"levelo_inurba_marseille","lat":43.23198,"lon":5.35552,"is_reserved":false,"is_disabled":false,"rental_uris":{"android":"levelo://app?vid=222c4937-3f3b-4a55-8f4f-1962d87409c4","ios":"levelo://app?vid=222c4937-3f3b-4a55-8f4f-1962d87409c4"},"vehicle_type_id":"4","last_reported":1759223451,"current_range_meters":9600,"station_id":"ce4bhu92rcd13ifvqi70","pricing_plan_id":"cebpf4jnsgd1na2vs0mg"},{"bike_id":"f5e2288f-3e9a-45b2-9cd8-3842a1745526","system_id":"levelo_inurba_marseille","lat":43.27312,"lon":5.3914,"is_reserved":false,"is_disabled":false,"rental_uris":{"android":"levelo://app?vid=f5e2288f-3e9a-45b2-9cd8-3842a1745526","ios":"levelo://app?vid=f5e2288f-3e9a-45b2-9cd8-3842a1745526"},"vehicle_type_id":"4","last_reported":1759223451,"current_range_meters":10000,"station_id":"ce4bhgp2rcd13ifvqfe0","pricing_plan_id":"cebpf4jnsgd1na2vs0mg"},{"bike_id":"3cb33bb3-a99b-4c27-84f9-510941a45f04","system_id":"levelo_inurba_marseille","lat":43.29847,"lon":5.36272,"is_reserved":false,"is_disabled":false,"rental_uris":{"android":"levelo://app?vid=3cb33bb3-a99b-4c27-84f9-510941a45f04","ios":"levelo://app?vid=3cb33bb3-a99b-4c27-84f9-510941a45f04"},"vehicle_type_id":"4","last_reported":1759223451,"current_range_meters":10000,"station_id":"ce4bgpp2rcd13ifvqc3g","pricing_plan_id":"cebpf4jnsgd1na2vs0mg"},{"bike_id":"78edd212-3bd8-4a45-bced-089e3907902a","system_id":"levelo_inurba_marseille","lat":43.32742,"lon":5.42368,"is_reserved":false,"is_disabled":true,"rental_uris":{"android":"levelo://app?vid=78edd212-3bd8-4a45-bced-089e3907902a","ios":"levelo://app?vid=78edd212-3bd8-4a45-bced-089e3907902a"},"vehicle_type_id":"4","last_reported":1759223451,"current_range_meters":10800,"station_id":"","pricing_plan_id":"cebpf4jnsgd1na2vs0mg"},{"bike_id":"aa123961-c527-4db0-9350-7d548f67905a","system_id":"levelo_inurba_marseille","lat":43.27946,"lon":5.38753,"is_reserved":false,"is_disabled":false,"rental_uris":{"android":"levelo://app?vid=aa123961-c527-4db0-9350-7d548f67905a","ios":"levelo://app?vid=aa123961-c527-4db0-9350-7d548f67905a"},"vehicle_type_id":"4","last_reported":1759223451,"current_range_meters":10800,"station_id":"ce4bh492rcd13ifvqdvg","pricing_plan_id":"cebpf4jnsgd1na2vs0mg"},{"bike_id":"189b53e1-836b-4793-84f2-afedb12e9774","system_id":"levelo_inurba_marseille","lat":43.30915,"lon":5.36827,"is_reserved":false,"is_disabled":true,"rental_uris":{"android":"levelo://app?vid=189b53e1-836b-4793-84f2-afedb12e9774","ios":"levelo://app?vid=189b53e1-836b-4793-84f2-afedb12e9774"},"vehicle_type_id":"4","last_reported":1759223451,"current_range_meters":10800,"station_id":"ce4bgn92rcd13ifvqbvg","pricing_plan_id":"cebpf4jnsgd1na2vs0mg"},{"bike_id":"90252306-c9b9-4e4d-b705-98796958ec3a","system_id":"levelo_inurba_marseille","lat":43.28265,"lon":5.35061,"is_reserved":false,"is_disabled":false,"rental_uris":{"android":"levelo://app?vid=90252306-c9b9-4e4d-b705-98796958ec3a","ios":"levelo://app?vid=90252306-c9b9-4e4d-b705-98796958ec3a"},"vehicle_type_id":"4","last_reported":1759223451,"current_range_meters":10800,"station_id":"ce4bhbp2rcd13ifvqerg","pricing_plan_id":"cebpf4jnsgd1na2vs0mg"},{"bike_id":"498de633-1978-409b-aa35-b617d56ba506","system_id":"levelo_inurba_marseille","lat":43.289401,"lon":5.366452,"is_reserved":false,"is_disabled":false,"rental_uris":{"android":"levelo://app?vid=498de633-1978-409b-aa35-b617d56ba506","ios":"levelo://app?vid=498de633-1978-409b-aa35-b617d56ba506"},"vehicle_type_id":"4","last_reported":1759223451,"current_range_meters":10800,"station_id":"ce4bhap2rcd13ifvqek0","pricing_plan_id":"cebpf4jnsgd1na2vs0mg"},{"bike_id":"211afd9f-58b0-436e-9b6b-1acbadc34392","system_id":"levelo_inurba_marseille","lat":43.3236,"lon":5.36757,"is_reserved":false,"is_disabled":false,"rental_uris":{"android":"levelo://app?vid=211afd9f-58b0-436e-9b6b-1acbadc34392","ios":"levelo://app?vid=211afd9f-58b0-436e-9b6b-1acbadc34392"},"vehicle_type_id":"4","last_reported":1759223451,"current_range_meters":10800,"station_id":"ce4bhsh2rcd13ifvqi2g","pricing_plan_id":"cebpf4jnsgd1na2vs0mg"},{"bike_id":"c5574620-ab07-4c35-9a37-8ecd5ecc4d2d","system_id":"levelo_inurba_marseille","lat":43.30142,"lon":5.3806,"is_reserved":false,"is_disabled":false,"rental_uris":{"android":"levelo://app?vid=c5574620-ab07-4c35-9a37-8ecd5ecc4d2d","ios":"levelo://app?vid=c5574620-ab07-4c35-9a37-8ecd5ecc4d2d"},"vehicle_type_id":"4","last_reported":1759223451,"current_range_meters":10800,"station_id":"ce4bgjp2rcd13ifvqbh0","pricing_plan_id":"cebpf4jnsgd1na2vs0mg"},{"bike_id":"92625698-47ff-4c19-a21b-0eb9082e5953","system_id":"levelo_inurba_marseille","lat":43.29977,"lon":5.37191,"is_reserved":false,"is_disabled":false,"rental_uris":{"android":"levelo://app?vid=92625698-47ff-4c19-a21b-0eb9082e5953","ios":"levelo://app?vid=92625698-47ff-4c19-a21b-0eb9082e5953"},"vehicle_type_id":"4","last_reported":1759223451,"current_range_meters":10800,"station_id":"ce4bgr92rcd13ifvqc7g","pricing_plan_id":"cebpf4jnsgd1na2vs0mg"},{"bike_id":"aebf0e68-ba27-412a-9ce2-11cc42127dee","system_id":"levelo_inurba_marseille","lat":43.337444,"lon":5.374475,"is_reserved":false,"is_disabled":false,"rental_uris":{"android":"levelo://app?vid=aebf0e68-ba27-412a-9ce2-11cc42127dee","ios":"levelo://app?vid=aebf0e68-ba27-412a-9ce2-11cc42127dee"},"vehicle_type_id":"4","last_reported":1759223451,"current_range_meters":10800,"station_id":"","pricing_plan_id":"cebpf4jnsgd1na2vs0mg"},{"bike_id":"56d6a008-a903-4bd5-8ee3-1cec5d05c634","system_id":"levelo_inurba_marseille","lat":43.31749,"lon":5.39024,"is_reserved":false,"is_disabled":false,"rental_uris":{"android":"levelo://app?vid=56d6a008-a903-4bd5-8ee3-1cec5d05c634","ios":"levelo://app?vid=56d6a008-a903-4bd5-8ee3-1cec5d05c634"},"vehicle_type_id":"4","last_reported":1759223451,"current_range_meters":11200,"station_id":"ce4bhqp2rcd13ifvqhng","pricing_plan_id":"cebpf4jnsgd1na2vs0mg"},{"bike_id":"ddd74f57-887b-4ee6-9672-2cfa3389eb38","system_id":"levelo_inurba_marseille","lat":43.28444,"lon":5.39207,"is_reserved":false,"is_disabled":false,"rental_uris":{"android":"levelo://app?vid=ddd74f57-887b-4ee6-9672-2cfa3389eb38","ios":"levelo://app?vid=ddd74f57-887b-4ee6-9672-2cfa3389eb38"},"vehicle_type_id":"4","last_reported":1759223451,"current_range_meters":11600,"station_id":"ce4bhoh2rcd13ifvqh5g","pricing_plan_id":"cebpf4jnsgd1na2vs0mg"},{"bike_id":"8e4a3cbf-e0ab-488c-8c64-dc98bdb2feb1","system_id":"levelo_inurba_marseille","lat":43.30143,"lon":5.37384,"is_reserved":false,"is_disabled":false,"rental_uris":{"android":"levelo://app?vid=8e4a3cbf-e0ab-488c-8c64-dc98bdb2feb1","ios":"levelo://app?vid=8e4a3cbf-e0ab-488c-8c64-dc98bdb2feb1"},"vehicle_type_id":"4","last_reported":1759223451,"current_range_meters":11600,"station_id":"ce4bgs92rcd13ifvqcc0","pricing_plan_id":"cebpf4jnsgd1na2vs0mg"},{"bike_id":"8cbcf5e7-b804-4925-bbed-5f57e8580ccf","system_id":"levelo_inurba_marseille","lat":43.31519,"lon":5.36803,"is_reserved":false,"is_disabled":false,"rental_uris":{"android":"levelo://app?vid=8cbcf5e7-b804-4925-bbed-5f57e8580ccf","ios":"levelo://app?vid=8cbcf5e7-b804-4925-bbed-5f57e8580ccf"},"vehicle_type_id":"4","last_reported":1759223451,"current_range_meters":11600,"station_id":"","pricing_plan_id":"cebpf4jnsgd1na2vs0mg"},{"bike_id":"4fcb0f1d-01f2-4136-94b8-b45efaa34c30","system_id":"levelo_inurba_marseille","lat":43.24618,"lon":5.43148,"is_reserved":false,"is_disabled":false,"rental_uris":{"android":"levelo://app?vid=4fcb0f1d-01f2-4136-94b8-b45efaa34c30","ios":"levelo://app?vid=4fcb0f1d-01f2-4136-94b8-b45efaa34c30"},"vehicle_type_id":"4","last_reported":1759223451,"current_range_meters":11600,"station_id":"st_d2m6c4gdas8pm72e190g","pricing_plan_id":"cebpf4jnsgd1na2vs0mg"},{"bike_id":"33c37912-7a5a-4cf6-bff3-9fbfe40d20dc","system_id":"levelo_inurba_marseille","lat":43.32102,"lon":5.36759,"is_reserved":false,"is_disabled":false,"rental_uris":{"android":"levelo://app?vid=33c37912-7a5a-4cf6-bff3-9fbfe40d20dc","ios":"levelo://app?vid=33c37912-7a5a-4cf6-bff3-9fbfe40d20dc"},"vehicle_type_id":"4","last_reported":1759223451,"current_range_meters":11600,"station_id":"ce4bhrh2rcd13ifvqhug","pricing_plan_id":"cebpf4jnsgd1na2vs0mg"},{"bike_id":"6bfec724-bad4-4ad3-9196-c3fa82300772","system_id":"levelo_inurba_marseille","lat":43.29191,"lon":5.35804,"is_reserved":false,"is_disabled":false,"rental_uris":{"android":"levelo://app?vid=6bfec724-bad4-4ad3-9196-c3fa82300772","ios":"levelo://app?vid=6bfec724-bad4-4ad3-9196-c3fa82300772"},"vehicle_type_id":"4","last_reported":1759223451,"current_range_meters":11600,"station_id":"ce4bhb12rcd13ifvqel0","pricing_plan_id":"cebpf4jnsgd1na2vs0mg"},{"bike_id":"2fb20954-37e5-44c5-a45c-78dc472f22d7","system_id":"levelo_inurba_marseille","lat":43.312273,"lon":5.368683,"is_reserved":false,"is_disabled":false,"rental_uris":{"android":"levelo://app?vid=2fb20954-37e5-44c5-a45c-78dc472f22d7","ios":"levelo://app?vid=2fb20954-37e5-44c5-a45c-78dc472f22d7"},"vehicle_type_id":"4","last_reported":1759223451,"current_range_meters":11600,"station_id":"ce4bgl92rcd13ifvqbq0","pricing_plan_id":"cebpf4jnsgd1na2vs0mg"},{"bike_id":"99ce2063-5dfb-4ed3-a4a6-8fc3a54c4890","system_id":"levelo_inurba_marseille","lat":43.337444,"lon":5.374475,"is_reserved":false,"is_disabled":false,"rental_uris":{"android":"levelo://app?vid=99ce2063-5dfb-4ed3-a4a6-8fc3a54c4890","ios":"levelo://app?vid=99ce2063-5dfb-4ed3-a4a6-8fc3a54c4890"},"vehicle_type_id":"4","last_reported":1759223451,"current_range_meters":11600,"station_id":"","pricing_plan_id":"cebpf4jnsgd1na2vs0mg"},{"bike_id":"d9961c52-1a38-4a35-a198-4e062d4c68cb","system_id":"levelo_inurba_marseille","lat":43.265519,"lon":5.372911,"is_reserved":false,"is_disabled":false,"rental_uris":{"android":"levelo://app?vid=d9961c52-1a38-4a35-a198-4e062d4c68cb","ios":"levelo://app?vid=d9961c52-1a38-4a35-a198-4e062d4c68cb"},"vehicle_type_id":"4","last_reported":1759223451,"current_range_meters":12000,"station_id":"ce4bhg12rcd13ifvqf70","pricing_plan_id":"cebpf4jnsgd1na2vs0mg"},{"bike_id":"cb4b9073-e436-438a-959a-5f5f4b3d56dd","system_id":"levelo_inurba_marseille","lat":43.26682,"lon":5.38289,"is_reserved":false,"is_disabled":false,"rental_uris":{"android":"levelo://app?vid=cb4b9073-e436-438a-959a-5f5f4b3d56dd","ios":"levelo://app?vid=cb4b9073-e436-438a-959a-5f5f4b3d56dd"},"vehicle_type_id":"4","last_reported":1759223451,"current_range_meters":12000,"station_id":"ce4bhg92rcd13ifvqf90","pricing_plan_id":"cebpf4jnsgd1na2vs0mg"},{"bike_id":"9040083f-86a7-4196-aef5-d673d487282a","system_id":"levelo_inurba_marseille","lat":43.27499,"lon":5.42459,"is_reserved":false,"is_disabled":false,"rental_uris":{"android":"levelo://app?vid=9040083f-86a7-4196-aef5-d673d487282a","ios":"levelo://app?vid=9040083f-86a7-4196-aef5-d673d487282a"},"vehicle_type_id":"4","last_reported":1759223451,"current_range_meters":12000,"station_id":"ce4bhn92rcd13ifvqgrg","pricing_plan_id":"cebpf4jnsgd1na2vs0mg"},{"bike_id":"96520869-d013-4e0c-a355-f7bbd728ba84","system_id":"levelo_inurba_marseille","lat":43.32355,"lon":5.36733,"is_reserved":false,"is_disabled":false,"rental_uris":{"android":"levelo://app?vid=96520869-d013-4e0c-a355-f7bbd728ba84","ios":"levelo://app?vid=96520869-d013-4e0c-a355-f7bbd728ba84"},"vehicle_type_id":"4","last_reported":1759223451,"current_range_meters":12000,"station_id":"ce4bhsh2rcd13ifvqi2g","pricing_plan_id":"cebpf4jnsgd1na2vs0mg"},{"bike_id":"ff9a3dd4-af4c-42ff-a938-737791d62eaa","system_id":"levelo_inurba_marseille","lat":43.30162,"lon":5.3661,"is_reserved":false,"is_disabled":false,"rental_uris":{"android":"levelo://app?vid=ff9a3dd4-af4c-42ff-a938-737791d62eaa","ios":"levelo://app?vid=ff9a3dd4-af4c-42ff-a938-737791d62eaa"},"vehicle_type_id":"4","last_reported":1759223451,"current_range_meters":11600,"station_id":"ce4bgrh2rcd13ifvqc8g","pricing_plan_id":"cebpf4jnsgd1na2vs0mg"},{"bike_id":"1f4563dd-dd62-4bf0-b253-3ec2b98c2cec","system_id":"levelo_inurba_marseille","lat":43.33614,"lon":5.41022,"is_reserved":false,"is_disabled":false,"rental_uris":{"android":"levelo://app?vid=1f4563dd-dd62-4bf0-b253-3ec2b98c2cec","ios":"levelo://app?vid=1f4563dd-dd62-4bf0-b253-3ec2b98c2cec"},"vehicle_type_id":"4","last_reported":1759223451,"current_range_meters":12000,"station_id":"ce4bhqh2rcd13ifvqhmg","pricing_plan_id":"cebpf4jnsgd1na2vs0mg"},{"bike_id":"83b0a1a8-e33f-4401-8686-882bb9fc09ac","system_id":"levelo_inurba_marseille","lat":43.3014,"lon":5.37415,"is_reserved":false,"is_disabled":false,"rental_uris":{"android":"levelo://app?vid=83b0a1a8-e33f-4401-8686-882bb9fc09ac","ios":"levelo://app?vid=83b0a1a8-e33f-4401-8686-882bb9fc09ac"},"vehicle_type_id":"4","last_reported":1759223451,"current_range_meters":12000,"station_id":"ce4bgs92rcd13ifvqcc0","pricing_plan_id":"cebpf4jnsgd1na2vs0mg"},{"bike_id":"738a51a6-02d0-4def-8f3f-9c82f6a6dd05","system_id":"levelo_inurba_marseille","lat":43.32339,"lon":5.367,"is_reserved":false,"is_disabled":false,"rental_uris":{"android":"levelo://app?vid=738a51a6-02d0-4def-8f3f-9c82f6a6dd05","ios":"levelo://app?vid=738a51a6-02d0-4def-8f3f-9c82f6a6dd05"},"vehicle_type_id":"4","last_reported":1759223451,"current_range_meters":12000,"station_id":"","pricing_plan_id":"cebpf4jnsgd1na2vs0mg"},{"bike_id":"7141d5c0-e60c-44f1-bfa8-47000c17aa41","system_id":"levelo_inurba_marseille","lat":43.32047,"lon":5.38117,"is_reserved":false,"is_disabled":false,"rental_uris":{"android":"levelo://app?vid=7141d5c0-e60c-44f1-bfa8-47000c17aa41","ios":"levelo://app?vid=7141d5c0-e60c-44f1-bfa8-47000c17aa41"},"vehicle_type_id":"4","last_reported":1759223451,"current_range_meters":12000,"station_id":"","pricing_plan_id":"cebpf4jnsgd1na2vs0mg"},{"bike_id":"617f756a-9114-44d3-a116-8d7a7cebc3e0","system_id":"levelo_inurba_marseille","lat":43.29359,"lon":5.37837,"is_reserved":false,"is_disabled":false,"rental_uris":{"android":"levelo://app?vid=617f756a-9114-44d3-a116-8d7a7cebc3e0","ios":"levelo://app?vid=617f756a-9114-44d3-a116-8d7a7cebc3e0"},"vehicle_type_id":"4","last_reported":1759223451,"current_range_meters":12000,"station_id":"ce4bgjh2rcd13ifvqbf0","pricing_plan_id":"cebpf4jnsgd1na2vs0mg"},{"bike_id":"92662833-c6ac-4b02-b7df-1638b54b1972","system_id":"levelo_inurba_marseille","lat":43.33742,"lon":5.37449,"is_reserved":false,"is_disabled":false,"rental_uris":{"android":"levelo://app?vid=92662833-c6ac-4b02-b7df-1638b54b1972","ios":"levelo://app?vid=92662833-c6ac-4b02-b7df-1638b54b1972"},"vehicle_type_id":"4","last_reported":1759223451,"current_range_meters":12000,"station_id":"","pricing_plan_id":"cebpf4jnsgd1na2vs0mg"},{"bike_id":"f8d78e5f-60e1-4623-939f-49e76ff16505","system_id":"levelo_inurba_marseille","lat":43.33742,"lon":5.37448,"is_reserved":false,"is_disabled":false,"rental_uris":{"android":"levelo://app?vid=f8d78e5f-60e1-4623-939f-49e76ff16505","ios":"levelo://app?vid=f8d78e5f-60e1-4623-939f-49e76ff16505"},"vehicle_type_id":"4","last_reported":1759223451,"current_range_meters":12000,"station_id":"","pricing_plan_id":"cebpf4jnsgd1na2vs0mg"},{"bike_id":"17f6ea02-4f88-4e92-a094-db7e52403b32","system_id":"levelo_inurba_marseille","lat":43.34138,"lon":5.40908,"is_reserved":false,"is_disabled":false,"rental_uris":{"android":"levelo://app?vid=17f6ea02-4f88-4e92-a094-db7e52403b32","ios":"levelo://app?vid=17f6ea02-4f88-4e92-a094-db7e52403b32"},"vehicle_type_id":"4","last_reported":1759223451,"current_range_meters":12400,"station_id":"ce4bhqh2rcd13ifvqhlg","pricing_plan_id":"cebpf4jnsgd1na2vs0mg"},{"bike_id":"56ca0258-bee9-4eb2-b3c5-63b5cd0b9e67","system_id":"levelo_inurba_marseille","lat":43.33737,"lon":5.37445,"is_reserved":false,"is_disabled":false,"rental_uris":{"android":"levelo://app?vid=56ca0258-bee9-4eb2-b3c5-63b5cd0b9e67","ios":"levelo://app?vid=56ca0258-bee9-4eb2-b3c5-63b5cd0b9e67"},"vehicle_type_id":"4","last_reported":1759223451,"current_range_meters":12400,"station_id":"","pricing_plan_id":"cebpf4jnsgd1na2vs0mg"},{"bike_id":"c5fe462b-b019-4305-8e8a-cc9fb3757ce6","system_id":"levelo_inurba_marseille","lat":43.31185,"lon":5.38712,"is_reserved":false,"is_disabled":false,"rental_uris":{"android":"levelo://app?vid=c5fe462b-b019-4305-8e8a-cc9fb3757ce6","ios":"levelo://app?vid=c5fe462b-b019-4305-8e8a-cc9fb3757ce6"},"vehicle_type_id":"4","last_reported":1759223451,"current_range_meters":12800,"station_id":"ce4bgv12rcd13ifvqcp0","pricing_plan_id":"cebpf4jnsgd1na2vs0mg"},{"bike_id":"6e67f8ab-502e-4948-b6ad-5b5d0618a701","system_id":"levelo_inurba_marseille","lat":43.28711,"lon":5.373795,"is_reserved":false,"is_disabled":false,"rental_uris":{"android":"levelo://app?vid=6e67f8ab-502e-4948-b6ad-5b5d0618a701","ios":"levelo://app?vid=6e67f8ab-502e-4948-b6ad-5b5d0618a701"},"vehicle_type_id":"4","last_reported":1759223451,"current_range_meters":12800,"station_id":"ce4bh3p2rcd13ifvqdq0","pricing_plan_id":"cebpf4jnsgd1na2vs0mg"},{"bike_id":"f44df0c8-3c0a-4103-982e-900169d96e81","system_id":"levelo_inurba_marseille","lat":43.32106,"lon":5.36777,"is_reserved":false,"is_disabled":false,"rental_uris":{"android":"levelo://app?vid=f44df0c8-3c0a-4103-982e-900169d96e81","ios":"levelo://app?vid=f44df0c8-3c0a-4103-982e-900169d96e81"},"vehicle_type_id":"4","last_reported":1759223451,"current_range_meters":12800,"station_id":"ce4bhrh2rcd13ifvqhug","pricing_plan_id":"cebpf4jnsgd1na2vs0mg"},{"bike_id":"13604148-437a-4148-9ed9-019ca4e03ec3","system_id":"levelo_inurba_marseille","lat":43.24625,"lon":5.43152,"is_reserved":false,"is_disabled":false,"rental_uris":{"android":"levelo://app?vid=13604148-437a-4148-9ed9-019ca4e03ec3","ios":"levelo://app?vid=13604148-437a-4148-9ed9-019ca4e03ec3"},"vehicle_type_id":"4","last_reported":1759223451,"current_range_meters":12800,"station_id":"st_d2m6c4gdas8pm72e190g","pricing_plan_id":"cebpf4jnsgd1na2vs0mg"},{"bike_id":"0aba4fe3-5dca-4d79-8b9d-2fc77d6e7d70","system_id":"levelo_inurba_marseille","lat":43.28418,"lon":5.349815,"is_reserved":false,"is_disabled":false,"rental_uris":{"android":"levelo://app?vid=0aba4fe3-5dca-4d79-8b9d-2fc77d6e7d70","ios":"levelo://app?vid=0aba4fe3-5dca-4d79-8b9d-2fc77d6e7d70"},"vehicle_type_id":"4","last_reported":1759223451,"current_range_meters":13600,"station_id":"","pricing_plan_id":"cebpf4jnsgd1na2vs0mg"},{"bike_id":"1fe9f341-3892-4b86-b7cc-35780bf305e0","system_id":"levelo_inurba_marseille","lat":43.24078,"lon":5.37754,"is_reserved":false,"is_disabled":false,"rental_uris":{"android":"levelo://app?vid=1fe9f341-3892-4b86-b7cc-35780bf305e0","ios":"levelo://app?vid=1fe9f341-3892-4b86-b7cc-35780bf305e0"},"vehicle_type_id":"4","last_reported":1759223451,"current_range_meters":13600,"station_id":"ce4bhnp2rcd13ifvqgvg","pricing_plan_id":"cebpf4jnsgd1na2vs0mg"},{"bike_id":"c4eb1c89-dc1f-4ae4-b68c-0a9f98b1b4b3","system_id":"levelo_inurba_marseille","lat":43.24624,"lon":5.43148,"is_reserved":false,"is_disabled":false,"rental_uris":{"android":"levelo://app?vid=c4eb1c89-dc1f-4ae4-b68c-0a9f98b1b4b3","ios":"levelo://app?vid=c4eb1c89-dc1f-4ae4-b68c-0a9f98b1b4b3"},"vehicle_type_id":"4","last_reported":1759223451,"current_range_meters":13600,"station_id":"st_d2m6c4gdas8pm72e190g","pricing_plan_id":"cebpf4jnsgd1na2vs0mg"},{"bike_id":"02ec43f2-d779-4c5e-8407-9fb9152f97fd","system_id":"levelo_inurba_marseille","lat":43.308893,"lon":5.396631,"is_reserved":false,"is_disabled":false,"rental_uris":{"android":"levelo://app?vid=02ec43f2-d779-4c5e-8407-9fb9152f97fd","ios":"levelo://app?vid=02ec43f2-d779-4c5e-8407-9fb9152f97fd"},"vehicle_type_id":"4","last_reported":1759223451,"current_range_meters":13600,"station_id":"ce4bh012rcd13ifvqcv0","pricing_plan_id":"cebpf4jnsgd1na2vs0mg"},{"bike_id":"8c889c5e-dbff-42f9-9e9a-56a3d0500fe9","system_id":"levelo_inurba_marseille","lat":43.30292,"lon":5.36986,"is_reserved":false,"is_disabled":false,"rental_uris":{"android":"levelo://app?vid=8c889c5e-dbff-42f9-9e9a-56a3d0500fe9","ios":"levelo://app?vid=8c889c5e-dbff-42f9-9e9a-56a3d0500fe9"},"vehicle_type_id":"4","last_reported":1759223451,"current_range_meters":13600,"station_id":"","pricing_plan_id":"cebpf4jnsgd1na2vs0mg"},{"bike_id":"82e1ff79-424f-46d8-aa90-b9c15e06f624","system_id":"levelo_inurba_marseille","lat":43.30284,"lon":5.37695,"is_reserved":false,"is_disabled":false,"rental_uris":{"android":"levelo://app?vid=82e1ff79-424f-46d8-aa90-b9c15e06f624","ios":"levelo://app?vid=82e1ff79-424f-46d8-aa90-b9c15e06f624"},"vehicle_type_id":"4","last_reported":1759223451,"current_range_meters":14000,"station_id":"ce4bguh2rcd13ifvqcj0","pricing_plan_id":"cebpf4jnsgd1na2vs0mg"},{"bike_id":"5f8245c1-d6d3-4e20-af8e-6d792fdc04ce","system_id":"levelo_inurba_marseille","lat":43.29826,"lon":5.45632,"is_reserved":false,"is_disabled":false,"rental_uris":{"android":"levelo://app?vid=5f8245c1-d6d3-4e20-af8e-6d792fdc04ce","ios":"levelo://app?vid=5f8245c1-d6d3-4e20-af8e-6d792fdc04ce"},"vehicle_type_id":"4","last_reported":1759223451,"current_range_meters":14000,"station_id":"","pricing_plan_id":"cebpf4jnsgd1na2vs0mg"},{"bike_id":"ea0c3f0b-905f-467b-8a36-823b697d2b6a","system_id":"levelo_inurba_marseille","lat":43.26938,"lon":5.38896,"is_reserved":false,"is_disabled":false,"rental_uris":{"android":"levelo://app?vid=ea0c3f0b-905f-467b-8a36-823b697d2b6a","ios":"levelo://app?vid=ea0c3f0b-905f-467b-8a36-823b697d2b6a"},"vehicle_type_id":"4","last_reported":1759223451,"current_range_meters":14000,"station_id":"ce4bhhh2rcd13ifvqfl0","pricing_plan_id":"cebpf4jnsgd1na2vs0mg"},{"bike_id":"9559e7fe-91a1-4ac0-a7d8-40fd3c5db739","system_id":"levelo_inurba_marseille","lat":43.30637,"lon":5.41839,"is_reserved":false,"is_disabled":false,"rental_uris":{"android":"levelo://app?vid=9559e7fe-91a1-4ac0-a7d8-40fd3c5db739","ios":"levelo://app?vid=9559e7fe-91a1-4ac0-a7d8-40fd3c5db739"},"vehicle_type_id":"4","last_reported":1759223451,"current_range_meters":14000,"station_id":"","pricing_plan_id":"cebpf4jnsgd1na2vs0mg"},{"bike_id":"d2f46c9e-a53c-42a7-ad54-fd7c896f4565","system_id":"levelo_inurba_marseille","lat":43.33797,"lon":5.37428,"is_reserved":false,"is_disabled":false,"rental_uris":{"android":"levelo://app?vid=d2f46c9e-a53c-42a7-ad54-fd7c896f4565","ios":"levelo://app?vid=d2f46c9e-a53c-42a7-ad54-fd7c896f4565"},"vehicle_type_id":"4","last_reported":1759223451,"current_range_meters":14000,"station_id":"","pricing_plan_id":"cebpf4jnsgd1na2vs0mg"},{"bike_id":"536fdfd1-e495-4a45-85f5-031b8c036df2","system_id":"levelo_inurba_marseille","lat":43.243497,"lon":5.396654,"is_reserved":false,"is_disabled":false,"rental_uris":{"android":"levelo://app?vid=536fdfd1-e495-4a45-85f5-031b8c036df2","ios":"levelo://app?vid=536fdfd1-e495-4a45-85f5-031b8c036df2"},"vehicle_type_id":"4","last_reported":1759223451,"current_range_meters":14400,"station_id":"ce4bhn12rcd13ifvqgpg","pricing_plan_id":"cebpf4jnsgd1na2vs0mg"},{"bike_id":"b3921eb0-d0e1-43e7-a089-f2394f700e35","system_id":"levelo_inurba_marseille","lat":43.2902,"lon":5.38131,"is_reserved":false,"is_disabled":false,"rental_uris":{"android":"levelo://app?vid=b3921eb0-d0e1-43e7-a089-f2394f700e35","ios":"levelo://app?vid=b3921eb0-d0e1-43e7-a089-f2394f700e35"},"vehicle_type_id":"4","last_reported":1759223451,"current_range_meters":14400,"station_id":"ce4bh4p2rcd13ifvqe1g","pricing_plan_id":"cebpf4jnsgd1na2vs0mg"},{"bike_id":"d114139c-60d0-4459-ba3b-cac62be00268","system_id":"levelo_inurba_marseille","lat":43.3014,"lon":5.37401,"is_reserved":false,"is_disabled":false,"rental_uris":{"android":"levelo://app?vid=d114139c-60d0-4459-ba3b-cac62be00268","ios":"levelo://app?vid=d114139c-60d0-4459-ba3b-cac62be00268"},"vehicle_type_id":"4","last_reported":1759223451,"current_range_meters":14400,"station_id":"ce4bgs92rcd13ifvqcc0","pricing_plan_id":"cebpf4jnsgd1na2vs0mg"},{"bike_id":"a8205022-661b-4b9f-b567-3fd2d923e9c8","system_id":"levelo_inurba_marseille","lat":43.32297,"lon":5.38281,"is_reserved":false,"is_disabled":false,"rental_uris":{"android":"levelo://app?vid=a8205022-661b-4b9f-b567-3fd2d923e9c8","ios":"levelo://app?vid=a8205022-661b-4b9f-b567-3fd2d923e9c8"},"vehicle_type_id":"4","last_reported":1759223451,"current_range_meters":14400,"station_id":"ce4bhr12rcd13ifvqhqg","pricing_plan_id":"cebpf4jnsgd1na2vs0mg"},{"bike_id":"ab6dd3e4-a3ee-4b70-b553-35f57dd019f5","system_id":"levelo_inurba_marseille","lat":43.26682,"lon":5.38266,"is_reserved":false,"is_disabled":false,"rental_uris":{"android":"levelo://app?vid=ab6dd3e4-a3ee-4b70-b553-35f57dd019f5","ios":"levelo://app?vid=ab6dd3e4-a3ee-4b70-b553-35f57dd019f5"},"vehicle_type_id":"4","last_reported":1759223451,"current_range_meters":14400,"station_id":"ce4bhg92rcd13ifvqf90","pricing_plan_id":"cebpf4jnsgd1na2vs0mg"},{"bike_id":"3eda7b7d-d1d4-4544-ac74-4e2dbf47acf1","system_id":"levelo_inurba_marseille","lat":43.30132,"lon":5.37402,"is_reserved":false,"is_disabled":false,"rental_uris":{"android":"levelo://app?vid=3eda7b7d-d1d4-4544-ac74-4e2dbf47acf1","ios":"levelo://app?vid=3eda7b7d-d1d4-4544-ac74-4e2dbf47acf1"},"vehicle_type_id":"4","last_reported":1759223451,"current_range_meters":14400,"station_id":"ce4bgs92rcd13ifvqcc0","pricing_plan_id":"cebpf4jnsgd1na2vs0mg"},{"bike_id":"adfbe18b-7ca7-424a-9090-23d85cce22c6","system_id":"levelo_inurba_marseille","lat":43.300451,"lon":5.409302,"is_reserved":false,"is_disabled":false,"rental_uris":{"android":"levelo://app?vid=adfbe18b-7ca7-424a-9090-23d85cce22c6","ios":"levelo://app?vid=adfbe18b-7ca7-424a-9090-23d85cce22c6"},"vehicle_type_id":"4","last_reported":1759223451,"current_range_meters":14800,"station_id":"","pricing_plan_id":"cebpf4jnsgd1na2vs0mg"},{"bike_id":"1d77b7d7-6c50-47ce-a252-2a4011bccda7","system_id":"levelo_inurba_marseille","lat":43.25949,"lon":5.41376,"is_reserved":false,"is_disabled":false,"rental_uris":{"android":"levelo://app?vid=1d77b7d7-6c50-47ce-a252-2a4011bccda7","ios":"levelo://app?vid=1d77b7d7-6c50-47ce-a252-2a4011bccda7"},"vehicle_type_id":"4","last_reported":1759223451,"current_range_meters":14800,"station_id":"","pricing_plan_id":"cebpf4jnsgd1na2vs0mg"},{"bike_id":"2ab535df-4c2c-40d8-af4f-189047a67c11","system_id":"levelo_inurba_marseille","lat":43.24638,"lon":5.43149,"is_reserved":false,"is_disabled":false,"rental_uris":{"android":"levelo://app?vid=2ab535df-4c2c-40d8-af4f-189047a67c11","ios":"levelo://app?vid=2ab535df-4c2c-40d8-af4f-189047a67c11"},"vehicle_type_id":"4","last_reported":1759223451,"current_range_meters":14800,"station_id":"st_d2m6c4gdas8pm72e190g","pricing_plan_id":"cebpf4jnsgd1na2vs0mg"},{"bike_id":"63aa2455-2da3-4e9c-9e4e-54ed059c09ac","system_id":"levelo_inurba_marseille","lat":43.31654,"lon":5.38974,"is_reserved":false,"is_disabled":false,"rental_uris":{"android":"levelo://app?vid=63aa2455-2da3-4e9c-9e4e-54ed059c09ac","ios":"levelo://app?vid=63aa2455-2da3-4e9c-9e4e-54ed059c09ac"},"vehicle_type_id":"4","last_reported":1759223451,"current_range_meters":14800,"station_id":"","pricing_plan_id":"cebpf4jnsgd1na2vs0mg"},{"bike_id":"ccb34769-3b4b-4fa1-84d4-8155e7ee1b10","system_id":"levelo_inurba_marseille","lat":43.31063,"lon":5.38358,"is_reserved":false,"is_disabled":false,"rental_uris":{"android":"levelo://app?vid=ccb34769-3b4b-4fa1-84d4-8155e7ee1b10","ios":"levelo://app?vid=ccb34769-3b4b-4fa1-84d4-8155e7ee1b10"},"vehicle_type_id":"4","last_reported":1759223451,"current_range_meters":14800,"station_id":"ce4bgv92rcd13ifvqcr0","pricing_plan_id":"cebpf4jnsgd1na2vs0mg"},{"bike_id":"160d87ba-72b5-4bae-8c49-92ad55ded316","system_id":"levelo_inurba_marseille","lat":43.31186,"lon":5.38707,"is_reserved":false,"is_disabled":false,"rental_uris":{"android":"levelo://app?vid=160d87ba-72b5-4bae-8c49-92ad55ded316","ios":"levelo://app?vid=160d87ba-72b5-4bae-8c49-92ad55ded316"},"vehicle_type_id":"4","last_reported":1759223451,"current_range_meters":14800,"station_id":"ce4bgv12rcd13ifvqcp0","pricing_plan_id":"cebpf4jnsgd1na2vs0mg"},{"bike_id":"11acad3d-b798-4c25-a044-c3c54677d114","system_id":"levelo_inurba_marseille","lat":43.28642,"lon":5.35077,"is_reserved":false,"is_disabled":false,"rental_uris":{"android":"levelo://app?vid=11acad3d-b798-4c25-a044-c3c54677d114","ios":"levelo://app?vid=11acad3d-b798-4c25-a044-c3c54677d114"},"vehicle_type_id":"4","last_reported":1759223451,"current_range_meters":15200,"station_id":"ce4bhch2rcd13ifvqeug","pricing_plan_id":"cebpf4jnsgd1na2vs0mg"},{"bike_id":"d3626de2-8599-4d6e-9423-051de6f3e78a","system_id":"levelo_inurba_marseille","lat":43.29525,"lon":5.38557,"is_reserved":false,"is_disabled":true,"rental_uris":{"android":"levelo://app?vid=d3626de2-8599-4d6e-9423-051de6f3e78a","ios":"levelo://app?vid=d3626de2-8599-4d6e-9423-051de6f3e78a"},"vehicle_type_id":"4","last_reported":1759223451,"current_range_meters":15200,"station_id":"ce4bgih2rcd13ifvqba0","pricing_plan_id":"cebpf4jnsgd1na2vs0mg"},{"bike_id":"e953d32a-2f0e-42bf-8b0b-74509f6db89d","system_id":"levelo_inurba_marseille","lat":43.29028,"lon":5.37583,"is_reserved":false,"is_disabled":false,"rental_uris":{"android":"levelo://app?vid=e953d32a-2f0e-42bf-8b0b-74509f6db89d","ios":"levelo://app?vid=e953d32a-2f0e-42bf-8b0b-74509f6db89d"},"vehicle_type_id":"4","last_reported":1759223451,"current_range_meters":15200,"station_id":"ce4bh692rcd13ifvqe90","pricing_plan_id":"cebpf4jnsgd1na2vs0mg"},{"bike_id":"17ebb2be-02f7-444b-a28d-22572b3b99a7","system_id":"levelo_inurba_marseille","lat":43.29573,"lon":5.37501,"is_reserved":false,"is_disabled":false,"rental_uris":{"android":"levelo://app?vid=17ebb2be-02f7-444b-a28d-22572b3b99a7","ios":"levelo://app?vid=17ebb2be-02f7-444b-a28d-22572b3b99a7"},"vehicle_type_id":"4","last_reported":1759223451,"current_range_meters":15200,"station_id":"ce4bgh92rcd13ifvqb50","pricing_plan_id":"cebpf4jnsgd1na2vs0mg"},{"bike_id":"077fdad2-bc96-4cb9-b762-f58800ae1015","system_id":"levelo_inurba_marseille","lat":43.2926,"lon":5.376217,"is_reserved":false,"is_disabled":false,"rental_uris":{"android":"levelo://app?vid=077fdad2-bc96-4cb9-b762-f58800ae1015","ios":"levelo://app?vid=077fdad2-bc96-4cb9-b762-f58800ae1015"},"vehicle_type_id":"4","last_reported":1759223451,"current_range_meters":15200,"station_id":"ce4bgi12rcd13ifvqb80","pricing_plan_id":"cebpf4jnsgd1na2vs0mg"},{"bike_id":"44631c7d-87d1-44be-96c2-2a43e54fa7d0","system_id":"levelo_inurba_marseille","lat":43.26196,"lon":5.37451,"is_reserved":false,"is_disabled":false,"rental_uris":{"android":"levelo://app?vid=44631c7d-87d1-44be-96c2-2a43e54fa7d0","ios":"levelo://app?vid=44631c7d-87d1-44be-96c2-2a43e54fa7d0"},"vehicle_type_id":"4","last_reported":1759223451,"current_range_meters":15200,"station_id":"ce4bhgp2rcd13ifvqfc0","pricing_plan_id":"cebpf4jnsgd1na2vs0mg"},{"bike_id":"694a3a5f-723f-47f1-a73b-869220cc5d4c","system_id":"levelo_inurba_marseille","lat":43.27075,"lon":5.42272,"is_reserved":false,"is_disabled":false,"rental_uris":{"android":"levelo://app?vid=694a3a5f-723f-47f1-a73b-869220cc5d4c","ios":"levelo://app?vid=694a3a5f-723f-47f1-a73b-869220cc5d4c"},"vehicle_type_id":"4","last_reported":1759223451,"current_range_meters":16000,"station_id":"ce4bhk92rcd13ifvqgb0","pricing_plan_id":"cebpf4jnsgd1na2vs0mg"},{"bike_id":"f752559e-e357-41d0-b0e1-06afd32411be","system_id":"levelo_inurba_marseille","lat":43.27458,"lon":5.40786,"is_reserved":false,"is_disabled":false,"rental_uris":{"android":"levelo://app?vid=f752559e-e357-41d0-b0e1-06afd32411be","ios":"levelo://app?vid=f752559e-e357-41d0-b0e1-06afd32411be"},"vehicle_type_id":"4","last_reported":1759223451,"current_range_meters":16000,"station_id":"","pricing_plan_id":"cebpf4jnsgd1na2vs0mg"},{"bike_id":"b9d67e7e-1194-465d-be62-551bc32418fb","system_id":"levelo_inurba_marseille","lat":43.26196,"lon":5.37912,"is_reserved":false,"is_disabled":false,"rental_uris":{"android":"levelo://app?vid=b9d67e7e-1194-465d-be62-551bc32418fb","ios":"levelo://app?vid=b9d67e7e-1194-465d-be62-551bc32418fb"},"vehicle_type_id":"4","last_reported":1759223451,"current_range_meters":15200,"station_id":"ce4bhjp2rcd13ifvqg90","pricing_plan_id":"cebpf4jnsgd1na2vs0mg"},{"bike_id":"d749c0fe-8a3f-473a-856a-b02d5865bd61","system_id":"levelo_inurba_marseille","lat":43.261361,"lon":5.379424,"is_reserved":false,"is_disabled":false,"rental_uris":{"android":"levelo://app?vid=d749c0fe-8a3f-473a-856a-b02d5865bd61","ios":"levelo://app?vid=d749c0fe-8a3f-473a-856a-b02d5865bd61"},"vehicle_type_id":"4","last_reported":1759223451,"current_range_meters":16000,"station_id":"ce4bhjp2rcd13ifvqg90","pricing_plan_id":"cebpf4jnsgd1na2vs0mg"},{"bike_id":"30cbf9c0-d8c9-49e3-afe2-ea0d70b63a10","system_id":"levelo_inurba_marseille","lat":43.2838,"lon":5.38649,"is_reserved":false,"is_disabled":true,"rental_uris":{"android":"levelo://app?vid=30cbf9c0-d8c9-49e3-afe2-ea0d70b63a10","ios":"levelo://app?vid=30cbf9c0-d8c9-49e3-afe2-ea0d70b63a10"},"vehicle_type_id":"4","last_reported":1759223451,"current_range_meters":16000,"station_id":"ce4bh492rcd13ifvqdvg","pricing_plan_id":"cebpf4jnsgd1na2vs0mg"},{"bike_id":"490340a9-e515-4e20-9380-39baa6fafa44","system_id":"levelo_inurba_marseille","lat":43.31368,"lon":5.38489,"is_reserved":false,"is_disabled":false,"rental_uris":{"android":"levelo://app?vid=490340a9-e515-4e20-9380-39baa6fafa44","ios":"levelo://app?vid=490340a9-e515-4e20-9380-39baa6fafa44"},"vehicle_type_id":"4","last_reported":1759223451,"current_range_meters":16000,"station_id":"ce4bgt92rcd13ifvqcf0","pricing_plan_id":"cebpf4jnsgd1na2vs0mg"},{"bike_id":"84f305ce-7cfe-45d4-9172-1384fd3180f3","system_id":"levelo_inurba_marseille","lat":43.229228,"lon":5.353879,"is_reserved":false,"is_disabled":false,"rental_uris":{"android":"levelo://app?vid=84f305ce-7cfe-45d4-9172-1384fd3180f3","ios":"levelo://app?vid=84f305ce-7cfe-45d4-9172-1384fd3180f3"},"vehicle_type_id":"4","last_reported":1759223451,"current_range_meters":16000,"station_id":"cpo3532slgdg3j2ikp40","pricing_plan_id":"cebpf4jnsgd1na2vs0mg"},{"bike_id":"e63d81ac-3257-4c2e-af19-68044bf7557a","system_id":"levelo_inurba_marseille","lat":43.28427,"lon":5.37477,"is_reserved":false,"is_disabled":false,"rental_uris":{"android":"levelo://app?vid=e63d81ac-3257-4c2e-af19-68044bf7557a","ios":"levelo://app?vid=e63d81ac-3257-4c2e-af19-68044bf7557a"},"vehicle_type_id":"4","last_reported":1759223451,"current_range_meters":16000,"station_id":"ce4bh412rcd13ifvqds0","pricing_plan_id":"cebpf4jnsgd1na2vs0mg"},{"bike_id":"a850760d-f890-4818-860e-321d70e97b11","system_id":"levelo_inurba_marseille","lat":43.32355,"lon":5.3674,"is_reserved":false,"is_disabled":false,"rental_uris":{"android":"levelo://app?vid=a850760d-f890-4818-860e-321d70e97b11","ios":"levelo://app?vid=a850760d-f890-4818-860e-321d70e97b11"},"vehicle_type_id":"4","last_reported":1759223451,"current_range_meters":16400,"station_id":"ce4bhsh2rcd13ifvqi2g","pricing_plan_id":"cebpf4jnsgd1na2vs0mg"},{"bike_id":"7cd433e0-4dc5-4dcb-a5c6-f17936bd4cb6","system_id":"levelo_inurba_marseille","lat":43.3155,"lon":5.40377,"is_reserved":false,"is_disabled":false,"rental_uris":{"android":"levelo://app?vid=7cd433e0-4dc5-4dcb-a5c6-f17936bd4cb6","ios":"levelo://app?vid=7cd433e0-4dc5-4dcb-a5c6-f17936bd4cb6"},"vehicle_type_id":"4","last_reported":1759223451,"current_range_meters":16400,"station_id":"","pricing_plan_id":"cebpf4jnsgd1na2vs0mg"},{"bike_id":"ac7fd049-00b0-4b11-93bb-bf40af712d8e","system_id":"levelo_inurba_marseille","lat":43.29196,"lon":5.358,"is_reserved":false,"is_disabled":false,"rental_uris":{"android":"levelo://app?vid=ac7fd049-00b0-4b11-93bb-bf40af712d8e","ios":"levelo://app?vid=ac7fd049-00b0-4b11-93bb-bf40af712d8e"},"vehicle_type_id":"4","last_reported":1759223451,"current_range_meters":16000,"station_id":"ce4bhb12rcd13ifvqel0","pricing_plan_id":"cebpf4jnsgd1na2vs0mg"},{"bike_id":"c55252ec-7f47-4422-a863-351e2af0586d","system_id":"levelo_inurba_marseille","lat":43.240776,"lon":5.377552,"is_reserved":false,"is_disabled":false,"rental_uris":{"android":"levelo://app?vid=c55252ec-7f47-4422-a863-351e2af0586d","ios":"levelo://app?vid=c55252ec-7f47-4422-a863-351e2af0586d"},"vehicle_type_id":"4","last_reported":1759223451,"current_range_meters":16400,"station_id":"ce4bhnp2rcd13ifvqgvg","pricing_plan_id":"cebpf4jnsgd1na2vs0mg"},{"bike_id":"2b993201-32c3-415f-a73f-a532aaf741f7","system_id":"levelo_inurba_marseille","lat":43.29847,"lon":5.36272,"is_reserved":false,"is_disabled":false,"rental_uris":{"android":"levelo://app?vid=2b993201-32c3-415f-a73f-a532aaf741f7","ios":"levelo://app?vid=2b993201-32c3-415f-a73f-a532aaf741f7"},"vehicle_type_id":"4","last_reported":1759223451,"current_range_meters":16400,"station_id":"ce4bgpp2rcd13ifvqc3g","pricing_plan_id":"cebpf4jnsgd1na2vs0mg"},{"bike_id":"627f0009-c086-4f8a-8406-c08f3975bb85","system_id":"levelo_inurba_marseille","lat":43.337914,"lon":5.374267,"is_reserved":false,"is_disabled":false,"rental_uris":{"android":"levelo://app?vid=627f0009-c086-4f8a-8406-c08f3975bb85","ios":"levelo://app?vid=627f0009-c086-4f8a-8406-c08f3975bb85"},"vehicle_type_id":"4","last_reported":1759223451,"current_range_meters":16400,"station_id":"","pricing_plan_id":"cebpf4jnsgd1na2vs0mg"},{"bike_id":"cfb1ef01-ed0e-413c-bb09-20e6d021e251","system_id":"levelo_inurba_marseille","lat":43.32535,"lon":5.41446,"is_reserved":false,"is_disabled":false,"rental_uris":{"android":"levelo://app?vid=cfb1ef01-ed0e-413c-bb09-20e6d021e251","ios":"levelo://app?vid=cfb1ef01-ed0e-413c-bb09-20e6d021e251"},"vehicle_type_id":"4","last_reported":1759223451,"current_range_meters":16800,"station_id":"ce4bhq12rcd13ifvqhhg","pricing_plan_id":"cebpf4jnsgd1na2vs0mg"},{"bike_id":"9259d079-29af-4c38-99e0-f25e4d514b98","system_id":"levelo_inurba_marseille","lat":43.26338,"lon":5.39675,"is_reserved":false,"is_disabled":false,"rental_uris":{"android":"levelo://app?vid=9259d079-29af-4c38-99e0-f25e4d514b98","ios":"levelo://app?vid=9259d079-29af-4c38-99e0-f25e4d514b98"},"vehicle_type_id":"4","last_reported":1759223451,"current_range_meters":16800,"station_id":"","pricing_plan_id":"cebpf4jnsgd1na2vs0mg"},{"bike_id":"cc5dd51e-486f-4db9-9baf-a34da2b8dd6a","system_id":"levelo_inurba_marseille","lat":43.30561,"lon":5.36557,"is_reserved":false,"is_disabled":false,"rental_uris":{"android":"levelo://app?vid=cc5dd51e-486f-4db9-9baf-a34da2b8dd6a","ios":"levelo://app?vid=cc5dd51e-486f-4db9-9baf-a34da2b8dd6a"},"vehicle_type_id":"4","last_reported":1759223451,"current_range_meters":16800,"station_id":"ce4bgs12rcd13ifvqcag","pricing_plan_id":"cebpf4jnsgd1na2vs0mg"},{"bike_id":"c11d433c-682c-4b66-8bf6-cb02b58590e4","system_id":"levelo_inurba_marseille","lat":43.308848,"lon":5.372052,"is_reserved":false,"is_disabled":false,"rental_uris":{"android":"levelo://app?vid=c11d433c-682c-4b66-8bf6-cb02b58590e4","ios":"levelo://app?vid=c11d433c-682c-4b66-8bf6-cb02b58590e4"},"vehicle_type_id":"4","last_reported":1759223451,"current_range_meters":16800,"station_id":"ce4bguh2rcd13ifvqckg","pricing_plan_id":"cebpf4jnsgd1na2vs0mg"},{"bike_id":"617dca4b-4508-4d52-9e62-d583d919ac44","system_id":"levelo_inurba_marseille","lat":43.297394,"lon":5.371125,"is_reserved":false,"is_disabled":false,"rental_uris":{"android":"levelo://app?vid=617dca4b-4508-4d52-9e62-d583d919ac44","ios":"levelo://app?vid=617dca4b-4508-4d52-9e62-d583d919ac44"},"vehicle_type_id":"4","last_reported":1759223451,"current_range_meters":16800,"station_id":"","pricing_plan_id":"cebpf4jnsgd1na2vs0mg"},{"bike_id":"8529f32e-2b7c-4b03-9b67-3802b1b158ab","system_id":"levelo_inurba_marseille","lat":43.31349,"lon":5.36695,"is_reserved":false,"is_disabled":false,"rental_uris":{"android":"levelo://app?vid=8529f32e-2b7c-4b03-9b67-3802b1b158ab","ios":"levelo://app?vid=8529f32e-2b7c-4b03-9b67-3802b1b158ab"},"vehicle_type_id":"4","last_reported":1759223451,"current_range_meters":16800,"station_id":"ce4bgr92rcd13ifvqc6g","pricing_plan_id":"cebpf4jnsgd1na2vs0mg"},{"bike_id":"8c697fac-abf7-4543-a653-55457ca28fa3","system_id":"levelo_inurba_marseille","lat":43.27048,"lon":5.40259,"is_reserved":false,"is_disabled":false,"rental_uris":{"android":"levelo://app?vid=8c697fac-abf7-4543-a653-55457ca28fa3","ios":"levelo://app?vid=8c697fac-abf7-4543-a653-55457ca28fa3"},"vehicle_type_id":"4","last_reported":1759223451,"current_range_meters":16800,"station_id":"ce4bhk92rcd13ifvqgc0","pricing_plan_id":"cebpf4jnsgd1na2vs0mg"},{"bike_id":"d88e0d03-a71d-4d69-bfe0-f7906e10eef6","system_id":"levelo_inurba_marseille","lat":43.22923,"lon":5.3538,"is_reserved":false,"is_disabled":false,"rental_uris":{"android":"levelo://app?vid=d88e0d03-a71d-4d69-bfe0-f7906e10eef6","ios":"levelo://app?vid=d88e0d03-a71d-4d69-bfe0-f7906e10eef6"},"vehicle_type_id":"4","last_reported":1759223451,"current_range_meters":16800,"station_id":"cpo3532slgdg3j2ikp40","pricing_plan_id":"cebpf4jnsgd1na2vs0mg"},{"bike_id":"cda04981-589a-4bb2-995c-91533edee3c5","system_id":"levelo_inurba_marseille","lat":43.23148,"lon":5.43711,"is_reserved":false,"is_disabled":false,"rental_uris":{"android":"levelo://app?vid=cda04981-589a-4bb2-995c-91533edee3c5","ios":"levelo://app?vid=cda04981-589a-4bb2-995c-91533edee3c5"},"vehicle_type_id":"4","last_reported":1759223451,"current_range_meters":16800,"station_id":"ce4bhmp2rcd13ifvqgog","pricing_plan_id":"cebpf4jnsgd1na2vs0mg"},{"bike_id":"afce770b-05f5-4ec7-b2c6-d067c07f31bc","system_id":"levelo_inurba_marseille","lat":43.291987,"lon":5.358042,"is_reserved":false,"is_disabled":false,"rental_uris":{"android":"levelo://app?vid=afce770b-05f5-4ec7-b2c6-d067c07f31bc","ios":"levelo://app?vid=afce770b-05f5-4ec7-b2c6-d067c07f31bc"},"vehicle_type_id":"4","last_reported":1759223451,"current_range_meters":16800,"station_id":"ce4bhb12rcd13ifvqel0","pricing_plan_id":"cebpf4jnsgd1na2vs0mg"},{"bike_id":"de465f74-b2e1-47fa-8954-0564a43f223d","system_id":"levelo_inurba_marseille","lat":43.32548,"lon":5.41436,"is_reserved":false,"is_disabled":false,"rental_uris":{"android":"levelo://app?vid=de465f74-b2e1-47fa-8954-0564a43f223d","ios":"levelo://app?vid=de465f74-b2e1-47fa-8954-0564a43f223d"},"vehicle_type_id":"4","last_reported":1759223451,"current_range_meters":17200,"station_id":"ce4bhq12rcd13ifvqhhg","pricing_plan_id":"cebpf4jnsgd1na2vs0mg"},{"bike_id":"939a3358-b170-4dcf-ba81-c469c3d626a0","system_id":"levelo_inurba_marseille","lat":43.29192,"lon":5.3931,"is_reserved":false,"is_disabled":false,"rental_uris":{"android":"levelo://app?vid=939a3358-b170-4dcf-ba81-c469c3d626a0","ios":"levelo://app?vid=939a3358-b170-4dcf-ba81-c469c3d626a0"},"vehicle_type_id":"4","last_reported":1759223451,"current_range_meters":17200,"station_id":"ce4bh192rcd13ifvqdd0","pricing_plan_id":"cebpf4jnsgd1na2vs0mg"},{"bike_id":"f9123536-66b6-4d6e-a473-094539ffdf2f","system_id":"levelo_inurba_marseille","lat":43.31209,"lon":5.36897,"is_reserved":false,"is_disabled":false,"rental_uris":{"android":"levelo://app?vid=f9123536-66b6-4d6e-a473-094539ffdf2f","ios":"levelo://app?vid=f9123536-66b6-4d6e-a473-094539ffdf2f"},"vehicle_type_id":"4","last_reported":1759223451,"current_range_meters":17200,"station_id":"ce4bgl92rcd13ifvqbq0","pricing_plan_id":"cebpf4jnsgd1na2vs0mg"},{"bike_id":"4ff7ec88-a2b7-4650-95d9-2534bf56e47a","system_id":"levelo_inurba_marseille","lat":43.24073,"lon":5.37753,"is_reserved":false,"is_disabled":false,"rental_uris":{"android":"levelo://app?vid=4ff7ec88-a2b7-4650-95d9-2534bf56e47a","ios":"levelo://app?vid=4ff7ec88-a2b7-4650-95d9-2534bf56e47a"},"vehicle_type_id":"4","last_reported":1759223451,"current_range_meters":17200,"station_id":"ce4bhnp2rcd13ifvqgvg","pricing_plan_id":"cebpf4jnsgd1na2vs0mg"},{"bike_id":"6c2e96f0-0d94-4ada-b75d-f16e4d9045a7","system_id":"levelo_inurba_marseille","lat":43.23965,"lon":5.36644,"is_reserved":false,"is_disabled":false,"rental_uris":{"android":"levelo://app?vid=6c2e96f0-0d94-4ada-b75d-f16e4d9045a7","ios":"levelo://app?vid=6c2e96f0-0d94-4ada-b75d-f16e4d9045a7"},"vehicle_type_id":"4","last_reported":1759223451,"current_range_meters":17200,"station_id":"ce4bhi12rcd13ifvqfp0","pricing_plan_id":"cebpf4jnsgd1na2vs0mg"},{"bike_id":"ec0a3dc3-05d2-4433-bc27-6db6703ffa58","system_id":"levelo_inurba_marseille","lat":43.28268,"lon":5.3506,"is_reserved":false,"is_disabled":false,"rental_uris":{"android":"levelo://app?vid=ec0a3dc3-05d2-4433-bc27-6db6703ffa58","ios":"levelo://app?vid=ec0a3dc3-05d2-4433-bc27-6db6703ffa58"},"vehicle_type_id":"4","last_reported":1759223451,"current_range_meters":17200,"station_id":"ce4bhbp2rcd13ifvqerg","pricing_plan_id":"cebpf4jnsgd1na2vs0mg"},{"bike_id":"18c9d1da-7c11-4ec6-9c1a-739547bb7f4d","system_id":"levelo_inurba_marseille","lat":43.27201,"lon":5.39187,"is_reserved":false,"is_disabled":false,"rental_uris":{"android":"levelo://app?vid=18c9d1da-7c11-4ec6-9c1a-739547bb7f4d","ios":"levelo://app?vid=18c9d1da-7c11-4ec6-9c1a-739547bb7f4d"},"vehicle_type_id":"4","last_reported":1759223451,"current_range_meters":16800,"station_id":"ce4bhhp2rcd13ifvqfm0","pricing_plan_id":"cebpf4jnsgd1na2vs0mg"},{"bike_id":"ee94eda5-f40b-4168-a57a-bf8989940e9c","system_id":"levelo_inurba_marseille","lat":43.32498,"lon":5.36568,"is_reserved":false,"is_disabled":false,"rental_uris":{"android":"levelo://app?vid=ee94eda5-f40b-4168-a57a-bf8989940e9c","ios":"levelo://app?vid=ee94eda5-f40b-4168-a57a-bf8989940e9c"},"vehicle_type_id":"4","last_reported":1759223451,"current_range_meters":17200,"station_id":"ce4bhs12rcd13ifvqhvg","pricing_plan_id":"cebpf4jnsgd1na2vs0mg"},{"bike_id":"31c27165-7020-462f-a775-f7a184eb3f12","system_id":"levelo_inurba_marseille","lat":43.29051,"lon":5.37143,"is_reserved":false,"is_disabled":true,"rental_uris":{"android":"levelo://app?vid=31c27165-7020-462f-a775-f7a184eb3f12","ios":"levelo://app?vid=31c27165-7020-462f-a775-f7a184eb3f12"},"vehicle_type_id":"4","last_reported":1759223451,"current_range_meters":17200,"station_id":"ce4bh5p2rcd13ifvqe4g","pricing_plan_id":"cebpf4jnsgd1na2vs0mg"},{"bike_id":"9f3df05c-810d-472a-afc5-0bc69b0159ba","system_id":"levelo_inurba_marseille","lat":43.23153,"lon":5.43705,"is_reserved":false,"is_disabled":false,"rental_uris":{"android":"levelo://app?vid=9f3df05c-810d-472a-afc5-0bc69b0159ba","ios":"levelo://app?vid=9f3df05c-810d-472a-afc5-0bc69b0159ba"},"vehicle_type_id":"4","last_reported":1759223451,"current_range_meters":17200,"station_id":"ce4bhmp2rcd13ifvqgog","pricing_plan_id":"cebpf4jnsgd1na2vs0mg"},{"bike_id":"1adf72d4-f2e2-443a-bd81-e3e77d2b1f3e","system_id":"levelo_inurba_marseille","lat":43.26673,"lon":5.40238,"is_reserved":false,"is_disabled":false,"rental_uris":{"android":"levelo://app?vid=1adf72d4-f2e2-443a-bd81-e3e77d2b1f3e","ios":"levelo://app?vid=1adf72d4-f2e2-443a-bd81-e3e77d2b1f3e"},"vehicle_type_id":"4","last_reported":1759223451,"current_range_meters":17200,"station_id":"","pricing_plan_id":"cebpf4jnsgd1na2vs0mg"},{"bike_id":"70c49bbf-ce06-4333-b52f-1cfc0848c7e2","system_id":"levelo_inurba_marseille","lat":43.28602,"lon":5.3707,"is_reserved":false,"is_disabled":false,"rental_uris":{"android":"levelo://app?vid=70c49bbf-ce06-4333-b52f-1cfc0848c7e2","ios":"levelo://app?vid=70c49bbf-ce06-4333-b52f-1cfc0848c7e2"},"vehicle_type_id":"4","last_reported":1759223451,"current_range_meters":17200,"station_id":"ce4bht12rcd13ifvqi60","pricing_plan_id":"cebpf4jnsgd1na2vs0mg"},{"bike_id":"50a6d9be-879d-4d99-9855-abb98fbce5b8","system_id":"levelo_inurba_marseille","lat":43.337851,"lon":5.374298,"is_reserved":false,"is_disabled":false,"rental_uris":{"android":"levelo://app?vid=50a6d9be-879d-4d99-9855-abb98fbce5b8","ios":"levelo://app?vid=50a6d9be-879d-4d99-9855-abb98fbce5b8"},"vehicle_type_id":"4","last_reported":1759223451,"current_range_meters":17200,"station_id":"","pricing_plan_id":"cebpf4jnsgd1na2vs0mg"},{"bike_id":"f3f7e78c-776c-4396-ab28-aded67c33d98","system_id":"levelo_inurba_marseille","lat":43.30907,"lon":5.36845,"is_reserved":false,"is_disabled":false,"rental_uris":{"android":"levelo://app?vid=f3f7e78c-776c-4396-ab28-aded67c33d98","ios":"levelo://app?vid=f3f7e78c-776c-4396-ab28-aded67c33d98"},"vehicle_type_id":"4","last_reported":1759223451,"current_range_meters":17600,"station_id":"ce4bgn92rcd13ifvqbvg","pricing_plan_id":"cebpf4jnsgd1na2vs0mg"},{"bike_id":"a58a4c94-7754-46be-b35a-a0b84fc468a5","system_id":"levelo_inurba_marseille","lat":43.29976,"lon":5.37331,"is_reserved":false,"is_disabled":false,"rental_uris":{"android":"levelo://app?vid=a58a4c94-7754-46be-b35a-a0b84fc468a5","ios":"levelo://app?vid=a58a4c94-7754-46be-b35a-a0b84fc468a5"},"vehicle_type_id":"4","last_reported":1759223451,"current_range_meters":17600,"station_id":"","pricing_plan_id":"cebpf4jnsgd1na2vs0mg"},{"bike_id":"9995c4b9-f187-4594-b064-caa0aa3cca34","system_id":"levelo_inurba_marseille","lat":43.26237,"lon":5.3877,"is_reserved":false,"is_disabled":false,"rental_uris":{"android":"levelo://app?vid=9995c4b9-f187-4594-b064-caa0aa3cca34","ios":"levelo://app?vid=9995c4b9-f187-4594-b064-caa0aa3cca34"},"vehicle_type_id":"4","last_reported":1759223451,"current_range_meters":17600,"station_id":"","pricing_plan_id":"cebpf4jnsgd1na2vs0mg"},{"bike_id":"e1a26520-858a-4d92-9c62-b5be5024bda3","system_id":"levelo_inurba_marseille","lat":43.26701,"lon":5.38235,"is_reserved":false,"is_disabled":false,"rental_uris":{"android":"levelo://app?vid=e1a26520-858a-4d92-9c62-b5be5024bda3","ios":"levelo://app?vid=e1a26520-858a-4d92-9c62-b5be5024bda3"},"vehicle_type_id":"4","last_reported":1759223451,"current_range_meters":17600,"station_id":"ce4bhg92rcd13ifvqf90","pricing_plan_id":"cebpf4jnsgd1na2vs0mg"},{"bike_id":"a6ebbdef-1936-4a9e-8823-b4569c4d3494","system_id":"levelo_inurba_marseille","lat":43.24178,"lon":5.39726,"is_reserved":false,"is_disabled":false,"rental_uris":{"android":"levelo://app?vid=a6ebbdef-1936-4a9e-8823-b4569c4d3494","ios":"levelo://app?vid=a6ebbdef-1936-4a9e-8823-b4569c4d3494"},"vehicle_type_id":"4","last_reported":1759223451,"current_range_meters":17600,"station_id":"ce4bhn12rcd13ifvqgpg","pricing_plan_id":"cebpf4jnsgd1na2vs0mg"},{"bike_id":"dd01cc88-b00e-4503-b7f6-35a9f933c0fe","system_id":"levelo_inurba_marseille","lat":43.2591,"lon":5.40873,"is_reserved":false,"is_disabled":false,"rental_uris":{"android":"levelo://app?vid=dd01cc88-b00e-4503-b7f6-35a9f933c0fe","ios":"levelo://app?vid=dd01cc88-b00e-4503-b7f6-35a9f933c0fe"},"vehicle_type_id":"4","last_reported":1759223451,"current_range_meters":17600,"station_id":"ce4bhm92rcd13ifvqglg","pricing_plan_id":"cebpf4jnsgd1na2vs0mg"},{"bike_id":"00014611-59a6-4e24-b1d5-3ef0a2b6a909","system_id":"levelo_inurba_marseille","lat":43.24161,"lon":5.36407,"is_reserved":false,"is_disabled":false,"rental_uris":{"android":"levelo://app?vid=00014611-59a6-4e24-b1d5-3ef0a2b6a909","ios":"levelo://app?vid=00014611-59a6-4e24-b1d5-3ef0a2b6a909"},"vehicle_type_id":"4","last_reported":1759223451,"current_range_meters":17600,"station_id":"cpo36qri1sfpv3e86is0","pricing_plan_id":"cebpf4jnsgd1na2vs0mg"},{"bike_id":"fbab43d0-89c0-4bd5-a13f-bfb4cf8b4fff","system_id":"levelo_inurba_marseille","lat":43.33609,"lon":5.41009,"is_reserved":false,"is_disabled":false,"rental_uris":{"android":"levelo://app?vid=fbab43d0-89c0-4bd5-a13f-bfb4cf8b4fff","ios":"levelo://app?vid=fbab43d0-89c0-4bd5-a13f-bfb4cf8b4fff"},"vehicle_type_id":"4","last_reported":1759223451,"current_range_meters":17200,"station_id":"ce4bhqh2rcd13ifvqhmg","pricing_plan_id":"cebpf4jnsgd1na2vs0mg"},{"bike_id":"7da91ef0-c6fc-49ea-9ccf-8bafe425acd2","system_id":"levelo_inurba_marseille","lat":43.33607,"lon":5.41006,"is_reserved":false,"is_disabled":false,"rental_uris":{"android":"levelo://app?vid=7da91ef0-c6fc-49ea-9ccf-8bafe425acd2","ios":"levelo://app?vid=7da91ef0-c6fc-49ea-9ccf-8bafe425acd2"},"vehicle_type_id":"4","last_reported":1759223451,"current_range_meters":18000,"station_id":"ce4bhqh2rcd13ifvqhmg","pricing_plan_id":"cebpf4jnsgd1na2vs0mg"},{"bike_id":"3f8a7425-65dd-467a-bda8-36ede2e6a269","system_id":"levelo_inurba_marseille","lat":43.26924,"lon":5.41023,"is_reserved":false,"is_disabled":false,"rental_uris":{"android":"levelo://app?vid=3f8a7425-65dd-467a-bda8-36ede2e6a269","ios":"levelo://app?vid=3f8a7425-65dd-467a-bda8-36ede2e6a269"},"vehicle_type_id":"4","last_reported":1759223451,"current_range_meters":18000,"station_id":"","pricing_plan_id":"cebpf4jnsgd1na2vs0mg"},{"bike_id":"ec95a157-5189-4cd4-a58e-2c4da000143c","system_id":"levelo_inurba_marseille","lat":43.29579,"lon":5.36749,"is_reserved":false,"is_disabled":false,"rental_uris":{"android":"levelo://app?vid=ec95a157-5189-4cd4-a58e-2c4da000143c","ios":"levelo://app?vid=ec95a157-5189-4cd4-a58e-2c4da000143c"},"vehicle_type_id":"4","last_reported":1759223451,"current_range_meters":17600,"station_id":"ce4bgph2rcd13ifvqc2g","pricing_plan_id":"cebpf4jnsgd1na2vs0mg"},{"bike_id":"365089f3-4799-47f7-889c-55b0cba8e875","system_id":"levelo_inurba_marseille","lat":43.2621,"lon":5.3744,"is_reserved":false,"is_disabled":false,"rental_uris":{"android":"levelo://app?vid=365089f3-4799-47f7-889c-55b0cba8e875","ios":"levelo://app?vid=365089f3-4799-47f7-889c-55b0cba8e875"},"vehicle_type_id":"4","last_reported":1759223451,"current_range_meters":18000,"station_id":"ce4bhgp2rcd13ifvqfc0","pricing_plan_id":"cebpf4jnsgd1na2vs0mg"},{"bike_id":"6e35eb3a-244d-446e-ba2c-c58465f51251","system_id":"levelo_inurba_marseille","lat":43.3213,"lon":5.3677,"is_reserved":false,"is_disabled":false,"rental_uris":{"android":"levelo://app?vid=6e35eb3a-244d-446e-ba2c-c58465f51251","ios":"levelo://app?vid=6e35eb3a-244d-446e-ba2c-c58465f51251"},"vehicle_type_id":"4","last_reported":1759223451,"current_range_meters":18000,"station_id":"ce4bhrh2rcd13ifvqhug","pricing_plan_id":"cebpf4jnsgd1na2vs0mg"},{"bike_id":"2410b542-4dbb-4ba2-8de7-3b722fc9a69f","system_id":"levelo_inurba_marseille","lat":43.28465,"lon":5.35881,"is_reserved":false,"is_disabled":true,"rental_uris":{"android":"levelo://app?vid=2410b542-4dbb-4ba2-8de7-3b722fc9a69f","ios":"levelo://app?vid=2410b542-4dbb-4ba2-8de7-3b722fc9a69f"},"vehicle_type_id":"4","last_reported":1759223451,"current_range_meters":18000,"station_id":"ce4bhah2rcd13ifvqei0","pricing_plan_id":"cebpf4jnsgd1na2vs0mg"},{"bike_id":"a9f05152-e55f-436d-b3d3-ffe2c2f0b84e","system_id":"levelo_inurba_marseille","lat":43.23138,"lon":5.43725,"is_reserved":false,"is_disabled":false,"rental_uris":{"android":"levelo://app?vid=a9f05152-e55f-436d-b3d3-ffe2c2f0b84e","ios":"levelo://app?vid=a9f05152-e55f-436d-b3d3-ffe2c2f0b84e"},"vehicle_type_id":"4","last_reported":1759223451,"current_range_meters":18000,"station_id":"ce4bhmp2rcd13ifvqgog","pricing_plan_id":"cebpf4jnsgd1na2vs0mg"},{"bike_id":"db3a202b-6514-4a53-892d-e953fc1e9d26","system_id":"levelo_inurba_marseille","lat":43.225369,"lon":5.348573,"is_reserved":false,"is_disabled":false,"rental_uris":{"android":"levelo://app?vid=db3a202b-6514-4a53-892d-e953fc1e9d26","ios":"levelo://app?vid=db3a202b-6514-4a53-892d-e953fc1e9d26"},"vehicle_type_id":"4","last_reported":1759223451,"current_range_meters":18000,"station_id":"","pricing_plan_id":"cebpf4jnsgd1na2vs0mg"},{"bike_id":"471bf28e-aebb-4332-ab3e-c18e74efb3de","system_id":"levelo_inurba_marseille","lat":43.31321,"lon":5.39696,"is_reserved":false,"is_disabled":false,"rental_uris":{"android":"levelo://app?vid=471bf28e-aebb-4332-ab3e-c18e74efb3de","ios":"levelo://app?vid=471bf28e-aebb-4332-ab3e-c18e74efb3de"},"vehicle_type_id":"4","last_reported":1759223451,"current_range_meters":18000,"station_id":"ce4bgvp2rcd13ifvqcu0","pricing_plan_id":"cebpf4jnsgd1na2vs0mg"},{"bike_id":"cb8737f5-9915-4005-98ee-fd2aa1c38d9f","system_id":"levelo_inurba_marseille","lat":43.28411,"lon":5.34988,"is_reserved":false,"is_disabled":false,"rental_uris":{"android":"levelo://app?vid=cb8737f5-9915-4005-98ee-fd2aa1c38d9f","ios":"levelo://app?vid=cb8737f5-9915-4005-98ee-fd2aa1c38d9f"},"vehicle_type_id":"4","last_reported":1759223451,"current_range_meters":18000,"station_id":"ce4bhbh2rcd13ifvqepg","pricing_plan_id":"cebpf4jnsgd1na2vs0mg"},{"bike_id":"123e055a-692b-459b-9c4f-970a83ad75be","system_id":"levelo_inurba_marseille","lat":43.32361,"lon":5.36727,"is_reserved":false,"is_disabled":false,"rental_uris":{"android":"levelo://app?vid=123e055a-692b-459b-9c4f-970a83ad75be","ios":"levelo://app?vid=123e055a-692b-459b-9c4f-970a83ad75be"},"vehicle_type_id":"4","last_reported":1759223451,"current_range_meters":18000,"station_id":"ce4bhsh2rcd13ifvqi2g","pricing_plan_id":"cebpf4jnsgd1na2vs0mg"},{"bike_id":"dd96ad11-bc9a-4236-a467-dab6a7e0617d","system_id":"levelo_inurba_marseille","lat":43.25333,"lon":5.42171,"is_reserved":false,"is_disabled":false,"rental_uris":{"android":"levelo://app?vid=dd96ad11-bc9a-4236-a467-dab6a7e0617d","ios":"levelo://app?vid=dd96ad11-bc9a-4236-a467-dab6a7e0617d"},"vehicle_type_id":"4","last_reported":1759223451,"current_range_meters":18800,"station_id":"st_d2m65c5bi1j21697t3ng","pricing_plan_id":"cebpf4jnsgd1na2vs0mg"},{"bike_id":"73e22ed6-f150-4bd5-a7c9-af939e7a8ce9","system_id":"levelo_inurba_marseille","lat":43.290507,"lon":5.419421,"is_reserved":false,"is_disabled":false,"rental_uris":{"android":"levelo://app?vid=73e22ed6-f150-4bd5-a7c9-af939e7a8ce9","ios":"levelo://app?vid=73e22ed6-f150-4bd5-a7c9-af939e7a8ce9"},"vehicle_type_id":"4","last_reported":1759223451,"current_range_meters":18800,"station_id":"","pricing_plan_id":"cebpf4jnsgd1na2vs0mg"},{"bike_id":"9f344037-7aa5-4ee2-920d-740ab1273e5a","system_id":"levelo_inurba_marseille","lat":43.29607,"lon":5.37724,"is_reserved":false,"is_disabled":false,"rental_uris":{"android":"levelo://app?vid=9f344037-7aa5-4ee2-920d-740ab1273e5a","ios":"levelo://app?vid=9f344037-7aa5-4ee2-920d-740ab1273e5a"},"vehicle_type_id":"4","last_reported":1759223451,"current_range_meters":18800,"station_id":"ce4bgi92rcd13ifvqb90","pricing_plan_id":"cebpf4jnsgd1na2vs0mg"},{"bike_id":"68758908-86ab-415c-8c0e-5ad68c1c99ae","system_id":"levelo_inurba_marseille","lat":43.295222,"lon":5.390497,"is_reserved":false,"is_disabled":false,"rental_uris":{"android":"levelo://app?vid=68758908-86ab-415c-8c0e-5ad68c1c99ae","ios":"levelo://app?vid=68758908-86ab-415c-8c0e-5ad68c1c99ae"},"vehicle_type_id":"4","last_reported":1759223451,"current_range_meters":17600,"station_id":"ce4bh3p2rcd13ifvqdp0","pricing_plan_id":"cebpf4jnsgd1na2vs0mg"},{"bike_id":"700e2971-7ce2-46cc-996b-6959d72691c7","system_id":"levelo_inurba_marseille","lat":43.22561,"lon":5.41625,"is_reserved":false,"is_disabled":false,"rental_uris":{"android":"levelo://app?vid=700e2971-7ce2-46cc-996b-6959d72691c7","ios":"levelo://app?vid=700e2971-7ce2-46cc-996b-6959d72691c7"},"vehicle_type_id":"4","last_reported":1759223451,"current_range_meters":18800,"station_id":"st_d2o4gvlbi1j2169b742g","pricing_plan_id":"cebpf4jnsgd1na2vs0mg"},{"bike_id":"0a93e32c-58e9-4e8d-b8bd-c8697cf93704","system_id":"levelo_inurba_marseille","lat":43.26205,"lon":5.38748,"is_reserved":false,"is_disabled":false,"rental_uris":{"android":"levelo://app?vid=0a93e32c-58e9-4e8d-b8bd-c8697cf93704","ios":"levelo://app?vid=0a93e32c-58e9-4e8d-b8bd-c8697cf93704"},"vehicle_type_id":"4","last_reported":1759223451,"current_range_meters":18800,"station_id":"","pricing_plan_id":"cebpf4jnsgd1na2vs0mg"},{"bike_id":"2662ede6-d16a-46cd-bcd9-36fbc909ccdd","system_id":"levelo_inurba_marseille","lat":43.27063,"lon":5.42278,"is_reserved":false,"is_disabled":false,"rental_uris":{"android":"levelo://app?vid=2662ede6-d16a-46cd-bcd9-36fbc909ccdd","ios":"levelo://app?vid=2662ede6-d16a-46cd-bcd9-36fbc909ccdd"},"vehicle_type_id":"4","last_reported":1759223451,"current_range_meters":18800,"station_id":"ce4bhk92rcd13ifvqgb0","pricing_plan_id":"cebpf4jnsgd1na2vs0mg"},{"bike_id":"bb80e5da-8df2-462f-8828-7587302fcb86","system_id":"levelo_inurba_marseille","lat":43.29784,"lon":5.37666,"is_reserved":false,"is_disabled":false,"rental_uris":{"android":"levelo://app?vid=bb80e5da-8df2-462f-8828-7587302fcb86","ios":"levelo://app?vid=bb80e5da-8df2-462f-8828-7587302fcb86"},"vehicle_type_id":"4","last_reported":1759223451,"current_range_meters":18800,"station_id":"","pricing_plan_id":"cebpf4jnsgd1na2vs0mg"},{"bike_id":"450844ba-2fc2-47be-9959-8fee61f07fb6","system_id":"levelo_inurba_marseille","lat":43.317354,"lon":5.390403,"is_reserved":false,"is_disabled":false,"rental_uris":{"android":"levelo://app?vid=450844ba-2fc2-47be-9959-8fee61f07fb6","ios":"levelo://app?vid=450844ba-2fc2-47be-9959-8fee61f07fb6"},"vehicle_type_id":"4","last_reported":1759223451,"current_range_meters":19200,"station_id":"ce4bhqp2rcd13ifvqhng","pricing_plan_id":"cebpf4jnsgd1na2vs0mg"},{"bike_id":"b7cd29c1-7e6a-4750-89cf-107360408473","system_id":"levelo_inurba_marseille","lat":43.22542,"lon":5.34824,"is_reserved":false,"is_disabled":false,"rental_uris":{"android":"levelo://app?vid=b7cd29c1-7e6a-4750-89cf-107360408473","ios":"levelo://app?vid=b7cd29c1-7e6a-4750-89cf-107360408473"},"vehicle_type_id":"4","last_reported":1759223451,"current_range_meters":19200,"station_id":"","pricing_plan_id":"cebpf4jnsgd1na2vs0mg"},{"bike_id":"e187db07-50c1-47be-aab2-7c50eb03e8bc","system_id":"levelo_inurba_marseille","lat":43.2926,"lon":5.409096,"is_reserved":false,"is_disabled":false,"rental_uris":{"android":"levelo://app?vid=e187db07-50c1-47be-aab2-7c50eb03e8bc","ios":"levelo://app?vid=e187db07-50c1-47be-aab2-7c50eb03e8bc"},"vehicle_type_id":"4","last_reported":1759223451,"current_range_meters":19200,"station_id":"","pricing_plan_id":"cebpf4jnsgd1na2vs0mg"},{"bike_id":"e8a6d609-d965-4c72-b22f-83ffb60a3d29","system_id":"levelo_inurba_marseille","lat":43.26203,"lon":5.38762,"is_reserved":false,"is_disabled":false,"rental_uris":{"android":"levelo://app?vid=e8a6d609-d965-4c72-b22f-83ffb60a3d29","ios":"levelo://app?vid=e8a6d609-d965-4c72-b22f-83ffb60a3d29"},"vehicle_type_id":"4","last_reported":1759223451,"current_range_meters":19200,"station_id":"","pricing_plan_id":"cebpf4jnsgd1na2vs0mg"},{"bike_id":"a3577dd7-b1db-4ad9-be15-00d58b2f8c69","system_id":"levelo_inurba_marseille","lat":43.27062,"lon":5.4229,"is_reserved":false,"is_disabled":false,"rental_uris":{"android":"levelo://app?vid=a3577dd7-b1db-4ad9-be15-00d58b2f8c69","ios":"levelo://app?vid=a3577dd7-b1db-4ad9-be15-00d58b2f8c69"},"vehicle_type_id":"4","last_reported":1759223451,"current_range_meters":19200,"station_id":"ce4bhk92rcd13ifvqgb0","pricing_plan_id":"cebpf4jnsgd1na2vs0mg"},{"bike_id":"c7fc05f6-2649-43e2-aa58-fe9056384be6","system_id":"levelo_inurba_marseille","lat":43.29277,"lon":5.376416,"is_reserved":false,"is_disabled":false,"rental_uris":{"android":"levelo://app?vid=c7fc05f6-2649-43e2-aa58-fe9056384be6","ios":"levelo://app?vid=c7fc05f6-2649-43e2-aa58-fe9056384be6"},"vehicle_type_id":"4","last_reported":1759223451,"current_range_meters":19200,"station_id":"ce4bgi12rcd13ifvqb80","pricing_plan_id":"cebpf4jnsgd1na2vs0mg"},{"bike_id":"6523f72e-1462-440e-bc86-c0c457314b50","system_id":"levelo_inurba_marseille","lat":43.336049,"lon":5.409954,"is_reserved":false,"is_disabled":false,"rental_uris":{"android":"levelo://app?vid=6523f72e-1462-440e-bc86-c0c457314b50","ios":"levelo://app?vid=6523f72e-1462-440e-bc86-c0c457314b50"},"vehicle_type_id":"4","last_reported":1759223451,"current_range_meters":19200,"station_id":"ce4bhqh2rcd13ifvqhmg","pricing_plan_id":"cebpf4jnsgd1na2vs0mg"},{"bike_id":"9f335399-d26f-486d-846c-d4fe645a994b","system_id":"levelo_inurba_marseille","lat":43.27372,"lon":5.36257,"is_reserved":false,"is_disabled":false,"rental_uris":{"android":"levelo://app?vid=9f335399-d26f-486d-846c-d4fe645a994b","ios":"levelo://app?vid=9f335399-d26f-486d-846c-d4fe645a994b"},"vehicle_type_id":"4","last_reported":1759223451,"current_range_meters":19200,"station_id":"ce4bhbh2rcd13ifvqeo0","pricing_plan_id":"cebpf4jnsgd1na2vs0mg"},{"bike_id":"d81e7086-a597-422a-8b7f-f9a7c928d9cf","system_id":"levelo_inurba_marseille","lat":43.297582,"lon":5.388886,"is_reserved":false,"is_disabled":false,"rental_uris":{"android":"levelo://app?vid=d81e7086-a597-422a-8b7f-f9a7c928d9cf","ios":"levelo://app?vid=d81e7086-a597-422a-8b7f-f9a7c928d9cf"},"vehicle_type_id":"4","last_reported":1759223451,"current_range_meters":19200,"station_id":"","pricing_plan_id":"cebpf4jnsgd1na2vs0mg"},{"bike_id":"cead10c6-4df8-4067-8205-4f4125ddb7a8","system_id":"levelo_inurba_marseille","lat":43.291671,"lon":5.371955,"is_reserved":false,"is_disabled":false,"rental_uris":{"android":"levelo://app?vid=cead10c6-4df8-4067-8205-4f4125ddb7a8","ios":"levelo://app?vid=cead10c6-4df8-4067-8205-4f4125ddb7a8"},"vehicle_type_id":"4","last_reported":1759223451,"current_range_meters":19200,"station_id":"","pricing_plan_id":"cebpf4jnsgd1na2vs0mg"},{"bike_id":"a7d7834a-6060-4214-a66f-8338e20b7942","system_id":"levelo_inurba_marseille","lat":43.29091,"lon":5.3713,"is_reserved":false,"is_disabled":false,"rental_uris":{"android":"levelo://app?vid=a7d7834a-6060-4214-a66f-8338e20b7942","ios":"levelo://app?vid=a7d7834a-6060-4214-a66f-8338e20b7942"},"vehicle_type_id":"4","last_reported":1759223451,"current_range_meters":19200,"station_id":"","pricing_plan_id":"cebpf4jnsgd1na2vs0mg"},{"bike_id":"ac29d873-6915-4631-9ed0-ba140b5afa92","system_id":"levelo_inurba_marseille","lat":43.25728,"lon":5.411043,"is_reserved":false,"is_disabled":false,"rental_uris":{"android":"levelo://app?vid=ac29d873-6915-4631-9ed0-ba140b5afa92","ios":"levelo://app?vid=ac29d873-6915-4631-9ed0-ba140b5afa92"},"vehicle_type_id":"4","last_reported":1759223451,"current_range_meters":19200,"station_id":"ce4bhkp2rcd13ifvqgd0","pricing_plan_id":"cebpf4jnsgd1na2vs0mg"},{"bike_id":"6e27a811-acc2-41ea-a9a9-3ed6ed52b864","system_id":"levelo_inurba_marseille","lat":43.29554,"lon":5.42287,"is_reserved":false,"is_disabled":false,"rental_uris":{"android":"levelo://app?vid=6e27a811-acc2-41ea-a9a9-3ed6ed52b864","ios":"levelo://app?vid=6e27a811-acc2-41ea-a9a9-3ed6ed52b864"},"vehicle_type_id":"4","last_reported":1759223451,"current_range_meters":18800,"station_id":"ce4bhph2rcd13ifvqhdg","pricing_plan_id":"cebpf4jnsgd1na2vs0mg"},{"bike_id":"606f665f-1aed-4bfd-9b33-226cd955c1ba","system_id":"levelo_inurba_marseille","lat":43.25903,"lon":5.40864,"is_reserved":false,"is_disabled":false,"rental_uris":{"android":"levelo://app?vid=606f665f-1aed-4bfd-9b33-226cd955c1ba","ios":"levelo://app?vid=606f665f-1aed-4bfd-9b33-226cd955c1ba"},"vehicle_type_id":"4","last_reported":1759223451,"current_range_meters":19200,"station_id":"ce4bhm92rcd13ifvqglg","pricing_plan_id":"cebpf4jnsgd1na2vs0mg"},{"bike_id":"abbe8cb0-7830-4fe7-82a9-7402368399e8","system_id":"levelo_inurba_marseille","lat":43.28664,"lon":5.37371,"is_reserved":false,"is_disabled":false,"rental_uris":{"android":"levelo://app?vid=abbe8cb0-7830-4fe7-82a9-7402368399e8","ios":"levelo://app?vid=abbe8cb0-7830-4fe7-82a9-7402368399e8"},"vehicle_type_id":"4","last_reported":1759223451,"current_range_meters":19200,"station_id":"ce4bh3p2rcd13ifvqdq0","pricing_plan_id":"cebpf4jnsgd1na2vs0mg"},{"bike_id":"73bc735b-1d2e-4ce3-b0ff-74fc72fdd49a","system_id":"levelo_inurba_marseille","lat":43.31064,"lon":5.3837,"is_reserved":false,"is_disabled":false,"rental_uris":{"android":"levelo://app?vid=73bc735b-1d2e-4ce3-b0ff-74fc72fdd49a","ios":"levelo://app?vid=73bc735b-1d2e-4ce3-b0ff-74fc72fdd49a"},"vehicle_type_id":"4","last_reported":1759223451,"current_range_meters":19200,"station_id":"ce4bgv92rcd13ifvqcr0","pricing_plan_id":"cebpf4jnsgd1na2vs0mg"},{"bike_id":"2623ba51-d5c2-4cd3-abc5-4af089d04c1f","system_id":"levelo_inurba_marseille","lat":43.27888,"lon":5.39648,"is_reserved":false,"is_disabled":false,"rental_uris":{"android":"levelo://app?vid=2623ba51-d5c2-4cd3-abc5-4af089d04c1f","ios":"levelo://app?vid=2623ba51-d5c2-4cd3-abc5-4af089d04c1f"},"vehicle_type_id":"4","last_reported":1759223451,"current_range_meters":19600,"station_id":"ce4bhf92rcd13ifvqf40","pricing_plan_id":"cebpf4jnsgd1na2vs0mg"},{"bike_id":"d524f96c-8e93-46bd-9f12-ae1b06231d3e","system_id":"levelo_inurba_marseille","lat":43.29111,"lon":5.382992,"is_reserved":false,"is_disabled":false,"rental_uris":{"android":"levelo://app?vid=d524f96c-8e93-46bd-9f12-ae1b06231d3e","ios":"levelo://app?vid=d524f96c-8e93-46bd-9f12-ae1b06231d3e"},"vehicle_type_id":"4","last_reported":1759223451,"current_range_meters":19600,"station_id":"","pricing_plan_id":"cebpf4jnsgd1na2vs0mg"},{"bike_id":"e45f18e4-05ce-456c-8fc9-63e32bbec537","system_id":"levelo_inurba_marseille","lat":43.27508,"lon":5.42463,"is_reserved":false,"is_disabled":false,"rental_uris":{"android":"levelo://app?vid=e45f18e4-05ce-456c-8fc9-63e32bbec537","ios":"levelo://app?vid=e45f18e4-05ce-456c-8fc9-63e32bbec537"},"vehicle_type_id":"4","last_reported":1759223451,"current_range_meters":19600,"station_id":"ce4bhn92rcd13ifvqgrg","pricing_plan_id":"cebpf4jnsgd1na2vs0mg"},{"bike_id":"0a980e9f-bc6f-4ec2-a773-69600206ae92","system_id":"levelo_inurba_marseille","lat":43.25604,"lon":5.38978,"is_reserved":false,"is_disabled":false,"rental_uris":{"android":"levelo://app?vid=0a980e9f-bc6f-4ec2-a773-69600206ae92","ios":"levelo://app?vid=0a980e9f-bc6f-4ec2-a773-69600206ae92"},"vehicle_type_id":"4","last_reported":1759223451,"current_range_meters":19600,"station_id":"","pricing_plan_id":"cebpf4jnsgd1na2vs0mg"},{"bike_id":"3e504477-8817-4eee-adbb-28434c2ae538","system_id":"levelo_inurba_marseille","lat":43.27189,"lon":5.4098,"is_reserved":false,"is_disabled":false,"rental_uris":{"android":"levelo://app?vid=3e504477-8817-4eee-adbb-28434c2ae538","ios":"levelo://app?vid=3e504477-8817-4eee-adbb-28434c2ae538"},"vehicle_type_id":"4","last_reported":1759223451,"current_range_meters":19600,"station_id":"ce4bhl12rcd13ifvqgf0","pricing_plan_id":"cebpf4jnsgd1na2vs0mg"},{"bike_id":"40732674-ea16-4cc6-a057-1b9e2c08c7d6","system_id":"levelo_inurba_marseille","lat":43.29922,"lon":5.374686,"is_reserved":false,"is_disabled":true,"rental_uris":{"android":"levelo://app?vid=40732674-ea16-4cc6-a057-1b9e2c08c7d6","ios":"levelo://app?vid=40732674-ea16-4cc6-a057-1b9e2c08c7d6"},"vehicle_type_id":"4","last_reported":1759223451,"current_range_meters":19600,"station_id":"ce4bgjh2rcd13ifvqbg0","pricing_plan_id":"cebpf4jnsgd1na2vs0mg"},{"bike_id":"8105eeef-5a4b-46b9-a2ef-666a8dda2a26","system_id":"levelo_inurba_marseille","lat":43.33008,"lon":5.3813,"is_reserved":false,"is_disabled":false,"rental_uris":{"android":"levelo://app?vid=8105eeef-5a4b-46b9-a2ef-666a8dda2a26","ios":"levelo://app?vid=8105eeef-5a4b-46b9-a2ef-666a8dda2a26"},"vehicle_type_id":"4","last_reported":1759223451,"current_range_meters":19600,"station_id":"","pricing_plan_id":"cebpf4jnsgd1na2vs0mg"},{"bike_id":"afeab869-c87f-40e8-936e-8d138ccf0fb4","system_id":"levelo_inurba_marseille","lat":43.2314,"lon":5.43692,"is_reserved":false,"is_disabled":false,"rental_uris":{"android":"levelo://app?vid=afeab869-c87f-40e8-936e-8d138ccf0fb4","ios":"levelo://app?vid=afeab869-c87f-40e8-936e-8d138ccf0fb4"},