{"last_updated":1733024264,"ttl":60,"version":"2.2","data":{"bikes":[{"bike_id":"d0adae0d-5139-4c37-b759-c780aa93d035","system_id":"levelo_inurba_marseille","lat":43.31521,"lon":5.38045,"is_reserved":false,"is_disabled":false,"rental_uris":{"android":"levelo://app?vid=d0adae0d-5139-4c37-b759-c780aa93d035","ios":"levelo://app?vid=d0adae0d-5139-4c37-b759-c780aa93d035"},"vehicle_type_id":"4","last_reported":1733024264,"current_range_meters":38800,"station_id":"ce4bhsp2rcd13ifvqi50","pricing_plan_id":"cebpf4jnsgd1na2vs0mg"},{"bike_id":"9eb9ee9b-532a-4e66-9337-6742bfb3d802","system_id":"levelo_inurba_marseille","lat":43.27994,"lon":5.41662,"is_reserved":false,"is_disabled":true,"rental_uris":{"android":"levelo://app?vid=9eb9ee9b-532a-4e66-9337-6742bfb3d802","ios":"levelo://app?vid=9eb9ee9b-532a-4e66-9337-6742bfb3d802"},"vehicle_type_id":"4","last_reported":1733024264,"current_range_meters":32800,"station_id":"ce4bho12rcd13ifvqh1g","pricing_plan_id":"cebpf4jnsgd1na2vs0mg"},{"bike_id":"acdf6d34-f20e-4ded-9c02-2d8801d84b52","system_id":"levelo_inurba_marseille","lat":43.29864,"lon":5.39749,"is_reserved":false,"is_disabled":false,"rental_uris":{"android":"levelo://app?vid=acdf6d34-f20e-4ded-9c02-2d8801d84b52","ios":"levelo://app?vid=acdf6d34-f20e-4ded-9c02-2d8801d84b52"},"vehicle_type_id":"4","last_reported":1733024264,"current_range_meters":38800,"station_id":"ce4bh0h2rcd13ifvqd50","pricing_plan_id":"cebpf4jnsgd1na2vs0mg"},{"bike_id":"a74f0006-cae8-42fa-977f-0eed24ecb1d4","system_id":"levelo_inurba_marseille","lat":43.24998,"lon":5.3893,"is_reserved":false,"is_disabled":false,"rental_uris":{"android":"levelo://app?vid=a74f0006-cae8-42fa-977f-0eed24ecb1d4","ios":"levelo://app?vid=a74f0006-cae8-42fa-977f-0eed24ecb1d4"},"vehicle_type_id":"4","last_reported":1733024264,"current_range_meters":21600,"station_id":"ce4bhgp2rcd13ifvqfd0","pricing_plan_id":"cebpf4jnsgd1na2vs0mg"},{"bike_id":"b856c8b4-412d-4c25-bdd4-e6b29aed04cb","system_id":"levelo_inurba_marseille","lat":43.22935,"lon":5.35378,"is_reserved":false,"is_disabled":false,"rental_uris":{"android":"levelo://app?vid=b856c8b4-412d-4c25-bdd4-e6b29aed04cb","ios":"levelo://app?vid=b856c8b4-412d-4c25-bdd4-e6b29aed04cb"},"vehicle_type_id":"4","last_reported":1733024264,"current_range_meters":38800,"station_id":"cpo3532slgdg3j2ikp40","pricing_plan_id":"cebpf4jnsgd1na2vs0mg"},{"bike_id":"664b1ccd-3b09-4d1b-ba25-8fa422dd92c8","system_id":"levelo_inurba_marseille","lat":43.26945,"lon":5.38642,"is_reserved":false,"is_disabled":false,"rental_uris":{"android":"levelo://app?vid=664b1ccd-3b09-4d1b-ba25-8fa422dd92c8","ios":"levelo://app?vid=664b1ccd-3b09-4d1b-ba25-8fa422dd92c8"},"vehicle_type_id":"4","last_reported":1733024264,"current_range_meters":38800,"station_id":"ce4bhh92rcd13ifvqfh0","pricing_plan_id":"cebpf4jnsgd1na2vs0mg"},{"bike_id":"ff51338e-34cb-4200-8adc-8e367fac0299","system_id":"levelo_inurba_marseille","lat":43.31172,"lon":5.38713,"is_reserved":false,"is_disabled":false,"rental_uris":{"android":"levelo://app?vid=ff51338e-34cb-4200-8adc-8e367fac0299","ios":"levelo://app?vid=ff51338e-34cb-4200-8adc-8e367fac0299"},"vehicle_type_id":"4","last_reported":1733024264,"current_range_meters":26800,"station_id":"ce4bgv12rcd13ifvqcp0","pricing_plan_id":"cebpf4jnsgd1na2vs0mg"},{"bike_id":"e39f33a6-51bf-4a62-b054-5f163e014945","system_id":"levelo_inurba_marseille","lat":43.30936,"lon":5.4015,"is_reserved":false,"is_disabled":false,"rental_uris":{"android":"levelo://app?vid=e39f33a6-51bf-4a62-b054-5f163e014945","ios":"levelo://app?vid=e39f33a6-51bf-4a62-b054-5f163e014945"},"vehicle_type_id":"4","last_reported":1733024264,"current_range_meters":38000,"station_id":"ce4bgvp2rcd13ifvqct0","pricing_plan_id":"cebpf4jnsgd1na2vs0mg"},{"bike_id":"7c2f5026-8e41-43e5-86a3-f20271746f98","system_id":"levelo_inurba_marseille","lat":43.28461,"lon":5.35892,"is_reserved":false,"is_disabled":false,"rental_uris":{"android":"levelo://app?vid=7c2f5026-8e41-43e5-86a3-f20271746f98","ios":"levelo://app?vid=7c2f5026-8e41-43e5-86a3-f20271746f98"},"vehicle_type_id":"4","last_reported":1733024264,"current_range_meters":38400,"station_id":"ce4bhah2rcd13ifvqei0","pricing_plan_id":"cebpf4jnsgd1na2vs0mg"},{"bike_id":"2a899b71-468c-432d-add8-c6f2f6e0559a","system_id":"levelo_inurba_marseille","lat":43.26494,"lon":5.39556,"is_reserved":false,"is_disabled":false,"rental_uris":{"android":"levelo://app?vid=2a899b71-468c-432d-add8-c6f2f6e0559a","ios":"levelo://app?vid=2a899b71-468c-432d-add8-c6f2f6e0559a"},"vehicle_type_id":"4","last_reported":1733024264,"current_range_meters":28000,"station_id":"ce4bhi12rcd13ifvqfq0","pricing_plan_id":"cebpf4jnsgd1na2vs0mg"},{"bike_id":"43ab4558-e84d-4f03-ac41-44397041a7cf","system_id":"levelo_inurba_marseille","lat":43.287043,"lon":5.373778,"is_reserved":false,"is_disabled":false,"rental_uris":{"android":"levelo://app?vid=43ab4558-e84d-4f03-ac41-44397041a7cf","ios":"levelo://app?vid=43ab4558-e84d-4f03-ac41-44397041a7cf"},"vehicle_type_id":"4","last_reported":1733024264,"current_range_meters":16400,"station_id":"ce4bh3p2rcd13ifvqdq0","pricing_plan_id":"cebpf4jnsgd1na2vs0mg"},{"bike_id":"b65688fa-b1c3-40d7-a238-e0b81dcc7be7","system_id":"levelo_inurba_marseille","lat":43.231838,"lon":5.399804,"is_reserved":false,"is_disabled":false,"rental_uris":{"android":"levelo://app?vid=b65688fa-b1c3-40d7-a238-e0b81dcc7be7","ios":"levelo://app?vid=b65688fa-b1c3-40d7-a238-e0b81dcc7be7"},"vehicle_type_id":"4","last_reported":1733024264,"current_range_meters":4400,"station_id":"ce4bhn12rcd13ifvqgqg","pricing_plan_id":"cebpf4jnsgd1na2vs0mg"},{"bike_id":"5b811d3a-cae0-4f12-9af9-b5fb1f651755","system_id":"levelo_inurba_marseille","lat":43.25121,"lon":5.40308,"is_reserved":false,"is_disabled":false,"rental_uris":{"android":"levelo://app?vid=5b811d3a-cae0-4f12-9af9-b5fb1f651755","ios":"levelo://app?vid=5b811d3a-cae0-4f12-9af9-b5fb1f651755"},"vehicle_type_id":"4","last_reported":1733024264,"current_range_meters":38000,"station_id":"ce4bhlh2rcd13ifvqgig","pricing_plan_id":"cebpf4jnsgd1na2vs0mg"},{"bike_id":"3f7d1b83-7fbe-4b4b-b621-09fc8c3dc4a5","system_id":"levelo_inurba_marseille","lat":43.33605,"lon":5.41028,"is_reserved":false,"is_disabled":false,"rental_uris":{"android":"levelo://app?vid=3f7d1b83-7fbe-4b4b-b621-09fc8c3dc4a5","ios":"levelo://app?vid=3f7d1b83-7fbe-4b4b-b621-09fc8c3dc4a5"},"vehicle_type_id":"4","last_reported":1733024264,"current_range_meters":29600,"station_id":"ce4bhqh2rcd13ifvqhmg","pricing_plan_id":"cebpf4jnsgd1na2vs0mg"},{"bike_id":"967e9a74-8d35-43a8-bb3f-b2f2942f3b6d","system_id":"levelo_inurba_marseille","lat":43.30541,"lon":5.367076,"is_reserved":false,"is_disabled":true,"rental_uris":{"android":"levelo://app?vid=967e9a74-8d35-43a8-bb3f-b2f2942f3b6d","ios":"levelo://app?vid=967e9a74-8d35-43a8-bb3f-b2f2942f3b6d"},"vehicle_type_id":"4","last_reported":1733024264,"current_range_meters":38000,"station_id":"ce4bgrp2rcd13ifvqc9g","pricing_plan_id":"cebpf4jnsgd1na2vs0mg"},{"bike_id":"966791e8-cdff-4838-a42b-c9b609a533a7","system_id":"levelo_inurba_marseille","lat":43.27446,"lon":5.40068,"is_reserved":false,"is_disabled":true,"rental_uris":{"android":"levelo://app?vid=966791e8-cdff-4838-a42b-c9b609a533a7","ios":"levelo://app?vid=966791e8-cdff-4838-a42b-c9b609a533a7"},"vehicle_type_id":"4","last_reported":1733024264,"current_range_meters":0,"station_id":"","pricing_plan_id":"cebpf4jnsgd1na2vs0mg"},{"bike_id":"d3ad6e20-d8a9-4dc6-a4a0-9a41a1a1c489","system_id":"levelo_inurba_marseille","lat":43.27615,"lon":5.36117,"is_reserved":false,"is_disabled":false,"rental_uris":{"android":"levelo://app?vid=d3ad6e20-d8a9-4dc6-a4a0-9a41a1a1c489","ios":"levelo://app?vid=d3ad6e20-d8a9-4dc6-a4a0-9a41a1a1c489"},"vehicle_type_id":"4","last_reported":1733024264,"current_range_meters":28800,"station_id":"ce4bgj92rcd13ifvqbe0","pricing_plan_id":"cebpf4jnsgd1na2vs0mg"},{"bike_id":"7974306f-50f1-4979-96e6-42a3a669c81a","system_id":"levelo_inurba_marseille","lat":43.32015,"lon":5.38159,"is_reserved":false,"is_disabled":false,"rental_uris":{"android":"levelo://app?vid=7974306f-50f1-4979-96e6-42a3a669c81a","ios":"levelo://app?vid=7974306f-50f1-4979-96e6-42a3a669c81a"},"vehicle_type_id":"4","last_reported":1733024264,"current_range_meters":8000,"station_id":"ce4bhr12rcd13ifvqhpg","pricing_plan_id":"cebpf4jnsgd1na2vs0mg"},{"bike_id":"cde1050f-394a-4b45-ac65-f5bd69ab4904","system_id":"levelo_inurba_marseille","lat":43.286591,"lon":5.363507,"is_reserved":false,"is_disabled":false,"rental_uris":{"android":"levelo://app?vid=cde1050f-394a-4b45-ac65-f5bd69ab4904","ios":"levelo://app?vid=cde1050f-394a-4b45-ac65-f5bd69ab4904"},"vehicle_type_id":"4","last_reported":1733024264,"current_range_meters":22400,"station_id":"ce4bhah2rcd13ifvqej0","pricing_plan_id":"cebpf4jnsgd1na2vs0mg"},{"bike_id":"da80aa5c-a4dc-4de3-a5c1-73632964a7bd","system_id":"levelo_inurba_marseille","lat":43.26784,"lon":5.39421,"is_reserved":false,"is_disabled":false,"rental_uris":{"android":"levelo://app?vid=da80aa5c-a4dc-4de3-a5c1-73632964a7bd","ios":"levelo://app?vid=da80aa5c-a4dc-4de3-a5c1-73632964a7bd"},"vehicle_type_id":"4","last_reported":1733024264,"current_range_meters":34800,"station_id":"ce4bhh12rcd13ifvqfg0","pricing_plan_id":"cebpf4jnsgd1na2vs0mg"},{"bike_id":"43f9c61c-c596-4948-9deb-58c7701e78f9","system_id":"levelo_inurba_marseille","lat":43.33612,"lon":5.41036,"is_reserved":false,"is_disabled":false,"rental_uris":{"android":"levelo://app?vid=43f9c61c-c596-4948-9deb-58c7701e78f9","ios":"levelo://app?vid=43f9c61c-c596-4948-9deb-58c7701e78f9"},"vehicle_type_id":"4","last_reported":1733024264,"current_range_meters":21600,"station_id":"ce4bhqh2rcd13ifvqhmg","pricing_plan_id":"cebpf4jnsgd1na2vs0mg"},{"bike_id":"ee3c4318-4146-4fe4-86b0-fc0b9ce70693","system_id":"levelo_inurba_marseille","lat":43.23066,"lon":5.35493,"is_reserved":false,"is_disabled":false,"rental_uris":{"android":"levelo://app?vid=ee3c4318-4146-4fe4-86b0-fc0b9ce70693","ios":"levelo://app?vid=ee3c4318-4146-4fe4-86b0-fc0b9ce70693"},"vehicle_type_id":"4","last_reported":1733024264,"current_range_meters":32400,"station_id":"cpo3342slgdg3j2ifvpg","pricing_plan_id":"cebpf4jnsgd1na2vs0mg"},{"bike_id":"124f06fb-64b7-451d-bd38-84866709eeee","system_id":"levelo_inurba_marseille","lat":43.24068,"lon":5.37762,"is_reserved":false,"is_disabled":false,"rental_uris":{"android":"levelo://app?vid=124f06fb-64b7-451d-bd38-84866709eeee","ios":"levelo://app?vid=124f06fb-64b7-451d-bd38-84866709eeee"},"vehicle_type_id":"4","last_reported":1733024264,"current_range_meters":38800,"station_id":"ce4bhnp2rcd13ifvqgvg","pricing_plan_id":"cebpf4jnsgd1na2vs0mg"},{"bike_id":"e060a3cd-cc0c-48f2-8b72-35fdb3ebc967","system_id":"levelo_inurba_marseille","lat":43.30149,"lon":5.37412,"is_reserved":false,"is_disabled":false,"rental_uris":{"android":"levelo://app?vid=e060a3cd-cc0c-48f2-8b72-35fdb3ebc967","ios":"levelo://app?vid=e060a3cd-cc0c-48f2-8b72-35fdb3ebc967"},"vehicle_type_id":"4","last_reported":1733024264,"current_range_meters":19200,"station_id":"ce4bgs92rcd13ifvqcc0","pricing_plan_id":"cebpf4jnsgd1na2vs0mg"},{"bike_id":"bbe63c49-f9d4-4d01-a90b-d71e29ad9f67","system_id":"levelo_inurba_marseille","lat":43.24651,"lon":5.38898,"is_reserved":false,"is_disabled":false,"rental_uris":{"android":"levelo://app?vid=bbe63c49-f9d4-4d01-a90b-d71e29ad9f67","ios":"levelo://app?vid=bbe63c49-f9d4-4d01-a90b-d71e29ad9f67"},"vehicle_type_id":"4","last_reported":1733024264,"current_range_meters":27200,"station_id":"ce4bhg12rcd13ifvqf60","pricing_plan_id":"cebpf4jnsgd1na2vs0mg"},{"bike_id":"34553e4f-2bbe-4e94-8740-7b5a4682f76a","system_id":"levelo_inurba_marseille","lat":43.31123,"lon":5.37779,"is_reserved":false,"is_disabled":true,"rental_uris":{"android":"levelo://app?vid=34553e4f-2bbe-4e94-8740-7b5a4682f76a","ios":"levelo://app?vid=34553e4f-2bbe-4e94-8740-7b5a4682f76a"},"vehicle_type_id":"4","last_reported":1733024264,"current_range_meters":37600,"station_id":"ce4bgt92rcd13ifvqcg0","pricing_plan_id":"cebpf4jnsgd1na2vs0mg"},{"bike_id":"c7124f38-3d56-473c-9e8b-76061f1c5a09","system_id":"levelo_inurba_marseille","lat":43.27073,"lon":5.42274,"is_reserved":false,"is_disabled":false,"rental_uris":{"android":"levelo://app?vid=c7124f38-3d56-473c-9e8b-76061f1c5a09","ios":"levelo://app?vid=c7124f38-3d56-473c-9e8b-76061f1c5a09"},"vehicle_type_id":"4","last_reported":1733024264,"current_range_meters":38000,"station_id":"ce4bhk92rcd13ifvqgb0","pricing_plan_id":"cebpf4jnsgd1na2vs0mg"},{"bike_id":"23566205-4f0c-48d0-b9d6-3eb3af3e76c7","system_id":"levelo_inurba_marseille","lat":43.29256,"lon":5.40898,"is_reserved":false,"is_disabled":false,"rental_uris":{"android":"levelo://app?vid=23566205-4f0c-48d0-b9d6-3eb3af3e76c7","ios":"levelo://app?vid=23566205-4f0c-48d0-b9d6-3eb3af3e76c7"},"vehicle_type_id":"4","last_reported":1733024264,"current_range_meters":34800,"station_id":"ce4bh192rcd13ifvqdc0","pricing_plan_id":"cebpf4jnsgd1na2vs0mg"},{"bike_id":"bc349d87-33fa-417a-b576-c9e08ccf7a4b","system_id":"levelo_inurba_marseille","lat":43.30954,"lon":5.39025,"is_reserved":false,"is_disabled":false,"rental_uris":{"android":"levelo://app?vid=bc349d87-33fa-417a-b576-c9e08ccf7a4b","ios":"levelo://app?vid=bc349d87-33fa-417a-b576-c9e08ccf7a4b"},"vehicle_type_id":"4","last_reported":1733024264,"current_range_meters":38800,"station_id":"ce4bgup2rcd13ifvqco0","pricing_plan_id":"cebpf4jnsgd1na2vs0mg"},{"bike_id":"923e0682-9417-4cf9-a4f0-0c31bc00dbd7","system_id":"levelo_inurba_marseille","lat":43.31277,"lon":5.40161,"is_reserved":false,"is_disabled":false,"rental_uris":{"android":"levelo://app?vid=923e0682-9417-4cf9-a4f0-0c31bc00dbd7","ios":"levelo://app?vid=923e0682-9417-4cf9-a4f0-0c31bc00dbd7"},"vehicle_type_id":"4","last_reported":1733024264,"current_range_meters":38800,"station_id":"ce4bh092rcd13ifvqd30","pricing_plan_id":"cebpf4jnsgd1na2vs0mg"},{"bike_id":"b0bd4cdf-7308-45f0-8e99-a0d5811907ff","system_id":"levelo_inurba_marseille","lat":43.254512,"lon":5.381557,"is_reserved":false,"is_disabled":true,"rental_uris":{"android":"levelo://app?vid=b0bd4cdf-7308-45f0-8e99-a0d5811907ff","ios":"levelo://app?vid=b0bd4cdf-7308-45f0-8e99-a0d5811907ff"},"vehicle_type_id":"4","last_reported":1733024264,"current_range_meters":0,"station_id":"","pricing_plan_id":"cebpf4jnsgd1na2vs0mg"},{"bike_id":"de1c482b-f44e-4cf8-a9d1-e367d542d92f","system_id":"levelo_inurba_marseille","lat":43.31171,"lon":5.38692,"is_reserved":false,"is_disabled":false,"rental_uris":{"android":"levelo://app?vid=de1c482b-f44e-4cf8-a9d1-e367d542d92f","ios":"levelo://app?vid=de1c482b-f44e-4cf8-a9d1-e367d542d92f"},"vehicle_type_id":"4","last_reported":1733024264,"current_range_meters":30000,"station_id":"ce4bgv12rcd13ifvqcp0","pricing_plan_id":"cebpf4jnsgd1na2vs0mg"},{"bike_id":"c593dfd4-4ae3-41ca-96b4-88fea2aa536d","system_id":"levelo_inurba_marseille","lat":43.33728,"lon":5.39185,"is_reserved":false,"is_disabled":true,"rental_uris":{"android":"levelo://app?vid=c593dfd4-4ae3-41ca-96b4-88fea2aa536d","ios":"levelo://app?vid=c593dfd4-4ae3-41ca-96b4-88fea2aa536d"},"vehicle_type_id":"4","last_reported":1733024264,"current_range_meters":6800,"station_id":"ce4bhr92rcd13ifvqhsg","pricing_plan_id":"cebpf4jnsgd1na2vs0mg"},{"bike_id":"60c9cb9d-c995-4936-a699-75aeb3cb12b5","system_id":"levelo_inurba_marseille","lat":43.30534,"lon":5.367047,"is_reserved":false,"is_disabled":false,"rental_uris":{"android":"levelo://app?vid=60c9cb9d-c995-4936-a699-75aeb3cb12b5","ios":"levelo://app?vid=60c9cb9d-c995-4936-a699-75aeb3cb12b5"},"vehicle_type_id":"4","last_reported":1733024264,"current_range_meters":38800,"station_id":"ce4bgrp2rcd13ifvqc9g","pricing_plan_id":"cebpf4jnsgd1na2vs0mg"},{"bike_id":"f0ca66be-c5fa-4f1d-8e2b-9450ca0243d7","system_id":"levelo_inurba_marseille","lat":43.30161,"lon":5.38105,"is_reserved":false,"is_disabled":true,"rental_uris":{"android":"levelo://app?vid=f0ca66be-c5fa-4f1d-8e2b-9450ca0243d7","ios":"levelo://app?vid=f0ca66be-c5fa-4f1d-8e2b-9450ca0243d7"},"vehicle_type_id":"4","last_reported":1733024264,"current_range_meters":35200,"station_id":"ce4bgjp2rcd13ifvqbh0","pricing_plan_id":"cebpf4jnsgd1na2vs0mg"},{"bike_id":"21e63416-2bf9-4519-965f-264ac2187b74","system_id":"levelo_inurba_marseille","lat":43.286597,"lon":5.36354,"is_reserved":false,"is_disabled":false,"rental_uris":{"android":"levelo://app?vid=21e63416-2bf9-4519-965f-264ac2187b74","ios":"levelo://app?vid=21e63416-2bf9-4519-965f-264ac2187b74"},"vehicle_type_id":"4","last_reported":1733024264,"current_range_meters":11200,"station_id":"ce4bhah2rcd13ifvqej0","pricing_plan_id":"cebpf4jnsgd1na2vs0mg"},{"bike_id":"6f7949e1-de87-4a49-8620-fec27e04447f","system_id":"levelo_inurba_marseille","lat":43.33748,"lon":5.39181,"is_reserved":false,"is_disabled":false,"rental_uris":{"android":"levelo://app?vid=6f7949e1-de87-4a49-8620-fec27e04447f","ios":"levelo://app?vid=6f7949e1-de87-4a49-8620-fec27e04447f"},"vehicle_type_id":"4","last_reported":1733024264,"current_range_meters":25600,"station_id":"ce4bhr92rcd13ifvqhsg","pricing_plan_id":"cebpf4jnsgd1na2vs0mg"},{"bike_id":"c552ed6d-0761-488e-8878-bf569826bb18","system_id":"levelo_inurba_marseille","lat":43.28467,"lon":5.3589,"is_reserved":false,"is_disabled":false,"rental_uris":{"android":"levelo://app?vid=c552ed6d-0761-488e-8878-bf569826bb18","ios":"levelo://app?vid=c552ed6d-0761-488e-8878-bf569826bb18"},"vehicle_type_id":"4","last_reported":1733024264,"current_range_meters":14000,"station_id":"ce4bhah2rcd13ifvqei0","pricing_plan_id":"cebpf4jnsgd1na2vs0mg"},{"bike_id":"0ab56b62-cd2a-493d-953e-82cb24bea823","system_id":"levelo_inurba_marseille","lat":43.25816,"lon":5.39434,"is_reserved":false,"is_disabled":false,"rental_uris":{"android":"levelo://app?vid=0ab56b62-cd2a-493d-953e-82cb24bea823","ios":"levelo://app?vid=0ab56b62-cd2a-493d-953e-82cb24bea823"},"vehicle_type_id":"4","last_reported":1733024264,"current_range_meters":12000,"station_id":"ce4bhip2rcd13ifvqft0","pricing_plan_id":"cebpf4jnsgd1na2vs0mg"},{"bike_id":"7066298c-8444-4dbb-8e5a-afa45f0890f5","system_id":"levelo_inurba_marseille","lat":43.288541,"lon":5.393251,"is_reserved":false,"is_disabled":true,"rental_uris":{"android":"levelo://app?vid=7066298c-8444-4dbb-8e5a-afa45f0890f5","ios":"levelo://app?vid=7066298c-8444-4dbb-8e5a-afa45f0890f5"},"vehicle_type_id":"4","last_reported":1733024264,"current_range_meters":9600,"station_id":"ce4bh2p2rcd13ifvqdi0","pricing_plan_id":"cebpf4jnsgd1na2vs0mg"},{"bike_id":"79da6e11-068f-4f85-891a-bf5d6033ae1b","system_id":"levelo_inurba_marseille","lat":43.29197,"lon":5.393195,"is_reserved":false,"is_disabled":true,"rental_uris":{"android":"levelo://app?vid=79da6e11-068f-4f85-891a-bf5d6033ae1b","ios":"levelo://app?vid=79da6e11-068f-4f85-891a-bf5d6033ae1b"},"vehicle_type_id":"4","last_reported":1733024264,"current_range_meters":20400,"station_id":"ce4bh192rcd13ifvqdd0","pricing_plan_id":"cebpf4jnsgd1na2vs0mg"},{"bike_id":"5a5a955a-9e88-4d2b-a8bf-3790d418dca4","system_id":"levelo_inurba_marseille","lat":43.30976,"lon":5.46193,"is_reserved":false,"is_disabled":false,"rental_uris":{"android":"levelo://app?vid=5a5a955a-9e88-4d2b-a8bf-3790d418dca4","ios":"levelo://app?vid=5a5a955a-9e88-4d2b-a8bf-3790d418dca4"},"vehicle_type_id":"4","last_reported":1733024264,"current_range_meters":24800,"station_id":"","pricing_plan_id":"cebpf4jnsgd1na2vs0mg"},{"bike_id":"60b56983-4dd0-4c43-a512-0e9952841805","system_id":"levelo_inurba_marseille","lat":43.32369,"lon":5.38879,"is_reserved":false,"is_disabled":false,"rental_uris":{"android":"levelo://app?vid=60b56983-4dd0-4c43-a512-0e9952841805","ios":"levelo://app?vid=60b56983-4dd0-4c43-a512-0e9952841805"},"vehicle_type_id":"4","last_reported":1733024264,"current_range_meters":16000,"station_id":"ce4bhqp2rcd13ifvqhog","pricing_plan_id":"cebpf4jnsgd1na2vs0mg"},{"bike_id":"c979ff36-215b-4a95-8704-47060028edae","system_id":"levelo_inurba_marseille","lat":43.284523,"lon":5.358825,"is_reserved":false,"is_disabled":false,"rental_uris":{"android":"levelo://app?vid=c979ff36-215b-4a95-8704-47060028edae","ios":"levelo://app?vid=c979ff36-215b-4a95-8704-47060028edae"},"vehicle_type_id":"4","last_reported":1733024264,"current_range_meters":10800,"station_id":"ce4bhah2rcd13ifvqei0","pricing_plan_id":"cebpf4jnsgd1na2vs0mg"},{"bike_id":"adcf561a-8a88-4c37-b670-89abb02d4d5c","system_id":"levelo_inurba_marseille","lat":43.308909,"lon":5.396284,"is_reserved":false,"is_disabled":false,"rental_uris":{"android":"levelo://app?vid=adcf561a-8a88-4c37-b670-89abb02d4d5c","ios":"levelo://app?vid=adcf561a-8a88-4c37-b670-89abb02d4d5c"},"vehicle_type_id":"4","last_reported":1733024264,"current_range_meters":38800,"station_id":"ce4bh012rcd13ifvqcv0","pricing_plan_id":"cebpf4jnsgd1na2vs0mg"},{"bike_id":"114e0915-573b-4faa-a468-a394c2bf69cb","system_id":"levelo_inurba_marseille","lat":43.32657,"lon":5.40996,"is_reserved":false,"is_disabled":false,"rental_uris":{"android":"levelo://app?vid=114e0915-573b-4faa-a468-a394c2bf69cb","ios":"levelo://app?vid=114e0915-573b-4faa-a468-a394c2bf69cb"},"vehicle_type_id":"4","last_reported":1733024264,"current_range_meters":17200,"station_id":"ce4bhpp2rcd13ifvqhgg","pricing_plan_id":"cebpf4jnsgd1na2vs0mg"},{"bike_id":"59e44540-e92f-4c9d-853b-e0c521bb88a2","system_id":"levelo_inurba_marseille","lat":43.28673,"lon":5.3636,"is_reserved":false,"is_disabled":false,"rental_uris":{"android":"levelo://app?vid=59e44540-e92f-4c9d-853b-e0c521bb88a2","ios":"levelo://app?vid=59e44540-e92f-4c9d-853b-e0c521bb88a2"},"vehicle_type_id":"4","last_reported":1733024264,"current_range_meters":10800,"station_id":"ce4bhah2rcd13ifvqej0","pricing_plan_id":"cebpf4jnsgd1na2vs0mg"},{"bike_id":"2e741d69-fd4e-4c10-b025-4e7a51d280c7","system_id":"levelo_inurba_marseille","lat":43.31081,"lon":5.42434,"is_reserved":false,"is_disabled":false,"rental_uris":{"android":"levelo://app?vid=2e741d69-fd4e-4c10-b025-4e7a51d280c7","ios":"levelo://app?vid=2e741d69-fd4e-4c10-b025-4e7a51d280c7"},"vehicle_type_id":"4","last_reported":1733024264,"current_range_meters":10800,"station_id":"ce4bhp92rcd13ifvqhag","pricing_plan_id":"cebpf4jnsgd1na2vs0mg"},{"bike_id":"a0f85c10-8e22-402d-b0a6-d224b35a3b53","system_id":"levelo_inurba_marseille","lat":43.25824,"lon":5.39431,"is_reserved":false,"is_disabled":false,"rental_uris":{"android":"levelo://app?vid=a0f85c10-8e22-402d-b0a6-d224b35a3b53","ios":"levelo://app?vid=a0f85c10-8e22-402d-b0a6-d224b35a3b53"},"vehicle_type_id":"4","last_reported":1733024264,"current_range_meters":39200,"station_id":"ce4bhip2rcd13ifvqft0","pricing_plan_id":"cebpf4jnsgd1na2vs0mg"},{"bike_id":"7cccf4b6-e305-406f-aa1d-0998f168efc1","system_id":"levelo_inurba_marseille","lat":43.27902,"lon":5.38014,"is_reserved":false,"is_disabled":false,"rental_uris":{"android":"levelo://app?vid=7cccf4b6-e305-406f-aa1d-0998f168efc1","ios":"levelo://app?vid=7cccf4b6-e305-406f-aa1d-0998f168efc1"},"vehicle_type_id":"4","last_reported":1733024264,"current_range_meters":31200,"station_id":"ce4bhf92rcd13ifvqf50","pricing_plan_id":"cebpf4jnsgd1na2vs0mg"},{"bike_id":"7e34e2cc-7262-4633-b6ee-8a75aae8a374","system_id":"levelo_inurba_marseille","lat":43.2898,"lon":5.35569,"is_reserved":false,"is_disabled":false,"rental_uris":{"android":"levelo://app?vid=7e34e2cc-7262-4633-b6ee-8a75aae8a374","ios":"levelo://app?vid=7e34e2cc-7262-4633-b6ee-8a75aae8a374"},"vehicle_type_id":"4","last_reported":1733024264,"current_range_meters":37600,"station_id":"ce4bhb92rcd13ifvqen0","pricing_plan_id":"cebpf4jnsgd1na2vs0mg"},{"bike_id":"7ed2229e-6e77-42d8-826e-e15ec9f33077","system_id":"levelo_inurba_marseille","lat":43.26688,"lon":5.38275,"is_reserved":false,"is_disabled":true,"rental_uris":{"android":"levelo://app?vid=7ed2229e-6e77-42d8-826e-e15ec9f33077","ios":"levelo://app?vid=7ed2229e-6e77-42d8-826e-e15ec9f33077"},"vehicle_type_id":"4","last_reported":1733024264,"current_range_meters":18800,"station_id":"ce4bhg92rcd13ifvqf90","pricing_plan_id":"cebpf4jnsgd1na2vs0mg"},{"bike_id":"8fdf0680-166b-4766-a655-d02e84d131fa","system_id":"levelo_inurba_marseille","lat":43.30947,"lon":5.39017,"is_reserved":false,"is_disabled":true,"rental_uris":{"android":"levelo://app?vid=8fdf0680-166b-4766-a655-d02e84d131fa","ios":"levelo://app?vid=8fdf0680-166b-4766-a655-d02e84d131fa"},"vehicle_type_id":"4","last_reported":1733024264,"current_range_meters":38800,"station_id":"ce4bgup2rcd13ifvqco0","pricing_plan_id":"cebpf4jnsgd1na2vs0mg"},{"bike_id":"c2aaed70-11e4-4a23-aa57-d972bdbe69eb","system_id":"levelo_inurba_marseille","lat":43.25117,"lon":5.40308,"is_reserved":false,"is_disabled":false,"rental_uris":{"android":"levelo://app?vid=c2aaed70-11e4-4a23-aa57-d972bdbe69eb","ios":"levelo://app?vid=c2aaed70-11e4-4a23-aa57-d972bdbe69eb"},"vehicle_type_id":"4","last_reported":1733024264,"current_range_meters":16800,"station_id":"ce4bhlh2rcd13ifvqgig","pricing_plan_id":"cebpf4jnsgd1na2vs0mg"},{"bike_id":"64cbfd6a-4a4e-4d37-982c-18402a201eee","system_id":"levelo_inurba_marseille","lat":43.28661,"lon":5.36328,"is_reserved":false,"is_disabled":true,"rental_uris":{"android":"levelo://app?vid=64cbfd6a-4a4e-4d37-982c-18402a201eee","ios":"levelo://app?vid=64cbfd6a-4a4e-4d37-982c-18402a201eee"},"vehicle_type_id":"4","last_reported":1733024264,"current_range_meters":18800,"station_id":"ce4bhah2rcd13ifvqej0","pricing_plan_id":"cebpf4jnsgd1na2vs0mg"},{"bike_id":"c0054edb-5a8c-4cde-93a6-194d063ea63c","system_id":"levelo_inurba_marseille","lat":43.261958,"lon":5.379263,"is_reserved":false,"is_disabled":false,"rental_uris":{"android":"levelo://app?vid=c0054edb-5a8c-4cde-93a6-194d063ea63c","ios":"levelo://app?vid=c0054edb-5a8c-4cde-93a6-194d063ea63c"},"vehicle_type_id":"4","last_reported":1733024264,"current_range_meters":38800,"station_id":"ce4bhjp2rcd13ifvqg90","pricing_plan_id":"cebpf4jnsgd1na2vs0mg"},{"bike_id":"77a0aec6-bbfe-48cf-85c2-6e084371497f","system_id":"levelo_inurba_marseille","lat":43.28932,"lon":5.36632,"is_reserved":false,"is_disabled":false,"rental_uris":{"android":"levelo://app?vid=77a0aec6-bbfe-48cf-85c2-6e084371497f","ios":"levelo://app?vid=77a0aec6-bbfe-48cf-85c2-6e084371497f"},"vehicle_type_id":"4","last_reported":1733024264,"current_range_meters":30400,"station_id":"ce4bhap2rcd13ifvqek0","pricing_plan_id":"cebpf4jnsgd1na2vs0mg"},{"bike_id":"91361bd8-29dc-406c-bc0b-897c5a4c6f57","system_id":"levelo_inurba_marseille","lat":43.28561,"lon":5.39501,"is_reserved":false,"is_disabled":false,"rental_uris":{"android":"levelo://app?vid=91361bd8-29dc-406c-bc0b-897c5a4c6f57","ios":"levelo://app?vid=91361bd8-29dc-406c-bc0b-897c5a4c6f57"},"vehicle_type_id":"4","last_reported":1733024264,"current_range_meters":38000,"station_id":"ce4bh292rcd13ifvqdg0","pricing_plan_id":"cebpf4jnsgd1na2vs0mg"},{"bike_id":"3ab4c64b-a573-471d-9dc1-aa13385ed60a","system_id":"levelo_inurba_marseille","lat":43.32662,"lon":5.40987,"is_reserved":false,"is_disabled":false,"rental_uris":{"android":"levelo://app?vid=3ab4c64b-a573-471d-9dc1-aa13385ed60a","ios":"levelo://app?vid=3ab4c64b-a573-471d-9dc1-aa13385ed60a"},"vehicle_type_id":"4","last_reported":1733024264,"current_range_meters":38800,"station_id":"ce4bhpp2rcd13ifvqhgg","pricing_plan_id":"cebpf4jnsgd1na2vs0mg"},{"bike_id":"1aa61925-f4ba-4fd5-b1de-08db522586c3","system_id":"levelo_inurba_marseille","lat":43.270631,"lon":5.402573,"is_reserved":false,"is_disabled":false,"rental_uris":{"android":"levelo://app?vid=1aa61925-f4ba-4fd5-b1de-08db522586c3","ios":"levelo://app?vid=1aa61925-f4ba-4fd5-b1de-08db522586c3"},"vehicle_type_id":"4","last_reported":1733024264,"current_range_meters":38800,"station_id":"ce4bhk92rcd13ifvqgc0","pricing_plan_id":"cebpf4jnsgd1na2vs0mg"},{"bike_id":"aee3f3bb-da66-412c-8bcd-37d479183448","system_id":"levelo_inurba_marseille","lat":43.30802,"lon":5.38165,"is_reserved":false,"is_disabled":false,"rental_uris":{"android":"levelo://app?vid=aee3f3bb-da66-412c-8bcd-37d479183448","ios":"levelo://app?vid=aee3f3bb-da66-412c-8bcd-37d479183448"},"vehicle_type_id":"4","last_reported":1733024264,"current_range_meters":6800,"station_id":"ce4bgt12rcd13ifvqce0","pricing_plan_id":"cebpf4jnsgd1na2vs0mg"},{"bike_id":"694ada16-62be-4cd2-822e-a4599887121c","system_id":"levelo_inurba_marseille","lat":43.23191,"lon":5.35557,"is_reserved":false,"is_disabled":false,"rental_uris":{"android":"levelo://app?vid=694ada16-62be-4cd2-822e-a4599887121c","ios":"levelo://app?vid=694ada16-62be-4cd2-822e-a4599887121c"},"vehicle_type_id":"4","last_reported":1733024264,"current_range_meters":33200,"station_id":"ce4bhu92rcd13ifvqi70","pricing_plan_id":"cebpf4jnsgd1na2vs0mg"},{"bike_id":"b8e78105-9d9d-4bcd-b4cb-7f842ad56eac","system_id":"levelo_inurba_marseille","lat":43.27942,"lon":5.41053,"is_reserved":false,"is_disabled":false,"rental_uris":{"android":"levelo://app?vid=b8e78105-9d9d-4bcd-b4cb-7f842ad56eac","ios":"levelo://app?vid=b8e78105-9d9d-4bcd-b4cb-7f842ad56eac"},"vehicle_type_id":"4","last_reported":1733024264,"current_range_meters":10000,"station_id":"ce4bhnp2rcd13ifvqh0g","pricing_plan_id":"cebpf4jnsgd1na2vs0mg"},{"bike_id":"67fa2a9e-eed8-4ed6-bdd8-7d1023a52b4e","system_id":"levelo_inurba_marseille","lat":43.26939,"lon":5.38926,"is_reserved":false,"is_disabled":true,"rental_uris":{"android":"levelo://app?vid=67fa2a9e-eed8-4ed6-bdd8-7d1023a52b4e","ios":"levelo://app?vid=67fa2a9e-eed8-4ed6-bdd8-7d1023a52b4e"},"vehicle_type_id":"4","last_reported":1733024264,"current_range_meters":7200,"station_id":"ce4bhhh2rcd13ifvqfl0","pricing_plan_id":"cebpf4jnsgd1na2vs0mg"},{"bike_id":"c8537d05-a067-41ab-8139-dc89a2af92b1","system_id":"levelo_inurba_marseille","lat":43.31893,"lon":5.40738,"is_reserved":false,"is_disabled":false,"rental_uris":{"android":"levelo://app?vid=c8537d05-a067-41ab-8139-dc89a2af92b1","ios":"levelo://app?vid=c8537d05-a067-41ab-8139-dc89a2af92b1"},"vehicle_type_id":"4","last_reported":1733024264,"current_range_meters":18800,"station_id":"ce4bhq12rcd13ifvqhig","pricing_plan_id":"cebpf4jnsgd1na2vs0mg"},{"bike_id":"1d82d802-1634-476d-a213-6d8fc59a2129","system_id":"levelo_inurba_marseille","lat":43.26563,"lon":5.39008,"is_reserved":false,"is_disabled":false,"rental_uris":{"android":"levelo://app?vid=1d82d802-1634-476d-a213-6d8fc59a2129","ios":"levelo://app?vid=1d82d802-1634-476d-a213-6d8fc59a2129"},"vehicle_type_id":"4","last_reported":1733024264,"current_range_meters":3600,"station_id":"ce4bhe12rcd13ifvqf30","pricing_plan_id":"cebpf4jnsgd1na2vs0mg"},{"bike_id":"63b88c79-0720-4bd4-a533-a32e448da3b4","system_id":"levelo_inurba_marseille","lat":43.30147,"lon":5.38787,"is_reserved":false,"is_disabled":false,"rental_uris":{"android":"levelo://app?vid=63b88c79-0720-4bd4-a533-a32e448da3b4","ios":"levelo://app?vid=63b88c79-0720-4bd4-a533-a32e448da3b4"},"vehicle_type_id":"4","last_reported":1733024264,"current_range_meters":28800,"station_id":"","pricing_plan_id":"cebpf4jnsgd1na2vs0mg"},{"bike_id":"4564edd1-65d1-46ed-a0f7-348510f76ea7","system_id":"levelo_inurba_marseille","lat":43.27572,"lon":5.38414,"is_reserved":false,"is_disabled":false,"rental_uris":{"android":"levelo://app?vid=4564edd1-65d1-46ed-a0f7-348510f76ea7","ios":"levelo://app?vid=4564edd1-65d1-46ed-a0f7-348510f76ea7"},"vehicle_type_id":"4","last_reported":1733024264,"current_range_meters":8800,"station_id":"ce4bhh92rcd13ifvqfi0","pricing_plan_id":"cebpf4jnsgd1na2vs0mg"},{"bike_id":"f453dc37-c945-448b-80e2-38bae3f013a5","system_id":"levelo_inurba_marseille","lat":43.31989,"lon":5.38161,"is_reserved":false,"is_disabled":false,"rental_uris":{"android":"levelo://app?vid=f453dc37-c945-448b-80e2-38bae3f013a5","ios":"levelo://app?vid=f453dc37-c945-448b-80e2-38bae3f013a5"},"vehicle_type_id":"4","last_reported":1733024264,"current_range_meters":35600,"station_id":"ce4bhr12rcd13ifvqhpg","pricing_plan_id":"cebpf4jnsgd1na2vs0mg"},{"bike_id":"60d0d009-d791-4c47-9ce7-ec77d17beb97","system_id":"levelo_inurba_marseille","lat":43.29258,"lon":5.40914,"is_reserved":false,"is_disabled":false,"rental_uris":{"android":"levelo://app?vid=60d0d009-d791-4c47-9ce7-ec77d17beb97","ios":"levelo://app?vid=60d0d009-d791-4c47-9ce7-ec77d17beb97"},"vehicle_type_id":"4","last_reported":1733024264,"current_range_meters":8800,"station_id":"ce4bh192rcd13ifvqdc0","pricing_plan_id":"cebpf4jnsgd1na2vs0mg"},{"bike_id":"db859837-cb21-41ca-b64b-3ebed09d2649","system_id":"levelo_inurba_marseille","lat":43.26689,"lon":5.38275,"is_reserved":false,"is_disabled":false,"rental_uris":{"android":"levelo://app?vid=db859837-cb21-41ca-b64b-3ebed09d2649","ios":"levelo://app?vid=db859837-cb21-41ca-b64b-3ebed09d2649"},"vehicle_type_id":"4","last_reported":1733024264,"current_range_meters":38800,"station_id":"ce4bhg92rcd13ifvqf90","pricing_plan_id":"cebpf4jnsgd1na2vs0mg"},{"bike_id":"e12c81c6-9629-486c-8758-7915652128f3","system_id":"levelo_inurba_marseille","lat":43.26499,"lon":5.39553,"is_reserved":false,"is_disabled":false,"rental_uris":{"android":"levelo://app?vid=e12c81c6-9629-486c-8758-7915652128f3","ios":"levelo://app?vid=e12c81c6-9629-486c-8758-7915652128f3"},"vehicle_type_id":"4","last_reported":1733024264,"current_range_meters":28400,"station_id":"ce4bhi12rcd13ifvqfq0","pricing_plan_id":"cebpf4jnsgd1na2vs0mg"},{"bike_id":"19e9d73e-81b9-4898-a612-4a6c7d093668","system_id":"levelo_inurba_marseille","lat":43.27997,"lon":5.41668,"is_reserved":false,"is_disabled":false,"rental_uris":{"android":"levelo://app?vid=19e9d73e-81b9-4898-a612-4a6c7d093668","ios":"levelo://app?vid=19e9d73e-81b9-4898-a612-4a6c7d093668"},"vehicle_type_id":"4","last_reported":1733024264,"current_range_meters":38800,"station_id":"ce4bho12rcd13ifvqh1g","pricing_plan_id":"cebpf4jnsgd1na2vs0mg"},{"bike_id":"f8968860-9ebe-425f-866f-a253a48101dd","system_id":"levelo_inurba_marseille","lat":43.28462,"lon":5.35897,"is_reserved":false,"is_disabled":false,"rental_uris":{"android":"levelo://app?vid=f8968860-9ebe-425f-866f-a253a48101dd","ios":"levelo://app?vid=f8968860-9ebe-425f-866f-a253a48101dd"},"vehicle_type_id":"4","last_reported":1733024264,"current_range_meters":35200,"station_id":"ce4bhah2rcd13ifvqei0","pricing_plan_id":"cebpf4jnsgd1na2vs0mg"},{"bike_id":"bc749360-3ce4-4dd6-a0ac-83aa82c323a7","system_id":"levelo_inurba_marseille","lat":43.28154,"lon":5.42636,"is_reserved":false,"is_disabled":true,"rental_uris":{"android":"levelo://app?vid=bc749360-3ce4-4dd6-a0ac-83aa82c323a7","ios":"levelo://app?vid=bc749360-3ce4-4dd6-a0ac-83aa82c323a7"},"vehicle_type_id":"4","last_reported":1733024264,"current_range_meters":31200,"station_id":"ce4bhnh2rcd13ifvqgug","pricing_plan_id":"cebpf4jnsgd1na2vs0mg"},{"bike_id":"f1d5a9ca-69bd-46e0-990d-3997ecd75a21","system_id":"levelo_inurba_marseille","lat":43.25719,"lon":5.41108,"is_reserved":false,"is_disabled":false,"rental_uris":{"android":"levelo://app?vid=f1d5a9ca-69bd-46e0-990d-3997ecd75a21","ios":"levelo://app?vid=f1d5a9ca-69bd-46e0-990d-3997ecd75a21"},"vehicle_type_id":"4","last_reported":1733024264,"current_range_meters":24400,"station_id":"ce4bhkp2rcd13ifvqgd0","pricing_plan_id":"cebpf4jnsgd1na2vs0mg"},{"bike_id":"0c121fdf-68e5-4b36-b3e7-e4c85e4a5bd4","system_id":"levelo_inurba_marseille","lat":43.2481,"lon":5.37455,"is_reserved":false,"is_disabled":false,"rental_uris":{"android":"levelo://app?vid=0c121fdf-68e5-4b36-b3e7-e4c85e4a5bd4","ios":"levelo://app?vid=0c121fdf-68e5-4b36-b3e7-e4c85e4a5bd4"},"vehicle_type_id":"4","last_reported":1733024264,"current_range_meters":38800,"station_id":"ce4bhgh2rcd13ifvqfb0","pricing_plan_id":"cebpf4jnsgd1na2vs0mg"},{"bike_id":"4d4c884f-6933-49c0-8899-f9856d90f44d","system_id":"levelo_inurba_marseille","lat":43.29748,"lon":5.37971,"is_reserved":false,"is_disabled":true,"rental_uris":{"android":"levelo://app?vid=4d4c884f-6933-49c0-8899-f9856d90f44d","ios":"levelo://app?vid=4d4c884f-6933-49c0-8899-f9856d90f44d"},"vehicle_type_id":"4","last_reported":1733024264,"current_range_meters":0,"station_id":"","pricing_plan_id":"cebpf4jnsgd1na2vs0mg"},{"bike_id":"49383f8c-5e0c-4bb5-aa2b-e1c81f4536f3","system_id":"levelo_inurba_marseille","lat":43.32294,"lon":5.38261,"is_reserved":false,"is_disabled":false,"rental_uris":{"android":"levelo://app?vid=49383f8c-5e0c-4bb5-aa2b-e1c81f4536f3","ios":"levelo://app?vid=49383f8c-5e0c-4bb5-aa2b-e1c81f4536f3"},"vehicle_type_id":"4","last_reported":1733024264,"current_range_meters":27600,"station_id":"ce4bhr12rcd13ifvqhqg","pricing_plan_id":"cebpf4jnsgd1na2vs0mg"},{"bike_id":"ad191155-3450-4006-9984-6e319be79930","system_id":"levelo_inurba_marseille","lat":43.30329,"lon":5.40445,"is_reserved":false,"is_disabled":false,"rental_uris":{"android":"levelo://app?vid=ad191155-3450-4006-9984-6e319be79930","ios":"levelo://app?vid=ad191155-3450-4006-9984-6e319be79930"},"vehicle_type_id":"4","last_reported":1733024264,"current_range_meters":10000,"station_id":"ce4bh012rcd13ifvqd10","pricing_plan_id":"cebpf4jnsgd1na2vs0mg"},{"bike_id":"362acf97-9e8f-4c3e-8574-4958ae2ff74f","system_id":"levelo_inurba_marseille","lat":43.26194,"lon":5.42074,"is_reserved":false,"is_disabled":false,"rental_uris":{"android":"levelo://app?vid=362acf97-9e8f-4c3e-8574-4958ae2ff74f","ios":"levelo://app?vid=362acf97-9e8f-4c3e-8574-4958ae2ff74f"},"vehicle_type_id":"4","last_reported":1733024264,"current_range_meters":28800,"station_id":"","pricing_plan_id":"cebpf4jnsgd1na2vs0mg"},{"bike_id":"b3442046-6338-4dce-a840-cc4fb86d40ac","system_id":"levelo_inurba_marseille","lat":43.31907,"lon":5.40716,"is_reserved":false,"is_disabled":false,"rental_uris":{"android":"levelo://app?vid=b3442046-6338-4dce-a840-cc4fb86d40ac","ios":"levelo://app?vid=b3442046-6338-4dce-a840-cc4fb86d40ac"},"vehicle_type_id":"4","last_reported":1733024264,"current_range_meters":21600,"station_id":"ce4bhq12rcd13ifvqhig","pricing_plan_id":"cebpf4jnsgd1na2vs0mg"},{"bike_id":"c6fd581e-fb92-4619-ac86-89d0d8c3fccf","system_id":"levelo_inurba_marseille","lat":43.28663,"lon":5.36359,"is_reserved":false,"is_disabled":false,"rental_uris":{"android":"levelo://app?vid=c6fd581e-fb92-4619-ac86-89d0d8c3fccf","ios":"levelo://app?vid=c6fd581e-fb92-4619-ac86-89d0d8c3fccf"},"vehicle_type_id":"4","last_reported":1733024264,"current_range_meters":18000,"station_id":"ce4bhah2rcd13ifvqej0","pricing_plan_id":"cebpf4jnsgd1na2vs0mg"},{"bike_id":"9009be37-c6b1-406b-b0a8-fbab355f715e","system_id":"levelo_inurba_marseille","lat":43.33763,"lon":5.37495,"is_reserved":false,"is_disabled":false,"rental_uris":{"android":"levelo://app?vid=9009be37-c6b1-406b-b0a8-fbab355f715e","ios":"levelo://app?vid=9009be37-c6b1-406b-b0a8-fbab355f715e"},"vehicle_type_id":"4","last_reported":1733024264,"current_range_meters":33600,"station_id":"","pricing_plan_id":"cebpf4jnsgd1na2vs0mg"},{"bike_id":"a4a32052-e017-45a3-8754-04c29439b996","system_id":"levelo_inurba_marseille","lat":43.29683,"lon":5.37293,"is_reserved":false,"is_disabled":false,"rental_uris":{"android":"levelo://app?vid=a4a32052-e017-45a3-8754-04c29439b996","ios":"levelo://app?vid=a4a32052-e017-45a3-8754-04c29439b996"},"vehicle_type_id":"4","last_reported":1733024264,"current_range_meters":6000,"station_id":"ce4bgk12rcd13ifvqbj0","pricing_plan_id":"cebpf4jnsgd1na2vs0mg"},{"bike_id":"b7b33697-14a7-4110-9b8b-4194e6ef5f3f","system_id":"levelo_inurba_marseille","lat":43.27274,"lon":5.39207,"is_reserved":false,"is_disabled":true,"rental_uris":{"android":"levelo://app?vid=b7b33697-14a7-4110-9b8b-4194e6ef5f3f","ios":"levelo://app?vid=b7b33697-14a7-4110-9b8b-4194e6ef5f3f"},"vehicle_type_id":"4","last_reported":1733024264,"current_range_meters":0,"station_id":"","pricing_plan_id":"cebpf4jnsgd1na2vs0mg"},{"bike_id":"e4aad7d9-91ba-40da-ab51-51d240abcedf","system_id":"levelo_inurba_marseille","lat":43.310685,"lon":5.383613,"is_reserved":false,"is_disabled":false,"rental_uris":{"android":"levelo://app?vid=e4aad7d9-91ba-40da-ab51-51d240abcedf","ios":"levelo://app?vid=e4aad7d9-91ba-40da-ab51-51d240abcedf"},"vehicle_type_id":"4","last_reported":1733024264,"current_range_meters":14000,"station_id":"ce4bgv92rcd13ifvqcr0","pricing_plan_id":"cebpf4jnsgd1na2vs0mg"},{"bike_id":"ac49fba4-30df-4893-b052-7d9d76fd86a2","system_id":"levelo_inurba_marseille","lat":43.292546,"lon":5.384305,"is_reserved":false,"is_disabled":true,"rental_uris":{"android":"levelo://app?vid=ac49fba4-30df-4893-b052-7d9d76fd86a2","ios":"levelo://app?vid=ac49fba4-30df-4893-b052-7d9d76fd86a2"},"vehicle_type_id":"4","last_reported":1733024264,"current_range_meters":14000,"station_id":"ce4bh692rcd13ifvqea0","pricing_plan_id":"cebpf4jnsgd1na2vs0mg"},{"bike_id":"a3d540a5-c9e8-4c92-9399-ec0baac57a71","system_id":"levelo_inurba_marseille","lat":43.29537,"lon":5.3854,"is_reserved":false,"is_disabled":true,"rental_uris":{"android":"levelo://app?vid=a3d540a5-c9e8-4c92-9399-ec0baac57a71","ios":"levelo://app?vid=a3d540a5-c9e8-4c92-9399-ec0baac57a71"},"vehicle_type_id":"4","last_reported":1733024264,"current_range_meters":36000,"station_id":"ce4bgih2rcd13ifvqba0","pricing_plan_id":"cebpf4jnsgd1na2vs0mg"},{"bike_id":"f8c96851-0afb-4e76-963e-6a283010bcce","system_id":"levelo_inurba_marseille","lat":43.25733,"lon":5.41108,"is_reserved":false,"is_disabled":false,"rental_uris":{"android":"levelo://app?vid=f8c96851-0afb-4e76-963e-6a283010bcce","ios":"levelo://app?vid=f8c96851-0afb-4e76-963e-6a283010bcce"},"vehicle_type_id":"4","last_reported":1733024264,"current_range_meters":12400,"station_id":"ce4bhkp2rcd13ifvqgd0","pricing_plan_id":"cebpf4jnsgd1na2vs0mg"},{"bike_id":"ea17848e-140e-4e59-866b-7b61d3c6d0ff","system_id":"levelo_inurba_marseille","lat":43.30805,"lon":5.38149,"is_reserved":false,"is_disabled":false,"rental_uris":{"android":"levelo://app?vid=ea17848e-140e-4e59-866b-7b61d3c6d0ff","ios":"levelo://app?vid=ea17848e-140e-4e59-866b-7b61d3c6d0ff"},"vehicle_type_id":"4","last_reported":1733024264,"current_range_meters":39200,"station_id":"ce4bgt12rcd13ifvqce0","pricing_plan_id":"cebpf4jnsgd1na2vs0mg"},{"bike_id":"70a61c2b-1936-471a-ab44-14a89c19f8e3","system_id":"levelo_inurba_marseille","lat":43.2871,"lon":5.39984,"is_reserved":false,"is_disabled":false,"rental_uris":{"android":"levelo://app?vid=70a61c2b-1936-471a-ab44-14a89c19f8e3","ios":"levelo://app?vid=70a61c2b-1936-471a-ab44-14a89c19f8e3"},"vehicle_type_id":"4","last_reported":1733024264,"current_range_meters":20000,"station_id":"ce4bho92rcd13ifvqh3g","pricing_plan_id":"cebpf4jnsgd1na2vs0mg"},{"bike_id":"3abdb507-aca9-41cf-ab5c-c13fb795c3a0","system_id":"levelo_inurba_marseille","lat":43.2843,"lon":5.35006,"is_reserved":false,"is_disabled":true,"rental_uris":{"android":"levelo://app?vid=3abdb507-aca9-41cf-ab5c-c13fb795c3a0","ios":"levelo://app?vid=3abdb507-aca9-41cf-ab5c-c13fb795c3a0"},"vehicle_type_id":"4","last_reported":1733024264,"current_range_meters":1200,"station_id":"ce4bhbh2rcd13ifvqepg","pricing_plan_id":"cebpf4jnsgd1na2vs0mg"},{"bike_id":"cc2b3d18-a038-4bc3-86be-7bfa09c84b01","system_id":"levelo_inurba_marseille","lat":43.325411,"lon":5.414406,"is_reserved":false,"is_disabled":false,"rental_uris":{"android":"levelo://app?vid=cc2b3d18-a038-4bc3-86be-7bfa09c84b01","ios":"levelo://app?vid=cc2b3d18-a038-4bc3-86be-7bfa09c84b01"},"vehicle_type_id":"4","last_reported":1733024264,"current_range_meters":38400,"station_id":"ce4bhq12rcd13ifvqhhg","pricing_plan_id":"cebpf4jnsgd1na2vs0mg"},{"bike_id":"7fda7038-d61c-405a-a660-6de6859d9497","system_id":"levelo_inurba_marseille","lat":43.32658,"lon":5.40988,"is_reserved":false,"is_disabled":false,"rental_uris":{"android":"levelo://app?vid=7fda7038-d61c-405a-a660-6de6859d9497","ios":"levelo://app?vid=7fda7038-d61c-405a-a660-6de6859d9497"},"vehicle_type_id":"4","last_reported":1733024264,"current_range_meters":38800,"station_id":"ce4bhpp2rcd13ifvqhgg","pricing_plan_id":"cebpf4jnsgd1na2vs0mg"},{"bike_id":"97b35c0e-7e77-4f0a-83fa-58fbc99a2959","system_id":"levelo_inurba_marseille","lat":43.337444,"lon":5.374475,"is_reserved":false,"is_disabled":false,"rental_uris":{"android":"levelo://app?vid=97b35c0e-7e77-4f0a-83fa-58fbc99a2959","ios":"levelo://app?vid=97b35c0e-7e77-4f0a-83fa-58fbc99a2959"},"vehicle_type_id":"4","last_reported":1733024264,"current_range_meters":32800,"station_id":"","pricing_plan_id":"cebpf4jnsgd1na2vs0mg"},{"bike_id":"90e6624d-f15b-40a9-aa21-66d0047fb8c0","system_id":"levelo_inurba_marseille","lat":43.337428,"lon":5.374576,"is_reserved":false,"is_disabled":false,"rental_uris":{"android":"levelo://app?vid=90e6624d-f15b-40a9-aa21-66d0047fb8c0","ios":"levelo://app?vid=90e6624d-f15b-40a9-aa21-66d0047fb8c0"},"vehicle_type_id":"4","last_reported":1733024264,"current_range_meters":7200,"station_id":"","pricing_plan_id":"cebpf4jnsgd1na2vs0mg"},{"bike_id":"76490f10-0bdc-4c56-9a17-8d7fa1908fdd","system_id":"levelo_inurba_marseille","lat":43.25829,"lon":5.39441,"is_reserved":false,"is_disabled":false,"rental_uris":{"android":"levelo://app?vid=76490f10-0bdc-4c56-9a17-8d7fa1908fdd","ios":"levelo://app?vid=76490f10-0bdc-4c56-9a17-8d7fa1908fdd"},"vehicle_type_id":"4","last_reported":1733024264,"current_range_meters":36400,"station_id":"ce4bhip2rcd13ifvqft0","pricing_plan_id":"cebpf4jnsgd1na2vs0mg"},{"bike_id":"314d1365-c0f9-4b36-8299-e279909a774d","system_id":"levelo_inurba_marseille","lat":43.31214,"lon":5.36859,"is_reserved":false,"is_disabled":true,"rental_uris":{"android":"levelo://app?vid=314d1365-c0f9-4b36-8299-e279909a774d","ios":"levelo://app?vid=314d1365-c0f9-4b36-8299-e279909a774d"},"vehicle_type_id":"4","last_reported":1733024264,"current_range_meters":0,"station_id":"ce4bgl92rcd13ifvqbq0","pricing_plan_id":"cebpf4jnsgd1na2vs0mg"},{"bike_id":"c4e5279c-8597-4610-8585-502e60022764","system_id":"levelo_inurba_marseille","lat":43.25111,"lon":5.40326,"is_reserved":false,"is_disabled":false,"rental_uris":{"android":"levelo://app?vid=c4e5279c-8597-4610-8585-502e60022764","ios":"levelo://app?vid=c4e5279c-8597-4610-8585-502e60022764"},"vehicle_type_id":"4","last_reported":1733024264,"current_range_meters":11600,"station_id":"ce4bhlh2rcd13ifvqgig","pricing_plan_id":"cebpf4jnsgd1na2vs0mg"},{"bike_id":"99f1028a-10e4-4492-b56a-374ffb497370","system_id":"levelo_inurba_marseille","lat":43.28702,"lon":5.39983,"is_reserved":false,"is_disabled":false,"rental_uris":{"android":"levelo://app?vid=99f1028a-10e4-4492-b56a-374ffb497370","ios":"levelo://app?vid=99f1028a-10e4-4492-b56a-374ffb497370"},"vehicle_type_id":"4","last_reported":1733024264,"current_range_meters":30000,"station_id":"ce4bho92rcd13ifvqh3g","pricing_plan_id":"cebpf4jnsgd1na2vs0mg"},{"bike_id":"256ed7b4-aff1-4687-9338-98ca1590cf7b","system_id":"levelo_inurba_marseille","lat":43.33747,"lon":5.37473,"is_reserved":false,"is_disabled":false,"rental_uris":{"android":"levelo://app?vid=256ed7b4-aff1-4687-9338-98ca1590cf7b","ios":"levelo://app?vid=256ed7b4-aff1-4687-9338-98ca1590cf7b"},"vehicle_type_id":"4","last_reported":1733024264,"current_range_meters":19200,"station_id":"","pricing_plan_id":"cebpf4jnsgd1na2vs0mg"},{"bike_id":"fd3b7ed7-cae6-419a-a5f6-e5eda0442a53","system_id":"levelo_inurba_marseille","lat":43.25492,"lon":5.37648,"is_reserved":false,"is_disabled":false,"rental_uris":{"android":"levelo://app?vid=fd3b7ed7-cae6-419a-a5f6-e5eda0442a53","ios":"levelo://app?vid=fd3b7ed7-cae6-419a-a5f6-e5eda0442a53"},"vehicle_type_id":"4","last_reported":1733024264,"current_range_meters":38800,"station_id":"ce4bhh12rcd13ifvqff0","pricing_plan_id":"cebpf4jnsgd1na2vs0mg"},{"bike_id":"064861a6-5a15-4e22-bc40-26ea165590ab","system_id":"levelo_inurba_marseille","lat":43.29196,"lon":5.3932,"is_reserved":false,"is_disabled":true,"rental_uris":{"android":"levelo://app?vid=064861a6-5a15-4e22-bc40-26ea165590ab","ios":"levelo://app?vid=064861a6-5a15-4e22-bc40-26ea165590ab"},"vehicle_type_id":"4","last_reported":1733024264,"current_range_meters":25600,"station_id":"ce4bh192rcd13ifvqdd0","pricing_plan_id":"cebpf4jnsgd1na2vs0mg"},{"bike_id":"7bbcbdb2-4b3f-4330-a16c-082808276357","system_id":"levelo_inurba_marseille","lat":43.26682,"lon":5.3827,"is_reserved":false,"is_disabled":false,"rental_uris":{"android":"levelo://app?vid=7bbcbdb2-4b3f-4330-a16c-082808276357","ios":"levelo://app?vid=7bbcbdb2-4b3f-4330-a16c-082808276357"},"vehicle_type_id":"4","last_reported":1733024264,"current_range_meters":34800,"station_id":"ce4bhg92rcd13ifvqf90","pricing_plan_id":"cebpf4jnsgd1na2vs0mg"},{"bike_id":"09ed15d7-8c69-4be4-b485-46e6ba08aaf9","system_id":"levelo_inurba_marseille","lat":43.31887,"lon":5.40737,"is_reserved":false,"is_disabled":false,"rental_uris":{"android":"levelo://app?vid=09ed15d7-8c69-4be4-b485-46e6ba08aaf9","ios":"levelo://app?vid=09ed15d7-8c69-4be4-b485-46e6ba08aaf9"},"vehicle_type_id":"4","last_reported":1733024264,"current_range_meters":14000,"station_id":"ce4bhq12rcd13ifvqhig","pricing_plan_id":"cebpf4jnsgd1na2vs0mg"},{"bike_id":"e8fa7be1-2407-41a7-b843-e7c70f1917ef","system_id":"levelo_inurba_marseille","lat":43.27611,"lon":5.36109,"is_reserved":false,"is_disabled":true,"rental_uris":{"android":"levelo://app?vid=e8fa7be1-2407-41a7-b843-e7c70f1917ef","ios":"levelo://app?vid=e8fa7be1-2407-41a7-b843-e7c70f1917ef"},"vehicle_type_id":"4","last_reported":1733024264,"current_range_meters":0,"station_id":"ce4bgj92rcd13ifvqbe0","pricing_plan_id":"cebpf4jnsgd1na2vs0mg"},{"bike_id":"5c207e9d-aef1-40e5-90b0-9f51f221244a","system_id":"levelo_inurba_marseille","lat":43.2901,"lon":5.3561,"is_reserved":false,"is_disabled":false,"rental_uris":{"android":"levelo://app?vid=5c207e9d-aef1-40e5-90b0-9f51f221244a","ios":"levelo://app?vid=5c207e9d-aef1-40e5-90b0-9f51f221244a"},"vehicle_type_id":"4","last_reported":1733024264,"current_range_meters":38800,"station_id":"ce4bhb92rcd13ifvqen0","pricing_plan_id":"cebpf4jnsgd1na2vs0mg"},{"bike_id":"0bc3b5e8-65cb-4f30-9fd7-1e22402dc7eb","system_id":"levelo_inurba_marseille","lat":43.308904,"lon":5.396397,"is_reserved":false,"is_disabled":false,"rental_uris":{"android":"levelo://app?vid=0bc3b5e8-65cb-4f30-9fd7-1e22402dc7eb","ios":"levelo://app?vid=0bc3b5e8-65cb-4f30-9fd7-1e22402dc7eb"},"vehicle_type_id":"4","last_reported":1733024264,"current_range_meters":10800,"station_id":"ce4bh012rcd13ifvqcv0","pricing_plan_id":"cebpf4jnsgd1na2vs0mg"},{"bike_id":"a4404dac-00c5-4861-a1ae-6d042a4030f1","system_id":"levelo_inurba_marseille","lat":43.3374,"lon":5.37466,"is_reserved":false,"is_disabled":false,"rental_uris":{"android":"levelo://app?vid=a4404dac-00c5-4861-a1ae-6d042a4030f1","ios":"levelo://app?vid=a4404dac-00c5-4861-a1ae-6d042a4030f1"},"vehicle_type_id":"4","last_reported":1733024264,"current_range_meters":4800,"station_id":"","pricing_plan_id":"cebpf4jnsgd1na2vs0mg"},{"bike_id":"4c0c3b2b-5f7d-4de3-a282-4907faa58b67","system_id":"levelo_inurba_marseille","lat":43.30604,"lon":5.3723,"is_reserved":false,"is_disabled":false,"rental_uris":{"android":"levelo://app?vid=4c0c3b2b-5f7d-4de3-a282-4907faa58b67","ios":"levelo://app?vid=4c0c3b2b-5f7d-4de3-a282-4907faa58b67"},"vehicle_type_id":"4","last_reported":1733024264,"current_range_meters":25200,"station_id":"ce4bgqh2rcd13ifvqc4g","pricing_plan_id":"cebpf4jnsgd1na2vs0mg"},{"bike_id":"9fd20643-e018-42d7-adf4-9775eaa0a6a4","system_id":"levelo_inurba_marseille","lat":43.27818,"lon":5.40719,"is_reserved":false,"is_disabled":false,"rental_uris":{"android":"levelo://app?vid=9fd20643-e018-42d7-adf4-9775eaa0a6a4","ios":"levelo://app?vid=9fd20643-e018-42d7-adf4-9775eaa0a6a4"},"vehicle_type_id":"4","last_reported":1733024264,"current_range_meters":14000,"station_id":"ce4bhnh2rcd13ifvqgtg","pricing_plan_id":"cebpf4jnsgd1na2vs0mg"},{"bike_id":"ae110baa-6fa5-463d-9c19-2aa3237d6213","system_id":"levelo_inurba_marseille","lat":43.23189,"lon":5.35556,"is_reserved":false,"is_disabled":false,"rental_uris":{"android":"levelo://app?vid=ae110baa-6fa5-463d-9c19-2aa3237d6213","ios":"levelo://app?vid=ae110baa-6fa5-463d-9c19-2aa3237d6213"},"vehicle_type_id":"4","last_reported":1733024264,"current_range_meters":22800,"station_id":"ce4bhu92rcd13ifvqi70","pricing_plan_id":"cebpf4jnsgd1na2vs0mg"},{"bike_id":"eb84d778-f8b0-4aba-be39-7acc8e4527fc","system_id":"levelo_inurba_marseille","lat":43.25112,"lon":5.40331,"is_reserved":false,"is_disabled":false,"rental_uris":{"android":"levelo://app?vid=eb84d778-f8b0-4aba-be39-7acc8e4527fc","ios":"levelo://app?vid=eb84d778-f8b0-4aba-be39-7acc8e4527fc"},"vehicle_type_id":"4","last_reported":1733024264,"current_range_meters":38800,"station_id":"ce4bhlh2rcd13ifvqgig","pricing_plan_id":"cebpf4jnsgd1na2vs0mg"},{"bike_id":"3d2323bb-85c9-46fb-93a1-985fd4eea11e","system_id":"levelo_inurba_marseille","lat":43.31714,"lon":5.43707,"is_reserved":false,"is_disabled":false,"rental_uris":{"android":"levelo://app?vid=3d2323bb-85c9-46fb-93a1-985fd4eea11e","ios":"levelo://app?vid=3d2323bb-85c9-46fb-93a1-985fd4eea11e"},"vehicle_type_id":"4","last_reported":1733024264,"current_range_meters":38000,"station_id":"ce4bhp92rcd13ifvqhcg","pricing_plan_id":"cebpf4jnsgd1na2vs0mg"},{"bike_id":"9700beae-0fbf-4e58-beda-d02b6fed27fe","system_id":"levelo_inurba_marseille","lat":43.337444,"lon":5.374475,"is_reserved":false,"is_disabled":false,"rental_uris":{"android":"levelo://app?vid=9700beae-0fbf-4e58-beda-d02b6fed27fe","ios":"levelo://app?vid=9700beae-0fbf-4e58-beda-d02b6fed27fe"},"vehicle_type_id":"4","last_reported":1733024264,"current_range_meters":35600,"station_id":"","pricing_plan_id":"cebpf4jnsgd1na2vs0mg"},{"bike_id":"fb69f01a-a954-47ef-b012-05449aa0ff52","system_id":"levelo_inurba_marseille","lat":43.28103,"lon":5.37841,"is_reserved":false,"is_disabled":false,"rental_uris":{"android":"levelo://app?vid=fb69f01a-a954-47ef-b012-05449aa0ff52","ios":"levelo://app?vid=fb69f01a-a954-47ef-b012-05449aa0ff52"},"vehicle_type_id":"4","last_reported":1733024264,"current_range_meters":36800,"station_id":"ce4bha12rcd13ifvqee0","pricing_plan_id":"cebpf4jnsgd1na2vs0mg"},{"bike_id":"3d678357-a4fc-472f-ad86-438716ed68e2","system_id":"levelo_inurba_marseille","lat":43.298027,"lon":5.404037,"is_reserved":false,"is_disabled":false,"rental_uris":{"android":"levelo://app?vid=3d678357-a4fc-472f-ad86-438716ed68e2","ios":"levelo://app?vid=3d678357-a4fc-472f-ad86-438716ed68e2"},"vehicle_type_id":"4","last_reported":1733024264,"current_range_meters":12400,"station_id":"ce4bh112rcd13ifvqd90","pricing_plan_id":"cebpf4jnsgd1na2vs0mg"},{"bike_id":"af12a5f9-720e-4019-987d-3779fe2b91a2","system_id":"levelo_inurba_marseille","lat":43.30823,"lon":5.37385,"is_reserved":false,"is_disabled":false,"rental_uris":{"android":"levelo://app?vid=af12a5f9-720e-4019-987d-3779fe2b91a2","ios":"levelo://app?vid=af12a5f9-720e-4019-987d-3779fe2b91a2"},"vehicle_type_id":"4","last_reported":1733024264,"current_range_meters":2800,"station_id":"","pricing_plan_id":"cebpf4jnsgd1na2vs0mg"},{"bike_id":"b1fb2dba-bfa9-4cd7-a438-ec21bfc31d25","system_id":"levelo_inurba_marseille","lat":43.297716,"lon":5.421813,"is_reserved":false,"is_disabled":false,"rental_uris":{"android":"levelo://app?vid=b1fb2dba-bfa9-4cd7-a438-ec21bfc31d25","ios":"levelo://app?vid=b1fb2dba-bfa9-4cd7-a438-ec21bfc31d25"},"vehicle_type_id":"4","last_reported":1733024264,"current_range_meters":26800,"station_id":"","pricing_plan_id":"cebpf4jnsgd1na2vs0mg"},{"bike_id":"a2f2febe-016f-4305-87ea-698385868d07","system_id":"levelo_inurba_marseille","lat":43.29195,"lon":5.39334,"is_reserved":false,"is_disabled":false,"rental_uris":{"android":"levelo://app?vid=a2f2febe-016f-4305-87ea-698385868d07","ios":"levelo://app?vid=a2f2febe-016f-4305-87ea-698385868d07"},"vehicle_type_id":"4","last_reported":1733024264,"current_range_meters":37600,"station_id":"ce4bh192rcd13ifvqdd0","pricing_plan_id":"cebpf4jnsgd1na2vs0mg"},{"bike_id":"f9804d37-6ec5-4671-91bc-1fdc60323977","system_id":"levelo_inurba_marseille","lat":43.29981,"lon":5.3719,"is_reserved":false,"is_disabled":false,"rental_uris":{"android":"levelo://app?vid=f9804d37-6ec5-4671-91bc-1fdc60323977","ios":"levelo://app?vid=f9804d37-6ec5-4671-91bc-1fdc60323977"},"vehicle_type_id":"4","last_reported":1733024264,"current_range_meters":38000,"station_id":"ce4bgr92rcd13ifvqc7g","pricing_plan_id":"cebpf4jnsgd1na2vs0mg"},{"bike_id":"fb83408f-3dff-4038-95c5-15a16584c94a","system_id":"levelo_inurba_marseille","lat":43.27048,"lon":5.3922,"is_reserved":false,"is_disabled":false,"rental_uris":{"android":"levelo://app?vid=fb83408f-3dff-4038-95c5-15a16584c94a","ios":"levelo://app?vid=fb83408f-3dff-4038-95c5-15a16584c94a"},"vehicle_type_id":"4","last_reported":1733024264,"current_range_meters":5600,"station_id":"","pricing_plan_id":"cebpf4jnsgd1na2vs0mg"},{"bike_id":"e8aaf989-f7c7-4f92-9039-2cedc59abe88","system_id":"levelo_inurba_marseille","lat":43.25376,"lon":5.4186,"is_reserved":false,"is_disabled":false,"rental_uris":{"android":"levelo://app?vid=e8aaf989-f7c7-4f92-9039-2cedc59abe88","ios":"levelo://app?vid=e8aaf989-f7c7-4f92-9039-2cedc59abe88"},"vehicle_type_id":"4","last_reported":1733024264,"current_range_meters":30400,"station_id":"","pricing_plan_id":"cebpf4jnsgd1na2vs0mg"},{"bike_id":"a81f0370-9437-4c42-a8c8-3783fbcc99f5","system_id":"levelo_inurba_marseille","lat":43.26058,"lon":5.39396,"is_reserved":false,"is_disabled":false,"rental_uris":{"android":"levelo://app?vid=a81f0370-9437-4c42-a8c8-3783fbcc99f5","ios":"levelo://app?vid=a81f0370-9437-4c42-a8c8-3783fbcc99f5"},"vehicle_type_id":"4","last_reported":1733024264,"current_range_meters":26000,"station_id":"ce4bhh92rcd13ifvqfj0","pricing_plan_id":"cebpf4jnsgd1na2vs0mg"},{"bike_id":"7d6bdd78-2ff2-406a-b9ac-53cc7506b42a","system_id":"levelo_inurba_marseille","lat":43.297,"lon":5.373,"is_reserved":false,"is_disabled":false,"rental_uris":{"android":"levelo://app?vid=7d6bdd78-2ff2-406a-b9ac-53cc7506b42a","ios":"levelo://app?vid=7d6bdd78-2ff2-406a-b9ac-53cc7506b42a"},"vehicle_type_id":"4","last_reported":1733024264,"current_range_meters":16000,"station_id":"ce4bgk12rcd13ifvqbj0","pricing_plan_id":"cebpf4jnsgd1na2vs0mg"},{"bike_id":"afc0f7e3-64c4-4527-8d66-3952e2f826b7","system_id":"levelo_inurba_marseille","lat":43.29195,"lon":5.35808,"is_reserved":false,"is_disabled":false,"rental_uris":{"android":"levelo://app?vid=afc0f7e3-64c4-4527-8d66-3952e2f826b7","ios":"levelo://app?vid=afc0f7e3-64c4-4527-8d66-3952e2f826b7"},"vehicle_type_id":"4","last_reported":1733024264,"current_range_meters":28000,"station_id":"ce4bhb12rcd13ifvqel0","pricing_plan_id":"cebpf4jnsgd1na2vs0mg"},{"bike_id":"4a2be555-d056-454c-bed3-fe781ba86f8e","system_id":"levelo_inurba_marseille","lat":43.25886,"lon":5.39954,"is_reserved":false,"is_disabled":true,"rental_uris":{"android":"levelo://app?vid=4a2be555-d056-454c-bed3-fe781ba86f8e","ios":"levelo://app?vid=4a2be555-d056-454c-bed3-fe781ba86f8e"},"vehicle_type_id":"4","last_reported":1733024264,"current_range_meters":0,"station_id":"","pricing_plan_id":"cebpf4jnsgd1na2vs0mg"},{"bike_id":"776dfc7d-3831-4a44-81a9-15ac51b2ba28","system_id":"levelo_inurba_marseille","lat":43.32478,"lon":5.36559,"is_reserved":false,"is_disabled":false,"rental_uris":{"android":"levelo://app?vid=776dfc7d-3831-4a44-81a9-15ac51b2ba28","ios":"levelo://app?vid=776dfc7d-3831-4a44-81a9-15ac51b2ba28"},"vehicle_type_id":"4","last_reported":1733024264,"current_range_meters":38800,"station_id":"ce4bhs12rcd13ifvqhvg","pricing_plan_id":"cebpf4jnsgd1na2vs0mg"},{"bike_id":"bdaf15ef-30a6-43fb-b654-b47fa5d101b0","system_id":"levelo_inurba_marseille","lat":43.23191,"lon":5.35554,"is_reserved":false,"is_disabled":false,"rental_uris":{"android":"levelo://app?vid=bdaf15ef-30a6-43fb-b654-b47fa5d101b0","ios":"levelo://app?vid=bdaf15ef-30a6-43fb-b654-b47fa5d101b0"},"vehicle_type_id":"4","last_reported":1733024264,"current_range_meters":38800,"station_id":"ce4bhu92rcd13ifvqi70","pricing_plan_id":"cebpf4jnsgd1na2vs0mg"},{"bike_id":"3514cf32-f5b9-4ece-ad78-2fbb554b81b6","system_id":"levelo_inurba_marseille","lat":43.25009,"lon":5.38918,"is_reserved":false,"is_disabled":false,"rental_uris":{"android":"levelo://app?vid=3514cf32-f5b9-4ece-ad78-2fbb554b81b6","ios":"levelo://app?vid=3514cf32-f5b9-4ece-ad78-2fbb554b81b6"},"vehicle_type_id":"4","last_reported":1733024264,"current_range_meters":20800,"station_id":"ce4bhgp2rcd13ifvqfd0","pricing_plan_id":"cebpf4jnsgd1na2vs0mg"},{"bike_id":"41329919-d8a6-4529-9c36-e6723e50ee60","system_id":"levelo_inurba_marseille","lat":43.303024,"lon":5.392132,"is_reserved":false,"is_disabled":true,"rental_uris":{"android":"levelo://app?vid=41329919-d8a6-4529-9c36-e6723e50ee60","ios":"levelo://app?vid=41329919-d8a6-4529-9c36-e6723e50ee60"},"vehicle_type_id":"4","last_reported":1733024264,"current_range_meters":32000,"station_id":"ce4bgkh2rcd13ifvqbk0","pricing_plan_id":"cebpf4jnsgd1na2vs0mg"},{"bike_id":"3ec2af63-7cba-4635-8a69-907574b70c71","system_id":"levelo_inurba_marseille","lat":43.23191,"lon":5.35555,"is_reserved":false,"is_disabled":false,"rental_uris":{"android":"levelo://app?vid=3ec2af63-7cba-4635-8a69-907574b70c71","ios":"levelo://app?vid=3ec2af63-7cba-4635-8a69-907574b70c71"},"vehicle_type_id":"4","last_reported":1733024264,"current_range_meters":37600,"station_id":"ce4bhu92rcd13ifvqi70","pricing_plan_id":"cebpf4jnsgd1na2vs0mg"},{"bike_id":"935caf57-83b6-4058-9f07-139487afa6e4","system_id":"levelo_inurba_marseille","lat":43.29973,"lon":5.38495,"is_reserved":false,"is_disabled":true,"rental_uris":{"android":"levelo://app?vid=935caf57-83b6-4058-9f07-139487afa6e4","ios":"levelo://app?vid=935caf57-83b6-4058-9f07-139487afa6e4"},"vehicle_type_id":"4","last_reported":1733024264,"current_range_meters":1200,"station_id":"ce4bgj92rcd13ifvqbd0","pricing_plan_id":"cebpf4jnsgd1na2vs0mg"},{"bike_id":"f91c92a9-381f-4b6d-80c7-72d43980fc46","system_id":"levelo_inurba_marseille","lat":43.27072,"lon":5.42283,"is_reserved":false,"is_disabled":false,"rental_uris":{"android":"levelo://app?vid=f91c92a9-381f-4b6d-80c7-72d43980fc46","ios":"levelo://app?vid=f91c92a9-381f-4b6d-80c7-72d43980fc46"},"vehicle_type_id":"4","last_reported":1733024264,"current_range_meters":38800,"station_id":"ce4bhk92rcd13ifvqgb0","pricing_plan_id":"cebpf4jnsgd1na2vs0mg"},{"bike_id":"000b518d-442b-4752-8b9a-e2fc3654d286","system_id":"levelo_inurba_marseille","lat":43.29445,"lon":5.39755,"is_reserved":false,"is_disabled":true,"rental_uris":{"android":"levelo://app?vid=000b518d-442b-4752-8b9a-e2fc3654d286","ios":"levelo://app?vid=000b518d-442b-4752-8b9a-e2fc3654d286"},"vehicle_type_id":"4","last_reported":1733024264,"current_range_meters":18800,"station_id":"ce4bh3h2rcd13ifvqdo0","pricing_plan_id":"cebpf4jnsgd1na2vs0mg"},{"bike_id":"e36c7284-fef6-4d0c-9b81-2d7bf519cd53","system_id":"levelo_inurba_marseille","lat":43.28463,"lon":5.35879,"is_reserved":false,"is_disabled":false,"rental_uris":{"android":"levelo://app?vid=e36c7284-fef6-4d0c-9b81-2d7bf519cd53","ios":"levelo://app?vid=e36c7284-fef6-4d0c-9b81-2d7bf519cd53"},"vehicle_type_id":"4","last_reported":1733024264,"current_range_meters":10000,"station_id":"ce4bhah2rcd13ifvqei0","pricing_plan_id":"cebpf4jnsgd1na2vs0mg"},{"bike_id":"0f87cd88-4544-4bea-8a03-96998f957fbe","system_id":"levelo_inurba_marseille","lat":43.30429,"lon":5.38893,"is_reserved":false,"is_disabled":true,"rental_uris":{"android":"levelo://app?vid=0f87cd88-4544-4bea-8a03-96998f957fbe","ios":"levelo://app?vid=0f87cd88-4544-4bea-8a03-96998f957fbe"},"vehicle_type_id":"4","last_reported":1733024264,"current_range_meters":0,"station_id":"ce4bgk12rcd13ifvqbi0","pricing_plan_id":"cebpf4jnsgd1na2vs0mg"},{"bike_id":"f1f635b4-0a6b-4ee6-903a-41289ec89338","system_id":"levelo_inurba_marseille","lat":43.28108,"lon":5.37839,"is_reserved":false,"is_disabled":false,"rental_uris":{"android":"levelo://app?vid=f1f635b4-0a6b-4ee6-903a-41289ec89338","ios":"levelo://app?vid=f1f635b4-0a6b-4ee6-903a-41289ec89338"},"vehicle_type_id":"4","last_reported":1733024264,"current_range_meters":16000,"station_id":"ce4bha12rcd13ifvqee0","pricing_plan_id":"cebpf4jnsgd1na2vs0mg"},{"bike_id":"d9b65755-777a-471e-af75-f95e32f0a46b","system_id":"levelo_inurba_marseille","lat":43.30887,"lon":5.37197,"is_reserved":false,"is_disabled":false,"rental_uris":{"android":"levelo://app?vid=d9b65755-777a-471e-af75-f95e32f0a46b","ios":"levelo://app?vid=d9b65755-777a-471e-af75-f95e32f0a46b"},"vehicle_type_id":"4","last_reported":1733024264,"current_range_meters":36800,"station_id":"ce4bguh2rcd13ifvqckg","pricing_plan_id":"cebpf4jnsgd1na2vs0mg"},{"bike_id":"57228fd0-8246-4837-bb77-585bcc392ae4","system_id":"levelo_inurba_marseille","lat":43.28713,"lon":5.37939,"is_reserved":false,"is_disabled":false,"rental_uris":{"android":"levelo://app?vid=57228fd0-8246-4837-bb77-585bcc392ae4","ios":"levelo://app?vid=57228fd0-8246-4837-bb77-585bcc392ae4"},"vehicle_type_id":"4","last_reported":1733024264,"current_range_meters":24800,"station_id":"ce4bh9p2rcd13ifvqec0","pricing_plan_id":"cebpf4jnsgd1na2vs0mg"},{"bike_id":"06e6470a-e7c6-43e1-8faf-2131a4d6a529","system_id":"levelo_inurba_marseille","lat":43.23182,"lon":5.39993,"is_reserved":false,"is_disabled":false,"rental_uris":{"android":"levelo://app?vid=06e6470a-e7c6-43e1-8faf-2131a4d6a529","ios":"levelo://app?vid=06e6470a-e7c6-43e1-8faf-2131a4d6a529"},"vehicle_type_id":"4","last_reported":1733024264,"current_range_meters":28000,"station_id":"ce4bhn12rcd13ifvqgqg","pricing_plan_id":"cebpf4jnsgd1na2vs0mg"},{"bike_id":"eb263645-e0f9-4d96-9bf9-11ea17726cf7","system_id":"levelo_inurba_marseille","lat":43.29045,"lon":5.35903,"is_reserved":false,"is_disabled":false,"rental_uris":{"android":"levelo://app?vid=eb263645-e0f9-4d96-9bf9-11ea17726cf7","ios":"levelo://app?vid=eb263645-e0f9-4d96-9bf9-11ea17726cf7"},"vehicle_type_id":"4","last_reported":1733024264,"current_range_meters":38400,"station_id":"ce4bha92rcd13ifvqeg0","pricing_plan_id":"cebpf4jnsgd1na2vs0mg"},{"bike_id":"8cbff997-9eaa-4c35-93a2-5990855b8244","system_id":"levelo_inurba_marseille","lat":43.28664,"lon":5.3635,"is_reserved":false,"is_disabled":false,"rental_uris":{"android":"levelo://app?vid=8cbff997-9eaa-4c35-93a2-5990855b8244","ios":"levelo://app?vid=8cbff997-9eaa-4c35-93a2-5990855b8244"},"vehicle_type_id":"4","last_reported":1733024264,"current_range_meters":38800,"station_id":"ce4bhah2rcd13ifvqej0","pricing_plan_id":"cebpf4jnsgd1na2vs0mg"},{"bike_id":"b535dfd0-ec01-4a13-996f-71245b6113cc","system_id":"levelo_inurba_marseille","lat":43.27979,"lon":5.4123,"is_reserved":false,"is_disabled":true,"rental_uris":{"android":"levelo://app?vid=b535dfd0-ec01-4a13-996f-71245b6113cc","ios":"levelo://app?vid=b535dfd0-ec01-4a13-996f-71245b6113cc"},"vehicle_type_id":"4","last_reported":1733024264,"current_range_meters":0,"station_id":"","pricing_plan_id":"cebpf4jnsgd1na2vs0mg"},{"bike_id":"c3390fe1-5a17-4c42-97eb-e3e28db178a9","system_id":"levelo_inurba_marseille","lat":43.31326,"lon":5.39695,"is_reserved":false,"is_disabled":false,"rental_uris":{"android":"levelo://app?vid=c3390fe1-5a17-4c42-97eb-e3e28db178a9","ios":"levelo://app?vid=c3390fe1-5a17-4c42-97eb-e3e28db178a9"},"vehicle_type_id":"4","last_reported":1733024264,"current_range_meters":16000,"station_id":"ce4bgvp2rcd13ifvqcu0","pricing_plan_id":"cebpf4jnsgd1na2vs0mg"},{"bike_id":"3509e33d-c67e-427e-8254-df53d2cef4bd","system_id":"levelo_inurba_marseille","lat":43.27905,"lon":5.3801,"is_reserved":false,"is_disabled":false,"rental_uris":{"android":"levelo://app?vid=3509e33d-c67e-427e-8254-df53d2cef4bd","ios":"levelo://app?vid=3509e33d-c67e-427e-8254-df53d2cef4bd"},"vehicle_type_id":"4","last_reported":1733024264,"current_range_meters":11200,"station_id":"ce4bhf92rcd13ifvqf50","pricing_plan_id":"cebpf4jnsgd1na2vs0mg"},{"bike_id":"39b3f021-df75-4cd6-8b4e-a707899d7c80","system_id":"levelo_inurba_marseille","lat":43.28102,"lon":5.37846,"is_reserved":false,"is_disabled":false,"rental_uris":{"android":"levelo://app?vid=39b3f021-df75-4cd6-8b4e-a707899d7c80","ios":"levelo://app?vid=39b3f021-df75-4cd6-8b4e-a707899d7c80"},"vehicle_type_id":"4","last_reported":1733024264,"current_range_meters":12800,"station_id":"ce4bha12rcd13ifvqee0","pricing_plan_id":"cebpf4jnsgd1na2vs0mg"},{"bike_id":"a9536cf9-1546-4fa9-b064-a4f2cd515fd5","system_id":"levelo_inurba_marseille","lat":43.27566,"lon":5.38421,"is_reserved":false,"is_disabled":false,"rental_uris":{"android":"levelo://app?vid=a9536cf9-1546-4fa9-b064-a4f2cd515fd5","ios":"levelo://app?vid=a9536cf9-1546-4fa9-b064-a4f2cd515fd5"},"vehicle_type_id":"4","last_reported":1733024264,"current_range_meters":6800,"station_id":"ce4bhh92rcd13ifvqfi0","pricing_plan_id":"cebpf4jnsgd1na2vs0mg"},{"bike_id":"b642d79a-bd2c-495a-acdd-099583f67bf5","system_id":"levelo_inurba_marseille","lat":43.32287,"lon":5.38259,"is_reserved":false,"is_disabled":false,"rental_uris":{"android":"levelo://app?vid=b642d79a-bd2c-495a-acdd-099583f67bf5","ios":"levelo://app?vid=b642d79a-bd2c-495a-acdd-099583f67bf5"},"vehicle_type_id":"4","last_reported":1733024264,"current_range_meters":28400,"station_id":"ce4bhr12rcd13ifvqhqg","pricing_plan_id":"cebpf4jnsgd1na2vs0mg"},{"bike_id":"80716805-d456-4ba0-8610-1e1290c6f102","system_id":"levelo_inurba_marseille","lat":43.304195,"lon":5.41283,"is_reserved":false,"is_disabled":false,"rental_uris":{"android":"levelo://app?vid=80716805-d456-4ba0-8610-1e1290c6f102","ios":"levelo://app?vid=80716805-d456-4ba0-8610-1e1290c6f102"},"vehicle_type_id":"4","last_reported":1733024264,"current_range_meters":38800,"station_id":"ce4bhop2rcd13ifvqh8g","pricing_plan_id":"cebpf4jnsgd1na2vs0mg"},{"bike_id":"aad4be0a-2a0d-4e6a-bfa0-4d4086eb2d91","system_id":"levelo_inurba_marseille","lat":43.23155,"lon":5.43708,"is_reserved":false,"is_disabled":false,"rental_uris":{"android":"levelo://app?vid=aad4be0a-2a0d-4e6a-bfa0-4d4086eb2d91","ios":"levelo://app?vid=aad4be0a-2a0d-4e6a-bfa0-4d4086eb2d91"},"vehicle_type_id":"4","last_reported":1733024264,"current_range_meters":37600,"station_id":"ce4bhmp2rcd13ifvqgog","pricing_plan_id":"cebpf4jnsgd1na2vs0mg"},{"bike_id":"2ebf3b3c-662f-41a2-b8dc-68990b8b5b78","system_id":"levelo_inurba_marseille","lat":43.27075,"lon":5.4228,"is_reserved":false,"is_disabled":false,"rental_uris":{"android":"levelo://app?vid=2ebf3b3c-662f-41a2-b8dc-68990b8b5b78","ios":"levelo://app?vid=2ebf3b3c-662f-41a2-b8dc-68990b8b5b78"},"vehicle_type_id":"4","last_reported":1733024264,"current_range_meters":15200,"station_id":"ce4bhk92rcd13ifvqgb0","pricing_plan_id":"cebpf4jnsgd1na2vs0mg"},{"bike_id":"5b9d6f48-f6d1-42ec-91ce-2705b20346f7","system_id":"levelo_inurba_marseille","lat":43.2762,"lon":5.36101,"is_reserved":false,"is_disabled":true,"rental_uris":{"android":"levelo://app?vid=5b9d6f48-f6d1-42ec-91ce-2705b20346f7","ios":"levelo://app?vid=5b9d6f48-f6d1-42ec-91ce-2705b20346f7"},"vehicle_type_id":"4","last_reported":1733024264,"current_range_meters":0,"station_id":"ce4bgj92rcd13ifvqbe0","pricing_plan_id":"cebpf4jnsgd1na2vs0mg"},{"bike_id":"dfae53f2-2072-45ad-83ba-eb288c672871","system_id":"levelo_inurba_marseille","lat":43.30887,"lon":5.37189,"is_reserved":false,"is_disabled":false,"rental_uris":{"android":"levelo://app?vid=dfae53f2-2072-45ad-83ba-eb288c672871","ios":"levelo://app?vid=dfae53f2-2072-45ad-83ba-eb288c672871"},"vehicle_type_id":"4","last_reported":1733024264,"current_range_meters":38800,"station_id":"ce4bguh2rcd13ifvqckg","pricing_plan_id":"cebpf4jnsgd1na2vs0mg"},{"bike_id":"0174841e-8011-4a7b-bd18-480101bee765","system_id":"levelo_inurba_marseille","lat":43.23955,"lon":5.36638,"is_reserved":false,"is_disabled":true,"rental_uris":{"android":"levelo://app?vid=0174841e-8011-4a7b-bd18-480101bee765","ios":"levelo://app?vid=0174841e-8011-4a7b-bd18-480101bee765"},"vehicle_type_id":"4","last_reported":1733024264,"current_range_meters":0,"station_id":"ce4bhi12rcd13ifvqfp0","pricing_plan_id":"cebpf4jnsgd1na2vs0mg"},{"bike_id":"1a9aa7e6-0eb4-47d5-925a-9a0e4589144e","system_id":"levelo_inurba_marseille","lat":43.308026,"lon":5.381591,"is_reserved":false,"is_disabled":false,"rental_uris":{"android":"levelo://app?vid=1a9aa7e6-0eb4-47d5-925a-9a0e4589144e","ios":"levelo://app?vid=1a9aa7e6-0eb4-47d5-925a-9a0e4589144e"},"vehicle_type_id":"4","last_reported":1733024264,"current_range_meters":9600,"station_id":"ce4bgt12rcd13ifvqce0","pricing_plan_id":"cebpf4jnsgd1na2vs0mg"},{"bike_id":"1fc66134-af2c-4130-9b8c-02694efb43e5","system_id":"levelo_inurba_marseille","lat":43.26947,"lon":5.40248,"is_reserved":false,"is_disabled":false,"rental_uris":{"android":"levelo://app?vid=1fc66134-af2c-4130-9b8c-02694efb43e5","ios":"levelo://app?vid=1fc66134-af2c-4130-9b8c-02694efb43e5"},"vehicle_type_id":"4","last_reported":1733024264,"current_range_meters":32800,"station_id":"cjm6bp8fraef2m0cb0m0","pricing_plan_id":"cebpf4jnsgd1na2vs0mg"},{"bike_id":"9da8ce78-f614-4909-9d1a-2c4c9fdf2748","system_id":"levelo_inurba_marseille","lat":43.30639,"lon":5.40072,"is_reserved":false,"is_disabled":false,"rental_uris":{"android":"levelo://app?vid=9da8ce78-f614-4909-9d1a-2c4c9fdf2748","ios":"levelo://app?vid=9da8ce78-f614-4909-9d1a-2c4c9fdf2748"},"vehicle_type_id":"4","last_reported":1733024264,"current_range_meters":21600,"station_id":"ce4bh112rcd13ifvqda0","pricing_plan_id":"cebpf4jnsgd1na2vs0mg"},{"bike_id":"6d927fde-1fc0-41e8-aa2f-74bbc21eeec7","system_id":"levelo_inurba_marseille","lat":43.29264,"lon":5.40905,"is_reserved":false,"is_disabled":false,"rental_uris":{"android":"levelo://app?vid=6d927fde-1fc0-41e8-aa2f-74bbc21eeec7","ios":"levelo://app?vid=6d927fde-1fc0-41e8-aa2f-74bbc21eeec7"},"vehicle_type_id":"4","last_reported":1733024264,"current_range_meters":21600,"station_id":"ce4bh192rcd13ifvqdc0","pricing_plan_id":"cebpf4jnsgd1na2vs0mg"},{"bike_id":"a233b25b-869e-422b-bf5e-63d3d8ff686f","system_id":"levelo_inurba_marseille","lat":43.3093,"lon":5.40152,"is_reserved":false,"is_disabled":true,"rental_uris":{"android":"levelo://app?vid=a233b25b-869e-422b-bf5e-63d3d8ff686f","ios":"levelo://app?vid=a233b25b-869e-422b-bf5e-63d3d8ff686f"},"vehicle_type_id":"4","last_reported":1733024264,"current_range_meters":30800,"station_id":"ce4bgvp2rcd13ifvqct0","pricing_plan_id":"cebpf4jnsgd1na2vs0mg"},{"bike_id":"ca06fb5f-11e1-4d8e-8f6e-d8bf571b0044","system_id":"levelo_inurba_marseille","lat":43.31127,"lon":5.38451,"is_reserved":false,"is_disabled":false,"rental_uris":{"android":"levelo://app?vid=ca06fb5f-11e1-4d8e-8f6e-d8bf571b0044","ios":"levelo://app?vid=ca06fb5f-11e1-4d8e-8f6e-d8bf571b0044"},"vehicle_type_id":"4","last_reported":1733024264,"current_range_meters":17600,"station_id":"","pricing_plan_id":"cebpf4jnsgd1na2vs0mg"},{"bike_id":"4e77c0d6-2548-44d2-bbbe-bb911eb65b3f","system_id":"levelo_inurba_marseille","lat":43.31332,"lon":5.39697,"is_reserved":false,"is_disabled":false,"rental_uris":{"android":"levelo://app?vid=4e77c0d6-2548-44d2-bbbe-bb911eb65b3f","ios":"levelo://app?vid=4e77c0d6-2548-44d2-bbbe-bb911eb65b3f"},"vehicle_type_id":"4","last_reported":1733024264,"current_range_meters":8000,"station_id":"ce4bgvp2rcd13ifvqcu0","pricing_plan_id":"cebpf4jnsgd1na2vs0mg"},{"bike_id":"fd7cc24c-85db-4379-bdde-56a004546773","system_id":"levelo_inurba_marseille","lat":43.30807,"lon":5.381538,"is_reserved":false,"is_disabled":false,"rental_uris":{"android":"levelo://app?vid=fd7cc24c-85db-4379-bdde-56a004546773","ios":"levelo://app?vid=fd7cc24c-85db-4379-bdde-56a004546773"},"vehicle_type_id":"4","last_reported":1733024264,"current_range_meters":40000,"station_id":"ce4bgt12rcd13ifvqce0","pricing_plan_id":"cebpf4jnsgd1na2vs0mg"},{"bike_id":"beedd42b-11d1-4bd9-a3b7-2b7ebaf524b2","system_id":"levelo_inurba_marseille","lat":43.31716,"lon":5.37774,"is_reserved":false,"is_disabled":false,"rental_uris":{"android":"levelo://app?vid=beedd42b-11d1-4bd9-a3b7-2b7ebaf524b2","ios":"levelo://app?vid=beedd42b-11d1-4bd9-a3b7-2b7ebaf524b2"},"vehicle_type_id":"4","last_reported":1733024264,"current_range_meters":36400,"station_id":"ce4bgth2rcd13ifvqch0","pricing_plan_id":"cebpf4jnsgd1na2vs0mg"},{"bike_id":"7db095fe-335f-455d-9456-2582bbc72d93","system_id":"levelo_inurba_marseille","lat":43.29906,"lon":5.4369,"is_reserved":false,"is_disabled":false,"rental_uris":{"android":"levelo://app?vid=7db095fe-335f-455d-9456-2582bbc72d93","ios":"levelo://app?vid=7db095fe-335f-455d-9456-2582bbc72d93"},"vehicle_type_id":"4","last_reported":1733024264,"current_range_meters":19600,"station_id":"ce4bhpp2rcd13ifvqhfg","pricing_plan_id":"cebpf4jnsgd1na2vs0mg"},{"bike_id":"8b6e6175-7f08-4801-9f30-4f66c567836a","system_id":"levelo_inurba_marseille","lat":43.3048,"lon":5.37912,"is_reserved":false,"is_disabled":false,"rental_uris":{"android":"levelo://app?vid=8b6e6175-7f08-4801-9f30-4f66c567836a","ios":"levelo://app?vid=8b6e6175-7f08-4801-9f30-4f66c567836a"},"vehicle_type_id":"4","last_reported":1733024264,"current_range_meters":37600,"station_id":"ce4bgup2rcd13ifvqcn0","pricing_plan_id":"cebpf4jnsgd1na2vs0mg"},{"bike_id":"ddbda7d5-c035-4416-b36b-d29a627465ea","system_id":"levelo_inurba_marseille","lat":43.24997,"lon":5.38921,"is_reserved":false,"is_disabled":false,"rental_uris":{"android":"levelo://app?vid=ddbda7d5-c035-4416-b36b-d29a627465ea","ios":"levelo://app?vid=ddbda7d5-c035-4416-b36b-d29a627465ea"},"vehicle_type_id":"4","last_reported":1733024264,"current_range_meters":38800,"station_id":"ce4bhgp2rcd13ifvqfd0","pricing_plan_id":"cebpf4jnsgd1na2vs0mg"},{"bike_id":"4e6829cd-8988-40d0-b6c9-a0b3034c0be3","system_id":"levelo_inurba_marseille","lat":43.33608,"lon":5.41027,"is_reserved":false,"is_disabled":false,"rental_uris":{"android":"levelo://app?vid=4e6829cd-8988-40d0-b6c9-a0b3034c0be3","ios":"levelo://app?vid=4e6829cd-8988-40d0-b6c9-a0b3034c0be3"},"vehicle_type_id":"4","last_reported":1733024264,"current_range_meters":38800,"station_id":"ce4bhqh2rcd13ifvqhmg","pricing_plan_id":"cebpf4jnsgd1na2vs0mg"},{"bike_id":"bab2c541-cee6-43ec-9133-02677927cda0","system_id":"levelo_inurba_marseille","lat":43.30148,"lon":5.37427,"is_reserved":false,"is_disabled":false,"rental_uris":{"android":"levelo://app?vid=bab2c541-cee6-43ec-9133-02677927cda0","ios":"levelo://app?vid=bab2c541-cee6-43ec-9133-02677927cda0"},"vehicle_type_id":"4","last_reported":1733024264,"current_range_meters":31200,"station_id":"ce4bgs92rcd13ifvqcc0","pricing_plan_id":"cebpf4jnsgd1na2vs0mg"},{"bike_id":"42dff1c4-6053-46d6-ab14-2b44877e8b55","system_id":"levelo_inurba_marseille","lat":43.284428,"lon":5.391862,"is_reserved":false,"is_disabled":true,"rental_uris":{"android":"levelo://app?vid=42dff1c4-6053-46d6-ab14-2b44877e8b55","ios":"levelo://app?vid=42dff1c4-6053-46d6-ab14-2b44877e8b55"},"vehicle_type_id":"4","last_reported":1733024264,"current_range_meters":38800,"station_id":"ce4bhoh2rcd13ifvqh5g","pricing_plan_id":"cebpf4jnsgd1na2vs0mg"},{"bike_id":"27d13c7a-6338-48dc-81dd-618b3e4ff60b","system_id":"levelo_inurba_marseille","lat":43.28359,"lon":5.386391,"is_reserved":false,"is_disabled":true,"rental_uris":{"android":"levelo://app?vid=27d13c7a-6338-48dc-81dd-618b3e4ff60b","ios":"levelo://app?vid=27d13c7a-6338-48dc-81dd-618b3e4ff60b"},"vehicle_type_id":"4","last_reported":1733024264,"current_range_meters":36800,"station_id":"ce4bh492rcd13ifvqdvg","pricing_plan_id":"cebpf4jnsgd1na2vs0mg"},{"bike_id":"4c8314eb-3d1a-47ee-9e78-736f194ad865","system_id":"levelo_inurba_marseille","lat":43.260672,"lon":5.393956,"is_reserved":false,"is_disabled":false,"rental_uris":{"android":"levelo://app?vid=4c8314eb-3d1a-47ee-9e78-736f194ad865","ios":"levelo://app?vid=4c8314eb-3d1a-47ee-9e78-736f194ad865"},"vehicle_type_id":"4","last_reported":1733024264,"current_range_meters":12000,"station_id":"ce4bhh92rcd13ifvqfj0","pricing_plan_id":"cebpf4jnsgd1na2vs0mg"},{"bike_id":"13151158-c4ba-49c7-a920-9a61c5dd56f2","system_id":"levelo_inurba_marseille","lat":43.23955,"lon":5.36638,"is_reserved":false,"is_disabled":true,"rental_uris":{"android":"levelo://app?vid=13151158-c4ba-49c7-a920-9a61c5dd56f2","ios":"levelo://app?vid=13151158-c4ba-49c7-a920-9a61c5dd56f2"},"vehicle_type_id":"4","last_reported":1733024264,"current_range_meters":0,"station_id":"ce4bhi12rcd13ifvqfp0","pricing_plan_id":"cebpf4jnsgd1na2vs0mg"},{"bike_id":"56cb3e7c-6c87-4cfb-90a4-655a05f8edd6","system_id":"levelo_inurba_marseille","lat":43.28274,"lon":5.35083,"is_reserved":false,"is_disabled":false,"rental_uris":{"android":"levelo://app?vid=56cb3e7c-6c87-4cfb-90a4-655a05f8edd6","ios":"levelo://app?vid=56cb3e7c-6c87-4cfb-90a4-655a05f8edd6"},"vehicle_type_id":"4","last_reported":1733024264,"current_range_meters":38800,"station_id":"ce4bhbp2rcd13ifvqerg","pricing_plan_id":"cebpf4jnsgd1na2vs0mg"},{"bike_id":"5180a0bb-6b47-4a98-9c66-ceb10c973090","system_id":"levelo_inurba_marseille","lat":43.26557,"lon":5.37281,"is_reserved":false,"is_disabled":false,"rental_uris":{"android":"levelo://app?vid=5180a0bb-6b47-4a98-9c66-ceb10c973090","ios":"levelo://app?vid=5180a0bb-6b47-4a98-9c66-ceb10c973090"},"vehicle_type_id":"4","last_reported":1733024264,"current_range_meters":38000,"station_id":"ce4bhg12rcd13ifvqf70","pricing_plan_id":"cebpf4jnsgd1na2vs0mg"},{"bike_id":"acf4a756-d86a-4aba-99d9-8148b7db3378","system_id":"levelo_inurba_marseille","lat":43.27989,"lon":5.40009,"is_reserved":false,"is_disabled":true,"rental_uris":{"android":"levelo://app?vid=acf4a756-d86a-4aba-99d9-8148b7db3378","ios":"levelo://app?vid=acf4a756-d86a-4aba-99d9-8148b7db3378"},"vehicle_type_id":"4","last_reported":1733024264,"current_range_meters":0,"station_id":"ce4bho92rcd13ifvqh4g","pricing_plan_id":"cebpf4jnsgd1na2vs0mg"},{"bike_id":"4018fb8f-45f3-45d0-a054-90a03257f3a3","system_id":"levelo_inurba_marseille","lat":43.28315,"lon":5.40551,"is_reserved":false,"is_disabled":false,"rental_uris":{"android":"levelo://app?vid=4018fb8f-45f3-45d0-a054-90a03257f3a3","ios":"levelo://app?vid=4018fb8f-45f3-45d0-a054-90a03257f3a3"},"vehicle_type_id":"4","last_reported":1733024264,"current_range_meters":24400,"station_id":"","pricing_plan_id":"cebpf4jnsgd1na2vs0mg"},{"bike_id":"bf758564-f48b-43c6-b601-1adc7854dc2a","system_id":"levelo_inurba_marseille","lat":43.28099,"lon":5.37856,"is_reserved":false,"is_disabled":false,"rental_uris":{"android":"levelo://app?vid=bf758564-f48b-43c6-b601-1adc7854dc2a","ios":"levelo://app?vid=bf758564-f48b-43c6-b601-1adc7854dc2a"},"vehicle_type_id":"4","last_reported":1733024264,"current_range_meters":11600,"station_id":"ce4bha12rcd13ifvqee0","pricing_plan_id":"cebpf4jnsgd1na2vs0mg"},{"bike_id":"00380040-c3b4-4225-abdf-20f91c43c884","system_id":"levelo_inurba_marseille","lat":43.27905,"lon":5.38022,"is_reserved":false,"is_disabled":false,"rental_uris":{"android":"levelo://app?vid=00380040-c3b4-4225-abdf-20f91c43c884","ios":"levelo://app?vid=00380040-c3b4-4225-abdf-20f91c43c884"},"vehicle_type_id":"4","last_reported":1733024264,"current_range_meters":8400,"station_id":"ce4bhf92rcd13ifvqf50","pricing_plan_id":"cebpf4jnsgd1na2vs0mg"},{"bike_id":"c6f5e608-7d38-4654-a814-121e87a357b4","system_id":"levelo_inurba_marseille","lat":43.306429,"lon":5.40077,"is_reserved":false,"is_disabled":false,"rental_uris":{"android":"levelo://app?vid=c6f5e608-7d38-4654-a814-121e87a357b4","ios":"levelo://app?vid=c6f5e608-7d38-4654-a814-121e87a357b4"},"vehicle_type_id":"4","last_reported":1733024264,"current_range_meters":7200,"station_id":"ce4bh112rcd13ifvqda0","pricing_plan_id":"cebpf4jnsgd1na2vs0mg"},{"bike_id":"18299652-2a9d-4717-aa6c-9d08b0165b52","system_id":"levelo_inurba_marseille","lat":43.33024,"lon":5.39037,"is_reserved":false,"is_disabled":false,"rental_uris":{"android":"levelo://app?vid=18299652-2a9d-4717-aa6c-9d08b0165b52","ios":"levelo://app?vid=18299652-2a9d-4717-aa6c-9d08b0165b52"},"vehicle_type_id":"4","last_reported":1733024264,"current_range_meters":38800,"station_id":"ce4bhr92rcd13ifvqhrg","pricing_plan_id":"cebpf4jnsgd1na2vs0mg"},{"bike_id":"e583fbe0-0561-4674-b1d5-a7f38707bfaf","system_id":"levelo_inurba_marseille","lat":43.29261,"lon":5.40916,"is_reserved":false,"is_disabled":false,"rental_uris":{"android":"levelo://app?vid=e583fbe0-0561-4674-b1d5-a7f38707bfaf","ios":"levelo://app?vid=e583fbe0-0561-4674-b1d5-a7f38707bfaf"},"vehicle_type_id":"4","last_reported":1733024264,"current_range_meters":8400,"station_id":"ce4bh192rcd13ifvqdc0","pricing_plan_id":"cebpf4jnsgd1na2vs0mg"},{"bike_id":"e0161261-fd33-45e3-8038-51d77778a6b0","system_id":"levelo_inurba_marseille","lat":43.306584,"lon":5.400952,"is_reserved":false,"is_disabled":true,"rental_uris":{"android":"levelo://app?vid=e0161261-fd33-45e3-8038-51d77778a6b0","ios":"levelo://app?vid=e0161261-fd33-45e3-8038-51d77778a6b0"},"vehicle_type_id":"4","last_reported":1733024264,"current_range_meters":37600,"station_id":"ce4bh112rcd13ifvqda0","pricing_plan_id":"cebpf4jnsgd1na2vs0mg"},{"bike_id":"f4d19859-dbfb-4982-b796-c8007145699f","system_id":"levelo_inurba_marseille","lat":43.28619,"lon":5.35099,"is_reserved":false,"is_disabled":false,"rental_uris":{"android":"levelo://app?vid=f4d19859-dbfb-4982-b796-c8007145699f","ios":"levelo://app?vid=f4d19859-dbfb-4982-b796-c8007145699f"},"vehicle_type_id":"4","last_reported":1733024264,"current_range_meters":16800,"station_id":"ce4bhch2rcd13ifvqeug","pricing_plan_id":"cebpf4jnsgd1na2vs0mg"},{"bike_id":"748823b5-89d6-4a52-bcc0-c1c0a4beb5f8","system_id":"levelo_inurba_marseille","lat":43.30888,"lon":5.39649,"is_reserved":false,"is_disabled":false,"rental_uris":{"android":"levelo://app?vid=748823b5-89d6-4a52-bcc0-c1c0a4beb5f8","ios":"levelo://app?vid=748823b5-89d6-4a52-bcc0-c1c0a4beb5f8"},"vehicle_type_id":"4","last_reported":1733024264,"current_range_meters":38800,"station_id":"ce4bh012rcd13ifvqcv0","pricing_plan_id":"cebpf4jnsgd1na2vs0mg"},{"bike_id":"e390933d-a2ea-424a-a167-0169f9641115","system_id":"levelo_inurba_marseille","lat":43.29317,"lon":5.37167,"is_reserved":false,"is_disabled":false,"rental_uris":{"android":"levelo://app?vid=e390933d-a2ea-424a-a167-0169f9641115","ios":"levelo://app?vid=e390933d-a2ea-424a-a167-0169f9641115"},"vehicle_type_id":"4","last_reported":1733024264,"current_range_meters":38400,"station_id":"ce4bgh92rcd13ifvqb40","pricing_plan_id":"cebpf4jnsgd1na2vs0mg"},{"bike_id":"bfb856cf-7615-4aa7-a7e4-859a62ce8248","system_id":"levelo_inurba_marseille","lat":43.337408,"lon":5.374599,"is_reserved":false,"is_disabled":false,"rental_uris":{"android":"levelo://app?vid=bfb856cf-7615-4aa7-a7e4-859a62ce8248","ios":"levelo://app?vid=bfb856cf-7615-4aa7-a7e4-859a62ce8248"},"vehicle_type_id":"4","last_reported":1733024264,"current_range_meters":13600,"station_id":"","pricing_plan_id":"cebpf4jnsgd1na2vs0mg"},{"bike_id":"cb34c131-2d53-4033-9c3f-a32b617e80d3","system_id":"levelo_inurba_marseille","lat":43.29792,"lon":5.38102,"is_reserved":false,"is_disabled":false,"rental_uris":{"android":"levelo://app?vid=cb34c131-2d53-4033-9c3f-a32b617e80d3","ios":"levelo://app?vid=cb34c131-2d53-4033-9c3f-a32b617e80d3"},"vehicle_type_id":"4","last_reported":1733024264,"current_range_meters":32000,"station_id":"ce4bgip2rcd13ifvqbb0","pricing_plan_id":"cebpf4jnsgd1na2vs0mg"},{"bike_id":"56fcd19c-5506-43c9-abe1-45a182f70e42","system_id":"levelo_inurba_marseille","lat":43.2762,"lon":5.36111,"is_reserved":false,"is_disabled":false,"rental_uris":{"android":"levelo://app?vid=56fcd19c-5506-43c9-abe1-45a182f70e42","ios":"levelo://app?vid=56fcd19c-5506-43c9-abe1-45a182f70e42"},"vehicle_type_id":"4","last_reported":1733024264,"current_range_meters":12000,"station_id":"ce4bgj92rcd13ifvqbe0","pricing_plan_id":"cebpf4jnsgd1na2vs0mg"},{"bike_id":"68f984c9-51a6-4902-b463-f264f9fe3444","system_id":"levelo_inurba_marseille","lat":43.32536,"lon":5.41446,"is_reserved":false,"is_disabled":false,"rental_uris":{"android":"levelo://app?vid=68f984c9-51a6-4902-b463-f264f9fe3444","ios":"levelo://app?vid=68f984c9-51a6-4902-b463-f264f9fe3444"},"vehicle_type_id":"4","last_reported":1733024264,"current_range_meters":38400,"station_id":"ce4bhq12rcd13ifvqhhg","pricing_plan_id":"cebpf4jnsgd1na2vs0mg"},{"bike_id":"f6406f66-5153-40ce-bc97-7cea00959e6b","system_id":"levelo_inurba_marseille","lat":43.31275,"lon":5.40157,"is_reserved":false,"is_disabled":true,"rental_uris":{"android":"levelo://app?vid=f6406f66-5153-40ce-bc97-7cea00959e6b","ios":"levelo://app?vid=f6406f66-5153-40ce-bc97-7cea00959e6b"},"vehicle_type_id":"4","last_reported":1733024264,"current_range_meters":400,"station_id":"ce4bh092rcd13ifvqd30","pricing_plan_id":"cebpf4jnsgd1na2vs0mg"},{"bike_id":"a504de77-3b93-419b-8d1d-a288ad54304a","system_id":"levelo_inurba_marseille","lat":43.32024,"lon":5.37272,"is_reserved":false,"is_disabled":false,"rental_uris":{"android":"levelo://app?vid=a504de77-3b93-419b-8d1d-a288ad54304a","ios":"levelo://app?vid=a504de77-3b93-419b-8d1d-a288ad54304a"},"vehicle_type_id":"4","last_reported":1733024264,"current_range_meters":36000,"station_id":"","pricing_plan_id":"cebpf4jnsgd1na2vs0mg"},{"bike_id":"ce20c844-7914-4b0b-b70c-e7bdec0d808d","system_id":"levelo_inurba_marseille","lat":43.259344,"lon":5.408961,"is_reserved":false,"is_disabled":false,"rental_uris":{"android":"levelo://app?vid=ce20c844-7914-4b0b-b70c-e7bdec0d808d","ios":"levelo://app?vid=ce20c844-7914-4b0b-b70c-e7bdec0d808d"},"vehicle_type_id":"4","last_reported":1733024264,"current_range_meters":14400,"station_id":"ce4bhm92rcd13ifvqglg","pricing_plan_id":"cebpf4jnsgd1na2vs0mg"},{"bike_id":"e6d3d061-6cef-4ef8-8617-2120150fda9b","system_id":"levelo_inurba_marseille","lat":43.28363,"lon":5.38634,"is_reserved":false,"is_disabled":true,"rental_uris":{"android":"levelo://app?vid=e6d3d061-6cef-4ef8-8617-2120150fda9b","ios":"levelo://app?vid=e6d3d061-6cef-4ef8-8617-2120150fda9b"},"vehicle_type_id":"4","last_reported":1733024264,"current_range_meters":14800,"station_id":"ce4bh492rcd13ifvqdvg","pricing_plan_id":"cebpf4jnsgd1na2vs0mg"},{"bike_id":"9e3374b6-7bfe-42cb-900c-30d7c473e8b3","system_id":"levelo_inurba_marseille","lat":43.31282,"lon":5.40167,"is_reserved":false,"is_disabled":false,"rental_uris":{"android":"levelo://app?vid=9e3374b6-7bfe-42cb-900c-30d7c473e8b3","ios":"levelo://app?vid=9e3374b6-7bfe-42cb-900c-30d7c473e8b3"},"vehicle_type_id":"4","last_reported":1733024264,"current_range_meters":30000,"station_id":"ce4bh092rcd13ifvqd30","pricing_plan_id":"cebpf4jnsgd1na2vs0mg"},{"bike_id":"58f5d99c-c01f-4bd1-ac20-b06556b13d63","system_id":"levelo_inurba_marseille","lat":43.30807,"lon":5.43518,"is_reserved":false,"is_disabled":false,"rental_uris":{"android":"levelo://app?vid=58f5d99c-c01f-4bd1-ac20-b06556b13d63","ios":"levelo://app?vid=58f5d99c-c01f-4bd1-ac20-b06556b13d63"},"vehicle_type_id":"4","last_reported":1733024264,"current_range_meters":12000,"station_id":"ce4bhph2rcd13ifvqheg","pricing_plan_id":"cebpf4jnsgd1na2vs0mg"},{"bike_id":"6b3e3713-df70-4471-beb6-70eb7c7287a6","system_id":"levelo_inurba_marseille","lat":43.2499,"lon":5.38934,"is_reserved":false,"is_disabled":false,"rental_uris":{"android":"levelo://app?vid=6b3e3713-df70-4471-beb6-70eb7c7287a6","ios":"levelo://app?vid=6b3e3713-df70-4471-beb6-70eb7c7287a6"},"vehicle_type_id":"4","last_reported":1733024264,"current_range_meters":10000,"station_id":"ce4bhgp2rcd13ifvqfd0","pricing_plan_id":"cebpf4jnsgd1na2vs0mg"},{"bike_id":"c811bcc7-7263-4e71-9899-d225062584c5","system_id":"levelo_inurba_marseille","lat":43.30799,"lon":5.37647,"is_reserved":false,"is_disabled":false,"rental_uris":{"android":"levelo://app?vid=c811bcc7-7263-4e71-9899-d225062584c5","ios":"levelo://app?vid=c811bcc7-7263-4e71-9899-d225062584c5"},"vehicle_type_id":"4","last_reported":1733024264,"current_range_meters":38800,"station_id":"ce4bgv92rcd13ifvqcq0","pricing_plan_id":"cebpf4jnsgd1na2vs0mg"},{"bike_id":"cf36a015-b289-4af2-831c-669d9ba41aee","system_id":"levelo_inurba_marseille","lat":43.27983,"lon":5.38752,"is_reserved":false,"is_disabled":true,"rental_uris":{"android":"levelo://app?vid=cf36a015-b289-4af2-831c-669d9ba41aee","ios":"levelo://app?vid=cf36a015-b289-4af2-831c-669d9ba41aee"},"vehicle_type_id":"4","last_reported":1733024264,"current_range_meters":0,"station_id":"ce4bhg12rcd13ifvqf80","pricing_plan_id":"cebpf4jnsgd1na2vs0mg"},{"bike_id":"6fb15089-ca1e-4f80-9255-381fc8b4ee17","system_id":"levelo_inurba_marseille","lat":43.246443,"lon":5.38887,"is_reserved":false,"is_disabled":false,"rental_uris":{"android":"levelo://app?vid=6fb15089-ca1e-4f80-9255-381fc8b4ee17","ios":"levelo://app?vid=6fb15089-ca1e-4f80-9255-381fc8b4ee17"},"vehicle_type_id":"4","last_reported":1733024264,"current_range_meters":10000,"station_id":"ce4bhg12rcd13ifvqf60","pricing_plan_id":"cebpf4jnsgd1na2vs0mg"},{"bike_id":"7dc2caec-37b5-482a-abad-d1d2f62e7e82","system_id":"levelo_inurba_marseille","lat":43.31255,"lon":5.36951,"is_reserved":false,"is_disabled":true,"rental_uris":{"android":"levelo://app?vid=7dc2caec-37b5-482a-abad-d1d2f62e7e82","ios":"levelo://app?vid=7dc2caec-37b5-482a-abad-d1d2f62e7e82"},"vehicle_type_id":"4","last_reported":1733024264,"current_range_meters":0,"station_id":"","pricing_plan_id":"cebpf4jnsgd1na2vs0mg"},{"bike_id":"b0c90623-3bdd-434a-8105-bee8868cd7c8","system_id":"levelo_inurba_marseille","lat":43.28664,"lon":5.3634,"is_reserved":false,"is_disabled":false,"rental_uris":{"android":"levelo://app?vid=b0c90623-3bdd-434a-8105-bee8868cd7c8","ios":"levelo://app?vid=b0c90623-3bdd-434a-8105-bee8868cd7c8"},"vehicle_type_id":"4","last_reported":1733024264,"current_range_meters":23200,"station_id":"ce4bhah2rcd13ifvqej0","pricing_plan_id":"cebpf4jnsgd1na2vs0mg"},{"bike_id":"231ed7c5-b047-4d16-89a8-0ab369a27db6","system_id":"levelo_inurba_marseille","lat":43.29197,"lon":5.35802,"is_reserved":false,"is_disabled":false,"rental_uris":{"android":"levelo://app?vid=231ed7c5-b047-4d16-89a8-0ab369a27db6","ios":"levelo://app?vid=231ed7c5-b047-4d16-89a8-0ab369a27db6"},"vehicle_type_id":"4","last_reported":1733024264,"current_range_meters":27200,"station_id":"ce4bhb12rcd13ifvqel0","pricing_plan_id":"cebpf4jnsgd1na2vs0mg"},{"bike_id":"d096a05a-f487-4e0d-9d29-6cd024c7c698","system_id":"levelo_inurba_marseille","lat":43.25005,"lon":5.38927,"is_reserved":false,"is_disabled":false,"rental_uris":{"android":"levelo://app?vid=d096a05a-f487-4e0d-9d29-6cd024c7c698","ios":"levelo://app?vid=d096a05a-f487-4e0d-9d29-6cd024c7c698"},"vehicle_type_id":"4","last_reported":1733024264,"current_range_meters":33200,"station_id":"ce4bhgp2rcd13ifvqfd0","pricing_plan_id":"cebpf4jnsgd1na2vs0mg"},{"bike_id":"9dd1fc98-a89e-437a-b707-6eb8b3c899e8","system_id":"levelo_inurba_marseille","lat":43.29042,"lon":5.35921,"is_reserved":false,"is_disabled":true,"rental_uris":{"android":"levelo://app?vid=9dd1fc98-a89e-437a-b707-6eb8b3c899e8","ios":"levelo://app?vid=9dd1fc98-a89e-437a-b707-6eb8b3c899e8"},"vehicle_type_id":"4","last_reported":1733024264,"current_range_meters":800,"station_id":"ce4bha92rcd13ifvqeg0","pricing_plan_id":"cebpf4jnsgd1na2vs0mg"},{"bike_id":"28a82196-100a-4883-b98e-31aeb1068b5e","system_id":"levelo_inurba_marseille","lat":43.29693,"lon":5.36267,"is_reserved":false,"is_disabled":false,"rental_uris":{"android":"levelo://app?vid=28a82196-100a-4883-b98e-31aeb1068b5e","ios":"levelo://app?vid=28a82196-100a-4883-b98e-31aeb1068b5e"},"vehicle_type_id":"4","last_reported":1733024264,"current_range_meters":35600,"station_id":"","pricing_plan_id":"cebpf4jnsgd1na2vs0mg"},{"bike_id":"aea6b7a8-fa3c-4842-89c6-693b08a99724","system_id":"levelo_inurba_marseille","lat":43.33752,"lon":5.37428,"is_reserved":false,"is_disabled":false,"rental_uris":{"android":"levelo://app?vid=aea6b7a8-fa3c-4842-89c6-693b08a99724","ios":"levelo://app?vid=aea6b7a8-fa3c-4842-89c6-693b08a99724"},"vehicle_type_id":"4","last_reported":1733024264,"current_range_meters":36000,"station_id":"","pricing_plan_id":"cebpf4jnsgd1na2vs0mg"},{"bike_id":"1d61ce94-fc69-4547-98a1-1bc3b6deaebc","system_id":"levelo_inurba_marseille","lat":43.28853,"lon":5.35853,"is_reserved":false,"is_disabled":false,"rental_uris":{"android":"levelo://app?vid=1d61ce94-fc69-4547-98a1-1bc3b6deaebc","ios":"levelo://app?vid=1d61ce94-fc69-4547-98a1-1bc3b6deaebc"},"vehicle_type_id":"4","last_reported":1733024264,"current_range_meters":29600,"station_id":"ce4bhb12rcd13ifvqem0","pricing_plan_id":"cebpf4jnsgd1na2vs0mg"},{"bike_id":"88c7bf8e-4811-46fd-b06d-1e00a7503400","system_id":"levelo_inurba_marseille","lat":43.25106,"lon":5.403287,"is_reserved":false,"is_disabled":true,"rental_uris":{"android":"levelo://app?vid=88c7bf8e-4811-46fd-b06d-1e00a7503400","ios":"levelo://app?vid=88c7bf8e-4811-46fd-b06d-1e00a7503400"},"vehicle_type_id":"4","last_reported":1733024264,"current_range_meters":0,"station_id":"ce4bhlh2rcd13ifvqgig","pricing_plan_id":"cebpf4jnsgd1na2vs0mg"},{"bike_id":"ff90587f-4b59-47e3-82d7-9ecb2f1bc4ef","system_id":"levelo_inurba_marseille","lat":43.323403,"lon":5.406227,"is_reserved":false,"is_disabled":false,"rental_uris":{"android":"levelo://app?vid=ff90587f-4b59-47e3-82d7-9ecb2f1bc4ef","ios":"levelo://app?vid=ff90587f-4b59-47e3-82d7-9ecb2f1bc4ef"},"vehicle_type_id":"4","last_reported":1733024264,"current_range_meters":38800,"station_id":"ce4bhq92rcd13ifvqhjg","pricing_plan_id":"cebpf4jnsgd1na2vs0mg"},{"bike_id":"1b4091b4-9da5-4e08-a623-15bd0eb83e75","system_id":"levelo_inurba_marseille","lat":43.29304,"lon":5.37177,"is_reserved":false,"is_disabled":true,"rental_uris":{"android":"levelo://app?vid=1b4091b4-9da5-4e08-a623-15bd0eb83e75","ios":"levelo://app?vid=1b4091b4-9da5-4e08-a623-15bd0eb83e75"},"vehicle_type_id":"4","last_reported":1733024264,"current_range_meters":8400,"station_id":"ce4bgh92rcd13ifvqb40","pricing_plan_id":"cebpf4jnsgd1na2vs0mg"},{"bike_id":"01dd0f6c-5d7c-4e63-a161-668f65657b81","system_id":"levelo_inurba_marseille","lat":43.2293,"lon":5.35381,"is_reserved":false,"is_disabled":false,"rental_uris":{"android":"levelo://app?vid=01dd0f6c-5d7c-4e63-a161-668f65657b81","ios":"levelo://app?vid=01dd0f6c-5d7c-4e63-a161-668f65657b81"},"vehicle_type_id":"4","last_reported":1733024264,"current_range_meters":38400,"station_id":"cpo3532slgdg3j2ikp40","pricing_plan_id":"cebpf4jnsgd1na2vs0mg"},{"bike_id":"b0924600-8287-4199-b791-e13b75ba6670","system_id":"levelo_inurba_marseille","lat":43.31188,"lon":5.38702,"is_reserved":false,"is_disabled":false,"rental_uris":{"android":"levelo://app?vid=b0924600-8287-4199-b791-e13b75ba6670","ios":"levelo://app?vid=b0924600-8287-4199-b791-e13b75ba6670"},"vehicle_type_id":"4","last_reported":1733024264,"current_range_meters":19200,"station_id":"ce4bgv12rcd13ifvqcp0","pricing_plan_id":"cebpf4jnsgd1na2vs0mg"},{"bike_id":"a054c468-8cf6-4708-bfde-533f0a3e2365","system_id":"levelo_inurba_marseille","lat":43.3064,"lon":5.40069,"is_reserved":false,"is_disabled":false,"rental_uris":{"android":"levelo://app?vid=a054c468-8cf6-4708-bfde-533f0a3e2365","ios":"levelo://app?vid=a054c468-8cf6-4708-bfde-533f0a3e2365"},"vehicle_type_id":"4","last_reported":1733024264,"current_range_meters":38800,"station_id":"ce4bh112rcd13ifvqda0","pricing_plan_id":"cebpf4jnsgd1na2vs0mg"},{"bike_id":"ce5712b8-c5d6-4540-8a8e-3a7d8ef33d65","system_id":"levelo_inurba_marseille","lat":43.32491,"lon":5.36562,"is_reserved":false,"is_disabled":false,"rental_uris":{"android":"levelo://app?vid=ce5712b8-c5d6-4540-8a8e-3a7d8ef33d65","ios":"levelo://app?vid=ce5712b8-c5d6-4540-8a8e-3a7d8ef33d65"},"vehicle_type_id":"4","last_reported":1733024264,"current_range_meters":6400,"station_id":"ce4bhs12rcd13ifvqhvg","pricing_plan_id":"cebpf4jnsgd1na2vs0mg"},{"bike_id":"c1a51721-b7c0-40d4-852d-da5a8ce7692f","system_id":"levelo_inurba_marseille","lat":43.27179,"lon":5.40993,"is_reserved":false,"is_disabled":false,"rental_uris":{"android":"levelo://app?vid=c1a51721-b7c0-40d4-852d-da5a8ce7692f","ios":"levelo://app?vid=c1a51721-b7c0-40d4-852d-da5a8ce7692f"},"vehicle_type_id":"4","last_reported":1733024264,"current_range_meters":38000,"station_id":"ce4bhl12rcd13ifvqgf0","pricing_plan_id":"cebpf4jnsgd1na2vs0mg"},{"bike_id":"56ed418e-d22f-4047-8521-adcd28a8f70d","system_id":"levelo_inurba_marseille","lat":43.29787,"lon":5.38106,"is_reserved":false,"is_disabled":false,"rental_uris":{"android":"levelo://app?vid=56ed418e-d22f-4047-8521-adcd28a8f70d","ios":"levelo://app?vid=56ed418e-d22f-4047-8521-adcd28a8f70d"},"vehicle_type_id":"4","last_reported":1733024264,"current_range_meters":28400,"station_id":"ce4bgip2rcd13ifvqbb0","pricing_plan_id":"cebpf4jnsgd1na2vs0mg"},{"bike_id":"167686ca-8000-484a-9a28-c4e6488cae30","system_id":"levelo_inurba_marseille","lat":43.24078,"lon":5.37761,"is_reserved":false,"is_disabled":false,"rental_uris":{"android":"levelo://app?vid=167686ca-8000-484a-9a28-c4e6488cae30","ios":"levelo://app?vid=167686ca-8000-484a-9a28-c4e6488cae30"},"vehicle_type_id":"4","last_reported":1733024264,"current_range_meters":29600,"station_id":"ce4bhnp2rcd13ifvqgvg","pricing_plan_id":"cebpf4jnsgd1na2vs0mg"},{"bike_id":"e5951ee3-4a5a-4ebb-b469-096c5188dfa3","system_id":"levelo_inurba_marseille","lat":43.23189,"lon":5.35564,"is_reserved":false,"is_disabled":false,"rental_uris":{"android":"levelo://app?vid=e5951ee3-4a5a-4ebb-b469-096c5188dfa3","ios":"levelo://app?vid=e5951ee3-4a5a-4ebb-b469-096c5188dfa3"},"vehicle_type_id":"4","last_reported":1733024264,"current_range_meters":14800,"station_id":"ce4bhu92rcd13ifvqi70","pricing_plan_id":"cebpf4jnsgd1na2vs0mg"},