{"last_updated":1774102655,"ttl":60,"version":"2.2","data":{"bikes":[{"bike_id":"a885d8ad-5b06-4f54-9cfc-152f85ff4259","system_id":"levelo_inurba_marseille","lat":43.28621,"lon":5.35099,"is_reserved":false,"is_disabled":false,"rental_uris":{"android":"levelo://app?vid=a885d8ad-5b06-4f54-9cfc-152f85ff4259","ios":"levelo://app?vid=a885d8ad-5b06-4f54-9cfc-152f85ff4259"},"vehicle_type_id":"4","last_reported":1774102656,"current_range_meters":2800,"station_id":"ce4bhch2rcd13ifvqeug","pricing_plan_id":"cebpf4jnsgd1na2vs0mg"},{"bike_id":"03f9e81d-4c04-4dcf-a32f-f8aca54cc313","system_id":"levelo_inurba_marseille","lat":43.2884,"lon":5.35845,"is_reserved":false,"is_disabled":false,"rental_uris":{"android":"levelo://app?vid=03f9e81d-4c04-4dcf-a32f-f8aca54cc313","ios":"levelo://app?vid=03f9e81d-4c04-4dcf-a32f-f8aca54cc313"},"vehicle_type_id":"4","last_reported":1774102656,"current_range_meters":2800,"station_id":"ce4bhb12rcd13ifvqem0","pricing_plan_id":"cebpf4jnsgd1na2vs0mg"},{"bike_id":"b58ae824-3522-4b89-b668-a22e11a8a185","system_id":"levelo_inurba_marseille","lat":43.22558,"lon":5.41624,"is_reserved":false,"is_disabled":false,"rental_uris":{"android":"levelo://app?vid=b58ae824-3522-4b89-b668-a22e11a8a185","ios":"levelo://app?vid=b58ae824-3522-4b89-b668-a22e11a8a185"},"vehicle_type_id":"4","last_reported":1774102656,"current_range_meters":2800,"station_id":"st_d2o4gvlbi1j2169b742g","pricing_plan_id":"cebpf4jnsgd1na2vs0mg"},{"bike_id":"2c6a9281-b54f-48fd-8d85-fc0b2a2d5d15","system_id":"levelo_inurba_marseille","lat":43.27795,"lon":5.3551,"is_reserved":false,"is_disabled":false,"rental_uris":{"android":"levelo://app?vid=2c6a9281-b54f-48fd-8d85-fc0b2a2d5d15","ios":"levelo://app?vid=2c6a9281-b54f-48fd-8d85-fc0b2a2d5d15"},"vehicle_type_id":"4","last_reported":1774102656,"current_range_meters":2800,"station_id":"ce4bgi12rcd13ifvqb70","pricing_plan_id":"cebpf4jnsgd1na2vs0mg"},{"bike_id":"d7ba6cf1-cfa6-43d8-bd0a-706af601100b","system_id":"levelo_inurba_marseille","lat":43.28996,"lon":5.35603,"is_reserved":false,"is_disabled":false,"rental_uris":{"android":"levelo://app?vid=d7ba6cf1-cfa6-43d8-bd0a-706af601100b","ios":"levelo://app?vid=d7ba6cf1-cfa6-43d8-bd0a-706af601100b"},"vehicle_type_id":"4","last_reported":1774102656,"current_range_meters":2800,"station_id":"ce4bhb92rcd13ifvqen0","pricing_plan_id":"cebpf4jnsgd1na2vs0mg"},{"bike_id":"d0bbf916-91fa-4969-ac23-e89e9de70d2a","system_id":"levelo_inurba_marseille","lat":43.30545,"lon":5.36527,"is_reserved":false,"is_disabled":false,"rental_uris":{"android":"levelo://app?vid=d0bbf916-91fa-4969-ac23-e89e9de70d2a","ios":"levelo://app?vid=d0bbf916-91fa-4969-ac23-e89e9de70d2a"},"vehicle_type_id":"4","last_reported":1774102656,"current_range_meters":2800,"station_id":"ce4bgs12rcd13ifvqcag","pricing_plan_id":"cebpf4jnsgd1na2vs0mg"},{"bike_id":"02890a69-b4c0-45c7-83fe-503fa8a62589","system_id":"levelo_inurba_marseille","lat":43.2761,"lon":5.36106,"is_reserved":false,"is_disabled":false,"rental_uris":{"android":"levelo://app?vid=02890a69-b4c0-45c7-83fe-503fa8a62589","ios":"levelo://app?vid=02890a69-b4c0-45c7-83fe-503fa8a62589"},"vehicle_type_id":"4","last_reported":1774102656,"current_range_meters":2800,"station_id":"ce4bgj92rcd13ifvqbe0","pricing_plan_id":"cebpf4jnsgd1na2vs0mg"},{"bike_id":"119d24bc-e3dd-4e47-a0b9-64bbbcc5b1ee","system_id":"levelo_inurba_marseille","lat":43.21749,"lon":5.34615,"is_reserved":false,"is_disabled":true,"rental_uris":{"android":"levelo://app?vid=119d24bc-e3dd-4e47-a0b9-64bbbcc5b1ee","ios":"levelo://app?vid=119d24bc-e3dd-4e47-a0b9-64bbbcc5b1ee"},"vehicle_type_id":"4","last_reported":1774102656,"current_range_meters":2800,"station_id":"st_cvj6r9ubvosntc0bgbag","pricing_plan_id":"cebpf4jnsgd1na2vs0mg"},{"bike_id":"c142af26-b83c-4aa3-ab8b-699576493d34","system_id":"levelo_inurba_marseille","lat":43.21203,"lon":5.35073,"is_reserved":false,"is_disabled":true,"rental_uris":{"android":"levelo://app?vid=c142af26-b83c-4aa3-ab8b-699576493d34","ios":"levelo://app?vid=c142af26-b83c-4aa3-ab8b-699576493d34"},"vehicle_type_id":"4","last_reported":1774102656,"current_range_meters":2800,"station_id":"st_cvj6sg6p6f1abm77japg","pricing_plan_id":"cebpf4jnsgd1na2vs0mg"},{"bike_id":"29705345-7a8e-4bdd-8b65-5ba8856c877f","system_id":"levelo_inurba_marseille","lat":43.30296,"lon":5.44961,"is_reserved":false,"is_disabled":false,"rental_uris":{"android":"levelo://app?vid=29705345-7a8e-4bdd-8b65-5ba8856c877f","ios":"levelo://app?vid=29705345-7a8e-4bdd-8b65-5ba8856c877f"},"vehicle_type_id":"4","last_reported":1774102656,"current_range_meters":2800,"station_id":"","pricing_plan_id":"cebpf4jnsgd1na2vs0mg"},{"bike_id":"ce0aa107-0fc1-42a8-bec0-79baf735f306","system_id":"levelo_inurba_marseille","lat":43.29927,"lon":5.36531,"is_reserved":false,"is_disabled":false,"rental_uris":{"android":"levelo://app?vid=ce0aa107-0fc1-42a8-bec0-79baf735f306","ios":"levelo://app?vid=ce0aa107-0fc1-42a8-bec0-79baf735f306"},"vehicle_type_id":"4","last_reported":1774102656,"current_range_meters":2800,"station_id":"ce4bgm92rcd13ifvqbr0","pricing_plan_id":"cebpf4jnsgd1na2vs0mg"},{"bike_id":"a5fa76af-4615-4d5d-9b58-ea337703eff8","system_id":"levelo_inurba_marseille","lat":43.29993,"lon":5.38617,"is_reserved":false,"is_disabled":false,"rental_uris":{"android":"levelo://app?vid=a5fa76af-4615-4d5d-9b58-ea337703eff8","ios":"levelo://app?vid=a5fa76af-4615-4d5d-9b58-ea337703eff8"},"vehicle_type_id":"4","last_reported":1774102656,"current_range_meters":2800,"station_id":"","pricing_plan_id":"cebpf4jnsgd1na2vs0mg"},{"bike_id":"23c209c6-7d3c-4387-b04a-03a2b9a72d01","system_id":"levelo_inurba_marseille","lat":43.28368,"lon":5.43254,"is_reserved":false,"is_disabled":false,"rental_uris":{"android":"levelo://app?vid=23c209c6-7d3c-4387-b04a-03a2b9a72d01","ios":"levelo://app?vid=23c209c6-7d3c-4387-b04a-03a2b9a72d01"},"vehicle_type_id":"4","last_reported":1774102656,"current_range_meters":2800,"station_id":"","pricing_plan_id":"cebpf4jnsgd1na2vs0mg"},{"bike_id":"bebae7b0-c2c6-4b1d-8855-8b06d4443a00","system_id":"levelo_inurba_marseille","lat":43.28475,"lon":5.48395,"is_reserved":false,"is_disabled":false,"rental_uris":{"android":"levelo://app?vid=bebae7b0-c2c6-4b1d-8855-8b06d4443a00","ios":"levelo://app?vid=bebae7b0-c2c6-4b1d-8855-8b06d4443a00"},"vehicle_type_id":"4","last_reported":1774102656,"current_range_meters":2800,"station_id":"","pricing_plan_id":"cebpf4jnsgd1na2vs0mg"},{"bike_id":"3d8b9441-846b-4bc6-a99f-7538b53156c2","system_id":"levelo_inurba_marseille","lat":43.29778,"lon":5.38085,"is_reserved":false,"is_disabled":true,"rental_uris":{"android":"levelo://app?vid=3d8b9441-846b-4bc6-a99f-7538b53156c2","ios":"levelo://app?vid=3d8b9441-846b-4bc6-a99f-7538b53156c2"},"vehicle_type_id":"4","last_reported":1774102656,"current_range_meters":3200,"station_id":"ce4bgip2rcd13ifvqbb0","pricing_plan_id":"cebpf4jnsgd1na2vs0mg"},{"bike_id":"45f343c6-d246-4003-b6a7-edca73dbc20b","system_id":"levelo_inurba_marseille","lat":43.27908,"lon":5.39175,"is_reserved":false,"is_disabled":false,"rental_uris":{"android":"levelo://app?vid=45f343c6-d246-4003-b6a7-edca73dbc20b","ios":"levelo://app?vid=45f343c6-d246-4003-b6a7-edca73dbc20b"},"vehicle_type_id":"4","last_reported":1774102656,"current_range_meters":3200,"station_id":"","pricing_plan_id":"cebpf4jnsgd1na2vs0mg"},{"bike_id":"c7cc5081-8a90-4664-8378-0ac0db8d74fb","system_id":"levelo_inurba_marseille","lat":43.29823,"lon":5.36739,"is_reserved":false,"is_disabled":false,"rental_uris":{"android":"levelo://app?vid=c7cc5081-8a90-4664-8378-0ac0db8d74fb","ios":"levelo://app?vid=c7cc5081-8a90-4664-8378-0ac0db8d74fb"},"vehicle_type_id":"4","last_reported":1774102656,"current_range_meters":3200,"station_id":"","pricing_plan_id":"cebpf4jnsgd1na2vs0mg"},{"bike_id":"2f4a9c95-8fb7-451c-877a-0714d99c278f","system_id":"levelo_inurba_marseille","lat":43.24165,"lon":5.36389,"is_reserved":false,"is_disabled":false,"rental_uris":{"android":"levelo://app?vid=2f4a9c95-8fb7-451c-877a-0714d99c278f","ios":"levelo://app?vid=2f4a9c95-8fb7-451c-877a-0714d99c278f"},"vehicle_type_id":"4","last_reported":1774102656,"current_range_meters":3200,"station_id":"cpo36qri1sfpv3e86is0","pricing_plan_id":"cebpf4jnsgd1na2vs0mg"},{"bike_id":"3e5c7bdb-60ee-4795-a793-9681791a8e87","system_id":"levelo_inurba_marseille","lat":43.29763,"lon":5.42774,"is_reserved":false,"is_disabled":false,"rental_uris":{"android":"levelo://app?vid=3e5c7bdb-60ee-4795-a793-9681791a8e87","ios":"levelo://app?vid=3e5c7bdb-60ee-4795-a793-9681791a8e87"},"vehicle_type_id":"4","last_reported":1774102656,"current_range_meters":3200,"station_id":"st_d3md5207bmas73dh9klg","pricing_plan_id":"cebpf4jnsgd1na2vs0mg"},{"bike_id":"987a9842-7a40-45f7-a61b-ad4aff536151","system_id":"levelo_inurba_marseille","lat":43.28229,"lon":5.39068,"is_reserved":false,"is_disabled":false,"rental_uris":{"android":"levelo://app?vid=987a9842-7a40-45f7-a61b-ad4aff536151","ios":"levelo://app?vid=987a9842-7a40-45f7-a61b-ad4aff536151"},"vehicle_type_id":"4","last_reported":1774102656,"current_range_meters":3200,"station_id":"ce4bhn92rcd13ifvqgsg","pricing_plan_id":"cebpf4jnsgd1na2vs0mg"},{"bike_id":"5ce2c6fe-467d-43fe-aa2c-436283f5edb4","system_id":"levelo_inurba_marseille","lat":43.21734,"lon":5.34601,"is_reserved":false,"is_disabled":false,"rental_uris":{"android":"levelo://app?vid=5ce2c6fe-467d-43fe-aa2c-436283f5edb4","ios":"levelo://app?vid=5ce2c6fe-467d-43fe-aa2c-436283f5edb4"},"vehicle_type_id":"4","last_reported":1774102656,"current_range_meters":3200,"station_id":"st_cvj6r9ubvosntc0bgbag","pricing_plan_id":"cebpf4jnsgd1na2vs0mg"},{"bike_id":"62d5d64b-ef7b-4446-9c31-adb69646129f","system_id":"levelo_inurba_marseille","lat":43.26555,"lon":5.37288,"is_reserved":false,"is_disabled":false,"rental_uris":{"android":"levelo://app?vid=62d5d64b-ef7b-4446-9c31-adb69646129f","ios":"levelo://app?vid=62d5d64b-ef7b-4446-9c31-adb69646129f"},"vehicle_type_id":"4","last_reported":1774102656,"current_range_meters":3200,"station_id":"ce4bhg12rcd13ifvqf70","pricing_plan_id":"cebpf4jnsgd1na2vs0mg"},{"bike_id":"690c4f96-b12c-4e3c-aad6-709a94dcd014","system_id":"levelo_inurba_marseille","lat":43.21188,"lon":5.35074,"is_reserved":false,"is_disabled":false,"rental_uris":{"android":"levelo://app?vid=690c4f96-b12c-4e3c-aad6-709a94dcd014","ios":"levelo://app?vid=690c4f96-b12c-4e3c-aad6-709a94dcd014"},"vehicle_type_id":"4","last_reported":1774102656,"current_range_meters":3200,"station_id":"st_cvj6sg6p6f1abm77japg","pricing_plan_id":"cebpf4jnsgd1na2vs0mg"},{"bike_id":"29ceb06a-4df8-4e2a-9dd9-b070e185b37f","system_id":"levelo_inurba_marseille","lat":43.28465,"lon":5.48397,"is_reserved":false,"is_disabled":false,"rental_uris":{"android":"levelo://app?vid=29ceb06a-4df8-4e2a-9dd9-b070e185b37f","ios":"levelo://app?vid=29ceb06a-4df8-4e2a-9dd9-b070e185b37f"},"vehicle_type_id":"4","last_reported":1774102656,"current_range_meters":3200,"station_id":"","pricing_plan_id":"cebpf4jnsgd1na2vs0mg"},{"bike_id":"407e68e8-cb78-48b3-b08e-e788239306ef","system_id":"levelo_inurba_marseille","lat":43.28414,"lon":5.34974,"is_reserved":false,"is_disabled":false,"rental_uris":{"android":"levelo://app?vid=407e68e8-cb78-48b3-b08e-e788239306ef","ios":"levelo://app?vid=407e68e8-cb78-48b3-b08e-e788239306ef"},"vehicle_type_id":"4","last_reported":1774102656,"current_range_meters":3200,"station_id":"ce4bhbh2rcd13ifvqepg","pricing_plan_id":"cebpf4jnsgd1na2vs0mg"},{"bike_id":"2f125742-1761-4ca8-bc1d-2aeedbeac965","system_id":"levelo_inurba_marseille","lat":43.28467,"lon":5.3589,"is_reserved":false,"is_disabled":false,"rental_uris":{"android":"levelo://app?vid=2f125742-1761-4ca8-bc1d-2aeedbeac965","ios":"levelo://app?vid=2f125742-1761-4ca8-bc1d-2aeedbeac965"},"vehicle_type_id":"4","last_reported":1774102656,"current_range_meters":3200,"station_id":"ce4bhah2rcd13ifvqei0","pricing_plan_id":"cebpf4jnsgd1na2vs0mg"},{"bike_id":"e7064c53-ebea-4172-ba7d-dd6f43c01682","system_id":"levelo_inurba_marseille","lat":43.248468,"lon":5.374497,"is_reserved":false,"is_disabled":false,"rental_uris":{"android":"levelo://app?vid=e7064c53-ebea-4172-ba7d-dd6f43c01682","ios":"levelo://app?vid=e7064c53-ebea-4172-ba7d-dd6f43c01682"},"vehicle_type_id":"4","last_reported":1774102656,"current_range_meters":3200,"station_id":"ce4bhgh2rcd13ifvqfb0","pricing_plan_id":"cebpf4jnsgd1na2vs0mg"},{"bike_id":"b2eb83a2-39ad-4a1d-9f7d-87ffce79f5e9","system_id":"levelo_inurba_marseille","lat":43.28452,"lon":5.35889,"is_reserved":false,"is_disabled":false,"rental_uris":{"android":"levelo://app?vid=b2eb83a2-39ad-4a1d-9f7d-87ffce79f5e9","ios":"levelo://app?vid=b2eb83a2-39ad-4a1d-9f7d-87ffce79f5e9"},"vehicle_type_id":"4","last_reported":1774102656,"current_range_meters":3200,"station_id":"ce4bhah2rcd13ifvqei0","pricing_plan_id":"cebpf4jnsgd1na2vs0mg"},{"bike_id":"b14bb5e1-7882-4380-b389-98bb380dac81","system_id":"levelo_inurba_marseille","lat":43.2396,"lon":5.36623,"is_reserved":false,"is_disabled":false,"rental_uris":{"android":"levelo://app?vid=b14bb5e1-7882-4380-b389-98bb380dac81","ios":"levelo://app?vid=b14bb5e1-7882-4380-b389-98bb380dac81"},"vehicle_type_id":"4","last_reported":1774102656,"current_range_meters":3200,"station_id":"ce4bhi12rcd13ifvqfp0","pricing_plan_id":"cebpf4jnsgd1na2vs0mg"},{"bike_id":"ec327ac2-9680-48a1-8584-22f43bc41c50","system_id":"levelo_inurba_marseille","lat":43.29269,"lon":5.37614,"is_reserved":false,"is_disabled":true,"rental_uris":{"android":"levelo://app?vid=ec327ac2-9680-48a1-8584-22f43bc41c50","ios":"levelo://app?vid=ec327ac2-9680-48a1-8584-22f43bc41c50"},"vehicle_type_id":"4","last_reported":1774102656,"current_range_meters":3200,"station_id":"","pricing_plan_id":"cebpf4jnsgd1na2vs0mg"},{"bike_id":"a775511c-9985-4a58-8c4c-775aad7f3e36","system_id":"levelo_inurba_marseille","lat":43.29887,"lon":5.43661,"is_reserved":false,"is_disabled":false,"rental_uris":{"android":"levelo://app?vid=a775511c-9985-4a58-8c4c-775aad7f3e36","ios":"levelo://app?vid=a775511c-9985-4a58-8c4c-775aad7f3e36"},"vehicle_type_id":"4","last_reported":1774102656,"current_range_meters":3600,"station_id":"ce4bhpp2rcd13ifvqhfg","pricing_plan_id":"cebpf4jnsgd1na2vs0mg"},{"bike_id":"5cceaff6-9c88-4f93-855f-0673da52c4f7","system_id":"levelo_inurba_marseille","lat":43.23188,"lon":5.35563,"is_reserved":false,"is_disabled":false,"rental_uris":{"android":"levelo://app?vid=5cceaff6-9c88-4f93-855f-0673da52c4f7","ios":"levelo://app?vid=5cceaff6-9c88-4f93-855f-0673da52c4f7"},"vehicle_type_id":"4","last_reported":1774102656,"current_range_meters":3600,"station_id":"ce4bhu92rcd13ifvqi70","pricing_plan_id":"cebpf4jnsgd1na2vs0mg"},{"bike_id":"7e3fe35a-02a8-4e9a-bafd-ecb393f71d00","system_id":"levelo_inurba_marseille","lat":43.28858,"lon":5.42523,"is_reserved":false,"is_disabled":false,"rental_uris":{"android":"levelo://app?vid=7e3fe35a-02a8-4e9a-bafd-ecb393f71d00","ios":"levelo://app?vid=7e3fe35a-02a8-4e9a-bafd-ecb393f71d00"},"vehicle_type_id":"4","last_reported":1774102656,"current_range_meters":3600,"station_id":"","pricing_plan_id":"cebpf4jnsgd1na2vs0mg"},{"bike_id":"519f6e7c-6cc5-48c4-a57b-fe93221876fc","system_id":"levelo_inurba_marseille","lat":43.2827,"lon":5.35069,"is_reserved":false,"is_disabled":false,"rental_uris":{"android":"levelo://app?vid=519f6e7c-6cc5-48c4-a57b-fe93221876fc","ios":"levelo://app?vid=519f6e7c-6cc5-48c4-a57b-fe93221876fc"},"vehicle_type_id":"4","last_reported":1774102656,"current_range_meters":3600,"station_id":"ce4bhbp2rcd13ifvqerg","pricing_plan_id":"cebpf4jnsgd1na2vs0mg"},{"bike_id":"3e451d00-5fec-4d87-a09b-878c5d05c3dc","system_id":"levelo_inurba_marseille","lat":43.24799,"lon":5.37455,"is_reserved":false,"is_disabled":false,"rental_uris":{"android":"levelo://app?vid=3e451d00-5fec-4d87-a09b-878c5d05c3dc","ios":"levelo://app?vid=3e451d00-5fec-4d87-a09b-878c5d05c3dc"},"vehicle_type_id":"4","last_reported":1774102656,"current_range_meters":3600,"station_id":"ce4bhgh2rcd13ifvqfb0","pricing_plan_id":"cebpf4jnsgd1na2vs0mg"},{"bike_id":"d1cfaf64-8cc2-40e5-87bf-76007dd9a3c8","system_id":"levelo_inurba_marseille","lat":43.28365,"lon":5.3862,"is_reserved":false,"is_disabled":false,"rental_uris":{"android":"levelo://app?vid=d1cfaf64-8cc2-40e5-87bf-76007dd9a3c8","ios":"levelo://app?vid=d1cfaf64-8cc2-40e5-87bf-76007dd9a3c8"},"vehicle_type_id":"4","last_reported":1774102656,"current_range_meters":3600,"station_id":"ce4bh492rcd13ifvqdvg","pricing_plan_id":"cebpf4jnsgd1na2vs0mg"},{"bike_id":"e5eba928-e3a4-441b-9540-937747ee47b9","system_id":"levelo_inurba_marseille","lat":43.22567,"lon":5.41631,"is_reserved":false,"is_disabled":false,"rental_uris":{"android":"levelo://app?vid=e5eba928-e3a4-441b-9540-937747ee47b9","ios":"levelo://app?vid=e5eba928-e3a4-441b-9540-937747ee47b9"},"vehicle_type_id":"4","last_reported":1774102656,"current_range_meters":3600,"station_id":"st_d2o4gvlbi1j2169b742g","pricing_plan_id":"cebpf4jnsgd1na2vs0mg"},{"bike_id":"d13beb39-6370-4275-bcf3-5e08790510bd","system_id":"levelo_inurba_marseille","lat":43.28531,"lon":5.44105,"is_reserved":false,"is_disabled":false,"rental_uris":{"android":"levelo://app?vid=d13beb39-6370-4275-bcf3-5e08790510bd","ios":"levelo://app?vid=d13beb39-6370-4275-bcf3-5e08790510bd"},"vehicle_type_id":"4","last_reported":1774102656,"current_range_meters":3600,"station_id":"st_d3j3df2ikq2c7380ej80","pricing_plan_id":"cebpf4jnsgd1na2vs0mg"},{"bike_id":"4cd1e92a-db3b-4857-bda3-b98442f93498","system_id":"levelo_inurba_marseille","lat":43.24469,"lon":5.42529,"is_reserved":false,"is_disabled":false,"rental_uris":{"android":"levelo://app?vid=4cd1e92a-db3b-4857-bda3-b98442f93498","ios":"levelo://app?vid=4cd1e92a-db3b-4857-bda3-b98442f93498"},"vehicle_type_id":"4","last_reported":1774102656,"current_range_meters":3600,"station_id":"st_d4a3vfp97mjs738cd8kg","pricing_plan_id":"cebpf4jnsgd1na2vs0mg"},{"bike_id":"53f48266-4564-420b-96ab-d243233055dc","system_id":"levelo_inurba_marseille","lat":43.28477,"lon":5.48404,"is_reserved":false,"is_disabled":false,"rental_uris":{"android":"levelo://app?vid=53f48266-4564-420b-96ab-d243233055dc","ios":"levelo://app?vid=53f48266-4564-420b-96ab-d243233055dc"},"vehicle_type_id":"4","last_reported":1774102656,"current_range_meters":4000,"station_id":"","pricing_plan_id":"cebpf4jnsgd1na2vs0mg"},{"bike_id":"9eb3f606-d3b5-42b5-b554-88358f8feba4","system_id":"levelo_inurba_marseille","lat":43.24662,"lon":5.38165,"is_reserved":false,"is_disabled":false,"rental_uris":{"android":"levelo://app?vid=9eb3f606-d3b5-42b5-b554-88358f8feba4","ios":"levelo://app?vid=9eb3f606-d3b5-42b5-b554-88358f8feba4"},"vehicle_type_id":"4","last_reported":1774102656,"current_range_meters":4000,"station_id":"ce4bhih2rcd13ifvqfr0","pricing_plan_id":"cebpf4jnsgd1na2vs0mg"},{"bike_id":"82b47554-b451-488c-b75b-0f6939e13edc","system_id":"levelo_inurba_marseille","lat":43.28258,"lon":5.35069,"is_reserved":false,"is_disabled":false,"rental_uris":{"android":"levelo://app?vid=82b47554-b451-488c-b75b-0f6939e13edc","ios":"levelo://app?vid=82b47554-b451-488c-b75b-0f6939e13edc"},"vehicle_type_id":"4","last_reported":1774102656,"current_range_meters":4000,"station_id":"","pricing_plan_id":"cebpf4jnsgd1na2vs0mg"},{"bike_id":"89ad46cf-ad84-4e5e-be57-87ac2cebe69c","system_id":"levelo_inurba_marseille","lat":43.28471,"lon":5.48371,"is_reserved":false,"is_disabled":false,"rental_uris":{"android":"levelo://app?vid=89ad46cf-ad84-4e5e-be57-87ac2cebe69c","ios":"levelo://app?vid=89ad46cf-ad84-4e5e-be57-87ac2cebe69c"},"vehicle_type_id":"4","last_reported":1774102656,"current_range_meters":4000,"station_id":"st_d3svhcjqgbts73a3dn0g","pricing_plan_id":"cebpf4jnsgd1na2vs0mg"},{"bike_id":"391724c8-7606-4351-b5e9-9fe6793444b3","system_id":"levelo_inurba_marseille","lat":43.28422,"lon":5.34988,"is_reserved":false,"is_disabled":false,"rental_uris":{"android":"levelo://app?vid=391724c8-7606-4351-b5e9-9fe6793444b3","ios":"levelo://app?vid=391724c8-7606-4351-b5e9-9fe6793444b3"},"vehicle_type_id":"4","last_reported":1774102656,"current_range_meters":4000,"station_id":"ce4bhbh2rcd13ifvqepg","pricing_plan_id":"cebpf4jnsgd1na2vs0mg"},{"bike_id":"1a9dbb33-f381-4907-97a2-9c4f3e598dee","system_id":"levelo_inurba_marseille","lat":43.28413,"lon":5.34987,"is_reserved":false,"is_disabled":false,"rental_uris":{"android":"levelo://app?vid=1a9dbb33-f381-4907-97a2-9c4f3e598dee","ios":"levelo://app?vid=1a9dbb33-f381-4907-97a2-9c4f3e598dee"},"vehicle_type_id":"4","last_reported":1774102656,"current_range_meters":4000,"station_id":"ce4bhbh2rcd13ifvqepg","pricing_plan_id":"cebpf4jnsgd1na2vs0mg"},{"bike_id":"0f699794-8202-4161-a052-1d39a341c5fa","system_id":"levelo_inurba_marseille","lat":43.31182,"lon":5.38703,"is_reserved":false,"is_disabled":true,"rental_uris":{"android":"levelo://app?vid=0f699794-8202-4161-a052-1d39a341c5fa","ios":"levelo://app?vid=0f699794-8202-4161-a052-1d39a341c5fa"},"vehicle_type_id":"4","last_reported":1774102656,"current_range_meters":4400,"station_id":"ce4bgv12rcd13ifvqcp0","pricing_plan_id":"cebpf4jnsgd1na2vs0mg"},{"bike_id":"265d135a-cdab-4a3a-be63-cdd9ae4f42ff","system_id":"levelo_inurba_marseille","lat":43.23201,"lon":5.3555,"is_reserved":false,"is_disabled":false,"rental_uris":{"android":"levelo://app?vid=265d135a-cdab-4a3a-be63-cdd9ae4f42ff","ios":"levelo://app?vid=265d135a-cdab-4a3a-be63-cdd9ae4f42ff"},"vehicle_type_id":"4","last_reported":1774102656,"current_range_meters":4400,"station_id":"ce4bhu92rcd13ifvqi70","pricing_plan_id":"cebpf4jnsgd1na2vs0mg"},{"bike_id":"25711bef-13f9-48fd-8f33-592148b8dc65","system_id":"levelo_inurba_marseille","lat":43.25344,"lon":5.42142,"is_reserved":false,"is_disabled":false,"rental_uris":{"android":"levelo://app?vid=25711bef-13f9-48fd-8f33-592148b8dc65","ios":"levelo://app?vid=25711bef-13f9-48fd-8f33-592148b8dc65"},"vehicle_type_id":"4","last_reported":1774102656,"current_range_meters":4400,"station_id":"st_d2m65c5bi1j21697t3ng","pricing_plan_id":"cebpf4jnsgd1na2vs0mg"},{"bike_id":"d5c561ae-734a-48fd-bcb6-4c6281b79b1a","system_id":"levelo_inurba_marseille","lat":43.276124,"lon":5.36105,"is_reserved":false,"is_disabled":false,"rental_uris":{"android":"levelo://app?vid=d5c561ae-734a-48fd-bcb6-4c6281b79b1a","ios":"levelo://app?vid=d5c561ae-734a-48fd-bcb6-4c6281b79b1a"},"vehicle_type_id":"4","last_reported":1774102656,"current_range_meters":4400,"station_id":"ce4bgj92rcd13ifvqbe0","pricing_plan_id":"cebpf4jnsgd1na2vs0mg"},{"bike_id":"b0a23fe5-02fe-4b02-b91a-84484aa5dca7","system_id":"levelo_inurba_marseille","lat":43.21757,"lon":5.34586,"is_reserved":false,"is_disabled":false,"rental_uris":{"android":"levelo://app?vid=b0a23fe5-02fe-4b02-b91a-84484aa5dca7","ios":"levelo://app?vid=b0a23fe5-02fe-4b02-b91a-84484aa5dca7"},"vehicle_type_id":"4","last_reported":1774102656,"current_range_meters":4400,"station_id":"st_cvj6r9ubvosntc0bgbag","pricing_plan_id":"cebpf4jnsgd1na2vs0mg"},{"bike_id":"7fa64d84-cd92-4f02-a79d-c348b129b15f","system_id":"levelo_inurba_marseille","lat":43.24182,"lon":5.36404,"is_reserved":false,"is_disabled":false,"rental_uris":{"android":"levelo://app?vid=7fa64d84-cd92-4f02-a79d-c348b129b15f","ios":"levelo://app?vid=7fa64d84-cd92-4f02-a79d-c348b129b15f"},"vehicle_type_id":"4","last_reported":1774102656,"current_range_meters":4400,"station_id":"cpo36qri1sfpv3e86is0","pricing_plan_id":"cebpf4jnsgd1na2vs0mg"},{"bike_id":"a049b044-2190-4be0-ac34-9f677672dd79","system_id":"levelo_inurba_marseille","lat":43.32674,"lon":5.40984,"is_reserved":false,"is_disabled":false,"rental_uris":{"android":"levelo://app?vid=a049b044-2190-4be0-ac34-9f677672dd79","ios":"levelo://app?vid=a049b044-2190-4be0-ac34-9f677672dd79"},"vehicle_type_id":"4","last_reported":1774102656,"current_range_meters":4400,"station_id":"ce4bhpp2rcd13ifvqhgg","pricing_plan_id":"cebpf4jnsgd1na2vs0mg"},{"bike_id":"912e5f30-2e0b-48a9-85db-a984611241c9","system_id":"levelo_inurba_marseille","lat":43.29822,"lon":5.4408,"is_reserved":false,"is_disabled":false,"rental_uris":{"android":"levelo://app?vid=912e5f30-2e0b-48a9-85db-a984611241c9","ios":"levelo://app?vid=912e5f30-2e0b-48a9-85db-a984611241c9"},"vehicle_type_id":"4","last_reported":1774102656,"current_range_meters":4800,"station_id":"st_d3jp68qikq2c7381ktn0","pricing_plan_id":"cebpf4jnsgd1na2vs0mg"},{"bike_id":"561d39a9-9ee7-4de0-89fa-fa311359c492","system_id":"levelo_inurba_marseille","lat":43.23969,"lon":5.36631,"is_reserved":false,"is_disabled":false,"rental_uris":{"android":"levelo://app?vid=561d39a9-9ee7-4de0-89fa-fa311359c492","ios":"levelo://app?vid=561d39a9-9ee7-4de0-89fa-fa311359c492"},"vehicle_type_id":"4","last_reported":1774102656,"current_range_meters":4800,"station_id":"ce4bhi12rcd13ifvqfp0","pricing_plan_id":"cebpf4jnsgd1na2vs0mg"},{"bike_id":"ac4ca0f2-f5c2-4c9c-81db-9f7b20e89d0c","system_id":"levelo_inurba_marseille","lat":43.28539,"lon":5.44094,"is_reserved":false,"is_disabled":true,"rental_uris":{"android":"levelo://app?vid=ac4ca0f2-f5c2-4c9c-81db-9f7b20e89d0c","ios":"levelo://app?vid=ac4ca0f2-f5c2-4c9c-81db-9f7b20e89d0c"},"vehicle_type_id":"4","last_reported":1774102656,"current_range_meters":4800,"station_id":"st_d3j3df2ikq2c7380ej80","pricing_plan_id":"cebpf4jnsgd1na2vs0mg"},{"bike_id":"8aeb1ffc-b432-4235-8304-c0a4c58e7fe3","system_id":"levelo_inurba_marseille","lat":43.29751,"lon":5.38362,"is_reserved":false,"is_disabled":false,"rental_uris":{"android":"levelo://app?vid=8aeb1ffc-b432-4235-8304-c0a4c58e7fe3","ios":"levelo://app?vid=8aeb1ffc-b432-4235-8304-c0a4c58e7fe3"},"vehicle_type_id":"4","last_reported":1774102656,"current_range_meters":4800,"station_id":"","pricing_plan_id":"cebpf4jnsgd1na2vs0mg"},{"bike_id":"dcb7fa85-9576-461b-9db4-bfb93259aa75","system_id":"levelo_inurba_marseille","lat":43.25516,"lon":5.37645,"is_reserved":false,"is_disabled":true,"rental_uris":{"android":"levelo://app?vid=dcb7fa85-9576-461b-9db4-bfb93259aa75","ios":"levelo://app?vid=dcb7fa85-9576-461b-9db4-bfb93259aa75"},"vehicle_type_id":"4","last_reported":1774102656,"current_range_meters":4800,"station_id":"ce4bhh12rcd13ifvqff0","pricing_plan_id":"cebpf4jnsgd1na2vs0mg"},{"bike_id":"9bedb971-6887-4d43-88c8-1762430f453d","system_id":"levelo_inurba_marseille","lat":43.24673,"lon":5.38168,"is_reserved":false,"is_disabled":true,"rental_uris":{"android":"levelo://app?vid=9bedb971-6887-4d43-88c8-1762430f453d","ios":"levelo://app?vid=9bedb971-6887-4d43-88c8-1762430f453d"},"vehicle_type_id":"4","last_reported":1774102656,"current_range_meters":4800,"station_id":"ce4bhih2rcd13ifvqfr0","pricing_plan_id":"cebpf4jnsgd1na2vs0mg"},{"bike_id":"c7ca3395-61a6-424a-8b4e-14bb7ddfa33a","system_id":"levelo_inurba_marseille","lat":43.30119,"lon":5.38778,"is_reserved":false,"is_disabled":true,"rental_uris":{"android":"levelo://app?vid=c7ca3395-61a6-424a-8b4e-14bb7ddfa33a","ios":"levelo://app?vid=c7ca3395-61a6-424a-8b4e-14bb7ddfa33a"},"vehicle_type_id":"4","last_reported":1774102656,"current_range_meters":4800,"station_id":"ce4bghh2rcd13ifvqb60","pricing_plan_id":"cebpf4jnsgd1na2vs0mg"},{"bike_id":"de2f5eb1-7fa9-451f-aaaa-fa570d141def","system_id":"levelo_inurba_marseille","lat":43.25585,"lon":5.3823,"is_reserved":false,"is_disabled":false,"rental_uris":{"android":"levelo://app?vid=de2f5eb1-7fa9-451f-aaaa-fa570d141def","ios":"levelo://app?vid=de2f5eb1-7fa9-451f-aaaa-fa570d141def"},"vehicle_type_id":"4","last_reported":1774102656,"current_range_meters":4800,"station_id":"ce4bhih2rcd13ifvqfs0","pricing_plan_id":"cebpf4jnsgd1na2vs0mg"},{"bike_id":"b73c693e-cf97-4575-99de-26f8a14398ab","system_id":"levelo_inurba_marseille","lat":43.28261,"lon":5.35068,"is_reserved":false,"is_disabled":false,"rental_uris":{"android":"levelo://app?vid=b73c693e-cf97-4575-99de-26f8a14398ab","ios":"levelo://app?vid=b73c693e-cf97-4575-99de-26f8a14398ab"},"vehicle_type_id":"4","last_reported":1774102656,"current_range_meters":4800,"station_id":"","pricing_plan_id":"cebpf4jnsgd1na2vs0mg"},{"bike_id":"e2420c11-4646-4145-aa2e-baedb91a43dc","system_id":"levelo_inurba_marseille","lat":43.32356,"lon":5.36726,"is_reserved":false,"is_disabled":false,"rental_uris":{"android":"levelo://app?vid=e2420c11-4646-4145-aa2e-baedb91a43dc","ios":"levelo://app?vid=e2420c11-4646-4145-aa2e-baedb91a43dc"},"vehicle_type_id":"4","last_reported":1774102656,"current_range_meters":5600,"station_id":"ce4bhsh2rcd13ifvqi2g","pricing_plan_id":"cebpf4jnsgd1na2vs0mg"},{"bike_id":"286fba00-1c70-49c5-9491-0b3044de24cb","system_id":"levelo_inurba_marseille","lat":43.26216,"lon":5.40461,"is_reserved":false,"is_disabled":true,"rental_uris":{"android":"levelo://app?vid=286fba00-1c70-49c5-9491-0b3044de24cb","ios":"levelo://app?vid=286fba00-1c70-49c5-9491-0b3044de24cb"},"vehicle_type_id":"4","last_reported":1774102656,"current_range_meters":5600,"station_id":"ce4bhmh2rcd13ifvqgmg","pricing_plan_id":"cebpf4jnsgd1na2vs0mg"},{"bike_id":"f3414e99-2d7c-4b03-96db-df8c1c6d3f2b","system_id":"levelo_inurba_marseille","lat":43.28459,"lon":5.48406,"is_reserved":false,"is_disabled":false,"rental_uris":{"android":"levelo://app?vid=f3414e99-2d7c-4b03-96db-df8c1c6d3f2b","ios":"levelo://app?vid=f3414e99-2d7c-4b03-96db-df8c1c6d3f2b"},"vehicle_type_id":"4","last_reported":1774102656,"current_range_meters":5600,"station_id":"","pricing_plan_id":"cebpf4jnsgd1na2vs0mg"},{"bike_id":"bc398ecf-f942-4bfc-a54a-d88839d57af0","system_id":"levelo_inurba_marseille","lat":43.21191,"lon":5.35067,"is_reserved":false,"is_disabled":false,"rental_uris":{"android":"levelo://app?vid=bc398ecf-f942-4bfc-a54a-d88839d57af0","ios":"levelo://app?vid=bc398ecf-f942-4bfc-a54a-d88839d57af0"},"vehicle_type_id":"4","last_reported":1774102656,"current_range_meters":5600,"station_id":"st_cvj6sg6p6f1abm77japg","pricing_plan_id":"cebpf4jnsgd1na2vs0mg"},{"bike_id":"15470403-feb1-41d6-819b-85b32133a4cc","system_id":"levelo_inurba_marseille","lat":43.28288,"lon":5.35069,"is_reserved":false,"is_disabled":false,"rental_uris":{"android":"levelo://app?vid=15470403-feb1-41d6-819b-85b32133a4cc","ios":"levelo://app?vid=15470403-feb1-41d6-819b-85b32133a4cc"},"vehicle_type_id":"4","last_reported":1774102656,"current_range_meters":5600,"station_id":"ce4bhbp2rcd13ifvqerg","pricing_plan_id":"cebpf4jnsgd1na2vs0mg"},{"bike_id":"d23210de-c303-4988-916d-c72b9cc2b22c","system_id":"levelo_inurba_marseille","lat":43.28419,"lon":5.34977,"is_reserved":false,"is_disabled":false,"rental_uris":{"android":"levelo://app?vid=d23210de-c303-4988-916d-c72b9cc2b22c","ios":"levelo://app?vid=d23210de-c303-4988-916d-c72b9cc2b22c"},"vehicle_type_id":"4","last_reported":1774102656,"current_range_meters":5600,"station_id":"ce4bhbh2rcd13ifvqepg","pricing_plan_id":"cebpf4jnsgd1na2vs0mg"},{"bike_id":"a8c8307b-e1e9-4950-a785-578e1a82f805","system_id":"levelo_inurba_marseille","lat":43.31295,"lon":5.37827,"is_reserved":false,"is_disabled":false,"rental_uris":{"android":"levelo://app?vid=a8c8307b-e1e9-4950-a785-578e1a82f805","ios":"levelo://app?vid=a8c8307b-e1e9-4950-a785-578e1a82f805"},"vehicle_type_id":"4","last_reported":1774102656,"current_range_meters":5600,"station_id":"","pricing_plan_id":"cebpf4jnsgd1na2vs0mg"},{"bike_id":"962e3e51-db50-4f61-a079-9b1c6a103eb5","system_id":"levelo_inurba_marseille","lat":43.30963,"lon":5.36814,"is_reserved":false,"is_disabled":false,"rental_uris":{"android":"levelo://app?vid=962e3e51-db50-4f61-a079-9b1c6a103eb5","ios":"levelo://app?vid=962e3e51-db50-4f61-a079-9b1c6a103eb5"},"vehicle_type_id":"4","last_reported":1774102656,"current_range_meters":5600,"station_id":"","pricing_plan_id":"cebpf4jnsgd1na2vs0mg"},{"bike_id":"79e1d481-f674-4635-8039-0838a7e7306a","system_id":"levelo_inurba_marseille","lat":43.26542,"lon":5.37288,"is_reserved":false,"is_disabled":false,"rental_uris":{"android":"levelo://app?vid=79e1d481-f674-4635-8039-0838a7e7306a","ios":"levelo://app?vid=79e1d481-f674-4635-8039-0838a7e7306a"},"vehicle_type_id":"4","last_reported":1774102656,"current_range_meters":5600,"station_id":"ce4bhg12rcd13ifvqf70","pricing_plan_id":"cebpf4jnsgd1na2vs0mg"},{"bike_id":"5838f222-7433-4cf6-86d8-026e99fd3e4f","system_id":"levelo_inurba_marseille","lat":43.21187,"lon":5.35064,"is_reserved":false,"is_disabled":false,"rental_uris":{"android":"levelo://app?vid=5838f222-7433-4cf6-86d8-026e99fd3e4f","ios":"levelo://app?vid=5838f222-7433-4cf6-86d8-026e99fd3e4f"},"vehicle_type_id":"4","last_reported":1774102656,"current_range_meters":5600,"station_id":"st_cvj6sg6p6f1abm77japg","pricing_plan_id":"cebpf4jnsgd1na2vs0mg"},{"bike_id":"2cea9d46-c32a-4a24-9abe-5dc099975957","system_id":"levelo_inurba_marseille","lat":43.28471,"lon":5.48407,"is_reserved":false,"is_disabled":false,"rental_uris":{"android":"levelo://app?vid=2cea9d46-c32a-4a24-9abe-5dc099975957","ios":"levelo://app?vid=2cea9d46-c32a-4a24-9abe-5dc099975957"},"vehicle_type_id":"4","last_reported":1774102656,"current_range_meters":5600,"station_id":"","pricing_plan_id":"cebpf4jnsgd1na2vs0mg"},{"bike_id":"2d9e4754-9b17-40b5-bbeb-5b1c9c5bbe64","system_id":"levelo_inurba_marseille","lat":43.30132,"lon":5.38777,"is_reserved":false,"is_disabled":true,"rental_uris":{"android":"levelo://app?vid=2d9e4754-9b17-40b5-bbeb-5b1c9c5bbe64","ios":"levelo://app?vid=2d9e4754-9b17-40b5-bbeb-5b1c9c5bbe64"},"vehicle_type_id":"4","last_reported":1774102656,"current_range_meters":5600,"station_id":"ce4bghh2rcd13ifvqb60","pricing_plan_id":"cebpf4jnsgd1na2vs0mg"},{"bike_id":"4faf0f13-230a-42ab-8086-addc7da457d3","system_id":"levelo_inurba_marseille","lat":43.23052,"lon":5.35495,"is_reserved":false,"is_disabled":false,"rental_uris":{"android":"levelo://app?vid=4faf0f13-230a-42ab-8086-addc7da457d3","ios":"levelo://app?vid=4faf0f13-230a-42ab-8086-addc7da457d3"},"vehicle_type_id":"4","last_reported":1774102656,"current_range_meters":5600,"station_id":"cpo3342slgdg3j2ifvpg","pricing_plan_id":"cebpf4jnsgd1na2vs0mg"},{"bike_id":"adc5ac07-5147-43c6-b3e9-46b364b058d3","system_id":"levelo_inurba_marseille","lat":43.21747,"lon":5.34597,"is_reserved":false,"is_disabled":true,"rental_uris":{"android":"levelo://app?vid=adc5ac07-5147-43c6-b3e9-46b364b058d3","ios":"levelo://app?vid=adc5ac07-5147-43c6-b3e9-46b364b058d3"},"vehicle_type_id":"4","last_reported":1774102656,"current_range_meters":5600,"station_id":"st_cvj6r9ubvosntc0bgbag","pricing_plan_id":"cebpf4jnsgd1na2vs0mg"},{"bike_id":"ebba1e29-eb46-4ccf-b2ce-95140eb86a73","system_id":"levelo_inurba_marseille","lat":43.29223,"lon":5.36072,"is_reserved":false,"is_disabled":false,"rental_uris":{"android":"levelo://app?vid=ebba1e29-eb46-4ccf-b2ce-95140eb86a73","ios":"levelo://app?vid=ebba1e29-eb46-4ccf-b2ce-95140eb86a73"},"vehicle_type_id":"4","last_reported":1774102656,"current_range_meters":5600,"station_id":"ce4bhbh2rcd13ifvqeqg","pricing_plan_id":"cebpf4jnsgd1na2vs0mg"},{"bike_id":"53663f10-c972-4dad-83a0-96ec19d2a37e","system_id":"levelo_inurba_marseille","lat":43.2501,"lon":5.38912,"is_reserved":false,"is_disabled":true,"rental_uris":{"android":"levelo://app?vid=53663f10-c972-4dad-83a0-96ec19d2a37e","ios":"levelo://app?vid=53663f10-c972-4dad-83a0-96ec19d2a37e"},"vehicle_type_id":"4","last_reported":1774102656,"current_range_meters":6000,"station_id":"ce4bhgp2rcd13ifvqfd0","pricing_plan_id":"cebpf4jnsgd1na2vs0mg"},{"bike_id":"d00ce6b1-d263-4644-9ac8-801c3d34ac19","system_id":"levelo_inurba_marseille","lat":43.22569,"lon":5.4162,"is_reserved":false,"is_disabled":false,"rental_uris":{"android":"levelo://app?vid=d00ce6b1-d263-4644-9ac8-801c3d34ac19","ios":"levelo://app?vid=d00ce6b1-d263-4644-9ac8-801c3d34ac19"},"vehicle_type_id":"4","last_reported":1774102656,"current_range_meters":6000,"station_id":"st_d2o4gvlbi1j2169b742g","pricing_plan_id":"cebpf4jnsgd1na2vs0mg"},{"bike_id":"8648ff3d-a49d-4491-be6c-bab3f9812603","system_id":"levelo_inurba_marseille","lat":43.28272,"lon":5.43822,"is_reserved":false,"is_disabled":false,"rental_uris":{"android":"levelo://app?vid=8648ff3d-a49d-4491-be6c-bab3f9812603","ios":"levelo://app?vid=8648ff3d-a49d-4491-be6c-bab3f9812603"},"vehicle_type_id":"4","last_reported":1774102656,"current_range_meters":6000,"station_id":"","pricing_plan_id":"cebpf4jnsgd1na2vs0mg"},{"bike_id":"7fd7bef8-f1ba-43a5-acd0-aa6543ca790f","system_id":"levelo_inurba_marseille","lat":43.24166,"lon":5.36375,"is_reserved":false,"is_disabled":false,"rental_uris":{"android":"levelo://app?vid=7fd7bef8-f1ba-43a5-acd0-aa6543ca790f","ios":"levelo://app?vid=7fd7bef8-f1ba-43a5-acd0-aa6543ca790f"},"vehicle_type_id":"4","last_reported":1774102656,"current_range_meters":6000,"station_id":"cpo36qri1sfpv3e86is0","pricing_plan_id":"cebpf4jnsgd1na2vs0mg"},{"bike_id":"0f4200e3-694a-4e51-9e9d-aed0b729a266","system_id":"levelo_inurba_marseille","lat":43.28275,"lon":5.3508,"is_reserved":false,"is_disabled":false,"rental_uris":{"android":"levelo://app?vid=0f4200e3-694a-4e51-9e9d-aed0b729a266","ios":"levelo://app?vid=0f4200e3-694a-4e51-9e9d-aed0b729a266"},"vehicle_type_id":"4","last_reported":1774102656,"current_range_meters":6000,"station_id":"ce4bhbp2rcd13ifvqerg","pricing_plan_id":"cebpf4jnsgd1na2vs0mg"},{"bike_id":"81ffa39f-7f37-45fa-ac8f-323e8dc208cd","system_id":"levelo_inurba_marseille","lat":43.23061,"lon":5.35494,"is_reserved":false,"is_disabled":false,"rental_uris":{"android":"levelo://app?vid=81ffa39f-7f37-45fa-ac8f-323e8dc208cd","ios":"levelo://app?vid=81ffa39f-7f37-45fa-ac8f-323e8dc208cd"},"vehicle_type_id":"4","last_reported":1774102656,"current_range_meters":6000,"station_id":"cpo3342slgdg3j2ifvpg","pricing_plan_id":"cebpf4jnsgd1na2vs0mg"},{"bike_id":"0c744d67-74b3-4bed-8fa1-274d8c3afbea","system_id":"levelo_inurba_marseille","lat":43.23774,"lon":5.36625,"is_reserved":false,"is_disabled":false,"rental_uris":{"android":"levelo://app?vid=0c744d67-74b3-4bed-8fa1-274d8c3afbea","ios":"levelo://app?vid=0c744d67-74b3-4bed-8fa1-274d8c3afbea"},"vehicle_type_id":"4","last_reported":1774102656,"current_range_meters":6000,"station_id":"st_d3nk18o9ro0c73en2l3g","pricing_plan_id":"cebpf4jnsgd1na2vs0mg"},{"bike_id":"21ff0bd8-1db2-4b32-9d6e-477512760f83","system_id":"levelo_inurba_marseille","lat":43.21738,"lon":5.34608,"is_reserved":false,"is_disabled":false,"rental_uris":{"android":"levelo://app?vid=21ff0bd8-1db2-4b32-9d6e-477512760f83","ios":"levelo://app?vid=21ff0bd8-1db2-4b32-9d6e-477512760f83"},"vehicle_type_id":"4","last_reported":1774102656,"current_range_meters":6000,"station_id":"st_cvj6r9ubvosntc0bgbag","pricing_plan_id":"cebpf4jnsgd1na2vs0mg"},{"bike_id":"ab77a418-345e-453b-bca3-3815a5ee3842","system_id":"levelo_inurba_marseille","lat":43.23207,"lon":5.35543,"is_reserved":false,"is_disabled":false,"rental_uris":{"android":"levelo://app?vid=ab77a418-345e-453b-bca3-3815a5ee3842","ios":"levelo://app?vid=ab77a418-345e-453b-bca3-3815a5ee3842"},"vehicle_type_id":"4","last_reported":1774102656,"current_range_meters":6400,"station_id":"ce4bhu92rcd13ifvqi70","pricing_plan_id":"cebpf4jnsgd1na2vs0mg"},{"bike_id":"bfa999de-7a32-454a-b31e-f99ace51a3fc","system_id":"levelo_inurba_marseille","lat":43.28476,"lon":5.48402,"is_reserved":false,"is_disabled":false,"rental_uris":{"android":"levelo://app?vid=bfa999de-7a32-454a-b31e-f99ace51a3fc","ios":"levelo://app?vid=bfa999de-7a32-454a-b31e-f99ace51a3fc"},"vehicle_type_id":"4","last_reported":1774102656,"current_range_meters":6400,"station_id":"","pricing_plan_id":"cebpf4jnsgd1na2vs0mg"},{"bike_id":"b79edf21-0164-4a0c-b31c-d86dd5687815","system_id":"levelo_inurba_marseille","lat":43.337572,"lon":5.37466,"is_reserved":false,"is_disabled":false,"rental_uris":{"android":"levelo://app?vid=b79edf21-0164-4a0c-b31c-d86dd5687815","ios":"levelo://app?vid=b79edf21-0164-4a0c-b31c-d86dd5687815"},"vehicle_type_id":"4","last_reported":1774102656,"current_range_meters":6400,"station_id":"","pricing_plan_id":"cebpf4jnsgd1na2vs0mg"},{"bike_id":"cd20fdd3-8b99-4e14-bd4b-586d960abb1e","system_id":"levelo_inurba_marseille","lat":43.24395,"lon":5.37039,"is_reserved":false,"is_disabled":false,"rental_uris":{"android":"levelo://app?vid=cd20fdd3-8b99-4e14-bd4b-586d960abb1e","ios":"levelo://app?vid=cd20fdd3-8b99-4e14-bd4b-586d960abb1e"},"vehicle_type_id":"4","last_reported":1774102656,"current_range_meters":6400,"station_id":"ce4bhhh2rcd13ifvqfk0","pricing_plan_id":"cebpf4jnsgd1na2vs0mg"},{"bike_id":"a52ba6dc-1b15-4a85-8d00-b41ad0623a75","system_id":"levelo_inurba_marseille","lat":43.32348,"lon":5.36726,"is_reserved":false,"is_disabled":false,"rental_uris":{"android":"levelo://app?vid=a52ba6dc-1b15-4a85-8d00-b41ad0623a75","ios":"levelo://app?vid=a52ba6dc-1b15-4a85-8d00-b41ad0623a75"},"vehicle_type_id":"4","last_reported":1774102656,"current_range_meters":6400,"station_id":"ce4bhsh2rcd13ifvqi2g","pricing_plan_id":"cebpf4jnsgd1na2vs0mg"},{"bike_id":"ec531884-8bfa-420b-bd77-1512f322e6f0","system_id":"levelo_inurba_marseille","lat":43.29896,"lon":5.43671,"is_reserved":false,"is_disabled":false,"rental_uris":{"android":"levelo://app?vid=ec531884-8bfa-420b-bd77-1512f322e6f0","ios":"levelo://app?vid=ec531884-8bfa-420b-bd77-1512f322e6f0"},"vehicle_type_id":"4","last_reported":1774102656,"current_range_meters":6400,"station_id":"ce4bhpp2rcd13ifvqhfg","pricing_plan_id":"cebpf4jnsgd1na2vs0mg"},{"bike_id":"21dcff95-3114-402a-9713-10e340a8f8dd","system_id":"levelo_inurba_marseille","lat":43.29293,"lon":5.37158,"is_reserved":false,"is_disabled":false,"rental_uris":{"android":"levelo://app?vid=21dcff95-3114-402a-9713-10e340a8f8dd","ios":"levelo://app?vid=21dcff95-3114-402a-9713-10e340a8f8dd"},"vehicle_type_id":"4","last_reported":1774102656,"current_range_meters":6400,"station_id":"ce4bgh92rcd13ifvqb40","pricing_plan_id":"cebpf4jnsgd1na2vs0mg"},{"bike_id":"b555a9ad-d5c9-4425-96d1-64808f7a16b2","system_id":"levelo_inurba_marseille","lat":43.275637,"lon":5.360029,"is_reserved":false,"is_disabled":false,"rental_uris":{"android":"levelo://app?vid=b555a9ad-d5c9-4425-96d1-64808f7a16b2","ios":"levelo://app?vid=b555a9ad-d5c9-4425-96d1-64808f7a16b2"},"vehicle_type_id":"4","last_reported":1774102656,"current_range_meters":6400,"station_id":"ce4bhbh2rcd13ifvqeo0","pricing_plan_id":"cebpf4jnsgd1na2vs0mg"},{"bike_id":"8298e954-a561-481b-98c4-921c9ec5047c","system_id":"levelo_inurba_marseille","lat":43.28268,"lon":5.3508,"is_reserved":false,"is_disabled":false,"rental_uris":{"android":"levelo://app?vid=8298e954-a561-481b-98c4-921c9ec5047c","ios":"levelo://app?vid=8298e954-a561-481b-98c4-921c9ec5047c"},"vehicle_type_id":"4","last_reported":1774102656,"current_range_meters":6800,"station_id":"ce4bhbp2rcd13ifvqerg","pricing_plan_id":"cebpf4jnsgd1na2vs0mg"},{"bike_id":"5672f140-f178-4766-bb60-5301b26a0e4e","system_id":"levelo_inurba_marseille","lat":43.28492,"lon":5.48385,"is_reserved":false,"is_disabled":false,"rental_uris":{"android":"levelo://app?vid=5672f140-f178-4766-bb60-5301b26a0e4e","ios":"levelo://app?vid=5672f140-f178-4766-bb60-5301b26a0e4e"},"vehicle_type_id":"4","last_reported":1774102656,"current_range_meters":6800,"station_id":"","pricing_plan_id":"cebpf4jnsgd1na2vs0mg"},{"bike_id":"72e035d0-dcc2-4dcf-8660-2e348be6861e","system_id":"levelo_inurba_marseille","lat":43.31459,"lon":5.45401,"is_reserved":false,"is_disabled":false,"rental_uris":{"android":"levelo://app?vid=72e035d0-dcc2-4dcf-8660-2e348be6861e","ios":"levelo://app?vid=72e035d0-dcc2-4dcf-8660-2e348be6861e"},"vehicle_type_id":"4","last_reported":1774102656,"current_range_meters":6800,"station_id":"","pricing_plan_id":"cebpf4jnsgd1na2vs0mg"},{"bike_id":"5053a012-d646-439d-b591-468fdeaa8c67","system_id":"levelo_inurba_marseille","lat":43.25331,"lon":5.4218,"is_reserved":false,"is_disabled":false,"rental_uris":{"android":"levelo://app?vid=5053a012-d646-439d-b591-468fdeaa8c67","ios":"levelo://app?vid=5053a012-d646-439d-b591-468fdeaa8c67"},"vehicle_type_id":"4","last_reported":1774102656,"current_range_meters":6800,"station_id":"st_d2m65c5bi1j21697t3ng","pricing_plan_id":"cebpf4jnsgd1na2vs0mg"},{"bike_id":"92f32112-8a58-4a2d-8380-c50aa46da344","system_id":"levelo_inurba_marseille","lat":43.24054,"lon":5.36367,"is_reserved":false,"is_disabled":false,"rental_uris":{"android":"levelo://app?vid=92f32112-8a58-4a2d-8380-c50aa46da344","ios":"levelo://app?vid=92f32112-8a58-4a2d-8380-c50aa46da344"},"vehicle_type_id":"4","last_reported":1774102656,"current_range_meters":6800,"station_id":"","pricing_plan_id":"cebpf4jnsgd1na2vs0mg"},{"bike_id":"84c11551-1d18-4796-be36-74162c7cde37","system_id":"levelo_inurba_marseille","lat":43.30132,"lon":5.43136,"is_reserved":false,"is_disabled":false,"rental_uris":{"android":"levelo://app?vid=84c11551-1d18-4796-be36-74162c7cde37","ios":"levelo://app?vid=84c11551-1d18-4796-be36-74162c7cde37"},"vehicle_type_id":"4","last_reported":1774102656,"current_range_meters":6800,"station_id":"st_d3js3co5814s73ftftug","pricing_plan_id":"cebpf4jnsgd1na2vs0mg"},{"bike_id":"a068e9de-cdeb-4936-8a9b-bd068dca309c","system_id":"levelo_inurba_marseille","lat":43.23894,"lon":5.37452,"is_reserved":false,"is_disabled":false,"rental_uris":{"android":"levelo://app?vid=a068e9de-cdeb-4936-8a9b-bd068dca309c","ios":"levelo://app?vid=a068e9de-cdeb-4936-8a9b-bd068dca309c"},"vehicle_type_id":"4","last_reported":1774102656,"current_range_meters":6800,"station_id":"st_d6sm7csbq4hs73f8fpjg","pricing_plan_id":"cebpf4jnsgd1na2vs0mg"},{"bike_id":"16fe25c4-6472-47d6-882b-5ff94101fa7d","system_id":"levelo_inurba_marseille","lat":43.21199,"lon":5.35059,"is_reserved":false,"is_disabled":false,"rental_uris":{"android":"levelo://app?vid=16fe25c4-6472-47d6-882b-5ff94101fa7d","ios":"levelo://app?vid=16fe25c4-6472-47d6-882b-5ff94101fa7d"},"vehicle_type_id":"4","last_reported":1774102656,"current_range_meters":6800,"station_id":"st_cvj6sg6p6f1abm77japg","pricing_plan_id":"cebpf4jnsgd1na2vs0mg"},{"bike_id":"aa12603a-2453-40c8-828d-a8acaa892596","system_id":"levelo_inurba_marseille","lat":43.21745,"lon":5.34626,"is_reserved":false,"is_disabled":false,"rental_uris":{"android":"levelo://app?vid=aa12603a-2453-40c8-828d-a8acaa892596","ios":"levelo://app?vid=aa12603a-2453-40c8-828d-a8acaa892596"},"vehicle_type_id":"4","last_reported":1774102656,"current_range_meters":6800,"station_id":"","pricing_plan_id":"cebpf4jnsgd1na2vs0mg"},{"bike_id":"043dc6a6-706f-4021-84cc-41044c3119ec","system_id":"levelo_inurba_marseille","lat":43.25483,"lon":5.37652,"is_reserved":false,"is_disabled":false,"rental_uris":{"android":"levelo://app?vid=043dc6a6-706f-4021-84cc-41044c3119ec","ios":"levelo://app?vid=043dc6a6-706f-4021-84cc-41044c3119ec"},"vehicle_type_id":"4","last_reported":1774102656,"current_range_meters":6800,"station_id":"ce4bhh12rcd13ifvqff0","pricing_plan_id":"cebpf4jnsgd1na2vs0mg"},{"bike_id":"ed8502d2-5248-44b9-8493-d669e884c4f2","system_id":"levelo_inurba_marseille","lat":43.21193,"lon":5.35075,"is_reserved":false,"is_disabled":false,"rental_uris":{"android":"levelo://app?vid=ed8502d2-5248-44b9-8493-d669e884c4f2","ios":"levelo://app?vid=ed8502d2-5248-44b9-8493-d669e884c4f2"},"vehicle_type_id":"4","last_reported":1774102656,"current_range_meters":6800,"station_id":"st_cvj6sg6p6f1abm77japg","pricing_plan_id":"cebpf4jnsgd1na2vs0mg"},{"bike_id":"9f9d5759-8f1d-464c-8587-79241b3f3452","system_id":"levelo_inurba_marseille","lat":43.29006,"lon":5.35613,"is_reserved":false,"is_disabled":false,"rental_uris":{"android":"levelo://app?vid=9f9d5759-8f1d-464c-8587-79241b3f3452","ios":"levelo://app?vid=9f9d5759-8f1d-464c-8587-79241b3f3452"},"vehicle_type_id":"4","last_reported":1774102656,"current_range_meters":6800,"station_id":"ce4bhb92rcd13ifvqen0","pricing_plan_id":"cebpf4jnsgd1na2vs0mg"},{"bike_id":"d0d61521-9249-4130-ac70-6cbf00df366e","system_id":"levelo_inurba_marseille","lat":43.21184,"lon":5.35073,"is_reserved":false,"is_disabled":false,"rental_uris":{"android":"levelo://app?vid=d0d61521-9249-4130-ac70-6cbf00df366e","ios":"levelo://app?vid=d0d61521-9249-4130-ac70-6cbf00df366e"},"vehicle_type_id":"4","last_reported":1774102656,"current_range_meters":6800,"station_id":"st_cvj6sg6p6f1abm77japg","pricing_plan_id":"cebpf4jnsgd1na2vs0mg"},{"bike_id":"b1bb037a-07ef-4506-b547-f5c1e5554f2b","system_id":"levelo_inurba_marseille","lat":43.29051,"lon":5.35904,"is_reserved":false,"is_disabled":false,"rental_uris":{"android":"levelo://app?vid=b1bb037a-07ef-4506-b547-f5c1e5554f2b","ios":"levelo://app?vid=b1bb037a-07ef-4506-b547-f5c1e5554f2b"},"vehicle_type_id":"4","last_reported":1774102656,"current_range_meters":6800,"station_id":"ce4bha92rcd13ifvqeg0","pricing_plan_id":"cebpf4jnsgd1na2vs0mg"},{"bike_id":"83509c08-5abf-41f3-a6f8-ffd8d279bb66","system_id":"levelo_inurba_marseille","lat":43.21754,"lon":5.34607,"is_reserved":false,"is_disabled":false,"rental_uris":{"android":"levelo://app?vid=83509c08-5abf-41f3-a6f8-ffd8d279bb66","ios":"levelo://app?vid=83509c08-5abf-41f3-a6f8-ffd8d279bb66"},"vehicle_type_id":"4","last_reported":1774102656,"current_range_meters":7200,"station_id":"st_cvj6r9ubvosntc0bgbag","pricing_plan_id":"cebpf4jnsgd1na2vs0mg"},{"bike_id":"71389fc3-a4c3-46c5-a0f9-4330fcbb165b","system_id":"levelo_inurba_marseille","lat":43.27948,"lon":5.41039,"is_reserved":false,"is_disabled":true,"rental_uris":{"android":"levelo://app?vid=71389fc3-a4c3-46c5-a0f9-4330fcbb165b","ios":"levelo://app?vid=71389fc3-a4c3-46c5-a0f9-4330fcbb165b"},"vehicle_type_id":"4","last_reported":1774102656,"current_range_meters":7200,"station_id":"ce4bhnp2rcd13ifvqh0g","pricing_plan_id":"cebpf4jnsgd1na2vs0mg"},{"bike_id":"16b111e2-ed5e-4b97-9f3f-329d3f818eb6","system_id":"levelo_inurba_marseille","lat":43.29006,"lon":5.35611,"is_reserved":false,"is_disabled":false,"rental_uris":{"android":"levelo://app?vid=16b111e2-ed5e-4b97-9f3f-329d3f818eb6","ios":"levelo://app?vid=16b111e2-ed5e-4b97-9f3f-329d3f818eb6"},"vehicle_type_id":"4","last_reported":1774102656,"current_range_meters":7200,"station_id":"ce4bhb92rcd13ifvqen0","pricing_plan_id":"cebpf4jnsgd1na2vs0mg"},{"bike_id":"8e3e78ba-2ae8-4913-a94f-c3f2a225708b","system_id":"levelo_inurba_marseille","lat":43.29968,"lon":5.37204,"is_reserved":false,"is_disabled":false,"rental_uris":{"android":"levelo://app?vid=8e3e78ba-2ae8-4913-a94f-c3f2a225708b","ios":"levelo://app?vid=8e3e78ba-2ae8-4913-a94f-c3f2a225708b"},"vehicle_type_id":"4","last_reported":1774102656,"current_range_meters":7200,"station_id":"ce4bgr92rcd13ifvqc7g","pricing_plan_id":"cebpf4jnsgd1na2vs0mg"},{"bike_id":"afab17fe-5945-4eab-9129-fe150d6e725c","system_id":"levelo_inurba_marseille","lat":43.31045,"lon":5.37171,"is_reserved":false,"is_disabled":false,"rental_uris":{"android":"levelo://app?vid=afab17fe-5945-4eab-9129-fe150d6e725c","ios":"levelo://app?vid=afab17fe-5945-4eab-9129-fe150d6e725c"},"vehicle_type_id":"4","last_reported":1774102656,"current_range_meters":7200,"station_id":"st_d4kl2rp97mjs73e7tdfg","pricing_plan_id":"cebpf4jnsgd1na2vs0mg"},{"bike_id":"533fef03-c6e5-48dc-933f-e30498d79f7b","system_id":"levelo_inurba_marseille","lat":43.31324,"lon":5.39689,"is_reserved":false,"is_disabled":false,"rental_uris":{"android":"levelo://app?vid=533fef03-c6e5-48dc-933f-e30498d79f7b","ios":"levelo://app?vid=533fef03-c6e5-48dc-933f-e30498d79f7b"},"vehicle_type_id":"4","last_reported":1774102656,"current_range_meters":7200,"station_id":"ce4bgvp2rcd13ifvqcu0","pricing_plan_id":"cebpf4jnsgd1na2vs0mg"},{"bike_id":"3727d6e3-4577-49ea-959e-93a5e09450a3","system_id":"levelo_inurba_marseille","lat":43.31426,"lon":5.40084,"is_reserved":false,"is_disabled":false,"rental_uris":{"android":"levelo://app?vid=3727d6e3-4577-49ea-959e-93a5e09450a3","ios":"levelo://app?vid=3727d6e3-4577-49ea-959e-93a5e09450a3"},"vehicle_type_id":"4","last_reported":1774102656,"current_range_meters":7200,"station_id":"","pricing_plan_id":"cebpf4jnsgd1na2vs0mg"},{"bike_id":"37fd8b91-bebb-483f-9ede-850904204da2","system_id":"levelo_inurba_marseille","lat":43.33421,"lon":5.35683,"is_reserved":false,"is_disabled":false,"rental_uris":{"android":"levelo://app?vid=37fd8b91-bebb-483f-9ede-850904204da2","ios":"levelo://app?vid=37fd8b91-bebb-483f-9ede-850904204da2"},"vehicle_type_id":"4","last_reported":1774102656,"current_range_meters":7200,"station_id":"","pricing_plan_id":"cebpf4jnsgd1na2vs0mg"},{"bike_id":"55ec694a-4d13-442c-981f-40b12a44db63","system_id":"levelo_inurba_marseille","lat":43.2815,"lon":5.42642,"is_reserved":false,"is_disabled":false,"rental_uris":{"android":"levelo://app?vid=55ec694a-4d13-442c-981f-40b12a44db63","ios":"levelo://app?vid=55ec694a-4d13-442c-981f-40b12a44db63"},"vehicle_type_id":"4","last_reported":1774102656,"current_range_meters":7200,"station_id":"ce4bhnh2rcd13ifvqgug","pricing_plan_id":"cebpf4jnsgd1na2vs0mg"},{"bike_id":"d9a2340f-4dc0-456b-89f0-454af4d93a65","system_id":"levelo_inurba_marseille","lat":43.28495,"lon":5.35125,"is_reserved":false,"is_disabled":false,"rental_uris":{"android":"levelo://app?vid=d9a2340f-4dc0-456b-89f0-454af4d93a65","ios":"levelo://app?vid=d9a2340f-4dc0-456b-89f0-454af4d93a65"},"vehicle_type_id":"4","last_reported":1774102656,"current_range_meters":7200,"station_id":"","pricing_plan_id":"cebpf4jnsgd1na2vs0mg"},{"bike_id":"43843b13-c827-4699-9ecc-4b5c88c9cfd1","system_id":"levelo_inurba_marseille","lat":43.21746,"lon":5.34614,"is_reserved":false,"is_disabled":false,"rental_uris":{"android":"levelo://app?vid=43843b13-c827-4699-9ecc-4b5c88c9cfd1","ios":"levelo://app?vid=43843b13-c827-4699-9ecc-4b5c88c9cfd1"},"vehicle_type_id":"4","last_reported":1774102656,"current_range_meters":7200,"station_id":"st_cvj6r9ubvosntc0bgbag","pricing_plan_id":"cebpf4jnsgd1na2vs0mg"},{"bike_id":"b4b55ca7-eeef-47fd-aefd-aa9780e16853","system_id":"levelo_inurba_marseille","lat":43.2636,"lon":5.41078,"is_reserved":false,"is_disabled":false,"rental_uris":{"android":"levelo://app?vid=b4b55ca7-eeef-47fd-aefd-aa9780e16853","ios":"levelo://app?vid=b4b55ca7-eeef-47fd-aefd-aa9780e16853"},"vehicle_type_id":"4","last_reported":1774102656,"current_range_meters":7200,"station_id":"st_d4e5ca6na9uc73bfl5fg","pricing_plan_id":"cebpf4jnsgd1na2vs0mg"},{"bike_id":"839aff4c-8ccd-457e-8ae8-6e9589146ed2","system_id":"levelo_inurba_marseille","lat":43.27945,"lon":5.41025,"is_reserved":false,"is_disabled":false,"rental_uris":{"android":"levelo://app?vid=839aff4c-8ccd-457e-8ae8-6e9589146ed2","ios":"levelo://app?vid=839aff4c-8ccd-457e-8ae8-6e9589146ed2"},"vehicle_type_id":"4","last_reported":1774102656,"current_range_meters":7200,"station_id":"ce4bhnp2rcd13ifvqh0g","pricing_plan_id":"cebpf4jnsgd1na2vs0mg"},{"bike_id":"1531501f-b6ea-4a9e-8341-7e4be7f0687c","system_id":"levelo_inurba_marseille","lat":43.29957,"lon":5.38913,"is_reserved":false,"is_disabled":false,"rental_uris":{"android":"levelo://app?vid=1531501f-b6ea-4a9e-8341-7e4be7f0687c","ios":"levelo://app?vid=1531501f-b6ea-4a9e-8341-7e4be7f0687c"},"vehicle_type_id":"4","last_reported":1774102656,"current_range_meters":7200,"station_id":"","pricing_plan_id":"cebpf4jnsgd1na2vs0mg"},{"bike_id":"b87d7938-28e4-46e7-994e-fdebd5392225","system_id":"levelo_inurba_marseille","lat":43.32083,"lon":5.36784,"is_reserved":false,"is_disabled":false,"rental_uris":{"android":"levelo://app?vid=b87d7938-28e4-46e7-994e-fdebd5392225","ios":"levelo://app?vid=b87d7938-28e4-46e7-994e-fdebd5392225"},"vehicle_type_id":"4","last_reported":1774102656,"current_range_meters":7200,"station_id":"ce4bhrh2rcd13ifvqhug","pricing_plan_id":"cebpf4jnsgd1na2vs0mg"},{"bike_id":"536be14a-2174-4c58-8b30-3ce501a0400e","system_id":"levelo_inurba_marseille","lat":43.25823,"lon":5.39431,"is_reserved":false,"is_disabled":false,"rental_uris":{"android":"levelo://app?vid=536be14a-2174-4c58-8b30-3ce501a0400e","ios":"levelo://app?vid=536be14a-2174-4c58-8b30-3ce501a0400e"},"vehicle_type_id":"4","last_reported":1774102656,"current_range_meters":8000,"station_id":"ce4bhip2rcd13ifvqft0","pricing_plan_id":"cebpf4jnsgd1na2vs0mg"},{"bike_id":"b7db1a5a-bb07-4d11-94d5-7022b854807e","system_id":"levelo_inurba_marseille","lat":43.24388,"lon":5.37051,"is_reserved":false,"is_disabled":false,"rental_uris":{"android":"levelo://app?vid=b7db1a5a-bb07-4d11-94d5-7022b854807e","ios":"levelo://app?vid=b7db1a5a-bb07-4d11-94d5-7022b854807e"},"vehicle_type_id":"4","last_reported":1774102656,"current_range_meters":8000,"station_id":"ce4bhhh2rcd13ifvqfk0","pricing_plan_id":"cebpf4jnsgd1na2vs0mg"},{"bike_id":"34afc9b4-5db6-4e8d-be8e-dc47f26831fb","system_id":"levelo_inurba_marseille","lat":43.23053,"lon":5.35493,"is_reserved":false,"is_disabled":false,"rental_uris":{"android":"levelo://app?vid=34afc9b4-5db6-4e8d-be8e-dc47f26831fb","ios":"levelo://app?vid=34afc9b4-5db6-4e8d-be8e-dc47f26831fb"},"vehicle_type_id":"4","last_reported":1774102656,"current_range_meters":8000,"station_id":"cpo3342slgdg3j2ifvpg","pricing_plan_id":"cebpf4jnsgd1na2vs0mg"},{"bike_id":"36750a5a-e715-404b-ab4e-4dfa557014c3","system_id":"levelo_inurba_marseille","lat":43.24464,"lon":5.42563,"is_reserved":false,"is_disabled":false,"rental_uris":{"android":"levelo://app?vid=36750a5a-e715-404b-ab4e-4dfa557014c3","ios":"levelo://app?vid=36750a5a-e715-404b-ab4e-4dfa557014c3"},"vehicle_type_id":"4","last_reported":1774102656,"current_range_meters":8000,"station_id":"st_d4a3vfp97mjs738cd8kg","pricing_plan_id":"cebpf4jnsgd1na2vs0mg"},{"bike_id":"aa4dfb55-05b6-491b-a091-fc263559fa86","system_id":"levelo_inurba_marseille","lat":43.28992,"lon":5.35599,"is_reserved":false,"is_disabled":false,"rental_uris":{"android":"levelo://app?vid=aa4dfb55-05b6-491b-a091-fc263559fa86","ios":"levelo://app?vid=aa4dfb55-05b6-491b-a091-fc263559fa86"},"vehicle_type_id":"4","last_reported":1774102656,"current_range_meters":8000,"station_id":"ce4bhb92rcd13ifvqen0","pricing_plan_id":"cebpf4jnsgd1na2vs0mg"},{"bike_id":"4a501649-1ae3-4f13-916a-d9d0102c5c57","system_id":"levelo_inurba_marseille","lat":43.22929,"lon":5.35371,"is_reserved":false,"is_disabled":false,"rental_uris":{"android":"levelo://app?vid=4a501649-1ae3-4f13-916a-d9d0102c5c57","ios":"levelo://app?vid=4a501649-1ae3-4f13-916a-d9d0102c5c57"},"vehicle_type_id":"4","last_reported":1774102656,"current_range_meters":8000,"station_id":"cpo3532slgdg3j2ikp40","pricing_plan_id":"cebpf4jnsgd1na2vs0mg"},{"bike_id":"df5ad533-8354-43dd-b4db-d4118becde63","system_id":"levelo_inurba_marseille","lat":43.28504,"lon":5.48329,"is_reserved":false,"is_disabled":false,"rental_uris":{"android":"levelo://app?vid=df5ad533-8354-43dd-b4db-d4118becde63","ios":"levelo://app?vid=df5ad533-8354-43dd-b4db-d4118becde63"},"vehicle_type_id":"4","last_reported":1774102656,"current_range_meters":8000,"station_id":"","pricing_plan_id":"cebpf4jnsgd1na2vs0mg"},{"bike_id":"aca02e18-5940-4457-bade-a83a3729d2e4","system_id":"levelo_inurba_marseille","lat":43.29489,"lon":5.43305,"is_reserved":false,"is_disabled":false,"rental_uris":{"android":"levelo://app?vid=aca02e18-5940-4457-bade-a83a3729d2e4","ios":"levelo://app?vid=aca02e18-5940-4457-bade-a83a3729d2e4"},"vehicle_type_id":"4","last_reported":1774102656,"current_range_meters":8000,"station_id":"st_d3j5ugp08ojc73fj9d10","pricing_plan_id":"cebpf4jnsgd1na2vs0mg"},{"bike_id":"1196aac8-18ff-473a-8392-d08eccfd79f0","system_id":"levelo_inurba_marseille","lat":43.23898,"lon":5.37443,"is_reserved":false,"is_disabled":false,"rental_uris":{"android":"levelo://app?vid=1196aac8-18ff-473a-8392-d08eccfd79f0","ios":"levelo://app?vid=1196aac8-18ff-473a-8392-d08eccfd79f0"},"vehicle_type_id":"4","last_reported":1774102656,"current_range_meters":8000,"station_id":"st_d6sm7csbq4hs73f8fpjg","pricing_plan_id":"cebpf4jnsgd1na2vs0mg"},{"bike_id":"95fd7b5e-4624-483b-b506-5775f37aea99","system_id":"levelo_inurba_marseille","lat":43.21191,"lon":5.35074,"is_reserved":false,"is_disabled":false,"rental_uris":{"android":"levelo://app?vid=95fd7b5e-4624-483b-b506-5775f37aea99","ios":"levelo://app?vid=95fd7b5e-4624-483b-b506-5775f37aea99"},"vehicle_type_id":"4","last_reported":1774102656,"current_range_meters":8000,"station_id":"st_cvj6sg6p6f1abm77japg","pricing_plan_id":"cebpf4jnsgd1na2vs0mg"},{"bike_id":"5b1c035b-7861-4232-8522-9ed56f3b7768","system_id":"levelo_inurba_marseille","lat":43.29639,"lon":5.37209,"is_reserved":false,"is_disabled":false,"rental_uris":{"android":"levelo://app?vid=5b1c035b-7861-4232-8522-9ed56f3b7768","ios":"levelo://app?vid=5b1c035b-7861-4232-8522-9ed56f3b7768"},"vehicle_type_id":"4","last_reported":1774102656,"current_range_meters":8000,"station_id":"","pricing_plan_id":"cebpf4jnsgd1na2vs0mg"},{"bike_id":"0bda5d47-09c4-4476-bb07-340c031abca9","system_id":"levelo_inurba_marseille","lat":43.22567,"lon":5.41627,"is_reserved":false,"is_disabled":false,"rental_uris":{"android":"levelo://app?vid=0bda5d47-09c4-4476-bb07-340c031abca9","ios":"levelo://app?vid=0bda5d47-09c4-4476-bb07-340c031abca9"},"vehicle_type_id":"4","last_reported":1774102656,"current_range_meters":8000,"station_id":"st_d2o4gvlbi1j2169b742g","pricing_plan_id":"cebpf4jnsgd1na2vs0mg"},{"bike_id":"00dd02bc-b502-45fe-8f00-c1d1319b3eb3","system_id":"levelo_inurba_marseille","lat":43.27363,"lon":5.36258,"is_reserved":false,"is_disabled":false,"rental_uris":{"android":"levelo://app?vid=00dd02bc-b502-45fe-8f00-c1d1319b3eb3","ios":"levelo://app?vid=00dd02bc-b502-45fe-8f00-c1d1319b3eb3"},"vehicle_type_id":"4","last_reported":1774102656,"current_range_meters":8000,"station_id":"ce4bhbh2rcd13ifvqeo0","pricing_plan_id":"cebpf4jnsgd1na2vs0mg"},{"bike_id":"a31b72dc-4f62-409d-9305-64a73608b7e0","system_id":"levelo_inurba_marseille","lat":43.2446,"lon":5.42531,"is_reserved":false,"is_disabled":false,"rental_uris":{"android":"levelo://app?vid=a31b72dc-4f62-409d-9305-64a73608b7e0","ios":"levelo://app?vid=a31b72dc-4f62-409d-9305-64a73608b7e0"},"vehicle_type_id":"4","last_reported":1774102656,"current_range_meters":8000,"station_id":"st_d4a3vfp97mjs738cd8kg","pricing_plan_id":"cebpf4jnsgd1na2vs0mg"},{"bike_id":"bb64248e-0e5d-4ee1-9d8f-d48a0dd77d66","system_id":"levelo_inurba_marseille","lat":43.21624,"lon":5.3448,"is_reserved":false,"is_disabled":false,"rental_uris":{"android":"levelo://app?vid=bb64248e-0e5d-4ee1-9d8f-d48a0dd77d66","ios":"levelo://app?vid=bb64248e-0e5d-4ee1-9d8f-d48a0dd77d66"},"vehicle_type_id":"4","last_reported":1774102656,"current_range_meters":8000,"station_id":"","pricing_plan_id":"cebpf4jnsgd1na2vs0mg"},{"bike_id":"703efbe1-feef-417d-a9e3-0fca1a7eab74","system_id":"levelo_inurba_marseille","lat":43.34946,"lon":5.37938,"is_reserved":false,"is_disabled":false,"rental_uris":{"android":"levelo://app?vid=703efbe1-feef-417d-a9e3-0fca1a7eab74","ios":"levelo://app?vid=703efbe1-feef-417d-a9e3-0fca1a7eab74"},"vehicle_type_id":"4","last_reported":1774102656,"current_range_meters":8000,"station_id":"","pricing_plan_id":"cebpf4jnsgd1na2vs0mg"},{"bike_id":"5690451d-7c53-4b25-9218-07c7a52af0a5","system_id":"levelo_inurba_marseille","lat":43.27374,"lon":5.36265,"is_reserved":false,"is_disabled":false,"rental_uris":{"android":"levelo://app?vid=5690451d-7c53-4b25-9218-07c7a52af0a5","ios":"levelo://app?vid=5690451d-7c53-4b25-9218-07c7a52af0a5"},"vehicle_type_id":"4","last_reported":1774102656,"current_range_meters":8000,"station_id":"ce4bhbh2rcd13ifvqeo0","pricing_plan_id":"cebpf4jnsgd1na2vs0mg"},{"bike_id":"d090a803-95a9-45d8-9d0c-efd95354e4ef","system_id":"levelo_inurba_marseille","lat":43.28615,"lon":5.35095,"is_reserved":false,"is_disabled":false,"rental_uris":{"android":"levelo://app?vid=d090a803-95a9-45d8-9d0c-efd95354e4ef","ios":"levelo://app?vid=d090a803-95a9-45d8-9d0c-efd95354e4ef"},"vehicle_type_id":"4","last_reported":1774102656,"current_range_meters":8000,"station_id":"ce4bhch2rcd13ifvqeug","pricing_plan_id":"cebpf4jnsgd1na2vs0mg"},{"bike_id":"2269e68d-f48b-428d-993e-bfd909030469","system_id":"levelo_inurba_marseille","lat":43.28455,"lon":5.38792,"is_reserved":false,"is_disabled":false,"rental_uris":{"android":"levelo://app?vid=2269e68d-f48b-428d-993e-bfd909030469","ios":"levelo://app?vid=2269e68d-f48b-428d-993e-bfd909030469"},"vehicle_type_id":"4","last_reported":1774102656,"current_range_meters":8000,"station_id":"","pricing_plan_id":"cebpf4jnsgd1na2vs0mg"},{"bike_id":"f0885dbb-64a6-4ff8-94fa-a07eaad87691","system_id":"levelo_inurba_marseille","lat":43.28416,"lon":5.34983,"is_reserved":false,"is_disabled":false,"rental_uris":{"android":"levelo://app?vid=f0885dbb-64a6-4ff8-94fa-a07eaad87691","ios":"levelo://app?vid=f0885dbb-64a6-4ff8-94fa-a07eaad87691"},"vehicle_type_id":"4","last_reported":1774102656,"current_range_meters":8400,"station_id":"ce4bhbh2rcd13ifvqepg","pricing_plan_id":"cebpf4jnsgd1na2vs0mg"},{"bike_id":"89d5b053-9e40-4e31-a28a-65d06dc45ab9","system_id":"levelo_inurba_marseille","lat":43.28601,"lon":5.35102,"is_reserved":false,"is_disabled":false,"rental_uris":{"android":"levelo://app?vid=89d5b053-9e40-4e31-a28a-65d06dc45ab9","ios":"levelo://app?vid=89d5b053-9e40-4e31-a28a-65d06dc45ab9"},"vehicle_type_id":"4","last_reported":1774102656,"current_range_meters":8400,"station_id":"ce4bhch2rcd13ifvqeug","pricing_plan_id":"cebpf4jnsgd1na2vs0mg"},{"bike_id":"2c8d5c30-577d-4925-9767-a3e8a27bf5b4","system_id":"levelo_inurba_marseille","lat":43.24054,"lon":5.38934,"is_reserved":false,"is_disabled":false,"rental_uris":{"android":"levelo://app?vid=2c8d5c30-577d-4925-9767-a3e8a27bf5b4","ios":"levelo://app?vid=2c8d5c30-577d-4925-9767-a3e8a27bf5b4"},"vehicle_type_id":"4","last_reported":1774102656,"current_range_meters":8400,"station_id":"","pricing_plan_id":"cebpf4jnsgd1na2vs0mg"},{"bike_id":"56286dd4-1b89-42a8-976f-d51ddb433148","system_id":"levelo_inurba_marseille","lat":43.21741,"lon":5.34607,"is_reserved":false,"is_disabled":false,"rental_uris":{"android":"levelo://app?vid=56286dd4-1b89-42a8-976f-d51ddb433148","ios":"levelo://app?vid=56286dd4-1b89-42a8-976f-d51ddb433148"},"vehicle_type_id":"4","last_reported":1774102656,"current_range_meters":8400,"station_id":"st_cvj6r9ubvosntc0bgbag","pricing_plan_id":"cebpf4jnsgd1na2vs0mg"},{"bike_id":"fb2fe282-db9f-4047-a00d-9fa8876597bc","system_id":"levelo_inurba_marseille","lat":43.28405,"lon":5.34976,"is_reserved":false,"is_disabled":false,"rental_uris":{"android":"levelo://app?vid=fb2fe282-db9f-4047-a00d-9fa8876597bc","ios":"levelo://app?vid=fb2fe282-db9f-4047-a00d-9fa8876597bc"},"vehicle_type_id":"4","last_reported":1774102656,"current_range_meters":8400,"station_id":"ce4bhbh2rcd13ifvqepg","pricing_plan_id":"cebpf4jnsgd1na2vs0mg"},{"bike_id":"3951c833-764d-49ee-a217-c70904818b12","system_id":"levelo_inurba_marseille","lat":43.21192,"lon":5.35071,"is_reserved":false,"is_disabled":false,"rental_uris":{"android":"levelo://app?vid=3951c833-764d-49ee-a217-c70904818b12","ios":"levelo://app?vid=3951c833-764d-49ee-a217-c70904818b12"},"vehicle_type_id":"4","last_reported":1774102656,"current_range_meters":8400,"station_id":"st_cvj6sg6p6f1abm77japg","pricing_plan_id":"cebpf4jnsgd1na2vs0mg"},{"bike_id":"37752f22-4e24-4242-a38c-e44293abad6b","system_id":"levelo_inurba_marseille","lat":43.27964,"lon":5.38688,"is_reserved":false,"is_disabled":true,"rental_uris":{"android":"levelo://app?vid=37752f22-4e24-4242-a38c-e44293abad6b","ios":"levelo://app?vid=37752f22-4e24-4242-a38c-e44293abad6b"},"vehicle_type_id":"4","last_reported":1774102656,"current_range_meters":8400,"station_id":"ce4bhg12rcd13ifvqf80","pricing_plan_id":"cebpf4jnsgd1na2vs0mg"},{"bike_id":"32ebe41a-d75d-4d27-aa1a-4a9fe4c592fe","system_id":"levelo_inurba_marseille","lat":43.24668,"lon":5.38141,"is_reserved":false,"is_disabled":false,"rental_uris":{"android":"levelo://app?vid=32ebe41a-d75d-4d27-aa1a-4a9fe4c592fe","ios":"levelo://app?vid=32ebe41a-d75d-4d27-aa1a-4a9fe4c592fe"},"vehicle_type_id":"4","last_reported":1774102656,"current_range_meters":8400,"station_id":"ce4bhih2rcd13ifvqfr0","pricing_plan_id":"cebpf4jnsgd1na2vs0mg"},{"bike_id":"3b0a52c6-97d1-43c8-889b-0a77e23fec60","system_id":"levelo_inurba_marseille","lat":43.25496,"lon":5.37648,"is_reserved":false,"is_disabled":false,"rental_uris":{"android":"levelo://app?vid=3b0a52c6-97d1-43c8-889b-0a77e23fec60","ios":"levelo://app?vid=3b0a52c6-97d1-43c8-889b-0a77e23fec60"},"vehicle_type_id":"4","last_reported":1774102656,"current_range_meters":8400,"station_id":"ce4bhh12rcd13ifvqff0","pricing_plan_id":"cebpf4jnsgd1na2vs0mg"},{"bike_id":"15fb4bb8-4c0f-4ee3-a727-89e0f28d0a52","system_id":"levelo_inurba_marseille","lat":43.23744,"lon":5.36626,"is_reserved":false,"is_disabled":false,"rental_uris":{"android":"levelo://app?vid=15fb4bb8-4c0f-4ee3-a727-89e0f28d0a52","ios":"levelo://app?vid=15fb4bb8-4c0f-4ee3-a727-89e0f28d0a52"},"vehicle_type_id":"4","last_reported":1774102656,"current_range_meters":8400,"station_id":"st_d3nk18o9ro0c73en2l3g","pricing_plan_id":"cebpf4jnsgd1na2vs0mg"},{"bike_id":"8a4c39b6-1604-4e3b-b597-213ce1e993fd","system_id":"levelo_inurba_marseille","lat":43.21191,"lon":5.35068,"is_reserved":false,"is_disabled":false,"rental_uris":{"android":"levelo://app?vid=8a4c39b6-1604-4e3b-b597-213ce1e993fd","ios":"levelo://app?vid=8a4c39b6-1604-4e3b-b597-213ce1e993fd"},"vehicle_type_id":"4","last_reported":1774102656,"current_range_meters":8400,"station_id":"st_cvj6sg6p6f1abm77japg","pricing_plan_id":"cebpf4jnsgd1na2vs0mg"},{"bike_id":"5206b1c0-ea28-4288-9fb7-15de647e09fa","system_id":"levelo_inurba_marseille","lat":43.27372,"lon":5.36238,"is_reserved":false,"is_disabled":true,"rental_uris":{"android":"levelo://app?vid=5206b1c0-ea28-4288-9fb7-15de647e09fa","ios":"levelo://app?vid=5206b1c0-ea28-4288-9fb7-15de647e09fa"},"vehicle_type_id":"4","last_reported":1774102656,"current_range_meters":8400,"station_id":"ce4bhbh2rcd13ifvqeo0","pricing_plan_id":"cebpf4jnsgd1na2vs0mg"},{"bike_id":"97c88b0c-c0d9-4f47-af1d-35774485a4d0","system_id":"levelo_inurba_marseille","lat":43.23964,"lon":5.36628,"is_reserved":false,"is_disabled":false,"rental_uris":{"android":"levelo://app?vid=97c88b0c-c0d9-4f47-af1d-35774485a4d0","ios":"levelo://app?vid=97c88b0c-c0d9-4f47-af1d-35774485a4d0"},"vehicle_type_id":"4","last_reported":1774102656,"current_range_meters":8400,"station_id":"ce4bhi12rcd13ifvqfp0","pricing_plan_id":"cebpf4jnsgd1na2vs0mg"},{"bike_id":"881552ad-57ca-4484-9a05-f159c58f50d9","system_id":"levelo_inurba_marseille","lat":43.317,"lon":5.38686,"is_reserved":false,"is_disabled":false,"rental_uris":{"android":"levelo://app?vid=881552ad-57ca-4484-9a05-f159c58f50d9","ios":"levelo://app?vid=881552ad-57ca-4484-9a05-f159c58f50d9"},"vehicle_type_id":"4","last_reported":1774102656,"current_range_meters":8400,"station_id":"","pricing_plan_id":"cebpf4jnsgd1na2vs0mg"},{"bike_id":"1a71c1aa-5504-4069-88ae-43c4bfce63a1","system_id":"levelo_inurba_marseille","lat":43.2533,"lon":5.42173,"is_reserved":false,"is_disabled":false,"rental_uris":{"android":"levelo://app?vid=1a71c1aa-5504-4069-88ae-43c4bfce63a1","ios":"levelo://app?vid=1a71c1aa-5504-4069-88ae-43c4bfce63a1"},"vehicle_type_id":"4","last_reported":1774102656,"current_range_meters":8400,"station_id":"st_d2m65c5bi1j21697t3ng","pricing_plan_id":"cebpf4jnsgd1na2vs0mg"},{"bike_id":"c3fcf3e7-b39d-46db-b4de-6905b715c312","system_id":"levelo_inurba_marseille","lat":43.2919,"lon":5.35805,"is_reserved":false,"is_disabled":false,"rental_uris":{"android":"levelo://app?vid=c3fcf3e7-b39d-46db-b4de-6905b715c312","ios":"levelo://app?vid=c3fcf3e7-b39d-46db-b4de-6905b715c312"},"vehicle_type_id":"4","last_reported":1774102656,"current_range_meters":8400,"station_id":"ce4bhb12rcd13ifvqel0","pricing_plan_id":"cebpf4jnsgd1na2vs0mg"},{"bike_id":"65258466-db56-4c9b-bb1e-482f62caad9f","system_id":"levelo_inurba_marseille","lat":43.22943,"lon":5.35369,"is_reserved":false,"is_disabled":false,"rental_uris":{"android":"levelo://app?vid=65258466-db56-4c9b-bb1e-482f62caad9f","ios":"levelo://app?vid=65258466-db56-4c9b-bb1e-482f62caad9f"},"vehicle_type_id":"4","last_reported":1774102656,"current_range_meters":8400,"station_id":"cpo3532slgdg3j2ikp40","pricing_plan_id":"cebpf4jnsgd1na2vs0mg"},{"bike_id":"42756e7d-c4cb-4732-87c5-fa47a18edca4","system_id":"levelo_inurba_marseille","lat":43.26571,"lon":5.3901,"is_reserved":false,"is_disabled":false,"rental_uris":{"android":"levelo://app?vid=42756e7d-c4cb-4732-87c5-fa47a18edca4","ios":"levelo://app?vid=42756e7d-c4cb-4732-87c5-fa47a18edca4"},"vehicle_type_id":"4","last_reported":1774102656,"current_range_meters":8400,"station_id":"ce4bhe12rcd13ifvqf30","pricing_plan_id":"cebpf4jnsgd1na2vs0mg"},{"bike_id":"c3f5b2fa-aa70-4c93-9207-84adc3ef048a","system_id":"levelo_inurba_marseille","lat":43.23188,"lon":5.35551,"is_reserved":false,"is_disabled":false,"rental_uris":{"android":"levelo://app?vid=c3f5b2fa-aa70-4c93-9207-84adc3ef048a","ios":"levelo://app?vid=c3f5b2fa-aa70-4c93-9207-84adc3ef048a"},"vehicle_type_id":"4","last_reported":1774102656,"current_range_meters":8400,"station_id":"ce4bhu92rcd13ifvqi70","pricing_plan_id":"cebpf4jnsgd1na2vs0mg"},{"bike_id":"47a2d01f-48b8-4845-8d1c-a3e31babfe81","system_id":"levelo_inurba_marseille","lat":43.25499,"lon":5.37649,"is_reserved":false,"is_disabled":false,"rental_uris":{"android":"levelo://app?vid=47a2d01f-48b8-4845-8d1c-a3e31babfe81","ios":"levelo://app?vid=47a2d01f-48b8-4845-8d1c-a3e31babfe81"},"vehicle_type_id":"4","last_reported":1774102656,"current_range_meters":8400,"station_id":"ce4bhh12rcd13ifvqff0","pricing_plan_id":"cebpf4jnsgd1na2vs0mg"},{"bike_id":"c1970da1-0a36-4b71-b3f5-4cd865b7861e","system_id":"levelo_inurba_marseille","lat":43.27371,"lon":5.36257,"is_reserved":false,"is_disabled":false,"rental_uris":{"android":"levelo://app?vid=c1970da1-0a36-4b71-b3f5-4cd865b7861e","ios":"levelo://app?vid=c1970da1-0a36-4b71-b3f5-4cd865b7861e"},"vehicle_type_id":"4","last_reported":1774102656,"current_range_meters":8800,"station_id":"ce4bhbh2rcd13ifvqeo0","pricing_plan_id":"cebpf4jnsgd1na2vs0mg"},{"bike_id":"6a0e5f42-628b-49f9-be58-7186fc3dc8d5","system_id":"levelo_inurba_marseille","lat":43.23056,"lon":5.35477,"is_reserved":false,"is_disabled":false,"rental_uris":{"android":"levelo://app?vid=6a0e5f42-628b-49f9-be58-7186fc3dc8d5","ios":"levelo://app?vid=6a0e5f42-628b-49f9-be58-7186fc3dc8d5"},"vehicle_type_id":"4","last_reported":1774102656,"current_range_meters":8800,"station_id":"cpo3342slgdg3j2ifvpg","pricing_plan_id":"cebpf4jnsgd1na2vs0mg"},{"bike_id":"9f1cd0a9-4fb1-4284-942f-b7e49b52a7b5","system_id":"levelo_inurba_marseille","lat":43.29577,"lon":5.36737,"is_reserved":false,"is_disabled":false,"rental_uris":{"android":"levelo://app?vid=9f1cd0a9-4fb1-4284-942f-b7e49b52a7b5","ios":"levelo://app?vid=9f1cd0a9-4fb1-4284-942f-b7e49b52a7b5"},"vehicle_type_id":"4","last_reported":1774102656,"current_range_meters":8800,"station_id":"ce4bgph2rcd13ifvqc2g","pricing_plan_id":"cebpf4jnsgd1na2vs0mg"},{"bike_id":"bc749995-a14f-4cb2-b913-5bac611c6816","system_id":"levelo_inurba_marseille","lat":43.23958,"lon":5.36636,"is_reserved":false,"is_disabled":false,"rental_uris":{"android":"levelo://app?vid=bc749995-a14f-4cb2-b913-5bac611c6816","ios":"levelo://app?vid=bc749995-a14f-4cb2-b913-5bac611c6816"},"vehicle_type_id":"4","last_reported":1774102656,"current_range_meters":8800,"station_id":"ce4bhi12rcd13ifvqfp0","pricing_plan_id":"cebpf4jnsgd1na2vs0mg"},{"bike_id":"280578b9-60d3-4d63-bb0d-4693a52f0b6d","system_id":"levelo_inurba_marseille","lat":43.29019,"lon":5.38141,"is_reserved":false,"is_disabled":true,"rental_uris":{"android":"levelo://app?vid=280578b9-60d3-4d63-bb0d-4693a52f0b6d","ios":"levelo://app?vid=280578b9-60d3-4d63-bb0d-4693a52f0b6d"},"vehicle_type_id":"4","last_reported":1774102656,"current_range_meters":8800,"station_id":"ce4bh4p2rcd13ifvqe1g","pricing_plan_id":"cebpf4jnsgd1na2vs0mg"},{"bike_id":"c1652945-4258-408b-839d-093a5dcdf66c","system_id":"levelo_inurba_marseille","lat":43.31698,"lon":5.36882,"is_reserved":false,"is_disabled":false,"rental_uris":{"android":"levelo://app?vid=c1652945-4258-408b-839d-093a5dcdf66c","ios":"levelo://app?vid=c1652945-4258-408b-839d-093a5dcdf66c"},"vehicle_type_id":"4","last_reported":1774102656,"current_range_meters":8800,"station_id":"","pricing_plan_id":"cebpf4jnsgd1na2vs0mg"},{"bike_id":"503df8da-9118-4827-9af8-3aebdb519853","system_id":"levelo_inurba_marseille","lat":43.22562,"lon":5.41619,"is_reserved":false,"is_disabled":false,"rental_uris":{"android":"levelo://app?vid=503df8da-9118-4827-9af8-3aebdb519853","ios":"levelo://app?vid=503df8da-9118-4827-9af8-3aebdb519853"},"vehicle_type_id":"4","last_reported":1774102656,"current_range_meters":8800,"station_id":"st_d2o4gvlbi1j2169b742g","pricing_plan_id":"cebpf4jnsgd1na2vs0mg"},{"bike_id":"f84df946-1fe9-4d68-b54f-3a23cc20fde7","system_id":"levelo_inurba_marseille","lat":43.29878,"lon":5.42084,"is_reserved":false,"is_disabled":false,"rental_uris":{"android":"levelo://app?vid=f84df946-1fe9-4d68-b54f-3a23cc20fde7","ios":"levelo://app?vid=f84df946-1fe9-4d68-b54f-3a23cc20fde7"},"vehicle_type_id":"4","last_reported":1774102656,"current_range_meters":8800,"station_id":"st_d6tc004otcvc738tfe70","pricing_plan_id":"cebpf4jnsgd1na2vs0mg"},{"bike_id":"26e42e5f-4ec8-4044-9035-15ba7df567cd","system_id":"levelo_inurba_marseille","lat":43.2119,"lon":5.35055,"is_reserved":false,"is_disabled":false,"rental_uris":{"android":"levelo://app?vid=26e42e5f-4ec8-4044-9035-15ba7df567cd","ios":"levelo://app?vid=26e42e5f-4ec8-4044-9035-15ba7df567cd"},"vehicle_type_id":"4","last_reported":1774102656,"current_range_meters":8800,"station_id":"st_cvj6sg6p6f1abm77japg","pricing_plan_id":"cebpf4jnsgd1na2vs0mg"},{"bike_id":"d65bd890-bd76-40b1-a464-add252f480e6","system_id":"levelo_inurba_marseille","lat":43.31736,"lon":5.38999,"is_reserved":false,"is_disabled":false,"rental_uris":{"android":"levelo://app?vid=d65bd890-bd76-40b1-a464-add252f480e6","ios":"levelo://app?vid=d65bd890-bd76-40b1-a464-add252f480e6"},"vehicle_type_id":"4","last_reported":1774102656,"current_range_meters":8800,"station_id":"ce4bhqp2rcd13ifvqhng","pricing_plan_id":"cebpf4jnsgd1na2vs0mg"},{"bike_id":"67e1f5f0-0006-4bed-ab6b-01d5f1dfc1ff","system_id":"levelo_inurba_marseille","lat":43.28738,"lon":5.35216,"is_reserved":false,"is_disabled":false,"rental_uris":{"android":"levelo://app?vid=67e1f5f0-0006-4bed-ab6b-01d5f1dfc1ff","ios":"levelo://app?vid=67e1f5f0-0006-4bed-ab6b-01d5f1dfc1ff"},"vehicle_type_id":"4","last_reported":1774102656,"current_range_meters":8800,"station_id":"","pricing_plan_id":"cebpf4jnsgd1na2vs0mg"},{"bike_id":"87c1f828-d648-4202-ac97-84b6bc128730","system_id":"levelo_inurba_marseille","lat":43.255,"lon":5.37657,"is_reserved":false,"is_disabled":false,"rental_uris":{"android":"levelo://app?vid=87c1f828-d648-4202-ac97-84b6bc128730","ios":"levelo://app?vid=87c1f828-d648-4202-ac97-84b6bc128730"},"vehicle_type_id":"4","last_reported":1774102656,"current_range_meters":8800,"station_id":"ce4bhh12rcd13ifvqff0","pricing_plan_id":"cebpf4jnsgd1na2vs0mg"},{"bike_id":"58d2236a-0295-48d1-9f32-3093e102ca03","system_id":"levelo_inurba_marseille","lat":43.24168,"lon":5.36391,"is_reserved":false,"is_disabled":false,"rental_uris":{"android":"levelo://app?vid=58d2236a-0295-48d1-9f32-3093e102ca03","ios":"levelo://app?vid=58d2236a-0295-48d1-9f32-3093e102ca03"},"vehicle_type_id":"4","last_reported":1774102656,"current_range_meters":8800,"station_id":"cpo36qri1sfpv3e86is0","pricing_plan_id":"cebpf4jnsgd1na2vs0mg"},{"bike_id":"e9216789-2da6-4ca9-9883-2c1c48487abb","system_id":"levelo_inurba_marseille","lat":43.29259,"lon":5.369,"is_reserved":false,"is_disabled":false,"rental_uris":{"android":"levelo://app?vid=e9216789-2da6-4ca9-9883-2c1c48487abb","ios":"levelo://app?vid=e9216789-2da6-4ca9-9883-2c1c48487abb"},"vehicle_type_id":"4","last_reported":1774102656,"current_range_meters":8800,"station_id":"","pricing_plan_id":"cebpf4jnsgd1na2vs0mg"},{"bike_id":"caf4a4a5-8bd8-41a8-9293-8221521f7f1b","system_id":"levelo_inurba_marseille","lat":43.23958,"lon":5.36635,"is_reserved":false,"is_disabled":false,"rental_uris":{"android":"levelo://app?vid=caf4a4a5-8bd8-41a8-9293-8221521f7f1b","ios":"levelo://app?vid=caf4a4a5-8bd8-41a8-9293-8221521f7f1b"},"vehicle_type_id":"4","last_reported":1774102656,"current_range_meters":8800,"station_id":"ce4bhi12rcd13ifvqfp0","pricing_plan_id":"cebpf4jnsgd1na2vs0mg"},{"bike_id":"efe4b101-a4c2-4a36-bd51-36393273087f","system_id":"levelo_inurba_marseille","lat":43.28475,"lon":5.48409,"is_reserved":false,"is_disabled":false,"rental_uris":{"android":"levelo://app?vid=efe4b101-a4c2-4a36-bd51-36393273087f","ios":"levelo://app?vid=efe4b101-a4c2-4a36-bd51-36393273087f"},"vehicle_type_id":"4","last_reported":1774102656,"current_range_meters":8800,"station_id":"","pricing_plan_id":"cebpf4jnsgd1na2vs0mg"},{"bike_id":"5369d941-756a-4a39-ae59-10b7c47d2be3","system_id":"levelo_inurba_marseille","lat":43.31029,"lon":5.3717,"is_reserved":false,"is_disabled":false,"rental_uris":{"android":"levelo://app?vid=5369d941-756a-4a39-ae59-10b7c47d2be3","ios":"levelo://app?vid=5369d941-756a-4a39-ae59-10b7c47d2be3"},"vehicle_type_id":"4","last_reported":1774102656,"current_range_meters":8800,"station_id":"st_d4kl2rp97mjs73e7tdfg","pricing_plan_id":"cebpf4jnsgd1na2vs0mg"},{"bike_id":"ea1128f6-3af1-4db3-9b7c-1d2eebed4c07","system_id":"levelo_inurba_marseille","lat":43.24166,"lon":5.36403,"is_reserved":false,"is_disabled":false,"rental_uris":{"android":"levelo://app?vid=ea1128f6-3af1-4db3-9b7c-1d2eebed4c07","ios":"levelo://app?vid=ea1128f6-3af1-4db3-9b7c-1d2eebed4c07"},"vehicle_type_id":"4","last_reported":1774102656,"current_range_meters":8800,"station_id":"cpo36qri1sfpv3e86is0","pricing_plan_id":"cebpf4jnsgd1na2vs0mg"},{"bike_id":"718f9d6d-764e-4e13-bc65-ad368fbc290e","system_id":"levelo_inurba_marseille","lat":43.24459,"lon":5.42539,"is_reserved":false,"is_disabled":false,"rental_uris":{"android":"levelo://app?vid=718f9d6d-764e-4e13-bc65-ad368fbc290e","ios":"levelo://app?vid=718f9d6d-764e-4e13-bc65-ad368fbc290e"},"vehicle_type_id":"4","last_reported":1774102656,"current_range_meters":9200,"station_id":"","pricing_plan_id":"cebpf4jnsgd1na2vs0mg"},{"bike_id":"62ccf4a8-0426-42c8-92c7-60b92e2221c9","system_id":"levelo_inurba_marseille","lat":43.28473,"lon":5.4839,"is_reserved":false,"is_disabled":false,"rental_uris":{"android":"levelo://app?vid=62ccf4a8-0426-42c8-92c7-60b92e2221c9","ios":"levelo://app?vid=62ccf4a8-0426-42c8-92c7-60b92e2221c9"},"vehicle_type_id":"4","last_reported":1774102656,"current_range_meters":9200,"station_id":"","pricing_plan_id":"cebpf4jnsgd1na2vs0mg"},{"bike_id":"f4ab0de3-dc79-4a98-80e3-f7a89f7628b3","system_id":"levelo_inurba_marseille","lat":43.2918,"lon":5.37184,"is_reserved":false,"is_disabled":false,"rental_uris":{"android":"levelo://app?vid=f4ab0de3-dc79-4a98-80e3-f7a89f7628b3","ios":"levelo://app?vid=f4ab0de3-dc79-4a98-80e3-f7a89f7628b3"},"vehicle_type_id":"4","last_reported":1774102656,"current_range_meters":9200,"station_id":"ce4bha92rcd13ifvqeh0","pricing_plan_id":"cebpf4jnsgd1na2vs0mg"},{"bike_id":"e174566f-9f96-4175-8d0d-0afc92e5691a","system_id":"levelo_inurba_marseille","lat":43.286152,"lon":5.35102,"is_reserved":false,"is_disabled":false,"rental_uris":{"android":"levelo://app?vid=e174566f-9f96-4175-8d0d-0afc92e5691a","ios":"levelo://app?vid=e174566f-9f96-4175-8d0d-0afc92e5691a"},"vehicle_type_id":"4","last_reported":1774102656,"current_range_meters":9200,"station_id":"ce4bhch2rcd13ifvqeug","pricing_plan_id":"cebpf4jnsgd1na2vs0mg"},{"bike_id":"3d877905-2c41-467a-8f2e-5f77866e01b5","system_id":"levelo_inurba_marseille","lat":43.21193,"lon":5.35064,"is_reserved":false,"is_disabled":false,"rental_uris":{"android":"levelo://app?vid=3d877905-2c41-467a-8f2e-5f77866e01b5","ios":"levelo://app?vid=3d877905-2c41-467a-8f2e-5f77866e01b5"},"vehicle_type_id":"4","last_reported":1774102656,"current_range_meters":9200,"station_id":"st_cvj6sg6p6f1abm77japg","pricing_plan_id":"cebpf4jnsgd1na2vs0mg"},{"bike_id":"cec9ce40-029e-42e3-acf1-b473c470fc4c","system_id":"levelo_inurba_marseille","lat":43.25086,"lon":5.39521,"is_reserved":false,"is_disabled":false,"rental_uris":{"android":"levelo://app?vid=cec9ce40-029e-42e3-acf1-b473c470fc4c","ios":"levelo://app?vid=cec9ce40-029e-42e3-acf1-b473c470fc4c"},"vehicle_type_id":"4","last_reported":1774102656,"current_range_meters":9200,"station_id":"ce4bhm12rcd13ifvqgkg","pricing_plan_id":"cebpf4jnsgd1na2vs0mg"},{"bike_id":"5d83742d-3d59-40be-9250-2d3e87e09c45","system_id":"levelo_inurba_marseille","lat":43.28265,"lon":5.35071,"is_reserved":false,"is_disabled":false,"rental_uris":{"android":"levelo://app?vid=5d83742d-3d59-40be-9250-2d3e87e09c45","ios":"levelo://app?vid=5d83742d-3d59-40be-9250-2d3e87e09c45"},"vehicle_type_id":"4","last_reported":1774102656,"current_range_meters":9200,"station_id":"","pricing_plan_id":"cebpf4jnsgd1na2vs0mg"},{"bike_id":"3139e3bc-7e31-41ad-b393-0f19325c3386","system_id":"levelo_inurba_marseille","lat":43.22555,"lon":5.41637,"is_reserved":false,"is_disabled":false,"rental_uris":{"android":"levelo://app?vid=3139e3bc-7e31-41ad-b393-0f19325c3386","ios":"levelo://app?vid=3139e3bc-7e31-41ad-b393-0f19325c3386"},"vehicle_type_id":"4","last_reported":1774102656,"current_range_meters":9200,"station_id":"st_d2o4gvlbi1j2169b742g","pricing_plan_id":"cebpf4jnsgd1na2vs0mg"},{"bike_id":"917a7251-d299-41be-b29c-1256cd6ba6b1","system_id":"levelo_inurba_marseille","lat":43.21183,"lon":5.35075,"is_reserved":false,"is_disabled":false,"rental_uris":{"android":"levelo://app?vid=917a7251-d299-41be-b29c-1256cd6ba6b1","ios":"levelo://app?vid=917a7251-d299-41be-b29c-1256cd6ba6b1"},"vehicle_type_id":"4","last_reported":1774102656,"current_range_meters":9200,"station_id":"st_cvj6sg6p6f1abm77japg","pricing_plan_id":"cebpf4jnsgd1na2vs0mg"},{"bike_id":"b19a626a-93cd-41bf-8d4f-8b63d7aeec08","system_id":"levelo_inurba_marseille","lat":43.3012,"lon":5.43903,"is_reserved":false,"is_disabled":false,"rental_uris":{"android":"levelo://app?vid=b19a626a-93cd-41bf-8d4f-8b63d7aeec08","ios":"levelo://app?vid=b19a626a-93cd-41bf-8d4f-8b63d7aeec08"},"vehicle_type_id":"4","last_reported":1774102656,"current_range_meters":9200,"station_id":"","pricing_plan_id":"cebpf4jnsgd1na2vs0mg"},{"bike_id":"8827da7c-4553-4e45-8b96-33f6c2699a52","system_id":"levelo_inurba_marseille","lat":43.21746,"lon":5.34611,"is_reserved":false,"is_disabled":true,"rental_uris":{"android":"levelo://app?vid=8827da7c-4553-4e45-8b96-33f6c2699a52","ios":"levelo://app?vid=8827da7c-4553-4e45-8b96-33f6c2699a52"},"vehicle_type_id":"4","last_reported":1774102656,"current_range_meters":9200,"station_id":"st_cvj6r9ubvosntc0bgbag","pricing_plan_id":"cebpf4jnsgd1na2vs0mg"},{"bike_id":"8b9f454f-beae-4743-ba91-8d9f8e380dd9","system_id":"levelo_inurba_marseille","lat":43.29583,"lon":5.36736,"is_reserved":false,"is_disabled":false,"rental_uris":{"android":"levelo://app?vid=8b9f454f-beae-4743-ba91-8d9f8e380dd9","ios":"levelo://app?vid=8b9f454f-beae-4743-ba91-8d9f8e380dd9"},"vehicle_type_id":"4","last_reported":1774102656,"current_range_meters":9200,"station_id":"ce4bgph2rcd13ifvqc2g","pricing_plan_id":"cebpf4jnsgd1na2vs0mg"},{"bike_id":"2198dd5a-8a9c-43a1-8743-28b676f91ab1","system_id":"levelo_inurba_marseille","lat":43.28996,"lon":5.36627,"is_reserved":false,"is_disabled":false,"rental_uris":{"android":"levelo://app?vid=2198dd5a-8a9c-43a1-8743-28b676f91ab1","ios":"levelo://app?vid=2198dd5a-8a9c-43a1-8743-28b676f91ab1"},"vehicle_type_id":"4","last_reported":1774102656,"current_range_meters":9200,"station_id":"","pricing_plan_id":"cebpf4jnsgd1na2vs0mg"},{"bike_id":"35939b35-432f-4730-9a4d-bca4477a51c8","system_id":"levelo_inurba_marseille","lat":43.32139,"lon":5.36795,"is_reserved":false,"is_disabled":false,"rental_uris":{"android":"levelo://app?vid=35939b35-432f-4730-9a4d-bca4477a51c8","ios":"levelo://app?vid=35939b35-432f-4730-9a4d-bca4477a51c8"},"vehicle_type_id":"4","last_reported":1774102656,"current_range_meters":9200,"station_id":"ce4bhrh2rcd13ifvqhug","pricing_plan_id":"cebpf4jnsgd1na2vs0mg"},{"bike_id":"6c1ac590-511b-4ef3-b19a-055f363bbc14","system_id":"levelo_inurba_marseille","lat":43.29893,"lon":5.43679,"is_reserved":false,"is_disabled":false,"rental_uris":{"android":"levelo://app?vid=6c1ac590-511b-4ef3-b19a-055f363bbc14","ios":"levelo://app?vid=6c1ac590-511b-4ef3-b19a-055f363bbc14"},"vehicle_type_id":"4","last_reported":1774102656,"current_range_meters":9200,"station_id":"ce4bhpp2rcd13ifvqhfg","pricing_plan_id":"cebpf4jnsgd1na2vs0mg"},{"bike_id":"d4da46a1-3b9d-4dec-958a-07224dfcb10c","system_id":"levelo_inurba_marseille","lat":43.27207,"lon":5.39193,"is_reserved":false,"is_disabled":true,"rental_uris":{"android":"levelo://app?vid=d4da46a1-3b9d-4dec-958a-07224dfcb10c","ios":"levelo://app?vid=d4da46a1-3b9d-4dec-958a-07224dfcb10c"},"vehicle_type_id":"4","last_reported":1774102656,"current_range_meters":9600,"station_id":"ce4bhhp2rcd13ifvqfm0","pricing_plan_id":"cebpf4jnsgd1na2vs0mg"},{"bike_id":"cc777a7e-f3d4-4026-819d-66c6f1a5d2b6","system_id":"levelo_inurba_marseille","lat":43.29218,"lon":5.42584,"is_reserved":false,"is_disabled":false,"rental_uris":{"android":"levelo://app?vid=cc777a7e-f3d4-4026-819d-66c6f1a5d2b6","ios":"levelo://app?vid=cc777a7e-f3d4-4026-819d-66c6f1a5d2b6"},"vehicle_type_id":"4","last_reported":1774102656,"current_range_meters":9600,"station_id":"","pricing_plan_id":"cebpf4jnsgd1na2vs0mg"},{"bike_id":"261142f1-f10b-45a3-b541-521403b67be7","system_id":"levelo_inurba_marseille","lat":43.28275,"lon":5.35063,"is_reserved":false,"is_disabled":false,"rental_uris":{"android":"levelo://app?vid=261142f1-f10b-45a3-b541-521403b67be7","ios":"levelo://app?vid=261142f1-f10b-45a3-b541-521403b67be7"},"vehicle_type_id":"4","last_reported":1774102656,"current_range_meters":9600,"station_id":"ce4bhbp2rcd13ifvqerg","pricing_plan_id":"cebpf4jnsgd1na2vs0mg"},{"bike_id":"b41ba9fd-1286-49b2-bb79-3ecc772ffeae","system_id":"levelo_inurba_marseille","lat":43.32129,"lon":5.36767,"is_reserved":false,"is_disabled":false,"rental_uris":{"android":"levelo://app?vid=b41ba9fd-1286-49b2-bb79-3ecc772ffeae","ios":"levelo://app?vid=b41ba9fd-1286-49b2-bb79-3ecc772ffeae"},"vehicle_type_id":"4","last_reported":1774102656,"current_range_meters":9600,"station_id":"ce4bhrh2rcd13ifvqhug","pricing_plan_id":"cebpf4jnsgd1na2vs0mg"},{"bike_id":"c740e20c-eca7-406c-92dd-2b448718a645","system_id":"levelo_inurba_marseille","lat":43.28483,"lon":5.48385,"is_reserved":false,"is_disabled":false,"rental_uris":{"android":"levelo://app?vid=c740e20c-eca7-406c-92dd-2b448718a645","ios":"levelo://app?vid=c740e20c-eca7-406c-92dd-2b448718a645"},"vehicle_type_id":"4","last_reported":1774102656,"current_range_meters":9600,"station_id":"st_d3svhcjqgbts73a3dn0g","pricing_plan_id":"cebpf4jnsgd1na2vs0mg"},{"bike_id":"82918ebf-db0b-441c-be2e-745dd8531c0c","system_id":"levelo_inurba_marseille","lat":43.22574,"lon":5.41617,"is_reserved":false,"is_disabled":false,"rental_uris":{"android":"levelo://app?vid=82918ebf-db0b-441c-be2e-745dd8531c0c","ios":"levelo://app?vid=82918ebf-db0b-441c-be2e-745dd8531c0c"},"vehicle_type_id":"4","last_reported":1774102656,"current_range_meters":9600,"station_id":"st_d2o4gvlbi1j2169b742g","pricing_plan_id":"cebpf4jnsgd1na2vs0mg"},{"bike_id":"ef8cd562-295e-4308-aa28-51ee95bd4f8d","system_id":"levelo_inurba_marseille","lat":43.28164,"lon":5.42625,"is_reserved":false,"is_disabled":false,"rental_uris":{"android":"levelo://app?vid=ef8cd562-295e-4308-aa28-51ee95bd4f8d","ios":"levelo://app?vid=ef8cd562-295e-4308-aa28-51ee95bd4f8d"},"vehicle_type_id":"4","last_reported":1774102656,"current_range_meters":10000,"station_id":"ce4bhnh2rcd13ifvqgug","pricing_plan_id":"cebpf4jnsgd1na2vs0mg"},{"bike_id":"34c091fc-8184-4773-bd2e-dd88d75d3a2c","system_id":"levelo_inurba_marseille","lat":43.25753,"lon":5.37647,"is_reserved":false,"is_disabled":false,"rental_uris":{"android":"levelo://app?vid=34c091fc-8184-4773-bd2e-dd88d75d3a2c","ios":"levelo://app?vid=34c091fc-8184-4773-bd2e-dd88d75d3a2c"},"vehicle_type_id":"4","last_reported":1774102656,"current_range_meters":10000,"station_id":"","pricing_plan_id":"cebpf4jnsgd1na2vs0mg"},{"bike_id":"4aeeee87-4948-4d1a-89c8-e6582cd6e13d","system_id":"levelo_inurba_marseille","lat":43.28267,"lon":5.35077,"is_reserved":false,"is_disabled":false,"rental_uris":{"android":"levelo://app?vid=4aeeee87-4948-4d1a-89c8-e6582cd6e13d","ios":"levelo://app?vid=4aeeee87-4948-4d1a-89c8-e6582cd6e13d"},"vehicle_type_id":"4","last_reported":1774102656,"current_range_meters":10000,"station_id":"ce4bhbp2rcd13ifvqerg","pricing_plan_id":"cebpf4jnsgd1na2vs0mg"},{"bike_id":"348b028b-7113-4df9-8c29-432c15b7b280","system_id":"levelo_inurba_marseille","lat":43.23959,"lon":5.36613,"is_reserved":false,"is_disabled":true,"rental_uris":{"android":"levelo://app?vid=348b028b-7113-4df9-8c29-432c15b7b280","ios":"levelo://app?vid=348b028b-7113-4df9-8c29-432c15b7b280"},"vehicle_type_id":"4","last_reported":1774102656,"current_range_meters":10000,"station_id":"ce4bhi12rcd13ifvqfp0","pricing_plan_id":"cebpf4jnsgd1na2vs0mg"},{"bike_id":"de00465c-b87d-4345-a95a-afcb6d75f502","system_id":"levelo_inurba_marseille","lat":43.27379,"lon":5.36255,"is_reserved":false,"is_disabled":false,"rental_uris":{"android":"levelo://app?vid=de00465c-b87d-4345-a95a-afcb6d75f502","ios":"levelo://app?vid=de00465c-b87d-4345-a95a-afcb6d75f502"},"vehicle_type_id":"4","last_reported":1774102656,"current_range_meters":10000,"station_id":"ce4bhbh2rcd13ifvqeo0","pricing_plan_id":"cebpf4jnsgd1na2vs0mg"},{"bike_id":"48e73ee0-aa2b-4aff-b547-d29782d1ead9","system_id":"levelo_inurba_marseille","lat":43.24173,"lon":5.36399,"is_reserved":false,"is_disabled":false,"rental_uris":{"android":"levelo://app?vid=48e73ee0-aa2b-4aff-b547-d29782d1ead9","ios":"levelo://app?vid=48e73ee0-aa2b-4aff-b547-d29782d1ead9"},"vehicle_type_id":"4","last_reported":1774102656,"current_range_meters":10000,"station_id":"cpo36qri1sfpv3e86is0","pricing_plan_id":"cebpf4jnsgd1na2vs0mg"},{"bike_id":"b1e9f2bf-e7d4-42d6-82f3-545e24467f8a","system_id":"levelo_inurba_marseille","lat":43.23888,"lon":5.37457,"is_reserved":false,"is_disabled":false,"rental_uris":{"android":"levelo://app?vid=b1e9f2bf-e7d4-42d6-82f3-545e24467f8a","ios":"levelo://app?vid=b1e9f2bf-e7d4-42d6-82f3-545e24467f8a"},"vehicle_type_id":"4","last_reported":1774102656,"current_range_meters":10000,"station_id":"st_d6sm7csbq4hs73f8fpjg","pricing_plan_id":"cebpf4jnsgd1na2vs0mg"},{"bike_id":"cc696a92-d35f-424c-9e4d-00cc096b60f0","system_id":"levelo_inurba_marseille","lat":43.24175,"lon":5.36387,"is_reserved":false,"is_disabled":false,"rental_uris":{"android":"levelo://app?vid=cc696a92-d35f-424c-9e4d-00cc096b60f0","ios":"levelo://app?vid=cc696a92-d35f-424c-9e4d-00cc096b60f0"},"vehicle_type_id":"4","last_reported":1774102656,"current_range_meters":10000,"station_id":"cpo36qri1sfpv3e86is0","pricing_plan_id":"cebpf4jnsgd1na2vs0mg"},{"bike_id":"999ac1bf-b8e0-433e-aaf1-062ad4df449e","system_id":"levelo_inurba_marseille","lat":43.21755,"lon":5.34595,"is_reserved":false,"is_disabled":false,"rental_uris":{"android":"levelo://app?vid=999ac1bf-b8e0-433e-aaf1-062ad4df449e","ios":"levelo://app?vid=999ac1bf-b8e0-433e-aaf1-062ad4df449e"},"vehicle_type_id":"4","last_reported":1774102656,"current_range_meters":10000,"station_id":"st_cvj6r9ubvosntc0bgbag","pricing_plan_id":"cebpf4jnsgd1na2vs0mg"},{"bike_id":"268ffe33-8934-4735-9656-517059b49f96","system_id":"levelo_inurba_marseille","lat":43.255185,"lon":5.376515,"is_reserved":false,"is_disabled":false,"rental_uris":{"android":"levelo://app?vid=268ffe33-8934-4735-9656-517059b49f96","ios":"levelo://app?vid=268ffe33-8934-4735-9656-517059b49f96"},"vehicle_type_id":"4","last_reported":1774102656,"current_range_meters":10000,"station_id":"ce4bhh12rcd13ifvqff0","pricing_plan_id":"cebpf4jnsgd1na2vs0mg"},{"bike_id":"8e4e1a4f-926a-43be-a83b-6864a87ddd9f","system_id":"levelo_inurba_marseille","lat":43.2737,"lon":5.36236,"is_reserved":false,"is_disabled":false,"rental_uris":{"android":"levelo://app?vid=8e4e1a4f-926a-43be-a83b-6864a87ddd9f","ios":"levelo://app?vid=8e4e1a4f-926a-43be-a83b-6864a87ddd9f"},"vehicle_type_id":"4","last_reported":1774102656,"current_range_meters":10000,"station_id":"ce4bhbh2rcd13ifvqeo0","pricing_plan_id":"cebpf4jnsgd1na2vs0mg"},{"bike_id":"2d6d7c2d-62c0-410b-9072-ede78196496b","system_id":"levelo_inurba_marseille","lat":43.2981,"lon":5.44063,"is_reserved":false,"is_disabled":false,"rental_uris":{"android":"levelo://app?vid=2d6d7c2d-62c0-410b-9072-ede78196496b","ios":"levelo://app?vid=2d6d7c2d-62c0-410b-9072-ede78196496b"},"vehicle_type_id":"4","last_reported":1774102656,"current_range_meters":10000,"station_id":"st_d3jp68qikq2c7381ktn0","pricing_plan_id":"cebpf4jnsgd1na2vs0mg"},{"bike_id":"8294aced-9d8f-401e-9e74-4555a1438aad","system_id":"levelo_inurba_marseille","lat":43.31577,"lon":5.44546,"is_reserved":false,"is_disabled":false,"rental_uris":{"android":"levelo://app?vid=8294aced-9d8f-401e-9e74-4555a1438aad","ios":"levelo://app?vid=8294aced-9d8f-401e-9e74-4555a1438aad"},"vehicle_type_id":"4","last_reported":1774102656,"current_range_meters":10000,"station_id":"","pricing_plan_id":"cebpf4jnsgd1na2vs0mg"},{"bike_id":"2ae056a0-1bcb-4483-bce9-efc7197f0737","system_id":"levelo_inurba_marseille","lat":43.29213,"lon":5.36027,"is_reserved":false,"is_disabled":false,"rental_uris":{"android":"levelo://app?vid=2ae056a0-1bcb-4483-bce9-efc7197f0737","ios":"levelo://app?vid=2ae056a0-1bcb-4483-bce9-efc7197f0737"},"vehicle_type_id":"4","last_reported":1774102656,"current_range_meters":10000,"station_id":"ce4bhbh2rcd13ifvqeqg","pricing_plan_id":"cebpf4jnsgd1na2vs0mg"},{"bike_id":"bb2bb087-057b-42f3-9513-f048d27083cc","system_id":"levelo_inurba_marseille","lat":43.28174,"lon":5.42808,"is_reserved":false,"is_disabled":false,"rental_uris":{"android":"levelo://app?vid=bb2bb087-057b-42f3-9513-f048d27083cc","ios":"levelo://app?vid=bb2bb087-057b-42f3-9513-f048d27083cc"},"vehicle_type_id":"4","last_reported":1774102656,"current_range_meters":10000,"station_id":"","pricing_plan_id":"cebpf4jnsgd1na2vs0mg"},{"bike_id":"61d3c96a-0628-4843-8da4-13afd6da5e07","system_id":"levelo_inurba_marseille","lat":43.28832,"lon":5.3573,"is_reserved":false,"is_disabled":false,"rental_uris":{"android":"levelo://app?vid=61d3c96a-0628-4843-8da4-13afd6da5e07","ios":"levelo://app?vid=61d3c96a-0628-4843-8da4-13afd6da5e07"},"vehicle_type_id":"4","last_reported":1774102656,"current_range_meters":10000,"station_id":"","pricing_plan_id":"cebpf4jnsgd1na2vs0mg"},{"bike_id":"89c570a7-f4b5-46ab-9da9-ebab4eeb39cb","system_id":"levelo_inurba_marseille","lat":43.27624,"lon":5.3612,"is_reserved":false,"is_disabled":false,"rental_uris":{"android":"levelo://app?vid=89c570a7-f4b5-46ab-9da9-ebab4eeb39cb","ios":"levelo://app?vid=89c570a7-f4b5-46ab-9da9-ebab4eeb39cb"},"vehicle_type_id":"4","last_reported":1774102656,"current_range_meters":10000,"station_id":"ce4bgj92rcd13ifvqbe0","pricing_plan_id":"cebpf4jnsgd1na2vs0mg"},{"bike_id":"5cc8e008-a755-466d-8baa-e74085c439c8","system_id":"levelo_inurba_marseille","lat":43.3375,"lon":5.37478,"is_reserved":false,"is_disabled":false,"rental_uris":{"android":"levelo://app?vid=5cc8e008-a755-466d-8baa-e74085c439c8","ios":"levelo://app?vid=5cc8e008-a755-466d-8baa-e74085c439c8"},"vehicle_type_id":"4","last_reported":1774102656,"current_range_meters":10000,"station_id":"","pricing_plan_id":"cebpf4jnsgd1na2vs0mg"},{"bike_id":"06226ada-6767-4472-9793-b3b420e8ac72","system_id":"levelo_inurba_marseille","lat":43.2377,"lon":5.36633,"is_reserved":false,"is_disabled":false,"rental_uris":{"android":"levelo://app?vid=06226ada-6767-4472-9793-b3b420e8ac72","ios":"levelo://app?vid=06226ada-6767-4472-9793-b3b420e8ac72"},"vehicle_type_id":"4","last_reported":1774102656,"current_range_meters":10000,"station_id":"st_d3nk18o9ro0c73en2l3g","pricing_plan_id":"cebpf4jnsgd1na2vs0mg"},{"bike_id":"ef756845-5e51-4884-8fd9-8be941a4fa51","system_id":"levelo_inurba_marseille","lat":43.3108,"lon":5.42432,"is_reserved":false,"is_disabled":false,"rental_uris":{"android":"levelo://app?vid=ef756845-5e51-4884-8fd9-8be941a4fa51","ios":"levelo://app?vid=ef756845-5e51-4884-8fd9-8be941a4fa51"},"vehicle_type_id":"4","last_reported":1774102656,"current_range_meters":10000,"station_id":"ce4bhp92rcd13ifvqhag","pricing_plan_id":"cebpf4jnsgd1na2vs0mg"},{"bike_id":"5041f40c-daff-4906-8ade-8c0670aea9e2","system_id":"levelo_inurba_marseille","lat":43.28612,"lon":5.35102,"is_reserved":false,"is_disabled":false,"rental_uris":{"android":"levelo://app?vid=5041f40c-daff-4906-8ade-8c0670aea9e2","ios":"levelo://app?vid=5041f40c-daff-4906-8ade-8c0670aea9e2"},"vehicle_type_id":"4","last_reported":1774102656,"current_range_meters":10800,"station_id":"ce4bhch2rcd13ifvqeug","pricing_plan_id":"cebpf4jnsgd1na2vs0mg"},{"bike_id":"241046f9-ab84-4a91-a2f0-c684d8fe1c49","system_id":"levelo_inurba_marseille","lat":43.21745,"lon":5.34604,"is_reserved":false,"is_disabled":false,"rental_uris":{"android":"levelo://app?vid=241046f9-ab84-4a91-a2f0-c684d8fe1c49","ios":"levelo://app?vid=241046f9-ab84-4a91-a2f0-c684d8fe1c49"},"vehicle_type_id":"4","last_reported":1774102656,"current_range_meters":10800,"station_id":"st_cvj6r9ubvosntc0bgbag","pricing_plan_id":"cebpf4jnsgd1na2vs0mg"},