{"last_updated":1728562616,"ttl":60,"version":"2.2","data":{"bikes":[{"bike_id":"ddb9679b-c37e-4bea-beb9-d80ba93eccb3","system_id":"levelo_inurba_marseille","lat":43.30184,"lon":5.36614,"is_reserved":false,"is_disabled":false,"rental_uris":{"android":"levelo://app?vid=ddb9679b-c37e-4bea-beb9-d80ba93eccb3","ios":"levelo://app?vid=ddb9679b-c37e-4bea-beb9-d80ba93eccb3"},"vehicle_type_id":"4","last_reported":1728562616,"current_range_meters":9600,"station_id":"ce4bgrh2rcd13ifvqc8g","pricing_plan_id":"cebpf4jnsgd1na2vs0mg"},{"bike_id":"5a050095-40e5-4cdc-b1ad-ee69f85d07c5","system_id":"levelo_inurba_marseille","lat":43.29193,"lon":5.35801,"is_reserved":false,"is_disabled":false,"rental_uris":{"android":"levelo://app?vid=5a050095-40e5-4cdc-b1ad-ee69f85d07c5","ios":"levelo://app?vid=5a050095-40e5-4cdc-b1ad-ee69f85d07c5"},"vehicle_type_id":"4","last_reported":1728562616,"current_range_meters":39200,"station_id":"ce4bhb12rcd13ifvqel0","pricing_plan_id":"cebpf4jnsgd1na2vs0mg"},{"bike_id":"67ac6011-dd9b-4dbe-9b5d-1e93368e2cbb","system_id":"levelo_inurba_marseille","lat":43.24079,"lon":5.37753,"is_reserved":false,"is_disabled":false,"rental_uris":{"android":"levelo://app?vid=67ac6011-dd9b-4dbe-9b5d-1e93368e2cbb","ios":"levelo://app?vid=67ac6011-dd9b-4dbe-9b5d-1e93368e2cbb"},"vehicle_type_id":"4","last_reported":1728562616,"current_range_meters":24800,"station_id":"ce4bhnp2rcd13ifvqgvg","pricing_plan_id":"cebpf4jnsgd1na2vs0mg"},{"bike_id":"0d00e3d5-4b7b-48f1-a5c5-820b3f872844","system_id":"levelo_inurba_marseille","lat":43.307816,"lon":5.381648,"is_reserved":false,"is_disabled":false,"rental_uris":{"android":"levelo://app?vid=0d00e3d5-4b7b-48f1-a5c5-820b3f872844","ios":"levelo://app?vid=0d00e3d5-4b7b-48f1-a5c5-820b3f872844"},"vehicle_type_id":"4","last_reported":1728562616,"current_range_meters":8800,"station_id":"ce4bgt12rcd13ifvqce0","pricing_plan_id":"cebpf4jnsgd1na2vs0mg"},{"bike_id":"69e77010-a535-4398-8159-24f48f4c7d15","system_id":"levelo_inurba_marseille","lat":43.23065,"lon":5.35489,"is_reserved":false,"is_disabled":false,"rental_uris":{"android":"levelo://app?vid=69e77010-a535-4398-8159-24f48f4c7d15","ios":"levelo://app?vid=69e77010-a535-4398-8159-24f48f4c7d15"},"vehicle_type_id":"4","last_reported":1728562616,"current_range_meters":3200,"station_id":"cpo3342slgdg3j2ifvpg","pricing_plan_id":"cebpf4jnsgd1na2vs0mg"},{"bike_id":"ea09c627-9fb4-40c0-9290-2d219b6993da","system_id":"levelo_inurba_marseille","lat":43.302429,"lon":5.400753,"is_reserved":false,"is_disabled":false,"rental_uris":{"android":"levelo://app?vid=ea09c627-9fb4-40c0-9290-2d219b6993da","ios":"levelo://app?vid=ea09c627-9fb4-40c0-9290-2d219b6993da"},"vehicle_type_id":"4","last_reported":1728562616,"current_range_meters":10800,"station_id":"ce4bgvh2rcd13ifvqcs0","pricing_plan_id":"cebpf4jnsgd1na2vs0mg"},{"bike_id":"e7ef74d7-2353-4c7b-a2a4-c47e815f384e","system_id":"levelo_inurba_marseille","lat":43.26556,"lon":5.37286,"is_reserved":false,"is_disabled":false,"rental_uris":{"android":"levelo://app?vid=e7ef74d7-2353-4c7b-a2a4-c47e815f384e","ios":"levelo://app?vid=e7ef74d7-2353-4c7b-a2a4-c47e815f384e"},"vehicle_type_id":"4","last_reported":1728562616,"current_range_meters":2000,"station_id":"ce4bhg12rcd13ifvqf70","pricing_plan_id":"cebpf4jnsgd1na2vs0mg"},{"bike_id":"393998b5-e68b-4c34-86c5-4cedd10a4560","system_id":"levelo_inurba_marseille","lat":43.30606,"lon":5.37207,"is_reserved":false,"is_disabled":false,"rental_uris":{"android":"levelo://app?vid=393998b5-e68b-4c34-86c5-4cedd10a4560","ios":"levelo://app?vid=393998b5-e68b-4c34-86c5-4cedd10a4560"},"vehicle_type_id":"4","last_reported":1728562616,"current_range_meters":38000,"station_id":"ce4bgqh2rcd13ifvqc4g","pricing_plan_id":"cebpf4jnsgd1na2vs0mg"},{"bike_id":"a150ccfc-b2ad-4e52-ad49-b5b8f02ce534","system_id":"levelo_inurba_marseille","lat":43.25583,"lon":5.382315,"is_reserved":false,"is_disabled":false,"rental_uris":{"android":"levelo://app?vid=a150ccfc-b2ad-4e52-ad49-b5b8f02ce534","ios":"levelo://app?vid=a150ccfc-b2ad-4e52-ad49-b5b8f02ce534"},"vehicle_type_id":"4","last_reported":1728562616,"current_range_meters":14400,"station_id":"ce4bhih2rcd13ifvqfs0","pricing_plan_id":"cebpf4jnsgd1na2vs0mg"},{"bike_id":"d607032c-5bcd-4c14-9a0a-d12ed8ee2533","system_id":"levelo_inurba_marseille","lat":43.29261,"lon":5.40912,"is_reserved":false,"is_disabled":false,"rental_uris":{"android":"levelo://app?vid=d607032c-5bcd-4c14-9a0a-d12ed8ee2533","ios":"levelo://app?vid=d607032c-5bcd-4c14-9a0a-d12ed8ee2533"},"vehicle_type_id":"4","last_reported":1728562616,"current_range_meters":24800,"station_id":"ce4bh192rcd13ifvqdc0","pricing_plan_id":"cebpf4jnsgd1na2vs0mg"},{"bike_id":"1091bdbe-9abb-47cb-94ee-6ed4d2b61389","system_id":"levelo_inurba_marseille","lat":43.28859,"lon":5.35852,"is_reserved":false,"is_disabled":false,"rental_uris":{"android":"levelo://app?vid=1091bdbe-9abb-47cb-94ee-6ed4d2b61389","ios":"levelo://app?vid=1091bdbe-9abb-47cb-94ee-6ed4d2b61389"},"vehicle_type_id":"4","last_reported":1728562616,"current_range_meters":11200,"station_id":"ce4bhb12rcd13ifvqem0","pricing_plan_id":"cebpf4jnsgd1na2vs0mg"},{"bike_id":"4c04c386-a306-4cd9-92d0-2e121dfec09b","system_id":"levelo_inurba_marseille","lat":43.29188,"lon":5.35804,"is_reserved":false,"is_disabled":false,"rental_uris":{"android":"levelo://app?vid=4c04c386-a306-4cd9-92d0-2e121dfec09b","ios":"levelo://app?vid=4c04c386-a306-4cd9-92d0-2e121dfec09b"},"vehicle_type_id":"4","last_reported":1728562616,"current_range_meters":35600,"station_id":"ce4bhb12rcd13ifvqel0","pricing_plan_id":"cebpf4jnsgd1na2vs0mg"},{"bike_id":"b6238d41-ee15-425a-90f4-5765634a5d7f","system_id":"levelo_inurba_marseille","lat":43.23151,"lon":5.43711,"is_reserved":false,"is_disabled":false,"rental_uris":{"android":"levelo://app?vid=b6238d41-ee15-425a-90f4-5765634a5d7f","ios":"levelo://app?vid=b6238d41-ee15-425a-90f4-5765634a5d7f"},"vehicle_type_id":"4","last_reported":1728562616,"current_range_meters":40000,"station_id":"ce4bhmp2rcd13ifvqgog","pricing_plan_id":"cebpf4jnsgd1na2vs0mg"},{"bike_id":"91f9ac4e-26b4-4a3e-8d1b-584047d9b6a3","system_id":"levelo_inurba_marseille","lat":43.23145,"lon":5.43728,"is_reserved":false,"is_disabled":false,"rental_uris":{"android":"levelo://app?vid=91f9ac4e-26b4-4a3e-8d1b-584047d9b6a3","ios":"levelo://app?vid=91f9ac4e-26b4-4a3e-8d1b-584047d9b6a3"},"vehicle_type_id":"4","last_reported":1728562616,"current_range_meters":17200,"station_id":"ce4bhmp2rcd13ifvqgog","pricing_plan_id":"cebpf4jnsgd1na2vs0mg"},{"bike_id":"296d1880-4a03-4d23-a9cc-51df04a4af16","system_id":"levelo_inurba_marseille","lat":43.26197,"lon":5.37448,"is_reserved":false,"is_disabled":false,"rental_uris":{"android":"levelo://app?vid=296d1880-4a03-4d23-a9cc-51df04a4af16","ios":"levelo://app?vid=296d1880-4a03-4d23-a9cc-51df04a4af16"},"vehicle_type_id":"4","last_reported":1728562616,"current_range_meters":36400,"station_id":"ce4bhgp2rcd13ifvqfc0","pricing_plan_id":"cebpf4jnsgd1na2vs0mg"},{"bike_id":"729d92a6-b5d4-421f-82bd-c3e31fbc602e","system_id":"levelo_inurba_marseille","lat":43.23153,"lon":5.43707,"is_reserved":false,"is_disabled":false,"rental_uris":{"android":"levelo://app?vid=729d92a6-b5d4-421f-82bd-c3e31fbc602e","ios":"levelo://app?vid=729d92a6-b5d4-421f-82bd-c3e31fbc602e"},"vehicle_type_id":"4","last_reported":1728562616,"current_range_meters":40000,"station_id":"ce4bhmp2rcd13ifvqgog","pricing_plan_id":"cebpf4jnsgd1na2vs0mg"},{"bike_id":"6cb2fd54-0aca-4f7d-aadb-bc057dc4fb59","system_id":"levelo_inurba_marseille","lat":43.23063,"lon":5.35492,"is_reserved":false,"is_disabled":false,"rental_uris":{"android":"levelo://app?vid=6cb2fd54-0aca-4f7d-aadb-bc057dc4fb59","ios":"levelo://app?vid=6cb2fd54-0aca-4f7d-aadb-bc057dc4fb59"},"vehicle_type_id":"4","last_reported":1728562616,"current_range_meters":33200,"station_id":"cpo3342slgdg3j2ifvpg","pricing_plan_id":"cebpf4jnsgd1na2vs0mg"},{"bike_id":"8f02737f-bf1c-4304-acad-119d1a0c31f2","system_id":"levelo_inurba_marseille","lat":43.26566,"lon":5.38995,"is_reserved":false,"is_disabled":false,"rental_uris":{"android":"levelo://app?vid=8f02737f-bf1c-4304-acad-119d1a0c31f2","ios":"levelo://app?vid=8f02737f-bf1c-4304-acad-119d1a0c31f2"},"vehicle_type_id":"4","last_reported":1728562616,"current_range_meters":2800,"station_id":"ce4bhe12rcd13ifvqf30","pricing_plan_id":"cebpf4jnsgd1na2vs0mg"},{"bike_id":"886aa239-0ce6-4cc7-a1be-709bc947b872","system_id":"levelo_inurba_marseille","lat":43.28159,"lon":5.42649,"is_reserved":false,"is_disabled":false,"rental_uris":{"android":"levelo://app?vid=886aa239-0ce6-4cc7-a1be-709bc947b872","ios":"levelo://app?vid=886aa239-0ce6-4cc7-a1be-709bc947b872"},"vehicle_type_id":"4","last_reported":1728562616,"current_range_meters":6800,"station_id":"ce4bhnh2rcd13ifvqgug","pricing_plan_id":"cebpf4jnsgd1na2vs0mg"},{"bike_id":"c51e38ae-0954-4955-b32c-bcbddb0b2b0d","system_id":"levelo_inurba_marseille","lat":43.33759,"lon":5.37442,"is_reserved":false,"is_disabled":false,"rental_uris":{"android":"levelo://app?vid=c51e38ae-0954-4955-b32c-bcbddb0b2b0d","ios":"levelo://app?vid=c51e38ae-0954-4955-b32c-bcbddb0b2b0d"},"vehicle_type_id":"4","last_reported":1728562616,"current_range_meters":22400,"station_id":"","pricing_plan_id":"cebpf4jnsgd1na2vs0mg"},{"bike_id":"4d69f973-d42a-46b5-9931-302e5c8d9278","system_id":"levelo_inurba_marseille","lat":43.24073,"lon":5.37765,"is_reserved":false,"is_disabled":false,"rental_uris":{"android":"levelo://app?vid=4d69f973-d42a-46b5-9931-302e5c8d9278","ios":"levelo://app?vid=4d69f973-d42a-46b5-9931-302e5c8d9278"},"vehicle_type_id":"4","last_reported":1728562616,"current_range_meters":27600,"station_id":"ce4bhnp2rcd13ifvqgvg","pricing_plan_id":"cebpf4jnsgd1na2vs0mg"},{"bike_id":"143290f3-8414-488f-a2bc-89df6ff941f9","system_id":"levelo_inurba_marseille","lat":43.25001,"lon":5.38927,"is_reserved":false,"is_disabled":false,"rental_uris":{"android":"levelo://app?vid=143290f3-8414-488f-a2bc-89df6ff941f9","ios":"levelo://app?vid=143290f3-8414-488f-a2bc-89df6ff941f9"},"vehicle_type_id":"4","last_reported":1728562616,"current_range_meters":22800,"station_id":"ce4bhgp2rcd13ifvqfd0","pricing_plan_id":"cebpf4jnsgd1na2vs0mg"},{"bike_id":"b9ca07ac-23a2-4b34-a589-ea709575327f","system_id":"levelo_inurba_marseille","lat":43.26789,"lon":5.39413,"is_reserved":false,"is_disabled":false,"rental_uris":{"android":"levelo://app?vid=b9ca07ac-23a2-4b34-a589-ea709575327f","ios":"levelo://app?vid=b9ca07ac-23a2-4b34-a589-ea709575327f"},"vehicle_type_id":"4","last_reported":1728562616,"current_range_meters":22400,"station_id":"ce4bhh12rcd13ifvqfg0","pricing_plan_id":"cebpf4jnsgd1na2vs0mg"},{"bike_id":"040e84d7-b151-4dc6-8e69-1a80b1f29b8c","system_id":"levelo_inurba_marseille","lat":43.24075,"lon":5.37744,"is_reserved":false,"is_disabled":false,"rental_uris":{"android":"levelo://app?vid=040e84d7-b151-4dc6-8e69-1a80b1f29b8c","ios":"levelo://app?vid=040e84d7-b151-4dc6-8e69-1a80b1f29b8c"},"vehicle_type_id":"4","last_reported":1728562616,"current_range_meters":29600,"station_id":"ce4bhnp2rcd13ifvqgvg","pricing_plan_id":"cebpf4jnsgd1na2vs0mg"},{"bike_id":"fe1386ee-6194-4218-a1fa-d1785afff62e","system_id":"levelo_inurba_marseille","lat":43.26804,"lon":5.40272,"is_reserved":false,"is_disabled":false,"rental_uris":{"android":"levelo://app?vid=fe1386ee-6194-4218-a1fa-d1785afff62e","ios":"levelo://app?vid=fe1386ee-6194-4218-a1fa-d1785afff62e"},"vehicle_type_id":"4","last_reported":1728562616,"current_range_meters":32000,"station_id":"ce501612rcd8frsf0b60","pricing_plan_id":"cebpf4jnsgd1na2vs0mg"},{"bike_id":"8f831b42-9c84-41c2-a331-3c5e765e4e87","system_id":"levelo_inurba_marseille","lat":43.24077,"lon":5.37743,"is_reserved":false,"is_disabled":false,"rental_uris":{"android":"levelo://app?vid=8f831b42-9c84-41c2-a331-3c5e765e4e87","ios":"levelo://app?vid=8f831b42-9c84-41c2-a331-3c5e765e4e87"},"vehicle_type_id":"4","last_reported":1728562616,"current_range_meters":28800,"station_id":"ce4bhnp2rcd13ifvqgvg","pricing_plan_id":"cebpf4jnsgd1na2vs0mg"},{"bike_id":"47cb8324-2b1f-4a52-a0c2-57a12d7d64fb","system_id":"levelo_inurba_marseille","lat":43.30146,"lon":5.37416,"is_reserved":false,"is_disabled":false,"rental_uris":{"android":"levelo://app?vid=47cb8324-2b1f-4a52-a0c2-57a12d7d64fb","ios":"levelo://app?vid=47cb8324-2b1f-4a52-a0c2-57a12d7d64fb"},"vehicle_type_id":"4","last_reported":1728562616,"current_range_meters":13600,"station_id":"ce4bgs92rcd13ifvqcc0","pricing_plan_id":"cebpf4jnsgd1na2vs0mg"},{"bike_id":"809de639-a249-4730-9001-387c144bca21","system_id":"levelo_inurba_marseille","lat":43.26031,"lon":5.37547,"is_reserved":false,"is_disabled":false,"rental_uris":{"android":"levelo://app?vid=809de639-a249-4730-9001-387c144bca21","ios":"levelo://app?vid=809de639-a249-4730-9001-387c144bca21"},"vehicle_type_id":"4","last_reported":1728562616,"current_range_meters":26000,"station_id":"ce4bhgh2rcd13ifvqfa0","pricing_plan_id":"cebpf4jnsgd1na2vs0mg"},{"bike_id":"e872fc30-3c57-4a83-b46e-c9748d4c279a","system_id":"levelo_inurba_marseille","lat":43.33724,"lon":5.39198,"is_reserved":false,"is_disabled":false,"rental_uris":{"android":"levelo://app?vid=e872fc30-3c57-4a83-b46e-c9748d4c279a","ios":"levelo://app?vid=e872fc30-3c57-4a83-b46e-c9748d4c279a"},"vehicle_type_id":"4","last_reported":1728562616,"current_range_meters":26000,"station_id":"ce4bhr92rcd13ifvqhsg","pricing_plan_id":"cebpf4jnsgd1na2vs0mg"},{"bike_id":"a735667f-34a9-4dbf-8add-f8505d06f1ec","system_id":"levelo_inurba_marseille","lat":43.24071,"lon":5.37762,"is_reserved":false,"is_disabled":false,"rental_uris":{"android":"levelo://app?vid=a735667f-34a9-4dbf-8add-f8505d06f1ec","ios":"levelo://app?vid=a735667f-34a9-4dbf-8add-f8505d06f1ec"},"vehicle_type_id":"4","last_reported":1728562616,"current_range_meters":22800,"station_id":"ce4bhnp2rcd13ifvqgvg","pricing_plan_id":"cebpf4jnsgd1na2vs0mg"},{"bike_id":"af28d066-a466-4ed7-bf62-08efa15ec1ce","system_id":"levelo_inurba_marseille","lat":43.24182,"lon":5.39716,"is_reserved":false,"is_disabled":false,"rental_uris":{"android":"levelo://app?vid=af28d066-a466-4ed7-bf62-08efa15ec1ce","ios":"levelo://app?vid=af28d066-a466-4ed7-bf62-08efa15ec1ce"},"vehicle_type_id":"4","last_reported":1728562616,"current_range_meters":36400,"station_id":"ce4bhn12rcd13ifvqgpg","pricing_plan_id":"cebpf4jnsgd1na2vs0mg"},{"bike_id":"f270a049-f8dc-4d99-96c1-0f2a267e34d5","system_id":"levelo_inurba_marseille","lat":43.27057,"lon":5.40257,"is_reserved":false,"is_disabled":false,"rental_uris":{"android":"levelo://app?vid=f270a049-f8dc-4d99-96c1-0f2a267e34d5","ios":"levelo://app?vid=f270a049-f8dc-4d99-96c1-0f2a267e34d5"},"vehicle_type_id":"4","last_reported":1728562616,"current_range_meters":18000,"station_id":"ce4bhk92rcd13ifvqgc0","pricing_plan_id":"cebpf4jnsgd1na2vs0mg"},{"bike_id":"608cac91-46ad-44b9-b9d0-f2c3d0b6ae87","system_id":"levelo_inurba_marseille","lat":43.26354,"lon":5.40141,"is_reserved":false,"is_disabled":false,"rental_uris":{"android":"levelo://app?vid=608cac91-46ad-44b9-b9d0-f2c3d0b6ae87","ios":"levelo://app?vid=608cac91-46ad-44b9-b9d0-f2c3d0b6ae87"},"vehicle_type_id":"4","last_reported":1728562616,"current_range_meters":24400,"station_id":"","pricing_plan_id":"cebpf4jnsgd1na2vs0mg"},{"bike_id":"c1ada7c0-4350-43f1-b441-28d8d0e8c14a","system_id":"levelo_inurba_marseille","lat":43.288448,"lon":5.393484,"is_reserved":false,"is_disabled":false,"rental_uris":{"android":"levelo://app?vid=c1ada7c0-4350-43f1-b441-28d8d0e8c14a","ios":"levelo://app?vid=c1ada7c0-4350-43f1-b441-28d8d0e8c14a"},"vehicle_type_id":"4","last_reported":1728562616,"current_range_meters":2800,"station_id":"ce4bh2p2rcd13ifvqdi0","pricing_plan_id":"cebpf4jnsgd1na2vs0mg"},{"bike_id":"1f9a995e-2b73-4774-826d-84c269f378c7","system_id":"levelo_inurba_marseille","lat":43.279394,"lon":5.410485,"is_reserved":false,"is_disabled":false,"rental_uris":{"android":"levelo://app?vid=1f9a995e-2b73-4774-826d-84c269f378c7","ios":"levelo://app?vid=1f9a995e-2b73-4774-826d-84c269f378c7"},"vehicle_type_id":"4","last_reported":1728562616,"current_range_meters":16000,"station_id":"ce4bhnp2rcd13ifvqh0g","pricing_plan_id":"cebpf4jnsgd1na2vs0mg"},{"bike_id":"1724a986-206e-44c4-acc6-99c3f365633c","system_id":"levelo_inurba_marseille","lat":43.23191,"lon":5.3555,"is_reserved":false,"is_disabled":false,"rental_uris":{"android":"levelo://app?vid=1724a986-206e-44c4-acc6-99c3f365633c","ios":"levelo://app?vid=1724a986-206e-44c4-acc6-99c3f365633c"},"vehicle_type_id":"4","last_reported":1728562616,"current_range_meters":18800,"station_id":"ce4bhu92rcd13ifvqi70","pricing_plan_id":"cebpf4jnsgd1na2vs0mg"},{"bike_id":"3a022553-7c9c-4272-b0a0-7d5290902253","system_id":"levelo_inurba_marseille","lat":43.28157,"lon":5.42643,"is_reserved":false,"is_disabled":false,"rental_uris":{"android":"levelo://app?vid=3a022553-7c9c-4272-b0a0-7d5290902253","ios":"levelo://app?vid=3a022553-7c9c-4272-b0a0-7d5290902253"},"vehicle_type_id":"4","last_reported":1728562616,"current_range_meters":18800,"station_id":"ce4bhnh2rcd13ifvqgug","pricing_plan_id":"cebpf4jnsgd1na2vs0mg"},{"bike_id":"a76ce426-c15e-429e-a703-154566c40993","system_id":"levelo_inurba_marseille","lat":43.34144,"lon":5.40897,"is_reserved":false,"is_disabled":false,"rental_uris":{"android":"levelo://app?vid=a76ce426-c15e-429e-a703-154566c40993","ios":"levelo://app?vid=a76ce426-c15e-429e-a703-154566c40993"},"vehicle_type_id":"4","last_reported":1728562616,"current_range_meters":25200,"station_id":"ce4bhqh2rcd13ifvqhlg","pricing_plan_id":"cebpf4jnsgd1na2vs0mg"},{"bike_id":"4dbb3b7a-0455-4b32-b274-a26e632ee998","system_id":"levelo_inurba_marseille","lat":43.28348,"lon":5.38109,"is_reserved":false,"is_disabled":false,"rental_uris":{"android":"levelo://app?vid=4dbb3b7a-0455-4b32-b274-a26e632ee998","ios":"levelo://app?vid=4dbb3b7a-0455-4b32-b274-a26e632ee998"},"vehicle_type_id":"4","last_reported":1728562616,"current_range_meters":9200,"station_id":"ce4bh412rcd13ifvqdr0","pricing_plan_id":"cebpf4jnsgd1na2vs0mg"},{"bike_id":"134ad89e-35dc-4ea2-af93-32abe6a60317","system_id":"levelo_inurba_marseille","lat":43.3414,"lon":5.40904,"is_reserved":false,"is_disabled":false,"rental_uris":{"android":"levelo://app?vid=134ad89e-35dc-4ea2-af93-32abe6a60317","ios":"levelo://app?vid=134ad89e-35dc-4ea2-af93-32abe6a60317"},"vehicle_type_id":"4","last_reported":1728562616,"current_range_meters":11200,"station_id":"ce4bhqh2rcd13ifvqhlg","pricing_plan_id":"cebpf4jnsgd1na2vs0mg"},{"bike_id":"8a7415c6-39f7-4f37-94f0-88a9817a2b55","system_id":"levelo_inurba_marseille","lat":43.28355,"lon":5.38096,"is_reserved":false,"is_disabled":false,"rental_uris":{"android":"levelo://app?vid=8a7415c6-39f7-4f37-94f0-88a9817a2b55","ios":"levelo://app?vid=8a7415c6-39f7-4f37-94f0-88a9817a2b55"},"vehicle_type_id":"4","last_reported":1728562616,"current_range_meters":22400,"station_id":"ce4bh412rcd13ifvqdr0","pricing_plan_id":"cebpf4jnsgd1na2vs0mg"},{"bike_id":"ff98fd80-540f-4f68-8483-3e3d7a1b7c84","system_id":"levelo_inurba_marseille","lat":43.2917,"lon":5.37163,"is_reserved":false,"is_disabled":false,"rental_uris":{"android":"levelo://app?vid=ff98fd80-540f-4f68-8483-3e3d7a1b7c84","ios":"levelo://app?vid=ff98fd80-540f-4f68-8483-3e3d7a1b7c84"},"vehicle_type_id":"4","last_reported":1728562616,"current_range_meters":24400,"station_id":"ce4bha92rcd13ifvqeh0","pricing_plan_id":"cebpf4jnsgd1na2vs0mg"},{"bike_id":"fb8ae3ef-9adf-4797-a2bf-02fadb0d8547","system_id":"levelo_inurba_marseille","lat":43.29897,"lon":5.3892,"is_reserved":false,"is_disabled":false,"rental_uris":{"android":"levelo://app?vid=fb8ae3ef-9adf-4797-a2bf-02fadb0d8547","ios":"levelo://app?vid=fb8ae3ef-9adf-4797-a2bf-02fadb0d8547"},"vehicle_type_id":"4","last_reported":1728562616,"current_range_meters":34800,"station_id":"ce4bh392rcd13ifvqdl0","pricing_plan_id":"cebpf4jnsgd1na2vs0mg"},{"bike_id":"47599fab-79da-461f-89fd-43d1d10b8a6d","system_id":"levelo_inurba_marseille","lat":43.23156,"lon":5.4371,"is_reserved":false,"is_disabled":false,"rental_uris":{"android":"levelo://app?vid=47599fab-79da-461f-89fd-43d1d10b8a6d","ios":"levelo://app?vid=47599fab-79da-461f-89fd-43d1d10b8a6d"},"vehicle_type_id":"4","last_reported":1728562616,"current_range_meters":40000,"station_id":"ce4bhmp2rcd13ifvqgog","pricing_plan_id":"cebpf4jnsgd1na2vs0mg"},{"bike_id":"dd97d71e-ea8a-4810-b278-02423bc1b8d4","system_id":"levelo_inurba_marseille","lat":43.29623,"lon":5.37161,"is_reserved":false,"is_disabled":false,"rental_uris":{"android":"levelo://app?vid=dd97d71e-ea8a-4810-b278-02423bc1b8d4","ios":"levelo://app?vid=dd97d71e-ea8a-4810-b278-02423bc1b8d4"},"vehicle_type_id":"4","last_reported":1728562616,"current_range_meters":27600,"station_id":"ce4bgnh2rcd13ifvqc0g","pricing_plan_id":"cebpf4jnsgd1na2vs0mg"},{"bike_id":"c2709d8c-182c-4c66-9678-32143d413767","system_id":"levelo_inurba_marseille","lat":43.22936,"lon":5.35378,"is_reserved":false,"is_disabled":false,"rental_uris":{"android":"levelo://app?vid=c2709d8c-182c-4c66-9678-32143d413767","ios":"levelo://app?vid=c2709d8c-182c-4c66-9678-32143d413767"},"vehicle_type_id":"4","last_reported":1728562616,"current_range_meters":36800,"station_id":"cpo3532slgdg3j2ikp40","pricing_plan_id":"cebpf4jnsgd1na2vs0mg"},{"bike_id":"88ba209f-8f8d-4d3b-867b-c4223dba5e89","system_id":"levelo_inurba_marseille","lat":43.24658,"lon":5.38144,"is_reserved":false,"is_disabled":false,"rental_uris":{"android":"levelo://app?vid=88ba209f-8f8d-4d3b-867b-c4223dba5e89","ios":"levelo://app?vid=88ba209f-8f8d-4d3b-867b-c4223dba5e89"},"vehicle_type_id":"4","last_reported":1728562616,"current_range_meters":27200,"station_id":"ce4bhih2rcd13ifvqfr0","pricing_plan_id":"cebpf4jnsgd1na2vs0mg"},{"bike_id":"de2dd694-c4fe-46e4-b95b-bf6142172245","system_id":"levelo_inurba_marseille","lat":43.2657,"lon":5.39,"is_reserved":false,"is_disabled":false,"rental_uris":{"android":"levelo://app?vid=de2dd694-c4fe-46e4-b95b-bf6142172245","ios":"levelo://app?vid=de2dd694-c4fe-46e4-b95b-bf6142172245"},"vehicle_type_id":"4","last_reported":1728562616,"current_range_meters":26800,"station_id":"ce4bhe12rcd13ifvqf30","pricing_plan_id":"cebpf4jnsgd1na2vs0mg"},{"bike_id":"82277a24-4395-4488-8954-30bbc445482e","system_id":"levelo_inurba_marseille","lat":43.276611,"lon":5.388677,"is_reserved":false,"is_disabled":false,"rental_uris":{"android":"levelo://app?vid=82277a24-4395-4488-8954-30bbc445482e","ios":"levelo://app?vid=82277a24-4395-4488-8954-30bbc445482e"},"vehicle_type_id":"4","last_reported":1728562616,"current_range_meters":28400,"station_id":"ce4bhi12rcd13ifvqfo0","pricing_plan_id":"cebpf4jnsgd1na2vs0mg"},{"bike_id":"b2552648-98a2-4061-bc7e-a6e41c253e8d","system_id":"levelo_inurba_marseille","lat":43.291,"lon":5.38787,"is_reserved":false,"is_disabled":false,"rental_uris":{"android":"levelo://app?vid=b2552648-98a2-4061-bc7e-a6e41c253e8d","ios":"levelo://app?vid=b2552648-98a2-4061-bc7e-a6e41c253e8d"},"vehicle_type_id":"4","last_reported":1728562616,"current_range_meters":8400,"station_id":"ce4bgj92rcd13ifvqbd0","pricing_plan_id":"cebpf4jnsgd1na2vs0mg"},{"bike_id":"f4d16d74-9f5d-4324-bee1-48b07e6d7978","system_id":"levelo_inurba_marseille","lat":43.32657,"lon":5.40989,"is_reserved":false,"is_disabled":false,"rental_uris":{"android":"levelo://app?vid=f4d16d74-9f5d-4324-bee1-48b07e6d7978","ios":"levelo://app?vid=f4d16d74-9f5d-4324-bee1-48b07e6d7978"},"vehicle_type_id":"4","last_reported":1728562616,"current_range_meters":36800,"station_id":"ce4bhpp2rcd13ifvqhgg","pricing_plan_id":"cebpf4jnsgd1na2vs0mg"},{"bike_id":"a6703398-625b-4c2d-a276-a156eeb4f241","system_id":"levelo_inurba_marseille","lat":43.29077,"lon":5.37158,"is_reserved":false,"is_disabled":false,"rental_uris":{"android":"levelo://app?vid=a6703398-625b-4c2d-a276-a156eeb4f241","ios":"levelo://app?vid=a6703398-625b-4c2d-a276-a156eeb4f241"},"vehicle_type_id":"4","last_reported":1728562616,"current_range_meters":12400,"station_id":"ce4bh5p2rcd13ifvqe4g","pricing_plan_id":"cebpf4jnsgd1na2vs0mg"},{"bike_id":"191f894c-5ec4-4bb3-adfc-c821a49bd142","system_id":"levelo_inurba_marseille","lat":43.32475,"lon":5.36561,"is_reserved":false,"is_disabled":false,"rental_uris":{"android":"levelo://app?vid=191f894c-5ec4-4bb3-adfc-c821a49bd142","ios":"levelo://app?vid=191f894c-5ec4-4bb3-adfc-c821a49bd142"},"vehicle_type_id":"4","last_reported":1728562616,"current_range_meters":30000,"station_id":"ce4bhs12rcd13ifvqhvg","pricing_plan_id":"cebpf4jnsgd1na2vs0mg"},{"bike_id":"f92a9fb8-9f73-4cf9-bc9b-2bdf5b520248","system_id":"levelo_inurba_marseille","lat":43.325432,"lon":5.414423,"is_reserved":false,"is_disabled":false,"rental_uris":{"android":"levelo://app?vid=f92a9fb8-9f73-4cf9-bc9b-2bdf5b520248","ios":"levelo://app?vid=f92a9fb8-9f73-4cf9-bc9b-2bdf5b520248"},"vehicle_type_id":"4","last_reported":1728562616,"current_range_meters":38800,"station_id":"ce4bhq12rcd13ifvqhhg","pricing_plan_id":"cebpf4jnsgd1na2vs0mg"},{"bike_id":"4c57c060-1d66-4150-a400-d403f0d4484f","system_id":"levelo_inurba_marseille","lat":43.3266,"lon":5.40984,"is_reserved":false,"is_disabled":false,"rental_uris":{"android":"levelo://app?vid=4c57c060-1d66-4150-a400-d403f0d4484f","ios":"levelo://app?vid=4c57c060-1d66-4150-a400-d403f0d4484f"},"vehicle_type_id":"4","last_reported":1728562616,"current_range_meters":3600,"station_id":"ce4bhpp2rcd13ifvqhgg","pricing_plan_id":"cebpf4jnsgd1na2vs0mg"},{"bike_id":"252fdafd-d8bd-4445-933f-8c7cfafc9fac","system_id":"levelo_inurba_marseille","lat":43.24806,"lon":5.37456,"is_reserved":false,"is_disabled":false,"rental_uris":{"android":"levelo://app?vid=252fdafd-d8bd-4445-933f-8c7cfafc9fac","ios":"levelo://app?vid=252fdafd-d8bd-4445-933f-8c7cfafc9fac"},"vehicle_type_id":"4","last_reported":1728562616,"current_range_meters":38000,"station_id":"ce4bhgh2rcd13ifvqfb0","pricing_plan_id":"cebpf4jnsgd1na2vs0mg"},{"bike_id":"28054dd0-b0c0-47ba-a869-a40f3bc708a4","system_id":"levelo_inurba_marseille","lat":43.24085,"lon":5.37756,"is_reserved":false,"is_disabled":false,"rental_uris":{"android":"levelo://app?vid=28054dd0-b0c0-47ba-a869-a40f3bc708a4","ios":"levelo://app?vid=28054dd0-b0c0-47ba-a869-a40f3bc708a4"},"vehicle_type_id":"4","last_reported":1728562616,"current_range_meters":18000,"station_id":"ce4bhnp2rcd13ifvqgvg","pricing_plan_id":"cebpf4jnsgd1na2vs0mg"},{"bike_id":"50aa4af7-94b4-48c9-959d-eeec3eaec001","system_id":"levelo_inurba_marseille","lat":43.2319,"lon":5.35544,"is_reserved":false,"is_disabled":false,"rental_uris":{"android":"levelo://app?vid=50aa4af7-94b4-48c9-959d-eeec3eaec001","ios":"levelo://app?vid=50aa4af7-94b4-48c9-959d-eeec3eaec001"},"vehicle_type_id":"4","last_reported":1728562616,"current_range_meters":8000,"station_id":"ce4bhu92rcd13ifvqi70","pricing_plan_id":"cebpf4jnsgd1na2vs0mg"},{"bike_id":"353b8ff1-1e98-4bd6-b70d-e209819de014","system_id":"levelo_inurba_marseille","lat":43.279144,"lon":5.39575,"is_reserved":false,"is_disabled":false,"rental_uris":{"android":"levelo://app?vid=353b8ff1-1e98-4bd6-b70d-e209819de014","ios":"levelo://app?vid=353b8ff1-1e98-4bd6-b70d-e209819de014"},"vehicle_type_id":"4","last_reported":1728562616,"current_range_meters":38800,"station_id":"ce4bhf92rcd13ifvqf40","pricing_plan_id":"cebpf4jnsgd1na2vs0mg"},{"bike_id":"c96defb2-6ec8-4baf-b266-dca94c1fc54e","system_id":"levelo_inurba_marseille","lat":43.30093,"lon":5.3908,"is_reserved":false,"is_disabled":false,"rental_uris":{"android":"levelo://app?vid=c96defb2-6ec8-4baf-b266-dca94c1fc54e","ios":"levelo://app?vid=c96defb2-6ec8-4baf-b266-dca94c1fc54e"},"vehicle_type_id":"4","last_reported":1728562616,"current_range_meters":38400,"station_id":"ce4bh192rcd13ifvqdb0","pricing_plan_id":"cebpf4jnsgd1na2vs0mg"},{"bike_id":"69be46f3-df63-40a8-9d65-2993b33ab7f6","system_id":"levelo_inurba_marseille","lat":43.30185,"lon":5.37267,"is_reserved":false,"is_disabled":false,"rental_uris":{"android":"levelo://app?vid=69be46f3-df63-40a8-9d65-2993b33ab7f6","ios":"levelo://app?vid=69be46f3-df63-40a8-9d65-2993b33ab7f6"},"vehicle_type_id":"4","last_reported":1728562616,"current_range_meters":38800,"station_id":"ce4bgup2rcd13ifvqcn0","pricing_plan_id":"cebpf4jnsgd1na2vs0mg"},{"bike_id":"5fcb97b9-d425-4a7f-9ed0-6de30a7d55a1","system_id":"levelo_inurba_marseille","lat":43.24804,"lon":5.37461,"is_reserved":false,"is_disabled":false,"rental_uris":{"android":"levelo://app?vid=5fcb97b9-d425-4a7f-9ed0-6de30a7d55a1","ios":"levelo://app?vid=5fcb97b9-d425-4a7f-9ed0-6de30a7d55a1"},"vehicle_type_id":"4","last_reported":1728562616,"current_range_meters":39200,"station_id":"ce4bhgh2rcd13ifvqfb0","pricing_plan_id":"cebpf4jnsgd1na2vs0mg"},{"bike_id":"eb0311ff-248c-4da5-a47c-f254b60ac6cf","system_id":"levelo_inurba_marseille","lat":43.28397,"lon":5.37519,"is_reserved":false,"is_disabled":false,"rental_uris":{"android":"levelo://app?vid=eb0311ff-248c-4da5-a47c-f254b60ac6cf","ios":"levelo://app?vid=eb0311ff-248c-4da5-a47c-f254b60ac6cf"},"vehicle_type_id":"4","last_reported":1728562616,"current_range_meters":20800,"station_id":"ce4bh412rcd13ifvqds0","pricing_plan_id":"cebpf4jnsgd1na2vs0mg"},{"bike_id":"7274c345-d7a9-467d-9462-1eb121981e8d","system_id":"levelo_inurba_marseille","lat":43.31279,"lon":5.40176,"is_reserved":false,"is_disabled":false,"rental_uris":{"android":"levelo://app?vid=7274c345-d7a9-467d-9462-1eb121981e8d","ios":"levelo://app?vid=7274c345-d7a9-467d-9462-1eb121981e8d"},"vehicle_type_id":"4","last_reported":1728562616,"current_range_meters":4000,"station_id":"ce4bh092rcd13ifvqd30","pricing_plan_id":"cebpf4jnsgd1na2vs0mg"},{"bike_id":"56ecf21c-3d10-448d-9b95-1677bceaea70","system_id":"levelo_inurba_marseille","lat":43.28933,"lon":5.36641,"is_reserved":false,"is_disabled":false,"rental_uris":{"android":"levelo://app?vid=56ecf21c-3d10-448d-9b95-1677bceaea70","ios":"levelo://app?vid=56ecf21c-3d10-448d-9b95-1677bceaea70"},"vehicle_type_id":"4","last_reported":1728562616,"current_range_meters":18800,"station_id":"ce4bhap2rcd13ifvqek0","pricing_plan_id":"cebpf4jnsgd1na2vs0mg"},{"bike_id":"305b3e29-7f82-4025-ab91-18976e5da88e","system_id":"levelo_inurba_marseille","lat":43.27577,"lon":5.38409,"is_reserved":false,"is_disabled":false,"rental_uris":{"android":"levelo://app?vid=305b3e29-7f82-4025-ab91-18976e5da88e","ios":"levelo://app?vid=305b3e29-7f82-4025-ab91-18976e5da88e"},"vehicle_type_id":"4","last_reported":1728562616,"current_range_meters":34800,"station_id":"ce4bhh92rcd13ifvqfi0","pricing_plan_id":"cebpf4jnsgd1na2vs0mg"},{"bike_id":"aef72e73-4a6a-4a03-9d6a-8b952f9ab283","system_id":"levelo_inurba_marseille","lat":43.29916,"lon":5.37474,"is_reserved":false,"is_disabled":false,"rental_uris":{"android":"levelo://app?vid=aef72e73-4a6a-4a03-9d6a-8b952f9ab283","ios":"levelo://app?vid=aef72e73-4a6a-4a03-9d6a-8b952f9ab283"},"vehicle_type_id":"4","last_reported":1728562616,"current_range_meters":25200,"station_id":"ce4bgjh2rcd13ifvqbg0","pricing_plan_id":"cebpf4jnsgd1na2vs0mg"},{"bike_id":"1fbd99dc-290a-407f-95ae-cfd5ef57cfd0","system_id":"levelo_inurba_marseille","lat":43.28491,"lon":5.38416,"is_reserved":false,"is_disabled":false,"rental_uris":{"android":"levelo://app?vid=1fbd99dc-290a-407f-95ae-cfd5ef57cfd0","ios":"levelo://app?vid=1fbd99dc-290a-407f-95ae-cfd5ef57cfd0"},"vehicle_type_id":"4","last_reported":1728562616,"current_range_meters":9200,"station_id":"ce4bh512rcd13ifvqe3g","pricing_plan_id":"cebpf4jnsgd1na2vs0mg"},{"bike_id":"00324f67-ac7a-47c1-bfb0-d968e45866ab","system_id":"levelo_inurba_marseille","lat":43.3153,"lon":5.38036,"is_reserved":false,"is_disabled":false,"rental_uris":{"android":"levelo://app?vid=00324f67-ac7a-47c1-bfb0-d968e45866ab","ios":"levelo://app?vid=00324f67-ac7a-47c1-bfb0-d968e45866ab"},"vehicle_type_id":"4","last_reported":1728562616,"current_range_meters":32000,"station_id":"ce4bhsp2rcd13ifvqi50","pricing_plan_id":"cebpf4jnsgd1na2vs0mg"},{"bike_id":"1ace4770-c07d-421e-bb6e-c22d9aa63e7f","system_id":"levelo_inurba_marseille","lat":43.27494,"lon":5.42447,"is_reserved":false,"is_disabled":false,"rental_uris":{"android":"levelo://app?vid=1ace4770-c07d-421e-bb6e-c22d9aa63e7f","ios":"levelo://app?vid=1ace4770-c07d-421e-bb6e-c22d9aa63e7f"},"vehicle_type_id":"4","last_reported":1728562616,"current_range_meters":19600,"station_id":"ce4bhn92rcd13ifvqgrg","pricing_plan_id":"cebpf4jnsgd1na2vs0mg"},{"bike_id":"ff68b789-7173-415f-860f-fb58c1b9d01d","system_id":"levelo_inurba_marseille","lat":43.22928,"lon":5.35376,"is_reserved":false,"is_disabled":false,"rental_uris":{"android":"levelo://app?vid=ff68b789-7173-415f-860f-fb58c1b9d01d","ios":"levelo://app?vid=ff68b789-7173-415f-860f-fb58c1b9d01d"},"vehicle_type_id":"4","last_reported":1728562616,"current_range_meters":36400,"station_id":"cpo3532slgdg3j2ikp40","pricing_plan_id":"cebpf4jnsgd1na2vs0mg"},{"bike_id":"38f8f19e-23b7-4c95-86b1-7ac25a143011","system_id":"levelo_inurba_marseille","lat":43.29804,"lon":5.38104,"is_reserved":false,"is_disabled":false,"rental_uris":{"android":"levelo://app?vid=38f8f19e-23b7-4c95-86b1-7ac25a143011","ios":"levelo://app?vid=38f8f19e-23b7-4c95-86b1-7ac25a143011"},"vehicle_type_id":"4","last_reported":1728562616,"current_range_meters":19200,"station_id":"ce4bgip2rcd13ifvqbb0","pricing_plan_id":"cebpf4jnsgd1na2vs0mg"},{"bike_id":"924a9ed1-ca4e-44c4-a003-5955b143b28c","system_id":"levelo_inurba_marseille","lat":43.23201,"lon":5.35548,"is_reserved":false,"is_disabled":false,"rental_uris":{"android":"levelo://app?vid=924a9ed1-ca4e-44c4-a003-5955b143b28c","ios":"levelo://app?vid=924a9ed1-ca4e-44c4-a003-5955b143b28c"},"vehicle_type_id":"4","last_reported":1728562616,"current_range_meters":10800,"station_id":"ce4bhu92rcd13ifvqi70","pricing_plan_id":"cebpf4jnsgd1na2vs0mg"},{"bike_id":"567ea70e-4e3e-4de3-8c98-ac409dc6caa0","system_id":"levelo_inurba_marseille","lat":43.27056,"lon":5.40261,"is_reserved":false,"is_disabled":false,"rental_uris":{"android":"levelo://app?vid=567ea70e-4e3e-4de3-8c98-ac409dc6caa0","ios":"levelo://app?vid=567ea70e-4e3e-4de3-8c98-ac409dc6caa0"},"vehicle_type_id":"4","last_reported":1728562616,"current_range_meters":23200,"station_id":"ce4bhk92rcd13ifvqgc0","pricing_plan_id":"cebpf4jnsgd1na2vs0mg"},{"bike_id":"574df6f9-29fe-4887-9661-d869019aafd0","system_id":"levelo_inurba_marseille","lat":43.30294,"lon":5.37694,"is_reserved":false,"is_disabled":false,"rental_uris":{"android":"levelo://app?vid=574df6f9-29fe-4887-9661-d869019aafd0","ios":"levelo://app?vid=574df6f9-29fe-4887-9661-d869019aafd0"},"vehicle_type_id":"4","last_reported":1728562616,"current_range_meters":21600,"station_id":"ce4bguh2rcd13ifvqcj0","pricing_plan_id":"cebpf4jnsgd1na2vs0mg"},{"bike_id":"2c35604b-b396-4f9a-ab50-7f39e860f30f","system_id":"levelo_inurba_marseille","lat":43.266022,"lon":5.381733,"is_reserved":false,"is_disabled":false,"rental_uris":{"android":"levelo://app?vid=2c35604b-b396-4f9a-ab50-7f39e860f30f","ios":"levelo://app?vid=2c35604b-b396-4f9a-ab50-7f39e860f30f"},"vehicle_type_id":"4","last_reported":1728562616,"current_range_meters":8800,"station_id":"ce4bhg92rcd13ifvqf90","pricing_plan_id":"cebpf4jnsgd1na2vs0mg"},{"bike_id":"fc34a4c2-5dda-43dc-8c76-0302a62a6427","system_id":"levelo_inurba_marseille","lat":43.23191,"lon":5.35558,"is_reserved":false,"is_disabled":false,"rental_uris":{"android":"levelo://app?vid=fc34a4c2-5dda-43dc-8c76-0302a62a6427","ios":"levelo://app?vid=fc34a4c2-5dda-43dc-8c76-0302a62a6427"},"vehicle_type_id":"4","last_reported":1728562616,"current_range_meters":36400,"station_id":"ce4bhu92rcd13ifvqi70","pricing_plan_id":"cebpf4jnsgd1na2vs0mg"},{"bike_id":"da598d20-11f9-4c29-a4d8-c18c24892f8d","system_id":"levelo_inurba_marseille","lat":43.26559,"lon":5.37287,"is_reserved":false,"is_disabled":false,"rental_uris":{"android":"levelo://app?vid=da598d20-11f9-4c29-a4d8-c18c24892f8d","ios":"levelo://app?vid=da598d20-11f9-4c29-a4d8-c18c24892f8d"},"vehicle_type_id":"4","last_reported":1728562616,"current_range_meters":18800,"station_id":"ce4bhg12rcd13ifvqf70","pricing_plan_id":"cebpf4jnsgd1na2vs0mg"},{"bike_id":"260c037a-f04c-4fdd-b643-5f90fa46d356","system_id":"levelo_inurba_marseille","lat":43.293549,"lon":5.385715,"is_reserved":false,"is_disabled":false,"rental_uris":{"android":"levelo://app?vid=260c037a-f04c-4fdd-b643-5f90fa46d356","ios":"levelo://app?vid=260c037a-f04c-4fdd-b643-5f90fa46d356"},"vehicle_type_id":"4","last_reported":1728562616,"current_range_meters":32800,"station_id":"ce4bha12rcd13ifvqef0","pricing_plan_id":"cebpf4jnsgd1na2vs0mg"},{"bike_id":"6966b684-b0d5-41cd-9639-d1a3fbb7e45e","system_id":"levelo_inurba_marseille","lat":43.31356,"lon":5.36698,"is_reserved":false,"is_disabled":false,"rental_uris":{"android":"levelo://app?vid=6966b684-b0d5-41cd-9639-d1a3fbb7e45e","ios":"levelo://app?vid=6966b684-b0d5-41cd-9639-d1a3fbb7e45e"},"vehicle_type_id":"4","last_reported":1728562616,"current_range_meters":24400,"station_id":"ce4bgr92rcd13ifvqc6g","pricing_plan_id":"cebpf4jnsgd1na2vs0mg"},{"bike_id":"9a2e5300-ca56-49e4-8162-d2dfff650c1f","system_id":"levelo_inurba_marseille","lat":43.29254,"lon":5.40902,"is_reserved":false,"is_disabled":false,"rental_uris":{"android":"levelo://app?vid=9a2e5300-ca56-49e4-8162-d2dfff650c1f","ios":"levelo://app?vid=9a2e5300-ca56-49e4-8162-d2dfff650c1f"},"vehicle_type_id":"4","last_reported":1728562616,"current_range_meters":6400,"station_id":"ce4bh192rcd13ifvqdc0","pricing_plan_id":"cebpf4jnsgd1na2vs0mg"},{"bike_id":"de995471-d3cb-42e4-9129-25c082bad95f","system_id":"levelo_inurba_marseille","lat":43.28439,"lon":5.39185,"is_reserved":false,"is_disabled":false,"rental_uris":{"android":"levelo://app?vid=de995471-d3cb-42e4-9129-25c082bad95f","ios":"levelo://app?vid=de995471-d3cb-42e4-9129-25c082bad95f"},"vehicle_type_id":"4","last_reported":1728562616,"current_range_meters":12800,"station_id":"ce4bhoh2rcd13ifvqh5g","pricing_plan_id":"cebpf4jnsgd1na2vs0mg"},{"bike_id":"c77685eb-1614-48a5-8291-4bf7ec0e3201","system_id":"levelo_inurba_marseille","lat":43.27494,"lon":5.4245,"is_reserved":false,"is_disabled":false,"rental_uris":{"android":"levelo://app?vid=c77685eb-1614-48a5-8291-4bf7ec0e3201","ios":"levelo://app?vid=c77685eb-1614-48a5-8291-4bf7ec0e3201"},"vehicle_type_id":"4","last_reported":1728562616,"current_range_meters":16400,"station_id":"ce4bhn92rcd13ifvqgrg","pricing_plan_id":"cebpf4jnsgd1na2vs0mg"},{"bike_id":"a4cd396e-16d6-413e-a86a-98b496242189","system_id":"levelo_inurba_marseille","lat":43.28662,"lon":5.38651,"is_reserved":false,"is_disabled":false,"rental_uris":{"android":"levelo://app?vid=a4cd396e-16d6-413e-a86a-98b496242189","ios":"levelo://app?vid=a4cd396e-16d6-413e-a86a-98b496242189"},"vehicle_type_id":"4","last_reported":1728562616,"current_range_meters":30400,"station_id":"ce4bh492rcd13ifvqdug","pricing_plan_id":"cebpf4jnsgd1na2vs0mg"},{"bike_id":"2740e2b0-85bf-4760-a284-4aa5ea5dd6a5","system_id":"levelo_inurba_marseille","lat":43.25819,"lon":5.3943,"is_reserved":false,"is_disabled":false,"rental_uris":{"android":"levelo://app?vid=2740e2b0-85bf-4760-a284-4aa5ea5dd6a5","ios":"levelo://app?vid=2740e2b0-85bf-4760-a284-4aa5ea5dd6a5"},"vehicle_type_id":"4","last_reported":1728562616,"current_range_meters":10000,"station_id":"ce4bhip2rcd13ifvqft0","pricing_plan_id":"cebpf4jnsgd1na2vs0mg"},{"bike_id":"2f257960-af3e-4af5-9ae1-9db1e2582362","system_id":"levelo_inurba_marseille","lat":43.23185,"lon":5.39981,"is_reserved":false,"is_disabled":false,"rental_uris":{"android":"levelo://app?vid=2f257960-af3e-4af5-9ae1-9db1e2582362","ios":"levelo://app?vid=2f257960-af3e-4af5-9ae1-9db1e2582362"},"vehicle_type_id":"4","last_reported":1728562616,"current_range_meters":26800,"station_id":"ce4bhn12rcd13ifvqgqg","pricing_plan_id":"cebpf4jnsgd1na2vs0mg"},{"bike_id":"4e4e7083-89bd-4f48-a4f6-01f4a7d2fcc0","system_id":"levelo_inurba_marseille","lat":43.3415,"lon":5.40908,"is_reserved":false,"is_disabled":false,"rental_uris":{"android":"levelo://app?vid=4e4e7083-89bd-4f48-a4f6-01f4a7d2fcc0","ios":"levelo://app?vid=4e4e7083-89bd-4f48-a4f6-01f4a7d2fcc0"},"vehicle_type_id":"4","last_reported":1728562616,"current_range_meters":38400,"station_id":"ce4bhqh2rcd13ifvqhlg","pricing_plan_id":"cebpf4jnsgd1na2vs0mg"},{"bike_id":"423b2a18-8acf-40c1-8b87-a7ec182cc06e","system_id":"levelo_inurba_marseille","lat":43.28101,"lon":5.37836,"is_reserved":false,"is_disabled":false,"rental_uris":{"android":"levelo://app?vid=423b2a18-8acf-40c1-8b87-a7ec182cc06e","ios":"levelo://app?vid=423b2a18-8acf-40c1-8b87-a7ec182cc06e"},"vehicle_type_id":"4","last_reported":1728562616,"current_range_meters":30000,"station_id":"ce4bha12rcd13ifvqee0","pricing_plan_id":"cebpf4jnsgd1na2vs0mg"},{"bike_id":"a794ebf7-427a-458c-bf85-3010dcd8f1a5","system_id":"levelo_inurba_marseille","lat":43.299362,"lon":5.365626,"is_reserved":false,"is_disabled":false,"rental_uris":{"android":"levelo://app?vid=a794ebf7-427a-458c-bf85-3010dcd8f1a5","ios":"levelo://app?vid=a794ebf7-427a-458c-bf85-3010dcd8f1a5"},"vehicle_type_id":"4","last_reported":1728562616,"current_range_meters":38800,"station_id":"ce4bgm92rcd13ifvqbr0","pricing_plan_id":"cebpf4jnsgd1na2vs0mg"},{"bike_id":"1a16931a-4862-4442-a448-a68ebfa7217d","system_id":"levelo_inurba_marseille","lat":43.26501,"lon":5.39539,"is_reserved":false,"is_disabled":false,"rental_uris":{"android":"levelo://app?vid=1a16931a-4862-4442-a448-a68ebfa7217d","ios":"levelo://app?vid=1a16931a-4862-4442-a448-a68ebfa7217d"},"vehicle_type_id":"4","last_reported":1728562616,"current_range_meters":16800,"station_id":"ce4bhi12rcd13ifvqfq0","pricing_plan_id":"cebpf4jnsgd1na2vs0mg"},{"bike_id":"46f3565b-c947-41b1-ac9c-41f46878b5bc","system_id":"levelo_inurba_marseille","lat":43.29843,"lon":5.3628,"is_reserved":false,"is_disabled":false,"rental_uris":{"android":"levelo://app?vid=46f3565b-c947-41b1-ac9c-41f46878b5bc","ios":"levelo://app?vid=46f3565b-c947-41b1-ac9c-41f46878b5bc"},"vehicle_type_id":"4","last_reported":1728562616,"current_range_meters":30000,"station_id":"ce4bgpp2rcd13ifvqc3g","pricing_plan_id":"cebpf4jnsgd1na2vs0mg"},{"bike_id":"02893b5b-0a93-438a-9734-9eff91df5c62","system_id":"levelo_inurba_marseille","lat":43.24391,"lon":5.37062,"is_reserved":false,"is_disabled":false,"rental_uris":{"android":"levelo://app?vid=02893b5b-0a93-438a-9734-9eff91df5c62","ios":"levelo://app?vid=02893b5b-0a93-438a-9734-9eff91df5c62"},"vehicle_type_id":"4","last_reported":1728562616,"current_range_meters":28400,"station_id":"ce4bhhh2rcd13ifvqfk0","pricing_plan_id":"cebpf4jnsgd1na2vs0mg"},{"bike_id":"f90ca49f-87e5-4ffa-83bf-89fbe4726d17","system_id":"levelo_inurba_marseille","lat":43.23194,"lon":5.35541,"is_reserved":false,"is_disabled":false,"rental_uris":{"android":"levelo://app?vid=f90ca49f-87e5-4ffa-83bf-89fbe4726d17","ios":"levelo://app?vid=f90ca49f-87e5-4ffa-83bf-89fbe4726d17"},"vehicle_type_id":"4","last_reported":1728562616,"current_range_meters":36400,"station_id":"ce4bhu92rcd13ifvqi70","pricing_plan_id":"cebpf4jnsgd1na2vs0mg"},{"bike_id":"ad04c1a5-c229-47ec-8622-0656453fe0d0","system_id":"levelo_inurba_marseille","lat":43.33021,"lon":5.39048,"is_reserved":false,"is_disabled":false,"rental_uris":{"android":"levelo://app?vid=ad04c1a5-c229-47ec-8622-0656453fe0d0","ios":"levelo://app?vid=ad04c1a5-c229-47ec-8622-0656453fe0d0"},"vehicle_type_id":"4","last_reported":1728562616,"current_range_meters":30400,"station_id":"ce4bhr92rcd13ifvqhrg","pricing_plan_id":"cebpf4jnsgd1na2vs0mg"},{"bike_id":"28f3fa5e-29aa-4eb1-8b22-08a2771b6654","system_id":"levelo_inurba_marseille","lat":43.29856,"lon":5.3629,"is_reserved":false,"is_disabled":false,"rental_uris":{"android":"levelo://app?vid=28f3fa5e-29aa-4eb1-8b22-08a2771b6654","ios":"levelo://app?vid=28f3fa5e-29aa-4eb1-8b22-08a2771b6654"},"vehicle_type_id":"4","last_reported":1728562616,"current_range_meters":2000,"station_id":"ce4bgpp2rcd13ifvqc3g","pricing_plan_id":"cebpf4jnsgd1na2vs0mg"},{"bike_id":"c31288d9-b173-4e41-8a50-ff2b42963e4d","system_id":"levelo_inurba_marseille","lat":43.33779,"lon":5.37428,"is_reserved":false,"is_disabled":false,"rental_uris":{"android":"levelo://app?vid=c31288d9-b173-4e41-8a50-ff2b42963e4d","ios":"levelo://app?vid=c31288d9-b173-4e41-8a50-ff2b42963e4d"},"vehicle_type_id":"4","last_reported":1728562616,"current_range_meters":38800,"station_id":"ce4rr2p2rcd13i802rgg","pricing_plan_id":"cebpf4jnsgd1na2vs0mg"},{"bike_id":"993fc4b5-55b7-44eb-aa66-a2c70395fabc","system_id":"levelo_inurba_marseille","lat":43.29025,"lon":5.3863,"is_reserved":false,"is_disabled":false,"rental_uris":{"android":"levelo://app?vid=993fc4b5-55b7-44eb-aa66-a2c70395fabc","ios":"levelo://app?vid=993fc4b5-55b7-44eb-aa66-a2c70395fabc"},"vehicle_type_id":"4","last_reported":1728562616,"current_range_meters":38000,"station_id":"ce4bh4p2rcd13ifvqe0g","pricing_plan_id":"cebpf4jnsgd1na2vs0mg"},{"bike_id":"875bda1c-d797-4d05-a40d-fe4fe9d193b7","system_id":"levelo_inurba_marseille","lat":43.30549,"lon":5.36525,"is_reserved":false,"is_disabled":false,"rental_uris":{"android":"levelo://app?vid=875bda1c-d797-4d05-a40d-fe4fe9d193b7","ios":"levelo://app?vid=875bda1c-d797-4d05-a40d-fe4fe9d193b7"},"vehicle_type_id":"4","last_reported":1728562616,"current_range_meters":38800,"station_id":"ce4bgs12rcd13ifvqcag","pricing_plan_id":"cebpf4jnsgd1na2vs0mg"},{"bike_id":"2bcc9acd-1eff-4361-b58a-db8368c80d3e","system_id":"levelo_inurba_marseille","lat":43.2894,"lon":5.36384,"is_reserved":false,"is_disabled":false,"rental_uris":{"android":"levelo://app?vid=2bcc9acd-1eff-4361-b58a-db8368c80d3e","ios":"levelo://app?vid=2bcc9acd-1eff-4361-b58a-db8368c80d3e"},"vehicle_type_id":"4","last_reported":1728562616,"current_range_meters":24000,"station_id":"ce4bhc92rcd13ifvqetg","pricing_plan_id":"cebpf4jnsgd1na2vs0mg"},{"bike_id":"cae9a4d0-4c01-4d57-a44a-d9a73d03efc5","system_id":"levelo_inurba_marseille","lat":43.27986,"lon":5.41658,"is_reserved":false,"is_disabled":false,"rental_uris":{"android":"levelo://app?vid=cae9a4d0-4c01-4d57-a44a-d9a73d03efc5","ios":"levelo://app?vid=cae9a4d0-4c01-4d57-a44a-d9a73d03efc5"},"vehicle_type_id":"4","last_reported":1728562616,"current_range_meters":31200,"station_id":"ce4bho12rcd13ifvqh1g","pricing_plan_id":"cebpf4jnsgd1na2vs0mg"},{"bike_id":"13088437-0029-4815-918c-d06b87d678db","system_id":"levelo_inurba_marseille","lat":43.27057,"lon":5.40267,"is_reserved":false,"is_disabled":false,"rental_uris":{"android":"levelo://app?vid=13088437-0029-4815-918c-d06b87d678db","ios":"levelo://app?vid=13088437-0029-4815-918c-d06b87d678db"},"vehicle_type_id":"4","last_reported":1728562616,"current_range_meters":38000,"station_id":"ce4bhk92rcd13ifvqgc0","pricing_plan_id":"cebpf4jnsgd1na2vs0mg"},{"bike_id":"b1df3760-e1db-433e-aa0c-a6dd773b2e1e","system_id":"levelo_inurba_marseille","lat":43.28399,"lon":5.37518,"is_reserved":false,"is_disabled":false,"rental_uris":{"android":"levelo://app?vid=b1df3760-e1db-433e-aa0c-a6dd773b2e1e","ios":"levelo://app?vid=b1df3760-e1db-433e-aa0c-a6dd773b2e1e"},"vehicle_type_id":"4","last_reported":1728562616,"current_range_meters":9600,"station_id":"ce4bh412rcd13ifvqds0","pricing_plan_id":"cebpf4jnsgd1na2vs0mg"},{"bike_id":"6c177a40-4704-434a-9cda-37a59fc669e7","system_id":"levelo_inurba_marseille","lat":43.23157,"lon":5.43708,"is_reserved":false,"is_disabled":false,"rental_uris":{"android":"levelo://app?vid=6c177a40-4704-434a-9cda-37a59fc669e7","ios":"levelo://app?vid=6c177a40-4704-434a-9cda-37a59fc669e7"},"vehicle_type_id":"4","last_reported":1728562616,"current_range_meters":32400,"station_id":"ce4bhmp2rcd13ifvqgog","pricing_plan_id":"cebpf4jnsgd1na2vs0mg"},{"bike_id":"c21efc11-bc1c-43d8-88e3-48d7f04e546e","system_id":"levelo_inurba_marseille","lat":43.34146,"lon":5.409103,"is_reserved":false,"is_disabled":false,"rental_uris":{"android":"levelo://app?vid=c21efc11-bc1c-43d8-88e3-48d7f04e546e","ios":"levelo://app?vid=c21efc11-bc1c-43d8-88e3-48d7f04e546e"},"vehicle_type_id":"4","last_reported":1728562616,"current_range_meters":27200,"station_id":"ce4bhqh2rcd13ifvqhlg","pricing_plan_id":"cebpf4jnsgd1na2vs0mg"},{"bike_id":"45ea9299-e1b8-4cc2-a0a5-66fdf1bb22e8","system_id":"levelo_inurba_marseille","lat":43.30347,"lon":5.41877,"is_reserved":false,"is_disabled":false,"rental_uris":{"android":"levelo://app?vid=45ea9299-e1b8-4cc2-a0a5-66fdf1bb22e8","ios":"levelo://app?vid=45ea9299-e1b8-4cc2-a0a5-66fdf1bb22e8"},"vehicle_type_id":"4","last_reported":1728562616,"current_range_meters":3200,"station_id":"ce4bhop2rcd13ifvqh7g","pricing_plan_id":"cebpf4jnsgd1na2vs0mg"},{"bike_id":"6621e1af-9ca0-463c-a3ad-f651030b0dd3","system_id":"levelo_inurba_marseille","lat":43.23193,"lon":5.35549,"is_reserved":false,"is_disabled":false,"rental_uris":{"android":"levelo://app?vid=6621e1af-9ca0-463c-a3ad-f651030b0dd3","ios":"levelo://app?vid=6621e1af-9ca0-463c-a3ad-f651030b0dd3"},"vehicle_type_id":"4","last_reported":1728562616,"current_range_meters":36800,"station_id":"ce4bhu92rcd13ifvqi70","pricing_plan_id":"cebpf4jnsgd1na2vs0mg"},{"bike_id":"08b7c071-d3b1-458b-95c7-4c04a933f747","system_id":"levelo_inurba_marseille","lat":43.32544,"lon":5.41423,"is_reserved":false,"is_disabled":false,"rental_uris":{"android":"levelo://app?vid=08b7c071-d3b1-458b-95c7-4c04a933f747","ios":"levelo://app?vid=08b7c071-d3b1-458b-95c7-4c04a933f747"},"vehicle_type_id":"4","last_reported":1728562616,"current_range_meters":8000,"station_id":"ce4bhq12rcd13ifvqhhg","pricing_plan_id":"cebpf4jnsgd1na2vs0mg"},{"bike_id":"6d2226cd-ffdc-466a-9f95-b1c72060ff81","system_id":"levelo_inurba_marseille","lat":43.29624,"lon":5.37728,"is_reserved":false,"is_disabled":false,"rental_uris":{"android":"levelo://app?vid=6d2226cd-ffdc-466a-9f95-b1c72060ff81","ios":"levelo://app?vid=6d2226cd-ffdc-466a-9f95-b1c72060ff81"},"vehicle_type_id":"4","last_reported":1728562616,"current_range_meters":34000,"station_id":"ce4bgi92rcd13ifvqb90","pricing_plan_id":"cebpf4jnsgd1na2vs0mg"},{"bike_id":"7cd4f076-c387-4bde-8419-ce4b9347edcc","system_id":"levelo_inurba_marseille","lat":43.31759,"lon":5.39016,"is_reserved":false,"is_disabled":false,"rental_uris":{"android":"levelo://app?vid=7cd4f076-c387-4bde-8419-ce4b9347edcc","ios":"levelo://app?vid=7cd4f076-c387-4bde-8419-ce4b9347edcc"},"vehicle_type_id":"4","last_reported":1728562616,"current_range_meters":19600,"station_id":"ce4bhqp2rcd13ifvqhng","pricing_plan_id":"cebpf4jnsgd1na2vs0mg"},{"bike_id":"c8de048a-298d-44d4-bcbc-9563b0a2c65c","system_id":"levelo_inurba_marseille","lat":43.32653,"lon":5.40987,"is_reserved":false,"is_disabled":false,"rental_uris":{"android":"levelo://app?vid=c8de048a-298d-44d4-bcbc-9563b0a2c65c","ios":"levelo://app?vid=c8de048a-298d-44d4-bcbc-9563b0a2c65c"},"vehicle_type_id":"4","last_reported":1728562616,"current_range_meters":24800,"station_id":"ce4bhpp2rcd13ifvqhgg","pricing_plan_id":"cebpf4jnsgd1na2vs0mg"},{"bike_id":"2d7cc823-02c5-4309-bccd-4d3974794a48","system_id":"levelo_inurba_marseille","lat":43.32538,"lon":5.41439,"is_reserved":false,"is_disabled":false,"rental_uris":{"android":"levelo://app?vid=2d7cc823-02c5-4309-bccd-4d3974794a48","ios":"levelo://app?vid=2d7cc823-02c5-4309-bccd-4d3974794a48"},"vehicle_type_id":"4","last_reported":1728562616,"current_range_meters":32000,"station_id":"ce4bhq12rcd13ifvqhhg","pricing_plan_id":"cebpf4jnsgd1na2vs0mg"},{"bike_id":"5c59208d-7cc8-4d18-97aa-5b2f019839a8","system_id":"levelo_inurba_marseille","lat":43.24072,"lon":5.37761,"is_reserved":false,"is_disabled":false,"rental_uris":{"android":"levelo://app?vid=5c59208d-7cc8-4d18-97aa-5b2f019839a8","ios":"levelo://app?vid=5c59208d-7cc8-4d18-97aa-5b2f019839a8"},"vehicle_type_id":"4","last_reported":1728562616,"current_range_meters":22000,"station_id":"ce4bhkp2rcd13ifvqgd0","pricing_plan_id":"cebpf4jnsgd1na2vs0mg"},{"bike_id":"17e3d79c-7b73-49c5-82cd-f33337a81071","system_id":"levelo_inurba_marseille","lat":43.2988,"lon":5.3891,"is_reserved":false,"is_disabled":false,"rental_uris":{"android":"levelo://app?vid=17e3d79c-7b73-49c5-82cd-f33337a81071","ios":"levelo://app?vid=17e3d79c-7b73-49c5-82cd-f33337a81071"},"vehicle_type_id":"4","last_reported":1728562616,"current_range_meters":34000,"station_id":"ce4bh392rcd13ifvqdl0","pricing_plan_id":"cebpf4jnsgd1na2vs0mg"},{"bike_id":"770b2d8d-c887-4f5a-811e-14bd4e19b86c","system_id":"levelo_inurba_marseille","lat":43.2407,"lon":5.37763,"is_reserved":false,"is_disabled":false,"rental_uris":{"android":"levelo://app?vid=770b2d8d-c887-4f5a-811e-14bd4e19b86c","ios":"levelo://app?vid=770b2d8d-c887-4f5a-811e-14bd4e19b86c"},"vehicle_type_id":"4","last_reported":1728562616,"current_range_meters":19600,"station_id":"ce4bhnp2rcd13ifvqgvg","pricing_plan_id":"cebpf4jnsgd1na2vs0mg"},{"bike_id":"8ba0804f-ef50-4624-8cc7-1e94836678be","system_id":"levelo_inurba_marseille","lat":43.3247,"lon":5.41528,"is_reserved":false,"is_disabled":false,"rental_uris":{"android":"levelo://app?vid=8ba0804f-ef50-4624-8cc7-1e94836678be","ios":"levelo://app?vid=8ba0804f-ef50-4624-8cc7-1e94836678be"},"vehicle_type_id":"4","last_reported":1728562616,"current_range_meters":28800,"station_id":"","pricing_plan_id":"cebpf4jnsgd1na2vs0mg"},{"bike_id":"be084d6b-c0ec-40c2-95a6-fb5fcd438e7e","system_id":"levelo_inurba_marseille","lat":43.29624,"lon":5.37152,"is_reserved":false,"is_disabled":false,"rental_uris":{"android":"levelo://app?vid=be084d6b-c0ec-40c2-95a6-fb5fcd438e7e","ios":"levelo://app?vid=be084d6b-c0ec-40c2-95a6-fb5fcd438e7e"},"vehicle_type_id":"4","last_reported":1728562616,"current_range_meters":20800,"station_id":"ce4bgnh2rcd13ifvqc0g","pricing_plan_id":"cebpf4jnsgd1na2vs0mg"},{"bike_id":"6cd7d39b-2087-4d21-86bb-e2284a62aeb5","system_id":"levelo_inurba_marseille","lat":43.23189,"lon":5.35555,"is_reserved":false,"is_disabled":false,"rental_uris":{"android":"levelo://app?vid=6cd7d39b-2087-4d21-86bb-e2284a62aeb5","ios":"levelo://app?vid=6cd7d39b-2087-4d21-86bb-e2284a62aeb5"},"vehicle_type_id":"4","last_reported":1728562616,"current_range_meters":2000,"station_id":"ce4bhu92rcd13ifvqi70","pricing_plan_id":"cebpf4jnsgd1na2vs0mg"},{"bike_id":"8034954c-a6c8-46de-8165-a51114fd0886","system_id":"levelo_inurba_marseille","lat":43.29849,"lon":5.36293,"is_reserved":false,"is_disabled":false,"rental_uris":{"android":"levelo://app?vid=8034954c-a6c8-46de-8165-a51114fd0886","ios":"levelo://app?vid=8034954c-a6c8-46de-8165-a51114fd0886"},"vehicle_type_id":"4","last_reported":1728562616,"current_range_meters":20400,"station_id":"ce4bgpp2rcd13ifvqc3g","pricing_plan_id":"cebpf4jnsgd1na2vs0mg"},{"bike_id":"0a914b9b-1fcc-4758-a91b-1f2a11f6cf7a","system_id":"levelo_inurba_marseille","lat":43.27183,"lon":5.40995,"is_reserved":false,"is_disabled":false,"rental_uris":{"android":"levelo://app?vid=0a914b9b-1fcc-4758-a91b-1f2a11f6cf7a","ios":"levelo://app?vid=0a914b9b-1fcc-4758-a91b-1f2a11f6cf7a"},"vehicle_type_id":"4","last_reported":1728562616,"current_range_meters":16800,"station_id":"ce4bhl12rcd13ifvqgf0","pricing_plan_id":"cebpf4jnsgd1na2vs0mg"},{"bike_id":"0260ea70-100f-4754-8723-99015eb8d25f","system_id":"levelo_inurba_marseille","lat":43.30592,"lon":5.36735,"is_reserved":false,"is_disabled":false,"rental_uris":{"android":"levelo://app?vid=0260ea70-100f-4754-8723-99015eb8d25f","ios":"levelo://app?vid=0260ea70-100f-4754-8723-99015eb8d25f"},"vehicle_type_id":"4","last_reported":1728562616,"current_range_meters":37600,"station_id":"","pricing_plan_id":"cebpf4jnsgd1na2vs0mg"},{"bike_id":"8665fe75-7b1c-4b25-955b-a02aa16eff4b","system_id":"levelo_inurba_marseille","lat":43.28799,"lon":5.36357,"is_reserved":false,"is_disabled":false,"rental_uris":{"android":"levelo://app?vid=8665fe75-7b1c-4b25-955b-a02aa16eff4b","ios":"levelo://app?vid=8665fe75-7b1c-4b25-955b-a02aa16eff4b"},"vehicle_type_id":"4","last_reported":1728562616,"current_range_meters":17600,"station_id":"","pricing_plan_id":"cebpf4jnsgd1na2vs0mg"},{"bike_id":"58b3cc4d-82da-4081-ad5d-79778d0ff244","system_id":"levelo_inurba_marseille","lat":43.25825,"lon":5.39435,"is_reserved":false,"is_disabled":false,"rental_uris":{"android":"levelo://app?vid=58b3cc4d-82da-4081-ad5d-79778d0ff244","ios":"levelo://app?vid=58b3cc4d-82da-4081-ad5d-79778d0ff244"},"vehicle_type_id":"4","last_reported":1728562616,"current_range_meters":6400,"station_id":"ce4bhip2rcd13ifvqft0","pricing_plan_id":"cebpf4jnsgd1na2vs0mg"},{"bike_id":"fbc6e5cb-ccab-4c10-9c8c-6dbe697b02a7","system_id":"levelo_inurba_marseille","lat":43.32536,"lon":5.41432,"is_reserved":false,"is_disabled":false,"rental_uris":{"android":"levelo://app?vid=fbc6e5cb-ccab-4c10-9c8c-6dbe697b02a7","ios":"levelo://app?vid=fbc6e5cb-ccab-4c10-9c8c-6dbe697b02a7"},"vehicle_type_id":"4","last_reported":1728562616,"current_range_meters":38000,"station_id":"ce4bhq12rcd13ifvqhhg","pricing_plan_id":"cebpf4jnsgd1na2vs0mg"},{"bike_id":"b474e2cc-bb0e-4c5a-a472-0b6a94930de8","system_id":"levelo_inurba_marseille","lat":43.28105,"lon":5.37845,"is_reserved":false,"is_disabled":false,"rental_uris":{"android":"levelo://app?vid=b474e2cc-bb0e-4c5a-a472-0b6a94930de8","ios":"levelo://app?vid=b474e2cc-bb0e-4c5a-a472-0b6a94930de8"},"vehicle_type_id":"4","last_reported":1728562616,"current_range_meters":25200,"station_id":"ce4bha12rcd13ifvqee0","pricing_plan_id":"cebpf4jnsgd1na2vs0mg"},{"bike_id":"415f6464-55c1-4dd0-9f43-5e476ed15005","system_id":"levelo_inurba_marseille","lat":43.28861,"lon":5.3585,"is_reserved":false,"is_disabled":false,"rental_uris":{"android":"levelo://app?vid=415f6464-55c1-4dd0-9f43-5e476ed15005","ios":"levelo://app?vid=415f6464-55c1-4dd0-9f43-5e476ed15005"},"vehicle_type_id":"4","last_reported":1728562616,"current_range_meters":21600,"station_id":"ce4bhb12rcd13ifvqem0","pricing_plan_id":"cebpf4jnsgd1na2vs0mg"},{"bike_id":"48158b6e-aa15-46fa-b108-be5bdb7a3a31","system_id":"levelo_inurba_marseille","lat":43.3374,"lon":5.37456,"is_reserved":false,"is_disabled":false,"rental_uris":{"android":"levelo://app?vid=48158b6e-aa15-46fa-b108-be5bdb7a3a31","ios":"levelo://app?vid=48158b6e-aa15-46fa-b108-be5bdb7a3a31"},"vehicle_type_id":"4","last_reported":1728562616,"current_range_meters":28400,"station_id":"","pricing_plan_id":"cebpf4jnsgd1na2vs0mg"},{"bike_id":"3f3348a7-373c-47b4-b3c6-7e9929cf4d21","system_id":"levelo_inurba_marseille","lat":43.24072,"lon":5.37764,"is_reserved":false,"is_disabled":false,"rental_uris":{"android":"levelo://app?vid=3f3348a7-373c-47b4-b3c6-7e9929cf4d21","ios":"levelo://app?vid=3f3348a7-373c-47b4-b3c6-7e9929cf4d21"},"vehicle_type_id":"4","last_reported":1728562616,"current_range_meters":11600,"station_id":"ce4bhnp2rcd13ifvqgvg","pricing_plan_id":"cebpf4jnsgd1na2vs0mg"},{"bike_id":"e2dedf1c-7e55-45e6-8fb6-1039ae9ab85a","system_id":"levelo_inurba_marseille","lat":43.24394,"lon":5.37058,"is_reserved":false,"is_disabled":false,"rental_uris":{"android":"levelo://app?vid=e2dedf1c-7e55-45e6-8fb6-1039ae9ab85a","ios":"levelo://app?vid=e2dedf1c-7e55-45e6-8fb6-1039ae9ab85a"},"vehicle_type_id":"4","last_reported":1728562616,"current_range_meters":38400,"station_id":"ce4bhhh2rcd13ifvqfk0","pricing_plan_id":"cebpf4jnsgd1na2vs0mg"},{"bike_id":"86696e7a-c73b-4dd8-9ac1-97921c6f346e","system_id":"levelo_inurba_marseille","lat":43.30912,"lon":5.3685,"is_reserved":false,"is_disabled":false,"rental_uris":{"android":"levelo://app?vid=86696e7a-c73b-4dd8-9ac1-97921c6f346e","ios":"levelo://app?vid=86696e7a-c73b-4dd8-9ac1-97921c6f346e"},"vehicle_type_id":"4","last_reported":1728562616,"current_range_meters":8400,"station_id":"ce4bgn92rcd13ifvqbvg","pricing_plan_id":"cebpf4jnsgd1na2vs0mg"},{"bike_id":"e75d3910-86c9-49e5-9a68-18d1b8aa44ab","system_id":"levelo_inurba_marseille","lat":43.28269,"lon":5.35054,"is_reserved":false,"is_disabled":false,"rental_uris":{"android":"levelo://app?vid=e75d3910-86c9-49e5-9a68-18d1b8aa44ab","ios":"levelo://app?vid=e75d3910-86c9-49e5-9a68-18d1b8aa44ab"},"vehicle_type_id":"4","last_reported":1728562616,"current_range_meters":9600,"station_id":"ce4bhbp2rcd13ifvqerg","pricing_plan_id":"cebpf4jnsgd1na2vs0mg"},{"bike_id":"0b1c0409-a884-43e8-8355-ea7338adeb90","system_id":"levelo_inurba_marseille","lat":43.32545,"lon":5.41437,"is_reserved":false,"is_disabled":false,"rental_uris":{"android":"levelo://app?vid=0b1c0409-a884-43e8-8355-ea7338adeb90","ios":"levelo://app?vid=0b1c0409-a884-43e8-8355-ea7338adeb90"},"vehicle_type_id":"4","last_reported":1728562616,"current_range_meters":30400,"station_id":"ce4bhq12rcd13ifvqhhg","pricing_plan_id":"cebpf4jnsgd1na2vs0mg"},{"bike_id":"eb6e32f7-c3f4-42b6-b9eb-735b9fbd1a29","system_id":"levelo_inurba_marseille","lat":43.25933,"lon":5.4091,"is_reserved":false,"is_disabled":false,"rental_uris":{"android":"levelo://app?vid=eb6e32f7-c3f4-42b6-b9eb-735b9fbd1a29","ios":"levelo://app?vid=eb6e32f7-c3f4-42b6-b9eb-735b9fbd1a29"},"vehicle_type_id":"4","last_reported":1728562616,"current_range_meters":14400,"station_id":"ce4bhm92rcd13ifvqglg","pricing_plan_id":"cebpf4jnsgd1na2vs0mg"},{"bike_id":"c2f32003-23fb-45a7-a2ae-e38e21f9c7f1","system_id":"levelo_inurba_marseille","lat":43.24069,"lon":5.37761,"is_reserved":false,"is_disabled":false,"rental_uris":{"android":"levelo://app?vid=c2f32003-23fb-45a7-a2ae-e38e21f9c7f1","ios":"levelo://app?vid=c2f32003-23fb-45a7-a2ae-e38e21f9c7f1"},"vehicle_type_id":"4","last_reported":1728562616,"current_range_meters":9200,"station_id":"ce4bhnp2rcd13ifvqgvg","pricing_plan_id":"cebpf4jnsgd1na2vs0mg"},{"bike_id":"62ccfddd-1382-446c-9bf2-416c2cb7471b","system_id":"levelo_inurba_marseille","lat":43.299381,"lon":5.365588,"is_reserved":false,"is_disabled":false,"rental_uris":{"android":"levelo://app?vid=62ccfddd-1382-446c-9bf2-416c2cb7471b","ios":"levelo://app?vid=62ccfddd-1382-446c-9bf2-416c2cb7471b"},"vehicle_type_id":"4","last_reported":1728562616,"current_range_meters":34000,"station_id":"","pricing_plan_id":"cebpf4jnsgd1na2vs0mg"},{"bike_id":"fc3f0547-89f3-45ed-b216-20a87ce42cb7","system_id":"levelo_inurba_marseille","lat":43.23147,"lon":5.43713,"is_reserved":false,"is_disabled":false,"rental_uris":{"android":"levelo://app?vid=fc3f0547-89f3-45ed-b216-20a87ce42cb7","ios":"levelo://app?vid=fc3f0547-89f3-45ed-b216-20a87ce42cb7"},"vehicle_type_id":"4","last_reported":1728562616,"current_range_meters":24400,"station_id":"ce4bhmp2rcd13ifvqgog","pricing_plan_id":"cebpf4jnsgd1na2vs0mg"},{"bike_id":"23cfc1e7-efdf-4ceb-a7f3-db4992aab581","system_id":"levelo_inurba_marseille","lat":43.31327,"lon":5.39697,"is_reserved":false,"is_disabled":false,"rental_uris":{"android":"levelo://app?vid=23cfc1e7-efdf-4ceb-a7f3-db4992aab581","ios":"levelo://app?vid=23cfc1e7-efdf-4ceb-a7f3-db4992aab581"},"vehicle_type_id":"4","last_reported":1728562616,"current_range_meters":26800,"station_id":"ce4bgvp2rcd13ifvqcu0","pricing_plan_id":"cebpf4jnsgd1na2vs0mg"},{"bike_id":"6c3cc9b2-be4e-45bf-a8be-71c6d03d163f","system_id":"levelo_inurba_marseille","lat":43.33234,"lon":5.36457,"is_reserved":false,"is_disabled":false,"rental_uris":{"android":"levelo://app?vid=6c3cc9b2-be4e-45bf-a8be-71c6d03d163f","ios":"levelo://app?vid=6c3cc9b2-be4e-45bf-a8be-71c6d03d163f"},"vehicle_type_id":"4","last_reported":1728562616,"current_range_meters":18000,"station_id":"","pricing_plan_id":"cebpf4jnsgd1na2vs0mg"},{"bike_id":"05352706-ffde-4c5f-832c-cbd3c2593f5f","system_id":"levelo_inurba_marseille","lat":43.31712,"lon":5.43712,"is_reserved":false,"is_disabled":false,"rental_uris":{"android":"levelo://app?vid=05352706-ffde-4c5f-832c-cbd3c2593f5f","ios":"levelo://app?vid=05352706-ffde-4c5f-832c-cbd3c2593f5f"},"vehicle_type_id":"4","last_reported":1728562616,"current_range_meters":7200,"station_id":"ce4bhp92rcd13ifvqhcg","pricing_plan_id":"cebpf4jnsgd1na2vs0mg"},{"bike_id":"aa75c41c-1391-4d5a-b0ad-fb29c317877d","system_id":"levelo_inurba_marseille","lat":43.23063,"lon":5.35498,"is_reserved":false,"is_disabled":false,"rental_uris":{"android":"levelo://app?vid=aa75c41c-1391-4d5a-b0ad-fb29c317877d","ios":"levelo://app?vid=aa75c41c-1391-4d5a-b0ad-fb29c317877d"},"vehicle_type_id":"4","last_reported":1728562616,"current_range_meters":11600,"station_id":"cpo3342slgdg3j2ifvpg","pricing_plan_id":"cebpf4jnsgd1na2vs0mg"},{"bike_id":"02c2e790-1df7-4c13-8f74-01a585b06eb8","system_id":"levelo_inurba_marseille","lat":43.33751,"lon":5.37437,"is_reserved":false,"is_disabled":false,"rental_uris":{"android":"levelo://app?vid=02c2e790-1df7-4c13-8f74-01a585b06eb8","ios":"levelo://app?vid=02c2e790-1df7-4c13-8f74-01a585b06eb8"},"vehicle_type_id":"4","last_reported":1728562616,"current_range_meters":36800,"station_id":"ce4rr2p2rcd13i802rgg","pricing_plan_id":"cebpf4jnsgd1na2vs0mg"},{"bike_id":"c16cf7f6-f1d1-4c55-99ff-06b0ddaf0455","system_id":"levelo_inurba_marseille","lat":43.24082,"lon":5.3774,"is_reserved":false,"is_disabled":false,"rental_uris":{"android":"levelo://app?vid=c16cf7f6-f1d1-4c55-99ff-06b0ddaf0455","ios":"levelo://app?vid=c16cf7f6-f1d1-4c55-99ff-06b0ddaf0455"},"vehicle_type_id":"4","last_reported":1728562616,"current_range_meters":28000,"station_id":"ce4bhnp2rcd13ifvqgvg","pricing_plan_id":"cebpf4jnsgd1na2vs0mg"},{"bike_id":"018b5de9-b82b-4b91-9812-837b737bb675","system_id":"levelo_inurba_marseille","lat":43.26792,"lon":5.3941,"is_reserved":false,"is_disabled":false,"rental_uris":{"android":"levelo://app?vid=018b5de9-b82b-4b91-9812-837b737bb675","ios":"levelo://app?vid=018b5de9-b82b-4b91-9812-837b737bb675"},"vehicle_type_id":"4","last_reported":1728562616,"current_range_meters":22400,"station_id":"ce4bhh12rcd13ifvqfg0","pricing_plan_id":"cebpf4jnsgd1na2vs0mg"},{"bike_id":"b7507c69-0bc0-4e9e-9023-7bda0a81f93b","system_id":"levelo_inurba_marseille","lat":43.29946,"lon":5.36536,"is_reserved":false,"is_disabled":false,"rental_uris":{"android":"levelo://app?vid=b7507c69-0bc0-4e9e-9023-7bda0a81f93b","ios":"levelo://app?vid=b7507c69-0bc0-4e9e-9023-7bda0a81f93b"},"vehicle_type_id":"4","last_reported":1728562616,"current_range_meters":38800,"station_id":"ce4bgm92rcd13ifvqbr0","pricing_plan_id":"cebpf4jnsgd1na2vs0mg"},{"bike_id":"f68475eb-d5e1-49bc-a19b-5713618d28ed","system_id":"levelo_inurba_marseille","lat":43.27491,"lon":5.42452,"is_reserved":false,"is_disabled":false,"rental_uris":{"android":"levelo://app?vid=f68475eb-d5e1-49bc-a19b-5713618d28ed","ios":"levelo://app?vid=f68475eb-d5e1-49bc-a19b-5713618d28ed"},"vehicle_type_id":"4","last_reported":1728562616,"current_range_meters":21600,"station_id":"ce4bhn92rcd13ifvqgrg","pricing_plan_id":"cebpf4jnsgd1na2vs0mg"},{"bike_id":"3833489f-8786-441e-a7ea-596360500d66","system_id":"levelo_inurba_marseille","lat":43.29883,"lon":5.38907,"is_reserved":false,"is_disabled":false,"rental_uris":{"android":"levelo://app?vid=3833489f-8786-441e-a7ea-596360500d66","ios":"levelo://app?vid=3833489f-8786-441e-a7ea-596360500d66"},"vehicle_type_id":"4","last_reported":1728562616,"current_range_meters":30800,"station_id":"ce4bh392rcd13ifvqdl0","pricing_plan_id":"cebpf4jnsgd1na2vs0mg"},{"bike_id":"1d487432-ceb5-4276-a7b0-11e8c70ce1c1","system_id":"levelo_inurba_marseille","lat":43.30597,"lon":5.39354,"is_reserved":false,"is_disabled":false,"rental_uris":{"android":"levelo://app?vid=1d487432-ceb5-4276-a7b0-11e8c70ce1c1","ios":"levelo://app?vid=1d487432-ceb5-4276-a7b0-11e8c70ce1c1"},"vehicle_type_id":"4","last_reported":1728562616,"current_range_meters":6800,"station_id":"ce4bh0p2rcd13ifvqd80","pricing_plan_id":"cebpf4jnsgd1na2vs0mg"},{"bike_id":"8ecb7e86-feb7-4a6c-afba-01011a16d8c1","system_id":"levelo_inurba_marseille","lat":43.28346,"lon":5.38109,"is_reserved":false,"is_disabled":false,"rental_uris":{"android":"levelo://app?vid=8ecb7e86-feb7-4a6c-afba-01011a16d8c1","ios":"levelo://app?vid=8ecb7e86-feb7-4a6c-afba-01011a16d8c1"},"vehicle_type_id":"4","last_reported":1728562616,"current_range_meters":18000,"station_id":"ce4bh412rcd13ifvqdr0","pricing_plan_id":"cebpf4jnsgd1na2vs0mg"},{"bike_id":"2e752f3d-d4e1-46c6-ba40-9a628125899c","system_id":"levelo_inurba_marseille","lat":43.31521,"lon":5.38033,"is_reserved":false,"is_disabled":false,"rental_uris":{"android":"levelo://app?vid=2e752f3d-d4e1-46c6-ba40-9a628125899c","ios":"levelo://app?vid=2e752f3d-d4e1-46c6-ba40-9a628125899c"},"vehicle_type_id":"4","last_reported":1728562616,"current_range_meters":15200,"station_id":"ce4bhsp2rcd13ifvqi50","pricing_plan_id":"cebpf4jnsgd1na2vs0mg"},{"bike_id":"a05f076c-86c8-482c-95c1-13d2182da090","system_id":"levelo_inurba_marseille","lat":43.32661,"lon":5.40991,"is_reserved":false,"is_disabled":false,"rental_uris":{"android":"levelo://app?vid=a05f076c-86c8-482c-95c1-13d2182da090","ios":"levelo://app?vid=a05f076c-86c8-482c-95c1-13d2182da090"},"vehicle_type_id":"4","last_reported":1728562616,"current_range_meters":30000,"station_id":"ce4bhpp2rcd13ifvqhgg","pricing_plan_id":"cebpf4jnsgd1na2vs0mg"},{"bike_id":"69d252f2-3d66-4ab6-b1cc-ebf401c8fa2d","system_id":"levelo_inurba_marseille","lat":43.30802,"lon":5.38156,"is_reserved":false,"is_disabled":false,"rental_uris":{"android":"levelo://app?vid=69d252f2-3d66-4ab6-b1cc-ebf401c8fa2d","ios":"levelo://app?vid=69d252f2-3d66-4ab6-b1cc-ebf401c8fa2d"},"vehicle_type_id":"4","last_reported":1728562616,"current_range_meters":32000,"station_id":"ce4bgt12rcd13ifvqce0","pricing_plan_id":"cebpf4jnsgd1na2vs0mg"},{"bike_id":"cee27bcf-5074-4c88-8802-802fcbe73c44","system_id":"levelo_inurba_marseille","lat":43.28933,"lon":5.36398,"is_reserved":false,"is_disabled":false,"rental_uris":{"android":"levelo://app?vid=cee27bcf-5074-4c88-8802-802fcbe73c44","ios":"levelo://app?vid=cee27bcf-5074-4c88-8802-802fcbe73c44"},"vehicle_type_id":"4","last_reported":1728562616,"current_range_meters":24800,"station_id":"ce4bhc92rcd13ifvqetg","pricing_plan_id":"cebpf4jnsgd1na2vs0mg"},{"bike_id":"b23acee4-5720-4575-91af-11c4e23edb2d","system_id":"levelo_inurba_marseille","lat":43.337444,"lon":5.374475,"is_reserved":false,"is_disabled":false,"rental_uris":{"android":"levelo://app?vid=b23acee4-5720-4575-91af-11c4e23edb2d","ios":"levelo://app?vid=b23acee4-5720-4575-91af-11c4e23edb2d"},"vehicle_type_id":"4","last_reported":1728562616,"current_range_meters":39200,"station_id":"ce4bhbh2rcd13ifvqepg","pricing_plan_id":"cebpf4jnsgd1na2vs0mg"},{"bike_id":"a15aa51c-01e5-4f22-b82c-682e5b455519","system_id":"levelo_inurba_marseille","lat":43.29924,"lon":5.37466,"is_reserved":false,"is_disabled":false,"rental_uris":{"android":"levelo://app?vid=a15aa51c-01e5-4f22-b82c-682e5b455519","ios":"levelo://app?vid=a15aa51c-01e5-4f22-b82c-682e5b455519"},"vehicle_type_id":"4","last_reported":1728562616,"current_range_meters":36000,"station_id":"ce4bgjh2rcd13ifvqbg0","pricing_plan_id":"cebpf4jnsgd1na2vs0mg"},{"bike_id":"62f352ec-e233-4d7f-8753-6a5615214777","system_id":"levelo_inurba_marseille","lat":43.32288,"lon":5.38268,"is_reserved":false,"is_disabled":false,"rental_uris":{"android":"levelo://app?vid=62f352ec-e233-4d7f-8753-6a5615214777","ios":"levelo://app?vid=62f352ec-e233-4d7f-8753-6a5615214777"},"vehicle_type_id":"4","last_reported":1728562616,"current_range_meters":39200,"station_id":"ce4bhr12rcd13ifvqhqg","pricing_plan_id":"cebpf4jnsgd1na2vs0mg"},{"bike_id":"46ce1fc2-b7e2-4275-b962-fd66ab463be3","system_id":"levelo_inurba_marseille","lat":43.26057,"lon":5.39402,"is_reserved":false,"is_disabled":false,"rental_uris":{"android":"levelo://app?vid=46ce1fc2-b7e2-4275-b962-fd66ab463be3","ios":"levelo://app?vid=46ce1fc2-b7e2-4275-b962-fd66ab463be3"},"vehicle_type_id":"4","last_reported":1728562616,"current_range_meters":9600,"station_id":"ce4bhh92rcd13ifvqfj0","pricing_plan_id":"cebpf4jnsgd1na2vs0mg"},{"bike_id":"a8280855-ea94-42b6-be42-0d92fd4ffc2e","system_id":"levelo_inurba_marseille","lat":43.30467,"lon":5.37911,"is_reserved":false,"is_disabled":false,"rental_uris":{"android":"levelo://app?vid=a8280855-ea94-42b6-be42-0d92fd4ffc2e","ios":"levelo://app?vid=a8280855-ea94-42b6-be42-0d92fd4ffc2e"},"vehicle_type_id":"4","last_reported":1728562616,"current_range_meters":27200,"station_id":"ce4bgup2rcd13ifvqcn0","pricing_plan_id":"cebpf4jnsgd1na2vs0mg"},{"bike_id":"47cec37e-5370-4e42-a31e-ac7d4a8fe825","system_id":"levelo_inurba_marseille","lat":43.2732,"lon":5.39086,"is_reserved":false,"is_disabled":false,"rental_uris":{"android":"levelo://app?vid=47cec37e-5370-4e42-a31e-ac7d4a8fe825","ios":"levelo://app?vid=47cec37e-5370-4e42-a31e-ac7d4a8fe825"},"vehicle_type_id":"4","last_reported":1728562616,"current_range_meters":24400,"station_id":"ce4bhgp2rcd13ifvqfe0","pricing_plan_id":"cebpf4jnsgd1na2vs0mg"},{"bike_id":"7e836731-f8d3-4ad3-bfe9-dc1f5c8800a8","system_id":"levelo_inurba_marseille","lat":43.28852,"lon":5.35848,"is_reserved":false,"is_disabled":false,"rental_uris":{"android":"levelo://app?vid=7e836731-f8d3-4ad3-bfe9-dc1f5c8800a8","ios":"levelo://app?vid=7e836731-f8d3-4ad3-bfe9-dc1f5c8800a8"},"vehicle_type_id":"4","last_reported":1728562616,"current_range_meters":3600,"station_id":"ce4bhb12rcd13ifvqem0","pricing_plan_id":"cebpf4jnsgd1na2vs0mg"},{"bike_id":"b967284a-2c2a-4303-9bbc-dbe766e40f14","system_id":"levelo_inurba_marseille","lat":43.30538,"lon":5.36711,"is_reserved":false,"is_disabled":false,"rental_uris":{"android":"levelo://app?vid=b967284a-2c2a-4303-9bbc-dbe766e40f14","ios":"levelo://app?vid=b967284a-2c2a-4303-9bbc-dbe766e40f14"},"vehicle_type_id":"4","last_reported":1728562616,"current_range_meters":23200,"station_id":"ce4bgrp2rcd13ifvqc9g","pricing_plan_id":"cebpf4jnsgd1na2vs0mg"},{"bike_id":"e40c95f1-08cf-43bd-b087-fab75647c8f7","system_id":"levelo_inurba_marseille","lat":43.299731,"lon":5.371745,"is_reserved":false,"is_disabled":false,"rental_uris":{"android":"levelo://app?vid=e40c95f1-08cf-43bd-b087-fab75647c8f7","ios":"levelo://app?vid=e40c95f1-08cf-43bd-b087-fab75647c8f7"},"vehicle_type_id":"4","last_reported":1728562616,"current_range_meters":11200,"station_id":"ce4bgr92rcd13ifvqc7g","pricing_plan_id":"cebpf4jnsgd1na2vs0mg"},{"bike_id":"b3604698-9bcb-4140-82c0-513aa7c56e54","system_id":"levelo_inurba_marseille","lat":43.28455,"lon":5.35891,"is_reserved":false,"is_disabled":false,"rental_uris":{"android":"levelo://app?vid=b3604698-9bcb-4140-82c0-513aa7c56e54","ios":"levelo://app?vid=b3604698-9bcb-4140-82c0-513aa7c56e54"},"vehicle_type_id":"4","last_reported":1728562616,"current_range_meters":20000,"station_id":"ce4bhah2rcd13ifvqei0","pricing_plan_id":"cebpf4jnsgd1na2vs0mg"},{"bike_id":"1257efad-381f-4aa3-af04-858c5028854b","system_id":"levelo_inurba_marseille","lat":43.29785,"lon":5.38109,"is_reserved":false,"is_disabled":false,"rental_uris":{"android":"levelo://app?vid=1257efad-381f-4aa3-af04-858c5028854b","ios":"levelo://app?vid=1257efad-381f-4aa3-af04-858c5028854b"},"vehicle_type_id":"4","last_reported":1728562616,"current_range_meters":6800,"station_id":"ce4bgip2rcd13ifvqbb0","pricing_plan_id":"cebpf4jnsgd1na2vs0mg"},{"bike_id":"5e4f1945-f3fb-46b2-83c6-c1c89425760b","system_id":"levelo_inurba_marseille","lat":43.29802,"lon":5.38101,"is_reserved":false,"is_disabled":false,"rental_uris":{"android":"levelo://app?vid=5e4f1945-f3fb-46b2-83c6-c1c89425760b","ios":"levelo://app?vid=5e4f1945-f3fb-46b2-83c6-c1c89425760b"},"vehicle_type_id":"4","last_reported":1728562616,"current_range_meters":24800,"station_id":"ce4bgip2rcd13ifvqbb0","pricing_plan_id":"cebpf4jnsgd1na2vs0mg"},{"bike_id":"5fd6b245-0b53-4654-9f31-a1ec63d6dd59","system_id":"levelo_inurba_marseille","lat":43.24074,"lon":5.3776,"is_reserved":false,"is_disabled":false,"rental_uris":{"android":"levelo://app?vid=5fd6b245-0b53-4654-9f31-a1ec63d6dd59","ios":"levelo://app?vid=5fd6b245-0b53-4654-9f31-a1ec63d6dd59"},"vehicle_type_id":"4","last_reported":1728562616,"current_range_meters":2800,"station_id":"ce4bhnp2rcd13ifvqgvg","pricing_plan_id":"cebpf4jnsgd1na2vs0mg"},{"bike_id":"2dc1d4f2-bffe-419c-b07d-2f2347a2e109","system_id":"levelo_inurba_marseille","lat":43.23157,"lon":5.43704,"is_reserved":false,"is_disabled":false,"rental_uris":{"android":"levelo://app?vid=2dc1d4f2-bffe-419c-b07d-2f2347a2e109","ios":"levelo://app?vid=2dc1d4f2-bffe-419c-b07d-2f2347a2e109"},"vehicle_type_id":"4","last_reported":1728562616,"current_range_meters":18800,"station_id":"ce4bhmp2rcd13ifvqgog","pricing_plan_id":"cebpf4jnsgd1na2vs0mg"},{"bike_id":"28f14564-5a47-4bc5-a509-d99bcaace2f7","system_id":"levelo_inurba_marseille","lat":43.23157,"lon":5.43704,"is_reserved":false,"is_disabled":false,"rental_uris":{"android":"levelo://app?vid=28f14564-5a47-4bc5-a509-d99bcaace2f7","ios":"levelo://app?vid=28f14564-5a47-4bc5-a509-d99bcaace2f7"},"vehicle_type_id":"4","last_reported":1728562616,"current_range_meters":11600,"station_id":"ce4bhmp2rcd13ifvqgog","pricing_plan_id":"cebpf4jnsgd1na2vs0mg"},{"bike_id":"a48032d8-6e10-4b11-8b7e-d8afc17ae15b","system_id":"levelo_inurba_marseille","lat":43.309459,"lon":5.372918,"is_reserved":false,"is_disabled":false,"rental_uris":{"android":"levelo://app?vid=a48032d8-6e10-4b11-8b7e-d8afc17ae15b","ios":"levelo://app?vid=a48032d8-6e10-4b11-8b7e-d8afc17ae15b"},"vehicle_type_id":"4","last_reported":1728562616,"current_range_meters":10800,"station_id":"ce4bgt12rcd13ifvqcd0","pricing_plan_id":"cebpf4jnsgd1na2vs0mg"},{"bike_id":"9dc1d94e-6d52-4fc3-a7a8-18992f9021db","system_id":"levelo_inurba_marseille","lat":43.24071,"lon":5.37757,"is_reserved":false,"is_disabled":false,"rental_uris":{"android":"levelo://app?vid=9dc1d94e-6d52-4fc3-a7a8-18992f9021db","ios":"levelo://app?vid=9dc1d94e-6d52-4fc3-a7a8-18992f9021db"},"vehicle_type_id":"4","last_reported":1728562616,"current_range_meters":26000,"station_id":"ce4bhnp2rcd13ifvqgvg","pricing_plan_id":"cebpf4jnsgd1na2vs0mg"},{"bike_id":"2959adcb-eb5c-489c-b1d4-e001dbc3e8c4","system_id":"levelo_inurba_marseille","lat":43.24391,"lon":5.37057,"is_reserved":false,"is_disabled":false,"rental_uris":{"android":"levelo://app?vid=2959adcb-eb5c-489c-b1d4-e001dbc3e8c4","ios":"levelo://app?vid=2959adcb-eb5c-489c-b1d4-e001dbc3e8c4"},"vehicle_type_id":"4","last_reported":1728562616,"current_range_meters":38800,"station_id":"ce4bhhh2rcd13ifvqfk0","pricing_plan_id":"cebpf4jnsgd1na2vs0mg"},{"bike_id":"7cdeb0f3-55e7-4696-863d-8b6cc4fd0f9a","system_id":"levelo_inurba_marseille","lat":43.31181,"lon":5.38726,"is_reserved":false,"is_disabled":false,"rental_uris":{"android":"levelo://app?vid=7cdeb0f3-55e7-4696-863d-8b6cc4fd0f9a","ios":"levelo://app?vid=7cdeb0f3-55e7-4696-863d-8b6cc4fd0f9a"},"vehicle_type_id":"4","last_reported":1728562616,"current_range_meters":6400,"station_id":"ce4bgv12rcd13ifvqcp0","pricing_plan_id":"cebpf4jnsgd1na2vs0mg"},{"bike_id":"2843c8c0-19b0-4399-82c6-d886254c01d7","system_id":"levelo_inurba_marseille","lat":43.25933,"lon":5.40907,"is_reserved":false,"is_disabled":false,"rental_uris":{"android":"levelo://app?vid=2843c8c0-19b0-4399-82c6-d886254c01d7","ios":"levelo://app?vid=2843c8c0-19b0-4399-82c6-d886254c01d7"},"vehicle_type_id":"4","last_reported":1728562616,"current_range_meters":26800,"station_id":"ce4bhm92rcd13ifvqglg","pricing_plan_id":"cebpf4jnsgd1na2vs0mg"},{"bike_id":"19d1b171-e3c1-4fd0-ad1a-4e449627a5ed","system_id":"levelo_inurba_marseille","lat":43.32532,"lon":5.41444,"is_reserved":false,"is_disabled":false,"rental_uris":{"android":"levelo://app?vid=19d1b171-e3c1-4fd0-ad1a-4e449627a5ed","ios":"levelo://app?vid=19d1b171-e3c1-4fd0-ad1a-4e449627a5ed"},"vehicle_type_id":"4","last_reported":1728562616,"current_range_meters":11200,"station_id":"ce4bhq12rcd13ifvqhhg","pricing_plan_id":"cebpf4jnsgd1na2vs0mg"},{"bike_id":"8ccd2035-a340-45c1-8089-a034c84ed6c9","system_id":"levelo_inurba_marseille","lat":43.28094,"lon":5.37839,"is_reserved":false,"is_disabled":false,"rental_uris":{"android":"levelo://app?vid=8ccd2035-a340-45c1-8089-a034c84ed6c9","ios":"levelo://app?vid=8ccd2035-a340-45c1-8089-a034c84ed6c9"},"vehicle_type_id":"4","last_reported":1728562616,"current_range_meters":24800,"station_id":"ce4bha12rcd13ifvqee0","pricing_plan_id":"cebpf4jnsgd1na2vs0mg"},{"bike_id":"03ad01d0-07b1-4e81-8b89-4ff8d70c69b2","system_id":"levelo_inurba_marseille","lat":43.24811,"lon":5.37457,"is_reserved":false,"is_disabled":false,"rental_uris":{"android":"levelo://app?vid=03ad01d0-07b1-4e81-8b89-4ff8d70c69b2","ios":"levelo://app?vid=03ad01d0-07b1-4e81-8b89-4ff8d70c69b2"},"vehicle_type_id":"4","last_reported":1728562616,"current_range_meters":39200,"station_id":"ce4bhgh2rcd13ifvqfb0","pricing_plan_id":"cebpf4jnsgd1na2vs0mg"},{"bike_id":"4c1ffb76-92ff-43d1-84d7-0b9d2160ebe9","system_id":"levelo_inurba_marseille","lat":43.28366,"lon":5.38646,"is_reserved":false,"is_disabled":false,"rental_uris":{"android":"levelo://app?vid=4c1ffb76-92ff-43d1-84d7-0b9d2160ebe9","ios":"levelo://app?vid=4c1ffb76-92ff-43d1-84d7-0b9d2160ebe9"},"vehicle_type_id":"4","last_reported":1728562616,"current_range_meters":8000,"station_id":"ce4bh492rcd13ifvqdvg","pricing_plan_id":"cebpf4jnsgd1na2vs0mg"},{"bike_id":"3e3b876b-106d-4aca-ba61-984e9236bafe","system_id":"levelo_inurba_marseille","lat":43.28937,"lon":5.36636,"is_reserved":false,"is_disabled":false,"rental_uris":{"android":"levelo://app?vid=3e3b876b-106d-4aca-ba61-984e9236bafe","ios":"levelo://app?vid=3e3b876b-106d-4aca-ba61-984e9236bafe"},"vehicle_type_id":"4","last_reported":1728562616,"current_range_meters":19200,"station_id":"ce4bhap2rcd13ifvqek0","pricing_plan_id":"cebpf4jnsgd1na2vs0mg"},{"bike_id":"99d66301-10cb-48d7-8f69-dbf04f54b39e","system_id":"levelo_inurba_marseille","lat":43.23065,"lon":5.35493,"is_reserved":false,"is_disabled":false,"rental_uris":{"android":"levelo://app?vid=99d66301-10cb-48d7-8f69-dbf04f54b39e","ios":"levelo://app?vid=99d66301-10cb-48d7-8f69-dbf04f54b39e"},"vehicle_type_id":"4","last_reported":1728562616,"current_range_meters":25200,"station_id":"cpo3342slgdg3j2ifvpg","pricing_plan_id":"cebpf4jnsgd1na2vs0mg"},{"bike_id":"625f172c-9389-49cb-ba12-3231563527bc","system_id":"levelo_inurba_marseille","lat":43.33751,"lon":5.37457,"is_reserved":false,"is_disabled":false,"rental_uris":{"android":"levelo://app?vid=625f172c-9389-49cb-ba12-3231563527bc","ios":"levelo://app?vid=625f172c-9389-49cb-ba12-3231563527bc"},"vehicle_type_id":"4","last_reported":1728562616,"current_range_meters":24400,"station_id":"ce4rr2p2rcd13i802rgg","pricing_plan_id":"cebpf4jnsgd1na2vs0mg"},{"bike_id":"46ba828e-060d-49fc-a1f3-4f4845622dbd","system_id":"levelo_inurba_marseille","lat":43.31364,"lon":5.36719,"is_reserved":false,"is_disabled":false,"rental_uris":{"android":"levelo://app?vid=46ba828e-060d-49fc-a1f3-4f4845622dbd","ios":"levelo://app?vid=46ba828e-060d-49fc-a1f3-4f4845622dbd"},"vehicle_type_id":"4","last_reported":1728562616,"current_range_meters":34800,"station_id":"ce4bgr92rcd13ifvqc6g","pricing_plan_id":"cebpf4jnsgd1na2vs0mg"},{"bike_id":"a3ceb785-7064-44f9-bb33-2c5bcb631153","system_id":"levelo_inurba_marseille","lat":43.30539,"lon":5.36547,"is_reserved":false,"is_disabled":false,"rental_uris":{"android":"levelo://app?vid=a3ceb785-7064-44f9-bb33-2c5bcb631153","ios":"levelo://app?vid=a3ceb785-7064-44f9-bb33-2c5bcb631153"},"vehicle_type_id":"4","last_reported":1728562616,"current_range_meters":6800,"station_id":"ce4bgs12rcd13ifvqcag","pricing_plan_id":"cebpf4jnsgd1na2vs0mg"},{"bike_id":"47b907fa-9497-47c6-b524-47a227a5865f","system_id":"levelo_inurba_marseille","lat":43.305407,"lon":5.365333,"is_reserved":false,"is_disabled":false,"rental_uris":{"android":"levelo://app?vid=47b907fa-9497-47c6-b524-47a227a5865f","ios":"levelo://app?vid=47b907fa-9497-47c6-b524-47a227a5865f"},"vehicle_type_id":"4","last_reported":1728562616,"current_range_meters":38800,"station_id":"ce4bgs12rcd13ifvqcag","pricing_plan_id":"cebpf4jnsgd1na2vs0mg"},{"bike_id":"0ffbdbd8-5971-4b7e-9c40-3f2a96416cf9","system_id":"levelo_inurba_marseille","lat":43.31217,"lon":5.36834,"is_reserved":false,"is_disabled":false,"rental_uris":{"android":"levelo://app?vid=0ffbdbd8-5971-4b7e-9c40-3f2a96416cf9","ios":"levelo://app?vid=0ffbdbd8-5971-4b7e-9c40-3f2a96416cf9"},"vehicle_type_id":"4","last_reported":1728562616,"current_range_meters":38800,"station_id":"ce4bgl92rcd13ifvqbq0","pricing_plan_id":"cebpf4jnsgd1na2vs0mg"},{"bike_id":"4b2f4fea-06b2-477f-9883-12a546ad6d80","system_id":"levelo_inurba_marseille","lat":43.33606,"lon":5.41026,"is_reserved":false,"is_disabled":false,"rental_uris":{"android":"levelo://app?vid=4b2f4fea-06b2-477f-9883-12a546ad6d80","ios":"levelo://app?vid=4b2f4fea-06b2-477f-9883-12a546ad6d80"},"vehicle_type_id":"4","last_reported":1728562616,"current_range_meters":29600,"station_id":"ce4bhqh2rcd13ifvqhmg","pricing_plan_id":"cebpf4jnsgd1na2vs0mg"},{"bike_id":"c85d3274-defc-4de7-9e1e-f7c2c55d184d","system_id":"levelo_inurba_marseille","lat":43.32474,"lon":5.36577,"is_reserved":false,"is_disabled":false,"rental_uris":{"android":"levelo://app?vid=c85d3274-defc-4de7-9e1e-f7c2c55d184d","ios":"levelo://app?vid=c85d3274-defc-4de7-9e1e-f7c2c55d184d"},"vehicle_type_id":"4","last_reported":1728562616,"current_range_meters":12800,"station_id":"ce4bhs12rcd13ifvqhvg","pricing_plan_id":"cebpf4jnsgd1na2vs0mg"},{"bike_id":"0d616978-f5e6-49ce-94a5-19c6c56a53ac","system_id":"levelo_inurba_marseille","lat":43.34147,"lon":5.40906,"is_reserved":false,"is_disabled":false,"rental_uris":{"android":"levelo://app?vid=0d616978-f5e6-49ce-94a5-19c6c56a53ac","ios":"levelo://app?vid=0d616978-f5e6-49ce-94a5-19c6c56a53ac"},"vehicle_type_id":"4","last_reported":1728562616,"current_range_meters":8000,"station_id":"ce4bhqh2rcd13ifvqhlg","pricing_plan_id":"cebpf4jnsgd1na2vs0mg"},{"bike_id":"6d0878bc-a3c5-4372-9657-3adbcc791b10","system_id":"levelo_inurba_marseille","lat":43.3079,"lon":5.37653,"is_reserved":false,"is_disabled":false,"rental_uris":{"android":"levelo://app?vid=6d0878bc-a3c5-4372-9657-3adbcc791b10","ios":"levelo://app?vid=6d0878bc-a3c5-4372-9657-3adbcc791b10"},"vehicle_type_id":"4","last_reported":1728562616,"current_range_meters":11200,"station_id":"ce4bgv92rcd13ifvqcq0","pricing_plan_id":"cebpf4jnsgd1na2vs0mg"},{"bike_id":"c2847608-63b1-420b-b6a4-76e3aa2a69cc","system_id":"levelo_inurba_marseille","lat":43.24068,"lon":5.37754,"is_reserved":false,"is_disabled":false,"rental_uris":{"android":"levelo://app?vid=c2847608-63b1-420b-b6a4-76e3aa2a69cc","ios":"levelo://app?vid=c2847608-63b1-420b-b6a4-76e3aa2a69cc"},"vehicle_type_id":"4","last_reported":1728562616,"current_range_meters":11600,"station_id":"ce4bhnp2rcd13ifvqgvg","pricing_plan_id":"cebpf4jnsgd1na2vs0mg"},{"bike_id":"21f3f746-8980-4f3b-be2a-597ad21d230c","system_id":"levelo_inurba_marseille","lat":43.28407,"lon":5.37521,"is_reserved":false,"is_disabled":false,"rental_uris":{"android":"levelo://app?vid=21f3f746-8980-4f3b-be2a-597ad21d230c","ios":"levelo://app?vid=21f3f746-8980-4f3b-be2a-597ad21d230c"},"vehicle_type_id":"4","last_reported":1728562616,"current_range_meters":8400,"station_id":"ce4bh412rcd13ifvqds0","pricing_plan_id":"cebpf4jnsgd1na2vs0mg"},{"bike_id":"d16fdf70-e357-4565-9b04-71a53f006c3e","system_id":"levelo_inurba_marseille","lat":43.320547,"lon":5.415383,"is_reserved":false,"is_disabled":false,"rental_uris":{"android":"levelo://app?vid=d16fdf70-e357-4565-9b04-71a53f006c3e","ios":"levelo://app?vid=d16fdf70-e357-4565-9b04-71a53f006c3e"},"vehicle_type_id":"4","last_reported":1728562616,"current_range_meters":27200,"station_id":"ce4bhq92rcd13ifvqhkg","pricing_plan_id":"cebpf4jnsgd1na2vs0mg"},{"bike_id":"aed7ba20-f7e4-4fdb-a1c3-ec5f5e2d8f8b","system_id":"levelo_inurba_marseille","lat":43.26572,"lon":5.39005,"is_reserved":false,"is_disabled":false,"rental_uris":{"android":"levelo://app?vid=aed7ba20-f7e4-4fdb-a1c3-ec5f5e2d8f8b","ios":"levelo://app?vid=aed7ba20-f7e4-4fdb-a1c3-ec5f5e2d8f8b"},"vehicle_type_id":"4","last_reported":1728562616,"current_range_meters":22000,"station_id":"ce4bhe12rcd13ifvqf30","pricing_plan_id":"cebpf4jnsgd1na2vs0mg"},{"bike_id":"b11dfadc-13c1-4e98-af31-c02d00a0418c","system_id":"levelo_inurba_marseille","lat":43.28934,"lon":5.36399,"is_reserved":false,"is_disabled":false,"rental_uris":{"android":"levelo://app?vid=b11dfadc-13c1-4e98-af31-c02d00a0418c","ios":"levelo://app?vid=b11dfadc-13c1-4e98-af31-c02d00a0418c"},"vehicle_type_id":"4","last_reported":1728562616,"current_range_meters":14400,"station_id":"ce4bhc92rcd13ifvqetg","pricing_plan_id":"cebpf4jnsgd1na2vs0mg"},{"bike_id":"28859396-acf0-4362-9ee1-274f3ecbdd4d","system_id":"levelo_inurba_marseille","lat":43.32481,"lon":5.36558,"is_reserved":false,"is_disabled":false,"rental_uris":{"android":"levelo://app?vid=28859396-acf0-4362-9ee1-274f3ecbdd4d","ios":"levelo://app?vid=28859396-acf0-4362-9ee1-274f3ecbdd4d"},"vehicle_type_id":"4","last_reported":1728562616,"current_range_meters":32400,"station_id":"ce4bhs12rcd13ifvqhvg","pricing_plan_id":"cebpf4jnsgd1na2vs0mg"},{"bike_id":"20dab75d-2e6a-4c11-980c-54c451fa1ed2","system_id":"levelo_inurba_marseille","lat":43.31068,"lon":5.38348,"is_reserved":false,"is_disabled":false,"rental_uris":{"android":"levelo://app?vid=20dab75d-2e6a-4c11-980c-54c451fa1ed2","ios":"levelo://app?vid=20dab75d-2e6a-4c11-980c-54c451fa1ed2"},"vehicle_type_id":"4","last_reported":1728562616,"current_range_meters":8400,"station_id":"ce4bgv92rcd13ifvqcr0","pricing_plan_id":"cebpf4jnsgd1na2vs0mg"},{"bike_id":"5bc7f35b-b446-479e-8b38-b500bc70c9c2","system_id":"levelo_inurba_marseille","lat":43.27493,"lon":5.42454,"is_reserved":false,"is_disabled":false,"rental_uris":{"android":"levelo://app?vid=5bc7f35b-b446-479e-8b38-b500bc70c9c2","ios":"levelo://app?vid=5bc7f35b-b446-479e-8b38-b500bc70c9c2"},"vehicle_type_id":"4","last_reported":1728562616,"current_range_meters":36000,"station_id":"ce4bhn92rcd13ifvqgrg","pricing_plan_id":"cebpf4jnsgd1na2vs0mg"},{"bike_id":"5dd7e4c3-b41c-4339-8294-5bd79d4dea58","system_id":"levelo_inurba_marseille","lat":43.301487,"lon":5.380971,"is_reserved":false,"is_disabled":false,"rental_uris":{"android":"levelo://app?vid=5dd7e4c3-b41c-4339-8294-5bd79d4dea58","ios":"levelo://app?vid=5dd7e4c3-b41c-4339-8294-5bd79d4dea58"},"vehicle_type_id":"4","last_reported":1728562616,"current_range_meters":10000,"station_id":"ce4bgjp2rcd13ifvqbh0","pricing_plan_id":"cebpf4jnsgd1na2vs0mg"},{"bike_id":"b14b8976-23c4-4672-bb08-1010884a5957","system_id":"levelo_inurba_marseille","lat":43.28935,"lon":5.36397,"is_reserved":false,"is_disabled":false,"rental_uris":{"android":"levelo://app?vid=b14b8976-23c4-4672-bb08-1010884a5957","ios":"levelo://app?vid=b14b8976-23c4-4672-bb08-1010884a5957"},"vehicle_type_id":"4","last_reported":1728562616,"current_range_meters":30000,"station_id":"ce4bhc92rcd13ifvqetg","pricing_plan_id":"cebpf4jnsgd1na2vs0mg"},{"bike_id":"9294ae89-d7a9-4d56-b299-84a8d0c6ea2b","system_id":"levelo_inurba_marseille","lat":43.29615,"lon":5.37729,"is_reserved":false,"is_disabled":false,"rental_uris":{"android":"levelo://app?vid=9294ae89-d7a9-4d56-b299-84a8d0c6ea2b","ios":"levelo://app?vid=9294ae89-d7a9-4d56-b299-84a8d0c6ea2b"},"vehicle_type_id":"4","last_reported":1728562616,"current_range_meters":37600,"station_id":"ce4bgi92rcd13ifvqb90","pricing_plan_id":"cebpf4jnsgd1na2vs0mg"},{"bike_id":"dee90c2f-45ca-40e8-b111-e354e5ab501c","system_id":"levelo_inurba_marseille","lat":43.31362,"lon":5.36699,"is_reserved":false,"is_disabled":false,"rental_uris":{"android":"levelo://app?vid=dee90c2f-45ca-40e8-b111-e354e5ab501c","ios":"levelo://app?vid=dee90c2f-45ca-40e8-b111-e354e5ab501c"},"vehicle_type_id":"4","last_reported":1728562616,"current_range_meters":6800,"station_id":"ce4bgr92rcd13ifvqc6g","pricing_plan_id":"cebpf4jnsgd1na2vs0mg"},{"bike_id":"c5e21293-3c83-420b-8bc3-af9aea4883b4","system_id":"levelo_inurba_marseille","lat":43.29884,"lon":5.389,"is_reserved":false,"is_disabled":false,"rental_uris":{"android":"levelo://app?vid=c5e21293-3c83-420b-8bc3-af9aea4883b4","ios":"levelo://app?vid=c5e21293-3c83-420b-8bc3-af9aea4883b4"},"vehicle_type_id":"4","last_reported":1728562616,"current_range_meters":3200,"station_id":"ce4bh392rcd13ifvqdl0","pricing_plan_id":"cebpf4jnsgd1na2vs0mg"},{"bike_id":"d489cfc6-215e-4e8e-82f7-7f55cfe48732","system_id":"levelo_inurba_marseille","lat":43.26783,"lon":5.39415,"is_reserved":false,"is_disabled":false,"rental_uris":{"android":"levelo://app?vid=d489cfc6-215e-4e8e-82f7-7f55cfe48732","ios":"levelo://app?vid=d489cfc6-215e-4e8e-82f7-7f55cfe48732"},"vehicle_type_id":"4","last_reported":1728562616,"current_range_meters":33600,"station_id":"ce4bhh12rcd13ifvqfg0","pricing_plan_id":"cebpf4jnsgd1na2vs0mg"},{"bike_id":"677d7c65-d527-4a9d-bebf-6686e9a9f0ac","system_id":"levelo_inurba_marseille","lat":43.27055,"lon":5.40258,"is_reserved":false,"is_disabled":false,"rental_uris":{"android":"levelo://app?vid=677d7c65-d527-4a9d-bebf-6686e9a9f0ac","ios":"levelo://app?vid=677d7c65-d527-4a9d-bebf-6686e9a9f0ac"},"vehicle_type_id":"4","last_reported":1728562616,"current_range_meters":22800,"station_id":"ce4bhk92rcd13ifvqgc0","pricing_plan_id":"cebpf4jnsgd1na2vs0mg"},{"bike_id":"4c5539e1-03aa-414d-9014-d8ad845d15c6","system_id":"levelo_inurba_marseille","lat":43.30594,"lon":5.39358,"is_reserved":false,"is_disabled":false,"rental_uris":{"android":"levelo://app?vid=4c5539e1-03aa-414d-9014-d8ad845d15c6","ios":"levelo://app?vid=4c5539e1-03aa-414d-9014-d8ad845d15c6"},"vehicle_type_id":"4","last_reported":1728562616,"current_range_meters":37600,"station_id":"ce4bh0p2rcd13ifvqd80","pricing_plan_id":"cebpf4jnsgd1na2vs0mg"},{"bike_id":"c9eebef6-c88a-42e4-8bc1-608719228801","system_id":"levelo_inurba_marseille","lat":43.30461,"lon":5.37904,"is_reserved":false,"is_disabled":false,"rental_uris":{"android":"levelo://app?vid=c9eebef6-c88a-42e4-8bc1-608719228801","ios":"levelo://app?vid=c9eebef6-c88a-42e4-8bc1-608719228801"},"vehicle_type_id":"4","last_reported":1728562616,"current_range_meters":7200,"station_id":"ce4bgup2rcd13ifvqcn0","pricing_plan_id":"cebpf4jnsgd1na2vs0mg"},{"bike_id":"c7c56f7a-5102-4e1a-8633-faac677ed3c6","system_id":"levelo_inurba_marseille","lat":43.23195,"lon":5.35551,"is_reserved":false,"is_disabled":false,"rental_uris":{"android":"levelo://app?vid=c7c56f7a-5102-4e1a-8633-faac677ed3c6","ios":"levelo://app?vid=c7c56f7a-5102-4e1a-8633-faac677ed3c6"},"vehicle_type_id":"4","last_reported":1728562616,"current_range_meters":25600,"station_id":"ce4bhu92rcd13ifvqi70","pricing_plan_id":"cebpf4jnsgd1na2vs0mg"},{"bike_id":"a6951866-dd34-4812-8a24-4a7c121cfa8d","system_id":"levelo_inurba_marseille","lat":43.32289,"lon":5.38264,"is_reserved":false,"is_disabled":false,"rental_uris":{"android":"levelo://app?vid=a6951866-dd34-4812-8a24-4a7c121cfa8d","ios":"levelo://app?vid=a6951866-dd34-4812-8a24-4a7c121cfa8d"},"vehicle_type_id":"4","last_reported":1728562616,"current_range_meters":38800,"station_id":"ce4bhr12rcd13ifvqhqg","pricing_plan_id":"cebpf4jnsgd1na2vs0mg"},{"bike_id":"e91241cf-d700-4ca9-9831-8cc5618a8359","system_id":"levelo_inurba_marseille","lat":43.29851,"lon":5.36276,"is_reserved":false,"is_disabled":false,"rental_uris":{"android":"levelo://app?vid=e91241cf-d700-4ca9-9831-8cc5618a8359","ios":"levelo://app?vid=e91241cf-d700-4ca9-9831-8cc5618a8359"},"vehicle_type_id":"4","last_reported":1728562616,"current_range_meters":13600,"station_id":"ce4bgpp2rcd13ifvqc3g","pricing_plan_id":"cebpf4jnsgd1na2vs0mg"},{"bike_id":"f317ea2d-1dcf-44a6-9645-41755f0e7d5a","system_id":"levelo_inurba_marseille","lat":43.29594,"lon":5.38092,"is_reserved":false,"is_disabled":false,"rental_uris":{"android":"levelo://app?vid=f317ea2d-1dcf-44a6-9645-41755f0e7d5a","ios":"levelo://app?vid=f317ea2d-1dcf-44a6-9645-41755f0e7d5a"},"vehicle_type_id":"4","last_reported":1728562616,"current_range_meters":9200,"station_id":"ce4bgl12rcd13ifvqbo0","pricing_plan_id":"cebpf4jnsgd1na2vs0mg"},{"bike_id":"c3ace53e-6fa3-4229-a98c-053e968a49c9","system_id":"levelo_inurba_marseille","lat":43.34139,"lon":5.4091,"is_reserved":false,"is_disabled":false,"rental_uris":{"android":"levelo://app?vid=c3ace53e-6fa3-4229-a98c-053e968a49c9","ios":"levelo://app?vid=c3ace53e-6fa3-4229-a98c-053e968a49c9"},"vehicle_type_id":"4","last_reported":1728562616,"current_range_meters":9600,"station_id":"ce4bhqh2rcd13ifvqhlg","pricing_plan_id":"cebpf4jnsgd1na2vs0mg"},{"bike_id":"f98a5240-3ea9-40df-9c95-2780c7a56eb3","system_id":"levelo_inurba_marseille","lat":43.29924,"lon":5.3747,"is_reserved":false,"is_disabled":false,"rental_uris":{"android":"levelo://app?vid=f98a5240-3ea9-40df-9c95-2780c7a56eb3","ios":"levelo://app?vid=f98a5240-3ea9-40df-9c95-2780c7a56eb3"},"vehicle_type_id":"4","last_reported":1728562616,"current_range_meters":14000,"station_id":"ce4bgjh2rcd13ifvqbg0","pricing_plan_id":"cebpf4jnsgd1na2vs0mg"},{"bike_id":"6c1233cb-ded9-43c3-8893-48a87f56bb88","system_id":"levelo_inurba_marseille","lat":43.28579,"lon":5.39487,"is_reserved":false,"is_disabled":false,"rental_uris":{"android":"levelo://app?vid=6c1233cb-ded9-43c3-8893-48a87f56bb88","ios":"levelo://app?vid=6c1233cb-ded9-43c3-8893-48a87f56bb88"},"vehicle_type_id":"4","last_reported":1728562616,"current_range_meters":10000,"station_id":"ce4bh292rcd13ifvqdg0","pricing_plan_id":"cebpf4jnsgd1na2vs0mg"},{"bike_id":"73509d34-efe4-41ff-8f68-ad1a7d2ead09","system_id":"levelo_inurba_marseille","lat":43.251034,"lon":5.403172,"is_reserved":false,"is_disabled":false,"rental_uris":{"android":"levelo://app?vid=73509d34-efe4-41ff-8f68-ad1a7d2ead09","ios":"levelo://app?vid=73509d34-efe4-41ff-8f68-ad1a7d2ead09"},"vehicle_type_id":"4","last_reported":1728562616,"current_range_meters":8000,"station_id":"ce4bhlh2rcd13ifvqgig","pricing_plan_id":"cebpf4jnsgd1na2vs0mg"},{"bike_id":"daa275ea-ac44-47b4-ac61-333e5afbc9ef","system_id":"levelo_inurba_marseille","lat":43.31689,"lon":5.41589,"is_reserved":false,"is_disabled":false,"rental_uris":{"android":"levelo://app?vid=daa275ea-ac44-47b4-ac61-333e5afbc9ef","ios":"levelo://app?vid=daa275ea-ac44-47b4-ac61-333e5afbc9ef"},"vehicle_type_id":"4","last_reported":1728562616,"current_range_meters":11200,"station_id":"ce4bhp92rcd13ifvqhbg","pricing_plan_id":"cebpf4jnsgd1na2vs0mg"},{"bike_id":"d7fca7d1-5760-41b4-bf44-b26b9cb5bdd7","system_id":"levelo_inurba_marseille","lat":43.30612,"lon":5.37217,"is_reserved":false,"is_disabled":false,"rental_uris":{"android":"levelo://app?vid=d7fca7d1-5760-41b4-bf44-b26b9cb5bdd7","ios":"levelo://app?vid=d7fca7d1-5760-41b4-bf44-b26b9cb5bdd7"},"vehicle_type_id":"4","last_reported":1728562616,"current_range_meters":6400,"station_id":"ce4bgqh2rcd13ifvqc4g","pricing_plan_id":"cebpf4jnsgd1na2vs0mg"},{"bike_id":"1d556b13-f330-4041-9740-331d1e5f1b14","system_id":"levelo_inurba_marseille","lat":43.28709,"lon":5.37936,"is_reserved":false,"is_disabled":false,"rental_uris":{"android":"levelo://app?vid=1d556b13-f330-4041-9740-331d1e5f1b14","ios":"levelo://app?vid=1d556b13-f330-4041-9740-331d1e5f1b14"},"vehicle_type_id":"4","last_reported":1728562616,"current_range_meters":4400,"station_id":"ce4bh9p2rcd13ifvqec0","pricing_plan_id":"cebpf4jnsgd1na2vs0mg"},{"bike_id":"c5d01ffe-6890-4aa1-859f-c4c28adaea10","system_id":"levelo_inurba_marseille","lat":43.24081,"lon":5.37733,"is_reserved":false,"is_disabled":false,"rental_uris":{"android":"levelo://app?vid=c5d01ffe-6890-4aa1-859f-c4c28adaea10","ios":"levelo://app?vid=c5d01ffe-6890-4aa1-859f-c4c28adaea10"},"vehicle_type_id":"4","last_reported":1728562616,"current_range_meters":30800,"station_id":"ce4bhnp2rcd13ifvqgvg","pricing_plan_id":"cebpf4jnsgd1na2vs0mg"},{"bike_id":"92c80e05-1fb9-4de1-95fd-d0080df5b8aa","system_id":"levelo_inurba_marseille","lat":43.26201,"lon":5.37936,"is_reserved":false,"is_disabled":false,"rental_uris":{"android":"levelo://app?vid=92c80e05-1fb9-4de1-95fd-d0080df5b8aa","ios":"levelo://app?vid=92c80e05-1fb9-4de1-95fd-d0080df5b8aa"},"vehicle_type_id":"4","last_reported":1728562616,"current_range_meters":26000,"station_id":"ce4bhjp2rcd13ifvqg90","pricing_plan_id":"cebpf4jnsgd1na2vs0mg"},{"bike_id":"7714a0c8-dcae-4800-9838-1af45b546d2a","system_id":"levelo_inurba_marseille","lat":43.33749,"lon":5.37496,"is_reserved":false,"is_disabled":false,"rental_uris":{"android":"levelo://app?vid=7714a0c8-dcae-4800-9838-1af45b546d2a","ios":"levelo://app?vid=7714a0c8-dcae-4800-9838-1af45b546d2a"},"vehicle_type_id":"4","last_reported":1728562616,"current_range_meters":36400,"station_id":"","pricing_plan_id":"cebpf4jnsgd1na2vs0mg"},{"bike_id":"9cf3db70-1431-4372-b452-2d0770d0c15d","system_id":"levelo_inurba_marseille","lat":43.23194,"lon":5.35553,"is_reserved":false,"is_disabled":false,"rental_uris":{"android":"levelo://app?vid=9cf3db70-1431-4372-b452-2d0770d0c15d","ios":"levelo://app?vid=9cf3db70-1431-4372-b452-2d0770d0c15d"},"vehicle_type_id":"4","last_reported":1728562616,"current_range_meters":36400,"station_id":"ce4bhu92rcd13ifvqi70","pricing_plan_id":"cebpf4jnsgd1na2vs0mg"},{"bike_id":"6054f23d-08b8-4340-ac42-3e0c6e20cf91","system_id":"levelo_inurba_marseille","lat":43.2743,"lon":5.39416,"is_reserved":false,"is_disabled":false,"rental_uris":{"android":"levelo://app?vid=6054f23d-08b8-4340-ac42-3e0c6e20cf91","ios":"levelo://app?vid=6054f23d-08b8-4340-ac42-3e0c6e20cf91"},"vehicle_type_id":"4","last_reported":1728562616,"current_range_meters":11600,"station_id":"ce4bhdp2rcd13ifvqf20","pricing_plan_id":"cebpf4jnsgd1na2vs0mg"},