{"last_updated":1703844427,"ttl":30,"version":"2.2","data":{"bikes":[{"bike_id":"06f7bc28-7976-433f-8413-616887770a83","system_id":"levelo_inurba_marseille","lat":43.31341,"lon":5.367098,"is_reserved":false,"is_disabled":false,"rental_uris":{"android":"levelo://app?vid=06f7bc28-7976-433f-8413-616887770a83","ios":"levelo://app?vid=06f7bc28-7976-433f-8413-616887770a83"},"vehicle_type_id":"4","last_reported":1703844427,"current_range_meters":18400,"station_id":"ce4bgr92rcd13ifvqc6g","pricing_plan_id":"free"},{"bike_id":"d971ddb0-8625-4703-ae76-3bd24889cfa7","system_id":"levelo_inurba_marseille","lat":43.312239,"lon":5.368562,"is_reserved":false,"is_disabled":false,"rental_uris":{"android":"levelo://app?vid=d971ddb0-8625-4703-ae76-3bd24889cfa7","ios":"levelo://app?vid=d971ddb0-8625-4703-ae76-3bd24889cfa7"},"vehicle_type_id":"4","last_reported":1703844427,"current_range_meters":14400,"station_id":"ce4bgl92rcd13ifvqbq0","pricing_plan_id":"free"},{"bike_id":"ab8a70ef-1975-4143-ba97-d978fb95ade8","system_id":"levelo_inurba_marseille","lat":43.312239,"lon":5.368562,"is_reserved":false,"is_disabled":false,"rental_uris":{"android":"levelo://app?vid=ab8a70ef-1975-4143-ba97-d978fb95ade8","ios":"levelo://app?vid=ab8a70ef-1975-4143-ba97-d978fb95ade8"},"vehicle_type_id":"4","last_reported":1703844427,"current_range_meters":28000,"station_id":"ce4bgl92rcd13ifvqbq0","pricing_plan_id":"free"},{"bike_id":"4dd2a43d-c423-42a1-b6ac-736d356f55c4","system_id":"levelo_inurba_marseille","lat":43.309076,"lon":5.368465,"is_reserved":false,"is_disabled":false,"rental_uris":{"android":"levelo://app?vid=4dd2a43d-c423-42a1-b6ac-736d356f55c4","ios":"levelo://app?vid=4dd2a43d-c423-42a1-b6ac-736d356f55c4"},"vehicle_type_id":"4","last_reported":1703844427,"current_range_meters":28400,"station_id":"ce4bgn92rcd13ifvqbvg","pricing_plan_id":"free"},{"bike_id":"b119803b-67a1-469a-a87f-003c712c152c","system_id":"levelo_inurba_marseille","lat":43.309076,"lon":5.368465,"is_reserved":false,"is_disabled":false,"rental_uris":{"android":"levelo://app?vid=b119803b-67a1-469a-a87f-003c712c152c","ios":"levelo://app?vid=b119803b-67a1-469a-a87f-003c712c152c"},"vehicle_type_id":"4","last_reported":1703844427,"current_range_meters":31600,"station_id":"ce4bgn92rcd13ifvqbvg","pricing_plan_id":"free"},{"bike_id":"f3e3c339-02e0-43de-8744-eb75112a734a","system_id":"levelo_inurba_marseille","lat":43.309076,"lon":5.368465,"is_reserved":false,"is_disabled":false,"rental_uris":{"android":"levelo://app?vid=f3e3c339-02e0-43de-8744-eb75112a734a","ios":"levelo://app?vid=f3e3c339-02e0-43de-8744-eb75112a734a"},"vehicle_type_id":"4","last_reported":1703844427,"current_range_meters":31200,"station_id":"ce4bgn92rcd13ifvqbvg","pricing_plan_id":"free"},{"bike_id":"ba1030d1-985b-4348-b352-c5993d69fe0b","system_id":"levelo_inurba_marseille","lat":43.3091,"lon":5.36839,"is_reserved":false,"is_disabled":false,"rental_uris":{"android":"levelo://app?vid=ba1030d1-985b-4348-b352-c5993d69fe0b","ios":"levelo://app?vid=ba1030d1-985b-4348-b352-c5993d69fe0b"},"vehicle_type_id":"4","last_reported":1703844427,"current_range_meters":5200,"station_id":"ce4bgn92rcd13ifvqbvg","pricing_plan_id":"free"},{"bike_id":"2d5452e2-316d-4dd9-98e9-d320f34e3fe8","system_id":"levelo_inurba_marseille","lat":43.309076,"lon":5.368465,"is_reserved":false,"is_disabled":false,"rental_uris":{"android":"levelo://app?vid=2d5452e2-316d-4dd9-98e9-d320f34e3fe8","ios":"levelo://app?vid=2d5452e2-316d-4dd9-98e9-d320f34e3fe8"},"vehicle_type_id":"4","last_reported":1703844427,"current_range_meters":30000,"station_id":"ce4bgn92rcd13ifvqbvg","pricing_plan_id":"free"},{"bike_id":"7342a0e2-ffde-4e8a-8d50-a88fcee896c9","system_id":"levelo_inurba_marseille","lat":43.30907,"lon":5.36846,"is_reserved":false,"is_disabled":false,"rental_uris":{"android":"levelo://app?vid=7342a0e2-ffde-4e8a-8d50-a88fcee896c9","ios":"levelo://app?vid=7342a0e2-ffde-4e8a-8d50-a88fcee896c9"},"vehicle_type_id":"4","last_reported":1703844427,"current_range_meters":18400,"station_id":"ce4bgn92rcd13ifvqbvg","pricing_plan_id":"free"},{"bike_id":"5b849cb2-bb20-4562-9931-da93835f0f60","system_id":"levelo_inurba_marseille","lat":43.309039,"lon":5.371797,"is_reserved":false,"is_disabled":false,"rental_uris":{"android":"levelo://app?vid=5b849cb2-bb20-4562-9931-da93835f0f60","ios":"levelo://app?vid=5b849cb2-bb20-4562-9931-da93835f0f60"},"vehicle_type_id":"4","last_reported":1703844427,"current_range_meters":28000,"station_id":"ce4bguh2rcd13ifvqckg","pricing_plan_id":"free"},{"bike_id":"44443f35-52b2-4820-a03d-d5e5c4a6bed7","system_id":"levelo_inurba_marseille","lat":43.309039,"lon":5.371797,"is_reserved":false,"is_disabled":false,"rental_uris":{"android":"levelo://app?vid=44443f35-52b2-4820-a03d-d5e5c4a6bed7","ios":"levelo://app?vid=44443f35-52b2-4820-a03d-d5e5c4a6bed7"},"vehicle_type_id":"4","last_reported":1703844427,"current_range_meters":17200,"station_id":"ce4bguh2rcd13ifvqckg","pricing_plan_id":"free"},{"bike_id":"a5aac7fd-33ca-46a3-98d8-21e6de83a247","system_id":"levelo_inurba_marseille","lat":43.31822,"lon":5.37286,"is_reserved":false,"is_disabled":false,"rental_uris":{"android":"levelo://app?vid=a5aac7fd-33ca-46a3-98d8-21e6de83a247","ios":"levelo://app?vid=a5aac7fd-33ca-46a3-98d8-21e6de83a247"},"vehicle_type_id":"4","last_reported":1703844427,"current_range_meters":22400,"station_id":"","pricing_plan_id":"free"},{"bike_id":"778a2549-58eb-4063-a8d9-b62c7265d406","system_id":"levelo_inurba_marseille","lat":43.305712,"lon":5.365641,"is_reserved":false,"is_disabled":false,"rental_uris":{"android":"levelo://app?vid=778a2549-58eb-4063-a8d9-b62c7265d406","ios":"levelo://app?vid=778a2549-58eb-4063-a8d9-b62c7265d406"},"vehicle_type_id":"4","last_reported":1703844427,"current_range_meters":29200,"station_id":"ce4bgs12rcd13ifvqcag","pricing_plan_id":"free"},{"bike_id":"85bf332f-195f-4c21-a399-f54927826088","system_id":"levelo_inurba_marseille","lat":43.305706,"lon":5.365654,"is_reserved":false,"is_disabled":false,"rental_uris":{"android":"levelo://app?vid=85bf332f-195f-4c21-a399-f54927826088","ios":"levelo://app?vid=85bf332f-195f-4c21-a399-f54927826088"},"vehicle_type_id":"4","last_reported":1703844427,"current_range_meters":17600,"station_id":"ce4bgs12rcd13ifvqcag","pricing_plan_id":"free"},{"bike_id":"5fc8e2d3-05e6-4d8a-bb1d-5aa0eeaf0b2b","system_id":"levelo_inurba_marseille","lat":43.305712,"lon":5.365641,"is_reserved":false,"is_disabled":false,"rental_uris":{"android":"levelo://app?vid=5fc8e2d3-05e6-4d8a-bb1d-5aa0eeaf0b2b","ios":"levelo://app?vid=5fc8e2d3-05e6-4d8a-bb1d-5aa0eeaf0b2b"},"vehicle_type_id":"4","last_reported":1703844427,"current_range_meters":19600,"station_id":"ce4bgs12rcd13ifvqcag","pricing_plan_id":"free"},{"bike_id":"d47fb8ef-2d46-4cb4-b4c8-d45af96174b6","system_id":"levelo_inurba_marseille","lat":43.305714,"lon":5.365633,"is_reserved":false,"is_disabled":false,"rental_uris":{"android":"levelo://app?vid=d47fb8ef-2d46-4cb4-b4c8-d45af96174b6","ios":"levelo://app?vid=d47fb8ef-2d46-4cb4-b4c8-d45af96174b6"},"vehicle_type_id":"4","last_reported":1703844427,"current_range_meters":29600,"station_id":"ce4bgs12rcd13ifvqcag","pricing_plan_id":"free"},{"bike_id":"bc92937c-b8ad-40e0-8bef-c6e617c29afa","system_id":"levelo_inurba_marseille","lat":43.305706,"lon":5.365654,"is_reserved":false,"is_disabled":false,"rental_uris":{"android":"levelo://app?vid=bc92937c-b8ad-40e0-8bef-c6e617c29afa","ios":"levelo://app?vid=bc92937c-b8ad-40e0-8bef-c6e617c29afa"},"vehicle_type_id":"4","last_reported":1703844427,"current_range_meters":26000,"station_id":"ce4bgs12rcd13ifvqcag","pricing_plan_id":"free"},{"bike_id":"7494e979-aaf0-435a-bc92-152c7bdc34f8","system_id":"levelo_inurba_marseille","lat":43.305714,"lon":5.365633,"is_reserved":false,"is_disabled":false,"rental_uris":{"android":"levelo://app?vid=7494e979-aaf0-435a-bc92-152c7bdc34f8","ios":"levelo://app?vid=7494e979-aaf0-435a-bc92-152c7bdc34f8"},"vehicle_type_id":"4","last_reported":1703844427,"current_range_meters":16800,"station_id":"ce4bgs12rcd13ifvqcag","pricing_plan_id":"free"},{"bike_id":"ef57b386-bf17-4632-99f4-cb891269b5b0","system_id":"levelo_inurba_marseille","lat":43.305706,"lon":5.365654,"is_reserved":false,"is_disabled":false,"rental_uris":{"android":"levelo://app?vid=ef57b386-bf17-4632-99f4-cb891269b5b0","ios":"levelo://app?vid=ef57b386-bf17-4632-99f4-cb891269b5b0"},"vehicle_type_id":"4","last_reported":1703844427,"current_range_meters":29200,"station_id":"ce4bgs12rcd13ifvqcag","pricing_plan_id":"free"},{"bike_id":"b679fa2e-b403-4957-8fc4-7bb8e707b56b","system_id":"levelo_inurba_marseille","lat":43.305706,"lon":5.365654,"is_reserved":false,"is_disabled":false,"rental_uris":{"android":"levelo://app?vid=b679fa2e-b403-4957-8fc4-7bb8e707b56b","ios":"levelo://app?vid=b679fa2e-b403-4957-8fc4-7bb8e707b56b"},"vehicle_type_id":"4","last_reported":1703844427,"current_range_meters":27200,"station_id":"ce4bgs12rcd13ifvqcag","pricing_plan_id":"free"},{"bike_id":"2bf1159c-4b34-4bc3-a8b5-156be571c011","system_id":"levelo_inurba_marseille","lat":43.30726,"lon":5.37383,"is_reserved":false,"is_disabled":false,"rental_uris":{"android":"levelo://app?vid=2bf1159c-4b34-4bc3-a8b5-156be571c011","ios":"levelo://app?vid=2bf1159c-4b34-4bc3-a8b5-156be571c011"},"vehicle_type_id":"4","last_reported":1703844427,"current_range_meters":28800,"station_id":"","pricing_plan_id":"free"},{"bike_id":"1b05a252-fa75-4d7e-b412-8249115b4b79","system_id":"levelo_inurba_marseille","lat":43.305706,"lon":5.365654,"is_reserved":false,"is_disabled":false,"rental_uris":{"android":"levelo://app?vid=1b05a252-fa75-4d7e-b412-8249115b4b79","ios":"levelo://app?vid=1b05a252-fa75-4d7e-b412-8249115b4b79"},"vehicle_type_id":"4","last_reported":1703844427,"current_range_meters":31200,"station_id":"ce4bgs12rcd13ifvqcag","pricing_plan_id":"free"},{"bike_id":"07a6ce2f-f44f-48c3-ab70-7cb3fe5d702c","system_id":"levelo_inurba_marseille","lat":43.305706,"lon":5.365654,"is_reserved":false,"is_disabled":false,"rental_uris":{"android":"levelo://app?vid=07a6ce2f-f44f-48c3-ab70-7cb3fe5d702c","ios":"levelo://app?vid=07a6ce2f-f44f-48c3-ab70-7cb3fe5d702c"},"vehicle_type_id":"4","last_reported":1703844427,"current_range_meters":24800,"station_id":"ce4bgs12rcd13ifvqcag","pricing_plan_id":"free"},{"bike_id":"da0c6436-1550-4bdf-a4e3-327bd6db5921","system_id":"levelo_inurba_marseille","lat":43.305714,"lon":5.365633,"is_reserved":false,"is_disabled":false,"rental_uris":{"android":"levelo://app?vid=da0c6436-1550-4bdf-a4e3-327bd6db5921","ios":"levelo://app?vid=da0c6436-1550-4bdf-a4e3-327bd6db5921"},"vehicle_type_id":"4","last_reported":1703844427,"current_range_meters":30800,"station_id":"ce4bgs12rcd13ifvqcag","pricing_plan_id":"free"},{"bike_id":"d9ac79ea-39f8-4fb6-b46f-024017eba94f","system_id":"levelo_inurba_marseille","lat":43.305706,"lon":5.365654,"is_reserved":false,"is_disabled":false,"rental_uris":{"android":"levelo://app?vid=d9ac79ea-39f8-4fb6-b46f-024017eba94f","ios":"levelo://app?vid=d9ac79ea-39f8-4fb6-b46f-024017eba94f"},"vehicle_type_id":"4","last_reported":1703844427,"current_range_meters":5600,"station_id":"ce4bgs12rcd13ifvqcag","pricing_plan_id":"free"},{"bike_id":"0cd73e44-a0a7-4305-b215-45404e84db96","system_id":"levelo_inurba_marseille","lat":43.305706,"lon":5.365654,"is_reserved":false,"is_disabled":false,"rental_uris":{"android":"levelo://app?vid=0cd73e44-a0a7-4305-b215-45404e84db96","ios":"levelo://app?vid=0cd73e44-a0a7-4305-b215-45404e84db96"},"vehicle_type_id":"4","last_reported":1703844427,"current_range_meters":31200,"station_id":"ce4bgs12rcd13ifvqcag","pricing_plan_id":"free"},{"bike_id":"189c35b5-972c-4c3b-b16b-c3196730e953","system_id":"levelo_inurba_marseille","lat":43.305706,"lon":5.365654,"is_reserved":false,"is_disabled":false,"rental_uris":{"android":"levelo://app?vid=189c35b5-972c-4c3b-b16b-c3196730e953","ios":"levelo://app?vid=189c35b5-972c-4c3b-b16b-c3196730e953"},"vehicle_type_id":"4","last_reported":1703844427,"current_range_meters":5200,"station_id":"ce4bgs12rcd13ifvqcag","pricing_plan_id":"free"},{"bike_id":"55be3461-0fbd-46bc-9675-7fa84a1b209e","system_id":"levelo_inurba_marseille","lat":43.305989,"lon":5.37225,"is_reserved":false,"is_disabled":false,"rental_uris":{"android":"levelo://app?vid=55be3461-0fbd-46bc-9675-7fa84a1b209e","ios":"levelo://app?vid=55be3461-0fbd-46bc-9675-7fa84a1b209e"},"vehicle_type_id":"4","last_reported":1703844427,"current_range_meters":25600,"station_id":"ce4bgqh2rcd13ifvqc4g","pricing_plan_id":"free"},{"bike_id":"b1c1aab2-2ace-4e37-b25e-72bb48c75242","system_id":"levelo_inurba_marseille","lat":43.305989,"lon":5.37225,"is_reserved":false,"is_disabled":false,"rental_uris":{"android":"levelo://app?vid=b1c1aab2-2ace-4e37-b25e-72bb48c75242","ios":"levelo://app?vid=b1c1aab2-2ace-4e37-b25e-72bb48c75242"},"vehicle_type_id":"4","last_reported":1703844427,"current_range_meters":6400,"station_id":"ce4bgqh2rcd13ifvqc4g","pricing_plan_id":"free"},{"bike_id":"7f0ac62c-b320-4b19-8a13-9d18056fe63f","system_id":"levelo_inurba_marseille","lat":43.305989,"lon":5.37225,"is_reserved":false,"is_disabled":false,"rental_uris":{"android":"levelo://app?vid=7f0ac62c-b320-4b19-8a13-9d18056fe63f","ios":"levelo://app?vid=7f0ac62c-b320-4b19-8a13-9d18056fe63f"},"vehicle_type_id":"4","last_reported":1703844427,"current_range_meters":30000,"station_id":"ce4bgqh2rcd13ifvqc4g","pricing_plan_id":"free"},{"bike_id":"0682ba12-3ef8-4a10-9558-dd2661b42520","system_id":"levelo_inurba_marseille","lat":43.307945,"lon":5.376487,"is_reserved":false,"is_disabled":false,"rental_uris":{"android":"levelo://app?vid=0682ba12-3ef8-4a10-9558-dd2661b42520","ios":"levelo://app?vid=0682ba12-3ef8-4a10-9558-dd2661b42520"},"vehicle_type_id":"4","last_reported":1703844427,"current_range_meters":25600,"station_id":"ce4bgv92rcd13ifvqcq0","pricing_plan_id":"free"},{"bike_id":"a9a5dfd0-b300-4fc2-b6e7-fd986ab57c3a","system_id":"levelo_inurba_marseille","lat":43.307945,"lon":5.376487,"is_reserved":false,"is_disabled":false,"rental_uris":{"android":"levelo://app?vid=a9a5dfd0-b300-4fc2-b6e7-fd986ab57c3a","ios":"levelo://app?vid=a9a5dfd0-b300-4fc2-b6e7-fd986ab57c3a"},"vehicle_type_id":"4","last_reported":1703844427,"current_range_meters":30400,"station_id":"ce4bgv92rcd13ifvqcq0","pricing_plan_id":"free"},{"bike_id":"88c7624d-47ba-453c-85e7-917aee396270","system_id":"levelo_inurba_marseille","lat":43.317075,"lon":5.377367,"is_reserved":false,"is_disabled":false,"rental_uris":{"android":"levelo://app?vid=88c7624d-47ba-453c-85e7-917aee396270","ios":"levelo://app?vid=88c7624d-47ba-453c-85e7-917aee396270"},"vehicle_type_id":"4","last_reported":1703844427,"current_range_meters":26800,"station_id":"ce4bgth2rcd13ifvqch0","pricing_plan_id":"free"},{"bike_id":"11f76219-cc9d-49d1-852b-dfc7e044b580","system_id":"levelo_inurba_marseille","lat":43.303046,"lon":5.368981,"is_reserved":false,"is_disabled":false,"rental_uris":{"android":"levelo://app?vid=11f76219-cc9d-49d1-852b-dfc7e044b580","ios":"levelo://app?vid=11f76219-cc9d-49d1-852b-dfc7e044b580"},"vehicle_type_id":"4","last_reported":1703844427,"current_range_meters":28800,"station_id":"ce4bgqh2rcd13ifvqc5g","pricing_plan_id":"free"},{"bike_id":"418069a6-0b8b-428d-acc3-e49a938a31b9","system_id":"levelo_inurba_marseille","lat":43.303046,"lon":5.368981,"is_reserved":false,"is_disabled":false,"rental_uris":{"android":"levelo://app?vid=418069a6-0b8b-428d-acc3-e49a938a31b9","ios":"levelo://app?vid=418069a6-0b8b-428d-acc3-e49a938a31b9"},"vehicle_type_id":"4","last_reported":1703844427,"current_range_meters":23600,"station_id":"ce4bgqh2rcd13ifvqc5g","pricing_plan_id":"free"},{"bike_id":"e6df8858-380a-4e2c-ac2b-6a92cc117aba","system_id":"levelo_inurba_marseille","lat":43.30304,"lon":5.368987,"is_reserved":false,"is_disabled":false,"rental_uris":{"android":"levelo://app?vid=e6df8858-380a-4e2c-ac2b-6a92cc117aba","ios":"levelo://app?vid=e6df8858-380a-4e2c-ac2b-6a92cc117aba"},"vehicle_type_id":"4","last_reported":1703844427,"current_range_meters":31200,"station_id":"ce4bgqh2rcd13ifvqc5g","pricing_plan_id":"free"},{"bike_id":"90db3963-6212-4aaf-8329-f77edccb687b","system_id":"levelo_inurba_marseille","lat":43.30284,"lon":5.37204,"is_reserved":false,"is_disabled":false,"rental_uris":{"android":"levelo://app?vid=90db3963-6212-4aaf-8329-f77edccb687b","ios":"levelo://app?vid=90db3963-6212-4aaf-8329-f77edccb687b"},"vehicle_type_id":"4","last_reported":1703844427,"current_range_meters":4800,"station_id":"","pricing_plan_id":"free"},{"bike_id":"7d284116-4916-4c4d-8588-c9fa7b7f8d92","system_id":"levelo_inurba_marseille","lat":43.308012,"lon":5.381511,"is_reserved":false,"is_disabled":false,"rental_uris":{"android":"levelo://app?vid=7d284116-4916-4c4d-8588-c9fa7b7f8d92","ios":"levelo://app?vid=7d284116-4916-4c4d-8588-c9fa7b7f8d92"},"vehicle_type_id":"4","last_reported":1703844427,"current_range_meters":28000,"station_id":"ce4bgt12rcd13ifvqce0","pricing_plan_id":"free"},{"bike_id":"4e5fa3fe-7c9f-4424-be59-fb70560a8806","system_id":"levelo_inurba_marseille","lat":43.308012,"lon":5.381511,"is_reserved":false,"is_disabled":false,"rental_uris":{"android":"levelo://app?vid=4e5fa3fe-7c9f-4424-be59-fb70560a8806","ios":"levelo://app?vid=4e5fa3fe-7c9f-4424-be59-fb70560a8806"},"vehicle_type_id":"4","last_reported":1703844427,"current_range_meters":17200,"station_id":"ce4bgt12rcd13ifvqce0","pricing_plan_id":"free"},{"bike_id":"9cf75e76-8f02-4564-90e5-2b3b4935e573","system_id":"levelo_inurba_marseille","lat":43.304606,"lon":5.379026,"is_reserved":false,"is_disabled":false,"rental_uris":{"android":"levelo://app?vid=9cf75e76-8f02-4564-90e5-2b3b4935e573","ios":"levelo://app?vid=9cf75e76-8f02-4564-90e5-2b3b4935e573"},"vehicle_type_id":"4","last_reported":1703844427,"current_range_meters":22000,"station_id":"ce4bgup2rcd13ifvqcn0","pricing_plan_id":"free"},{"bike_id":"f6863430-3304-4887-9036-11a0c081f48c","system_id":"levelo_inurba_marseille","lat":43.304606,"lon":5.379026,"is_reserved":false,"is_disabled":false,"rental_uris":{"android":"levelo://app?vid=f6863430-3304-4887-9036-11a0c081f48c","ios":"levelo://app?vid=f6863430-3304-4887-9036-11a0c081f48c"},"vehicle_type_id":"4","last_reported":1703844427,"current_range_meters":12000,"station_id":"ce4bgup2rcd13ifvqcn0","pricing_plan_id":"free"},{"bike_id":"f15b892e-52a0-44bd-8af0-c727e84edf41","system_id":"levelo_inurba_marseille","lat":43.304606,"lon":5.379026,"is_reserved":false,"is_disabled":false,"rental_uris":{"android":"levelo://app?vid=f15b892e-52a0-44bd-8af0-c727e84edf41","ios":"levelo://app?vid=f15b892e-52a0-44bd-8af0-c727e84edf41"},"vehicle_type_id":"4","last_reported":1703844427,"current_range_meters":14800,"station_id":"ce4bgup2rcd13ifvqcn0","pricing_plan_id":"free"},{"bike_id":"c32a4409-7ed8-4c3a-acbc-ce960328b326","system_id":"levelo_inurba_marseille","lat":43.304606,"lon":5.379026,"is_reserved":false,"is_disabled":false,"rental_uris":{"android":"levelo://app?vid=c32a4409-7ed8-4c3a-acbc-ce960328b326","ios":"levelo://app?vid=c32a4409-7ed8-4c3a-acbc-ce960328b326"},"vehicle_type_id":"4","last_reported":1703844427,"current_range_meters":18800,"station_id":"ce4bgup2rcd13ifvqcn0","pricing_plan_id":"free"},{"bike_id":"fc62a8e3-8b90-4fbd-9036-714df192acb1","system_id":"levelo_inurba_marseille","lat":43.304606,"lon":5.379026,"is_reserved":false,"is_disabled":false,"rental_uris":{"android":"levelo://app?vid=fc62a8e3-8b90-4fbd-9036-714df192acb1","ios":"levelo://app?vid=fc62a8e3-8b90-4fbd-9036-714df192acb1"},"vehicle_type_id":"4","last_reported":1703844427,"current_range_meters":17600,"station_id":"ce4bgup2rcd13ifvqcn0","pricing_plan_id":"free"},{"bike_id":"65a7d136-99e5-4eda-8dd9-8c128dc8f4fe","system_id":"levelo_inurba_marseille","lat":43.324771,"lon":5.36557,"is_reserved":false,"is_disabled":false,"rental_uris":{"android":"levelo://app?vid=65a7d136-99e5-4eda-8dd9-8c128dc8f4fe","ios":"levelo://app?vid=65a7d136-99e5-4eda-8dd9-8c128dc8f4fe"},"vehicle_type_id":"4","last_reported":1703844427,"current_range_meters":19200,"station_id":"ce4bhs12rcd13ifvqhvg","pricing_plan_id":"free"},{"bike_id":"eb75f652-373e-4726-9e33-c05a085e4a2d","system_id":"levelo_inurba_marseille","lat":43.301453,"lon":5.37416,"is_reserved":false,"is_disabled":false,"rental_uris":{"android":"levelo://app?vid=eb75f652-373e-4726-9e33-c05a085e4a2d","ios":"levelo://app?vid=eb75f652-373e-4726-9e33-c05a085e4a2d"},"vehicle_type_id":"4","last_reported":1703844427,"current_range_meters":2400,"station_id":"","pricing_plan_id":"free"},{"bike_id":"d6846346-6fc9-4f47-a16b-79973d5c3bea","system_id":"levelo_inurba_marseille","lat":43.30143,"lon":5.37413,"is_reserved":false,"is_disabled":false,"rental_uris":{"android":"levelo://app?vid=d6846346-6fc9-4f47-a16b-79973d5c3bea","ios":"levelo://app?vid=d6846346-6fc9-4f47-a16b-79973d5c3bea"},"vehicle_type_id":"4","last_reported":1703844427,"current_range_meters":27600,"station_id":"ce4bgs92rcd13ifvqcc0","pricing_plan_id":"free"},{"bike_id":"be005218-082b-4ff0-a467-1b11cf78b6b3","system_id":"levelo_inurba_marseille","lat":43.319935,"lon":5.381699,"is_reserved":false,"is_disabled":false,"rental_uris":{"android":"levelo://app?vid=be005218-082b-4ff0-a467-1b11cf78b6b3","ios":"levelo://app?vid=be005218-082b-4ff0-a467-1b11cf78b6b3"},"vehicle_type_id":"4","last_reported":1703844427,"current_range_meters":23600,"station_id":"ce4bhr12rcd13ifvqhpg","pricing_plan_id":"free"},{"bike_id":"b626ca70-9d00-4bd9-9942-f01a4300584c","system_id":"levelo_inurba_marseille","lat":43.313571,"lon":5.384829,"is_reserved":false,"is_disabled":false,"rental_uris":{"android":"levelo://app?vid=b626ca70-9d00-4bd9-9942-f01a4300584c","ios":"levelo://app?vid=b626ca70-9d00-4bd9-9942-f01a4300584c"},"vehicle_type_id":"4","last_reported":1703844427,"current_range_meters":30400,"station_id":"ce4bgt92rcd13ifvqcf0","pricing_plan_id":"free"},{"bike_id":"c9ae0f03-960e-4700-bf93-cf2e727178c0","system_id":"levelo_inurba_marseille","lat":43.313571,"lon":5.384829,"is_reserved":false,"is_disabled":false,"rental_uris":{"android":"levelo://app?vid=c9ae0f03-960e-4700-bf93-cf2e727178c0","ios":"levelo://app?vid=c9ae0f03-960e-4700-bf93-cf2e727178c0"},"vehicle_type_id":"4","last_reported":1703844427,"current_range_meters":31200,"station_id":"ce4bgt92rcd13ifvqcf0","pricing_plan_id":"free"},{"bike_id":"ffe1a6c8-4174-4a29-bfd7-44e0aa17d2e6","system_id":"levelo_inurba_marseille","lat":43.299724,"lon":5.371829,"is_reserved":false,"is_disabled":false,"rental_uris":{"android":"levelo://app?vid=ffe1a6c8-4174-4a29-bfd7-44e0aa17d2e6","ios":"levelo://app?vid=ffe1a6c8-4174-4a29-bfd7-44e0aa17d2e6"},"vehicle_type_id":"4","last_reported":1703844427,"current_range_meters":27200,"station_id":"ce4bgr92rcd13ifvqc7g","pricing_plan_id":"free"},{"bike_id":"6aab7a94-fa15-4b76-adbf-c91b2932e1e7","system_id":"levelo_inurba_marseille","lat":43.299222,"lon":5.365554,"is_reserved":false,"is_disabled":false,"rental_uris":{"android":"levelo://app?vid=6aab7a94-fa15-4b76-adbf-c91b2932e1e7","ios":"levelo://app?vid=6aab7a94-fa15-4b76-adbf-c91b2932e1e7"},"vehicle_type_id":"4","last_reported":1703844427,"current_range_meters":27200,"station_id":"ce4bgm92rcd13ifvqbr0","pricing_plan_id":"free"},{"bike_id":"4b67a15a-6302-4682-96e7-285eed503aa6","system_id":"levelo_inurba_marseille","lat":43.298433,"lon":5.362774,"is_reserved":false,"is_disabled":false,"rental_uris":{"android":"levelo://app?vid=4b67a15a-6302-4682-96e7-285eed503aa6","ios":"levelo://app?vid=4b67a15a-6302-4682-96e7-285eed503aa6"},"vehicle_type_id":"4","last_reported":1703844427,"current_range_meters":22000,"station_id":"ce4bgpp2rcd13ifvqc3g","pricing_plan_id":"free"},{"bike_id":"bb3ab689-28e0-4daf-aa3f-517c11792cd3","system_id":"levelo_inurba_marseille","lat":43.305364,"lon":5.384119,"is_reserved":false,"is_disabled":false,"rental_uris":{"android":"levelo://app?vid=bb3ab689-28e0-4daf-aa3f-517c11792cd3","ios":"levelo://app?vid=bb3ab689-28e0-4daf-aa3f-517c11792cd3"},"vehicle_type_id":"4","last_reported":1703844427,"current_range_meters":30000,"station_id":"ce4bgg92rcd13ifvqb30","pricing_plan_id":"free"},{"bike_id":"2ad237aa-91b5-4ab8-a128-4500dced085d","system_id":"levelo_inurba_marseille","lat":43.298433,"lon":5.362774,"is_reserved":false,"is_disabled":false,"rental_uris":{"android":"levelo://app?vid=2ad237aa-91b5-4ab8-a128-4500dced085d","ios":"levelo://app?vid=2ad237aa-91b5-4ab8-a128-4500dced085d"},"vehicle_type_id":"4","last_reported":1703844427,"current_range_meters":19600,"station_id":"ce4bgpp2rcd13ifvqc3g","pricing_plan_id":"free"},{"bike_id":"f5b39c03-b7ed-4df9-aa9c-84c55a007399","system_id":"levelo_inurba_marseille","lat":43.298433,"lon":5.362774,"is_reserved":false,"is_disabled":false,"rental_uris":{"android":"levelo://app?vid=f5b39c03-b7ed-4df9-aa9c-84c55a007399","ios":"levelo://app?vid=f5b39c03-b7ed-4df9-aa9c-84c55a007399"},"vehicle_type_id":"4","last_reported":1703844427,"current_range_meters":26000,"station_id":"ce4bgpp2rcd13ifvqc3g","pricing_plan_id":"free"},{"bike_id":"9fa8f97d-548d-48ea-85ce-315170f856b2","system_id":"levelo_inurba_marseille","lat":43.298433,"lon":5.362774,"is_reserved":false,"is_disabled":false,"rental_uris":{"android":"levelo://app?vid=9fa8f97d-548d-48ea-85ce-315170f856b2","ios":"levelo://app?vid=9fa8f97d-548d-48ea-85ce-315170f856b2"},"vehicle_type_id":"4","last_reported":1703844427,"current_range_meters":14800,"station_id":"ce4bgpp2rcd13ifvqc3g","pricing_plan_id":"free"},{"bike_id":"f5307558-727a-4471-b063-5fb143ad51b2","system_id":"levelo_inurba_marseille","lat":43.298433,"lon":5.362774,"is_reserved":false,"is_disabled":false,"rental_uris":{"android":"levelo://app?vid=f5307558-727a-4471-b063-5fb143ad51b2","ios":"levelo://app?vid=f5307558-727a-4471-b063-5fb143ad51b2"},"vehicle_type_id":"4","last_reported":1703844427,"current_range_meters":25600,"station_id":"ce4bgpp2rcd13ifvqc3g","pricing_plan_id":"free"},{"bike_id":"6a9a7d49-aed9-4ffe-9206-4392517629dd","system_id":"levelo_inurba_marseille","lat":43.31167,"lon":5.387123,"is_reserved":false,"is_disabled":false,"rental_uris":{"android":"levelo://app?vid=6a9a7d49-aed9-4ffe-9206-4392517629dd","ios":"levelo://app?vid=6a9a7d49-aed9-4ffe-9206-4392517629dd"},"vehicle_type_id":"4","last_reported":1703844427,"current_range_meters":15600,"station_id":"ce4bgv12rcd13ifvqcp0","pricing_plan_id":"free"},{"bike_id":"5fbd5d16-da4f-49a7-b8f3-a7237a5c99ec","system_id":"levelo_inurba_marseille","lat":43.31165,"lon":5.38714,"is_reserved":false,"is_disabled":false,"rental_uris":{"android":"levelo://app?vid=5fbd5d16-da4f-49a7-b8f3-a7237a5c99ec","ios":"levelo://app?vid=5fbd5d16-da4f-49a7-b8f3-a7237a5c99ec"},"vehicle_type_id":"4","last_reported":1703844427,"current_range_meters":28000,"station_id":"ce4bgv12rcd13ifvqcp0","pricing_plan_id":"free"},{"bike_id":"e3190228-3a11-4be8-a87c-5d93a359891c","system_id":"levelo_inurba_marseille","lat":43.299243,"lon":5.37481,"is_reserved":false,"is_disabled":false,"rental_uris":{"android":"levelo://app?vid=e3190228-3a11-4be8-a87c-5d93a359891c","ios":"levelo://app?vid=e3190228-3a11-4be8-a87c-5d93a359891c"},"vehicle_type_id":"4","last_reported":1703844427,"current_range_meters":20400,"station_id":"ce4bgjh2rcd13ifvqbg0","pricing_plan_id":"free"},{"bike_id":"6593638e-700c-4c76-a081-5e8a09d348e5","system_id":"levelo_inurba_marseille","lat":43.297794,"lon":5.370888,"is_reserved":false,"is_disabled":false,"rental_uris":{"android":"levelo://app?vid=6593638e-700c-4c76-a081-5e8a09d348e5","ios":"levelo://app?vid=6593638e-700c-4c76-a081-5e8a09d348e5"},"vehicle_type_id":"4","last_reported":1703844427,"current_range_meters":31200,"station_id":"ce4bgop2rcd13ifvqc1g","pricing_plan_id":"free"},{"bike_id":"accbbe6d-f8a2-4d0d-badc-393301aad27d","system_id":"levelo_inurba_marseille","lat":43.322872,"lon":5.382756,"is_reserved":false,"is_disabled":false,"rental_uris":{"android":"levelo://app?vid=accbbe6d-f8a2-4d0d-badc-393301aad27d","ios":"levelo://app?vid=accbbe6d-f8a2-4d0d-badc-393301aad27d"},"vehicle_type_id":"4","last_reported":1703844427,"current_range_meters":29200,"station_id":"ce4bhr12rcd13ifvqhqg","pricing_plan_id":"free"},{"bike_id":"3270f28d-7b09-46cb-ba43-f40752fc3385","system_id":"levelo_inurba_marseille","lat":43.322872,"lon":5.382756,"is_reserved":false,"is_disabled":false,"rental_uris":{"android":"levelo://app?vid=3270f28d-7b09-46cb-ba43-f40752fc3385","ios":"levelo://app?vid=3270f28d-7b09-46cb-ba43-f40752fc3385"},"vehicle_type_id":"4","last_reported":1703844427,"current_range_meters":31200,"station_id":"ce4bhr12rcd13ifvqhqg","pricing_plan_id":"free"},{"bike_id":"46dbe005-5ca3-482b-baed-bdd79922e2fc","system_id":"levelo_inurba_marseille","lat":43.32818,"lon":5.36681,"is_reserved":false,"is_disabled":false,"rental_uris":{"android":"levelo://app?vid=46dbe005-5ca3-482b-baed-bdd79922e2fc","ios":"levelo://app?vid=46dbe005-5ca3-482b-baed-bdd79922e2fc"},"vehicle_type_id":"4","last_reported":1703844427,"current_range_meters":22800,"station_id":"ce4bhs92rcd13ifvqi0g","pricing_plan_id":"free"},{"bike_id":"a677cd10-a09b-4b2e-bffd-45b05d2c9229","system_id":"levelo_inurba_marseille","lat":43.328248,"lon":5.366775,"is_reserved":false,"is_disabled":false,"rental_uris":{"android":"levelo://app?vid=a677cd10-a09b-4b2e-bffd-45b05d2c9229","ios":"levelo://app?vid=a677cd10-a09b-4b2e-bffd-45b05d2c9229"},"vehicle_type_id":"4","last_reported":1703844427,"current_range_meters":22000,"station_id":"ce4bhs92rcd13ifvqi0g","pricing_plan_id":"free"},{"bike_id":"51714c4a-3132-4951-88ec-80e85fa125e8","system_id":"levelo_inurba_marseille","lat":43.32827,"lon":5.36684,"is_reserved":false,"is_disabled":false,"rental_uris":{"android":"levelo://app?vid=51714c4a-3132-4951-88ec-80e85fa125e8","ios":"levelo://app?vid=51714c4a-3132-4951-88ec-80e85fa125e8"},"vehicle_type_id":"4","last_reported":1703844427,"current_range_meters":15200,"station_id":"ce4bhs92rcd13ifvqi0g","pricing_plan_id":"free"},{"bike_id":"a448ca86-2b35-41e1-89c4-32a99bab0563","system_id":"levelo_inurba_marseille","lat":43.328371,"lon":5.366912,"is_reserved":false,"is_disabled":false,"rental_uris":{"android":"levelo://app?vid=a448ca86-2b35-41e1-89c4-32a99bab0563","ios":"levelo://app?vid=a448ca86-2b35-41e1-89c4-32a99bab0563"},"vehicle_type_id":"4","last_reported":1703844427,"current_range_meters":20000,"station_id":"ce4bhs92rcd13ifvqi0g","pricing_plan_id":"free"},{"bike_id":"b30b3d1b-ef61-4776-bd7b-61c34fd8cc81","system_id":"levelo_inurba_marseille","lat":43.32828,"lon":5.36683,"is_reserved":false,"is_disabled":false,"rental_uris":{"android":"levelo://app?vid=b30b3d1b-ef61-4776-bd7b-61c34fd8cc81","ios":"levelo://app?vid=b30b3d1b-ef61-4776-bd7b-61c34fd8cc81"},"vehicle_type_id":"4","last_reported":1703844427,"current_range_meters":13600,"station_id":"ce4bhs92rcd13ifvqi0g","pricing_plan_id":"free"},{"bike_id":"96cf793f-3bea-48e9-ad43-3f4f189e0b76","system_id":"levelo_inurba_marseille","lat":43.32828,"lon":5.36682,"is_reserved":false,"is_disabled":false,"rental_uris":{"android":"levelo://app?vid=96cf793f-3bea-48e9-ad43-3f4f189e0b76","ios":"levelo://app?vid=96cf793f-3bea-48e9-ad43-3f4f189e0b76"},"vehicle_type_id":"4","last_reported":1703844427,"current_range_meters":29600,"station_id":"ce4bhs92rcd13ifvqi0g","pricing_plan_id":"free"},{"bike_id":"18a514cc-b799-4d5c-8007-6d7e3d72dda3","system_id":"levelo_inurba_marseille","lat":43.32828,"lon":5.36677,"is_reserved":false,"is_disabled":false,"rental_uris":{"android":"levelo://app?vid=18a514cc-b799-4d5c-8007-6d7e3d72dda3","ios":"levelo://app?vid=18a514cc-b799-4d5c-8007-6d7e3d72dda3"},"vehicle_type_id":"4","last_reported":1703844427,"current_range_meters":22400,"station_id":"ce4bhs92rcd13ifvqi0g","pricing_plan_id":"free"},{"bike_id":"5c89eee7-6e83-42b4-bd81-efdcf68f6666","system_id":"levelo_inurba_marseille","lat":43.328285,"lon":5.3668,"is_reserved":false,"is_disabled":false,"rental_uris":{"android":"levelo://app?vid=5c89eee7-6e83-42b4-bd81-efdcf68f6666","ios":"levelo://app?vid=5c89eee7-6e83-42b4-bd81-efdcf68f6666"},"vehicle_type_id":"4","last_reported":1703844427,"current_range_meters":28400,"station_id":"ce4bhs92rcd13ifvqi0g","pricing_plan_id":"free"},{"bike_id":"904f83aa-e9ab-401d-84c1-9edfed82b884","system_id":"levelo_inurba_marseille","lat":43.328371,"lon":5.366912,"is_reserved":false,"is_disabled":false,"rental_uris":{"android":"levelo://app?vid=904f83aa-e9ab-401d-84c1-9edfed82b884","ios":"levelo://app?vid=904f83aa-e9ab-401d-84c1-9edfed82b884"},"vehicle_type_id":"4","last_reported":1703844427,"current_range_meters":30400,"station_id":"ce4bhs92rcd13ifvqi0g","pricing_plan_id":"free"},{"bike_id":"ea7074d7-b7c9-4941-82c2-dff391bae9cb","system_id":"levelo_inurba_marseille","lat":43.32831,"lon":5.36676,"is_reserved":false,"is_disabled":false,"rental_uris":{"android":"levelo://app?vid=ea7074d7-b7c9-4941-82c2-dff391bae9cb","ios":"levelo://app?vid=ea7074d7-b7c9-4941-82c2-dff391bae9cb"},"vehicle_type_id":"4","last_reported":1703844427,"current_range_meters":11600,"station_id":"ce4bhs92rcd13ifvqi0g","pricing_plan_id":"free"},{"bike_id":"520290bd-48a0-4016-9c3c-b95db8586e08","system_id":"levelo_inurba_marseille","lat":43.32831,"lon":5.36671,"is_reserved":false,"is_disabled":false,"rental_uris":{"android":"levelo://app?vid=520290bd-48a0-4016-9c3c-b95db8586e08","ios":"levelo://app?vid=520290bd-48a0-4016-9c3c-b95db8586e08"},"vehicle_type_id":"4","last_reported":1703844427,"current_range_meters":19600,"station_id":"ce4bhs92rcd13ifvqi0g","pricing_plan_id":"free"},{"bike_id":"6eb75a18-acfd-4ffa-bf23-27c5e63a3c58","system_id":"levelo_inurba_marseille","lat":43.32832,"lon":5.36681,"is_reserved":false,"is_disabled":false,"rental_uris":{"android":"levelo://app?vid=6eb75a18-acfd-4ffa-bf23-27c5e63a3c58","ios":"levelo://app?vid=6eb75a18-acfd-4ffa-bf23-27c5e63a3c58"},"vehicle_type_id":"4","last_reported":1703844427,"current_range_meters":19200,"station_id":"ce4bhs92rcd13ifvqi0g","pricing_plan_id":"free"},{"bike_id":"de708f00-7118-4d7c-9021-d7dcbd798473","system_id":"levelo_inurba_marseille","lat":43.32832,"lon":5.366775,"is_reserved":false,"is_disabled":false,"rental_uris":{"android":"levelo://app?vid=de708f00-7118-4d7c-9021-d7dcbd798473","ios":"levelo://app?vid=de708f00-7118-4d7c-9021-d7dcbd798473"},"vehicle_type_id":"4","last_reported":1703844427,"current_range_meters":11200,"station_id":"ce4bhs92rcd13ifvqi0g","pricing_plan_id":"free"},{"bike_id":"1ea82e61-37ea-4b15-a6ef-01d29683b9fd","system_id":"levelo_inurba_marseille","lat":43.32832,"lon":5.36674,"is_reserved":false,"is_disabled":false,"rental_uris":{"android":"levelo://app?vid=1ea82e61-37ea-4b15-a6ef-01d29683b9fd","ios":"levelo://app?vid=1ea82e61-37ea-4b15-a6ef-01d29683b9fd"},"vehicle_type_id":"4","last_reported":1703844427,"current_range_meters":16400,"station_id":"ce4bhs92rcd13ifvqi0g","pricing_plan_id":"free"},{"bike_id":"a1dac54d-476c-4dac-913f-aae102098541","system_id":"levelo_inurba_marseille","lat":43.32833,"lon":5.36667,"is_reserved":false,"is_disabled":false,"rental_uris":{"android":"levelo://app?vid=a1dac54d-476c-4dac-913f-aae102098541","ios":"levelo://app?vid=a1dac54d-476c-4dac-913f-aae102098541"},"vehicle_type_id":"4","last_reported":1703844427,"current_range_meters":26000,"station_id":"ce4bhs92rcd13ifvqi0g","pricing_plan_id":"free"},{"bike_id":"c99c1421-6c70-45e1-a99f-19afba82ca69","system_id":"levelo_inurba_marseille","lat":43.32834,"lon":5.36673,"is_reserved":false,"is_disabled":false,"rental_uris":{"android":"levelo://app?vid=c99c1421-6c70-45e1-a99f-19afba82ca69","ios":"levelo://app?vid=c99c1421-6c70-45e1-a99f-19afba82ca69"},"vehicle_type_id":"4","last_reported":1703844427,"current_range_meters":30400,"station_id":"ce4bhs92rcd13ifvqi0g","pricing_plan_id":"free"},{"bike_id":"c5148a93-b957-4625-8299-141753f2bd05","system_id":"levelo_inurba_marseille","lat":43.328348,"lon":5.366773,"is_reserved":false,"is_disabled":false,"rental_uris":{"android":"levelo://app?vid=c5148a93-b957-4625-8299-141753f2bd05","ios":"levelo://app?vid=c5148a93-b957-4625-8299-141753f2bd05"},"vehicle_type_id":"4","last_reported":1703844427,"current_range_meters":30400,"station_id":"ce4bhs92rcd13ifvqi0g","pricing_plan_id":"free"},{"bike_id":"70017d6e-6f1a-4af6-baf6-320a119b5691","system_id":"levelo_inurba_marseille","lat":43.32835,"lon":5.36678,"is_reserved":false,"is_disabled":false,"rental_uris":{"android":"levelo://app?vid=70017d6e-6f1a-4af6-baf6-320a119b5691","ios":"levelo://app?vid=70017d6e-6f1a-4af6-baf6-320a119b5691"},"vehicle_type_id":"4","last_reported":1703844427,"current_range_meters":10000,"station_id":"ce4bhs92rcd13ifvqi0g","pricing_plan_id":"free"},{"bike_id":"abf5d1ad-9f57-4411-b681-4064a4410db4","system_id":"levelo_inurba_marseille","lat":43.297163,"lon":5.365866,"is_reserved":false,"is_disabled":false,"rental_uris":{"android":"levelo://app?vid=abf5d1ad-9f57-4411-b681-4064a4410db4","ios":"levelo://app?vid=abf5d1ad-9f57-4411-b681-4064a4410db4"},"vehicle_type_id":"4","last_reported":1703844427,"current_range_meters":24800,"station_id":"ce4bgn12rcd13ifvqbt0","pricing_plan_id":"free"},{"bike_id":"becd2527-8579-4cdd-93e5-2ca2682eb5af","system_id":"levelo_inurba_marseille","lat":43.297163,"lon":5.365866,"is_reserved":false,"is_disabled":false,"rental_uris":{"android":"levelo://app?vid=becd2527-8579-4cdd-93e5-2ca2682eb5af","ios":"levelo://app?vid=becd2527-8579-4cdd-93e5-2ca2682eb5af"},"vehicle_type_id":"4","last_reported":1703844427,"current_range_meters":0,"station_id":"ce4bgn12rcd13ifvqbt0","pricing_plan_id":"free"},{"bike_id":"370cccf7-c9ba-46c2-819b-c8e8cacc4c21","system_id":"levelo_inurba_marseille","lat":43.3277,"lon":5.37458,"is_reserved":false,"is_disabled":false,"rental_uris":{"android":"levelo://app?vid=370cccf7-c9ba-46c2-819b-c8e8cacc4c21","ios":"levelo://app?vid=370cccf7-c9ba-46c2-819b-c8e8cacc4c21"},"vehicle_type_id":"4","last_reported":1703844427,"current_range_meters":18000,"station_id":"","pricing_plan_id":"free"},{"bike_id":"351dd93a-8e5f-4937-8326-3f44fcb0f66e","system_id":"levelo_inurba_marseille","lat":43.297163,"lon":5.365866,"is_reserved":false,"is_disabled":false,"rental_uris":{"android":"levelo://app?vid=351dd93a-8e5f-4937-8326-3f44fcb0f66e","ios":"levelo://app?vid=351dd93a-8e5f-4937-8326-3f44fcb0f66e"},"vehicle_type_id":"4","last_reported":1703844427,"current_range_meters":21600,"station_id":"ce4bgn12rcd13ifvqbt0","pricing_plan_id":"free"},{"bike_id":"921b424d-ad0d-4c7a-9d74-66e3a49bfa19","system_id":"levelo_inurba_marseille","lat":43.32934,"lon":5.36612,"is_reserved":false,"is_disabled":false,"rental_uris":{"android":"levelo://app?vid=921b424d-ad0d-4c7a-9d74-66e3a49bfa19","ios":"levelo://app?vid=921b424d-ad0d-4c7a-9d74-66e3a49bfa19"},"vehicle_type_id":"4","last_reported":1703844427,"current_range_meters":10000,"station_id":"","pricing_plan_id":"free"},{"bike_id":"b1a9fd4f-7257-4a13-a678-5307fa53d216","system_id":"levelo_inurba_marseille","lat":43.29573,"lon":5.367355,"is_reserved":false,"is_disabled":false,"rental_uris":{"android":"levelo://app?vid=b1a9fd4f-7257-4a13-a678-5307fa53d216","ios":"levelo://app?vid=b1a9fd4f-7257-4a13-a678-5307fa53d216"},"vehicle_type_id":"4","last_reported":1703844427,"current_range_meters":25600,"station_id":"ce4bgph2rcd13ifvqc2g","pricing_plan_id":"free"},{"bike_id":"873391e5-2fcf-44e1-b82e-0771ac21ced5","system_id":"levelo_inurba_marseille","lat":43.296129,"lon":5.370777,"is_reserved":false,"is_disabled":false,"rental_uris":{"android":"levelo://app?vid=873391e5-2fcf-44e1-b82e-0771ac21ced5","ios":"levelo://app?vid=873391e5-2fcf-44e1-b82e-0771ac21ced5"},"vehicle_type_id":"4","last_reported":1703844427,"current_range_meters":26800,"station_id":"ce4bgnh2rcd13ifvqc0g","pricing_plan_id":"free"},{"bike_id":"179d9093-ccf2-4a81-92fd-f29a0dbbed26","system_id":"levelo_inurba_marseille","lat":43.29573,"lon":5.367355,"is_reserved":false,"is_disabled":false,"rental_uris":{"android":"levelo://app?vid=179d9093-ccf2-4a81-92fd-f29a0dbbed26","ios":"levelo://app?vid=179d9093-ccf2-4a81-92fd-f29a0dbbed26"},"vehicle_type_id":"4","last_reported":1703844427,"current_range_meters":23200,"station_id":"ce4bgph2rcd13ifvqc2g","pricing_plan_id":"free"},{"bike_id":"8ec89992-365e-4385-836e-edd35977a0b0","system_id":"levelo_inurba_marseille","lat":43.296921,"lon":5.376579,"is_reserved":false,"is_disabled":false,"rental_uris":{"android":"levelo://app?vid=8ec89992-365e-4385-836e-edd35977a0b0","ios":"levelo://app?vid=8ec89992-365e-4385-836e-edd35977a0b0"},"vehicle_type_id":"4","last_reported":1703844427,"current_range_meters":25600,"station_id":"ce4bgkh2rcd13ifvqbl0","pricing_plan_id":"free"},{"bike_id":"a0f7f58d-92fd-4d8e-b85d-c9a2485e2233","system_id":"levelo_inurba_marseille","lat":43.299028,"lon":5.381509,"is_reserved":false,"is_disabled":false,"rental_uris":{"android":"levelo://app?vid=a0f7f58d-92fd-4d8e-b85d-c9a2485e2233","ios":"levelo://app?vid=a0f7f58d-92fd-4d8e-b85d-c9a2485e2233"},"vehicle_type_id":"4","last_reported":1703844427,"current_range_meters":27200,"station_id":"ce4bgj12rcd13ifvqbc0","pricing_plan_id":"free"},{"bike_id":"5d188a40-362c-4984-84b5-80fa6382b9d3","system_id":"levelo_inurba_marseille","lat":43.296935,"lon":5.376544,"is_reserved":false,"is_disabled":false,"rental_uris":{"android":"levelo://app?vid=5d188a40-362c-4984-84b5-80fa6382b9d3","ios":"levelo://app?vid=5d188a40-362c-4984-84b5-80fa6382b9d3"},"vehicle_type_id":"4","last_reported":1703844427,"current_range_meters":19600,"station_id":"ce4bgkh2rcd13ifvqbl0","pricing_plan_id":"free"},{"bike_id":"bbef500d-0cee-4826-b935-d74972248145","system_id":"levelo_inurba_marseille","lat":43.309493,"lon":5.39041,"is_reserved":false,"is_disabled":false,"rental_uris":{"android":"levelo://app?vid=bbef500d-0cee-4826-b935-d74972248145","ios":"levelo://app?vid=bbef500d-0cee-4826-b935-d74972248145"},"vehicle_type_id":"4","last_reported":1703844427,"current_range_meters":22800,"station_id":"","pricing_plan_id":"free"},{"bike_id":"3df6f3ff-e724-4a6a-a4c7-d7da6a4da3a9","system_id":"levelo_inurba_marseille","lat":43.296935,"lon":5.376544,"is_reserved":false,"is_disabled":false,"rental_uris":{"android":"levelo://app?vid=3df6f3ff-e724-4a6a-a4c7-d7da6a4da3a9","ios":"levelo://app?vid=3df6f3ff-e724-4a6a-a4c7-d7da6a4da3a9"},"vehicle_type_id":"4","last_reported":1703844427,"current_range_meters":20000,"station_id":"ce4bgkh2rcd13ifvqbl0","pricing_plan_id":"free"},{"bike_id":"e6270e07-7d38-4634-9103-543b64b9f946","system_id":"levelo_inurba_marseille","lat":43.317557,"lon":5.390173,"is_reserved":false,"is_disabled":false,"rental_uris":{"android":"levelo://app?vid=e6270e07-7d38-4634-9103-543b64b9f946","ios":"levelo://app?vid=e6270e07-7d38-4634-9103-543b64b9f946"},"vehicle_type_id":"4","last_reported":1703844427,"current_range_meters":18400,"station_id":"ce4bhqp2rcd13ifvqhng","pricing_plan_id":"free"},{"bike_id":"89445b66-62eb-48e4-a585-5cbcd147324f","system_id":"levelo_inurba_marseille","lat":43.298037,"lon":5.381066,"is_reserved":false,"is_disabled":false,"rental_uris":{"android":"levelo://app?vid=89445b66-62eb-48e4-a585-5cbcd147324f","ios":"levelo://app?vid=89445b66-62eb-48e4-a585-5cbcd147324f"},"vehicle_type_id":"4","last_reported":1703844427,"current_range_meters":28800,"station_id":"ce4bgip2rcd13ifvqbb0","pricing_plan_id":"free"},{"bike_id":"3fb56e7f-b8d8-44d9-becd-7f5b6bb92d8f","system_id":"levelo_inurba_marseille","lat":43.295748,"lon":5.37522,"is_reserved":false,"is_disabled":false,"rental_uris":{"android":"levelo://app?vid=3fb56e7f-b8d8-44d9-becd-7f5b6bb92d8f","ios":"levelo://app?vid=3fb56e7f-b8d8-44d9-becd-7f5b6bb92d8f"},"vehicle_type_id":"4","last_reported":1703844427,"current_range_meters":28400,"station_id":"ce4bgh92rcd13ifvqb50","pricing_plan_id":"free"},{"bike_id":"fc345265-6fd3-4ee2-a96d-b76a63118903","system_id":"levelo_inurba_marseille","lat":43.30431,"lon":5.38889,"is_reserved":false,"is_disabled":false,"rental_uris":{"android":"levelo://app?vid=fc345265-6fd3-4ee2-a96d-b76a63118903","ios":"levelo://app?vid=fc345265-6fd3-4ee2-a96d-b76a63118903"},"vehicle_type_id":"4","last_reported":1703844427,"current_range_meters":12400,"station_id":"ce4bgk12rcd13ifvqbi0","pricing_plan_id":"free"},{"bike_id":"a3fb4673-b6a1-44f3-abb4-c45419ec04c5","system_id":"levelo_inurba_marseille","lat":43.295748,"lon":5.37522,"is_reserved":false,"is_disabled":false,"rental_uris":{"android":"levelo://app?vid=a3fb4673-b6a1-44f3-abb4-c45419ec04c5","ios":"levelo://app?vid=a3fb4673-b6a1-44f3-abb4-c45419ec04c5"},"vehicle_type_id":"4","last_reported":1703844427,"current_range_meters":24400,"station_id":"ce4bgh92rcd13ifvqb50","pricing_plan_id":"free"},{"bike_id":"972b84b0-3690-43ca-8bbb-ee0b8649bd76","system_id":"levelo_inurba_marseille","lat":43.30422,"lon":5.38887,"is_reserved":false,"is_disabled":false,"rental_uris":{"android":"levelo://app?vid=972b84b0-3690-43ca-8bbb-ee0b8649bd76","ios":"levelo://app?vid=972b84b0-3690-43ca-8bbb-ee0b8649bd76"},"vehicle_type_id":"4","last_reported":1703844427,"current_range_meters":31200,"station_id":"ce4bgk12rcd13ifvqbi0","pricing_plan_id":"free"},{"bike_id":"f74b87e6-28cc-4993-a951-0ae0157ede5d","system_id":"levelo_inurba_marseille","lat":43.304278,"lon":5.388868,"is_reserved":false,"is_disabled":false,"rental_uris":{"android":"levelo://app?vid=f74b87e6-28cc-4993-a951-0ae0157ede5d","ios":"levelo://app?vid=f74b87e6-28cc-4993-a951-0ae0157ede5d"},"vehicle_type_id":"4","last_reported":1703844427,"current_range_meters":22800,"station_id":"ce4bgk12rcd13ifvqbi0","pricing_plan_id":"free"},{"bike_id":"7071e70e-6869-4fe0-9a0d-001f94a39e54","system_id":"levelo_inurba_marseille","lat":43.30421,"lon":5.3889,"is_reserved":false,"is_disabled":false,"rental_uris":{"android":"levelo://app?vid=7071e70e-6869-4fe0-9a0d-001f94a39e54","ios":"levelo://app?vid=7071e70e-6869-4fe0-9a0d-001f94a39e54"},"vehicle_type_id":"4","last_reported":1703844427,"current_range_meters":20400,"station_id":"ce4bgk12rcd13ifvqbi0","pricing_plan_id":"free"},{"bike_id":"d60802d6-4f47-444a-b234-883690eec05b","system_id":"levelo_inurba_marseille","lat":43.33064,"lon":5.36289,"is_reserved":false,"is_disabled":false,"rental_uris":{"android":"levelo://app?vid=d60802d6-4f47-444a-b234-883690eec05b","ios":"levelo://app?vid=d60802d6-4f47-444a-b234-883690eec05b"},"vehicle_type_id":"4","last_reported":1703844427,"current_range_meters":29600,"station_id":"","pricing_plan_id":"free"},{"bike_id":"340593d2-bf87-4f7f-94d6-17b3287cf91b","system_id":"levelo_inurba_marseille","lat":43.296277,"lon":5.377108,"is_reserved":false,"is_disabled":false,"rental_uris":{"android":"levelo://app?vid=340593d2-bf87-4f7f-94d6-17b3287cf91b","ios":"levelo://app?vid=340593d2-bf87-4f7f-94d6-17b3287cf91b"},"vehicle_type_id":"4","last_reported":1703844427,"current_range_meters":29600,"station_id":"ce4bgi92rcd13ifvqb90","pricing_plan_id":"free"},{"bike_id":"7119845d-00aa-4d9f-be8c-fc97d41f1380","system_id":"levelo_inurba_marseille","lat":43.297594,"lon":5.381134,"is_reserved":false,"is_disabled":false,"rental_uris":{"android":"levelo://app?vid=7119845d-00aa-4d9f-be8c-fc97d41f1380","ios":"levelo://app?vid=7119845d-00aa-4d9f-be8c-fc97d41f1380"},"vehicle_type_id":"4","last_reported":1703844427,"current_range_meters":20000,"station_id":"ce4bgip2rcd13ifvqbb0","pricing_plan_id":"free"},{"bike_id":"f40882dc-e9c5-4ec7-bdb4-c44e3849e2d5","system_id":"levelo_inurba_marseille","lat":43.295279,"lon":5.375048,"is_reserved":false,"is_disabled":false,"rental_uris":{"android":"levelo://app?vid=f40882dc-e9c5-4ec7-bdb4-c44e3849e2d5","ios":"levelo://app?vid=f40882dc-e9c5-4ec7-bdb4-c44e3849e2d5"},"vehicle_type_id":"4","last_reported":1703844427,"current_range_meters":22000,"station_id":"ce4bgkp2rcd13ifvqbmg","pricing_plan_id":"free"},{"bike_id":"753d8284-2218-472a-9689-30d6b96f87bc","system_id":"levelo_inurba_marseille","lat":43.295279,"lon":5.375048,"is_reserved":false,"is_disabled":false,"rental_uris":{"android":"levelo://app?vid=753d8284-2218-472a-9689-30d6b96f87bc","ios":"levelo://app?vid=753d8284-2218-472a-9689-30d6b96f87bc"},"vehicle_type_id":"4","last_reported":1703844427,"current_range_meters":28000,"station_id":"ce4bgkp2rcd13ifvqbmg","pricing_plan_id":"free"},{"bike_id":"0a9fe2ad-fe58-4254-bd4e-0f72c5c44005","system_id":"levelo_inurba_marseille","lat":43.32367,"lon":5.388836,"is_reserved":false,"is_disabled":false,"rental_uris":{"android":"levelo://app?vid=0a9fe2ad-fe58-4254-bd4e-0f72c5c44005","ios":"levelo://app?vid=0a9fe2ad-fe58-4254-bd4e-0f72c5c44005"},"vehicle_type_id":"4","last_reported":1703844427,"current_range_meters":24000,"station_id":"ce4bhqp2rcd13ifvqhog","pricing_plan_id":"free"},{"bike_id":"64e08778-3e7b-4c08-aaa7-765ecbf426e5","system_id":"levelo_inurba_marseille","lat":43.32367,"lon":5.388836,"is_reserved":false,"is_disabled":false,"rental_uris":{"android":"levelo://app?vid=64e08778-3e7b-4c08-aaa7-765ecbf426e5","ios":"levelo://app?vid=64e08778-3e7b-4c08-aaa7-765ecbf426e5"},"vehicle_type_id":"4","last_reported":1703844427,"current_range_meters":28400,"station_id":"ce4bhqp2rcd13ifvqhog","pricing_plan_id":"free"},{"bike_id":"412b0300-bca9-407f-8529-62d2e7880d74","system_id":"levelo_inurba_marseille","lat":43.32367,"lon":5.388836,"is_reserved":false,"is_disabled":false,"rental_uris":{"android":"levelo://app?vid=412b0300-bca9-407f-8529-62d2e7880d74","ios":"levelo://app?vid=412b0300-bca9-407f-8529-62d2e7880d74"},"vehicle_type_id":"4","last_reported":1703844427,"current_range_meters":29600,"station_id":"ce4bhqp2rcd13ifvqhog","pricing_plan_id":"free"},{"bike_id":"5b2ac2c3-7abe-438d-a108-850beac502c1","system_id":"levelo_inurba_marseille","lat":43.293009,"lon":5.374584,"is_reserved":false,"is_disabled":false,"rental_uris":{"android":"levelo://app?vid=5b2ac2c3-7abe-438d-a108-850beac502c1","ios":"levelo://app?vid=5b2ac2c3-7abe-438d-a108-850beac502c1"},"vehicle_type_id":"4","last_reported":1703844427,"current_range_meters":17200,"station_id":"ce4bgi12rcd13ifvqb70","pricing_plan_id":"free"},{"bike_id":"91489c8a-b2fa-4640-bd3d-288533f4b64e","system_id":"levelo_inurba_marseille","lat":43.2936,"lon":5.37835,"is_reserved":false,"is_disabled":false,"rental_uris":{"android":"levelo://app?vid=91489c8a-b2fa-4640-bd3d-288533f4b64e","ios":"levelo://app?vid=91489c8a-b2fa-4640-bd3d-288533f4b64e"},"vehicle_type_id":"4","last_reported":1703844427,"current_range_meters":31600,"station_id":"ce4bgjh2rcd13ifvqbf0","pricing_plan_id":"free"},{"bike_id":"6eacc578-84d5-403d-b518-beb25a341a8e","system_id":"levelo_inurba_marseille","lat":43.298946,"lon":5.388554,"is_reserved":false,"is_disabled":false,"rental_uris":{"android":"levelo://app?vid=6eacc578-84d5-403d-b518-beb25a341a8e","ios":"levelo://app?vid=6eacc578-84d5-403d-b518-beb25a341a8e"},"vehicle_type_id":"4","last_reported":1703844427,"current_range_meters":400,"station_id":"","pricing_plan_id":"free"},{"bike_id":"2d07af19-c054-498e-bf03-ac3e1918e59b","system_id":"levelo_inurba_marseille","lat":43.292311,"lon":5.360731,"is_reserved":false,"is_disabled":false,"rental_uris":{"android":"levelo://app?vid=2d07af19-c054-498e-bf03-ac3e1918e59b","ios":"levelo://app?vid=2d07af19-c054-498e-bf03-ac3e1918e59b"},"vehicle_type_id":"4","last_reported":1703844427,"current_range_meters":25600,"station_id":"ce4bhbh2rcd13ifvqeqg","pricing_plan_id":"free"},{"bike_id":"3ed3c822-c02a-4a19-b479-1d34a7c9dc0a","system_id":"levelo_inurba_marseille","lat":43.29866,"lon":5.38903,"is_reserved":false,"is_disabled":false,"rental_uris":{"android":"levelo://app?vid=3ed3c822-c02a-4a19-b479-1d34a7c9dc0a","ios":"levelo://app?vid=3ed3c822-c02a-4a19-b479-1d34a7c9dc0a"},"vehicle_type_id":"4","last_reported":1703844427,"current_range_meters":22400,"station_id":"","pricing_plan_id":"free"},{"bike_id":"8f108e26-6818-4a35-b401-48283b8b1b6b","system_id":"levelo_inurba_marseille","lat":43.291675,"lon":5.371583,"is_reserved":false,"is_disabled":false,"rental_uris":{"android":"levelo://app?vid=8f108e26-6818-4a35-b401-48283b8b1b6b","ios":"levelo://app?vid=8f108e26-6818-4a35-b401-48283b8b1b6b"},"vehicle_type_id":"4","last_reported":1703844427,"current_range_meters":22400,"station_id":"ce4bha92rcd13ifvqeh0","pricing_plan_id":"free"},{"bike_id":"bf76d337-2d8c-4e1d-8969-f68361a05879","system_id":"levelo_inurba_marseille","lat":43.291994,"lon":5.357886,"is_reserved":false,"is_disabled":false,"rental_uris":{"android":"levelo://app?vid=bf76d337-2d8c-4e1d-8969-f68361a05879","ios":"levelo://app?vid=bf76d337-2d8c-4e1d-8969-f68361a05879"},"vehicle_type_id":"4","last_reported":1703844427,"current_range_meters":20400,"station_id":"ce4bhb12rcd13ifvqel0","pricing_plan_id":"free"},{"bike_id":"9d0e1f46-6c5b-40a6-a495-1d5b7daf1e63","system_id":"levelo_inurba_marseille","lat":43.309038,"lon":5.396546,"is_reserved":false,"is_disabled":false,"rental_uris":{"android":"levelo://app?vid=9d0e1f46-6c5b-40a6-a495-1d5b7daf1e63","ios":"levelo://app?vid=9d0e1f46-6c5b-40a6-a495-1d5b7daf1e63"},"vehicle_type_id":"4","last_reported":1703844427,"current_range_meters":26400,"station_id":"ce4bh012rcd13ifvqcv0","pricing_plan_id":"free"},{"bike_id":"4cfba78d-f0f6-4d6f-a408-78850c781494","system_id":"levelo_inurba_marseille","lat":43.291994,"lon":5.357886,"is_reserved":false,"is_disabled":false,"rental_uris":{"android":"levelo://app?vid=4cfba78d-f0f6-4d6f-a408-78850c781494","ios":"levelo://app?vid=4cfba78d-f0f6-4d6f-a408-78850c781494"},"vehicle_type_id":"4","last_reported":1703844427,"current_range_meters":21600,"station_id":"ce4bhb12rcd13ifvqel0","pricing_plan_id":"free"},{"bike_id":"7eaf2406-c318-498c-9e6b-f06d10b2a088","system_id":"levelo_inurba_marseille","lat":43.313291,"lon":5.396838,"is_reserved":false,"is_disabled":false,"rental_uris":{"android":"levelo://app?vid=7eaf2406-c318-498c-9e6b-f06d10b2a088","ios":"levelo://app?vid=7eaf2406-c318-498c-9e6b-f06d10b2a088"},"vehicle_type_id":"4","last_reported":1703844427,"current_range_meters":26000,"station_id":"ce4bgvp2rcd13ifvqcu0","pricing_plan_id":"free"},{"bike_id":"e7035c5a-de32-4a89-9ad3-2a97769e6b60","system_id":"levelo_inurba_marseille","lat":43.289184,"lon":5.366408,"is_reserved":false,"is_disabled":false,"rental_uris":{"android":"levelo://app?vid=e7035c5a-de32-4a89-9ad3-2a97769e6b60","ios":"levelo://app?vid=e7035c5a-de32-4a89-9ad3-2a97769e6b60"},"vehicle_type_id":"4","last_reported":1703844427,"current_range_meters":13600,"station_id":"ce4bhap2rcd13ifvqek0","pricing_plan_id":"free"},{"bike_id":"e616f1e0-27c1-49f6-8c64-62b331bc6487","system_id":"levelo_inurba_marseille","lat":43.289184,"lon":5.366408,"is_reserved":false,"is_disabled":false,"rental_uris":{"android":"levelo://app?vid=e616f1e0-27c1-49f6-8c64-62b331bc6487","ios":"levelo://app?vid=e616f1e0-27c1-49f6-8c64-62b331bc6487"},"vehicle_type_id":"4","last_reported":1703844427,"current_range_meters":26000,"station_id":"ce4bhap2rcd13ifvqek0","pricing_plan_id":"free"},{"bike_id":"330338a5-5c2c-4f45-bf25-e8f4debb4af1","system_id":"levelo_inurba_marseille","lat":43.304296,"lon":5.397513,"is_reserved":false,"is_disabled":false,"rental_uris":{"android":"levelo://app?vid=330338a5-5c2c-4f45-bf25-e8f4debb4af1","ios":"levelo://app?vid=330338a5-5c2c-4f45-bf25-e8f4debb4af1"},"vehicle_type_id":"4","last_reported":1703844427,"current_range_meters":8000,"station_id":"ce4bh092rcd13ifvqd20","pricing_plan_id":"free"},{"bike_id":"28f6f0fe-0e00-40b8-af75-c10504d2636e","system_id":"levelo_inurba_marseille","lat":43.290104,"lon":5.356111,"is_reserved":false,"is_disabled":false,"rental_uris":{"android":"levelo://app?vid=28f6f0fe-0e00-40b8-af75-c10504d2636e","ios":"levelo://app?vid=28f6f0fe-0e00-40b8-af75-c10504d2636e"},"vehicle_type_id":"4","last_reported":1703844427,"current_range_meters":27600,"station_id":"ce4bhb92rcd13ifvqen0","pricing_plan_id":"free"},{"bike_id":"495faf64-a935-4c6e-b77f-2b296d14493a","system_id":"levelo_inurba_marseille","lat":43.331017,"lon":5.389194,"is_reserved":false,"is_disabled":false,"rental_uris":{"android":"levelo://app?vid=495faf64-a935-4c6e-b77f-2b296d14493a","ios":"levelo://app?vid=495faf64-a935-4c6e-b77f-2b296d14493a"},"vehicle_type_id":"4","last_reported":1703844427,"current_range_meters":8000,"station_id":"","pricing_plan_id":"free"},{"bike_id":"d917e6e0-f7ef-4b1c-8509-4f6583031204","system_id":"levelo_inurba_marseille","lat":43.295169,"lon":5.390426,"is_reserved":false,"is_disabled":false,"rental_uris":{"android":"levelo://app?vid=d917e6e0-f7ef-4b1c-8509-4f6583031204","ios":"levelo://app?vid=d917e6e0-f7ef-4b1c-8509-4f6583031204"},"vehicle_type_id":"4","last_reported":1703844427,"current_range_meters":14800,"station_id":"ce4bh3p2rcd13ifvqdp0","pricing_plan_id":"free"},{"bike_id":"b2cd411a-ba13-4386-a84f-4587daa6c050","system_id":"levelo_inurba_marseille","lat":43.289741,"lon":5.378306,"is_reserved":false,"is_disabled":false,"rental_uris":{"android":"levelo://app?vid=b2cd411a-ba13-4386-a84f-4587daa6c050","ios":"levelo://app?vid=b2cd411a-ba13-4386-a84f-4587daa6c050"},"vehicle_type_id":"4","last_reported":1703844427,"current_range_meters":26400,"station_id":"ce4bh9p2rcd13ifvqed0","pricing_plan_id":"free"},{"bike_id":"5211b2f5-3e8d-4a15-a420-0f76a677772e","system_id":"levelo_inurba_marseille","lat":43.28856,"lon":5.358371,"is_reserved":false,"is_disabled":false,"rental_uris":{"android":"levelo://app?vid=5211b2f5-3e8d-4a15-a420-0f76a677772e","ios":"levelo://app?vid=5211b2f5-3e8d-4a15-a420-0f76a677772e"},"vehicle_type_id":"4","last_reported":1703844427,"current_range_meters":26800,"station_id":"ce4bhb12rcd13ifvqem0","pricing_plan_id":"free"},{"bike_id":"0f77e5c1-acd3-4588-b799-63c1730334b2","system_id":"levelo_inurba_marseille","lat":43.300138,"lon":5.396681,"is_reserved":false,"is_disabled":false,"rental_uris":{"android":"levelo://app?vid=0f77e5c1-acd3-4588-b799-63c1730334b2","ios":"levelo://app?vid=0f77e5c1-acd3-4588-b799-63c1730334b2"},"vehicle_type_id":"4","last_reported":1703844427,"current_range_meters":0,"station_id":"","pricing_plan_id":"free"},{"bike_id":"d12137dd-50da-4bcd-a5c3-705c2222ce30","system_id":"levelo_inurba_marseille","lat":43.28842,"lon":5.3585,"is_reserved":false,"is_disabled":false,"rental_uris":{"android":"levelo://app?vid=d12137dd-50da-4bcd-a5c3-705c2222ce30","ios":"levelo://app?vid=d12137dd-50da-4bcd-a5c3-705c2222ce30"},"vehicle_type_id":"4","last_reported":1703844427,"current_range_meters":24400,"station_id":"ce4bhb12rcd13ifvqem0","pricing_plan_id":"free"},{"bike_id":"f89a76a2-18e8-46c7-accb-4c8e50eb4db1","system_id":"levelo_inurba_marseille","lat":43.309371,"lon":5.401449,"is_reserved":false,"is_disabled":false,"rental_uris":{"android":"levelo://app?vid=f89a76a2-18e8-46c7-accb-4c8e50eb4db1","ios":"levelo://app?vid=f89a76a2-18e8-46c7-accb-4c8e50eb4db1"},"vehicle_type_id":"4","last_reported":1703844427,"current_range_meters":14400,"station_id":"ce4bgvp2rcd13ifvqct0","pricing_plan_id":"free"},{"bike_id":"d29f7a6c-6eff-46b1-9d51-bbf08faabfa1","system_id":"levelo_inurba_marseille","lat":43.337477,"lon":5.374431,"is_reserved":false,"is_disabled":false,"rental_uris":{"android":"levelo://app?vid=d29f7a6c-6eff-46b1-9d51-bbf08faabfa1","ios":"levelo://app?vid=d29f7a6c-6eff-46b1-9d51-bbf08faabfa1"},"vehicle_type_id":"4","last_reported":1703844427,"current_range_meters":4400,"station_id":"","pricing_plan_id":"free"},{"bike_id":"dfed2bf4-90de-4b70-9178-32315c78f060","system_id":"levelo_inurba_marseille","lat":43.33762,"lon":5.374382,"is_reserved":false,"is_disabled":false,"rental_uris":{"android":"levelo://app?vid=dfed2bf4-90de-4b70-9178-32315c78f060","ios":"levelo://app?vid=dfed2bf4-90de-4b70-9178-32315c78f060"},"vehicle_type_id":"4","last_reported":1703844427,"current_range_meters":30400,"station_id":"ce4rr2p2rcd13i802rgg","pricing_plan_id":"free"},{"bike_id":"bb315701-5ddd-47af-a0e8-8e234552c90a","system_id":"levelo_inurba_marseille","lat":43.28727,"lon":5.36078,"is_reserved":false,"is_disabled":false,"rental_uris":{"android":"levelo://app?vid=bb315701-5ddd-47af-a0e8-8e234552c90a","ios":"levelo://app?vid=bb315701-5ddd-47af-a0e8-8e234552c90a"},"vehicle_type_id":"4","last_reported":1703844427,"current_range_meters":31200,"station_id":"cki0cbj6b192h4jlfktg","pricing_plan_id":"free"},{"bike_id":"0a43e109-74dd-435d-a0b6-87ec6781169e","system_id":"levelo_inurba_marseille","lat":43.286591,"lon":5.363346,"is_reserved":false,"is_disabled":false,"rental_uris":{"android":"levelo://app?vid=0a43e109-74dd-435d-a0b6-87ec6781169e","ios":"levelo://app?vid=0a43e109-74dd-435d-a0b6-87ec6781169e"},"vehicle_type_id":"4","last_reported":1703844427,"current_range_meters":25200,"station_id":"ce4bhah2rcd13ifvqej0","pricing_plan_id":"free"},{"bike_id":"91eff493-6d5e-42a0-96c3-42fc8eaf8132","system_id":"levelo_inurba_marseille","lat":43.286961,"lon":5.373785,"is_reserved":false,"is_disabled":false,"rental_uris":{"android":"levelo://app?vid=91eff493-6d5e-42a0-96c3-42fc8eaf8132","ios":"levelo://app?vid=91eff493-6d5e-42a0-96c3-42fc8eaf8132"},"vehicle_type_id":"4","last_reported":1703844427,"current_range_meters":26000,"station_id":"ce4bh3p2rcd13ifvqdq0","pricing_plan_id":"free"},{"bike_id":"9e4c682c-0688-4a83-adef-3b9e548c7e02","system_id":"levelo_inurba_marseille","lat":43.289307,"lon":5.38406,"is_reserved":false,"is_disabled":false,"rental_uris":{"android":"levelo://app?vid=9e4c682c-0688-4a83-adef-3b9e548c7e02","ios":"levelo://app?vid=9e4c682c-0688-4a83-adef-3b9e548c7e02"},"vehicle_type_id":"4","last_reported":1703844427,"current_range_meters":29200,"station_id":"ce4bh612rcd13ifvqe6g","pricing_plan_id":"free"},{"bike_id":"1a60f811-b20d-4e5d-951c-464d20432200","system_id":"levelo_inurba_marseille","lat":43.287184,"lon":5.37937,"is_reserved":false,"is_disabled":false,"rental_uris":{"android":"levelo://app?vid=1a60f811-b20d-4e5d-951c-464d20432200","ios":"levelo://app?vid=1a60f811-b20d-4e5d-951c-464d20432200"},"vehicle_type_id":"4","last_reported":1703844427,"current_range_meters":8000,"station_id":"ce4bh9p2rcd13ifvqec0","pricing_plan_id":"free"},{"bike_id":"aac00441-5e5c-4474-92e6-e699a3867bae","system_id":"levelo_inurba_marseille","lat":43.285798,"lon":5.360189,"is_reserved":false,"is_disabled":false,"rental_uris":{"android":"levelo://app?vid=aac00441-5e5c-4474-92e6-e699a3867bae","ios":"levelo://app?vid=aac00441-5e5c-4474-92e6-e699a3867bae"},"vehicle_type_id":"4","last_reported":1703844427,"current_range_meters":27600,"station_id":"","pricing_plan_id":"free"},{"bike_id":"7c92bfab-54f7-43ac-b0be-94d11bf7d813","system_id":"levelo_inurba_marseille","lat":43.316828,"lon":5.404723,"is_reserved":false,"is_disabled":false,"rental_uris":{"android":"levelo://app?vid=7c92bfab-54f7-43ac-b0be-94d11bf7d813","ios":"levelo://app?vid=7c92bfab-54f7-43ac-b0be-94d11bf7d813"},"vehicle_type_id":"4","last_reported":1703844427,"current_range_meters":20400,"station_id":"ce4bh012rcd13ifvqd00","pricing_plan_id":"free"},{"bike_id":"4ff69062-b4c1-40b0-9369-8974f016e861","system_id":"levelo_inurba_marseille","lat":43.316828,"lon":5.404723,"is_reserved":false,"is_disabled":false,"rental_uris":{"android":"levelo://app?vid=4ff69062-b4c1-40b0-9369-8974f016e861","ios":"levelo://app?vid=4ff69062-b4c1-40b0-9369-8974f016e861"},"vehicle_type_id":"4","last_reported":1703844427,"current_range_meters":7200,"station_id":"ce4bh012rcd13ifvqd00","pricing_plan_id":"free"},{"bike_id":"0a4bc910-6b92-4f31-9fe2-2efcaaf7aad7","system_id":"levelo_inurba_marseille","lat":43.291994,"lon":5.392907,"is_reserved":false,"is_disabled":false,"rental_uris":{"android":"levelo://app?vid=0a4bc910-6b92-4f31-9fe2-2efcaaf7aad7","ios":"levelo://app?vid=0a4bc910-6b92-4f31-9fe2-2efcaaf7aad7"},"vehicle_type_id":"4","last_reported":1703844427,"current_range_meters":13200,"station_id":"ce4bh192rcd13ifvqdd0","pricing_plan_id":"free"},{"bike_id":"85251027-069d-43dc-b0ba-2a1464230052","system_id":"levelo_inurba_marseille","lat":43.284538,"lon":5.358657,"is_reserved":false,"is_disabled":false,"rental_uris":{"android":"levelo://app?vid=85251027-069d-43dc-b0ba-2a1464230052","ios":"levelo://app?vid=85251027-069d-43dc-b0ba-2a1464230052"},"vehicle_type_id":"4","last_reported":1703844427,"current_range_meters":26400,"station_id":"ce4bhah2rcd13ifvqei0","pricing_plan_id":"free"},{"bike_id":"2802626b-9213-4a7b-8607-0dde7aca39ea","system_id":"levelo_inurba_marseille","lat":43.319179,"lon":5.407725,"is_reserved":false,"is_disabled":false,"rental_uris":{"android":"levelo://app?vid=2802626b-9213-4a7b-8607-0dde7aca39ea","ios":"levelo://app?vid=2802626b-9213-4a7b-8607-0dde7aca39ea"},"vehicle_type_id":"4","last_reported":1703844427,"current_range_meters":28400,"station_id":"ce4bhq12rcd13ifvqhig","pricing_plan_id":"free"},{"bike_id":"eb0839c4-3270-42e2-bfb8-e0514473fdff","system_id":"levelo_inurba_marseille","lat":43.293408,"lon":5.398661,"is_reserved":false,"is_disabled":false,"rental_uris":{"android":"levelo://app?vid=eb0839c4-3270-42e2-bfb8-e0514473fdff","ios":"levelo://app?vid=eb0839c4-3270-42e2-bfb8-e0514473fdff"},"vehicle_type_id":"4","last_reported":1703844427,"current_range_meters":20000,"station_id":"","pricing_plan_id":"free"},{"bike_id":"88a90eb6-df1d-4c20-8e42-f03f5a6f3a0d","system_id":"levelo_inurba_marseille","lat":43.3372,"lon":5.39178,"is_reserved":false,"is_disabled":false,"rental_uris":{"android":"levelo://app?vid=88a90eb6-df1d-4c20-8e42-f03f5a6f3a0d","ios":"levelo://app?vid=88a90eb6-df1d-4c20-8e42-f03f5a6f3a0d"},"vehicle_type_id":"4","last_reported":1703844427,"current_range_meters":7600,"station_id":"ce4bhr92rcd13ifvqhsg","pricing_plan_id":"free"},{"bike_id":"dc01f71e-723b-469f-aec5-061ea8997c0f","system_id":"levelo_inurba_marseille","lat":43.337168,"lon":5.391825,"is_reserved":false,"is_disabled":false,"rental_uris":{"android":"levelo://app?vid=dc01f71e-723b-469f-aec5-061ea8997c0f","ios":"levelo://app?vid=dc01f71e-723b-469f-aec5-061ea8997c0f"},"vehicle_type_id":"4","last_reported":1703844427,"current_range_meters":31200,"station_id":"ce4bhr92rcd13ifvqhsg","pricing_plan_id":"free"},{"bike_id":"5c5c748b-92be-461a-ab0b-9881ab0f70e0","system_id":"levelo_inurba_marseille","lat":43.323464,"lon":5.406297,"is_reserved":false,"is_disabled":false,"rental_uris":{"android":"levelo://app?vid=5c5c748b-92be-461a-ab0b-9881ab0f70e0","ios":"levelo://app?vid=5c5c748b-92be-461a-ab0b-9881ab0f70e0"},"vehicle_type_id":"4","last_reported":1703844427,"current_range_meters":15200,"station_id":"ce4bhq92rcd13ifvqhjg","pricing_plan_id":"free"},{"bike_id":"05b69abe-5f9e-4f64-92b2-0d85f8ca8094","system_id":"levelo_inurba_marseille","lat":43.323464,"lon":5.406297,"is_reserved":false,"is_disabled":false,"rental_uris":{"android":"levelo://app?vid=05b69abe-5f9e-4f64-92b2-0d85f8ca8094","ios":"levelo://app?vid=05b69abe-5f9e-4f64-92b2-0d85f8ca8094"},"vehicle_type_id":"4","last_reported":1703844427,"current_range_meters":23600,"station_id":"ce4bhq92rcd13ifvqhjg","pricing_plan_id":"free"},{"bike_id":"62c99a34-ebf8-4262-aab1-f313d6a9d508","system_id":"levelo_inurba_marseille","lat":43.323464,"lon":5.406297,"is_reserved":false,"is_disabled":false,"rental_uris":{"android":"levelo://app?vid=62c99a34-ebf8-4262-aab1-f313d6a9d508","ios":"levelo://app?vid=62c99a34-ebf8-4262-aab1-f313d6a9d508"},"vehicle_type_id":"4","last_reported":1703844427,"current_range_meters":21200,"station_id":"ce4bhq92rcd13ifvqhjg","pricing_plan_id":"free"},{"bike_id":"30c28359-fe6f-4521-b6f8-124ed38a777b","system_id":"levelo_inurba_marseille","lat":43.323464,"lon":5.406297,"is_reserved":false,"is_disabled":false,"rental_uris":{"android":"levelo://app?vid=30c28359-fe6f-4521-b6f8-124ed38a777b","ios":"levelo://app?vid=30c28359-fe6f-4521-b6f8-124ed38a777b"},"vehicle_type_id":"4","last_reported":1703844427,"current_range_meters":14000,"station_id":"ce4bhq92rcd13ifvqhjg","pricing_plan_id":"free"},{"bike_id":"2ad95a4b-214e-48fc-9c4c-dced021e229f","system_id":"levelo_inurba_marseille","lat":43.323464,"lon":5.406297,"is_reserved":false,"is_disabled":false,"rental_uris":{"android":"levelo://app?vid=2ad95a4b-214e-48fc-9c4c-dced021e229f","ios":"levelo://app?vid=2ad95a4b-214e-48fc-9c4c-dced021e229f"},"vehicle_type_id":"4","last_reported":1703844427,"current_range_meters":31200,"station_id":"ce4bhq92rcd13ifvqhjg","pricing_plan_id":"free"},{"bike_id":"e485450b-2736-4f4c-b94b-0da5a69b88aa","system_id":"levelo_inurba_marseille","lat":43.33385,"lon":5.39822,"is_reserved":false,"is_disabled":false,"rental_uris":{"android":"levelo://app?vid=e485450b-2736-4f4c-b94b-0da5a69b88aa","ios":"levelo://app?vid=e485450b-2736-4f4c-b94b-0da5a69b88aa"},"vehicle_type_id":"4","last_reported":1703844427,"current_range_meters":11600,"station_id":"","pricing_plan_id":"free"},{"bike_id":"195e465b-4749-4719-9bfa-199f6a136669","system_id":"levelo_inurba_marseille","lat":43.292724,"lon":5.401131,"is_reserved":false,"is_disabled":false,"rental_uris":{"android":"levelo://app?vid=195e465b-4749-4719-9bfa-199f6a136669","ios":"levelo://app?vid=195e465b-4749-4719-9bfa-199f6a136669"},"vehicle_type_id":"4","last_reported":1703844427,"current_range_meters":25600,"station_id":"ce4bh312rcd13ifvqdk0","pricing_plan_id":"free"},{"bike_id":"98bc3456-0aa7-43c0-af9b-30bc50d2c0d1","system_id":"levelo_inurba_marseille","lat":43.282754,"lon":5.350519,"is_reserved":false,"is_disabled":false,"rental_uris":{"android":"levelo://app?vid=98bc3456-0aa7-43c0-af9b-30bc50d2c0d1","ios":"levelo://app?vid=98bc3456-0aa7-43c0-af9b-30bc50d2c0d1"},"vehicle_type_id":"4","last_reported":1703844427,"current_range_meters":31200,"station_id":"ce4bhbp2rcd13ifvqerg","pricing_plan_id":"free"},{"bike_id":"a9a0b843-2686-43f9-997c-2a2c14e30afc","system_id":"levelo_inurba_marseille","lat":43.282744,"lon":5.350533,"is_reserved":false,"is_disabled":false,"rental_uris":{"android":"levelo://app?vid=a9a0b843-2686-43f9-997c-2a2c14e30afc","ios":"levelo://app?vid=a9a0b843-2686-43f9-997c-2a2c14e30afc"},"vehicle_type_id":"4","last_reported":1703844427,"current_range_meters":22800,"station_id":"ce4bhbp2rcd13ifvqerg","pricing_plan_id":"free"},{"bike_id":"e15c5a50-70df-4807-9c86-29441b1a1d75","system_id":"levelo_inurba_marseille","lat":43.282754,"lon":5.350519,"is_reserved":false,"is_disabled":false,"rental_uris":{"android":"levelo://app?vid=e15c5a50-70df-4807-9c86-29441b1a1d75","ios":"levelo://app?vid=e15c5a50-70df-4807-9c86-29441b1a1d75"},"vehicle_type_id":"4","last_reported":1703844427,"current_range_meters":30400,"station_id":"ce4bhbp2rcd13ifvqerg","pricing_plan_id":"free"},{"bike_id":"c6f29b9a-24b2-4a9a-9bff-7be1cae84f29","system_id":"levelo_inurba_marseille","lat":43.28265,"lon":5.35064,"is_reserved":false,"is_disabled":false,"rental_uris":{"android":"levelo://app?vid=c6f29b9a-24b2-4a9a-9bff-7be1cae84f29","ios":"levelo://app?vid=c6f29b9a-24b2-4a9a-9bff-7be1cae84f29"},"vehicle_type_id":"4","last_reported":1703844427,"current_range_meters":6800,"station_id":"ce4bhbp2rcd13ifvqerg","pricing_plan_id":"free"},{"bike_id":"5d794532-c44e-41c3-95ba-18567aa2776f","system_id":"levelo_inurba_marseille","lat":43.282744,"lon":5.350533,"is_reserved":false,"is_disabled":false,"rental_uris":{"android":"levelo://app?vid=5d794532-c44e-41c3-95ba-18567aa2776f","ios":"levelo://app?vid=5d794532-c44e-41c3-95ba-18567aa2776f"},"vehicle_type_id":"4","last_reported":1703844427,"current_range_meters":31600,"station_id":"ce4bhbp2rcd13ifvqerg","pricing_plan_id":"free"},{"bike_id":"bad7088c-a9ba-401e-aebb-9a8f98945ec4","system_id":"levelo_inurba_marseille","lat":43.282744,"lon":5.350533,"is_reserved":false,"is_disabled":false,"rental_uris":{"android":"levelo://app?vid=bad7088c-a9ba-401e-aebb-9a8f98945ec4","ios":"levelo://app?vid=bad7088c-a9ba-401e-aebb-9a8f98945ec4"},"vehicle_type_id":"4","last_reported":1703844427,"current_range_meters":25200,"station_id":"ce4bhbp2rcd13ifvqerg","pricing_plan_id":"free"},{"bike_id":"b30edeb8-1b2f-4df8-9bb6-19fff853d494","system_id":"levelo_inurba_marseille","lat":43.283502,"lon":5.386471,"is_reserved":false,"is_disabled":false,"rental_uris":{"android":"levelo://app?vid=b30edeb8-1b2f-4df8-9bb6-19fff853d494","ios":"levelo://app?vid=b30edeb8-1b2f-4df8-9bb6-19fff853d494"},"vehicle_type_id":"4","last_reported":1703844427,"current_range_meters":20400,"station_id":"ce4bh492rcd13ifvqdvg","pricing_plan_id":"free"},{"bike_id":"9b0eb865-1732-47e8-8622-541121b05d70","system_id":"levelo_inurba_marseille","lat":43.280351,"lon":5.369394,"is_reserved":false,"is_disabled":false,"rental_uris":{"android":"levelo://app?vid=9b0eb865-1732-47e8-8622-541121b05d70","ios":"levelo://app?vid=9b0eb865-1732-47e8-8622-541121b05d70"},"vehicle_type_id":"4","last_reported":1703844427,"current_range_meters":20400,"station_id":"ce4bha12rcd13ifvqef0","pricing_plan_id":"free"},{"bike_id":"67051d57-9e3f-4564-b7fc-ddedb7cea4f8","system_id":"levelo_inurba_marseille","lat":43.28039,"lon":5.369297,"is_reserved":false,"is_disabled":false,"rental_uris":{"android":"levelo://app?vid=67051d57-9e3f-4564-b7fc-ddedb7cea4f8","ios":"levelo://app?vid=67051d57-9e3f-4564-b7fc-ddedb7cea4f8"},"vehicle_type_id":"4","last_reported":1703844427,"current_range_meters":30000,"station_id":"ce4bha12rcd13ifvqef0","pricing_plan_id":"free"},{"bike_id":"668df2cd-cd30-47ba-af77-84c9b6b7d26e","system_id":"levelo_inurba_marseille","lat":43.28039,"lon":5.369297,"is_reserved":false,"is_disabled":false,"rental_uris":{"android":"levelo://app?vid=668df2cd-cd30-47ba-af77-84c9b6b7d26e","ios":"levelo://app?vid=668df2cd-cd30-47ba-af77-84c9b6b7d26e"},"vehicle_type_id":"4","last_reported":1703844427,"current_range_meters":17600,"station_id":"ce4bha12rcd13ifvqef0","pricing_plan_id":"free"},{"bike_id":"efa1b61e-27b7-4d44-a94a-967ebbee8051","system_id":"levelo_inurba_marseille","lat":43.281044,"lon":5.378308,"is_reserved":false,"is_disabled":false,"rental_uris":{"android":"levelo://app?vid=efa1b61e-27b7-4d44-a94a-967ebbee8051","ios":"levelo://app?vid=efa1b61e-27b7-4d44-a94a-967ebbee8051"},"vehicle_type_id":"4","last_reported":1703844427,"current_range_meters":31200,"station_id":"ce4bha12rcd13ifvqee0","pricing_plan_id":"free"},{"bike_id":"8285c850-195f-4c23-8409-bc0b1fe08b6a","system_id":"levelo_inurba_marseille","lat":43.273125,"lon":5.390731,"is_reserved":false,"is_disabled":false,"rental_uris":{"android":"levelo://app?vid=8285c850-195f-4c23-8409-bc0b1fe08b6a","ios":"levelo://app?vid=8285c850-195f-4c23-8409-bc0b1fe08b6a"},"vehicle_type_id":"4","last_reported":1703844427,"current_range_meters":14800,"station_id":"ce4bhgp2rcd13ifvqfe0","pricing_plan_id":"free"},{"bike_id":"8aa533c5-c934-4124-9798-e09b0803030a","system_id":"levelo_inurba_marseille","lat":43.304188,"lon":5.412904,"is_reserved":false,"is_disabled":false,"rental_uris":{"android":"levelo://app?vid=8aa533c5-c934-4124-9798-e09b0803030a","ios":"levelo://app?vid=8aa533c5-c934-4124-9798-e09b0803030a"},"vehicle_type_id":"4","last_reported":1703844427,"current_range_meters":31200,"station_id":"ce4bhop2rcd13ifvqh8g","pricing_plan_id":"free"},{"bike_id":"c165d8fc-63df-440e-b0ce-6844b4cf6426","system_id":"levelo_inurba_marseille","lat":43.279087,"lon":5.380114,"is_reserved":false,"is_disabled":false,"rental_uris":{"android":"levelo://app?vid=c165d8fc-63df-440e-b0ce-6844b4cf6426","ios":"levelo://app?vid=c165d8fc-63df-440e-b0ce-6844b4cf6426"},"vehicle_type_id":"4","last_reported":1703844427,"current_range_meters":27200,"station_id":"ce4bhf92rcd13ifvqf50","pricing_plan_id":"free"},{"bike_id":"222cf7db-a53b-4965-b2cf-0911b8210b78","system_id":"levelo_inurba_marseille","lat":43.279087,"lon":5.380114,"is_reserved":false,"is_disabled":false,"rental_uris":{"android":"levelo://app?vid=222cf7db-a53b-4965-b2cf-0911b8210b78","ios":"levelo://app?vid=222cf7db-a53b-4965-b2cf-0911b8210b78"},"vehicle_type_id":"4","last_reported":1703844427,"current_range_meters":30000,"station_id":"ce4bhf92rcd13ifvqf50","pricing_plan_id":"free"},{"bike_id":"1ec792bc-8c87-4e2d-8e43-f8f29613ea13","system_id":"levelo_inurba_marseille","lat":43.320045,"lon":5.415046,"is_reserved":false,"is_disabled":false,"rental_uris":{"android":"levelo://app?vid=1ec792bc-8c87-4e2d-8e43-f8f29613ea13","ios":"levelo://app?vid=1ec792bc-8c87-4e2d-8e43-f8f29613ea13"},"vehicle_type_id":"4","last_reported":1703844427,"current_range_meters":30000,"station_id":"ce4bhq92rcd13ifvqhkg","pricing_plan_id":"free"},{"bike_id":"ca2b2943-8cd1-4b93-a020-7ceaef3816a0","system_id":"levelo_inurba_marseille","lat":43.320045,"lon":5.415048,"is_reserved":false,"is_disabled":false,"rental_uris":{"android":"levelo://app?vid=ca2b2943-8cd1-4b93-a020-7ceaef3816a0","ios":"levelo://app?vid=ca2b2943-8cd1-4b93-a020-7ceaef3816a0"},"vehicle_type_id":"4","last_reported":1703844427,"current_range_meters":9600,"station_id":"ce4bhq92rcd13ifvqhkg","pricing_plan_id":"free"},{"bike_id":"0fe51609-1856-4416-894f-be4f12747aa3","system_id":"levelo_inurba_marseille","lat":43.292571,"lon":5.409107,"is_reserved":false,"is_disabled":false,"rental_uris":{"android":"levelo://app?vid=0fe51609-1856-4416-894f-be4f12747aa3","ios":"levelo://app?vid=0fe51609-1856-4416-894f-be4f12747aa3"},"vehicle_type_id":"4","last_reported":1703844427,"current_range_meters":27600,"station_id":"ce4bh192rcd13ifvqdc0","pricing_plan_id":"free"},{"bike_id":"f82b54a9-123b-49f3-99f8-bd74978e4173","system_id":"levelo_inurba_marseille","lat":43.292569,"lon":5.409107,"is_reserved":false,"is_disabled":false,"rental_uris":{"android":"levelo://app?vid=f82b54a9-123b-49f3-99f8-bd74978e4173","ios":"levelo://app?vid=f82b54a9-123b-49f3-99f8-bd74978e4173"},"vehicle_type_id":"4","last_reported":1703844427,"current_range_meters":26800,"station_id":"ce4bh192rcd13ifvqdc0","pricing_plan_id":"free"},{"bike_id":"6d21123b-2a98-435c-90ff-b5fc23f679a1","system_id":"levelo_inurba_marseille","lat":43.27618,"lon":5.361009,"is_reserved":false,"is_disabled":false,"rental_uris":{"android":"levelo://app?vid=6d21123b-2a98-435c-90ff-b5fc23f679a1","ios":"levelo://app?vid=6d21123b-2a98-435c-90ff-b5fc23f679a1"},"vehicle_type_id":"4","last_reported":1703844427,"current_range_meters":2400,"station_id":"ce4bgj92rcd13ifvqbe0","pricing_plan_id":"free"},{"bike_id":"39940598-40d6-4a1b-9ba9-5035ee5fb6ef","system_id":"levelo_inurba_marseille","lat":43.276179,"lon":5.361009,"is_reserved":false,"is_disabled":false,"rental_uris":{"android":"levelo://app?vid=39940598-40d6-4a1b-9ba9-5035ee5fb6ef","ios":"levelo://app?vid=39940598-40d6-4a1b-9ba9-5035ee5fb6ef"},"vehicle_type_id":"4","last_reported":1703844427,"current_range_meters":24000,"station_id":"ce4bgj92rcd13ifvqbe0","pricing_plan_id":"free"},{"bike_id":"810badb4-2430-46d9-9211-b7f902221d44","system_id":"levelo_inurba_marseille","lat":43.325243,"lon":5.414326,"is_reserved":false,"is_disabled":false,"rental_uris":{"android":"levelo://app?vid=810badb4-2430-46d9-9211-b7f902221d44","ios":"levelo://app?vid=810badb4-2430-46d9-9211-b7f902221d44"},"vehicle_type_id":"4","last_reported":1703844427,"current_range_meters":20800,"station_id":"ce4bhq12rcd13ifvqhhg","pricing_plan_id":"free"},{"bike_id":"526046ed-5927-4911-bee7-e9c4a1320b2e","system_id":"levelo_inurba_marseille","lat":43.280784,"lon":5.396622,"is_reserved":false,"is_disabled":false,"rental_uris":{"android":"levelo://app?vid=526046ed-5927-4911-bee7-e9c4a1320b2e","ios":"levelo://app?vid=526046ed-5927-4911-bee7-e9c4a1320b2e"},"vehicle_type_id":"4","last_reported":1703844427,"current_range_meters":15200,"station_id":"ce4bho12rcd13ifvqh2g","pricing_plan_id":"free"},{"bike_id":"e0db9863-9a81-468a-886f-7dbf00b38255","system_id":"levelo_inurba_marseille","lat":43.280784,"lon":5.396622,"is_reserved":false,"is_disabled":false,"rental_uris":{"android":"levelo://app?vid=e0db9863-9a81-468a-886f-7dbf00b38255","ios":"levelo://app?vid=e0db9863-9a81-468a-886f-7dbf00b38255"},"vehicle_type_id":"4","last_reported":1703844427,"current_range_meters":28800,"station_id":"ce4bho12rcd13ifvqh2g","pricing_plan_id":"free"},{"bike_id":"1cfa2c67-3cf0-434b-b356-1136962b5a22","system_id":"levelo_inurba_marseille","lat":43.280784,"lon":5.396622,"is_reserved":false,"is_disabled":false,"rental_uris":{"android":"levelo://app?vid=1cfa2c67-3cf0-434b-b356-1136962b5a22","ios":"levelo://app?vid=1cfa2c67-3cf0-434b-b356-1136962b5a22"},"vehicle_type_id":"4","last_reported":1703844427,"current_range_meters":31200,"station_id":"ce4bho12rcd13ifvqh2g","pricing_plan_id":"free"},{"bike_id":"f877b7f9-dc20-4acb-ab4b-c31fc0a67220","system_id":"levelo_inurba_marseille","lat":43.280784,"lon":5.396622,"is_reserved":false,"is_disabled":false,"rental_uris":{"android":"levelo://app?vid=f877b7f9-dc20-4acb-ab4b-c31fc0a67220","ios":"levelo://app?vid=f877b7f9-dc20-4acb-ab4b-c31fc0a67220"},"vehicle_type_id":"4","last_reported":1703844427,"current_range_meters":14800,"station_id":"ce4bho12rcd13ifvqh2g","pricing_plan_id":"free"},{"bike_id":"2e7c407e-f60d-499d-9404-664b96cbada9","system_id":"levelo_inurba_marseille","lat":43.280784,"lon":5.396622,"is_reserved":false,"is_disabled":false,"rental_uris":{"android":"levelo://app?vid=2e7c407e-f60d-499d-9404-664b96cbada9","ios":"levelo://app?vid=2e7c407e-f60d-499d-9404-664b96cbada9"},"vehicle_type_id":"4","last_reported":1703844427,"current_range_meters":12000,"station_id":"ce4bho12rcd13ifvqh2g","pricing_plan_id":"free"},{"bike_id":"7324b501-33f5-4b3f-9305-4da22e4a3c5b","system_id":"levelo_inurba_marseille","lat":43.278401,"lon":5.392152,"is_reserved":false,"is_disabled":false,"rental_uris":{"android":"levelo://app?vid=7324b501-33f5-4b3f-9305-4da22e4a3c5b","ios":"levelo://app?vid=7324b501-33f5-4b3f-9305-4da22e4a3c5b"},"vehicle_type_id":"4","last_reported":1703844427,"current_range_meters":10400,"station_id":"ce4bhjp2rcd13ifvqga0","pricing_plan_id":"free"},{"bike_id":"385f6825-847e-4940-b675-3f52ce050c6f","system_id":"levelo_inurba_marseille","lat":43.273613,"lon":5.362705,"is_reserved":false,"is_disabled":false,"rental_uris":{"android":"levelo://app?vid=385f6825-847e-4940-b675-3f52ce050c6f","ios":"levelo://app?vid=385f6825-847e-4940-b675-3f52ce050c6f"},"vehicle_type_id":"4","last_reported":1703844427,"current_range_meters":29200,"station_id":"ce4bhbh2rcd13ifvqeo0","pricing_plan_id":"free"},{"bike_id":"91729a13-adb0-4e97-8482-ab5f17e53f57","system_id":"levelo_inurba_marseille","lat":43.273613,"lon":5.362705,"is_reserved":false,"is_disabled":false,"rental_uris":{"android":"levelo://app?vid=91729a13-adb0-4e97-8482-ab5f17e53f57","ios":"levelo://app?vid=91729a13-adb0-4e97-8482-ab5f17e53f57"},"vehicle_type_id":"4","last_reported":1703844427,"current_range_meters":28800,"station_id":"ce4bhbh2rcd13ifvqeo0","pricing_plan_id":"free"},{"bike_id":"fded7ab9-e1d0-44bf-b6e9-de20708360ba","system_id":"levelo_inurba_marseille","lat":43.275625,"lon":5.384392,"is_reserved":false,"is_disabled":false,"rental_uris":{"android":"levelo://app?vid=fded7ab9-e1d0-44bf-b6e9-de20708360ba","ios":"levelo://app?vid=fded7ab9-e1d0-44bf-b6e9-de20708360ba"},"vehicle_type_id":"4","last_reported":1703844427,"current_range_meters":31600,"station_id":"ce4bhh92rcd13ifvqfi0","pricing_plan_id":"free"},{"bike_id":"8c89c02e-da3b-47fe-b02a-e2ab146807e9","system_id":"levelo_inurba_marseille","lat":43.275625,"lon":5.384392,"is_reserved":false,"is_disabled":false,"rental_uris":{"android":"levelo://app?vid=8c89c02e-da3b-47fe-b02a-e2ab146807e9","ios":"levelo://app?vid=8c89c02e-da3b-47fe-b02a-e2ab146807e9"},"vehicle_type_id":"4","last_reported":1703844427,"current_range_meters":26800,"station_id":"ce4bhh92rcd13ifvqfi0","pricing_plan_id":"free"},{"bike_id":"e298eff3-cdee-4779-a3dd-55ed635c2c9c","system_id":"levelo_inurba_marseille","lat":43.27994,"lon":5.40009,"is_reserved":false,"is_disabled":false,"rental_uris":{"android":"levelo://app?vid=e298eff3-cdee-4779-a3dd-55ed635c2c9c","ios":"levelo://app?vid=e298eff3-cdee-4779-a3dd-55ed635c2c9c"},"vehicle_type_id":"4","last_reported":1703844427,"current_range_meters":26000,"station_id":"ce4bho92rcd13ifvqh4g","pricing_plan_id":"free"},{"bike_id":"06aeca28-58c7-4dd3-98ec-7292b88ddaa3","system_id":"levelo_inurba_marseille","lat":43.279952,"lon":5.400085,"is_reserved":false,"is_disabled":false,"rental_uris":{"android":"levelo://app?vid=06aeca28-58c7-4dd3-98ec-7292b88ddaa3","ios":"levelo://app?vid=06aeca28-58c7-4dd3-98ec-7292b88ddaa3"},"vehicle_type_id":"4","last_reported":1703844427,"current_range_meters":22000,"station_id":"ce4bho92rcd13ifvqh4g","pricing_plan_id":"free"},{"bike_id":"1aa24b15-9b12-4588-97fb-1cfdd276ecd2","system_id":"levelo_inurba_marseille","lat":43.279975,"lon":5.40009,"is_reserved":false,"is_disabled":false,"rental_uris":{"android":"levelo://app?vid=1aa24b15-9b12-4588-97fb-1cfdd276ecd2","ios":"levelo://app?vid=1aa24b15-9b12-4588-97fb-1cfdd276ecd2"},"vehicle_type_id":"4","last_reported":1703844427,"current_range_meters":25600,"station_id":"ce4bho92rcd13ifvqh4g","pricing_plan_id":"free"},{"bike_id":"98e75801-6872-4cca-809c-552e18c99a3c","system_id":"levelo_inurba_marseille","lat":43.317121,"lon":5.423936,"is_reserved":false,"is_disabled":false,"rental_uris":{"android":"levelo://app?vid=98e75801-6872-4cca-809c-552e18c99a3c","ios":"levelo://app?vid=98e75801-6872-4cca-809c-552e18c99a3c"},"vehicle_type_id":"4","last_reported":1703844427,"current_range_meters":28800,"station_id":"ce4bhp92rcd13ifvqhbg","pricing_plan_id":"free"},{"bike_id":"e9ebc297-5690-454c-90ee-c665d575ca1a","system_id":"levelo_inurba_marseille","lat":43.317121,"lon":5.423936,"is_reserved":false,"is_disabled":false,"rental_uris":{"android":"levelo://app?vid=e9ebc297-5690-454c-90ee-c665d575ca1a","ios":"levelo://app?vid=e9ebc297-5690-454c-90ee-c665d575ca1a"},"vehicle_type_id":"4","last_reported":1703844427,"current_range_meters":30400,"station_id":"ce4bhp92rcd13ifvqhbg","pricing_plan_id":"free"},{"bike_id":"8f534724-1afc-4c89-915a-458f0a670a18","system_id":"levelo_inurba_marseille","lat":43.310785,"lon":5.424305,"is_reserved":false,"is_disabled":false,"rental_uris":{"android":"levelo://app?vid=8f534724-1afc-4c89-915a-458f0a670a18","ios":"levelo://app?vid=8f534724-1afc-4c89-915a-458f0a670a18"},"vehicle_type_id":"4","last_reported":1703844427,"current_range_meters":25600,"station_id":"ce4bhp92rcd13ifvqhag","pricing_plan_id":"free"},{"bike_id":"1a16c248-260d-4c68-b0d5-f07822219418","system_id":"levelo_inurba_marseille","lat":43.340804,"lon":5.410219,"is_reserved":false,"is_disabled":false,"rental_uris":{"android":"levelo://app?vid=1a16c248-260d-4c68-b0d5-f07822219418","ios":"levelo://app?vid=1a16c248-260d-4c68-b0d5-f07822219418"},"vehicle_type_id":"4","last_reported":1703844427,"current_range_meters":12000,"station_id":"ce4bhqh2rcd13ifvqhlg","pricing_plan_id":"free"},{"bike_id":"e2fd0ea3-8e75-46ed-91dd-141950cbbf81","system_id":"levelo_inurba_marseille","lat":43.340804,"lon":5.410219,"is_reserved":false,"is_disabled":false,"rental_uris":{"android":"levelo://app?vid=e2fd0ea3-8e75-46ed-91dd-141950cbbf81","ios":"levelo://app?vid=e2fd0ea3-8e75-46ed-91dd-141950cbbf81"},"vehicle_type_id":"4","last_reported":1703844427,"current_range_meters":30400,"station_id":"ce4bhqh2rcd13ifvqhlg","pricing_plan_id":"free"},{"bike_id":"7a66a28e-aeb4-48e9-8cc8-f232ccfb7b07","system_id":"levelo_inurba_marseille","lat":43.273125,"lon":5.390731,"is_reserved":false,"is_disabled":false,"rental_uris":{"android":"levelo://app?vid=7a66a28e-aeb4-48e9-8cc8-f232ccfb7b07","ios":"levelo://app?vid=7a66a28e-aeb4-48e9-8cc8-f232ccfb7b07"},"vehicle_type_id":"4","last_reported":1703844427,"current_range_meters":28400,"station_id":"ce4bhgp2rcd13ifvqfe0","pricing_plan_id":"free"},{"bike_id":"487cdfc0-3834-48cc-8789-f076f783fc9f","system_id":"levelo_inurba_marseille","lat":43.273129,"lon":5.390725,"is_reserved":false,"is_disabled":false,"rental_uris":{"android":"levelo://app?vid=487cdfc0-3834-48cc-8789-f076f783fc9f","ios":"levelo://app?vid=487cdfc0-3834-48cc-8789-f076f783fc9f"},"vehicle_type_id":"4","last_reported":1703844427,"current_range_meters":23200,"station_id":"ce4bhgp2rcd13ifvqfe0","pricing_plan_id":"free"},{"bike_id":"793765ed-a82f-4343-960f-a319f4976f03","system_id":"levelo_inurba_marseille","lat":43.273129,"lon":5.390725,"is_reserved":false,"is_disabled":false,"rental_uris":{"android":"levelo://app?vid=793765ed-a82f-4343-960f-a319f4976f03","ios":"levelo://app?vid=793765ed-a82f-4343-960f-a319f4976f03"},"vehicle_type_id":"4","last_reported":1703844427,"current_range_meters":31200,"station_id":"ce4bhgp2rcd13ifvqfe0","pricing_plan_id":"free"},{"bike_id":"6ac46434-238e-408f-91e7-925f4dcd558e","system_id":"levelo_inurba_marseille","lat":43.304096,"lon":5.425385,"is_reserved":false,"is_disabled":false,"rental_uris":{"android":"levelo://app?vid=6ac46434-238e-408f-91e7-925f4dcd558e","ios":"levelo://app?vid=6ac46434-238e-408f-91e7-925f4dcd558e"},"vehicle_type_id":"4","last_reported":1703844427,"current_range_meters":26800,"station_id":"ce4bhoh2rcd13ifvqh6g","pricing_plan_id":"free"},{"bike_id":"d2fbed49-e56c-491d-9e61-f589a48af637","system_id":"levelo_inurba_marseille","lat":43.304096,"lon":5.425385,"is_reserved":false,"is_disabled":false,"rental_uris":{"android":"levelo://app?vid=d2fbed49-e56c-491d-9e61-f589a48af637","ios":"levelo://app?vid=d2fbed49-e56c-491d-9e61-f589a48af637"},"vehicle_type_id":"4","last_reported":1703844427,"current_range_meters":14800,"station_id":"ce4bhoh2rcd13ifvqh6g","pricing_plan_id":"free"},{"bike_id":"e43782e5-9b2d-4e13-9246-2452f501c0ed","system_id":"levelo_inurba_marseille","lat":43.274994,"lon":5.397511,"is_reserved":false,"is_disabled":false,"rental_uris":{"android":"levelo://app?vid=e43782e5-9b2d-4e13-9246-2452f501c0ed","ios":"levelo://app?vid=e43782e5-9b2d-4e13-9246-2452f501c0ed"},"vehicle_type_id":"4","last_reported":1703844427,"current_range_meters":24000,"station_id":"","pricing_plan_id":"free"},{"bike_id":"e192df68-2c2b-482d-b6fd-3b8920434290","system_id":"levelo_inurba_marseille","lat":43.29552,"lon":5.42279,"is_reserved":false,"is_disabled":false,"rental_uris":{"android":"levelo://app?vid=e192df68-2c2b-482d-b6fd-3b8920434290","ios":"levelo://app?vid=e192df68-2c2b-482d-b6fd-3b8920434290"},"vehicle_type_id":"4","last_reported":1703844427,"current_range_meters":18800,"station_id":"ce4bhph2rcd13ifvqhdg","pricing_plan_id":"free"},{"bike_id":"0c41bc08-49fa-41b0-83dd-5c7480a15cc6","system_id":"levelo_inurba_marseille","lat":43.295579,"lon":5.422892,"is_reserved":false,"is_disabled":false,"rental_uris":{"android":"levelo://app?vid=0c41bc08-49fa-41b0-83dd-5c7480a15cc6","ios":"levelo://app?vid=0c41bc08-49fa-41b0-83dd-5c7480a15cc6"},"vehicle_type_id":"4","last_reported":1703844427,"current_range_meters":27600,"station_id":"ce4bhph2rcd13ifvqhdg","pricing_plan_id":"free"},{"bike_id":"ab0f6725-08b3-45e6-af6a-05a63fd34376","system_id":"levelo_inurba_marseille","lat":43.272124,"lon":5.391768,"is_reserved":false,"is_disabled":false,"rental_uris":{"android":"levelo://app?vid=ab0f6725-08b3-45e6-af6a-05a63fd34376","ios":"levelo://app?vid=ab0f6725-08b3-45e6-af6a-05a63fd34376"},"vehicle_type_id":"4","last_reported":1703844427,"current_range_meters":25200,"station_id":"ce4bhhp2rcd13ifvqfm0","pricing_plan_id":"free"},{"bike_id":"3cf008ed-1a17-4af5-a006-88e4aa8a23f2","system_id":"levelo_inurba_marseille","lat":43.272124,"lon":5.391768,"is_reserved":false,"is_disabled":false,"rental_uris":{"android":"levelo://app?vid=3cf008ed-1a17-4af5-a006-88e4aa8a23f2","ios":"levelo://app?vid=3cf008ed-1a17-4af5-a006-88e4aa8a23f2"},"vehicle_type_id":"4","last_reported":1703844427,"current_range_meters":5200,"station_id":"ce4bhhp2rcd13ifvqfm0","pricing_plan_id":"free"},{"bike_id":"88f9b52a-ea97-4639-ba75-3df0932bb49d","system_id":"levelo_inurba_marseille","lat":43.278128,"lon":5.407195,"is_reserved":false,"is_disabled":false,"rental_uris":{"android":"levelo://app?vid=88f9b52a-ea97-4639-ba75-3df0932bb49d","ios":"levelo://app?vid=88f9b52a-ea97-4639-ba75-3df0932bb49d"},"vehicle_type_id":"4","last_reported":1703844427,"current_range_meters":24400,"station_id":"ce4bhnh2rcd13ifvqgtg","pricing_plan_id":"free"},{"bike_id":"0375cb33-1069-488a-adfb-35aa9b90f4d5","system_id":"levelo_inurba_marseille","lat":43.269467,"lon":5.386439,"is_reserved":false,"is_disabled":false,"rental_uris":{"android":"levelo://app?vid=0375cb33-1069-488a-adfb-35aa9b90f4d5","ios":"levelo://app?vid=0375cb33-1069-488a-adfb-35aa9b90f4d5"},"vehicle_type_id":"4","last_reported":1703844427,"current_range_meters":28400,"station_id":"ce4bhh92rcd13ifvqfh0","pricing_plan_id":"free"},{"bike_id":"f447d391-3615-4e02-9cbf-a1417fec2e76","system_id":"levelo_inurba_marseille","lat":43.269467,"lon":5.386439,"is_reserved":false,"is_disabled":false,"rental_uris":{"android":"levelo://app?vid=f447d391-3615-4e02-9cbf-a1417fec2e76","ios":"levelo://app?vid=f447d391-3615-4e02-9cbf-a1417fec2e76"},"vehicle_type_id":"4","last_reported":1703844427,"current_range_meters":26800,"station_id":"ce4bhh92rcd13ifvqfh0","pricing_plan_id":"free"},{"bike_id":"074e0c69-f177-422a-8ad1-5eadc591f34e","system_id":"levelo_inurba_marseille","lat":43.269467,"lon":5.386439,"is_reserved":false,"is_disabled":false,"rental_uris":{"android":"levelo://app?vid=074e0c69-f177-422a-8ad1-5eadc591f34e","ios":"levelo://app?vid=074e0c69-f177-422a-8ad1-5eadc591f34e"},"vehicle_type_id":"4","last_reported":1703844427,"current_range_meters":12800,"station_id":"ce4bhh92rcd13ifvqfh0","pricing_plan_id":"free"},{"bike_id":"348e4ebf-424d-408a-b6f5-d2df81b314ab","system_id":"levelo_inurba_marseille","lat":43.269467,"lon":5.386439,"is_reserved":false,"is_disabled":false,"rental_uris":{"android":"levelo://app?vid=348e4ebf-424d-408a-b6f5-d2df81b314ab","ios":"levelo://app?vid=348e4ebf-424d-408a-b6f5-d2df81b314ab"},"vehicle_type_id":"4","last_reported":1703844427,"current_range_meters":28400,"station_id":"ce4bhh92rcd13ifvqfh0","pricing_plan_id":"free"},{"bike_id":"ca3f974e-8702-49ef-ab4f-480a4a97c324","system_id":"levelo_inurba_marseille","lat":43.279465,"lon":5.410561,"is_reserved":false,"is_disabled":false,"rental_uris":{"android":"levelo://app?vid=ca3f974e-8702-49ef-ab4f-480a4a97c324","ios":"levelo://app?vid=ca3f974e-8702-49ef-ab4f-480a4a97c324"},"vehicle_type_id":"4","last_reported":1703844427,"current_range_meters":24400,"station_id":"ce4bhnp2rcd13ifvqh0g","pricing_plan_id":"free"},{"bike_id":"b398344e-9696-438e-ab3c-9e308e0aa7e0","system_id":"levelo_inurba_marseille","lat":43.279465,"lon":5.410561,"is_reserved":false,"is_disabled":false,"rental_uris":{"android":"levelo://app?vid=b398344e-9696-438e-ab3c-9e308e0aa7e0","ios":"levelo://app?vid=b398344e-9696-438e-ab3c-9e308e0aa7e0"},"vehicle_type_id":"4","last_reported":1703844427,"current_range_meters":20000,"station_id":"ce4bhnp2rcd13ifvqh0g","pricing_plan_id":"free"},{"bike_id":"4be303ad-1644-4a37-9c55-cc1533d14818","system_id":"levelo_inurba_marseille","lat":43.279465,"lon":5.410561,"is_reserved":false,"is_disabled":false,"rental_uris":{"android":"levelo://app?vid=4be303ad-1644-4a37-9c55-cc1533d14818","ios":"levelo://app?vid=4be303ad-1644-4a37-9c55-cc1533d14818"},"vehicle_type_id":"4","last_reported":1703844427,"current_range_meters":20000,"station_id":"ce4bhnp2rcd13ifvqh0g","pricing_plan_id":"free"},{"bike_id":"dec39a69-2bf5-4ddb-9417-f51751ceb070","system_id":"levelo_inurba_marseille","lat":43.26686,"lon":5.38273,"is_reserved":false,"is_disabled":false,"rental_uris":{"android":"levelo://app?vid=dec39a69-2bf5-4ddb-9417-f51751ceb070","ios":"levelo://app?vid=dec39a69-2bf5-4ddb-9417-f51751ceb070"},"vehicle_type_id":"4","last_reported":1703844427,"current_range_meters":16400,"station_id":"ce4bhg92rcd13ifvqf90","pricing_plan_id":"free"},{"bike_id":"52bfcbc8-d057-4c1f-9754-5ed0a3f71bbb","system_id":"levelo_inurba_marseille","lat":43.26684,"lon":5.38268,"is_reserved":false,"is_disabled":false,"rental_uris":{"android":"levelo://app?vid=52bfcbc8-d057-4c1f-9754-5ed0a3f71bbb","ios":"levelo://app?vid=52bfcbc8-d057-4c1f-9754-5ed0a3f71bbb"},"vehicle_type_id":"4","last_reported":1703844427,"current_range_meters":24800,"station_id":"ce4bhg92rcd13ifvqf90","pricing_plan_id":"free"},{"bike_id":"9d9bf209-df0b-4960-91b3-2b8289d3f881","system_id":"levelo_inurba_marseille","lat":43.26685,"lon":5.38275,"is_reserved":false,"is_disabled":false,"rental_uris":{"android":"levelo://app?vid=9d9bf209-df0b-4960-91b3-2b8289d3f881","ios":"levelo://app?vid=9d9bf209-df0b-4960-91b3-2b8289d3f881"},"vehicle_type_id":"4","last_reported":1703844427,"current_range_meters":22000,"station_id":"ce4bhg92rcd13ifvqf90","pricing_plan_id":"free"},{"bike_id":"16d7bcc7-0ca6-452c-9efe-3d8cfe3caeab","system_id":"levelo_inurba_marseille","lat":43.26681,"lon":5.382694,"is_reserved":false,"is_disabled":false,"rental_uris":{"android":"levelo://app?vid=16d7bcc7-0ca6-452c-9efe-3d8cfe3caeab","ios":"levelo://app?vid=16d7bcc7-0ca6-452c-9efe-3d8cfe3caeab"},"vehicle_type_id":"4","last_reported":1703844427,"current_range_meters":20800,"station_id":"ce4bhg92rcd13ifvqf90","pricing_plan_id":"free"},{"bike_id":"7bcb780b-f29c-46cf-a70b-f38ad3e7bf72","system_id":"levelo_inurba_marseille","lat":43.26682,"lon":5.38266,"is_reserved":false,"is_disabled":false,"rental_uris":{"android":"levelo://app?vid=7bcb780b-f29c-46cf-a70b-f38ad3e7bf72","ios":"levelo://app?vid=7bcb780b-f29c-46cf-a70b-f38ad3e7bf72"},"vehicle_type_id":"4","last_reported":1703844427,"current_range_meters":31200,"station_id":"ce4bhg92rcd13ifvqf90","pricing_plan_id":"free"},{"bike_id":"977f334d-5b0a-4cac-b9cf-8423c1f7d95a","system_id":"levelo_inurba_marseille","lat":43.26681,"lon":5.382694,"is_reserved":false,"is_disabled":false,"rental_uris":{"android":"levelo://app?vid=977f334d-5b0a-4cac-b9cf-8423c1f7d95a","ios":"levelo://app?vid=977f334d-5b0a-4cac-b9cf-8423c1f7d95a"},"vehicle_type_id":"4","last_reported":1703844427,"current_range_meters":31600,"station_id":"ce4bhg92rcd13ifvqf90","pricing_plan_id":"free"},{"bike_id":"64e44c37-02fa-410b-8031-3722018edfc4","system_id":"levelo_inurba_marseille","lat":43.266824,"lon":5.382786,"is_reserved":false,"is_disabled":false,"rental_uris":{"android":"levelo://app?vid=64e44c37-02fa-410b-8031-3722018edfc4","ios":"levelo://app?vid=64e44c37-02fa-410b-8031-3722018edfc4"},"vehicle_type_id":"4","last_reported":1703844427,"current_range_meters":20000,"station_id":"ce4bhg92rcd13ifvqf90","pricing_plan_id":"free"},{"bike_id":"045ee22b-c89d-4acf-b939-496873e8c0b3","system_id":"levelo_inurba_marseille","lat":43.26681,"lon":5.382694,"is_reserved":false,"is_disabled":false,"rental_uris":{"android":"levelo://app?vid=045ee22b-c89d-4acf-b939-496873e8c0b3","ios":"levelo://app?vid=045ee22b-c89d-4acf-b939-496873e8c0b3"},"vehicle_type_id":"4","last_reported":1703844427,"current_range_meters":24400,"station_id":"ce4bhg92rcd13ifvqf90","pricing_plan_id":"free"},{"bike_id":"7fb5acb7-7d23-491a-9476-7fe65391c965","system_id":"levelo_inurba_marseille","lat":43.265714,"lon":5.372891,"is_reserved":false,"is_disabled":false,"rental_uris":{"android":"levelo://app?vid=7fb5acb7-7d23-491a-9476-7fe65391c965","ios":"levelo://app?vid=7fb5acb7-7d23-491a-9476-7fe65391c965"},"vehicle_type_id":"4","last_reported":1703844427,"current_range_meters":800,"station_id":"ce4bhg12rcd13ifvqf70","pricing_plan_id":"free"},{"bike_id":"9c6343ad-da9d-475d-bb72-783daf178a45","system_id":"levelo_inurba_marseille","lat":43.265714,"lon":5.372891,"is_reserved":false,"is_disabled":false,"rental_uris":{"android":"levelo://app?vid=9c6343ad-da9d-475d-bb72-783daf178a45","ios":"levelo://app?vid=9c6343ad-da9d-475d-bb72-783daf178a45"},"vehicle_type_id":"4","last_reported":1703844427,"current_range_meters":9600,"station_id":"ce4bhg12rcd13ifvqf70","pricing_plan_id":"free"},{"bike_id":"b142e925-c295-43ac-bd4d-906b4f93788a","system_id":"levelo_inurba_marseille","lat":43.26854,"lon":5.394295,"is_reserved":false,"is_disabled":false,"rental_uris":{"android":"levelo://app?vid=b142e925-c295-43ac-bd4d-906b4f93788a","ios":"levelo://app?vid=b142e925-c295-43ac-bd4d-906b4f93788a"},"vehicle_type_id":"4","last_reported":1703844427,"current_range_meters":26400,"station_id":"","pricing_plan_id":"free"},{"bike_id":"200893ab-d0e1-4b7d-8e44-74cf1b5b7082","system_id":"levelo_inurba_marseille","lat":43.27996,"lon":5.416624,"is_reserved":false,"is_disabled":false,"rental_uris":{"android":"levelo://app?vid=200893ab-d0e1-4b7d-8e44-74cf1b5b7082","ios":"levelo://app?vid=200893ab-d0e1-4b7d-8e44-74cf1b5b7082"},"vehicle_type_id":"4","last_reported":1703844427,"current_range_meters":20400,"station_id":"ce4bho12rcd13ifvqh1g","pricing_plan_id":"free"},{"bike_id":"0321d225-6854-49c9-8cc9-c3be2f579098","system_id":"levelo_inurba_marseille","lat":43.27996,"lon":5.416624,"is_reserved":false,"is_disabled":false,"rental_uris":{"android":"levelo://app?vid=0321d225-6854-49c9-8cc9-c3be2f579098","ios":"levelo://app?vid=0321d225-6854-49c9-8cc9-c3be2f579098"},"vehicle_type_id":"4","last_reported":1703844427,"current_range_meters":31200,"station_id":"ce4bho12rcd13ifvqh1g","pricing_plan_id":"free"},{"bike_id":"7e52f9fe-170c-460b-84a9-62969e911261","system_id":"levelo_inurba_marseille","lat":43.27988,"lon":5.41663,"is_reserved":false,"is_disabled":false,"rental_uris":{"android":"levelo://app?vid=7e52f9fe-170c-460b-84a9-62969e911261","ios":"levelo://app?vid=7e52f9fe-170c-460b-84a9-62969e911261"},