{"last_updated":1758640188,"ttl":60,"version":"2.2","data":{"bikes":[{"bike_id":"11ee2437-0a77-4ccc-b309-b2ddecc97df2","system_id":"levelo_inurba_marseille","lat":43.28483,"lon":5.38425,"is_reserved":false,"is_disabled":false,"rental_uris":{"android":"levelo://app?vid=11ee2437-0a77-4ccc-b309-b2ddecc97df2","ios":"levelo://app?vid=11ee2437-0a77-4ccc-b309-b2ddecc97df2"},"vehicle_type_id":"4","last_reported":1758640188,"current_range_meters":2800,"station_id":"ce4bh512rcd13ifvqe3g","pricing_plan_id":"cebpf4jnsgd1na2vs0mg"},{"bike_id":"a43c3f73-0871-43bb-8aa6-56d7ba37ee21","system_id":"levelo_inurba_marseille","lat":43.279205,"lon":5.396021,"is_reserved":false,"is_disabled":false,"rental_uris":{"android":"levelo://app?vid=a43c3f73-0871-43bb-8aa6-56d7ba37ee21","ios":"levelo://app?vid=a43c3f73-0871-43bb-8aa6-56d7ba37ee21"},"vehicle_type_id":"4","last_reported":1758640188,"current_range_meters":2800,"station_id":"ce4bhf92rcd13ifvqf40","pricing_plan_id":"cebpf4jnsgd1na2vs0mg"},{"bike_id":"a04c5d67-f941-4bae-ada3-9e263fba25c5","system_id":"levelo_inurba_marseille","lat":43.28,"lon":5.41664,"is_reserved":false,"is_disabled":false,"rental_uris":{"android":"levelo://app?vid=a04c5d67-f941-4bae-ada3-9e263fba25c5","ios":"levelo://app?vid=a04c5d67-f941-4bae-ada3-9e263fba25c5"},"vehicle_type_id":"4","last_reported":1758640188,"current_range_meters":3200,"station_id":"ce4bho12rcd13ifvqh1g","pricing_plan_id":"cebpf4jnsgd1na2vs0mg"},{"bike_id":"72df89cb-7746-46e6-b269-fbddd2d473fe","system_id":"levelo_inurba_marseille","lat":43.32102,"lon":5.36772,"is_reserved":false,"is_disabled":false,"rental_uris":{"android":"levelo://app?vid=72df89cb-7746-46e6-b269-fbddd2d473fe","ios":"levelo://app?vid=72df89cb-7746-46e6-b269-fbddd2d473fe"},"vehicle_type_id":"4","last_reported":1758640188,"current_range_meters":3200,"station_id":"ce4bhrh2rcd13ifvqhug","pricing_plan_id":"cebpf4jnsgd1na2vs0mg"},{"bike_id":"a4fe8c75-5e15-44f8-acac-527f7f18d37c","system_id":"levelo_inurba_marseille","lat":43.306077,"lon":5.372266,"is_reserved":false,"is_disabled":false,"rental_uris":{"android":"levelo://app?vid=a4fe8c75-5e15-44f8-acac-527f7f18d37c","ios":"levelo://app?vid=a4fe8c75-5e15-44f8-acac-527f7f18d37c"},"vehicle_type_id":"4","last_reported":1758640188,"current_range_meters":3200,"station_id":"ce4bgqh2rcd13ifvqc4g","pricing_plan_id":"cebpf4jnsgd1na2vs0mg"},{"bike_id":"05977a29-4492-4e42-b026-696e72e1cc93","system_id":"levelo_inurba_marseille","lat":43.28265,"lon":5.37251,"is_reserved":false,"is_disabled":false,"rental_uris":{"android":"levelo://app?vid=05977a29-4492-4e42-b026-696e72e1cc93","ios":"levelo://app?vid=05977a29-4492-4e42-b026-696e72e1cc93"},"vehicle_type_id":"4","last_reported":1758640188,"current_range_meters":3600,"station_id":"","pricing_plan_id":"cebpf4jnsgd1na2vs0mg"},{"bike_id":"352cce47-3229-484e-a82e-e24a55405461","system_id":"levelo_inurba_marseille","lat":43.28983,"lon":5.37838,"is_reserved":false,"is_disabled":false,"rental_uris":{"android":"levelo://app?vid=352cce47-3229-484e-a82e-e24a55405461","ios":"levelo://app?vid=352cce47-3229-484e-a82e-e24a55405461"},"vehicle_type_id":"4","last_reported":1758640188,"current_range_meters":3600,"station_id":"ce4bh9p2rcd13ifvqed0","pricing_plan_id":"cebpf4jnsgd1na2vs0mg"},{"bike_id":"5bdab844-8c89-4fb3-bc2a-fb16419fca52","system_id":"levelo_inurba_marseille","lat":43.29727,"lon":5.37693,"is_reserved":false,"is_disabled":false,"rental_uris":{"android":"levelo://app?vid=5bdab844-8c89-4fb3-bc2a-fb16419fca52","ios":"levelo://app?vid=5bdab844-8c89-4fb3-bc2a-fb16419fca52"},"vehicle_type_id":"4","last_reported":1758640188,"current_range_meters":3600,"station_id":"ce4bgkh2rcd13ifvqbl0","pricing_plan_id":"cebpf4jnsgd1na2vs0mg"},{"bike_id":"1b790372-5d34-489f-a29a-5f2319ad70e0","system_id":"levelo_inurba_marseille","lat":43.28261,"lon":5.35048,"is_reserved":false,"is_disabled":true,"rental_uris":{"android":"levelo://app?vid=1b790372-5d34-489f-a29a-5f2319ad70e0","ios":"levelo://app?vid=1b790372-5d34-489f-a29a-5f2319ad70e0"},"vehicle_type_id":"4","last_reported":1758640188,"current_range_meters":3600,"station_id":"ce4bhbp2rcd13ifvqerg","pricing_plan_id":"cebpf4jnsgd1na2vs0mg"},{"bike_id":"bc953851-189c-49a3-8314-eb27dc81929f","system_id":"levelo_inurba_marseille","lat":43.29092,"lon":5.38156,"is_reserved":false,"is_disabled":false,"rental_uris":{"android":"levelo://app?vid=bc953851-189c-49a3-8314-eb27dc81929f","ios":"levelo://app?vid=bc953851-189c-49a3-8314-eb27dc81929f"},"vehicle_type_id":"4","last_reported":1758640188,"current_range_meters":3600,"station_id":"ce4bh512rcd13ifvqe2g","pricing_plan_id":"cebpf4jnsgd1na2vs0mg"},{"bike_id":"54502de0-09ba-43cd-a1f2-9f84e6e6c1cb","system_id":"levelo_inurba_marseille","lat":43.290149,"lon":5.381283,"is_reserved":false,"is_disabled":false,"rental_uris":{"android":"levelo://app?vid=54502de0-09ba-43cd-a1f2-9f84e6e6c1cb","ios":"levelo://app?vid=54502de0-09ba-43cd-a1f2-9f84e6e6c1cb"},"vehicle_type_id":"4","last_reported":1758640188,"current_range_meters":4000,"station_id":"","pricing_plan_id":"cebpf4jnsgd1na2vs0mg"},{"bike_id":"e89b4882-a351-4193-9d47-f6479514a644","system_id":"levelo_inurba_marseille","lat":43.28442,"lon":5.34926,"is_reserved":false,"is_disabled":false,"rental_uris":{"android":"levelo://app?vid=e89b4882-a351-4193-9d47-f6479514a644","ios":"levelo://app?vid=e89b4882-a351-4193-9d47-f6479514a644"},"vehicle_type_id":"4","last_reported":1758640188,"current_range_meters":4000,"station_id":"ce4bhbh2rcd13ifvqepg","pricing_plan_id":"cebpf4jnsgd1na2vs0mg"},{"bike_id":"d7cb7378-f4e3-48e9-a7d1-ec97d77f976a","system_id":"levelo_inurba_marseille","lat":43.28446,"lon":5.39205,"is_reserved":false,"is_disabled":false,"rental_uris":{"android":"levelo://app?vid=d7cb7378-f4e3-48e9-a7d1-ec97d77f976a","ios":"levelo://app?vid=d7cb7378-f4e3-48e9-a7d1-ec97d77f976a"},"vehicle_type_id":"4","last_reported":1758640188,"current_range_meters":4400,"station_id":"ce4bhoh2rcd13ifvqh5g","pricing_plan_id":"cebpf4jnsgd1na2vs0mg"},{"bike_id":"8baca789-47de-4d14-bb20-107bc3844750","system_id":"levelo_inurba_marseille","lat":43.28486,"lon":5.38416,"is_reserved":false,"is_disabled":false,"rental_uris":{"android":"levelo://app?vid=8baca789-47de-4d14-bb20-107bc3844750","ios":"levelo://app?vid=8baca789-47de-4d14-bb20-107bc3844750"},"vehicle_type_id":"4","last_reported":1758640188,"current_range_meters":4400,"station_id":"ce4bh512rcd13ifvqe3g","pricing_plan_id":"cebpf4jnsgd1na2vs0mg"},{"bike_id":"a77f8d1e-9cae-4550-a020-83941eae7795","system_id":"levelo_inurba_marseille","lat":43.28667,"lon":5.36353,"is_reserved":false,"is_disabled":false,"rental_uris":{"android":"levelo://app?vid=a77f8d1e-9cae-4550-a020-83941eae7795","ios":"levelo://app?vid=a77f8d1e-9cae-4550-a020-83941eae7795"},"vehicle_type_id":"4","last_reported":1758640188,"current_range_meters":4800,"station_id":"ce4bhah2rcd13ifvqej0","pricing_plan_id":"cebpf4jnsgd1na2vs0mg"},{"bike_id":"e00141ff-c5a7-4141-b9f6-2d5d18e87444","system_id":"levelo_inurba_marseille","lat":43.31495,"lon":5.3731,"is_reserved":false,"is_disabled":false,"rental_uris":{"android":"levelo://app?vid=e00141ff-c5a7-4141-b9f6-2d5d18e87444","ios":"levelo://app?vid=e00141ff-c5a7-4141-b9f6-2d5d18e87444"},"vehicle_type_id":"4","last_reported":1758640188,"current_range_meters":4800,"station_id":"ce4bgt12rcd13ifvqcd0","pricing_plan_id":"cebpf4jnsgd1na2vs0mg"},{"bike_id":"9176512c-2cc1-4df2-a8e0-6be514fbcdbf","system_id":"levelo_inurba_marseille","lat":43.33748,"lon":5.37465,"is_reserved":false,"is_disabled":false,"rental_uris":{"android":"levelo://app?vid=9176512c-2cc1-4df2-a8e0-6be514fbcdbf","ios":"levelo://app?vid=9176512c-2cc1-4df2-a8e0-6be514fbcdbf"},"vehicle_type_id":"4","last_reported":1758640188,"current_range_meters":4800,"station_id":"","pricing_plan_id":"cebpf4jnsgd1na2vs0mg"},{"bike_id":"6bbb1563-c47a-4a85-86ac-dab843980cf6","system_id":"levelo_inurba_marseille","lat":43.30138,"lon":5.38781,"is_reserved":false,"is_disabled":false,"rental_uris":{"android":"levelo://app?vid=6bbb1563-c47a-4a85-86ac-dab843980cf6","ios":"levelo://app?vid=6bbb1563-c47a-4a85-86ac-dab843980cf6"},"vehicle_type_id":"4","last_reported":1758640188,"current_range_meters":4800,"station_id":"ce4bghh2rcd13ifvqb60","pricing_plan_id":"cebpf4jnsgd1na2vs0mg"},{"bike_id":"438ead59-de14-4fa0-a61d-03a70a4122ae","system_id":"levelo_inurba_marseille","lat":43.97285,"lon":4.89134,"is_reserved":false,"is_disabled":true,"rental_uris":{"android":"levelo://app?vid=438ead59-de14-4fa0-a61d-03a70a4122ae","ios":"levelo://app?vid=438ead59-de14-4fa0-a61d-03a70a4122ae"},"vehicle_type_id":"4","last_reported":1758640188,"current_range_meters":5600,"station_id":"","pricing_plan_id":"cebpf4jnsgd1na2vs0mg"},{"bike_id":"2241b907-cf2d-4c32-bdd9-1eaeef450dab","system_id":"levelo_inurba_marseille","lat":43.29724,"lon":5.377,"is_reserved":false,"is_disabled":false,"rental_uris":{"android":"levelo://app?vid=2241b907-cf2d-4c32-bdd9-1eaeef450dab","ios":"levelo://app?vid=2241b907-cf2d-4c32-bdd9-1eaeef450dab"},"vehicle_type_id":"4","last_reported":1758640188,"current_range_meters":5600,"station_id":"ce4bgkh2rcd13ifvqbl0","pricing_plan_id":"cebpf4jnsgd1na2vs0mg"},{"bike_id":"bac4f52a-37e4-433d-976c-d6898b841957","system_id":"levelo_inurba_marseille","lat":43.2926,"lon":5.40903,"is_reserved":false,"is_disabled":false,"rental_uris":{"android":"levelo://app?vid=bac4f52a-37e4-433d-976c-d6898b841957","ios":"levelo://app?vid=bac4f52a-37e4-433d-976c-d6898b841957"},"vehicle_type_id":"4","last_reported":1758640188,"current_range_meters":4800,"station_id":"ce4bh192rcd13ifvqdc0","pricing_plan_id":"cebpf4jnsgd1na2vs0mg"},{"bike_id":"181080be-9461-44f1-8fcf-be67f51a6899","system_id":"levelo_inurba_marseille","lat":43.295808,"lon":5.39978,"is_reserved":false,"is_disabled":false,"rental_uris":{"android":"levelo://app?vid=181080be-9461-44f1-8fcf-be67f51a6899","ios":"levelo://app?vid=181080be-9461-44f1-8fcf-be67f51a6899"},"vehicle_type_id":"4","last_reported":1758640188,"current_range_meters":4800,"station_id":"ce4bh312rcd13ifvqdj0","pricing_plan_id":"cebpf4jnsgd1na2vs0mg"},{"bike_id":"97c12736-7b12-43a0-9878-14d50e51ba85","system_id":"levelo_inurba_marseille","lat":43.27934,"lon":5.41043,"is_reserved":false,"is_disabled":false,"rental_uris":{"android":"levelo://app?vid=97c12736-7b12-43a0-9878-14d50e51ba85","ios":"levelo://app?vid=97c12736-7b12-43a0-9878-14d50e51ba85"},"vehicle_type_id":"4","last_reported":1758640188,"current_range_meters":6000,"station_id":"ce4bhnp2rcd13ifvqh0g","pricing_plan_id":"cebpf4jnsgd1na2vs0mg"},{"bike_id":"2289a0ff-9c3e-4f79-ad38-4b41158d6057","system_id":"levelo_inurba_marseille","lat":43.29882,"lon":5.37911,"is_reserved":false,"is_disabled":false,"rental_uris":{"android":"levelo://app?vid=2289a0ff-9c3e-4f79-ad38-4b41158d6057","ios":"levelo://app?vid=2289a0ff-9c3e-4f79-ad38-4b41158d6057"},"vehicle_type_id":"4","last_reported":1758640188,"current_range_meters":6000,"station_id":"","pricing_plan_id":"cebpf4jnsgd1na2vs0mg"},{"bike_id":"98a12e8c-3b57-4750-98a2-bf916879b6e2","system_id":"levelo_inurba_marseille","lat":43.292513,"lon":5.409071,"is_reserved":false,"is_disabled":false,"rental_uris":{"android":"levelo://app?vid=98a12e8c-3b57-4750-98a2-bf916879b6e2","ios":"levelo://app?vid=98a12e8c-3b57-4750-98a2-bf916879b6e2"},"vehicle_type_id":"4","last_reported":1758640188,"current_range_meters":6000,"station_id":"ce4bh192rcd13ifvqdc0","pricing_plan_id":"cebpf4jnsgd1na2vs0mg"},{"bike_id":"6ab4a66e-7a65-4f29-b789-936dd211b77a","system_id":"levelo_inurba_marseille","lat":43.30915,"lon":5.37872,"is_reserved":false,"is_disabled":false,"rental_uris":{"android":"levelo://app?vid=6ab4a66e-7a65-4f29-b789-936dd211b77a","ios":"levelo://app?vid=6ab4a66e-7a65-4f29-b789-936dd211b77a"},"vehicle_type_id":"4","last_reported":1758640188,"current_range_meters":6400,"station_id":"","pricing_plan_id":"cebpf4jnsgd1na2vs0mg"},{"bike_id":"698a1659-1be4-4464-8e40-0054e6845364","system_id":"levelo_inurba_marseille","lat":43.29393,"lon":5.40386,"is_reserved":false,"is_disabled":false,"rental_uris":{"android":"levelo://app?vid=698a1659-1be4-4464-8e40-0054e6845364","ios":"levelo://app?vid=698a1659-1be4-4464-8e40-0054e6845364"},"vehicle_type_id":"4","last_reported":1758640188,"current_range_meters":6400,"station_id":"","pricing_plan_id":"cebpf4jnsgd1na2vs0mg"},{"bike_id":"6ea3e0ce-29b0-4b08-881d-ec13a41e32ba","system_id":"levelo_inurba_marseille","lat":43.282686,"lon":5.350491,"is_reserved":false,"is_disabled":false,"rental_uris":{"android":"levelo://app?vid=6ea3e0ce-29b0-4b08-881d-ec13a41e32ba","ios":"levelo://app?vid=6ea3e0ce-29b0-4b08-881d-ec13a41e32ba"},"vehicle_type_id":"4","last_reported":1758640188,"current_range_meters":6400,"station_id":"","pricing_plan_id":"cebpf4jnsgd1na2vs0mg"},{"bike_id":"1e1c41d4-8358-4dbc-92bb-762c4454a1e7","system_id":"levelo_inurba_marseille","lat":43.32107,"lon":5.36766,"is_reserved":false,"is_disabled":false,"rental_uris":{"android":"levelo://app?vid=1e1c41d4-8358-4dbc-92bb-762c4454a1e7","ios":"levelo://app?vid=1e1c41d4-8358-4dbc-92bb-762c4454a1e7"},"vehicle_type_id":"4","last_reported":1758640188,"current_range_meters":6400,"station_id":"ce4bhrh2rcd13ifvqhug","pricing_plan_id":"cebpf4jnsgd1na2vs0mg"},{"bike_id":"2008ef8f-6256-4152-8551-6f11bd0fd5ce","system_id":"levelo_inurba_marseille","lat":43.28028,"lon":5.3694,"is_reserved":false,"is_disabled":false,"rental_uris":{"android":"levelo://app?vid=2008ef8f-6256-4152-8551-6f11bd0fd5ce","ios":"levelo://app?vid=2008ef8f-6256-4152-8551-6f11bd0fd5ce"},"vehicle_type_id":"4","last_reported":1758640188,"current_range_meters":6400,"station_id":"ce4bha12rcd13ifvqef0","pricing_plan_id":"cebpf4jnsgd1na2vs0mg"},{"bike_id":"15f738ea-3f10-4ef6-95a9-74749a0ecc1b","system_id":"levelo_inurba_marseille","lat":43.317,"lon":5.37767,"is_reserved":false,"is_disabled":false,"rental_uris":{"android":"levelo://app?vid=15f738ea-3f10-4ef6-95a9-74749a0ecc1b","ios":"levelo://app?vid=15f738ea-3f10-4ef6-95a9-74749a0ecc1b"},"vehicle_type_id":"4","last_reported":1758640188,"current_range_meters":6800,"station_id":"ce4bgth2rcd13ifvqch0","pricing_plan_id":"cebpf4jnsgd1na2vs0mg"},{"bike_id":"f09b1861-a58c-4559-b5c7-cb72ba03c91f","system_id":"levelo_inurba_marseille","lat":43.28707,"lon":5.39994,"is_reserved":false,"is_disabled":false,"rental_uris":{"android":"levelo://app?vid=f09b1861-a58c-4559-b5c7-cb72ba03c91f","ios":"levelo://app?vid=f09b1861-a58c-4559-b5c7-cb72ba03c91f"},"vehicle_type_id":"4","last_reported":1758640188,"current_range_meters":6400,"station_id":"ce4bho92rcd13ifvqh3g","pricing_plan_id":"cebpf4jnsgd1na2vs0mg"},{"bike_id":"48da1288-4655-4d70-9b0c-3fe73317818d","system_id":"levelo_inurba_marseille","lat":43.28724,"lon":5.37944,"is_reserved":false,"is_disabled":false,"rental_uris":{"android":"levelo://app?vid=48da1288-4655-4d70-9b0c-3fe73317818d","ios":"levelo://app?vid=48da1288-4655-4d70-9b0c-3fe73317818d"},"vehicle_type_id":"4","last_reported":1758640188,"current_range_meters":6800,"station_id":"ce4bh9p2rcd13ifvqec0","pricing_plan_id":"cebpf4jnsgd1na2vs0mg"},{"bike_id":"154622e7-5eef-491b-877c-4bd2c12b1ef4","system_id":"levelo_inurba_marseille","lat":43.24948,"lon":5.40509,"is_reserved":false,"is_disabled":false,"rental_uris":{"android":"levelo://app?vid=154622e7-5eef-491b-877c-4bd2c12b1ef4","ios":"levelo://app?vid=154622e7-5eef-491b-877c-4bd2c12b1ef4"},"vehicle_type_id":"4","last_reported":1758640188,"current_range_meters":6800,"station_id":"st_d2ngiaodas8pm72gd1h0","pricing_plan_id":"cebpf4jnsgd1na2vs0mg"},{"bike_id":"bddc6be4-d015-469a-8cab-34f40b7bba6c","system_id":"levelo_inurba_marseille","lat":43.29374,"lon":5.37852,"is_reserved":false,"is_disabled":false,"rental_uris":{"android":"levelo://app?vid=bddc6be4-d015-469a-8cab-34f40b7bba6c","ios":"levelo://app?vid=bddc6be4-d015-469a-8cab-34f40b7bba6c"},"vehicle_type_id":"4","last_reported":1758640188,"current_range_meters":6400,"station_id":"ce4bgjh2rcd13ifvqbf0","pricing_plan_id":"cebpf4jnsgd1na2vs0mg"},{"bike_id":"af29bd4a-51c0-47f1-bce0-b9ca138339ea","system_id":"levelo_inurba_marseille","lat":43.317114,"lon":5.437038,"is_reserved":false,"is_disabled":false,"rental_uris":{"android":"levelo://app?vid=af29bd4a-51c0-47f1-bce0-b9ca138339ea","ios":"levelo://app?vid=af29bd4a-51c0-47f1-bce0-b9ca138339ea"},"vehicle_type_id":"4","last_reported":1758640188,"current_range_meters":7200,"station_id":"ce4bhp92rcd13ifvqhcg","pricing_plan_id":"cebpf4jnsgd1na2vs0mg"},{"bike_id":"551e8671-7782-462f-babe-244ddd48a2ad","system_id":"levelo_inurba_marseille","lat":43.28727,"lon":5.36092,"is_reserved":false,"is_disabled":false,"rental_uris":{"android":"levelo://app?vid=551e8671-7782-462f-babe-244ddd48a2ad","ios":"levelo://app?vid=551e8671-7782-462f-babe-244ddd48a2ad"},"vehicle_type_id":"4","last_reported":1758640188,"current_range_meters":7200,"station_id":"cki0cbj6b192h4jlfktg","pricing_plan_id":"cebpf4jnsgd1na2vs0mg"},{"bike_id":"3d3616ae-55ab-4319-9346-2104e95c171f","system_id":"levelo_inurba_marseille","lat":43.30978,"lon":5.37958,"is_reserved":false,"is_disabled":false,"rental_uris":{"android":"levelo://app?vid=3d3616ae-55ab-4319-9346-2104e95c171f","ios":"levelo://app?vid=3d3616ae-55ab-4319-9346-2104e95c171f"},"vehicle_type_id":"4","last_reported":1758640188,"current_range_meters":7200,"station_id":"","pricing_plan_id":"cebpf4jnsgd1na2vs0mg"},{"bike_id":"ca000825-5d13-495e-af19-915ae846db43","system_id":"levelo_inurba_marseille","lat":43.33018,"lon":5.39039,"is_reserved":false,"is_disabled":false,"rental_uris":{"android":"levelo://app?vid=ca000825-5d13-495e-af19-915ae846db43","ios":"levelo://app?vid=ca000825-5d13-495e-af19-915ae846db43"},"vehicle_type_id":"4","last_reported":1758640188,"current_range_meters":7200,"station_id":"ce4bhr92rcd13ifvqhrg","pricing_plan_id":"cebpf4jnsgd1na2vs0mg"},{"bike_id":"0d6d7c79-1fa3-42b7-828e-912eec7cea4c","system_id":"levelo_inurba_marseille","lat":43.29558,"lon":5.38174,"is_reserved":false,"is_disabled":false,"rental_uris":{"android":"levelo://app?vid=0d6d7c79-1fa3-42b7-828e-912eec7cea4c","ios":"levelo://app?vid=0d6d7c79-1fa3-42b7-828e-912eec7cea4c"},"vehicle_type_id":"4","last_reported":1758640188,"current_range_meters":7200,"station_id":"","pricing_plan_id":"cebpf4jnsgd1na2vs0mg"},{"bike_id":"99816067-4657-4fd8-a701-1f1d8a939359","system_id":"levelo_inurba_marseille","lat":43.2584,"lon":5.39254,"is_reserved":false,"is_disabled":false,"rental_uris":{"android":"levelo://app?vid=99816067-4657-4fd8-a701-1f1d8a939359","ios":"levelo://app?vid=99816067-4657-4fd8-a701-1f1d8a939359"},"vehicle_type_id":"4","last_reported":1758640188,"current_range_meters":7200,"station_id":"","pricing_plan_id":"cebpf4jnsgd1na2vs0mg"},{"bike_id":"7ab56e31-ef2b-4329-a0c2-9ffe468ea7ec","system_id":"levelo_inurba_marseille","lat":43.24546,"lon":5.39525,"is_reserved":false,"is_disabled":false,"rental_uris":{"android":"levelo://app?vid=7ab56e31-ef2b-4329-a0c2-9ffe468ea7ec","ios":"levelo://app?vid=7ab56e31-ef2b-4329-a0c2-9ffe468ea7ec"},"vehicle_type_id":"4","last_reported":1758640188,"current_range_meters":7200,"station_id":"ce4bhlp2rcd13ifvqgjg","pricing_plan_id":"cebpf4jnsgd1na2vs0mg"},{"bike_id":"b3b33e79-24b0-4d55-9a13-47780b6637bb","system_id":"levelo_inurba_marseille","lat":43.30362,"lon":5.42489,"is_reserved":false,"is_disabled":false,"rental_uris":{"android":"levelo://app?vid=b3b33e79-24b0-4d55-9a13-47780b6637bb","ios":"levelo://app?vid=b3b33e79-24b0-4d55-9a13-47780b6637bb"},"vehicle_type_id":"4","last_reported":1758640188,"current_range_meters":7200,"station_id":"ce4bhoh2rcd13ifvqh6g","pricing_plan_id":"cebpf4jnsgd1na2vs0mg"},{"bike_id":"7fd14ad2-a454-423d-bbfa-04d2678cc6ac","system_id":"levelo_inurba_marseille","lat":43.2975,"lon":5.38131,"is_reserved":false,"is_disabled":false,"rental_uris":{"android":"levelo://app?vid=7fd14ad2-a454-423d-bbfa-04d2678cc6ac","ios":"levelo://app?vid=7fd14ad2-a454-423d-bbfa-04d2678cc6ac"},"vehicle_type_id":"4","last_reported":1758640188,"current_range_meters":8000,"station_id":"","pricing_plan_id":"cebpf4jnsgd1na2vs0mg"},{"bike_id":"4fc2ed8d-920b-445b-984b-e88c33474332","system_id":"levelo_inurba_marseille","lat":43.29039,"lon":5.39965,"is_reserved":false,"is_disabled":false,"rental_uris":{"android":"levelo://app?vid=4fc2ed8d-920b-445b-984b-e88c33474332","ios":"levelo://app?vid=4fc2ed8d-920b-445b-984b-e88c33474332"},"vehicle_type_id":"4","last_reported":1758640188,"current_range_meters":8000,"station_id":"ce4bh392rcd13ifvqdm0","pricing_plan_id":"cebpf4jnsgd1na2vs0mg"},{"bike_id":"285ac12b-9ede-42db-a9fd-f958b937d784","system_id":"levelo_inurba_marseille","lat":43.26026,"lon":5.37552,"is_reserved":false,"is_disabled":false,"rental_uris":{"android":"levelo://app?vid=285ac12b-9ede-42db-a9fd-f958b937d784","ios":"levelo://app?vid=285ac12b-9ede-42db-a9fd-f958b937d784"},"vehicle_type_id":"4","last_reported":1758640188,"current_range_meters":8000,"station_id":"","pricing_plan_id":"cebpf4jnsgd1na2vs0mg"},{"bike_id":"d8e8a381-53dc-4906-98a2-7cd229ff1daa","system_id":"levelo_inurba_marseille","lat":43.28725,"lon":5.37928,"is_reserved":false,"is_disabled":false,"rental_uris":{"android":"levelo://app?vid=d8e8a381-53dc-4906-98a2-7cd229ff1daa","ios":"levelo://app?vid=d8e8a381-53dc-4906-98a2-7cd229ff1daa"},"vehicle_type_id":"4","last_reported":1758640188,"current_range_meters":7200,"station_id":"ce4bh9p2rcd13ifvqec0","pricing_plan_id":"cebpf4jnsgd1na2vs0mg"},{"bike_id":"5d6de702-44c2-460e-892f-0c4796aec6c4","system_id":"levelo_inurba_marseille","lat":43.32337,"lon":5.40626,"is_reserved":false,"is_disabled":false,"rental_uris":{"android":"levelo://app?vid=5d6de702-44c2-460e-892f-0c4796aec6c4","ios":"levelo://app?vid=5d6de702-44c2-460e-892f-0c4796aec6c4"},"vehicle_type_id":"4","last_reported":1758640188,"current_range_meters":8000,"station_id":"ce4bhq92rcd13ifvqhjg","pricing_plan_id":"cebpf4jnsgd1na2vs0mg"},{"bike_id":"dcf73aa4-53c5-4afc-b45c-d4c2482be691","system_id":"levelo_inurba_marseille","lat":43.21745,"lon":5.34611,"is_reserved":false,"is_disabled":false,"rental_uris":{"android":"levelo://app?vid=dcf73aa4-53c5-4afc-b45c-d4c2482be691","ios":"levelo://app?vid=dcf73aa4-53c5-4afc-b45c-d4c2482be691"},"vehicle_type_id":"4","last_reported":1758640188,"current_range_meters":8400,"station_id":"ce4bhg92rcd13ifvqf90","pricing_plan_id":"cebpf4jnsgd1na2vs0mg"},{"bike_id":"6d642f1d-2e5c-4549-ae68-6911d5f5985d","system_id":"levelo_inurba_marseille","lat":43.298711,"lon":5.39733,"is_reserved":false,"is_disabled":false,"rental_uris":{"android":"levelo://app?vid=6d642f1d-2e5c-4549-ae68-6911d5f5985d","ios":"levelo://app?vid=6d642f1d-2e5c-4549-ae68-6911d5f5985d"},"vehicle_type_id":"4","last_reported":1758640188,"current_range_meters":8400,"station_id":"ce4bh0h2rcd13ifvqd50","pricing_plan_id":"cebpf4jnsgd1na2vs0mg"},{"bike_id":"f7b6108f-c38f-4ef7-82f1-ce08cf51e4f1","system_id":"levelo_inurba_marseille","lat":43.29269,"lon":5.38452,"is_reserved":false,"is_disabled":true,"rental_uris":{"android":"levelo://app?vid=f7b6108f-c38f-4ef7-82f1-ce08cf51e4f1","ios":"levelo://app?vid=f7b6108f-c38f-4ef7-82f1-ce08cf51e4f1"},"vehicle_type_id":"4","last_reported":1758640188,"current_range_meters":8400,"station_id":"ce4bh692rcd13ifvqea0","pricing_plan_id":"cebpf4jnsgd1na2vs0mg"},{"bike_id":"982388bc-65f0-4861-a389-a1d5161b8d94","system_id":"levelo_inurba_marseille","lat":43.32106,"lon":5.36768,"is_reserved":false,"is_disabled":false,"rental_uris":{"android":"levelo://app?vid=982388bc-65f0-4861-a389-a1d5161b8d94","ios":"levelo://app?vid=982388bc-65f0-4861-a389-a1d5161b8d94"},"vehicle_type_id":"4","last_reported":1758640188,"current_range_meters":8400,"station_id":"ce4bhrh2rcd13ifvqhug","pricing_plan_id":"cebpf4jnsgd1na2vs0mg"},{"bike_id":"bd4bc02a-52b9-4a39-9820-0aacc1f09bfc","system_id":"levelo_inurba_marseille","lat":43.30626,"lon":5.40075,"is_reserved":false,"is_disabled":false,"rental_uris":{"android":"levelo://app?vid=bd4bc02a-52b9-4a39-9820-0aacc1f09bfc","ios":"levelo://app?vid=bd4bc02a-52b9-4a39-9820-0aacc1f09bfc"},"vehicle_type_id":"4","last_reported":1758640188,"current_range_meters":8400,"station_id":"ce4bh112rcd13ifvqda0","pricing_plan_id":"cebpf4jnsgd1na2vs0mg"},{"bike_id":"20fd71da-81fd-49c8-8c8b-86353433d687","system_id":"levelo_inurba_marseille","lat":43.28107,"lon":5.37834,"is_reserved":false,"is_disabled":false,"rental_uris":{"android":"levelo://app?vid=20fd71da-81fd-49c8-8c8b-86353433d687","ios":"levelo://app?vid=20fd71da-81fd-49c8-8c8b-86353433d687"},"vehicle_type_id":"4","last_reported":1758640188,"current_range_meters":8400,"station_id":"ce4bha12rcd13ifvqee0","pricing_plan_id":"cebpf4jnsgd1na2vs0mg"},{"bike_id":"5096dd44-bb08-49f1-8f58-9d9dfb1faf50","system_id":"levelo_inurba_marseille","lat":43.33414,"lon":5.40061,"is_reserved":false,"is_disabled":false,"rental_uris":{"android":"levelo://app?vid=5096dd44-bb08-49f1-8f58-9d9dfb1faf50","ios":"levelo://app?vid=5096dd44-bb08-49f1-8f58-9d9dfb1faf50"},"vehicle_type_id":"4","last_reported":1758640188,"current_range_meters":8400,"station_id":"","pricing_plan_id":"cebpf4jnsgd1na2vs0mg"},{"bike_id":"0b2230e3-adb9-421c-91b1-c113eb397705","system_id":"levelo_inurba_marseille","lat":43.289054,"lon":5.376342,"is_reserved":false,"is_disabled":false,"rental_uris":{"android":"levelo://app?vid=0b2230e3-adb9-421c-91b1-c113eb397705","ios":"levelo://app?vid=0b2230e3-adb9-421c-91b1-c113eb397705"},"vehicle_type_id":"4","last_reported":1758640188,"current_range_meters":8800,"station_id":"","pricing_plan_id":"cebpf4jnsgd1na2vs0mg"},{"bike_id":"c3e48ccc-65c6-4ebf-8cf7-ad2b8d3ed03f","system_id":"levelo_inurba_marseille","lat":43.28863,"lon":5.35857,"is_reserved":false,"is_disabled":false,"rental_uris":{"android":"levelo://app?vid=c3e48ccc-65c6-4ebf-8cf7-ad2b8d3ed03f","ios":"levelo://app?vid=c3e48ccc-65c6-4ebf-8cf7-ad2b8d3ed03f"},"vehicle_type_id":"4","last_reported":1758640188,"current_range_meters":8800,"station_id":"ce4bhb12rcd13ifvqem0","pricing_plan_id":"cebpf4jnsgd1na2vs0mg"},{"bike_id":"2cdc5932-220b-4a30-a4d7-bca0f68965c8","system_id":"levelo_inurba_marseille","lat":43.31463,"lon":5.38413,"is_reserved":false,"is_disabled":false,"rental_uris":{"android":"levelo://app?vid=2cdc5932-220b-4a30-a4d7-bca0f68965c8","ios":"levelo://app?vid=2cdc5932-220b-4a30-a4d7-bca0f68965c8"},"vehicle_type_id":"4","last_reported":1758640188,"current_range_meters":8800,"station_id":"","pricing_plan_id":"cebpf4jnsgd1na2vs0mg"},{"bike_id":"eed2cf9a-36d5-4639-8402-2398b6fbd4cf","system_id":"levelo_inurba_marseille","lat":43.21755,"lon":5.34615,"is_reserved":false,"is_disabled":false,"rental_uris":{"android":"levelo://app?vid=eed2cf9a-36d5-4639-8402-2398b6fbd4cf","ios":"levelo://app?vid=eed2cf9a-36d5-4639-8402-2398b6fbd4cf"},"vehicle_type_id":"4","last_reported":1758640188,"current_range_meters":8800,"station_id":"st_cvj6r9ubvosntc0bgbag","pricing_plan_id":"cebpf4jnsgd1na2vs0mg"},{"bike_id":"3b204a38-10f5-486e-a492-c32fa1701bf1","system_id":"levelo_inurba_marseille","lat":43.3133,"lon":5.39693,"is_reserved":false,"is_disabled":false,"rental_uris":{"android":"levelo://app?vid=3b204a38-10f5-486e-a492-c32fa1701bf1","ios":"levelo://app?vid=3b204a38-10f5-486e-a492-c32fa1701bf1"},"vehicle_type_id":"4","last_reported":1758640188,"current_range_meters":8800,"station_id":"ce4bgvp2rcd13ifvqcu0","pricing_plan_id":"cebpf4jnsgd1na2vs0mg"},{"bike_id":"d46536c1-b7ad-4df6-a9a1-6c4b8943878b","system_id":"levelo_inurba_marseille","lat":43.3236,"lon":5.3889,"is_reserved":false,"is_disabled":false,"rental_uris":{"android":"levelo://app?vid=d46536c1-b7ad-4df6-a9a1-6c4b8943878b","ios":"levelo://app?vid=d46536c1-b7ad-4df6-a9a1-6c4b8943878b"},"vehicle_type_id":"4","last_reported":1758640188,"current_range_meters":8800,"station_id":"ce4bhqp2rcd13ifvqhog","pricing_plan_id":"cebpf4jnsgd1na2vs0mg"},{"bike_id":"87fdb7d6-da5d-49c2-a1df-bbe6722a1d9b","system_id":"levelo_inurba_marseille","lat":43.24955,"lon":5.40486,"is_reserved":false,"is_disabled":false,"rental_uris":{"android":"levelo://app?vid=87fdb7d6-da5d-49c2-a1df-bbe6722a1d9b","ios":"levelo://app?vid=87fdb7d6-da5d-49c2-a1df-bbe6722a1d9b"},"vehicle_type_id":"4","last_reported":1758640188,"current_range_meters":9200,"station_id":"st_d2ngiaodas8pm72gd1h0","pricing_plan_id":"cebpf4jnsgd1na2vs0mg"},{"bike_id":"7bbe2bc2-751d-48a1-93f7-27213440e103","system_id":"levelo_inurba_marseille","lat":43.29604,"lon":5.37724,"is_reserved":false,"is_disabled":false,"rental_uris":{"android":"levelo://app?vid=7bbe2bc2-751d-48a1-93f7-27213440e103","ios":"levelo://app?vid=7bbe2bc2-751d-48a1-93f7-27213440e103"},"vehicle_type_id":"4","last_reported":1758640188,"current_range_meters":9200,"station_id":"ce4bgi92rcd13ifvqb90","pricing_plan_id":"cebpf4jnsgd1na2vs0mg"},{"bike_id":"f4f8f89f-fe5c-4cea-a49e-31ae876ebae0","system_id":"levelo_inurba_marseille","lat":43.29892,"lon":5.39742,"is_reserved":false,"is_disabled":false,"rental_uris":{"android":"levelo://app?vid=f4f8f89f-fe5c-4cea-a49e-31ae876ebae0","ios":"levelo://app?vid=f4f8f89f-fe5c-4cea-a49e-31ae876ebae0"},"vehicle_type_id":"4","last_reported":1758640188,"current_range_meters":9200,"station_id":"ce4bh0h2rcd13ifvqd50","pricing_plan_id":"cebpf4jnsgd1na2vs0mg"},{"bike_id":"996b6a9b-7a51-474a-90b8-bb10ec99e5bc","system_id":"levelo_inurba_marseille","lat":43.29307,"lon":5.37172,"is_reserved":false,"is_disabled":false,"rental_uris":{"android":"levelo://app?vid=996b6a9b-7a51-474a-90b8-bb10ec99e5bc","ios":"levelo://app?vid=996b6a9b-7a51-474a-90b8-bb10ec99e5bc"},"vehicle_type_id":"4","last_reported":1758640188,"current_range_meters":9600,"station_id":"ce4bgh92rcd13ifvqb40","pricing_plan_id":"cebpf4jnsgd1na2vs0mg"},{"bike_id":"8e1f10f9-3306-49d9-b61a-5b9d6b653acb","system_id":"levelo_inurba_marseille","lat":43.273728,"lon":5.362629,"is_reserved":false,"is_disabled":false,"rental_uris":{"android":"levelo://app?vid=8e1f10f9-3306-49d9-b61a-5b9d6b653acb","ios":"levelo://app?vid=8e1f10f9-3306-49d9-b61a-5b9d6b653acb"},"vehicle_type_id":"4","last_reported":1758640188,"current_range_meters":9600,"station_id":"ce4bhbh2rcd13ifvqeo0","pricing_plan_id":"cebpf4jnsgd1na2vs0mg"},{"bike_id":"1764db7b-7b64-4374-b4e3-745c2ea3e1f0","system_id":"levelo_inurba_marseille","lat":43.29371,"lon":5.37846,"is_reserved":false,"is_disabled":false,"rental_uris":{"android":"levelo://app?vid=1764db7b-7b64-4374-b4e3-745c2ea3e1f0","ios":"levelo://app?vid=1764db7b-7b64-4374-b4e3-745c2ea3e1f0"},"vehicle_type_id":"4","last_reported":1758640188,"current_range_meters":9200,"station_id":"ce4bgjh2rcd13ifvqbf0","pricing_plan_id":"cebpf4jnsgd1na2vs0mg"},{"bike_id":"41b8e3f6-b6ac-4ea6-9b1e-03e1a32a2cab","system_id":"levelo_inurba_marseille","lat":43.29956,"lon":5.38994,"is_reserved":false,"is_disabled":false,"rental_uris":{"android":"levelo://app?vid=41b8e3f6-b6ac-4ea6-9b1e-03e1a32a2cab","ios":"levelo://app?vid=41b8e3f6-b6ac-4ea6-9b1e-03e1a32a2cab"},"vehicle_type_id":"4","last_reported":1758640188,"current_range_meters":9600,"station_id":"","pricing_plan_id":"cebpf4jnsgd1na2vs0mg"},{"bike_id":"d6892ced-68b2-4c0a-8b78-e0080257d6fa","system_id":"levelo_inurba_marseille","lat":43.31225,"lon":5.3685,"is_reserved":false,"is_disabled":false,"rental_uris":{"android":"levelo://app?vid=d6892ced-68b2-4c0a-8b78-e0080257d6fa","ios":"levelo://app?vid=d6892ced-68b2-4c0a-8b78-e0080257d6fa"},"vehicle_type_id":"4","last_reported":1758640188,"current_range_meters":10000,"station_id":"ce4bgl92rcd13ifvqbq0","pricing_plan_id":"cebpf4jnsgd1na2vs0mg"},{"bike_id":"0bcdbbe0-781e-4f65-98b2-bffc0e341f72","system_id":"levelo_inurba_marseille","lat":43.30193,"lon":5.36627,"is_reserved":false,"is_disabled":false,"rental_uris":{"android":"levelo://app?vid=0bcdbbe0-781e-4f65-98b2-bffc0e341f72","ios":"levelo://app?vid=0bcdbbe0-781e-4f65-98b2-bffc0e341f72"},"vehicle_type_id":"4","last_reported":1758640188,"current_range_meters":10000,"station_id":"ce4bgrh2rcd13ifvqc8g","pricing_plan_id":"cebpf4jnsgd1na2vs0mg"},{"bike_id":"94d430e6-52b3-4d21-80c9-c6dd4519a8fb","system_id":"levelo_inurba_marseille","lat":43.31794,"lon":5.38261,"is_reserved":false,"is_disabled":false,"rental_uris":{"android":"levelo://app?vid=94d430e6-52b3-4d21-80c9-c6dd4519a8fb","ios":"levelo://app?vid=94d430e6-52b3-4d21-80c9-c6dd4519a8fb"},"vehicle_type_id":"4","last_reported":1758640188,"current_range_meters":10000,"station_id":"","pricing_plan_id":"cebpf4jnsgd1na2vs0mg"},{"bike_id":"1efddf8d-578f-4e4c-8c3f-e3a8bd592ba4","system_id":"levelo_inurba_marseille","lat":43.29997,"lon":5.37442,"is_reserved":false,"is_disabled":false,"rental_uris":{"android":"levelo://app?vid=1efddf8d-578f-4e4c-8c3f-e3a8bd592ba4","ios":"levelo://app?vid=1efddf8d-578f-4e4c-8c3f-e3a8bd592ba4"},"vehicle_type_id":"4","last_reported":1758640188,"current_range_meters":10800,"station_id":"","pricing_plan_id":"cebpf4jnsgd1na2vs0mg"},{"bike_id":"fd67a7d5-c7cd-4a59-928a-b990459cda98","system_id":"levelo_inurba_marseille","lat":43.29602,"lon":5.37739,"is_reserved":false,"is_disabled":false,"rental_uris":{"android":"levelo://app?vid=fd67a7d5-c7cd-4a59-928a-b990459cda98","ios":"levelo://app?vid=fd67a7d5-c7cd-4a59-928a-b990459cda98"},"vehicle_type_id":"4","last_reported":1758640188,"current_range_meters":10800,"station_id":"ce4bgi92rcd13ifvqb90","pricing_plan_id":"cebpf4jnsgd1na2vs0mg"},{"bike_id":"fd8603f6-0f95-40aa-8c02-c74cd8326cb5","system_id":"levelo_inurba_marseille","lat":43.22564,"lon":5.41626,"is_reserved":false,"is_disabled":false,"rental_uris":{"android":"levelo://app?vid=fd8603f6-0f95-40aa-8c02-c74cd8326cb5","ios":"levelo://app?vid=fd8603f6-0f95-40aa-8c02-c74cd8326cb5"},"vehicle_type_id":"4","last_reported":1758640188,"current_range_meters":10800,"station_id":"st_d2o4gvlbi1j2169b742g","pricing_plan_id":"cebpf4jnsgd1na2vs0mg"},{"bike_id":"71fada1a-7f81-4fed-94a0-0a4e23faf7fa","system_id":"levelo_inurba_marseille","lat":43.287,"lon":5.39983,"is_reserved":false,"is_disabled":false,"rental_uris":{"android":"levelo://app?vid=71fada1a-7f81-4fed-94a0-0a4e23faf7fa","ios":"levelo://app?vid=71fada1a-7f81-4fed-94a0-0a4e23faf7fa"},"vehicle_type_id":"4","last_reported":1758640188,"current_range_meters":10800,"station_id":"ce4bho92rcd13ifvqh3g","pricing_plan_id":"cebpf4jnsgd1na2vs0mg"},{"bike_id":"e0b100c7-601c-4803-8384-2e7d64a50afb","system_id":"levelo_inurba_marseille","lat":43.2957,"lon":5.39977,"is_reserved":false,"is_disabled":false,"rental_uris":{"android":"levelo://app?vid=e0b100c7-601c-4803-8384-2e7d64a50afb","ios":"levelo://app?vid=e0b100c7-601c-4803-8384-2e7d64a50afb"},"vehicle_type_id":"4","last_reported":1758640188,"current_range_meters":10000,"station_id":"ce4bh312rcd13ifvqdj0","pricing_plan_id":"cebpf4jnsgd1na2vs0mg"},{"bike_id":"ee2c57f6-0409-4964-8587-5fbe5eae4fb0","system_id":"levelo_inurba_marseille","lat":43.298338,"lon":5.389603,"is_reserved":false,"is_disabled":false,"rental_uris":{"android":"levelo://app?vid=ee2c57f6-0409-4964-8587-5fbe5eae4fb0","ios":"levelo://app?vid=ee2c57f6-0409-4964-8587-5fbe5eae4fb0"},"vehicle_type_id":"4","last_reported":1758640188,"current_range_meters":10800,"station_id":"ce4bh392rcd13ifvqdl0","pricing_plan_id":"cebpf4jnsgd1na2vs0mg"},{"bike_id":"8226dd05-335c-45e2-9d53-546450f85850","system_id":"levelo_inurba_marseille","lat":43.30588,"lon":5.37215,"is_reserved":false,"is_disabled":false,"rental_uris":{"android":"levelo://app?vid=8226dd05-335c-45e2-9d53-546450f85850","ios":"levelo://app?vid=8226dd05-335c-45e2-9d53-546450f85850"},"vehicle_type_id":"4","last_reported":1758640188,"current_range_meters":10800,"station_id":"ce4bgqh2rcd13ifvqc4g","pricing_plan_id":"cebpf4jnsgd1na2vs0mg"},{"bike_id":"969e1176-acd7-41d0-9019-b379b79a7d1a","system_id":"levelo_inurba_marseille","lat":43.30546,"lon":5.36563,"is_reserved":false,"is_disabled":false,"rental_uris":{"android":"levelo://app?vid=969e1176-acd7-41d0-9019-b379b79a7d1a","ios":"levelo://app?vid=969e1176-acd7-41d0-9019-b379b79a7d1a"},"vehicle_type_id":"4","last_reported":1758640188,"current_range_meters":10800,"station_id":"ce4bgs12rcd13ifvqcag","pricing_plan_id":"cebpf4jnsgd1na2vs0mg"},{"bike_id":"8d243e83-cc74-44d3-bf18-f20421549672","system_id":"levelo_inurba_marseille","lat":43.289337,"lon":5.359428,"is_reserved":false,"is_disabled":false,"rental_uris":{"android":"levelo://app?vid=8d243e83-cc74-44d3-bf18-f20421549672","ios":"levelo://app?vid=8d243e83-cc74-44d3-bf18-f20421549672"},"vehicle_type_id":"4","last_reported":1758640188,"current_range_meters":10800,"station_id":"","pricing_plan_id":"cebpf4jnsgd1na2vs0mg"},{"bike_id":"eba01587-aeed-4123-b2ce-9abc98879f91","system_id":"levelo_inurba_marseille","lat":43.27071,"lon":5.42272,"is_reserved":false,"is_disabled":false,"rental_uris":{"android":"levelo://app?vid=eba01587-aeed-4123-b2ce-9abc98879f91","ios":"levelo://app?vid=eba01587-aeed-4123-b2ce-9abc98879f91"},"vehicle_type_id":"4","last_reported":1758640188,"current_range_meters":11200,"station_id":"ce4bhk92rcd13ifvqgb0","pricing_plan_id":"cebpf4jnsgd1na2vs0mg"},{"bike_id":"a60ea823-6ee0-47b9-a522-d89a0ee4cec8","system_id":"levelo_inurba_marseille","lat":43.29752,"lon":5.38119,"is_reserved":false,"is_disabled":false,"rental_uris":{"android":"levelo://app?vid=a60ea823-6ee0-47b9-a522-d89a0ee4cec8","ios":"levelo://app?vid=a60ea823-6ee0-47b9-a522-d89a0ee4cec8"},"vehicle_type_id":"4","last_reported":1758640188,"current_range_meters":11200,"station_id":"","pricing_plan_id":"cebpf4jnsgd1na2vs0mg"},{"bike_id":"2760be93-d9b2-4757-96c1-7da5f0ba7290","system_id":"levelo_inurba_marseille","lat":43.29794,"lon":5.39349,"is_reserved":false,"is_disabled":false,"rental_uris":{"android":"levelo://app?vid=2760be93-d9b2-4757-96c1-7da5f0ba7290","ios":"levelo://app?vid=2760be93-d9b2-4757-96c1-7da5f0ba7290"},"vehicle_type_id":"4","last_reported":1758640188,"current_range_meters":11200,"station_id":"chh1huq6cuj3fo74tm60","pricing_plan_id":"cebpf4jnsgd1na2vs0mg"},{"bike_id":"6875e661-a2e3-423d-a4f5-d79cdbcc11b6","system_id":"levelo_inurba_marseille","lat":43.29598,"lon":5.36719,"is_reserved":false,"is_disabled":false,"rental_uris":{"android":"levelo://app?vid=6875e661-a2e3-423d-a4f5-d79cdbcc11b6","ios":"levelo://app?vid=6875e661-a2e3-423d-a4f5-d79cdbcc11b6"},"vehicle_type_id":"4","last_reported":1758640188,"current_range_meters":11600,"station_id":"ce4bgph2rcd13ifvqc2g","pricing_plan_id":"cebpf4jnsgd1na2vs0mg"},{"bike_id":"7a63be31-62da-4eca-a6ae-d70106ad2682","system_id":"levelo_inurba_marseille","lat":43.30628,"lon":5.40081,"is_reserved":false,"is_disabled":false,"rental_uris":{"android":"levelo://app?vid=7a63be31-62da-4eca-a6ae-d70106ad2682","ios":"levelo://app?vid=7a63be31-62da-4eca-a6ae-d70106ad2682"},"vehicle_type_id":"4","last_reported":1758640188,"current_range_meters":11600,"station_id":"ce4bh112rcd13ifvqda0","pricing_plan_id":"cebpf4jnsgd1na2vs0mg"},{"bike_id":"31e2918c-dc06-4f8d-b458-d96af3bb8e32","system_id":"levelo_inurba_marseille","lat":43.28717,"lon":5.36086,"is_reserved":false,"is_disabled":false,"rental_uris":{"android":"levelo://app?vid=31e2918c-dc06-4f8d-b458-d96af3bb8e32","ios":"levelo://app?vid=31e2918c-dc06-4f8d-b458-d96af3bb8e32"},"vehicle_type_id":"4","last_reported":1758640188,"current_range_meters":11600,"station_id":"cki0cbj6b192h4jlfktg","pricing_plan_id":"cebpf4jnsgd1na2vs0mg"},{"bike_id":"d7910c74-e986-4a1b-a3d6-9302c01adf7b","system_id":"levelo_inurba_marseille","lat":43.30646,"lon":5.40101,"is_reserved":false,"is_disabled":false,"rental_uris":{"android":"levelo://app?vid=d7910c74-e986-4a1b-a3d6-9302c01adf7b","ios":"levelo://app?vid=d7910c74-e986-4a1b-a3d6-9302c01adf7b"},"vehicle_type_id":"4","last_reported":1758640188,"current_range_meters":11600,"station_id":"ce4bh112rcd13ifvqda0","pricing_plan_id":"cebpf4jnsgd1na2vs0mg"},{"bike_id":"8f6cc25f-5029-4951-a3e1-eebb3f14c688","system_id":"levelo_inurba_marseille","lat":43.29722,"lon":5.37712,"is_reserved":false,"is_disabled":false,"rental_uris":{"android":"levelo://app?vid=8f6cc25f-5029-4951-a3e1-eebb3f14c688","ios":"levelo://app?vid=8f6cc25f-5029-4951-a3e1-eebb3f14c688"},"vehicle_type_id":"4","last_reported":1758640188,"current_range_meters":11600,"station_id":"ce4bgkh2rcd13ifvqbl0","pricing_plan_id":"cebpf4jnsgd1na2vs0mg"},{"bike_id":"2a2f1ce0-5eb2-4ab6-a692-64d9649dcb94","system_id":"levelo_inurba_marseille","lat":43.22555,"lon":5.41634,"is_reserved":false,"is_disabled":false,"rental_uris":{"android":"levelo://app?vid=2a2f1ce0-5eb2-4ab6-a692-64d9649dcb94","ios":"levelo://app?vid=2a2f1ce0-5eb2-4ab6-a692-64d9649dcb94"},"vehicle_type_id":"4","last_reported":1758640188,"current_range_meters":11600,"station_id":"st_d2o4gvlbi1j2169b742g","pricing_plan_id":"cebpf4jnsgd1na2vs0mg"},{"bike_id":"2773d263-6253-4fb0-b2c4-3f25f29230f2","system_id":"levelo_inurba_marseille","lat":43.30189,"lon":5.36612,"is_reserved":false,"is_disabled":false,"rental_uris":{"android":"levelo://app?vid=2773d263-6253-4fb0-b2c4-3f25f29230f2","ios":"levelo://app?vid=2773d263-6253-4fb0-b2c4-3f25f29230f2"},"vehicle_type_id":"4","last_reported":1758640188,"current_range_meters":11600,"station_id":"ce4bgrh2rcd13ifvqc8g","pricing_plan_id":"cebpf4jnsgd1na2vs0mg"},{"bike_id":"dadb39a7-893c-437a-985a-e47a83fca975","system_id":"levelo_inurba_marseille","lat":43.28155,"lon":5.42644,"is_reserved":false,"is_disabled":false,"rental_uris":{"android":"levelo://app?vid=dadb39a7-893c-437a-985a-e47a83fca975","ios":"levelo://app?vid=dadb39a7-893c-437a-985a-e47a83fca975"},"vehicle_type_id":"4","last_reported":1758640188,"current_range_meters":12000,"station_id":"ce4bhnh2rcd13ifvqgug","pricing_plan_id":"cebpf4jnsgd1na2vs0mg"},{"bike_id":"e2379c05-2aff-483b-ba4a-4715849c20a3","system_id":"levelo_inurba_marseille","lat":43.31482,"lon":5.37309,"is_reserved":false,"is_disabled":false,"rental_uris":{"android":"levelo://app?vid=e2379c05-2aff-483b-ba4a-4715849c20a3","ios":"levelo://app?vid=e2379c05-2aff-483b-ba4a-4715849c20a3"},"vehicle_type_id":"4","last_reported":1758640188,"current_range_meters":11600,"station_id":"ce4bgt12rcd13ifvqcd0","pricing_plan_id":"cebpf4jnsgd1na2vs0mg"},{"bike_id":"39e96fb7-1cc6-4104-a0db-9ca53e9d46ba","system_id":"levelo_inurba_marseille","lat":43.29905,"lon":5.39735,"is_reserved":false,"is_disabled":false,"rental_uris":{"android":"levelo://app?vid=39e96fb7-1cc6-4104-a0db-9ca53e9d46ba","ios":"levelo://app?vid=39e96fb7-1cc6-4104-a0db-9ca53e9d46ba"},"vehicle_type_id":"4","last_reported":1758640188,"current_range_meters":12400,"station_id":"ce4bh0h2rcd13ifvqd50","pricing_plan_id":"cebpf4jnsgd1na2vs0mg"},{"bike_id":"0d93d80f-23fc-4b4f-918d-28fde704208b","system_id":"levelo_inurba_marseille","lat":43.24166,"lon":5.36387,"is_reserved":false,"is_disabled":false,"rental_uris":{"android":"levelo://app?vid=0d93d80f-23fc-4b4f-918d-28fde704208b","ios":"levelo://app?vid=0d93d80f-23fc-4b4f-918d-28fde704208b"},"vehicle_type_id":"4","last_reported":1758640188,"current_range_meters":12400,"station_id":"cpo36qri1sfpv3e86is0","pricing_plan_id":"cebpf4jnsgd1na2vs0mg"},{"bike_id":"4851eea5-a417-43e6-8875-b15f79167c4a","system_id":"levelo_inurba_marseille","lat":43.26058,"lon":5.394,"is_reserved":false,"is_disabled":false,"rental_uris":{"android":"levelo://app?vid=4851eea5-a417-43e6-8875-b15f79167c4a","ios":"levelo://app?vid=4851eea5-a417-43e6-8875-b15f79167c4a"},"vehicle_type_id":"4","last_reported":1758640188,"current_range_meters":12000,"station_id":"ce4bhh92rcd13ifvqfj0","pricing_plan_id":"cebpf4jnsgd1na2vs0mg"},{"bike_id":"17da7888-9fe3-435d-bebe-d997d213f335","system_id":"levelo_inurba_marseille","lat":43.30717,"lon":5.42466,"is_reserved":false,"is_disabled":false,"rental_uris":{"android":"levelo://app?vid=17da7888-9fe3-435d-bebe-d997d213f335","ios":"levelo://app?vid=17da7888-9fe3-435d-bebe-d997d213f335"},"vehicle_type_id":"4","last_reported":1758640188,"current_range_meters":12400,"station_id":"st_cvj6ca6bvosntc0bfgr0","pricing_plan_id":"cebpf4jnsgd1na2vs0mg"},{"bike_id":"25154d34-560e-44ad-98bb-00f3c489ca77","system_id":"levelo_inurba_marseille","lat":43.29787,"lon":5.39356,"is_reserved":false,"is_disabled":false,"rental_uris":{"android":"levelo://app?vid=25154d34-560e-44ad-98bb-00f3c489ca77","ios":"levelo://app?vid=25154d34-560e-44ad-98bb-00f3c489ca77"},"vehicle_type_id":"4","last_reported":1758640188,"current_range_meters":12400,"station_id":"chh1huq6cuj3fo74tm60","pricing_plan_id":"cebpf4jnsgd1na2vs0mg"},{"bike_id":"3f9f9546-01d5-4d78-b7a2-84023d8ad6e4","system_id":"levelo_inurba_marseille","lat":43.27984,"lon":5.38678,"is_reserved":false,"is_disabled":true,"rental_uris":{"android":"levelo://app?vid=3f9f9546-01d5-4d78-b7a2-84023d8ad6e4","ios":"levelo://app?vid=3f9f9546-01d5-4d78-b7a2-84023d8ad6e4"},"vehicle_type_id":"4","last_reported":1758640188,"current_range_meters":12800,"station_id":"","pricing_plan_id":"cebpf4jnsgd1na2vs0mg"},{"bike_id":"5c6070a0-0fa7-40a1-bae4-90214c4809f1","system_id":"levelo_inurba_marseille","lat":43.28583,"lon":5.35134,"is_reserved":false,"is_disabled":false,"rental_uris":{"android":"levelo://app?vid=5c6070a0-0fa7-40a1-bae4-90214c4809f1","ios":"levelo://app?vid=5c6070a0-0fa7-40a1-bae4-90214c4809f1"},"vehicle_type_id":"4","last_reported":1758640188,"current_range_meters":12800,"station_id":"ce4bhch2rcd13ifvqeug","pricing_plan_id":"cebpf4jnsgd1na2vs0mg"},{"bike_id":"8f63bb28-daf3-434a-b520-4ffc9e66dc1c","system_id":"levelo_inurba_marseille","lat":43.256247,"lon":5.412051,"is_reserved":false,"is_disabled":false,"rental_uris":{"android":"levelo://app?vid=8f63bb28-daf3-434a-b520-4ffc9e66dc1c","ios":"levelo://app?vid=8f63bb28-daf3-434a-b520-4ffc9e66dc1c"},"vehicle_type_id":"4","last_reported":1758640188,"current_range_meters":12800,"station_id":"","pricing_plan_id":"cebpf4jnsgd1na2vs0mg"},{"bike_id":"a32af138-1112-44e2-b1a5-89934daa7c8d","system_id":"levelo_inurba_marseille","lat":43.27807,"lon":5.40708,"is_reserved":false,"is_disabled":false,"rental_uris":{"android":"levelo://app?vid=a32af138-1112-44e2-b1a5-89934daa7c8d","ios":"levelo://app?vid=a32af138-1112-44e2-b1a5-89934daa7c8d"},"vehicle_type_id":"4","last_reported":1758640188,"current_range_meters":12800,"station_id":"ce4bhnh2rcd13ifvqgtg","pricing_plan_id":"cebpf4jnsgd1na2vs0mg"},{"bike_id":"0e6420be-4372-4143-a3cd-06e736de68f3","system_id":"levelo_inurba_marseille","lat":43.287014,"lon":5.373776,"is_reserved":false,"is_disabled":false,"rental_uris":{"android":"levelo://app?vid=0e6420be-4372-4143-a3cd-06e736de68f3","ios":"levelo://app?vid=0e6420be-4372-4143-a3cd-06e736de68f3"},"vehicle_type_id":"4","last_reported":1758640188,"current_range_meters":12800,"station_id":"ce4bh3p2rcd13ifvqdq0","pricing_plan_id":"cebpf4jnsgd1na2vs0mg"},{"bike_id":"30db941d-f361-4de4-af70-c1567fdbe3c4","system_id":"levelo_inurba_marseille","lat":43.28105,"lon":5.37841,"is_reserved":false,"is_disabled":false,"rental_uris":{"android":"levelo://app?vid=30db941d-f361-4de4-af70-c1567fdbe3c4","ios":"levelo://app?vid=30db941d-f361-4de4-af70-c1567fdbe3c4"},"vehicle_type_id":"4","last_reported":1758640188,"current_range_meters":12800,"station_id":"ce4bha12rcd13ifvqee0","pricing_plan_id":"cebpf4jnsgd1na2vs0mg"},{"bike_id":"67b97e29-7ecb-4018-a464-041bbd85ed0b","system_id":"levelo_inurba_marseille","lat":43.2842,"lon":5.34981,"is_reserved":false,"is_disabled":false,"rental_uris":{"android":"levelo://app?vid=67b97e29-7ecb-4018-a464-041bbd85ed0b","ios":"levelo://app?vid=67b97e29-7ecb-4018-a464-041bbd85ed0b"},"vehicle_type_id":"4","last_reported":1758640188,"current_range_meters":12800,"station_id":"ce4bhbh2rcd13ifvqepg","pricing_plan_id":"cebpf4jnsgd1na2vs0mg"},{"bike_id":"ba152119-d3b1-4270-8c13-1a55e8560c3b","system_id":"levelo_inurba_marseille","lat":43.27361,"lon":5.36244,"is_reserved":false,"is_disabled":false,"rental_uris":{"android":"levelo://app?vid=ba152119-d3b1-4270-8c13-1a55e8560c3b","ios":"levelo://app?vid=ba152119-d3b1-4270-8c13-1a55e8560c3b"},"vehicle_type_id":"4","last_reported":1758640188,"current_range_meters":12800,"station_id":"ce4bhbh2rcd13ifvqeo0","pricing_plan_id":"cebpf4jnsgd1na2vs0mg"},{"bike_id":"51b93413-1342-426f-8416-856b80eac246","system_id":"levelo_inurba_marseille","lat":43.28275,"lon":5.35073,"is_reserved":false,"is_disabled":false,"rental_uris":{"android":"levelo://app?vid=51b93413-1342-426f-8416-856b80eac246","ios":"levelo://app?vid=51b93413-1342-426f-8416-856b80eac246"},"vehicle_type_id":"4","last_reported":1758640188,"current_range_meters":13600,"station_id":"ce4bhbp2rcd13ifvqerg","pricing_plan_id":"cebpf4jnsgd1na2vs0mg"},{"bike_id":"69942bcf-61de-4daf-a885-a1d77a3c0b7b","system_id":"levelo_inurba_marseille","lat":43.29046,"lon":5.3994,"is_reserved":false,"is_disabled":false,"rental_uris":{"android":"levelo://app?vid=69942bcf-61de-4daf-a885-a1d77a3c0b7b","ios":"levelo://app?vid=69942bcf-61de-4daf-a885-a1d77a3c0b7b"},"vehicle_type_id":"4","last_reported":1758640188,"current_range_meters":13600,"station_id":"ce4bh392rcd13ifvqdm0","pricing_plan_id":"cebpf4jnsgd1na2vs0mg"},{"bike_id":"6ac17a81-0487-4557-9f83-8f554f6e083e","system_id":"levelo_inurba_marseille","lat":43.320344,"lon":5.371347,"is_reserved":false,"is_disabled":false,"rental_uris":{"android":"levelo://app?vid=6ac17a81-0487-4557-9f83-8f554f6e083e","ios":"levelo://app?vid=6ac17a81-0487-4557-9f83-8f554f6e083e"},"vehicle_type_id":"4","last_reported":1758640188,"current_range_meters":13600,"station_id":"","pricing_plan_id":"cebpf4jnsgd1na2vs0mg"},{"bike_id":"f0a786b3-feba-49d3-9c93-ebcb2c570455","system_id":"levelo_inurba_marseille","lat":43.32056,"lon":5.41559,"is_reserved":false,"is_disabled":false,"rental_uris":{"android":"levelo://app?vid=f0a786b3-feba-49d3-9c93-ebcb2c570455","ios":"levelo://app?vid=f0a786b3-feba-49d3-9c93-ebcb2c570455"},"vehicle_type_id":"4","last_reported":1758640188,"current_range_meters":13600,"station_id":"ce4bhq92rcd13ifvqhkg","pricing_plan_id":"cebpf4jnsgd1na2vs0mg"},{"bike_id":"e893d315-0117-4911-8f5e-1c030db75f6d","system_id":"levelo_inurba_marseille","lat":43.3018,"lon":5.36608,"is_reserved":false,"is_disabled":false,"rental_uris":{"android":"levelo://app?vid=e893d315-0117-4911-8f5e-1c030db75f6d","ios":"levelo://app?vid=e893d315-0117-4911-8f5e-1c030db75f6d"},"vehicle_type_id":"4","last_reported":1758640188,"current_range_meters":13600,"station_id":"ce4bgrh2rcd13ifvqc8g","pricing_plan_id":"cebpf4jnsgd1na2vs0mg"},{"bike_id":"062882c0-6810-4134-94b1-d58221c157d0","system_id":"levelo_inurba_marseille","lat":43.25345,"lon":5.42167,"is_reserved":false,"is_disabled":false,"rental_uris":{"android":"levelo://app?vid=062882c0-6810-4134-94b1-d58221c157d0","ios":"levelo://app?vid=062882c0-6810-4134-94b1-d58221c157d0"},"vehicle_type_id":"4","last_reported":1758640188,"current_range_meters":13600,"station_id":"st_d2m65c5bi1j21697t3ng","pricing_plan_id":"cebpf4jnsgd1na2vs0mg"},{"bike_id":"a821f6bb-1f41-4cde-b6f8-937ef6774d20","system_id":"levelo_inurba_marseille","lat":43.29361,"lon":5.37851,"is_reserved":false,"is_disabled":false,"rental_uris":{"android":"levelo://app?vid=a821f6bb-1f41-4cde-b6f8-937ef6774d20","ios":"levelo://app?vid=a821f6bb-1f41-4cde-b6f8-937ef6774d20"},"vehicle_type_id":"4","last_reported":1758640188,"current_range_meters":13600,"station_id":"ce4bgjh2rcd13ifvqbf0","pricing_plan_id":"cebpf4jnsgd1na2vs0mg"},{"bike_id":"7c0482c3-9253-4d1b-b4f3-be55cdb7721d","system_id":"levelo_inurba_marseille","lat":43.33757,"lon":5.37466,"is_reserved":false,"is_disabled":false,"rental_uris":{"android":"levelo://app?vid=7c0482c3-9253-4d1b-b4f3-be55cdb7721d","ios":"levelo://app?vid=7c0482c3-9253-4d1b-b4f3-be55cdb7721d"},"vehicle_type_id":"4","last_reported":1758640188,"current_range_meters":14000,"station_id":"","pricing_plan_id":"cebpf4jnsgd1na2vs0mg"},{"bike_id":"b4bdf58e-3de6-42f4-842d-2b955c81ceac","system_id":"levelo_inurba_marseille","lat":43.31167,"lon":5.38716,"is_reserved":false,"is_disabled":false,"rental_uris":{"android":"levelo://app?vid=b4bdf58e-3de6-42f4-842d-2b955c81ceac","ios":"levelo://app?vid=b4bdf58e-3de6-42f4-842d-2b955c81ceac"},"vehicle_type_id":"4","last_reported":1758640188,"current_range_meters":14000,"station_id":"ce4bgv12rcd13ifvqcp0","pricing_plan_id":"cebpf4jnsgd1na2vs0mg"},{"bike_id":"7c922c3b-1101-4e03-95f5-0131ec65f61d","system_id":"levelo_inurba_marseille","lat":43.32045,"lon":5.41558,"is_reserved":false,"is_disabled":false,"rental_uris":{"android":"levelo://app?vid=7c922c3b-1101-4e03-95f5-0131ec65f61d","ios":"levelo://app?vid=7c922c3b-1101-4e03-95f5-0131ec65f61d"},"vehicle_type_id":"4","last_reported":1758640188,"current_range_meters":14000,"station_id":"ce4bhq92rcd13ifvqhkg","pricing_plan_id":"cebpf4jnsgd1na2vs0mg"},{"bike_id":"109b1194-fc7c-4db6-b2eb-6c93d4cd22fc","system_id":"levelo_inurba_marseille","lat":43.25334,"lon":5.42177,"is_reserved":false,"is_disabled":false,"rental_uris":{"android":"levelo://app?vid=109b1194-fc7c-4db6-b2eb-6c93d4cd22fc","ios":"levelo://app?vid=109b1194-fc7c-4db6-b2eb-6c93d4cd22fc"},"vehicle_type_id":"4","last_reported":1758640188,"current_range_meters":14000,"station_id":"st_d2m65c5bi1j21697t3ng","pricing_plan_id":"cebpf4jnsgd1na2vs0mg"},{"bike_id":"43d57fd4-047e-4ac8-97e5-ec9b96239472","system_id":"levelo_inurba_marseille","lat":43.33231,"lon":5.39821,"is_reserved":false,"is_disabled":false,"rental_uris":{"android":"levelo://app?vid=43d57fd4-047e-4ac8-97e5-ec9b96239472","ios":"levelo://app?vid=43d57fd4-047e-4ac8-97e5-ec9b96239472"},"vehicle_type_id":"4","last_reported":1758640188,"current_range_meters":14000,"station_id":"","pricing_plan_id":"cebpf4jnsgd1na2vs0mg"},{"bike_id":"b4f2cf22-fc08-44c1-b1df-67b5ef113244","system_id":"levelo_inurba_marseille","lat":43.25334,"lon":5.42174,"is_reserved":false,"is_disabled":false,"rental_uris":{"android":"levelo://app?vid=b4f2cf22-fc08-44c1-b1df-67b5ef113244","ios":"levelo://app?vid=b4f2cf22-fc08-44c1-b1df-67b5ef113244"},"vehicle_type_id":"4","last_reported":1758640188,"current_range_meters":14000,"station_id":"st_d2m65c5bi1j21697t3ng","pricing_plan_id":"cebpf4jnsgd1na2vs0mg"},{"bike_id":"5f68f6fd-692f-49bb-9876-f553f58dc552","system_id":"levelo_inurba_marseille","lat":43.29368,"lon":5.37847,"is_reserved":false,"is_disabled":false,"rental_uris":{"android":"levelo://app?vid=5f68f6fd-692f-49bb-9876-f553f58dc552","ios":"levelo://app?vid=5f68f6fd-692f-49bb-9876-f553f58dc552"},"vehicle_type_id":"4","last_reported":1758640188,"current_range_meters":14400,"station_id":"ce4bgjh2rcd13ifvqbf0","pricing_plan_id":"cebpf4jnsgd1na2vs0mg"},{"bike_id":"962d7921-f482-4682-9f32-f316adcfb412","system_id":"levelo_inurba_marseille","lat":43.29303,"lon":5.37178,"is_reserved":false,"is_disabled":false,"rental_uris":{"android":"levelo://app?vid=962d7921-f482-4682-9f32-f316adcfb412","ios":"levelo://app?vid=962d7921-f482-4682-9f32-f316adcfb412"},"vehicle_type_id":"4","last_reported":1758640188,"current_range_meters":14400,"station_id":"ce4bgh92rcd13ifvqb40","pricing_plan_id":"cebpf4jnsgd1na2vs0mg"},{"bike_id":"14bf6369-dda5-4ab9-bd1a-5867524fe28a","system_id":"levelo_inurba_marseille","lat":43.30435,"lon":5.38887,"is_reserved":false,"is_disabled":false,"rental_uris":{"android":"levelo://app?vid=14bf6369-dda5-4ab9-bd1a-5867524fe28a","ios":"levelo://app?vid=14bf6369-dda5-4ab9-bd1a-5867524fe28a"},"vehicle_type_id":"4","last_reported":1758640188,"current_range_meters":14000,"station_id":"ce4bgk12rcd13ifvqbi0","pricing_plan_id":"cebpf4jnsgd1na2vs0mg"},{"bike_id":"44819dd0-256b-4462-8a10-9fd1dd338f2f","system_id":"levelo_inurba_marseille","lat":43.287091,"lon":5.400066,"is_reserved":false,"is_disabled":false,"rental_uris":{"android":"levelo://app?vid=44819dd0-256b-4462-8a10-9fd1dd338f2f","ios":"levelo://app?vid=44819dd0-256b-4462-8a10-9fd1dd338f2f"},"vehicle_type_id":"4","last_reported":1758640188,"current_range_meters":14400,"station_id":"ce4bho92rcd13ifvqh3g","pricing_plan_id":"cebpf4jnsgd1na2vs0mg"},{"bike_id":"e306ec53-2c0d-4cca-8476-d136d3e99269","system_id":"levelo_inurba_marseille","lat":43.314946,"lon":5.372953,"is_reserved":false,"is_disabled":false,"rental_uris":{"android":"levelo://app?vid=e306ec53-2c0d-4cca-8476-d136d3e99269","ios":"levelo://app?vid=e306ec53-2c0d-4cca-8476-d136d3e99269"},"vehicle_type_id":"4","last_reported":1758640188,"current_range_meters":14400,"station_id":"ce4bgt12rcd13ifvqcd0","pricing_plan_id":"cebpf4jnsgd1na2vs0mg"},{"bike_id":"daa8c5e0-271c-4473-9fcf-fef1f6636825","system_id":"levelo_inurba_marseille","lat":43.28419,"lon":5.37505,"is_reserved":false,"is_disabled":false,"rental_uris":{"android":"levelo://app?vid=daa8c5e0-271c-4473-9fcf-fef1f6636825","ios":"levelo://app?vid=daa8c5e0-271c-4473-9fcf-fef1f6636825"},"vehicle_type_id":"4","last_reported":1758640188,"current_range_meters":14400,"station_id":"ce4bh412rcd13ifvqds0","pricing_plan_id":"cebpf4jnsgd1na2vs0mg"},{"bike_id":"064744f1-b5cd-41e9-b136-ab542c48f63e","system_id":"levelo_inurba_marseille","lat":43.282692,"lon":5.35058,"is_reserved":false,"is_disabled":false,"rental_uris":{"android":"levelo://app?vid=064744f1-b5cd-41e9-b136-ab542c48f63e","ios":"levelo://app?vid=064744f1-b5cd-41e9-b136-ab542c48f63e"},"vehicle_type_id":"4","last_reported":1758640188,"current_range_meters":14400,"station_id":"ce4bhbp2rcd13ifvqerg","pricing_plan_id":"cebpf4jnsgd1na2vs0mg"},{"bike_id":"9c7a180f-bee6-48c2-9ad2-181dea55ce36","system_id":"levelo_inurba_marseille","lat":43.31696,"lon":5.43705,"is_reserved":false,"is_disabled":false,"rental_uris":{"android":"levelo://app?vid=9c7a180f-bee6-48c2-9ad2-181dea55ce36","ios":"levelo://app?vid=9c7a180f-bee6-48c2-9ad2-181dea55ce36"},"vehicle_type_id":"4","last_reported":1758640188,"current_range_meters":14800,"station_id":"ce4bhp92rcd13ifvqhcg","pricing_plan_id":"cebpf4jnsgd1na2vs0mg"},{"bike_id":"199c3bb2-afa6-4a12-af66-5e6d3fa5b373","system_id":"levelo_inurba_marseille","lat":43.32369,"lon":5.38886,"is_reserved":false,"is_disabled":false,"rental_uris":{"android":"levelo://app?vid=199c3bb2-afa6-4a12-af66-5e6d3fa5b373","ios":"levelo://app?vid=199c3bb2-afa6-4a12-af66-5e6d3fa5b373"},"vehicle_type_id":"4","last_reported":1758640188,"current_range_meters":14800,"station_id":"ce4bhqp2rcd13ifvqhog","pricing_plan_id":"cebpf4jnsgd1na2vs0mg"},{"bike_id":"2e86854b-25f6-4d9b-a3a1-fb7c707a145b","system_id":"levelo_inurba_marseille","lat":43.24153,"lon":5.3974,"is_reserved":false,"is_disabled":false,"rental_uris":{"android":"levelo://app?vid=2e86854b-25f6-4d9b-a3a1-fb7c707a145b","ios":"levelo://app?vid=2e86854b-25f6-4d9b-a3a1-fb7c707a145b"},"vehicle_type_id":"4","last_reported":1758640188,"current_range_meters":14800,"station_id":"ce4bhn12rcd13ifvqgpg","pricing_plan_id":"cebpf4jnsgd1na2vs0mg"},{"bike_id":"32367d71-1c30-4697-8611-c2a41fc71423","system_id":"levelo_inurba_marseille","lat":43.29879,"lon":5.3973,"is_reserved":false,"is_disabled":false,"rental_uris":{"android":"levelo://app?vid=32367d71-1c30-4697-8611-c2a41fc71423","ios":"levelo://app?vid=32367d71-1c30-4697-8611-c2a41fc71423"},"vehicle_type_id":"4","last_reported":1758640188,"current_range_meters":14800,"station_id":"ce4bh0h2rcd13ifvqd50","pricing_plan_id":"cebpf4jnsgd1na2vs0mg"},{"bike_id":"06a24bce-028d-4b4a-b4a3-d45296145db5","system_id":"levelo_inurba_marseille","lat":43.28425,"lon":5.34991,"is_reserved":false,"is_disabled":true,"rental_uris":{"android":"levelo://app?vid=06a24bce-028d-4b4a-b4a3-d45296145db5","ios":"levelo://app?vid=06a24bce-028d-4b4a-b4a3-d45296145db5"},"vehicle_type_id":"4","last_reported":1758640188,"current_range_meters":14800,"station_id":"ce4bhch2rcd13ifvqeug","pricing_plan_id":"cebpf4jnsgd1na2vs0mg"},{"bike_id":"a34a6b24-7753-4a72-b3ad-fa99e28e7e14","system_id":"levelo_inurba_marseille","lat":43.30926,"lon":5.37871,"is_reserved":false,"is_disabled":false,"rental_uris":{"android":"levelo://app?vid=a34a6b24-7753-4a72-b3ad-fa99e28e7e14","ios":"levelo://app?vid=a34a6b24-7753-4a72-b3ad-fa99e28e7e14"},"vehicle_type_id":"4","last_reported":1758640188,"current_range_meters":14800,"station_id":"","pricing_plan_id":"cebpf4jnsgd1na2vs0mg"},{"bike_id":"f8c06f7d-03bd-4462-954a-b00f606bc63d","system_id":"levelo_inurba_marseille","lat":43.25331,"lon":5.42171,"is_reserved":false,"is_disabled":false,"rental_uris":{"android":"levelo://app?vid=f8c06f7d-03bd-4462-954a-b00f606bc63d","ios":"levelo://app?vid=f8c06f7d-03bd-4462-954a-b00f606bc63d"},"vehicle_type_id":"4","last_reported":1758640188,"current_range_meters":15200,"station_id":"st_d2m65c5bi1j21697t3ng","pricing_plan_id":"cebpf4jnsgd1na2vs0mg"},{"bike_id":"d31cb61c-d629-45de-aa92-347edf7c0036","system_id":"levelo_inurba_marseille","lat":43.27612,"lon":5.36106,"is_reserved":false,"is_disabled":false,"rental_uris":{"android":"levelo://app?vid=d31cb61c-d629-45de-aa92-347edf7c0036","ios":"levelo://app?vid=d31cb61c-d629-45de-aa92-347edf7c0036"},"vehicle_type_id":"4","last_reported":1758640188,"current_range_meters":15200,"station_id":"ce4bgj92rcd13ifvqbe0","pricing_plan_id":"cebpf4jnsgd1na2vs0mg"},{"bike_id":"adc9b767-fa5a-487c-b17d-fb3c376c3f08","system_id":"levelo_inurba_marseille","lat":43.2976,"lon":5.37708,"is_reserved":false,"is_disabled":false,"rental_uris":{"android":"levelo://app?vid=adc9b767-fa5a-487c-b17d-fb3c376c3f08","ios":"levelo://app?vid=adc9b767-fa5a-487c-b17d-fb3c376c3f08"},"vehicle_type_id":"4","last_reported":1758640188,"current_range_meters":16000,"station_id":"","pricing_plan_id":"cebpf4jnsgd1na2vs0mg"},{"bike_id":"4a6e29c5-43d5-4e1d-a3f7-1db739e2ae27","system_id":"levelo_inurba_marseille","lat":43.28421,"lon":5.34979,"is_reserved":false,"is_disabled":false,"rental_uris":{"android":"levelo://app?vid=4a6e29c5-43d5-4e1d-a3f7-1db739e2ae27","ios":"levelo://app?vid=4a6e29c5-43d5-4e1d-a3f7-1db739e2ae27"},"vehicle_type_id":"4","last_reported":1758640188,"current_range_meters":16000,"station_id":"ce4bhbh2rcd13ifvqepg","pricing_plan_id":"cebpf4jnsgd1na2vs0mg"},{"bike_id":"4c0b651b-953c-4759-a0f7-0074f59a45eb","system_id":"levelo_inurba_marseille","lat":43.25789,"lon":5.3928,"is_reserved":false,"is_disabled":false,"rental_uris":{"android":"levelo://app?vid=4c0b651b-953c-4759-a0f7-0074f59a45eb","ios":"levelo://app?vid=4c0b651b-953c-4759-a0f7-0074f59a45eb"},"vehicle_type_id":"4","last_reported":1758640188,"current_range_meters":16000,"station_id":"","pricing_plan_id":"cebpf4jnsgd1na2vs0mg"},{"bike_id":"234c64c1-56f8-4a4f-a99b-0b5dd7134dd2","system_id":"levelo_inurba_marseille","lat":43.29522,"lon":5.390423,"is_reserved":false,"is_disabled":false,"rental_uris":{"android":"levelo://app?vid=234c64c1-56f8-4a4f-a99b-0b5dd7134dd2","ios":"levelo://app?vid=234c64c1-56f8-4a4f-a99b-0b5dd7134dd2"},"vehicle_type_id":"4","last_reported":1758640188,"current_range_meters":16000,"station_id":"ce4bh3p2rcd13ifvqdp0","pricing_plan_id":"cebpf4jnsgd1na2vs0mg"},{"bike_id":"53f73aae-0f0a-4b7f-9be0-6af8d68f18fb","system_id":"levelo_inurba_marseille","lat":43.31364,"lon":5.38487,"is_reserved":false,"is_disabled":false,"rental_uris":{"android":"levelo://app?vid=53f73aae-0f0a-4b7f-9be0-6af8d68f18fb","ios":"levelo://app?vid=53f73aae-0f0a-4b7f-9be0-6af8d68f18fb"},"vehicle_type_id":"4","last_reported":1758640188,"current_range_meters":16000,"station_id":"ce4bgt92rcd13ifvqcf0","pricing_plan_id":"cebpf4jnsgd1na2vs0mg"},{"bike_id":"e35dc3d8-0dfe-4bd4-87f7-5d3ca8bee4e5","system_id":"levelo_inurba_marseille","lat":43.25082,"lon":5.42601,"is_reserved":false,"is_disabled":false,"rental_uris":{"android":"levelo://app?vid=e35dc3d8-0dfe-4bd4-87f7-5d3ca8bee4e5","ios":"levelo://app?vid=e35dc3d8-0dfe-4bd4-87f7-5d3ca8bee4e5"},"vehicle_type_id":"4","last_reported":1758640188,"current_range_meters":16000,"station_id":"","pricing_plan_id":"cebpf4jnsgd1na2vs0mg"},{"bike_id":"dddca5ef-4a33-499b-936a-6d8e6136a417","system_id":"levelo_inurba_marseille","lat":43.229342,"lon":5.353788,"is_reserved":false,"is_disabled":false,"rental_uris":{"android":"levelo://app?vid=dddca5ef-4a33-499b-936a-6d8e6136a417","ios":"levelo://app?vid=dddca5ef-4a33-499b-936a-6d8e6136a417"},"vehicle_type_id":"4","last_reported":1758640188,"current_range_meters":16000,"station_id":"cpo3532slgdg3j2ikp40","pricing_plan_id":"cebpf4jnsgd1na2vs0mg"},{"bike_id":"8552fe36-10d8-46fd-997b-c97d2970480a","system_id":"levelo_inurba_marseille","lat":43.323528,"lon":5.367437,"is_reserved":false,"is_disabled":false,"rental_uris":{"android":"levelo://app?vid=8552fe36-10d8-46fd-997b-c97d2970480a","ios":"levelo://app?vid=8552fe36-10d8-46fd-997b-c97d2970480a"},"vehicle_type_id":"4","last_reported":1758640188,"current_range_meters":16000,"station_id":"ce4bhsh2rcd13ifvqi2g","pricing_plan_id":"cebpf4jnsgd1na2vs0mg"},{"bike_id":"8ab0971d-c449-412a-bd81-96f3910d1a97","system_id":"levelo_inurba_marseille","lat":43.33023,"lon":5.3904,"is_reserved":false,"is_disabled":false,"rental_uris":{"android":"levelo://app?vid=8ab0971d-c449-412a-bd81-96f3910d1a97","ios":"levelo://app?vid=8ab0971d-c449-412a-bd81-96f3910d1a97"},"vehicle_type_id":"4","last_reported":1758640188,"current_range_meters":16400,"station_id":"ce4bhr92rcd13ifvqhrg","pricing_plan_id":"cebpf4jnsgd1na2vs0mg"},{"bike_id":"3c0fa725-f739-4599-965d-e73d3e7b2c8f","system_id":"levelo_inurba_marseille","lat":43.32338,"lon":5.36743,"is_reserved":false,"is_disabled":false,"rental_uris":{"android":"levelo://app?vid=3c0fa725-f739-4599-965d-e73d3e7b2c8f","ios":"levelo://app?vid=3c0fa725-f739-4599-965d-e73d3e7b2c8f"},"vehicle_type_id":"4","last_reported":1758640188,"current_range_meters":16400,"station_id":"ce4bhsh2rcd13ifvqi2g","pricing_plan_id":"cebpf4jnsgd1na2vs0mg"},{"bike_id":"c8f3c8da-edc9-4118-a2a2-80f74b9d6e48","system_id":"levelo_inurba_marseille","lat":43.25056,"lon":5.39509,"is_reserved":false,"is_disabled":false,"rental_uris":{"android":"levelo://app?vid=c8f3c8da-edc9-4118-a2a2-80f74b9d6e48","ios":"levelo://app?vid=c8f3c8da-edc9-4118-a2a2-80f74b9d6e48"},"vehicle_type_id":"4","last_reported":1758640188,"current_range_meters":16400,"station_id":"ce4bhm12rcd13ifvqgkg","pricing_plan_id":"cebpf4jnsgd1na2vs0mg"},{"bike_id":"7c9f1c41-6f4a-4988-b04a-ee637cabbf82","system_id":"levelo_inurba_marseille","lat":43.28697,"lon":5.3998,"is_reserved":false,"is_disabled":false,"rental_uris":{"android":"levelo://app?vid=7c9f1c41-6f4a-4988-b04a-ee637cabbf82","ios":"levelo://app?vid=7c9f1c41-6f4a-4988-b04a-ee637cabbf82"},"vehicle_type_id":"4","last_reported":1758640188,"current_range_meters":16000,"station_id":"ce4bho92rcd13ifvqh3g","pricing_plan_id":"cebpf4jnsgd1na2vs0mg"},{"bike_id":"547121a6-ed50-4d48-bad3-f73539aaa9d7","system_id":"levelo_inurba_marseille","lat":43.2118,"lon":5.35087,"is_reserved":false,"is_disabled":false,"rental_uris":{"android":"levelo://app?vid=547121a6-ed50-4d48-bad3-f73539aaa9d7","ios":"levelo://app?vid=547121a6-ed50-4d48-bad3-f73539aaa9d7"},"vehicle_type_id":"4","last_reported":1758640188,"current_range_meters":16400,"station_id":"st_cvj6sg6p6f1abm77japg","pricing_plan_id":"cebpf4jnsgd1na2vs0mg"},{"bike_id":"9feb0e0f-24fa-4463-b0f3-30472830c043","system_id":"levelo_inurba_marseille","lat":43.31757,"lon":5.39002,"is_reserved":false,"is_disabled":false,"rental_uris":{"android":"levelo://app?vid=9feb0e0f-24fa-4463-b0f3-30472830c043","ios":"levelo://app?vid=9feb0e0f-24fa-4463-b0f3-30472830c043"},"vehicle_type_id":"4","last_reported":1758640188,"current_range_meters":16800,"station_id":"ce4bhqp2rcd13ifvqhng","pricing_plan_id":"cebpf4jnsgd1na2vs0mg"},{"bike_id":"a60abba9-f9b8-477b-8786-175fc2b6218b","system_id":"levelo_inurba_marseille","lat":43.30846,"lon":5.37176,"is_reserved":false,"is_disabled":false,"rental_uris":{"android":"levelo://app?vid=a60abba9-f9b8-477b-8786-175fc2b6218b","ios":"levelo://app?vid=a60abba9-f9b8-477b-8786-175fc2b6218b"},"vehicle_type_id":"4","last_reported":1758640188,"current_range_meters":16800,"station_id":"","pricing_plan_id":"cebpf4jnsgd1na2vs0mg"},{"bike_id":"ae140a32-5f79-427f-90a7-d410e17b7823","system_id":"levelo_inurba_marseille","lat":43.26664,"lon":5.38288,"is_reserved":false,"is_disabled":true,"rental_uris":{"android":"levelo://app?vid=ae140a32-5f79-427f-90a7-d410e17b7823","ios":"levelo://app?vid=ae140a32-5f79-427f-90a7-d410e17b7823"},"vehicle_type_id":"4","last_reported":1758640188,"current_range_meters":16800,"station_id":"ce4bhg92rcd13ifvqf90","pricing_plan_id":"cebpf4jnsgd1na2vs0mg"},{"bike_id":"93f8abc5-7bf2-42ae-a85e-b4a1a5de88d5","system_id":"levelo_inurba_marseille","lat":43.337444,"lon":5.374475,"is_reserved":false,"is_disabled":false,"rental_uris":{"android":"levelo://app?vid=93f8abc5-7bf2-42ae-a85e-b4a1a5de88d5","ios":"levelo://app?vid=93f8abc5-7bf2-42ae-a85e-b4a1a5de88d5"},"vehicle_type_id":"4","last_reported":1758640188,"current_range_meters":16800,"station_id":"","pricing_plan_id":"cebpf4jnsgd1na2vs0mg"},{"bike_id":"f16809ad-6e13-4a53-ae9a-f60314789532","system_id":"levelo_inurba_marseille","lat":43.28938,"lon":5.36653,"is_reserved":false,"is_disabled":false,"rental_uris":{"android":"levelo://app?vid=f16809ad-6e13-4a53-ae9a-f60314789532","ios":"levelo://app?vid=f16809ad-6e13-4a53-ae9a-f60314789532"},"vehicle_type_id":"4","last_reported":1758640188,"current_range_meters":16800,"station_id":"ce4bhap2rcd13ifvqek0","pricing_plan_id":"cebpf4jnsgd1na2vs0mg"},{"bike_id":"95092148-5f75-4663-be7d-7c8aa2863391","system_id":"levelo_inurba_marseille","lat":43.24152,"lon":5.364,"is_reserved":false,"is_disabled":false,"rental_uris":{"android":"levelo://app?vid=95092148-5f75-4663-be7d-7c8aa2863391","ios":"levelo://app?vid=95092148-5f75-4663-be7d-7c8aa2863391"},"vehicle_type_id":"4","last_reported":1758640188,"current_range_meters":16800,"station_id":"cpo36qri1sfpv3e86is0","pricing_plan_id":"cebpf4jnsgd1na2vs0mg"},{"bike_id":"0bd6e977-d02d-4aae-b33a-5d4adf358101","system_id":"levelo_inurba_marseille","lat":43.29024,"lon":5.38662,"is_reserved":false,"is_disabled":false,"rental_uris":{"android":"levelo://app?vid=0bd6e977-d02d-4aae-b33a-5d4adf358101","ios":"levelo://app?vid=0bd6e977-d02d-4aae-b33a-5d4adf358101"},"vehicle_type_id":"4","last_reported":1758640188,"current_range_meters":16800,"station_id":"ce4bh4p2rcd13ifvqe0g","pricing_plan_id":"cebpf4jnsgd1na2vs0mg"},{"bike_id":"a2533914-e832-4dbf-b747-4368ba715ac9","system_id":"levelo_inurba_marseille","lat":43.30293,"lon":5.39207,"is_reserved":false,"is_disabled":false,"rental_uris":{"android":"levelo://app?vid=a2533914-e832-4dbf-b747-4368ba715ac9","ios":"levelo://app?vid=a2533914-e832-4dbf-b747-4368ba715ac9"},"vehicle_type_id":"4","last_reported":1758640188,"current_range_meters":18000,"station_id":"ce4bgkh2rcd13ifvqbk0","pricing_plan_id":"cebpf4jnsgd1na2vs0mg"},{"bike_id":"9f051dc7-bc58-41cf-ad4d-1409de3d27c1","system_id":"levelo_inurba_marseille","lat":43.30245,"lon":5.40054,"is_reserved":false,"is_disabled":false,"rental_uris":{"android":"levelo://app?vid=9f051dc7-bc58-41cf-ad4d-1409de3d27c1","ios":"levelo://app?vid=9f051dc7-bc58-41cf-ad4d-1409de3d27c1"},"vehicle_type_id":"4","last_reported":1758640188,"current_range_meters":16800,"station_id":"ce4bgvh2rcd13ifvqcs0","pricing_plan_id":"cebpf4jnsgd1na2vs0mg"},{"bike_id":"81b766fc-bfa9-44da-a8d2-523ab64a5d7f","system_id":"levelo_inurba_marseille","lat":43.28176,"lon":5.4266,"is_reserved":false,"is_disabled":false,"rental_uris":{"android":"levelo://app?vid=81b766fc-bfa9-44da-a8d2-523ab64a5d7f","ios":"levelo://app?vid=81b766fc-bfa9-44da-a8d2-523ab64a5d7f"},"vehicle_type_id":"4","last_reported":1758640188,"current_range_meters":17200,"station_id":"ce4bhnh2rcd13ifvqgug","pricing_plan_id":"cebpf4jnsgd1na2vs0mg"},{"bike_id":"878212e1-9f3a-4147-b86c-65eaf928a45d","system_id":"levelo_inurba_marseille","lat":43.21752,"lon":5.3459,"is_reserved":false,"is_disabled":false,"rental_uris":{"android":"levelo://app?vid=878212e1-9f3a-4147-b86c-65eaf928a45d","ios":"levelo://app?vid=878212e1-9f3a-4147-b86c-65eaf928a45d"},"vehicle_type_id":"4","last_reported":1758640188,"current_range_meters":17200,"station_id":"","pricing_plan_id":"cebpf4jnsgd1na2vs0mg"},{"bike_id":"c7f6a08b-c655-4213-b2ba-7d02e7f382fe","system_id":"levelo_inurba_marseille","lat":43.27805,"lon":5.3957,"is_reserved":false,"is_disabled":false,"rental_uris":{"android":"levelo://app?vid=c7f6a08b-c655-4213-b2ba-7d02e7f382fe","ios":"levelo://app?vid=c7f6a08b-c655-4213-b2ba-7d02e7f382fe"},"vehicle_type_id":"4","last_reported":1758640188,"current_range_meters":17200,"station_id":"","pricing_plan_id":"cebpf4jnsgd1na2vs0mg"},{"bike_id":"3224aeb4-43ee-4486-bd34-a50a843df1ac","system_id":"levelo_inurba_marseille","lat":43.317577,"lon":5.390113,"is_reserved":false,"is_disabled":false,"rental_uris":{"android":"levelo://app?vid=3224aeb4-43ee-4486-bd34-a50a843df1ac","ios":"levelo://app?vid=3224aeb4-43ee-4486-bd34-a50a843df1ac"},"vehicle_type_id":"4","last_reported":1758640188,"current_range_meters":17600,"station_id":"ce4bhqp2rcd13ifvqhng","pricing_plan_id":"cebpf4jnsgd1na2vs0mg"},{"bike_id":"b5097eea-9912-4be2-9cf9-14c224c5fab6","system_id":"levelo_inurba_marseille","lat":43.23203,"lon":5.35545,"is_reserved":false,"is_disabled":false,"rental_uris":{"android":"levelo://app?vid=b5097eea-9912-4be2-9cf9-14c224c5fab6","ios":"levelo://app?vid=b5097eea-9912-4be2-9cf9-14c224c5fab6"},"vehicle_type_id":"4","last_reported":1758640188,"current_range_meters":17600,"station_id":"ce4bhu92rcd13ifvqi70","pricing_plan_id":"cebpf4jnsgd1na2vs0mg"},{"bike_id":"33c3bc37-b0fb-4bbc-94c6-23e7c0c2d46f","system_id":"levelo_inurba_marseille","lat":43.3136,"lon":5.36721,"is_reserved":false,"is_disabled":false,"rental_uris":{"android":"levelo://app?vid=33c3bc37-b0fb-4bbc-94c6-23e7c0c2d46f","ios":"levelo://app?vid=33c3bc37-b0fb-4bbc-94c6-23e7c0c2d46f"},"vehicle_type_id":"4","last_reported":1758640188,"current_range_meters":17600,"station_id":"ce4bgr92rcd13ifvqc6g","pricing_plan_id":"cebpf4jnsgd1na2vs0mg"},{"bike_id":"939caf77-e07e-4575-9b4e-9024bf1bf5db","system_id":"levelo_inurba_marseille","lat":43.29156,"lon":5.37177,"is_reserved":false,"is_disabled":false,"rental_uris":{"android":"levelo://app?vid=939caf77-e07e-4575-9b4e-9024bf1bf5db","ios":"levelo://app?vid=939caf77-e07e-4575-9b4e-9024bf1bf5db"},"vehicle_type_id":"4","last_reported":1758640188,"current_range_meters":17600,"station_id":"ce4bha92rcd13ifvqeh0","pricing_plan_id":"cebpf4jnsgd1na2vs0mg"},{"bike_id":"36d9ac7e-672f-4b32-baac-3848c2e62fe7","system_id":"levelo_inurba_marseille","lat":43.25097,"lon":5.40348,"is_reserved":false,"is_disabled":false,"rental_uris":{"android":"levelo://app?vid=36d9ac7e-672f-4b32-baac-3848c2e62fe7","ios":"levelo://app?vid=36d9ac7e-672f-4b32-baac-3848c2e62fe7"},"vehicle_type_id":"4","last_reported":1758640188,"current_range_meters":17600,"station_id":"ce4bhlh2rcd13ifvqgig","pricing_plan_id":"cebpf4jnsgd1na2vs0mg"},{"bike_id":"2c99f1de-9ab9-4830-9a42-a34b04404a04","system_id":"levelo_inurba_marseille","lat":43.31225,"lon":5.368634,"is_reserved":false,"is_disabled":false,"rental_uris":{"android":"levelo://app?vid=2c99f1de-9ab9-4830-9a42-a34b04404a04","ios":"levelo://app?vid=2c99f1de-9ab9-4830-9a42-a34b04404a04"},"vehicle_type_id":"4","last_reported":1758640188,"current_range_meters":17600,"station_id":"ce4bgl92rcd13ifvqbq0","pricing_plan_id":"cebpf4jnsgd1na2vs0mg"},{"bike_id":"d68b9cdd-055c-48e6-b5c7-c6c683b923e5","system_id":"levelo_inurba_marseille","lat":43.28613,"lon":5.351042,"is_reserved":false,"is_disabled":true,"rental_uris":{"android":"levelo://app?vid=d68b9cdd-055c-48e6-b5c7-c6c683b923e5","ios":"levelo://app?vid=d68b9cdd-055c-48e6-b5c7-c6c683b923e5"},"vehicle_type_id":"4","last_reported":1758640188,"current_range_meters":17600,"station_id":"ce4bhch2rcd13ifvqeug","pricing_plan_id":"cebpf4jnsgd1na2vs0mg"},{"bike_id":"2e47fd0c-8dc7-4606-ae83-f4460405e6a3","system_id":"levelo_inurba_marseille","lat":43.303797,"lon":5.424887,"is_reserved":false,"is_disabled":false,"rental_uris":{"android":"levelo://app?vid=2e47fd0c-8dc7-4606-ae83-f4460405e6a3","ios":"levelo://app?vid=2e47fd0c-8dc7-4606-ae83-f4460405e6a3"},"vehicle_type_id":"4","last_reported":1758640188,"current_range_meters":17600,"station_id":"ce4bhoh2rcd13ifvqh6g","pricing_plan_id":"cebpf4jnsgd1na2vs0mg"},{"bike_id":"7ce9420d-3ff5-496e-b60a-daa54b0823b2","system_id":"levelo_inurba_marseille","lat":43.32109,"lon":5.36774,"is_reserved":false,"is_disabled":false,"rental_uris":{"android":"levelo://app?vid=7ce9420d-3ff5-496e-b60a-daa54b0823b2","ios":"levelo://app?vid=7ce9420d-3ff5-496e-b60a-daa54b0823b2"},"vehicle_type_id":"4","last_reported":1758640188,"current_range_meters":18000,"station_id":"ce4bhrh2rcd13ifvqhug","pricing_plan_id":"cebpf4jnsgd1na2vs0mg"},{"bike_id":"4d1696d1-fee5-4cbb-b6cf-473bb9852d90","system_id":"levelo_inurba_marseille","lat":43.2973,"lon":5.37705,"is_reserved":false,"is_disabled":false,"rental_uris":{"android":"levelo://app?vid=4d1696d1-fee5-4cbb-b6cf-473bb9852d90","ios":"levelo://app?vid=4d1696d1-fee5-4cbb-b6cf-473bb9852d90"},"vehicle_type_id":"4","last_reported":1758640188,"current_range_meters":18000,"station_id":"ce4bgkh2rcd13ifvqbl0","pricing_plan_id":"cebpf4jnsgd1na2vs0mg"},{"bike_id":"0306c5d5-8061-4818-a9c1-9604d16570d9","system_id":"levelo_inurba_marseille","lat":43.24168,"lon":5.36396,"is_reserved":false,"is_disabled":false,"rental_uris":{"android":"levelo://app?vid=0306c5d5-8061-4818-a9c1-9604d16570d9","ios":"levelo://app?vid=0306c5d5-8061-4818-a9c1-9604d16570d9"},"vehicle_type_id":"4","last_reported":1758640188,"current_range_meters":18000,"station_id":"cpo36qri1sfpv3e86is0","pricing_plan_id":"cebpf4jnsgd1na2vs0mg"},{"bike_id":"34c0df4b-5baf-4684-bcae-8f70cb785ec8","system_id":"levelo_inurba_marseille","lat":43.292018,"lon":5.393188,"is_reserved":false,"is_disabled":false,"rental_uris":{"android":"levelo://app?vid=34c0df4b-5baf-4684-bcae-8f70cb785ec8","ios":"levelo://app?vid=34c0df4b-5baf-4684-bcae-8f70cb785ec8"},"vehicle_type_id":"4","last_reported":1758640188,"current_range_meters":18000,"station_id":"ce4bh192rcd13ifvqdd0","pricing_plan_id":"cebpf4jnsgd1na2vs0mg"},{"bike_id":"e83c4de8-e919-4a93-81bb-14ffe5828a51","system_id":"levelo_inurba_marseille","lat":43.26201,"lon":5.3793,"is_reserved":false,"is_disabled":false,"rental_uris":{"android":"levelo://app?vid=e83c4de8-e919-4a93-81bb-14ffe5828a51","ios":"levelo://app?vid=e83c4de8-e919-4a93-81bb-14ffe5828a51"},"vehicle_type_id":"4","last_reported":1758640188,"current_range_meters":18000,"station_id":"ce4bhjp2rcd13ifvqg90","pricing_plan_id":"cebpf4jnsgd1na2vs0mg"},{"bike_id":"4ef15207-2a50-44d5-9312-4276ae0b9970","system_id":"levelo_inurba_marseille","lat":43.29049,"lon":5.39975,"is_reserved":false,"is_disabled":false,"rental_uris":{"android":"levelo://app?vid=4ef15207-2a50-44d5-9312-4276ae0b9970","ios":"levelo://app?vid=4ef15207-2a50-44d5-9312-4276ae0b9970"},"vehicle_type_id":"4","last_reported":1758640188,"current_range_meters":17600,"station_id":"ce4bh392rcd13ifvqdm0","pricing_plan_id":"cebpf4jnsgd1na2vs0mg"},{"bike_id":"13fa69a5-1060-463e-9c95-aaf1dd1f6258","system_id":"levelo_inurba_marseille","lat":43.29523,"lon":5.39399,"is_reserved":false,"is_disabled":false,"rental_uris":{"android":"levelo://app?vid=13fa69a5-1060-463e-9c95-aaf1dd1f6258","ios":"levelo://app?vid=13fa69a5-1060-463e-9c95-aaf1dd1f6258"},"vehicle_type_id":"4","last_reported":1758640188,"current_range_meters":18000,"station_id":"ce4bh292rcd13ifvqdf0","pricing_plan_id":"cebpf4jnsgd1na2vs0mg"},{"bike_id":"6ffa68ca-bec1-4c02-b51f-273509bf785b","system_id":"levelo_inurba_marseille","lat":43.29942,"lon":5.36526,"is_reserved":false,"is_disabled":false,"rental_uris":{"android":"levelo://app?vid=6ffa68ca-bec1-4c02-b51f-273509bf785b","ios":"levelo://app?vid=6ffa68ca-bec1-4c02-b51f-273509bf785b"},"vehicle_type_id":"4","last_reported":1758640188,"current_range_meters":18000,"station_id":"ce4bgm92rcd13ifvqbr0","pricing_plan_id":"cebpf4jnsgd1na2vs0mg"},{"bike_id":"be6e0c6c-57fa-476c-bf52-fa11bc3d48c5","system_id":"levelo_inurba_marseille","lat":43.29712,"lon":5.36612,"is_reserved":false,"is_disabled":false,"rental_uris":{"android":"levelo://app?vid=be6e0c6c-57fa-476c-bf52-fa11bc3d48c5","ios":"levelo://app?vid=be6e0c6c-57fa-476c-bf52-fa11bc3d48c5"},"vehicle_type_id":"4","last_reported":1758640188,"current_range_meters":18000,"station_id":"ce4bgn12rcd13ifvqbt0","pricing_plan_id":"cebpf4jnsgd1na2vs0mg"},{"bike_id":"b71ccb95-5108-4926-abb9-112f59973c0e","system_id":"levelo_inurba_marseille","lat":43.296305,"lon":5.377109,"is_reserved":false,"is_disabled":false,"rental_uris":{"android":"levelo://app?vid=b71ccb95-5108-4926-abb9-112f59973c0e","ios":"levelo://app?vid=b71ccb95-5108-4926-abb9-112f59973c0e"},"vehicle_type_id":"4","last_reported":1758640188,"current_range_meters":18000,"station_id":"ce4bgi92rcd13ifvqb90","pricing_plan_id":"cebpf4jnsgd1na2vs0mg"},{"bike_id":"a09d29c1-21c7-4d0d-a327-1acad4670edd","system_id":"levelo_inurba_marseille","lat":43.258241,"lon":5.39439,"is_reserved":false,"is_disabled":false,"rental_uris":{"android":"levelo://app?vid=a09d29c1-21c7-4d0d-a327-1acad4670edd","ios":"levelo://app?vid=a09d29c1-21c7-4d0d-a327-1acad4670edd"},"vehicle_type_id":"4","last_reported":1758640188,"current_range_meters":18000,"station_id":"ce4bhip2rcd13ifvqft0","pricing_plan_id":"cebpf4jnsgd1na2vs0mg"},{"bike_id":"36b070bb-df09-4433-b99c-aab79ada22d5","system_id":"levelo_inurba_marseille","lat":43.29287,"lon":5.3744,"is_reserved":false,"is_disabled":false,"rental_uris":{"android":"levelo://app?vid=36b070bb-df09-4433-b99c-aab79ada22d5","ios":"levelo://app?vid=36b070bb-df09-4433-b99c-aab79ada22d5"},"vehicle_type_id":"4","last_reported":1758640188,"current_range_meters":18000,"station_id":"","pricing_plan_id":"cebpf4jnsgd1na2vs0mg"},{"bike_id":"4aa93e6d-9497-4af8-b21f-279be55c10f9","system_id":"levelo_inurba_marseille","lat":43.31531,"lon":5.3802,"is_reserved":false,"is_disabled":false,"rental_uris":{"android":"levelo://app?vid=4aa93e6d-9497-4af8-b21f-279be55c10f9","ios":"levelo://app?vid=4aa93e6d-9497-4af8-b21f-279be55c10f9"},"vehicle_type_id":"4","last_reported":1758640188,"current_range_meters":18000,"station_id":"ce4bhsp2rcd13ifvqi50","pricing_plan_id":"cebpf4jnsgd1na2vs0mg"},{"bike_id":"342bd145-4031-48c3-807e-2998343b750c","system_id":"levelo_inurba_marseille","lat":43.27885,"lon":5.38044,"is_reserved":false,"is_disabled":false,"rental_uris":{"android":"levelo://app?vid=342bd145-4031-48c3-807e-2998343b750c","ios":"levelo://app?vid=342bd145-4031-48c3-807e-2998343b750c"},"vehicle_type_id":"4","last_reported":1758640188,"current_range_meters":18000,"station_id":"ce4bha12rcd13ifvqee0","pricing_plan_id":"cebpf4jnsgd1na2vs0mg"},{"bike_id":"1e2b0923-7c0f-4134-bff6-a7f0c0a8fdc5","system_id":"levelo_inurba_marseille","lat":43.32494,"lon":5.36529,"is_reserved":false,"is_disabled":false,"rental_uris":{"android":"levelo://app?vid=1e2b0923-7c0f-4134-bff6-a7f0c0a8fdc5","ios":"levelo://app?vid=1e2b0923-7c0f-4134-bff6-a7f0c0a8fdc5"},"vehicle_type_id":"4","last_reported":1758640188,"current_range_meters":18800,"station_id":"ce4bhs12rcd13ifvqhvg","pricing_plan_id":"cebpf4jnsgd1na2vs0mg"},{"bike_id":"f216bb74-9168-4f05-99df-843dddda3be3","system_id":"levelo_inurba_marseille","lat":43.28266,"lon":5.35061,"is_reserved":false,"is_disabled":false,"rental_uris":{"android":"levelo://app?vid=f216bb74-9168-4f05-99df-843dddda3be3","ios":"levelo://app?vid=f216bb74-9168-4f05-99df-843dddda3be3"},"vehicle_type_id":"4","last_reported":1758640188,"current_range_meters":18800,"station_id":"ce4bhbp2rcd13ifvqerg","pricing_plan_id":"cebpf4jnsgd1na2vs0mg"},{"bike_id":"ef00c611-56e3-4d87-83a8-6fad9627913a","system_id":"levelo_inurba_marseille","lat":43.308894,"lon":5.371943,"is_reserved":false,"is_disabled":false,"rental_uris":{"android":"levelo://app?vid=ef00c611-56e3-4d87-83a8-6fad9627913a","ios":"levelo://app?vid=ef00c611-56e3-4d87-83a8-6fad9627913a"},"vehicle_type_id":"4","last_reported":1758640188,"current_range_meters":18800,"station_id":"ce4bguh2rcd13ifvqckg","pricing_plan_id":"cebpf4jnsgd1na2vs0mg"},{"bike_id":"0ee7c44f-23ce-458a-9e87-469204bb5d2d","system_id":"levelo_inurba_marseille","lat":43.29991,"lon":5.40109,"is_reserved":false,"is_disabled":false,"rental_uris":{"android":"levelo://app?vid=0ee7c44f-23ce-458a-9e87-469204bb5d2d","ios":"levelo://app?vid=0ee7c44f-23ce-458a-9e87-469204bb5d2d"},"vehicle_type_id":"4","last_reported":1758640188,"current_range_meters":18800,"station_id":"","pricing_plan_id":"cebpf4jnsgd1na2vs0mg"},{"bike_id":"d98f70b4-a68e-4a59-a9b0-98ea4b085948","system_id":"levelo_inurba_marseille","lat":43.27994,"lon":5.41666,"is_reserved":false,"is_disabled":false,"rental_uris":{"android":"levelo://app?vid=d98f70b4-a68e-4a59-a9b0-98ea4b085948","ios":"levelo://app?vid=d98f70b4-a68e-4a59-a9b0-98ea4b085948"},"vehicle_type_id":"4","last_reported":1758640188,"current_range_meters":18800,"station_id":"ce4bho12rcd13ifvqh1g","pricing_plan_id":"cebpf4jnsgd1na2vs0mg"},{"bike_id":"4a9a978a-712d-4a16-907b-c03240f6abbd","system_id":"levelo_inurba_marseille","lat":43.23055,"lon":5.35505,"is_reserved":false,"is_disabled":false,"rental_uris":{"android":"levelo://app?vid=4a9a978a-712d-4a16-907b-c03240f6abbd","ios":"levelo://app?vid=4a9a978a-712d-4a16-907b-c03240f6abbd"},"vehicle_type_id":"4","last_reported":1758640188,"current_range_meters":18800,"station_id":"cpo3342slgdg3j2ifvpg","pricing_plan_id":"cebpf4jnsgd1na2vs0mg"},{"bike_id":"49e6a18d-789e-45d3-b7b3-949e4cc792bb","system_id":"levelo_inurba_marseille","lat":43.22564,"lon":5.41627,"is_reserved":false,"is_disabled":false,"rental_uris":{"android":"levelo://app?vid=49e6a18d-789e-45d3-b7b3-949e4cc792bb","ios":"levelo://app?vid=49e6a18d-789e-45d3-b7b3-949e4cc792bb"},"vehicle_type_id":"4","last_reported":1758640188,"current_range_meters":18800,"station_id":"st_d2o4gvlbi1j2169b742g","pricing_plan_id":"cebpf4jnsgd1na2vs0mg"},{"bike_id":"36e14a01-13aa-45ae-8743-fe096043a807","system_id":"levelo_inurba_marseille","lat":43.324862,"lon":5.365691,"is_reserved":false,"is_disabled":false,"rental_uris":{"android":"levelo://app?vid=36e14a01-13aa-45ae-8743-fe096043a807","ios":"levelo://app?vid=36e14a01-13aa-45ae-8743-fe096043a807"},"vehicle_type_id":"4","last_reported":1758640188,"current_range_meters":18800,"station_id":"ce4bhs12rcd13ifvqhvg","pricing_plan_id":"cebpf4jnsgd1na2vs0mg"},{"bike_id":"ef67eb60-7f0f-4bb0-a61e-eb339eb2bb2d","system_id":"levelo_inurba_marseille","lat":43.30157,"lon":5.38099,"is_reserved":false,"is_disabled":false,"rental_uris":{"android":"levelo://app?vid=ef67eb60-7f0f-4bb0-a61e-eb339eb2bb2d","ios":"levelo://app?vid=ef67eb60-7f0f-4bb0-a61e-eb339eb2bb2d"},"vehicle_type_id":"4","last_reported":1758640188,"current_range_meters":18800,"station_id":"ce4bgjp2rcd13ifvqbh0","pricing_plan_id":"cebpf4jnsgd1na2vs0mg"},{"bike_id":"3a48524e-176a-4a41-bf55-b6ae7c0e5f91","system_id":"levelo_inurba_marseille","lat":43.3031,"lon":5.36895,"is_reserved":false,"is_disabled":false,"rental_uris":{"android":"levelo://app?vid=3a48524e-176a-4a41-bf55-b6ae7c0e5f91","ios":"levelo://app?vid=3a48524e-176a-4a41-bf55-b6ae7c0e5f91"},"vehicle_type_id":"4","last_reported":1758640188,"current_range_meters":18800,"station_id":"ce4bgqh2rcd13ifvqc5g","pricing_plan_id":"cebpf4jnsgd1na2vs0mg"},{"bike_id":"e2017298-7010-4fcc-9644-9ccfb0f46125","system_id":"levelo_inurba_marseille","lat":43.30105,"lon":5.41522,"is_reserved":false,"is_disabled":false,"rental_uris":{"android":"levelo://app?vid=e2017298-7010-4fcc-9644-9ccfb0f46125","ios":"levelo://app?vid=e2017298-7010-4fcc-9644-9ccfb0f46125"},"vehicle_type_id":"4","last_reported":1758640188,"current_range_meters":18800,"station_id":"","pricing_plan_id":"cebpf4jnsgd1na2vs0mg"},{"bike_id":"57df9e0b-2851-424c-9fa9-29e8ab85fcf9","system_id":"levelo_inurba_marseille","lat":43.28725,"lon":5.37949,"is_reserved":false,"is_disabled":false,"rental_uris":{"android":"levelo://app?vid=57df9e0b-2851-424c-9fa9-29e8ab85fcf9","ios":"levelo://app?vid=57df9e0b-2851-424c-9fa9-29e8ab85fcf9"},"vehicle_type_id":"4","last_reported":1758640188,"current_range_meters":18800,"station_id":"ce4bh9p2rcd13ifvqec0","pricing_plan_id":"cebpf4jnsgd1na2vs0mg"},{"bike_id":"8c0227e3-55e8-4994-aa0c-9b6ee99b7e26","system_id":"levelo_inurba_marseille","lat":43.23036,"lon":5.35503,"is_reserved":false,"is_disabled":false,"rental_uris":{"android":"levelo://app?vid=8c0227e3-55e8-4994-aa0c-9b6ee99b7e26","ios":"levelo://app?vid=8c0227e3-55e8-4994-aa0c-9b6ee99b7e26"},"vehicle_type_id":"4","last_reported":1758640188,"current_range_meters":19200,"station_id":"cpo3342slgdg3j2ifvpg","pricing_plan_id":"cebpf4jnsgd1na2vs0mg"},{"bike_id":"1b8e4c2d-e7e7-47de-bd66-d5d0e6c8f37e","system_id":"levelo_inurba_marseille","lat":43.265682,"lon":5.403256,"is_reserved":false,"is_disabled":false,"rental_uris":{"android":"levelo://app?vid=1b8e4c2d-e7e7-47de-bd66-d5d0e6c8f37e","ios":"levelo://app?vid=1b8e4c2d-e7e7-47de-bd66-d5d0e6c8f37e"},"vehicle_type_id":"4","last_reported":1758640188,"current_range_meters":19200,"station_id":"ce4bhmp2rcd13ifvqgng","pricing_plan_id":"cebpf4jnsgd1na2vs0mg"},{"bike_id":"57b14c92-2a17-45b3-beb1-cbb460ef441b","system_id":"levelo_inurba_marseille","lat":43.23186,"lon":5.39984,"is_reserved":false,"is_disabled":false,"rental_uris":{"android":"levelo://app?vid=57b14c92-2a17-45b3-beb1-cbb460ef441b","ios":"levelo://app?vid=57b14c92-2a17-45b3-beb1-cbb460ef441b"},"vehicle_type_id":"4","last_reported":1758640188,"current_range_meters":19200,"station_id":"ce4bhn12rcd13ifvqgqg","pricing_plan_id":"cebpf4jnsgd1na2vs0mg"},{"bike_id":"574fbd75-2e98-423b-b672-ce8c03a83b5c","system_id":"levelo_inurba_marseille","lat":43.28489,"lon":5.37907,"is_reserved":false,"is_disabled":false,"rental_uris":{"android":"levelo://app?vid=574fbd75-2e98-423b-b672-ce8c03a83b5c","ios":"levelo://app?vid=574fbd75-2e98-423b-b672-ce8c03a83b5c"},"vehicle_type_id":"4","last_reported":1758640188,"current_range_meters":19200,"station_id":"","pricing_plan_id":"cebpf4jnsgd1na2vs0mg"},{"bike_id":"5bf42e8d-f9a3-45d8-91b7-f7afea840791","system_id":"levelo_inurba_marseille","lat":43.33777,"lon":5.37426,"is_reserved":false,"is_disabled":false,"rental_uris":{"android":"levelo://app?vid=5bf42e8d-f9a3-45d8-91b7-f7afea840791","ios":"levelo://app?vid=5bf42e8d-f9a3-45d8-91b7-f7afea840791"},"vehicle_type_id":"4","last_reported":1758640188,"current_range_meters":19200,"station_id":"","pricing_plan_id":"cebpf4jnsgd1na2vs0mg"},{"bike_id":"034ec8e6-228f-4496-a896-7b79ac024d0b","system_id":"levelo_inurba_marseille","lat":43.32042,"lon":5.41541,"is_reserved":false,"is_disabled":false,"rental_uris":{"android":"levelo://app?vid=034ec8e6-228f-4496-a896-7b79ac024d0b","ios":"levelo://app?vid=034ec8e6-228f-4496-a896-7b79ac024d0b"},"vehicle_type_id":"4","last_reported":1758640188,"current_range_meters":19200,"station_id":"ce4bhq92rcd13ifvqhkg","pricing_plan_id":"cebpf4jnsgd1na2vs0mg"},{"bike_id":"a40cd6b6-c1b1-46dc-9ea9-da40c1111ce2","system_id":"levelo_inurba_marseille","lat":43.29885,"lon":5.39725,"is_reserved":false,"is_disabled":false,"rental_uris":{"android":"levelo://app?vid=a40cd6b6-c1b1-46dc-9ea9-da40c1111ce2","ios":"levelo://app?vid=a40cd6b6-c1b1-46dc-9ea9-da40c1111ce2"},"vehicle_type_id":"4","last_reported":1758640188,"current_range_meters":19200,"station_id":"ce4bh0h2rcd13ifvqd50","pricing_plan_id":"cebpf4jnsgd1na2vs0mg"},{"bike_id":"9f02ba01-0329-4086-a6c6-167d2abf5edb","system_id":"levelo_inurba_marseille","lat":43.30956,"lon":5.39035,"is_reserved":false,"is_disabled":false,"rental_uris":{"android":"levelo://app?vid=9f02ba01-0329-4086-a6c6-167d2abf5edb","ios":"levelo://app?vid=9f02ba01-0329-4086-a6c6-167d2abf5edb"},"vehicle_type_id":"4","last_reported":1758640188,"current_range_meters":19600,"station_id":"ce4bgup2rcd13ifvqco0","pricing_plan_id":"cebpf4jnsgd1na2vs0mg"},{"bike_id":"3cb1dae7-6bcd-41e5-b1b7-c1d25c751a99","system_id":"levelo_inurba_marseille","lat":43.337594,"lon":5.374419,"is_reserved":false,"is_disabled":false,"rental_uris":{"android":"levelo://app?vid=3cb1dae7-6bcd-41e5-b1b7-c1d25c751a99","ios":"levelo://app?vid=3cb1dae7-6bcd-41e5-b1b7-c1d25c751a99"},"vehicle_type_id":"4","last_reported":1758640188,"current_range_meters":19600,"station_id":"","pricing_plan_id":"cebpf4jnsgd1na2vs0mg"},{"bike_id":"92085d91-3c17-49c3-8fcd-43f1ab4d0615","system_id":"levelo_inurba_marseille","lat":43.22928,"lon":5.35382,"is_reserved":false,"is_disabled":false,"rental_uris":{"android":"levelo://app?vid=92085d91-3c17-49c3-8fcd-43f1ab4d0615","ios":"levelo://app?vid=92085d91-3c17-49c3-8fcd-43f1ab4d0615"},"vehicle_type_id":"4","last_reported":1758640188,"current_range_meters":19600,"station_id":"cpo3532slgdg3j2ikp40","pricing_plan_id":"cebpf4jnsgd1na2vs0mg"},{"bike_id":"2a00266f-777c-4336-a84c-6b25abb48060","system_id":"levelo_inurba_marseille","lat":43.31323,"lon":5.3969,"is_reserved":false,"is_disabled":false,"rental_uris":{"android":"levelo://app?vid=2a00266f-777c-4336-a84c-6b25abb48060","ios":"levelo://app?vid=2a00266f-777c-4336-a84c-6b25abb48060"},"vehicle_type_id":"4","last_reported":1758640188,"current_range_meters":19600,"station_id":"ce4bgvp2rcd13ifvqcu0","pricing_plan_id":"cebpf4jnsgd1na2vs0mg"},{"bike_id":"d236e490-4a5c-4408-833a-d41923de71f8","system_id":"levelo_inurba_marseille","lat":43.2938,"lon":5.37851,"is_reserved":false,"is_disabled":false,"rental_uris":{"android":"levelo://app?vid=d236e490-4a5c-4408-833a-d41923de71f8","ios":"levelo://app?vid=d236e490-4a5c-4408-833a-d41923de71f8"},"vehicle_type_id":"4","last_reported":1758640188,"current_range_meters":19600,"station_id":"ce4bgjh2rcd13ifvqbf0","pricing_plan_id":"cebpf4jnsgd1na2vs0mg"},{"bike_id":"7ad1a1ce-caba-482f-9c36-926089f8e14c","system_id":"levelo_inurba_marseille","lat":43.29895,"lon":5.43671,"is_reserved":false,"is_disabled":false,"rental_uris":{"android":"levelo://app?vid=7ad1a1ce-caba-482f-9c36-926089f8e14c","ios":"levelo://app?vid=7ad1a1ce-caba-482f-9c36-926089f8e14c"},"vehicle_type_id":"4","last_reported":1758640188,"current_range_meters":19600,"station_id":"ce4bhpp2rcd13ifvqhfg","pricing_plan_id":"cebpf4jnsgd1na2vs0mg"},{"bike_id":"79e4e131-a021-4c2d-86ea-e4feeaa3a460","system_id":"levelo_inurba_marseille","lat":43.21719,"lon":5.34637,"is_reserved":false,"is_disabled":false,"rental_uris":{"android":"levelo://app?vid=79e4e131-a021-4c2d-86ea-e4feeaa3a460","ios":"levelo://app?vid=79e4e131-a021-4c2d-86ea-e4feeaa3a460"},"vehicle_type_id":"4","last_reported":1758640188,"current_range_meters":19600,"station_id":"st_cvj6r9ubvosntc0bgbag","pricing_plan_id":"cebpf4jnsgd1na2vs0mg"},{"bike_id":"aad9a2e7-ac85-4e77-b7cf-306e366e5ad5","system_id":"levelo_inurba_marseille","lat":43.21198,"lon":5.35063,"is_reserved":false,"is_disabled":false,"rental_uris":{"android":"levelo://app?vid=aad9a2e7-ac85-4e77-b7cf-306e366e5ad5","ios":"levelo://app?vid=aad9a2e7-ac85-4e77-b7cf-306e366e5ad5"},"vehicle_type_id":"4","last_reported":1758640188,"current_range_meters":19600,"station_id":"st_cvj6sg6p6f1abm77japg","pricing_plan_id":"cebpf4jnsgd1na2vs0mg"},{"bike_id":"e19472f1-87e0-4943-97f3-e785d2a10054","system_id":"levelo_inurba_marseille","lat":43.288622,"lon":5.425205,"is_reserved":false,"is_disabled":false,"rental_uris":{"android":"levelo://app?vid=e19472f1-87e0-4943-97f3-e785d2a10054","ios":"levelo://app?vid=e19472f1-87e0-4943-97f3-e785d2a10054"},"vehicle_type_id":"4","last_reported":1758640188,"current_range_meters":19600,"station_id":"","pricing_plan_id":"cebpf4jnsgd1na2vs0mg"},{"bike_id":"5fb726be-412e-4b65-b587-9d991ba40c42","system_id":"levelo_inurba_marseille","lat":43.211945,"lon":5.350741,"is_reserved":false,"is_disabled":false,"rental_uris":{"android":"levelo://app?vid=5fb726be-412e-4b65-b587-9d991ba40c42","ios":"levelo://app?vid=5fb726be-412e-4b65-b587-9d991ba40c42"},"vehicle_type_id":"4","last_reported":1758640188,"current_range_meters":19600,"station_id":"ce4bhi12rcd13ifvqfp0","pricing_plan_id":"cebpf4jnsgd1na2vs0mg"},{"bike_id":"327c041e-5c9e-4b0d-a97c-a2dbaab036ae","system_id":"levelo_inurba_marseille","lat":43.32646,"lon":5.41041,"is_reserved":false,"is_disabled":false,"rental_uris":{"android":"levelo://app?vid=327c041e-5c9e-4b0d-a97c-a2dbaab036ae","ios":"levelo://app?vid=327c041e-5c9e-4b0d-a97c-a2dbaab036ae"},"vehicle_type_id":"4","last_reported":1758640188,"current_range_meters":20000,"station_id":"ce4bhpp2rcd13ifvqhgg","pricing_plan_id":"cebpf4jnsgd1na2vs0mg"},{"bike_id":"7c128555-23df-4cc9-a2ef-6f4cd89c4b84","system_id":"levelo_inurba_marseille","lat":43.32371,"lon":5.3888,"is_reserved":false,"is_disabled":false,"rental_uris":{"android":"levelo://app?vid=7c128555-23df-4cc9-a2ef-6f4cd89c4b84","ios":"levelo://app?vid=7c128555-23df-4cc9-a2ef-6f4cd89c4b84"},"vehicle_type_id":"4","last_reported":1758640188,"current_range_meters":20000,"station_id":"ce4bhqp2rcd13ifvqhog","pricing_plan_id":"cebpf4jnsgd1na2vs0mg"},{"bike_id":"d448b74b-b8f7-4053-955b-1df9c58f6926","system_id":"levelo_inurba_marseille","lat":43.27867,"lon":5.38532,"is_reserved":false,"is_disabled":false,"rental_uris":{"android":"levelo://app?vid=d448b74b-b8f7-4053-955b-1df9c58f6926","ios":"levelo://app?vid=d448b74b-b8f7-4053-955b-1df9c58f6926"},"vehicle_type_id":"4","last_reported":1758640188,"current_range_meters":20000,"station_id":"","pricing_plan_id":"cebpf4jnsgd1na2vs0mg"},{"bike_id":"3a1acebe-00c6-417b-a047-68acf6e1275c","system_id":"levelo_inurba_marseille","lat":43.28616,"lon":5.35102,"is_reserved":false,"is_disabled":false,"rental_uris":{"android":"levelo://app?vid=3a1acebe-00c6-417b-a047-68acf6e1275c","ios":"levelo://app?vid=3a1acebe-00c6-417b-a047-68acf6e1275c"},"vehicle_type_id":"4","last_reported":1758640188,"current_range_meters":20000,"station_id":"ce4bhch2rcd13ifvqeug","pricing_plan_id":"cebpf4jnsgd1na2vs0mg"},{"bike_id":"c463f13d-18aa-4cce-aae0-b736ec15f63d","system_id":"levelo_inurba_marseille","lat":43.24175,"lon":5.39732,"is_reserved":false,"is_disabled":false,"rental_uris":{"android":"levelo://app?vid=c463f13d-18aa-4cce-aae0-b736ec15f63d","ios":"levelo://app?vid=c463f13d-18aa-4cce-aae0-b736ec15f63d"},"vehicle_type_id":"4","last_reported":1758640188,"current_range_meters":20000,"station_id":"ce4bhn12rcd13ifvqgpg","pricing_plan_id":"cebpf4jnsgd1na2vs0mg"},{"bike_id":"5fe1b047-1fb2-4a31-bd87-32d844a75c2e","system_id":"levelo_inurba_marseille","lat":43.30785,"lon":5.3817,"is_reserved":false,"is_disabled":false,"rental_uris":{"android":"levelo://app?vid=5fe1b047-1fb2-4a31-bd87-32d844a75c2e","ios":"levelo://app?vid=5fe1b047-1fb2-4a31-bd87-32d844a75c2e"},"vehicle_type_id":"4","last_reported":1758640188,"current_range_meters":20000,"station_id":"ce4bgt12rcd13ifvqce0","pricing_plan_id":"cebpf4jnsgd1na2vs0mg"},{"bike_id":"189e953a-f0f5-4c03-b7b5-2321dcc67751","system_id":"levelo_inurba_marseille","lat":43.29533,"lon":5.39044,"is_reserved":false,"is_disabled":true,"rental_uris":{"android":"levelo://app?vid=189e953a-f0f5-4c03-b7b5-2321dcc67751","ios":"levelo://app?vid=189e953a-f0f5-4c03-b7b5-2321dcc67751"},"vehicle_type_id":"4","last_reported":1758640188,"current_range_meters":20000,"station_id":"ce4bh3p2rcd13ifvqdp0","pricing_plan_id":"cebpf4jnsgd1na2vs0mg"},{"bike_id":"178af37d-dd54-4cf7-b80a-b996e0f2a163","system_id":"levelo_inurba_marseille","lat":43.212122,"lon":5.350544,"is_reserved":false,"is_disabled":false,"rental_uris":{"android":"levelo://app?vid=178af37d-dd54-4cf7-b80a-b996e0f2a163","ios":"levelo://app?vid=178af37d-dd54-4cf7-b80a-b996e0f2a163"},"vehicle_type_id":"4","last_reported":1758640188,"current_range_meters":20000,"station_id":"st_cvj6sg6p6f1abm77japg","pricing_plan_id":"cebpf4jnsgd1na2vs0mg"},{"bike_id":"2a01d6ea-8eba-4588-97cd-97a5bbd9bde4","system_id":"levelo_inurba_marseille","lat":43.30801,"lon":5.43524,"is_reserved":false,"is_disabled":false,"rental_uris":{"android":"levelo://app?vid=2a01d6ea-8eba-4588-97cd-97a5bbd9bde4","ios":"levelo://app?vid=2a01d6ea-8eba-4588-97cd-97a5bbd9bde4"},"vehicle_type_id":"4","last_reported":1758640188,"current_range_meters":20000,"station_id":"ce4bhph2rcd13ifvqheg","pricing_plan_id":"cebpf4jnsgd1na2vs0mg"},{"bike_id":"4d21f471-4ff3-4730-aa81-95b281d5d8d8","system_id":"levelo_inurba_marseille","lat":43.29903,"lon":5.38153,"is_reserved":false,"is_disabled":false,"rental_uris":{"android":"levelo://app?vid=4d21f471-4ff3-4730-aa81-95b281d5d8d8","ios":"levelo://app?vid=4d21f471-4ff3-4730-aa81-95b281d5d8d8"},"vehicle_type_id":"4","last_reported":1758640188,"current_range_meters":20000,"station_id":"","pricing_plan_id":"cebpf4jnsgd1na2vs0mg"},{"bike_id":"3d176c2b-dbe3-4175-aaf9-67070422659d","system_id":"levelo_inurba_marseille","lat":43.23187,"lon":5.39984,"is_reserved":false,"is_disabled":false,"rental_uris":{"android":"levelo://app?vid=3d176c2b-dbe3-4175-aaf9-67070422659d","ios":"levelo://app?vid=3d176c2b-dbe3-4175-aaf9-67070422659d"},"vehicle_type_id":"4","last_reported":1758640188,"current_range_meters":20000,"station_id":"ce4bhn12rcd13ifvqgqg","pricing_plan_id":"cebpf4jnsgd1na2vs0mg"},