{"last_updated":1728515414,"ttl":60,"version":"2.2","data":{"bikes":[{"bike_id":"a2bd2ac2-8d7c-42bc-81dd-ba46339fb444","system_id":"levelo_inurba_marseille","lat":43.28454,"lon":5.35887,"is_reserved":false,"is_disabled":false,"rental_uris":{"android":"levelo://app?vid=a2bd2ac2-8d7c-42bc-81dd-ba46339fb444","ios":"levelo://app?vid=a2bd2ac2-8d7c-42bc-81dd-ba46339fb444"},"vehicle_type_id":"4","last_reported":1728515414,"current_range_meters":32800,"station_id":"ce4bhah2rcd13ifvqei0","pricing_plan_id":"cebpf4jnsgd1na2vs0mg"},{"bike_id":"7bd4b68a-b529-41f5-9ff6-d227a655c295","system_id":"levelo_inurba_marseille","lat":43.29981,"lon":5.3717,"is_reserved":false,"is_disabled":false,"rental_uris":{"android":"levelo://app?vid=7bd4b68a-b529-41f5-9ff6-d227a655c295","ios":"levelo://app?vid=7bd4b68a-b529-41f5-9ff6-d227a655c295"},"vehicle_type_id":"4","last_reported":1728515414,"current_range_meters":37600,"station_id":"ce4bgr92rcd13ifvqc7g","pricing_plan_id":"cebpf4jnsgd1na2vs0mg"},{"bike_id":"958727b3-9b14-4569-929f-3df8861655e4","system_id":"levelo_inurba_marseille","lat":43.30314,"lon":5.36891,"is_reserved":false,"is_disabled":false,"rental_uris":{"android":"levelo://app?vid=958727b3-9b14-4569-929f-3df8861655e4","ios":"levelo://app?vid=958727b3-9b14-4569-929f-3df8861655e4"},"vehicle_type_id":"4","last_reported":1728515414,"current_range_meters":20000,"station_id":"ce4bgqh2rcd13ifvqc5g","pricing_plan_id":"cebpf4jnsgd1na2vs0mg"},{"bike_id":"fee2ea35-ed27-4505-8f23-2cced28f1db0","system_id":"levelo_inurba_marseille","lat":43.25106,"lon":5.403269,"is_reserved":false,"is_disabled":false,"rental_uris":{"android":"levelo://app?vid=fee2ea35-ed27-4505-8f23-2cced28f1db0","ios":"levelo://app?vid=fee2ea35-ed27-4505-8f23-2cced28f1db0"},"vehicle_type_id":"4","last_reported":1728515414,"current_range_meters":19600,"station_id":"ce4bhlh2rcd13ifvqgig","pricing_plan_id":"cebpf4jnsgd1na2vs0mg"},{"bike_id":"175d0b37-1f62-4442-b865-8d6671b50282","system_id":"levelo_inurba_marseille","lat":43.25112,"lon":5.40311,"is_reserved":false,"is_disabled":false,"rental_uris":{"android":"levelo://app?vid=175d0b37-1f62-4442-b865-8d6671b50282","ios":"levelo://app?vid=175d0b37-1f62-4442-b865-8d6671b50282"},"vehicle_type_id":"4","last_reported":1728515414,"current_range_meters":38400,"station_id":"ce4bhlh2rcd13ifvqgig","pricing_plan_id":"cebpf4jnsgd1na2vs0mg"},{"bike_id":"e3652cfb-9bca-4ba2-92f1-48859fff717a","system_id":"levelo_inurba_marseille","lat":43.31753,"lon":5.3902,"is_reserved":false,"is_disabled":false,"rental_uris":{"android":"levelo://app?vid=e3652cfb-9bca-4ba2-92f1-48859fff717a","ios":"levelo://app?vid=e3652cfb-9bca-4ba2-92f1-48859fff717a"},"vehicle_type_id":"4","last_reported":1728515414,"current_range_meters":28400,"station_id":"ce4bhqp2rcd13ifvqhng","pricing_plan_id":"cebpf4jnsgd1na2vs0mg"},{"bike_id":"6b8918a4-396b-43e5-9a7f-f056357bf660","system_id":"levelo_inurba_marseille","lat":43.23062,"lon":5.35485,"is_reserved":false,"is_disabled":false,"rental_uris":{"android":"levelo://app?vid=6b8918a4-396b-43e5-9a7f-f056357bf660","ios":"levelo://app?vid=6b8918a4-396b-43e5-9a7f-f056357bf660"},"vehicle_type_id":"4","last_reported":1728515414,"current_range_meters":6800,"station_id":"cpo3342slgdg3j2ifvpg","pricing_plan_id":"cebpf4jnsgd1na2vs0mg"},{"bike_id":"bd4ad83f-13a0-4c66-aacd-776103491349","system_id":"levelo_inurba_marseille","lat":43.313349,"lon":5.396862,"is_reserved":false,"is_disabled":false,"rental_uris":{"android":"levelo://app?vid=bd4ad83f-13a0-4c66-aacd-776103491349","ios":"levelo://app?vid=bd4ad83f-13a0-4c66-aacd-776103491349"},"vehicle_type_id":"4","last_reported":1728515414,"current_range_meters":38800,"station_id":"ce4bgvp2rcd13ifvqcu0","pricing_plan_id":"cebpf4jnsgd1na2vs0mg"},{"bike_id":"68abd3f4-ea69-49e2-bd08-d04468479980","system_id":"levelo_inurba_marseille","lat":43.3172,"lon":5.43702,"is_reserved":false,"is_disabled":false,"rental_uris":{"android":"levelo://app?vid=68abd3f4-ea69-49e2-bd08-d04468479980","ios":"levelo://app?vid=68abd3f4-ea69-49e2-bd08-d04468479980"},"vehicle_type_id":"4","last_reported":1728515414,"current_range_meters":38800,"station_id":"ce4bhp92rcd13ifvqhcg","pricing_plan_id":"cebpf4jnsgd1na2vs0mg"},{"bike_id":"77e290a6-a562-4dc9-937e-5dbc03e2c369","system_id":"levelo_inurba_marseille","lat":43.29966,"lon":5.41327,"is_reserved":false,"is_disabled":false,"rental_uris":{"android":"levelo://app?vid=77e290a6-a562-4dc9-937e-5dbc03e2c369","ios":"levelo://app?vid=77e290a6-a562-4dc9-937e-5dbc03e2c369"},"vehicle_type_id":"4","last_reported":1728515414,"current_range_meters":32000,"station_id":"ce4bhp12rcd13ifvqh9g","pricing_plan_id":"cebpf4jnsgd1na2vs0mg"},{"bike_id":"7617cfa0-a14e-4e61-abf9-717bfe4566d5","system_id":"levelo_inurba_marseille","lat":43.30929,"lon":5.40141,"is_reserved":false,"is_disabled":false,"rental_uris":{"android":"levelo://app?vid=7617cfa0-a14e-4e61-abf9-717bfe4566d5","ios":"levelo://app?vid=7617cfa0-a14e-4e61-abf9-717bfe4566d5"},"vehicle_type_id":"4","last_reported":1728515414,"current_range_meters":32800,"station_id":"ce4bgvp2rcd13ifvqct0","pricing_plan_id":"cebpf4jnsgd1na2vs0mg"},{"bike_id":"181bc3f9-5dc1-41fb-9475-9d82bd0181a4","system_id":"levelo_inurba_marseille","lat":43.28454,"lon":5.359,"is_reserved":false,"is_disabled":false,"rental_uris":{"android":"levelo://app?vid=181bc3f9-5dc1-41fb-9475-9d82bd0181a4","ios":"levelo://app?vid=181bc3f9-5dc1-41fb-9475-9d82bd0181a4"},"vehicle_type_id":"4","last_reported":1728515414,"current_range_meters":27600,"station_id":"ce4bhah2rcd13ifvqei0","pricing_plan_id":"cebpf4jnsgd1na2vs0mg"},{"bike_id":"ad67e678-9d45-46ed-ac42-adb08875a9cb","system_id":"levelo_inurba_marseille","lat":43.30417,"lon":5.41278,"is_reserved":false,"is_disabled":false,"rental_uris":{"android":"levelo://app?vid=ad67e678-9d45-46ed-ac42-adb08875a9cb","ios":"levelo://app?vid=ad67e678-9d45-46ed-ac42-adb08875a9cb"},"vehicle_type_id":"4","last_reported":1728515414,"current_range_meters":28400,"station_id":"ce4bhop2rcd13ifvqh8g","pricing_plan_id":"cebpf4jnsgd1na2vs0mg"},{"bike_id":"10adf6ac-8a26-424b-bce6-67370c8dfb5b","system_id":"levelo_inurba_marseille","lat":43.31996,"lon":5.38134,"is_reserved":false,"is_disabled":false,"rental_uris":{"android":"levelo://app?vid=10adf6ac-8a26-424b-bce6-67370c8dfb5b","ios":"levelo://app?vid=10adf6ac-8a26-424b-bce6-67370c8dfb5b"},"vehicle_type_id":"4","last_reported":1728515414,"current_range_meters":32800,"station_id":"ce4bhr12rcd13ifvqhpg","pricing_plan_id":"cebpf4jnsgd1na2vs0mg"},{"bike_id":"8403b6ff-9dff-4073-86ab-6deb751f661f","system_id":"levelo_inurba_marseille","lat":43.31759,"lon":5.39016,"is_reserved":false,"is_disabled":false,"rental_uris":{"android":"levelo://app?vid=8403b6ff-9dff-4073-86ab-6deb751f661f","ios":"levelo://app?vid=8403b6ff-9dff-4073-86ab-6deb751f661f"},"vehicle_type_id":"4","last_reported":1728515414,"current_range_meters":38800,"station_id":"ce4bhqp2rcd13ifvqhng","pricing_plan_id":"cebpf4jnsgd1na2vs0mg"},{"bike_id":"b455c8d3-6738-4111-b798-46efda99c302","system_id":"levelo_inurba_marseille","lat":43.28842,"lon":5.35832,"is_reserved":false,"is_disabled":false,"rental_uris":{"android":"levelo://app?vid=b455c8d3-6738-4111-b798-46efda99c302","ios":"levelo://app?vid=b455c8d3-6738-4111-b798-46efda99c302"},"vehicle_type_id":"4","last_reported":1728515414,"current_range_meters":38800,"station_id":"ce4bhb12rcd13ifvqem0","pricing_plan_id":"cebpf4jnsgd1na2vs0mg"},{"bike_id":"ab14fd6b-7ac0-4c4e-98cb-dd24c0559b1f","system_id":"levelo_inurba_marseille","lat":43.3019,"lon":5.36612,"is_reserved":false,"is_disabled":false,"rental_uris":{"android":"levelo://app?vid=ab14fd6b-7ac0-4c4e-98cb-dd24c0559b1f","ios":"levelo://app?vid=ab14fd6b-7ac0-4c4e-98cb-dd24c0559b1f"},"vehicle_type_id":"4","last_reported":1728515414,"current_range_meters":12000,"station_id":"ce4bgrh2rcd13ifvqc8g","pricing_plan_id":"cebpf4jnsgd1na2vs0mg"},{"bike_id":"76ec85ce-c9ca-4dc4-abf7-5ce9bc6d1130","system_id":"levelo_inurba_marseille","lat":43.24076,"lon":5.37762,"is_reserved":false,"is_disabled":false,"rental_uris":{"android":"levelo://app?vid=76ec85ce-c9ca-4dc4-abf7-5ce9bc6d1130","ios":"levelo://app?vid=76ec85ce-c9ca-4dc4-abf7-5ce9bc6d1130"},"vehicle_type_id":"4","last_reported":1728515414,"current_range_meters":4400,"station_id":"ce4bhnp2rcd13ifvqgvg","pricing_plan_id":"cebpf4jnsgd1na2vs0mg"},{"bike_id":"2dcf4281-f59d-47fa-8911-4ecb8c67ef1a","system_id":"levelo_inurba_marseille","lat":43.24642,"lon":5.38893,"is_reserved":false,"is_disabled":false,"rental_uris":{"android":"levelo://app?vid=2dcf4281-f59d-47fa-8911-4ecb8c67ef1a","ios":"levelo://app?vid=2dcf4281-f59d-47fa-8911-4ecb8c67ef1a"},"vehicle_type_id":"4","last_reported":1728515414,"current_range_meters":37600,"station_id":"ce4bhg12rcd13ifvqf60","pricing_plan_id":"cebpf4jnsgd1na2vs0mg"},{"bike_id":"64c9abdc-a744-4b43-9856-a64e8ee5db15","system_id":"levelo_inurba_marseille","lat":43.23065,"lon":5.35484,"is_reserved":false,"is_disabled":false,"rental_uris":{"android":"levelo://app?vid=64c9abdc-a744-4b43-9856-a64e8ee5db15","ios":"levelo://app?vid=64c9abdc-a744-4b43-9856-a64e8ee5db15"},"vehicle_type_id":"4","last_reported":1728515414,"current_range_meters":36400,"station_id":"cpo3342slgdg3j2ifvpg","pricing_plan_id":"cebpf4jnsgd1na2vs0mg"},{"bike_id":"ad88bab3-ae9d-4dc1-aec4-3ab53e3b6e4b","system_id":"levelo_inurba_marseille","lat":43.26789,"lon":5.39409,"is_reserved":false,"is_disabled":false,"rental_uris":{"android":"levelo://app?vid=ad88bab3-ae9d-4dc1-aec4-3ab53e3b6e4b","ios":"levelo://app?vid=ad88bab3-ae9d-4dc1-aec4-3ab53e3b6e4b"},"vehicle_type_id":"4","last_reported":1728515414,"current_range_meters":32000,"station_id":"ce4bhh12rcd13ifvqfg0","pricing_plan_id":"cebpf4jnsgd1na2vs0mg"},{"bike_id":"ee13ff47-d32a-4573-9002-5f5c7377f628","system_id":"levelo_inurba_marseille","lat":43.30535,"lon":5.36716,"is_reserved":false,"is_disabled":false,"rental_uris":{"android":"levelo://app?vid=ee13ff47-d32a-4573-9002-5f5c7377f628","ios":"levelo://app?vid=ee13ff47-d32a-4573-9002-5f5c7377f628"},"vehicle_type_id":"4","last_reported":1728515414,"current_range_meters":21600,"station_id":"ce4bgrp2rcd13ifvqc9g","pricing_plan_id":"cebpf4jnsgd1na2vs0mg"},{"bike_id":"cdc54f35-60ba-419d-9cd7-57190d56bf8c","system_id":"levelo_inurba_marseille","lat":43.28152,"lon":5.42649,"is_reserved":false,"is_disabled":false,"rental_uris":{"android":"levelo://app?vid=cdc54f35-60ba-419d-9cd7-57190d56bf8c","ios":"levelo://app?vid=cdc54f35-60ba-419d-9cd7-57190d56bf8c"},"vehicle_type_id":"4","last_reported":1728515414,"current_range_meters":8800,"station_id":"ce4bhnh2rcd13ifvqgug","pricing_plan_id":"cebpf4jnsgd1na2vs0mg"},{"bike_id":"f6b27bed-618d-42ed-99d0-10a218b8b9e8","system_id":"levelo_inurba_marseille","lat":43.26191,"lon":5.37451,"is_reserved":false,"is_disabled":false,"rental_uris":{"android":"levelo://app?vid=f6b27bed-618d-42ed-99d0-10a218b8b9e8","ios":"levelo://app?vid=f6b27bed-618d-42ed-99d0-10a218b8b9e8"},"vehicle_type_id":"4","last_reported":1728515414,"current_range_meters":26000,"station_id":"ce4bhgp2rcd13ifvqfc0","pricing_plan_id":"cebpf4jnsgd1na2vs0mg"},{"bike_id":"bb95532b-17bc-482b-ab15-99455c538354","system_id":"levelo_inurba_marseille","lat":43.24184,"lon":5.39711,"is_reserved":false,"is_disabled":false,"rental_uris":{"android":"levelo://app?vid=bb95532b-17bc-482b-ab15-99455c538354","ios":"levelo://app?vid=bb95532b-17bc-482b-ab15-99455c538354"},"vehicle_type_id":"4","last_reported":1728515414,"current_range_meters":38400,"station_id":"ce4bhn12rcd13ifvqgpg","pricing_plan_id":"cebpf4jnsgd1na2vs0mg"},{"bike_id":"1cf30988-537f-4994-bb7e-5c9e391fa0f6","system_id":"levelo_inurba_marseille","lat":43.31272,"lon":5.40164,"is_reserved":false,"is_disabled":false,"rental_uris":{"android":"levelo://app?vid=1cf30988-537f-4994-bb7e-5c9e391fa0f6","ios":"levelo://app?vid=1cf30988-537f-4994-bb7e-5c9e391fa0f6"},"vehicle_type_id":"4","last_reported":1728515414,"current_range_meters":35200,"station_id":"ce4bh092rcd13ifvqd30","pricing_plan_id":"cebpf4jnsgd1na2vs0mg"},{"bike_id":"c63e83de-f5b0-4819-8f01-392a7912c20e","system_id":"levelo_inurba_marseille","lat":43.2573,"lon":5.41112,"is_reserved":false,"is_disabled":false,"rental_uris":{"android":"levelo://app?vid=c63e83de-f5b0-4819-8f01-392a7912c20e","ios":"levelo://app?vid=c63e83de-f5b0-4819-8f01-392a7912c20e"},"vehicle_type_id":"4","last_reported":1728515414,"current_range_meters":6800,"station_id":"ce4bhkp2rcd13ifvqgd0","pricing_plan_id":"cebpf4jnsgd1na2vs0mg"},{"bike_id":"f938f965-cdc0-4b98-a6d0-3a61f15e582a","system_id":"levelo_inurba_marseille","lat":43.27496,"lon":5.42446,"is_reserved":false,"is_disabled":false,"rental_uris":{"android":"levelo://app?vid=f938f965-cdc0-4b98-a6d0-3a61f15e582a","ios":"levelo://app?vid=f938f965-cdc0-4b98-a6d0-3a61f15e582a"},"vehicle_type_id":"4","last_reported":1728515414,"current_range_meters":38800,"station_id":"ce4bhn92rcd13ifvqgrg","pricing_plan_id":"cebpf4jnsgd1na2vs0mg"},{"bike_id":"058ef1ff-5858-4a6d-965f-98aeb9455f88","system_id":"levelo_inurba_marseille","lat":43.31754,"lon":5.39025,"is_reserved":false,"is_disabled":false,"rental_uris":{"android":"levelo://app?vid=058ef1ff-5858-4a6d-965f-98aeb9455f88","ios":"levelo://app?vid=058ef1ff-5858-4a6d-965f-98aeb9455f88"},"vehicle_type_id":"4","last_reported":1728515414,"current_range_meters":36000,"station_id":"ce4bhqp2rcd13ifvqhng","pricing_plan_id":"cebpf4jnsgd1na2vs0mg"},{"bike_id":"96a4c2d4-3924-4e15-9199-55d0360793e1","system_id":"levelo_inurba_marseille","lat":43.28152,"lon":5.42644,"is_reserved":false,"is_disabled":false,"rental_uris":{"android":"levelo://app?vid=96a4c2d4-3924-4e15-9199-55d0360793e1","ios":"levelo://app?vid=96a4c2d4-3924-4e15-9199-55d0360793e1"},"vehicle_type_id":"4","last_reported":1728515414,"current_range_meters":38800,"station_id":"ce4bhnh2rcd13ifvqgug","pricing_plan_id":"cebpf4jnsgd1na2vs0mg"},{"bike_id":"d1185078-9e95-4b86-9254-2e54ada24b16","system_id":"levelo_inurba_marseille","lat":43.29634,"lon":5.40604,"is_reserved":false,"is_disabled":false,"rental_uris":{"android":"levelo://app?vid=d1185078-9e95-4b86-9254-2e54ada24b16","ios":"levelo://app?vid=d1185078-9e95-4b86-9254-2e54ada24b16"},"vehicle_type_id":"4","last_reported":1728515414,"current_range_meters":17200,"station_id":"ce4bh0h2rcd13ifvqd60","pricing_plan_id":"cebpf4jnsgd1na2vs0mg"},{"bike_id":"a64979e6-0053-4861-81e5-3c931f348c4c","system_id":"levelo_inurba_marseille","lat":43.32368,"lon":5.38879,"is_reserved":false,"is_disabled":false,"rental_uris":{"android":"levelo://app?vid=a64979e6-0053-4861-81e5-3c931f348c4c","ios":"levelo://app?vid=a64979e6-0053-4861-81e5-3c931f348c4c"},"vehicle_type_id":"4","last_reported":1728515414,"current_range_meters":9600,"station_id":"ce4bhqp2rcd13ifvqhog","pricing_plan_id":"cebpf4jnsgd1na2vs0mg"},{"bike_id":"b733a883-51df-477b-b70f-a3ed4921fe98","system_id":"levelo_inurba_marseille","lat":43.30885,"lon":5.39642,"is_reserved":false,"is_disabled":false,"rental_uris":{"android":"levelo://app?vid=b733a883-51df-477b-b70f-a3ed4921fe98","ios":"levelo://app?vid=b733a883-51df-477b-b70f-a3ed4921fe98"},"vehicle_type_id":"4","last_reported":1728515414,"current_range_meters":38800,"station_id":"ce4bh012rcd13ifvqcv0","pricing_plan_id":"cebpf4jnsgd1na2vs0mg"},{"bike_id":"f8a162ab-4b66-4bc7-8984-b44abdaf2e30","system_id":"levelo_inurba_marseille","lat":43.24648,"lon":5.38895,"is_reserved":false,"is_disabled":false,"rental_uris":{"android":"levelo://app?vid=f8a162ab-4b66-4bc7-8984-b44abdaf2e30","ios":"levelo://app?vid=f8a162ab-4b66-4bc7-8984-b44abdaf2e30"},"vehicle_type_id":"4","last_reported":1728515414,"current_range_meters":38000,"station_id":"ce4bhg12rcd13ifvqf60","pricing_plan_id":"cebpf4jnsgd1na2vs0mg"},{"bike_id":"616ce056-1257-48d1-98c4-3dba436e9d50","system_id":"levelo_inurba_marseille","lat":43.31701,"lon":5.37739,"is_reserved":false,"is_disabled":false,"rental_uris":{"android":"levelo://app?vid=616ce056-1257-48d1-98c4-3dba436e9d50","ios":"levelo://app?vid=616ce056-1257-48d1-98c4-3dba436e9d50"},"vehicle_type_id":"4","last_reported":1728515414,"current_range_meters":38800,"station_id":"ce4bgth2rcd13ifvqch0","pricing_plan_id":"cebpf4jnsgd1na2vs0mg"},{"bike_id":"b06fcd11-aac7-4396-a925-90e5a4df45df","system_id":"levelo_inurba_marseille","lat":43.30325,"lon":5.40441,"is_reserved":false,"is_disabled":false,"rental_uris":{"android":"levelo://app?vid=b06fcd11-aac7-4396-a925-90e5a4df45df","ios":"levelo://app?vid=b06fcd11-aac7-4396-a925-90e5a4df45df"},"vehicle_type_id":"4","last_reported":1728515414,"current_range_meters":38800,"station_id":"ce4bh012rcd13ifvqd10","pricing_plan_id":"cebpf4jnsgd1na2vs0mg"},{"bike_id":"0fc1ebfe-0ef8-4da4-9f7b-9fc488cf19bc","system_id":"levelo_inurba_marseille","lat":43.23189,"lon":5.39986,"is_reserved":false,"is_disabled":false,"rental_uris":{"android":"levelo://app?vid=0fc1ebfe-0ef8-4da4-9f7b-9fc488cf19bc","ios":"levelo://app?vid=0fc1ebfe-0ef8-4da4-9f7b-9fc488cf19bc"},"vehicle_type_id":"4","last_reported":1728515414,"current_range_meters":38000,"station_id":"ce4bhn12rcd13ifvqgqg","pricing_plan_id":"cebpf4jnsgd1na2vs0mg"},{"bike_id":"f0e5536d-7f2c-412e-889a-b23f144f553a","system_id":"levelo_inurba_marseille","lat":43.3153,"lon":5.38034,"is_reserved":false,"is_disabled":false,"rental_uris":{"android":"levelo://app?vid=f0e5536d-7f2c-412e-889a-b23f144f553a","ios":"levelo://app?vid=f0e5536d-7f2c-412e-889a-b23f144f553a"},"vehicle_type_id":"4","last_reported":1728515414,"current_range_meters":38800,"station_id":"ce4bhsp2rcd13ifvqi50","pricing_plan_id":"cebpf4jnsgd1na2vs0mg"},{"bike_id":"23bfb95b-639b-4798-a27e-58c6f72b24ef","system_id":"levelo_inurba_marseille","lat":43.28465,"lon":5.35892,"is_reserved":false,"is_disabled":false,"rental_uris":{"android":"levelo://app?vid=23bfb95b-639b-4798-a27e-58c6f72b24ef","ios":"levelo://app?vid=23bfb95b-639b-4798-a27e-58c6f72b24ef"},"vehicle_type_id":"4","last_reported":1728515414,"current_range_meters":38800,"station_id":"ce4bhah2rcd13ifvqei0","pricing_plan_id":"cebpf4jnsgd1na2vs0mg"},{"bike_id":"59a20882-e884-470e-b111-32ed424e7cc3","system_id":"levelo_inurba_marseille","lat":43.33718,"lon":5.39189,"is_reserved":false,"is_disabled":false,"rental_uris":{"android":"levelo://app?vid=59a20882-e884-470e-b111-32ed424e7cc3","ios":"levelo://app?vid=59a20882-e884-470e-b111-32ed424e7cc3"},"vehicle_type_id":"4","last_reported":1728515414,"current_range_meters":28400,"station_id":"ce4bhr92rcd13ifvqhsg","pricing_plan_id":"cebpf4jnsgd1na2vs0mg"},{"bike_id":"e0e6f300-0b4b-4db3-a41b-c3cf83222531","system_id":"levelo_inurba_marseille","lat":43.29279,"lon":5.4011,"is_reserved":false,"is_disabled":false,"rental_uris":{"android":"levelo://app?vid=e0e6f300-0b4b-4db3-a41b-c3cf83222531","ios":"levelo://app?vid=e0e6f300-0b4b-4db3-a41b-c3cf83222531"},"vehicle_type_id":"4","last_reported":1728515414,"current_range_meters":11200,"station_id":"ce4bh312rcd13ifvqdk0","pricing_plan_id":"cebpf4jnsgd1na2vs0mg"},{"bike_id":"77b3f5e8-965b-4f90-a251-15770684e21b","system_id":"levelo_inurba_marseille","lat":43.241852,"lon":5.397208,"is_reserved":false,"is_disabled":false,"rental_uris":{"android":"levelo://app?vid=77b3f5e8-965b-4f90-a251-15770684e21b","ios":"levelo://app?vid=77b3f5e8-965b-4f90-a251-15770684e21b"},"vehicle_type_id":"4","last_reported":1728515414,"current_range_meters":38400,"station_id":"ce4bhn12rcd13ifvqgpg","pricing_plan_id":"cebpf4jnsgd1na2vs0mg"},{"bike_id":"3bdc4eb5-c8a1-4200-a32e-114357a7dd84","system_id":"levelo_inurba_marseille","lat":43.27942,"lon":5.41051,"is_reserved":false,"is_disabled":false,"rental_uris":{"android":"levelo://app?vid=3bdc4eb5-c8a1-4200-a32e-114357a7dd84","ios":"levelo://app?vid=3bdc4eb5-c8a1-4200-a32e-114357a7dd84"},"vehicle_type_id":"4","last_reported":1728515414,"current_range_meters":5600,"station_id":"ce4bhnp2rcd13ifvqh0g","pricing_plan_id":"cebpf4jnsgd1na2vs0mg"},{"bike_id":"4712423c-49dd-444d-b7d8-56ff4b78ea1d","system_id":"levelo_inurba_marseille","lat":43.29573,"lon":5.39962,"is_reserved":false,"is_disabled":false,"rental_uris":{"android":"levelo://app?vid=4712423c-49dd-444d-b7d8-56ff4b78ea1d","ios":"levelo://app?vid=4712423c-49dd-444d-b7d8-56ff4b78ea1d"},"vehicle_type_id":"4","last_reported":1728515414,"current_range_meters":38800,"station_id":"ce4bh312rcd13ifvqdj0","pricing_plan_id":"cebpf4jnsgd1na2vs0mg"},{"bike_id":"72078f29-e154-4c5b-836a-c7e362ba1f09","system_id":"levelo_inurba_marseille","lat":43.33757,"lon":5.37463,"is_reserved":false,"is_disabled":false,"rental_uris":{"android":"levelo://app?vid=72078f29-e154-4c5b-836a-c7e362ba1f09","ios":"levelo://app?vid=72078f29-e154-4c5b-836a-c7e362ba1f09"},"vehicle_type_id":"4","last_reported":1728515414,"current_range_meters":10800,"station_id":"ce4rr2p2rcd13i802rgg","pricing_plan_id":"cebpf4jnsgd1na2vs0mg"},{"bike_id":"7d7ab187-9965-49a4-bf26-b6ade39671fc","system_id":"levelo_inurba_marseille","lat":43.23196,"lon":5.35552,"is_reserved":false,"is_disabled":false,"rental_uris":{"android":"levelo://app?vid=7d7ab187-9965-49a4-bf26-b6ade39671fc","ios":"levelo://app?vid=7d7ab187-9965-49a4-bf26-b6ade39671fc"},"vehicle_type_id":"4","last_reported":1728515414,"current_range_meters":22400,"station_id":"ce4bhu92rcd13ifvqi70","pricing_plan_id":"cebpf4jnsgd1na2vs0mg"},{"bike_id":"79792db9-1b53-402e-a505-32c3c2355ab5","system_id":"levelo_inurba_marseille","lat":43.30324,"lon":5.40436,"is_reserved":false,"is_disabled":false,"rental_uris":{"android":"levelo://app?vid=79792db9-1b53-402e-a505-32c3c2355ab5","ios":"levelo://app?vid=79792db9-1b53-402e-a505-32c3c2355ab5"},"vehicle_type_id":"4","last_reported":1728515414,"current_range_meters":38800,"station_id":"ce4bh012rcd13ifvqd10","pricing_plan_id":"cebpf4jnsgd1na2vs0mg"},{"bike_id":"d51f0193-0dff-4957-8877-479daabe2300","system_id":"levelo_inurba_marseille","lat":43.337444,"lon":5.374475,"is_reserved":false,"is_disabled":false,"rental_uris":{"android":"levelo://app?vid=d51f0193-0dff-4957-8877-479daabe2300","ios":"levelo://app?vid=d51f0193-0dff-4957-8877-479daabe2300"},"vehicle_type_id":"4","last_reported":1728515414,"current_range_meters":36400,"station_id":"ce4rr2p2rcd13i802rgg","pricing_plan_id":"cebpf4jnsgd1na2vs0mg"},{"bike_id":"7e70f0d6-9e79-4900-9716-d1c5a4b631d9","system_id":"levelo_inurba_marseille","lat":43.32047,"lon":5.41563,"is_reserved":false,"is_disabled":false,"rental_uris":{"android":"levelo://app?vid=7e70f0d6-9e79-4900-9716-d1c5a4b631d9","ios":"levelo://app?vid=7e70f0d6-9e79-4900-9716-d1c5a4b631d9"},"vehicle_type_id":"4","last_reported":1728515414,"current_range_meters":37600,"station_id":"ce4bhq92rcd13ifvqhkg","pricing_plan_id":"cebpf4jnsgd1na2vs0mg"},{"bike_id":"296004e0-5751-4935-8069-bb51f866a7db","system_id":"levelo_inurba_marseille","lat":43.2318,"lon":5.39987,"is_reserved":false,"is_disabled":false,"rental_uris":{"android":"levelo://app?vid=296004e0-5751-4935-8069-bb51f866a7db","ios":"levelo://app?vid=296004e0-5751-4935-8069-bb51f866a7db"},"vehicle_type_id":"4","last_reported":1728515414,"current_range_meters":38800,"station_id":"ce4bhn12rcd13ifvqgqg","pricing_plan_id":"cebpf4jnsgd1na2vs0mg"},{"bike_id":"bd0feaab-3ea1-4388-ac8e-ed1008efa279","system_id":"levelo_inurba_marseille","lat":43.30891,"lon":5.39644,"is_reserved":false,"is_disabled":false,"rental_uris":{"android":"levelo://app?vid=bd0feaab-3ea1-4388-ac8e-ed1008efa279","ios":"levelo://app?vid=bd0feaab-3ea1-4388-ac8e-ed1008efa279"},"vehicle_type_id":"4","last_reported":1728515414,"current_range_meters":38800,"station_id":"ce4bh012rcd13ifvqcv0","pricing_plan_id":"cebpf4jnsgd1na2vs0mg"},{"bike_id":"e5079a8b-46a0-4ba7-9792-46181fa72feb","system_id":"levelo_inurba_marseille","lat":43.30881,"lon":5.39647,"is_reserved":false,"is_disabled":false,"rental_uris":{"android":"levelo://app?vid=e5079a8b-46a0-4ba7-9792-46181fa72feb","ios":"levelo://app?vid=e5079a8b-46a0-4ba7-9792-46181fa72feb"},"vehicle_type_id":"4","last_reported":1728515414,"current_range_meters":38800,"station_id":"ce4bh012rcd13ifvqcv0","pricing_plan_id":"cebpf4jnsgd1na2vs0mg"},{"bike_id":"b149bf8c-24ec-415d-b234-f0b11661de68","system_id":"levelo_inurba_marseille","lat":43.25093,"lon":5.3952,"is_reserved":false,"is_disabled":false,"rental_uris":{"android":"levelo://app?vid=b149bf8c-24ec-415d-b234-f0b11661de68","ios":"levelo://app?vid=b149bf8c-24ec-415d-b234-f0b11661de68"},"vehicle_type_id":"4","last_reported":1728515414,"current_range_meters":38800,"station_id":"ce4bhm12rcd13ifvqgkg","pricing_plan_id":"cebpf4jnsgd1na2vs0mg"},{"bike_id":"1c64242c-a7be-4867-a1fc-21adede4d2d7","system_id":"levelo_inurba_marseille","lat":43.3064,"lon":5.40082,"is_reserved":false,"is_disabled":false,"rental_uris":{"android":"levelo://app?vid=1c64242c-a7be-4867-a1fc-21adede4d2d7","ios":"levelo://app?vid=1c64242c-a7be-4867-a1fc-21adede4d2d7"},"vehicle_type_id":"4","last_reported":1728515414,"current_range_meters":12000,"station_id":"ce4bh112rcd13ifvqda0","pricing_plan_id":"cebpf4jnsgd1na2vs0mg"},{"bike_id":"0b120bd5-f5b0-4a76-bf3c-8b4f69a65c9a","system_id":"levelo_inurba_marseille","lat":43.32489,"lon":5.36622,"is_reserved":false,"is_disabled":false,"rental_uris":{"android":"levelo://app?vid=0b120bd5-f5b0-4a76-bf3c-8b4f69a65c9a","ios":"levelo://app?vid=0b120bd5-f5b0-4a76-bf3c-8b4f69a65c9a"},"vehicle_type_id":"4","last_reported":1728515414,"current_range_meters":27200,"station_id":"ce4bhs12rcd13ifvqhvg","pricing_plan_id":"cebpf4jnsgd1na2vs0mg"},{"bike_id":"61348b97-5664-4321-b5ae-a09a313770b8","system_id":"levelo_inurba_marseille","lat":43.287158,"lon":5.379506,"is_reserved":false,"is_disabled":false,"rental_uris":{"android":"levelo://app?vid=61348b97-5664-4321-b5ae-a09a313770b8","ios":"levelo://app?vid=61348b97-5664-4321-b5ae-a09a313770b8"},"vehicle_type_id":"4","last_reported":1728515414,"current_range_meters":36000,"station_id":"ce4bh9p2rcd13ifvqec0","pricing_plan_id":"cebpf4jnsgd1na2vs0mg"},{"bike_id":"a8345341-4b75-4f01-82ea-7320c2fa850d","system_id":"levelo_inurba_marseille","lat":43.298559,"lon":5.397405,"is_reserved":false,"is_disabled":false,"rental_uris":{"android":"levelo://app?vid=a8345341-4b75-4f01-82ea-7320c2fa850d","ios":"levelo://app?vid=a8345341-4b75-4f01-82ea-7320c2fa850d"},"vehicle_type_id":"4","last_reported":1728515414,"current_range_meters":22400,"station_id":"","pricing_plan_id":"cebpf4jnsgd1na2vs0mg"},{"bike_id":"1a9a3cc6-2502-4c80-8b31-7bb36d7cba31","system_id":"levelo_inurba_marseille","lat":43.22935,"lon":5.35376,"is_reserved":false,"is_disabled":false,"rental_uris":{"android":"levelo://app?vid=1a9a3cc6-2502-4c80-8b31-7bb36d7cba31","ios":"levelo://app?vid=1a9a3cc6-2502-4c80-8b31-7bb36d7cba31"},"vehicle_type_id":"4","last_reported":1728515414,"current_range_meters":38400,"station_id":"cpo3532slgdg3j2ikp40","pricing_plan_id":"cebpf4jnsgd1na2vs0mg"},{"bike_id":"42a75535-f3eb-42ef-b616-b8fbfba19386","system_id":"levelo_inurba_marseille","lat":43.28099,"lon":5.37837,"is_reserved":false,"is_disabled":false,"rental_uris":{"android":"levelo://app?vid=42a75535-f3eb-42ef-b616-b8fbfba19386","ios":"levelo://app?vid=42a75535-f3eb-42ef-b616-b8fbfba19386"},"vehicle_type_id":"4","last_reported":1728515414,"current_range_meters":38800,"station_id":"ce4bha12rcd13ifvqee0","pricing_plan_id":"cebpf4jnsgd1na2vs0mg"},{"bike_id":"14cc985f-c073-46c4-bce8-9e5e4ec92403","system_id":"levelo_inurba_marseille","lat":43.32345,"lon":5.40612,"is_reserved":false,"is_disabled":false,"rental_uris":{"android":"levelo://app?vid=14cc985f-c073-46c4-bce8-9e5e4ec92403","ios":"levelo://app?vid=14cc985f-c073-46c4-bce8-9e5e4ec92403"},"vehicle_type_id":"4","last_reported":1728515414,"current_range_meters":6800,"station_id":"ce4bhq92rcd13ifvqhjg","pricing_plan_id":"cebpf4jnsgd1na2vs0mg"},{"bike_id":"dd96c50d-1da5-4236-9477-aae37608b2b6","system_id":"levelo_inurba_marseille","lat":43.32337,"lon":5.40617,"is_reserved":false,"is_disabled":false,"rental_uris":{"android":"levelo://app?vid=dd96c50d-1da5-4236-9477-aae37608b2b6","ios":"levelo://app?vid=dd96c50d-1da5-4236-9477-aae37608b2b6"},"vehicle_type_id":"4","last_reported":1728515414,"current_range_meters":4400,"station_id":"ce4bhq92rcd13ifvqhjg","pricing_plan_id":"cebpf4jnsgd1na2vs0mg"},{"bike_id":"e7631295-85e2-4f64-a554-825b3479c0dc","system_id":"levelo_inurba_marseille","lat":43.2749,"lon":5.42452,"is_reserved":false,"is_disabled":false,"rental_uris":{"android":"levelo://app?vid=e7631295-85e2-4f64-a554-825b3479c0dc","ios":"levelo://app?vid=e7631295-85e2-4f64-a554-825b3479c0dc"},"vehicle_type_id":"4","last_reported":1728515414,"current_range_meters":38800,"station_id":"ce4bhn92rcd13ifvqgrg","pricing_plan_id":"cebpf4jnsgd1na2vs0mg"},{"bike_id":"7fc78bd2-b1ce-47e2-a91d-2e784c115b54","system_id":"levelo_inurba_marseille","lat":43.28708,"lon":5.37391,"is_reserved":false,"is_disabled":false,"rental_uris":{"android":"levelo://app?vid=7fc78bd2-b1ce-47e2-a91d-2e784c115b54","ios":"levelo://app?vid=7fc78bd2-b1ce-47e2-a91d-2e784c115b54"},"vehicle_type_id":"4","last_reported":1728515414,"current_range_meters":38800,"station_id":"ce4bh3p2rcd13ifvqdq0","pricing_plan_id":"cebpf4jnsgd1na2vs0mg"},{"bike_id":"b6686461-4b48-4eae-9ce8-8178b8df331b","system_id":"levelo_inurba_marseille","lat":43.24658,"lon":5.38159,"is_reserved":false,"is_disabled":false,"rental_uris":{"android":"levelo://app?vid=b6686461-4b48-4eae-9ce8-8178b8df331b","ios":"levelo://app?vid=b6686461-4b48-4eae-9ce8-8178b8df331b"},"vehicle_type_id":"4","last_reported":1728515414,"current_range_meters":38800,"station_id":"ce4bhih2rcd13ifvqfr0","pricing_plan_id":"cebpf4jnsgd1na2vs0mg"},{"bike_id":"d73bb0d0-cf89-4fc9-be5d-6328443cabd4","system_id":"levelo_inurba_marseille","lat":43.2927,"lon":5.40114,"is_reserved":false,"is_disabled":false,"rental_uris":{"android":"levelo://app?vid=d73bb0d0-cf89-4fc9-be5d-6328443cabd4","ios":"levelo://app?vid=d73bb0d0-cf89-4fc9-be5d-6328443cabd4"},"vehicle_type_id":"4","last_reported":1728515414,"current_range_meters":38800,"station_id":"ce4bh312rcd13ifvqdk0","pricing_plan_id":"cebpf4jnsgd1na2vs0mg"},{"bike_id":"63b9cce1-f3d8-4655-b818-f5ae36bee504","system_id":"levelo_inurba_marseille","lat":43.28662,"lon":5.363566,"is_reserved":false,"is_disabled":false,"rental_uris":{"android":"levelo://app?vid=63b9cce1-f3d8-4655-b818-f5ae36bee504","ios":"levelo://app?vid=63b9cce1-f3d8-4655-b818-f5ae36bee504"},"vehicle_type_id":"4","last_reported":1728515414,"current_range_meters":39200,"station_id":"ce4bhah2rcd13ifvqej0","pricing_plan_id":"cebpf4jnsgd1na2vs0mg"},{"bike_id":"dc45a7d7-2c7b-4e1c-b533-1d6d877ebbe3","system_id":"levelo_inurba_marseille","lat":43.32112,"lon":5.36773,"is_reserved":false,"is_disabled":false,"rental_uris":{"android":"levelo://app?vid=dc45a7d7-2c7b-4e1c-b533-1d6d877ebbe3","ios":"levelo://app?vid=dc45a7d7-2c7b-4e1c-b533-1d6d877ebbe3"},"vehicle_type_id":"4","last_reported":1728515414,"current_range_meters":38000,"station_id":"ce4bhrh2rcd13ifvqhug","pricing_plan_id":"cebpf4jnsgd1na2vs0mg"},{"bike_id":"97c98e27-9337-4b4a-ad7d-97e59c330dee","system_id":"levelo_inurba_marseille","lat":43.31332,"lon":5.39695,"is_reserved":false,"is_disabled":false,"rental_uris":{"android":"levelo://app?vid=97c98e27-9337-4b4a-ad7d-97e59c330dee","ios":"levelo://app?vid=97c98e27-9337-4b4a-ad7d-97e59c330dee"},"vehicle_type_id":"4","last_reported":1728515414,"current_range_meters":38800,"station_id":"ce4bgvp2rcd13ifvqcu0","pricing_plan_id":"cebpf4jnsgd1na2vs0mg"},{"bike_id":"e6358af7-5ea6-4993-a299-078d558f950c","system_id":"levelo_inurba_marseille","lat":43.28937,"lon":5.39636,"is_reserved":false,"is_disabled":false,"rental_uris":{"android":"levelo://app?vid=e6358af7-5ea6-4993-a299-078d558f950c","ios":"levelo://app?vid=e6358af7-5ea6-4993-a299-078d558f950c"},"vehicle_type_id":"4","last_reported":1728515414,"current_range_meters":38800,"station_id":"ce4bh3h2rcd13ifvqdn0","pricing_plan_id":"cebpf4jnsgd1na2vs0mg"},{"bike_id":"75dd267d-8874-4bb5-99a1-cb447f1c7810","system_id":"levelo_inurba_marseille","lat":43.31277,"lon":5.40157,"is_reserved":false,"is_disabled":false,"rental_uris":{"android":"levelo://app?vid=75dd267d-8874-4bb5-99a1-cb447f1c7810","ios":"levelo://app?vid=75dd267d-8874-4bb5-99a1-cb447f1c7810"},"vehicle_type_id":"4","last_reported":1728515414,"current_range_meters":38400,"station_id":"ce4bh092rcd13ifvqd30","pricing_plan_id":"cebpf4jnsgd1na2vs0mg"},{"bike_id":"41be5fcf-9f4b-425f-8298-427ad3b70a16","system_id":"levelo_inurba_marseille","lat":43.325456,"lon":5.414463,"is_reserved":false,"is_disabled":false,"rental_uris":{"android":"levelo://app?vid=41be5fcf-9f4b-425f-8298-427ad3b70a16","ios":"levelo://app?vid=41be5fcf-9f4b-425f-8298-427ad3b70a16"},"vehicle_type_id":"4","last_reported":1728515414,"current_range_meters":38800,"station_id":"ce4bhq12rcd13ifvqhhg","pricing_plan_id":"cebpf4jnsgd1na2vs0mg"},{"bike_id":"f227e846-4f50-498d-b4d9-a0909876bde5","system_id":"levelo_inurba_marseille","lat":43.30189,"lon":5.36606,"is_reserved":false,"is_disabled":false,"rental_uris":{"android":"levelo://app?vid=f227e846-4f50-498d-b4d9-a0909876bde5","ios":"levelo://app?vid=f227e846-4f50-498d-b4d9-a0909876bde5"},"vehicle_type_id":"4","last_reported":1728515414,"current_range_meters":28000,"station_id":"ce4bgrh2rcd13ifvqc8g","pricing_plan_id":"cebpf4jnsgd1na2vs0mg"},{"bike_id":"83d5c4a7-73f3-451a-baad-d322ba4385ff","system_id":"levelo_inurba_marseille","lat":43.28102,"lon":5.37835,"is_reserved":false,"is_disabled":false,"rental_uris":{"android":"levelo://app?vid=83d5c4a7-73f3-451a-baad-d322ba4385ff","ios":"levelo://app?vid=83d5c4a7-73f3-451a-baad-d322ba4385ff"},"vehicle_type_id":"4","last_reported":1728515414,"current_range_meters":38800,"station_id":"ce4bha12rcd13ifvqee0","pricing_plan_id":"cebpf4jnsgd1na2vs0mg"},{"bike_id":"ccc31797-b3da-4e1e-a728-8845a7cdbc6e","system_id":"levelo_inurba_marseille","lat":43.2794,"lon":5.41047,"is_reserved":false,"is_disabled":false,"rental_uris":{"android":"levelo://app?vid=ccc31797-b3da-4e1e-a728-8845a7cdbc6e","ios":"levelo://app?vid=ccc31797-b3da-4e1e-a728-8845a7cdbc6e"},"vehicle_type_id":"4","last_reported":1728515414,"current_range_meters":6400,"station_id":"ce4bhnp2rcd13ifvqh0g","pricing_plan_id":"cebpf4jnsgd1na2vs0mg"},{"bike_id":"2c7d09f9-70d1-437c-a3c2-5fae377a8729","system_id":"levelo_inurba_marseille","lat":43.23969,"lon":5.36627,"is_reserved":false,"is_disabled":false,"rental_uris":{"android":"levelo://app?vid=2c7d09f9-70d1-437c-a3c2-5fae377a8729","ios":"levelo://app?vid=2c7d09f9-70d1-437c-a3c2-5fae377a8729"},"vehicle_type_id":"4","last_reported":1728515414,"current_range_meters":22000,"station_id":"ce4bhi12rcd13ifvqfp0","pricing_plan_id":"cebpf4jnsgd1na2vs0mg"},{"bike_id":"70955857-42bc-43d9-b6db-74a38cb7d254","system_id":"levelo_inurba_marseille","lat":43.25935,"lon":5.409,"is_reserved":false,"is_disabled":false,"rental_uris":{"android":"levelo://app?vid=70955857-42bc-43d9-b6db-74a38cb7d254","ios":"levelo://app?vid=70955857-42bc-43d9-b6db-74a38cb7d254"},"vehicle_type_id":"4","last_reported":1728515414,"current_range_meters":38800,"station_id":"ce4bhm92rcd13ifvqglg","pricing_plan_id":"cebpf4jnsgd1na2vs0mg"},{"bike_id":"4be201a3-d22e-4c46-937d-99f607eacfd8","system_id":"levelo_inurba_marseille","lat":43.29586,"lon":5.36747,"is_reserved":false,"is_disabled":false,"rental_uris":{"android":"levelo://app?vid=4be201a3-d22e-4c46-937d-99f607eacfd8","ios":"levelo://app?vid=4be201a3-d22e-4c46-937d-99f607eacfd8"},"vehicle_type_id":"4","last_reported":1728515414,"current_range_meters":32000,"station_id":"ce4bgph2rcd13ifvqc2g","pricing_plan_id":"cebpf4jnsgd1na2vs0mg"},{"bike_id":"14300ca0-46b7-42a6-a36e-a190579be49b","system_id":"levelo_inurba_marseille","lat":43.28153,"lon":5.42642,"is_reserved":false,"is_disabled":false,"rental_uris":{"android":"levelo://app?vid=14300ca0-46b7-42a6-a36e-a190579be49b","ios":"levelo://app?vid=14300ca0-46b7-42a6-a36e-a190579be49b"},"vehicle_type_id":"4","last_reported":1728515414,"current_range_meters":7200,"station_id":"ce4bhnh2rcd13ifvqgug","pricing_plan_id":"cebpf4jnsgd1na2vs0mg"},{"bike_id":"8513be67-a978-4cfc-9563-19285ed6fe5a","system_id":"levelo_inurba_marseille","lat":43.23197,"lon":5.3554,"is_reserved":false,"is_disabled":false,"rental_uris":{"android":"levelo://app?vid=8513be67-a978-4cfc-9563-19285ed6fe5a","ios":"levelo://app?vid=8513be67-a978-4cfc-9563-19285ed6fe5a"},"vehicle_type_id":"4","last_reported":1728515414,"current_range_meters":9600,"station_id":"ce4bhu92rcd13ifvqi70","pricing_plan_id":"cebpf4jnsgd1na2vs0mg"},{"bike_id":"1197f692-639d-4fb0-ae7f-c285068db770","system_id":"levelo_inurba_marseille","lat":43.25093,"lon":5.39512,"is_reserved":false,"is_disabled":false,"rental_uris":{"android":"levelo://app?vid=1197f692-639d-4fb0-ae7f-c285068db770","ios":"levelo://app?vid=1197f692-639d-4fb0-ae7f-c285068db770"},"vehicle_type_id":"4","last_reported":1728515414,"current_range_meters":24000,"station_id":"ce4bhm12rcd13ifvqgkg","pricing_plan_id":"cebpf4jnsgd1na2vs0mg"},{"bike_id":"453c64ee-ea24-4dfb-89f6-9fc7dba761f8","system_id":"levelo_inurba_marseille","lat":43.28934,"lon":5.36633,"is_reserved":false,"is_disabled":false,"rental_uris":{"android":"levelo://app?vid=453c64ee-ea24-4dfb-89f6-9fc7dba761f8","ios":"levelo://app?vid=453c64ee-ea24-4dfb-89f6-9fc7dba761f8"},"vehicle_type_id":"4","last_reported":1728515414,"current_range_meters":39200,"station_id":"ce4bhap2rcd13ifvqek0","pricing_plan_id":"cebpf4jnsgd1na2vs0mg"},{"bike_id":"922252e8-02c2-4987-8eed-1d6d69073568","system_id":"levelo_inurba_marseille","lat":43.26689,"lon":5.38276,"is_reserved":false,"is_disabled":false,"rental_uris":{"android":"levelo://app?vid=922252e8-02c2-4987-8eed-1d6d69073568","ios":"levelo://app?vid=922252e8-02c2-4987-8eed-1d6d69073568"},"vehicle_type_id":"4","last_reported":1728515414,"current_range_meters":29600,"station_id":"ce4bhg92rcd13ifvqf90","pricing_plan_id":"cebpf4jnsgd1na2vs0mg"},{"bike_id":"79c051f6-fee1-42df-ae5f-985be50d40ed","system_id":"levelo_inurba_marseille","lat":43.23954,"lon":5.36631,"is_reserved":false,"is_disabled":false,"rental_uris":{"android":"levelo://app?vid=79c051f6-fee1-42df-ae5f-985be50d40ed","ios":"levelo://app?vid=79c051f6-fee1-42df-ae5f-985be50d40ed"},"vehicle_type_id":"4","last_reported":1728515414,"current_range_meters":6000,"station_id":"ce4bhi12rcd13ifvqfp0","pricing_plan_id":"cebpf4jnsgd1na2vs0mg"},{"bike_id":"372be48e-0fb3-4336-915a-4d35d755f146","system_id":"levelo_inurba_marseille","lat":43.23183,"lon":5.39982,"is_reserved":false,"is_disabled":false,"rental_uris":{"android":"levelo://app?vid=372be48e-0fb3-4336-915a-4d35d755f146","ios":"levelo://app?vid=372be48e-0fb3-4336-915a-4d35d755f146"},"vehicle_type_id":"4","last_reported":1728515414,"current_range_meters":38800,"station_id":"ce4bhn12rcd13ifvqgqg","pricing_plan_id":"cebpf4jnsgd1na2vs0mg"},{"bike_id":"20720041-cdbf-424d-a817-2fb7fa79581d","system_id":"levelo_inurba_marseille","lat":43.29025,"lon":5.39967,"is_reserved":false,"is_disabled":false,"rental_uris":{"android":"levelo://app?vid=20720041-cdbf-424d-a817-2fb7fa79581d","ios":"levelo://app?vid=20720041-cdbf-424d-a817-2fb7fa79581d"},"vehicle_type_id":"4","last_reported":1728515414,"current_range_meters":37600,"station_id":"ce4bh392rcd13ifvqdm0","pricing_plan_id":"cebpf4jnsgd1na2vs0mg"},{"bike_id":"0b1ea9af-c6da-4927-8286-680e49e08a6d","system_id":"levelo_inurba_marseille","lat":43.27053,"lon":5.40256,"is_reserved":false,"is_disabled":false,"rental_uris":{"android":"levelo://app?vid=0b1ea9af-c6da-4927-8286-680e49e08a6d","ios":"levelo://app?vid=0b1ea9af-c6da-4927-8286-680e49e08a6d"},"vehicle_type_id":"4","last_reported":1728515414,"current_range_meters":8800,"station_id":"ce4bhk92rcd13ifvqgc0","pricing_plan_id":"cebpf4jnsgd1na2vs0mg"},{"bike_id":"8ca30e4e-aeb3-492a-93c4-1829c99acb46","system_id":"levelo_inurba_marseille","lat":43.28657,"lon":5.36351,"is_reserved":false,"is_disabled":false,"rental_uris":{"android":"levelo://app?vid=8ca30e4e-aeb3-492a-93c4-1829c99acb46","ios":"levelo://app?vid=8ca30e4e-aeb3-492a-93c4-1829c99acb46"},"vehicle_type_id":"4","last_reported":1728515414,"current_range_meters":38800,"station_id":"ce4bhah2rcd13ifvqej0","pricing_plan_id":"cebpf4jnsgd1na2vs0mg"},{"bike_id":"7dd16f1e-1e61-4960-9469-4c92ce8b1209","system_id":"levelo_inurba_marseille","lat":43.28354,"lon":5.38633,"is_reserved":false,"is_disabled":false,"rental_uris":{"android":"levelo://app?vid=7dd16f1e-1e61-4960-9469-4c92ce8b1209","ios":"levelo://app?vid=7dd16f1e-1e61-4960-9469-4c92ce8b1209"},"vehicle_type_id":"4","last_reported":1728515414,"current_range_meters":17200,"station_id":"ce4bh492rcd13ifvqdvg","pricing_plan_id":"cebpf4jnsgd1na2vs0mg"},{"bike_id":"b6ab707f-16f9-4a99-b0c6-6d49d10dc066","system_id":"levelo_inurba_marseille","lat":43.29279,"lon":5.40124,"is_reserved":false,"is_disabled":false,"rental_uris":{"android":"levelo://app?vid=b6ab707f-16f9-4a99-b0c6-6d49d10dc066","ios":"levelo://app?vid=b6ab707f-16f9-4a99-b0c6-6d49d10dc066"},"vehicle_type_id":"4","last_reported":1728515414,"current_range_meters":39200,"station_id":"ce4bh312rcd13ifvqdk0","pricing_plan_id":"cebpf4jnsgd1na2vs0mg"},{"bike_id":"c02a6fbd-b2c3-46ea-8edd-9ecbf51b2712","system_id":"levelo_inurba_marseille","lat":43.28972,"lon":5.37833,"is_reserved":false,"is_disabled":false,"rental_uris":{"android":"levelo://app?vid=c02a6fbd-b2c3-46ea-8edd-9ecbf51b2712","ios":"levelo://app?vid=c02a6fbd-b2c3-46ea-8edd-9ecbf51b2712"},"vehicle_type_id":"4","last_reported":1728515414,"current_range_meters":38800,"station_id":"ce4bh9p2rcd13ifvqed0","pricing_plan_id":"cebpf4jnsgd1na2vs0mg"},{"bike_id":"361e3a77-1486-4a12-9986-bc327a7a9f99","system_id":"levelo_inurba_marseille","lat":43.29206,"lon":5.39325,"is_reserved":false,"is_disabled":false,"rental_uris":{"android":"levelo://app?vid=361e3a77-1486-4a12-9986-bc327a7a9f99","ios":"levelo://app?vid=361e3a77-1486-4a12-9986-bc327a7a9f99"},"vehicle_type_id":"4","last_reported":1728515414,"current_range_meters":27600,"station_id":"ce4bh192rcd13ifvqdd0","pricing_plan_id":"cebpf4jnsgd1na2vs0mg"},{"bike_id":"424ae5e4-2b9d-4ae9-9b45-f666499b549a","system_id":"levelo_inurba_marseille","lat":43.31533,"lon":5.38029,"is_reserved":false,"is_disabled":false,"rental_uris":{"android":"levelo://app?vid=424ae5e4-2b9d-4ae9-9b45-f666499b549a","ios":"levelo://app?vid=424ae5e4-2b9d-4ae9-9b45-f666499b549a"},"vehicle_type_id":"4","last_reported":1728515414,"current_range_meters":16400,"station_id":"ce4bhsp2rcd13ifvqi50","pricing_plan_id":"cebpf4jnsgd1na2vs0mg"},{"bike_id":"0a1adf47-9c44-4e77-b90b-e425aefb27d3","system_id":"levelo_inurba_marseille","lat":43.27178,"lon":5.40991,"is_reserved":false,"is_disabled":false,"rental_uris":{"android":"levelo://app?vid=0a1adf47-9c44-4e77-b90b-e425aefb27d3","ios":"levelo://app?vid=0a1adf47-9c44-4e77-b90b-e425aefb27d3"},"vehicle_type_id":"4","last_reported":1728515414,"current_range_meters":32800,"station_id":"ce4bhl12rcd13ifvqgf0","pricing_plan_id":"cebpf4jnsgd1na2vs0mg"},{"bike_id":"e62c538a-72cc-41f8-a540-bba9e16db417","system_id":"levelo_inurba_marseille","lat":43.29252,"lon":5.40902,"is_reserved":false,"is_disabled":false,"rental_uris":{"android":"levelo://app?vid=e62c538a-72cc-41f8-a540-bba9e16db417","ios":"levelo://app?vid=e62c538a-72cc-41f8-a540-bba9e16db417"},"vehicle_type_id":"4","last_reported":1728515414,"current_range_meters":27600,"station_id":"ce4bh192rcd13ifvqdc0","pricing_plan_id":"cebpf4jnsgd1na2vs0mg"},{"bike_id":"d38dd870-fb35-4ebe-8242-7b8d175eed8b","system_id":"levelo_inurba_marseille","lat":43.32337,"lon":5.40616,"is_reserved":false,"is_disabled":false,"rental_uris":{"android":"levelo://app?vid=d38dd870-fb35-4ebe-8242-7b8d175eed8b","ios":"levelo://app?vid=d38dd870-fb35-4ebe-8242-7b8d175eed8b"},"vehicle_type_id":"4","last_reported":1728515414,"current_range_meters":9200,"station_id":"ce4bhq92rcd13ifvqhjg","pricing_plan_id":"cebpf4jnsgd1na2vs0mg"},{"bike_id":"943ecad0-8760-43cd-9300-5881601fce33","system_id":"levelo_inurba_marseille","lat":43.25871,"lon":5.39895,"is_reserved":false,"is_disabled":false,"rental_uris":{"android":"levelo://app?vid=943ecad0-8760-43cd-9300-5881601fce33","ios":"levelo://app?vid=943ecad0-8760-43cd-9300-5881601fce33"},"vehicle_type_id":"4","last_reported":1728515414,"current_range_meters":8000,"station_id":"ce4bhl92rcd13ifvqghg","pricing_plan_id":"cebpf4jnsgd1na2vs0mg"},{"bike_id":"1707d01d-1d39-4ce7-b259-b95170fbb162","system_id":"levelo_inurba_marseille","lat":43.30883,"lon":5.39655,"is_reserved":false,"is_disabled":false,"rental_uris":{"android":"levelo://app?vid=1707d01d-1d39-4ce7-b259-b95170fbb162","ios":"levelo://app?vid=1707d01d-1d39-4ce7-b259-b95170fbb162"},"vehicle_type_id":"4","last_reported":1728515414,"current_range_meters":38800,"station_id":"ce4bh012rcd13ifvqcv0","pricing_plan_id":"cebpf4jnsgd1na2vs0mg"},{"bike_id":"5f362996-74f9-45b7-aa85-95ce607a2aa3","system_id":"levelo_inurba_marseille","lat":43.27819,"lon":5.35485,"is_reserved":false,"is_disabled":false,"rental_uris":{"android":"levelo://app?vid=5f362996-74f9-45b7-aa85-95ce607a2aa3","ios":"levelo://app?vid=5f362996-74f9-45b7-aa85-95ce607a2aa3"},"vehicle_type_id":"4","last_reported":1728515414,"current_range_meters":27200,"station_id":"","pricing_plan_id":"cebpf4jnsgd1na2vs0mg"},{"bike_id":"57ab2a3d-5878-4361-8bc9-b1a0550801f4","system_id":"levelo_inurba_marseille","lat":43.30938,"lon":5.40147,"is_reserved":false,"is_disabled":false,"rental_uris":{"android":"levelo://app?vid=57ab2a3d-5878-4361-8bc9-b1a0550801f4","ios":"levelo://app?vid=57ab2a3d-5878-4361-8bc9-b1a0550801f4"},"vehicle_type_id":"4","last_reported":1728515414,"current_range_meters":6800,"station_id":"ce4bgvp2rcd13ifvqct0","pricing_plan_id":"cebpf4jnsgd1na2vs0mg"},{"bike_id":"7e912cba-052f-47e7-bfc0-b47e5b060ca8","system_id":"levelo_inurba_marseille","lat":43.29551,"lon":5.42279,"is_reserved":false,"is_disabled":false,"rental_uris":{"android":"levelo://app?vid=7e912cba-052f-47e7-bfc0-b47e5b060ca8","ios":"levelo://app?vid=7e912cba-052f-47e7-bfc0-b47e5b060ca8"},"vehicle_type_id":"4","last_reported":1728515414,"current_range_meters":37600,"station_id":"ce4bhph2rcd13ifvqhdg","pricing_plan_id":"cebpf4jnsgd1na2vs0mg"},{"bike_id":"2df730a7-89e5-413d-9bed-72b64744a6f2","system_id":"levelo_inurba_marseille","lat":43.22929,"lon":5.35375,"is_reserved":false,"is_disabled":false,"rental_uris":{"android":"levelo://app?vid=2df730a7-89e5-413d-9bed-72b64744a6f2","ios":"levelo://app?vid=2df730a7-89e5-413d-9bed-72b64744a6f2"},"vehicle_type_id":"4","last_reported":1728515414,"current_range_meters":38400,"station_id":"cpo3532slgdg3j2ikp40","pricing_plan_id":"cebpf4jnsgd1na2vs0mg"},{"bike_id":"74dea6e5-f1b2-476b-95da-8353d0ac07f5","system_id":"levelo_inurba_marseille","lat":43.22932,"lon":5.35376,"is_reserved":false,"is_disabled":false,"rental_uris":{"android":"levelo://app?vid=74dea6e5-f1b2-476b-95da-8353d0ac07f5","ios":"levelo://app?vid=74dea6e5-f1b2-476b-95da-8353d0ac07f5"},"vehicle_type_id":"4","last_reported":1728515414,"current_range_meters":38400,"station_id":"cpo3532slgdg3j2ikp40","pricing_plan_id":"cebpf4jnsgd1na2vs0mg"},{"bike_id":"a1fe1816-1e76-4cbd-926b-4f1fb96fff8f","system_id":"levelo_inurba_marseille","lat":43.27176,"lon":5.40996,"is_reserved":false,"is_disabled":false,"rental_uris":{"android":"levelo://app?vid=a1fe1816-1e76-4cbd-926b-4f1fb96fff8f","ios":"levelo://app?vid=a1fe1816-1e76-4cbd-926b-4f1fb96fff8f"},"vehicle_type_id":"4","last_reported":1728515414,"current_range_meters":38800,"station_id":"ce4bhl12rcd13ifvqgf0","pricing_plan_id":"cebpf4jnsgd1na2vs0mg"},{"bike_id":"16c1914d-eb68-4c5e-bb00-1ac73c967625","system_id":"levelo_inurba_marseille","lat":43.28932,"lon":5.36379,"is_reserved":false,"is_disabled":false,"rental_uris":{"android":"levelo://app?vid=16c1914d-eb68-4c5e-bb00-1ac73c967625","ios":"levelo://app?vid=16c1914d-eb68-4c5e-bb00-1ac73c967625"},"vehicle_type_id":"4","last_reported":1728515414,"current_range_meters":17600,"station_id":"ce4bhc92rcd13ifvqetg","pricing_plan_id":"cebpf4jnsgd1na2vs0mg"},{"bike_id":"ddf574fe-a9a1-4b73-8249-5861dc8d3d61","system_id":"levelo_inurba_marseille","lat":43.31071,"lon":5.3835,"is_reserved":false,"is_disabled":false,"rental_uris":{"android":"levelo://app?vid=ddf574fe-a9a1-4b73-8249-5861dc8d3d61","ios":"levelo://app?vid=ddf574fe-a9a1-4b73-8249-5861dc8d3d61"},"vehicle_type_id":"4","last_reported":1728515414,"current_range_meters":19600,"station_id":"ce4bgv92rcd13ifvqcr0","pricing_plan_id":"cebpf4jnsgd1na2vs0mg"},{"bike_id":"b657b38e-dbb6-4d03-b8fc-1a8292365acd","system_id":"levelo_inurba_marseille","lat":43.30784,"lon":5.37643,"is_reserved":false,"is_disabled":false,"rental_uris":{"android":"levelo://app?vid=b657b38e-dbb6-4d03-b8fc-1a8292365acd","ios":"levelo://app?vid=b657b38e-dbb6-4d03-b8fc-1a8292365acd"},"vehicle_type_id":"4","last_reported":1728515414,"current_range_meters":35600,"station_id":"ce4bgv92rcd13ifvqcq0","pricing_plan_id":"cebpf4jnsgd1na2vs0mg"},{"bike_id":"d0f516f8-1bda-4f1e-a2f8-f9215b8da052","system_id":"levelo_inurba_marseille","lat":43.29573,"lon":5.39965,"is_reserved":false,"is_disabled":false,"rental_uris":{"android":"levelo://app?vid=d0f516f8-1bda-4f1e-a2f8-f9215b8da052","ios":"levelo://app?vid=d0f516f8-1bda-4f1e-a2f8-f9215b8da052"},"vehicle_type_id":"4","last_reported":1728515414,"current_range_meters":37600,"station_id":"ce4bh312rcd13ifvqdj0","pricing_plan_id":"cebpf4jnsgd1na2vs0mg"},{"bike_id":"29cb1526-8d04-42cd-afd9-4af7c5cbfad4","system_id":"levelo_inurba_marseille","lat":43.23197,"lon":5.35557,"is_reserved":false,"is_disabled":false,"rental_uris":{"android":"levelo://app?vid=29cb1526-8d04-42cd-afd9-4af7c5cbfad4","ios":"levelo://app?vid=29cb1526-8d04-42cd-afd9-4af7c5cbfad4"},"vehicle_type_id":"4","last_reported":1728515414,"current_range_meters":38400,"station_id":"ce4bhu92rcd13ifvqi70","pricing_plan_id":"cebpf4jnsgd1na2vs0mg"},{"bike_id":"b429262d-ad41-4a9f-8e33-a164a7072672","system_id":"levelo_inurba_marseille","lat":43.28696,"lon":5.39977,"is_reserved":false,"is_disabled":false,"rental_uris":{"android":"levelo://app?vid=b429262d-ad41-4a9f-8e33-a164a7072672","ios":"levelo://app?vid=b429262d-ad41-4a9f-8e33-a164a7072672"},"vehicle_type_id":"4","last_reported":1728515414,"current_range_meters":4000,"station_id":"ce4bho92rcd13ifvqh3g","pricing_plan_id":"cebpf4jnsgd1na2vs0mg"},{"bike_id":"7487edf8-8c1e-41da-8b18-2cd52f27ee2c","system_id":"levelo_inurba_marseille","lat":43.29956,"lon":5.41323,"is_reserved":false,"is_disabled":false,"rental_uris":{"android":"levelo://app?vid=7487edf8-8c1e-41da-8b18-2cd52f27ee2c","ios":"levelo://app?vid=7487edf8-8c1e-41da-8b18-2cd52f27ee2c"},"vehicle_type_id":"4","last_reported":1728515414,"current_range_meters":14000,"station_id":"ce4bhp12rcd13ifvqh9g","pricing_plan_id":"cebpf4jnsgd1na2vs0mg"},{"bike_id":"87760785-8870-43e8-9688-b83ec291cfbb","system_id":"levelo_inurba_marseille","lat":43.28667,"lon":5.36351,"is_reserved":false,"is_disabled":false,"rental_uris":{"android":"levelo://app?vid=87760785-8870-43e8-9688-b83ec291cfbb","ios":"levelo://app?vid=87760785-8870-43e8-9688-b83ec291cfbb"},"vehicle_type_id":"4","last_reported":1728515414,"current_range_meters":37600,"station_id":"ce4bhah2rcd13ifvqej0","pricing_plan_id":"cebpf4jnsgd1na2vs0mg"},{"bike_id":"16ec5b71-6b43-478f-9a9c-b26097d13529","system_id":"levelo_inurba_marseille","lat":43.28701,"lon":5.37385,"is_reserved":false,"is_disabled":false,"rental_uris":{"android":"levelo://app?vid=16ec5b71-6b43-478f-9a9c-b26097d13529","ios":"levelo://app?vid=16ec5b71-6b43-478f-9a9c-b26097d13529"},"vehicle_type_id":"4","last_reported":1728515414,"current_range_meters":16400,"station_id":"ce4bh3p2rcd13ifvqdq0","pricing_plan_id":"cebpf4jnsgd1na2vs0mg"},{"bike_id":"0bfa0ee7-df55-48c5-ba71-da82bc4adcc5","system_id":"levelo_inurba_marseille","lat":43.27616,"lon":5.36112,"is_reserved":false,"is_disabled":false,"rental_uris":{"android":"levelo://app?vid=0bfa0ee7-df55-48c5-ba71-da82bc4adcc5","ios":"levelo://app?vid=0bfa0ee7-df55-48c5-ba71-da82bc4adcc5"},"vehicle_type_id":"4","last_reported":1728515414,"current_range_meters":38800,"station_id":"ce4bgj92rcd13ifvqbe0","pricing_plan_id":"cebpf4jnsgd1na2vs0mg"},{"bike_id":"6f79f4d7-964e-42bc-a4bb-5de856123c42","system_id":"levelo_inurba_marseille","lat":43.29573,"lon":5.39973,"is_reserved":false,"is_disabled":false,"rental_uris":{"android":"levelo://app?vid=6f79f4d7-964e-42bc-a4bb-5de856123c42","ios":"levelo://app?vid=6f79f4d7-964e-42bc-a4bb-5de856123c42"},"vehicle_type_id":"4","last_reported":1728515414,"current_range_meters":38800,"station_id":"ce4bh312rcd13ifvqdj0","pricing_plan_id":"cebpf4jnsgd1na2vs0mg"},{"bike_id":"2dbd5c0b-d24b-4301-a262-e7b9fe646130","system_id":"levelo_inurba_marseille","lat":43.32662,"lon":5.40988,"is_reserved":false,"is_disabled":false,"rental_uris":{"android":"levelo://app?vid=2dbd5c0b-d24b-4301-a262-e7b9fe646130","ios":"levelo://app?vid=2dbd5c0b-d24b-4301-a262-e7b9fe646130"},"vehicle_type_id":"4","last_reported":1728515414,"current_range_meters":36800,"station_id":"ce4bhpp2rcd13ifvqhgg","pricing_plan_id":"cebpf4jnsgd1na2vs0mg"},{"bike_id":"a18662f8-7c5d-40ed-a87d-88d8a14f8320","system_id":"levelo_inurba_marseille","lat":43.31758,"lon":5.39023,"is_reserved":false,"is_disabled":false,"rental_uris":{"android":"levelo://app?vid=a18662f8-7c5d-40ed-a87d-88d8a14f8320","ios":"levelo://app?vid=a18662f8-7c5d-40ed-a87d-88d8a14f8320"},"vehicle_type_id":"4","last_reported":1728515414,"current_range_meters":25600,"station_id":"ce4bhqp2rcd13ifvqhng","pricing_plan_id":"cebpf4jnsgd1na2vs0mg"},{"bike_id":"ea4e8f52-908f-4d8f-8a66-b45f45c723f3","system_id":"levelo_inurba_marseille","lat":43.34143,"lon":5.40906,"is_reserved":false,"is_disabled":false,"rental_uris":{"android":"levelo://app?vid=ea4e8f52-908f-4d8f-8a66-b45f45c723f3","ios":"levelo://app?vid=ea4e8f52-908f-4d8f-8a66-b45f45c723f3"},"vehicle_type_id":"4","last_reported":1728515414,"current_range_meters":38000,"station_id":"ce4bhqh2rcd13ifvqhlg","pricing_plan_id":"cebpf4jnsgd1na2vs0mg"},{"bike_id":"cca8712a-0ab7-4693-9592-4b32c15e327e","system_id":"levelo_inurba_marseille","lat":43.33729,"lon":5.39181,"is_reserved":false,"is_disabled":false,"rental_uris":{"android":"levelo://app?vid=cca8712a-0ab7-4693-9592-4b32c15e327e","ios":"levelo://app?vid=cca8712a-0ab7-4693-9592-4b32c15e327e"},"vehicle_type_id":"4","last_reported":1728515414,"current_range_meters":40000,"station_id":"ce4bhr92rcd13ifvqhsg","pricing_plan_id":"cebpf4jnsgd1na2vs0mg"},{"bike_id":"2ce171cb-fbcc-4af0-a653-3dcdbc90ac73","system_id":"levelo_inurba_marseille","lat":43.29374,"lon":5.37853,"is_reserved":false,"is_disabled":false,"rental_uris":{"android":"levelo://app?vid=2ce171cb-fbcc-4af0-a653-3dcdbc90ac73","ios":"levelo://app?vid=2ce171cb-fbcc-4af0-a653-3dcdbc90ac73"},"vehicle_type_id":"4","last_reported":1728515414,"current_range_meters":30800,"station_id":"ce4bgjh2rcd13ifvqbf0","pricing_plan_id":"cebpf4jnsgd1na2vs0mg"},{"bike_id":"ac73cf39-5e0d-41c0-9b62-3d3a6730aa43","system_id":"levelo_inurba_marseille","lat":43.24071,"lon":5.37761,"is_reserved":false,"is_disabled":false,"rental_uris":{"android":"levelo://app?vid=ac73cf39-5e0d-41c0-9b62-3d3a6730aa43","ios":"levelo://app?vid=ac73cf39-5e0d-41c0-9b62-3d3a6730aa43"},"vehicle_type_id":"4","last_reported":1728515414,"current_range_meters":26800,"station_id":"ce4bhnp2rcd13ifvqgvg","pricing_plan_id":"cebpf4jnsgd1na2vs0mg"},{"bike_id":"3c53e08e-ee91-459e-a796-8e1cef11ecde","system_id":"levelo_inurba_marseille","lat":43.27944,"lon":5.41041,"is_reserved":false,"is_disabled":false,"rental_uris":{"android":"levelo://app?vid=3c53e08e-ee91-459e-a796-8e1cef11ecde","ios":"levelo://app?vid=3c53e08e-ee91-459e-a796-8e1cef11ecde"},"vehicle_type_id":"4","last_reported":1728515414,"current_range_meters":38800,"station_id":"ce4bhnp2rcd13ifvqh0g","pricing_plan_id":"cebpf4jnsgd1na2vs0mg"},{"bike_id":"6680e8f2-453b-4747-b4b8-b5e7f1440a05","system_id":"levelo_inurba_marseille","lat":43.28106,"lon":5.37843,"is_reserved":false,"is_disabled":false,"rental_uris":{"android":"levelo://app?vid=6680e8f2-453b-4747-b4b8-b5e7f1440a05","ios":"levelo://app?vid=6680e8f2-453b-4747-b4b8-b5e7f1440a05"},"vehicle_type_id":"4","last_reported":1728515414,"current_range_meters":37600,"station_id":"ce4bha12rcd13ifvqee0","pricing_plan_id":"cebpf4jnsgd1na2vs0mg"},{"bike_id":"91f74275-f4e2-4776-a8af-ba851d1f4190","system_id":"levelo_inurba_marseille","lat":43.29864,"lon":5.39742,"is_reserved":false,"is_disabled":false,"rental_uris":{"android":"levelo://app?vid=91f74275-f4e2-4776-a8af-ba851d1f4190","ios":"levelo://app?vid=91f74275-f4e2-4776-a8af-ba851d1f4190"},"vehicle_type_id":"4","last_reported":1728515414,"current_range_meters":38800,"station_id":"ce4bh0h2rcd13ifvqd50","pricing_plan_id":"cebpf4jnsgd1na2vs0mg"},{"bike_id":"17591b68-72ec-463d-917a-7a15d54c2ca6","system_id":"levelo_inurba_marseille","lat":43.24387,"lon":5.37066,"is_reserved":false,"is_disabled":false,"rental_uris":{"android":"levelo://app?vid=17591b68-72ec-463d-917a-7a15d54c2ca6","ios":"levelo://app?vid=17591b68-72ec-463d-917a-7a15d54c2ca6"},"vehicle_type_id":"4","last_reported":1728515414,"current_range_meters":31200,"station_id":"ce4bhhh2rcd13ifvqfk0","pricing_plan_id":"cebpf4jnsgd1na2vs0mg"},{"bike_id":"d8d9e195-0b53-46b7-a4e3-f2b2c532f4ae","system_id":"levelo_inurba_marseille","lat":43.23194,"lon":5.3555,"is_reserved":false,"is_disabled":false,"rental_uris":{"android":"levelo://app?vid=d8d9e195-0b53-46b7-a4e3-f2b2c532f4ae","ios":"levelo://app?vid=d8d9e195-0b53-46b7-a4e3-f2b2c532f4ae"},"vehicle_type_id":"4","last_reported":1728515414,"current_range_meters":37600,"station_id":"ce4bhu92rcd13ifvqi70","pricing_plan_id":"cebpf4jnsgd1na2vs0mg"},{"bike_id":"f07e2f26-416d-46f0-bc05-c8e1d5c39915","system_id":"levelo_inurba_marseille","lat":43.28713,"lon":5.39986,"is_reserved":false,"is_disabled":false,"rental_uris":{"android":"levelo://app?vid=f07e2f26-416d-46f0-bc05-c8e1d5c39915","ios":"levelo://app?vid=f07e2f26-416d-46f0-bc05-c8e1d5c39915"},"vehicle_type_id":"4","last_reported":1728515414,"current_range_meters":36800,"station_id":"ce4bho92rcd13ifvqh3g","pricing_plan_id":"cebpf4jnsgd1na2vs0mg"},{"bike_id":"0a0dfbc4-205b-432f-b2aa-315036f34113","system_id":"levelo_inurba_marseille","lat":43.29556,"lon":5.42285,"is_reserved":false,"is_disabled":false,"rental_uris":{"android":"levelo://app?vid=0a0dfbc4-205b-432f-b2aa-315036f34113","ios":"levelo://app?vid=0a0dfbc4-205b-432f-b2aa-315036f34113"},"vehicle_type_id":"4","last_reported":1728515414,"current_range_meters":28000,"station_id":"ce4bhph2rcd13ifvqhdg","pricing_plan_id":"cebpf4jnsgd1na2vs0mg"},{"bike_id":"c55caa9a-9457-4152-9cf8-2af7ef053b42","system_id":"levelo_inurba_marseille","lat":43.31713,"lon":5.43708,"is_reserved":false,"is_disabled":false,"rental_uris":{"android":"levelo://app?vid=c55caa9a-9457-4152-9cf8-2af7ef053b42","ios":"levelo://app?vid=c55caa9a-9457-4152-9cf8-2af7ef053b42"},"vehicle_type_id":"4","last_reported":1728515414,"current_range_meters":25200,"station_id":"ce4bhp92rcd13ifvqhcg","pricing_plan_id":"cebpf4jnsgd1na2vs0mg"},{"bike_id":"ca42ba1a-d3df-42ae-8026-0927b0ab1c73","system_id":"levelo_inurba_marseille","lat":43.28366,"lon":5.38634,"is_reserved":false,"is_disabled":false,"rental_uris":{"android":"levelo://app?vid=ca42ba1a-d3df-42ae-8026-0927b0ab1c73","ios":"levelo://app?vid=ca42ba1a-d3df-42ae-8026-0927b0ab1c73"},"vehicle_type_id":"4","last_reported":1728515414,"current_range_meters":35600,"station_id":"ce4bh492rcd13ifvqdvg","pricing_plan_id":"cebpf4jnsgd1na2vs0mg"},{"bike_id":"1aca22d9-bf5a-48af-bf25-161c5a4a28cd","system_id":"levelo_inurba_marseille","lat":43.28707,"lon":5.39981,"is_reserved":false,"is_disabled":false,"rental_uris":{"android":"levelo://app?vid=1aca22d9-bf5a-48af-bf25-161c5a4a28cd","ios":"levelo://app?vid=1aca22d9-bf5a-48af-bf25-161c5a4a28cd"},"vehicle_type_id":"4","last_reported":1728515414,"current_range_meters":8400,"station_id":"ce4bho92rcd13ifvqh3g","pricing_plan_id":"cebpf4jnsgd1na2vs0mg"},{"bike_id":"a9c2810c-3be5-473f-af94-1cd849b90a50","system_id":"levelo_inurba_marseille","lat":43.30801,"lon":5.38147,"is_reserved":false,"is_disabled":false,"rental_uris":{"android":"levelo://app?vid=a9c2810c-3be5-473f-af94-1cd849b90a50","ios":"levelo://app?vid=a9c2810c-3be5-473f-af94-1cd849b90a50"},"vehicle_type_id":"4","last_reported":1728515414,"current_range_meters":36000,"station_id":"ce4bgt12rcd13ifvqce0","pricing_plan_id":"cebpf4jnsgd1na2vs0mg"},{"bike_id":"3c150316-e8ba-4f0d-9319-e8d2bd0bc57b","system_id":"levelo_inurba_marseille","lat":43.23186,"lon":5.39986,"is_reserved":false,"is_disabled":false,"rental_uris":{"android":"levelo://app?vid=3c150316-e8ba-4f0d-9319-e8d2bd0bc57b","ios":"levelo://app?vid=3c150316-e8ba-4f0d-9319-e8d2bd0bc57b"},"vehicle_type_id":"4","last_reported":1728515414,"current_range_meters":38800,"station_id":"ce4bhn12rcd13ifvqgqg","pricing_plan_id":"cebpf4jnsgd1na2vs0mg"},{"bike_id":"3a249aa6-0ca0-4021-9a8c-d3c82f7e95da","system_id":"levelo_inurba_marseille","lat":43.31275,"lon":5.40154,"is_reserved":false,"is_disabled":false,"rental_uris":{"android":"levelo://app?vid=3a249aa6-0ca0-4021-9a8c-d3c82f7e95da","ios":"levelo://app?vid=3a249aa6-0ca0-4021-9a8c-d3c82f7e95da"},"vehicle_type_id":"4","last_reported":1728515414,"current_range_meters":37600,"station_id":"ce4bh092rcd13ifvqd30","pricing_plan_id":"cebpf4jnsgd1na2vs0mg"},{"bike_id":"6550a5df-7dfa-4449-96e8-17ab2b2f0253","system_id":"levelo_inurba_marseille","lat":43.26063,"lon":5.39391,"is_reserved":false,"is_disabled":false,"rental_uris":{"android":"levelo://app?vid=6550a5df-7dfa-4449-96e8-17ab2b2f0253","ios":"levelo://app?vid=6550a5df-7dfa-4449-96e8-17ab2b2f0253"},"vehicle_type_id":"4","last_reported":1728515414,"current_range_meters":38000,"station_id":"ce4bhh92rcd13ifvqfj0","pricing_plan_id":"cebpf4jnsgd1na2vs0mg"},{"bike_id":"c408e815-c560-4a49-b6c9-9d4c97b818e6","system_id":"levelo_inurba_marseille","lat":43.23182,"lon":5.39994,"is_reserved":false,"is_disabled":false,"rental_uris":{"android":"levelo://app?vid=c408e815-c560-4a49-b6c9-9d4c97b818e6","ios":"levelo://app?vid=c408e815-c560-4a49-b6c9-9d4c97b818e6"},"vehicle_type_id":"4","last_reported":1728515414,"current_range_meters":24400,"station_id":"ce4bhn12rcd13ifvqgqg","pricing_plan_id":"cebpf4jnsgd1na2vs0mg"},{"bike_id":"88b815fa-1c0a-4856-b23f-27312d03a2d8","system_id":"levelo_inurba_marseille","lat":43.33026,"lon":5.39035,"is_reserved":false,"is_disabled":false,"rental_uris":{"android":"levelo://app?vid=88b815fa-1c0a-4856-b23f-27312d03a2d8","ios":"levelo://app?vid=88b815fa-1c0a-4856-b23f-27312d03a2d8"},"vehicle_type_id":"4","last_reported":1728515414,"current_range_meters":28000,"station_id":"ce4bhr92rcd13ifvqhrg","pricing_plan_id":"cebpf4jnsgd1na2vs0mg"},{"bike_id":"f3535bf1-0333-46d7-a760-97c09e07a0d7","system_id":"levelo_inurba_marseille","lat":43.25116,"lon":5.40322,"is_reserved":false,"is_disabled":false,"rental_uris":{"android":"levelo://app?vid=f3535bf1-0333-46d7-a760-97c09e07a0d7","ios":"levelo://app?vid=f3535bf1-0333-46d7-a760-97c09e07a0d7"},"vehicle_type_id":"4","last_reported":1728515414,"current_range_meters":39200,"station_id":"ce4bhlh2rcd13ifvqgig","pricing_plan_id":"cebpf4jnsgd1na2vs0mg"},{"bike_id":"a5ac65be-92e7-46ab-932d-eb7ef35c24c9","system_id":"levelo_inurba_marseille","lat":43.309321,"lon":5.401493,"is_reserved":false,"is_disabled":false,"rental_uris":{"android":"levelo://app?vid=a5ac65be-92e7-46ab-932d-eb7ef35c24c9","ios":"levelo://app?vid=a5ac65be-92e7-46ab-932d-eb7ef35c24c9"},"vehicle_type_id":"4","last_reported":1728515414,"current_range_meters":38800,"station_id":"ce4bgvp2rcd13ifvqct0","pricing_plan_id":"cebpf4jnsgd1na2vs0mg"},{"bike_id":"1a5acf9a-8efc-4068-97cb-4310adb017fa","system_id":"levelo_inurba_marseille","lat":43.31175,"lon":5.38712,"is_reserved":false,"is_disabled":false,"rental_uris":{"android":"levelo://app?vid=1a5acf9a-8efc-4068-97cb-4310adb017fa","ios":"levelo://app?vid=1a5acf9a-8efc-4068-97cb-4310adb017fa"},"vehicle_type_id":"4","last_reported":1728515414,"current_range_meters":20800,"station_id":"ce4bgv12rcd13ifvqcp0","pricing_plan_id":"cebpf4jnsgd1na2vs0mg"},{"bike_id":"1a48eb59-7c58-42a9-bbc3-4ce88f973909","system_id":"levelo_inurba_marseille","lat":43.33025,"lon":5.39033,"is_reserved":false,"is_disabled":false,"rental_uris":{"android":"levelo://app?vid=1a48eb59-7c58-42a9-bbc3-4ce88f973909","ios":"levelo://app?vid=1a48eb59-7c58-42a9-bbc3-4ce88f973909"},"vehicle_type_id":"4","last_reported":1728515414,"current_range_meters":38800,"station_id":"ce4bhr92rcd13ifvqhrg","pricing_plan_id":"cebpf4jnsgd1na2vs0mg"},{"bike_id":"8dfff532-9b92-441a-9d99-a5f3f7825690","system_id":"levelo_inurba_marseille","lat":43.28454,"lon":5.359,"is_reserved":false,"is_disabled":false,"rental_uris":{"android":"levelo://app?vid=8dfff532-9b92-441a-9d99-a5f3f7825690","ios":"levelo://app?vid=8dfff532-9b92-441a-9d99-a5f3f7825690"},"vehicle_type_id":"4","last_reported":1728515414,"current_range_meters":16400,"station_id":"ce4bhah2rcd13ifvqei0","pricing_plan_id":"cebpf4jnsgd1na2vs0mg"},{"bike_id":"25afecff-8faf-4ca5-beb4-ce74280dcb13","system_id":"levelo_inurba_marseille","lat":43.231933,"lon":5.355509,"is_reserved":false,"is_disabled":false,"rental_uris":{"android":"levelo://app?vid=25afecff-8faf-4ca5-beb4-ce74280dcb13","ios":"levelo://app?vid=25afecff-8faf-4ca5-beb4-ce74280dcb13"},"vehicle_type_id":"4","last_reported":1728515414,"current_range_meters":38000,"station_id":"ce4bhu92rcd13ifvqi70","pricing_plan_id":"cebpf4jnsgd1na2vs0mg"},{"bike_id":"bc5da530-264e-4907-ad43-308cc5fa4656","system_id":"levelo_inurba_marseille","lat":43.33022,"lon":5.39032,"is_reserved":false,"is_disabled":false,"rental_uris":{"android":"levelo://app?vid=bc5da530-264e-4907-ad43-308cc5fa4656","ios":"levelo://app?vid=bc5da530-264e-4907-ad43-308cc5fa4656"},"vehicle_type_id":"4","last_reported":1728515414,"current_range_meters":28000,"station_id":"ce4bhr92rcd13ifvqhrg","pricing_plan_id":"cebpf4jnsgd1na2vs0mg"},{"bike_id":"144b68bf-1d03-4cf4-8272-f3ab6f506db6","system_id":"levelo_inurba_marseille","lat":43.30786,"lon":5.37652,"is_reserved":false,"is_disabled":false,"rental_uris":{"android":"levelo://app?vid=144b68bf-1d03-4cf4-8272-f3ab6f506db6","ios":"levelo://app?vid=144b68bf-1d03-4cf4-8272-f3ab6f506db6"},"vehicle_type_id":"4","last_reported":1728515414,"current_range_meters":39200,"station_id":"ce4bgv92rcd13ifvqcq0","pricing_plan_id":"cebpf4jnsgd1na2vs0mg"},{"bike_id":"9911ac58-611f-468c-a27d-fab695957465","system_id":"levelo_inurba_marseille","lat":43.28571,"lon":5.394989,"is_reserved":false,"is_disabled":false,"rental_uris":{"android":"levelo://app?vid=9911ac58-611f-468c-a27d-fab695957465","ios":"levelo://app?vid=9911ac58-611f-468c-a27d-fab695957465"},"vehicle_type_id":"4","last_reported":1728515414,"current_range_meters":37600,"station_id":"ce4bh292rcd13ifvqdg0","pricing_plan_id":"cebpf4jnsgd1na2vs0mg"},{"bike_id":"1b77092c-97c9-4364-8d0a-99045bd0890e","system_id":"levelo_inurba_marseille","lat":43.29707,"lon":5.36615,"is_reserved":false,"is_disabled":false,"rental_uris":{"android":"levelo://app?vid=1b77092c-97c9-4364-8d0a-99045bd0890e","ios":"levelo://app?vid=1b77092c-97c9-4364-8d0a-99045bd0890e"},"vehicle_type_id":"4","last_reported":1728515414,"current_range_meters":6400,"station_id":"ce4bgn12rcd13ifvqbt0","pricing_plan_id":"cebpf4jnsgd1na2vs0mg"},{"bike_id":"e6080f3a-aa2d-4b18-a587-c12da9537b7b","system_id":"levelo_inurba_marseille","lat":43.30951,"lon":5.39026,"is_reserved":false,"is_disabled":false,"rental_uris":{"android":"levelo://app?vid=e6080f3a-aa2d-4b18-a587-c12da9537b7b","ios":"levelo://app?vid=e6080f3a-aa2d-4b18-a587-c12da9537b7b"},"vehicle_type_id":"4","last_reported":1728515414,"current_range_meters":24400,"station_id":"ce4bgup2rcd13ifvqco0","pricing_plan_id":"cebpf4jnsgd1na2vs0mg"},{"bike_id":"54b41c68-b9cc-49ad-99e6-2582cf78ecba","system_id":"levelo_inurba_marseille","lat":43.28027,"lon":5.36947,"is_reserved":false,"is_disabled":false,"rental_uris":{"android":"levelo://app?vid=54b41c68-b9cc-49ad-99e6-2582cf78ecba","ios":"levelo://app?vid=54b41c68-b9cc-49ad-99e6-2582cf78ecba"},"vehicle_type_id":"4","last_reported":1728515414,"current_range_meters":26000,"station_id":"ce4bha12rcd13ifvqef0","pricing_plan_id":"cebpf4jnsgd1na2vs0mg"},{"bike_id":"67adf509-8309-4277-b2b5-22a4a8b5c849","system_id":"levelo_inurba_marseille","lat":43.31692,"lon":5.40472,"is_reserved":false,"is_disabled":false,"rental_uris":{"android":"levelo://app?vid=67adf509-8309-4277-b2b5-22a4a8b5c849","ios":"levelo://app?vid=67adf509-8309-4277-b2b5-22a4a8b5c849"},"vehicle_type_id":"4","last_reported":1728515414,"current_range_meters":38800,"station_id":"ce4bh012rcd13ifvqd00","pricing_plan_id":"cebpf4jnsgd1na2vs0mg"},{"bike_id":"164d759c-141a-449a-94ce-4af95c8d88c5","system_id":"levelo_inurba_marseille","lat":43.30881,"lon":5.39636,"is_reserved":false,"is_disabled":false,"rental_uris":{"android":"levelo://app?vid=164d759c-141a-449a-94ce-4af95c8d88c5","ios":"levelo://app?vid=164d759c-141a-449a-94ce-4af95c8d88c5"},"vehicle_type_id":"4","last_reported":1728515414,"current_range_meters":38000,"station_id":"ce4bh012rcd13ifvqcv0","pricing_plan_id":"cebpf4jnsgd1na2vs0mg"},{"bike_id":"1afa897a-1ae4-407b-9197-042c69afbbd5","system_id":"levelo_inurba_marseille","lat":43.3025,"lon":5.40058,"is_reserved":false,"is_disabled":false,"rental_uris":{"android":"levelo://app?vid=1afa897a-1ae4-407b-9197-042c69afbbd5","ios":"levelo://app?vid=1afa897a-1ae4-407b-9197-042c69afbbd5"},"vehicle_type_id":"4","last_reported":1728515414,"current_range_meters":14400,"station_id":"ce4bgvh2rcd13ifvqcs0","pricing_plan_id":"cebpf4jnsgd1na2vs0mg"},{"bike_id":"2101d868-2457-46fd-9cea-3824384bd84b","system_id":"levelo_inurba_marseille","lat":43.31495,"lon":5.37308,"is_reserved":false,"is_disabled":false,"rental_uris":{"android":"levelo://app?vid=2101d868-2457-46fd-9cea-3824384bd84b","ios":"levelo://app?vid=2101d868-2457-46fd-9cea-3824384bd84b"},"vehicle_type_id":"4","last_reported":1728515414,"current_range_meters":36800,"station_id":"ce4bgt12rcd13ifvqcd0","pricing_plan_id":"cebpf4jnsgd1na2vs0mg"},{"bike_id":"2a032523-c958-4a4f-89c7-1eb876c0a20b","system_id":"levelo_inurba_marseille","lat":43.315289,"lon":5.380313,"is_reserved":false,"is_disabled":false,"rental_uris":{"android":"levelo://app?vid=2a032523-c958-4a4f-89c7-1eb876c0a20b","ios":"levelo://app?vid=2a032523-c958-4a4f-89c7-1eb876c0a20b"},"vehicle_type_id":"4","last_reported":1728515414,"current_range_meters":26000,"station_id":"ce4bhsp2rcd13ifvqi50","pricing_plan_id":"cebpf4jnsgd1na2vs0mg"},{"bike_id":"19c785c9-d783-48f3-b3bc-0c55ff20bca2","system_id":"levelo_inurba_marseille","lat":43.304257,"lon":5.412786,"is_reserved":false,"is_disabled":false,"rental_uris":{"android":"levelo://app?vid=19c785c9-d783-48f3-b3bc-0c55ff20bca2","ios":"levelo://app?vid=19c785c9-d783-48f3-b3bc-0c55ff20bca2"},"vehicle_type_id":"4","last_reported":1728515414,"current_range_meters":12000,"station_id":"ce4bhop2rcd13ifvqh8g","pricing_plan_id":"cebpf4jnsgd1na2vs0mg"},{"bike_id":"06657405-127e-4bee-91cf-5a86175c7f1b","system_id":"levelo_inurba_marseille","lat":43.28457,"lon":5.35889,"is_reserved":false,"is_disabled":false,"rental_uris":{"android":"levelo://app?vid=06657405-127e-4bee-91cf-5a86175c7f1b","ios":"levelo://app?vid=06657405-127e-4bee-91cf-5a86175c7f1b"},"vehicle_type_id":"4","last_reported":1728515414,"current_range_meters":38800,"station_id":"ce4bhah2rcd13ifvqei0","pricing_plan_id":"cebpf4jnsgd1na2vs0mg"},{"bike_id":"4c264be1-cda6-46cc-a8c2-1593de8c770a","system_id":"levelo_inurba_marseille","lat":43.27183,"lon":5.40985,"is_reserved":false,"is_disabled":false,"rental_uris":{"android":"levelo://app?vid=4c264be1-cda6-46cc-a8c2-1593de8c770a","ios":"levelo://app?vid=4c264be1-cda6-46cc-a8c2-1593de8c770a"},"vehicle_type_id":"4","last_reported":1728515414,"current_range_meters":37600,"station_id":"ce4bhl12rcd13ifvqgf0","pricing_plan_id":"cebpf4jnsgd1na2vs0mg"},{"bike_id":"e784e324-3f5b-4400-a8b6-68b52e27c27f","system_id":"levelo_inurba_marseille","lat":43.28567,"lon":5.39497,"is_reserved":false,"is_disabled":false,"rental_uris":{"android":"levelo://app?vid=e784e324-3f5b-4400-a8b6-68b52e27c27f","ios":"levelo://app?vid=e784e324-3f5b-4400-a8b6-68b52e27c27f"},"vehicle_type_id":"4","last_reported":1728515414,"current_range_meters":24400,"station_id":"ce4bh292rcd13ifvqdg0","pricing_plan_id":"cebpf4jnsgd1na2vs0mg"},{"bike_id":"4223ee34-3e4e-4c0f-9a01-693c49818bad","system_id":"levelo_inurba_marseille","lat":43.31268,"lon":5.40166,"is_reserved":false,"is_disabled":false,"rental_uris":{"android":"levelo://app?vid=4223ee34-3e4e-4c0f-9a01-693c49818bad","ios":"levelo://app?vid=4223ee34-3e4e-4c0f-9a01-693c49818bad"},"vehicle_type_id":"4","last_reported":1728515414,"current_range_meters":38400,"station_id":"ce4bh092rcd13ifvqd30","pricing_plan_id":"cebpf4jnsgd1na2vs0mg"},{"bike_id":"3dbe8191-351c-4c8f-82e8-4b3f3e083185","system_id":"levelo_inurba_marseille","lat":43.3089,"lon":5.39642,"is_reserved":false,"is_disabled":false,"rental_uris":{"android":"levelo://app?vid=3dbe8191-351c-4c8f-82e8-4b3f3e083185","ios":"levelo://app?vid=3dbe8191-351c-4c8f-82e8-4b3f3e083185"},"vehicle_type_id":"4","last_reported":1728515414,"current_range_meters":17200,"station_id":"ce4bh012rcd13ifvqcv0","pricing_plan_id":"cebpf4jnsgd1na2vs0mg"},{"bike_id":"617f7c74-9b36-4bc8-8536-86b13f116036","system_id":"levelo_inurba_marseille","lat":43.28721,"lon":5.36086,"is_reserved":false,"is_disabled":false,"rental_uris":{"android":"levelo://app?vid=617f7c74-9b36-4bc8-8536-86b13f116036","ios":"levelo://app?vid=617f7c74-9b36-4bc8-8536-86b13f116036"},"vehicle_type_id":"4","last_reported":1728515414,"current_range_meters":4000,"station_id":"cki0cbj6b192h4jlfktg","pricing_plan_id":"cebpf4jnsgd1na2vs0mg"},{"bike_id":"dca7c60b-d25d-4583-83b1-af4390c055f4","system_id":"levelo_inurba_marseille","lat":43.23189,"lon":5.35558,"is_reserved":false,"is_disabled":false,"rental_uris":{"android":"levelo://app?vid=dca7c60b-d25d-4583-83b1-af4390c055f4","ios":"levelo://app?vid=dca7c60b-d25d-4583-83b1-af4390c055f4"},"vehicle_type_id":"4","last_reported":1728515414,"current_range_meters":6000,"station_id":"ce4bhu92rcd13ifvqi70","pricing_plan_id":"cebpf4jnsgd1na2vs0mg"},{"bike_id":"cae9eb62-f22e-46fd-986a-6fd2d419be57","system_id":"levelo_inurba_marseille","lat":43.27934,"lon":5.41038,"is_reserved":false,"is_disabled":false,"rental_uris":{"android":"levelo://app?vid=cae9eb62-f22e-46fd-986a-6fd2d419be57","ios":"levelo://app?vid=cae9eb62-f22e-46fd-986a-6fd2d419be57"},"vehicle_type_id":"4","last_reported":1728515414,"current_range_meters":20000,"station_id":"ce4bhnp2rcd13ifvqh0g","pricing_plan_id":"cebpf4jnsgd1na2vs0mg"},{"bike_id":"6a0578d2-574b-44cf-94b7-239fda6a2985","system_id":"levelo_inurba_marseille","lat":43.25119,"lon":5.40316,"is_reserved":false,"is_disabled":false,"rental_uris":{"android":"levelo://app?vid=6a0578d2-574b-44cf-94b7-239fda6a2985","ios":"levelo://app?vid=6a0578d2-574b-44cf-94b7-239fda6a2985"},"vehicle_type_id":"4","last_reported":1728515414,"current_range_meters":12000,"station_id":"ce4bhlh2rcd13ifvqgig","pricing_plan_id":"cebpf4jnsgd1na2vs0mg"},{"bike_id":"d98abc05-22b9-4fd1-ab63-6d0caad7ccf5","system_id":"levelo_inurba_marseille","lat":43.31711,"lon":5.37762,"is_reserved":false,"is_disabled":false,"rental_uris":{"android":"levelo://app?vid=d98abc05-22b9-4fd1-ab63-6d0caad7ccf5","ios":"levelo://app?vid=d98abc05-22b9-4fd1-ab63-6d0caad7ccf5"},"vehicle_type_id":"4","last_reported":1728515414,"current_range_meters":27600,"station_id":"ce4bgth2rcd13ifvqch0","pricing_plan_id":"cebpf4jnsgd1na2vs0mg"},{"bike_id":"732c4c34-5569-46da-9012-7db5b0d931eb","system_id":"levelo_inurba_marseille","lat":43.29038,"lon":5.39952,"is_reserved":false,"is_disabled":false,"rental_uris":{"android":"levelo://app?vid=732c4c34-5569-46da-9012-7db5b0d931eb","ios":"levelo://app?vid=732c4c34-5569-46da-9012-7db5b0d931eb"},"vehicle_type_id":"4","last_reported":1728515414,"current_range_meters":38800,"station_id":"ce4bh392rcd13ifvqdm0","pricing_plan_id":"cebpf4jnsgd1na2vs0mg"},{"bike_id":"a4591d2b-a075-4014-b6b8-b2dc29c2805f","system_id":"levelo_inurba_marseille","lat":43.30538,"lon":5.38427,"is_reserved":false,"is_disabled":false,"rental_uris":{"android":"levelo://app?vid=a4591d2b-a075-4014-b6b8-b2dc29c2805f","ios":"levelo://app?vid=a4591d2b-a075-4014-b6b8-b2dc29c2805f"},"vehicle_type_id":"4","last_reported":1728515414,"current_range_meters":8800,"station_id":"ce4bgg92rcd13ifvqb30","pricing_plan_id":"cebpf4jnsgd1na2vs0mg"},{"bike_id":"b44bddb9-8341-4408-bb5c-2330f2f7cce2","system_id":"levelo_inurba_marseille","lat":43.26055,"lon":5.39395,"is_reserved":false,"is_disabled":false,"rental_uris":{"android":"levelo://app?vid=b44bddb9-8341-4408-bb5c-2330f2f7cce2","ios":"levelo://app?vid=b44bddb9-8341-4408-bb5c-2330f2f7cce2"},"vehicle_type_id":"4","last_reported":1728515414,"current_range_meters":38800,"station_id":"ce4bhh92rcd13ifvqfj0","pricing_plan_id":"cebpf4jnsgd1na2vs0mg"},{"bike_id":"6b0d7f03-35e6-4982-a3fc-e99336e0bdac","system_id":"levelo_inurba_marseille","lat":43.27172,"lon":5.41,"is_reserved":false,"is_disabled":false,"rental_uris":{"android":"levelo://app?vid=6b0d7f03-35e6-4982-a3fc-e99336e0bdac","ios":"levelo://app?vid=6b0d7f03-35e6-4982-a3fc-e99336e0bdac"},"vehicle_type_id":"4","last_reported":1728515414,"current_range_meters":20400,"station_id":"ce4bhl12rcd13ifvqgf0","pricing_plan_id":"cebpf4jnsgd1na2vs0mg"},{"bike_id":"cbc42d91-f557-4bfd-9d0d-11b391dfb335","system_id":"levelo_inurba_marseille","lat":43.27942,"lon":5.41038,"is_reserved":false,"is_disabled":false,"rental_uris":{"android":"levelo://app?vid=cbc42d91-f557-4bfd-9d0d-11b391dfb335","ios":"levelo://app?vid=cbc42d91-f557-4bfd-9d0d-11b391dfb335"},"vehicle_type_id":"4","last_reported":1728515414,"current_range_meters":3200,"station_id":"ce4bhnp2rcd13ifvqh0g","pricing_plan_id":"cebpf4jnsgd1na2vs0mg"},{"bike_id":"0c5c9827-2d42-4f02-93a7-73411e4c241b","system_id":"levelo_inurba_marseille","lat":43.2867,"lon":5.38662,"is_reserved":false,"is_disabled":false,"rental_uris":{"android":"levelo://app?vid=0c5c9827-2d42-4f02-93a7-73411e4c241b","ios":"levelo://app?vid=0c5c9827-2d42-4f02-93a7-73411e4c241b"},"vehicle_type_id":"4","last_reported":1728515414,"current_range_meters":38800,"station_id":"ce4bh492rcd13ifvqdug","pricing_plan_id":"cebpf4jnsgd1na2vs0mg"},{"bike_id":"6c2c11c7-21ab-4e60-bafb-7c0a75bee534","system_id":"levelo_inurba_marseille","lat":43.310699,"lon":5.386906,"is_reserved":false,"is_disabled":false,"rental_uris":{"android":"levelo://app?vid=6c2c11c7-21ab-4e60-bafb-7c0a75bee534","ios":"levelo://app?vid=6c2c11c7-21ab-4e60-bafb-7c0a75bee534"},"vehicle_type_id":"4","last_reported":1728515414,"current_range_meters":13600,"station_id":"","pricing_plan_id":"cebpf4jnsgd1na2vs0mg"},{"bike_id":"fcc562a4-894d-4108-ac20-4ab1642eb0c3","system_id":"levelo_inurba_marseille","lat":43.29885,"lon":5.38897,"is_reserved":false,"is_disabled":false,"rental_uris":{"android":"levelo://app?vid=fcc562a4-894d-4108-ac20-4ab1642eb0c3","ios":"levelo://app?vid=fcc562a4-894d-4108-ac20-4ab1642eb0c3"},"vehicle_type_id":"4","last_reported":1728515414,"current_range_meters":38800,"station_id":"ce4bh392rcd13ifvqdl0","pricing_plan_id":"cebpf4jnsgd1na2vs0mg"},{"bike_id":"a6f3d0b6-b54c-4d09-9370-d02fe202d86d","system_id":"levelo_inurba_marseille","lat":43.28709,"lon":5.39982,"is_reserved":false,"is_disabled":false,"rental_uris":{"android":"levelo://app?vid=a6f3d0b6-b54c-4d09-9370-d02fe202d86d","ios":"levelo://app?vid=a6f3d0b6-b54c-4d09-9370-d02fe202d86d"},"vehicle_type_id":"4","last_reported":1728515414,"current_range_meters":26000,"station_id":"ce4bho92rcd13ifvqh3g","pricing_plan_id":"cebpf4jnsgd1na2vs0mg"},{"bike_id":"4f2e5b4a-bc46-4dee-82ca-048529cfeab8","system_id":"levelo_inurba_marseille","lat":43.30648,"lon":5.40071,"is_reserved":false,"is_disabled":false,"rental_uris":{"android":"levelo://app?vid=4f2e5b4a-bc46-4dee-82ca-048529cfeab8","ios":"levelo://app?vid=4f2e5b4a-bc46-4dee-82ca-048529cfeab8"},"vehicle_type_id":"4","last_reported":1728515414,"current_range_meters":2800,"station_id":"ce4bh112rcd13ifvqda0","pricing_plan_id":"cebpf4jnsgd1na2vs0mg"},{"bike_id":"73e5476b-e1c9-4a5d-9e10-41361ad16636","system_id":"levelo_inurba_marseille","lat":43.25118,"lon":5.40319,"is_reserved":false,"is_disabled":false,"rental_uris":{"android":"levelo://app?vid=73e5476b-e1c9-4a5d-9e10-41361ad16636","ios":"levelo://app?vid=73e5476b-e1c9-4a5d-9e10-41361ad16636"},"vehicle_type_id":"4","last_reported":1728515414,"current_range_meters":39200,"station_id":"ce4bhlh2rcd13ifvqgig","pricing_plan_id":"cebpf4jnsgd1na2vs0mg"},{"bike_id":"0d1163d2-f36a-4511-a60a-fa404a6345a0","system_id":"levelo_inurba_marseille","lat":43.28037,"lon":5.36939,"is_reserved":false,"is_disabled":false,"rental_uris":{"android":"levelo://app?vid=0d1163d2-f36a-4511-a60a-fa404a6345a0","ios":"levelo://app?vid=0d1163d2-f36a-4511-a60a-fa404a6345a0"},"vehicle_type_id":"4","last_reported":1728515414,"current_range_meters":25600,"station_id":"ce4bha12rcd13ifvqef0","pricing_plan_id":"cebpf4jnsgd1na2vs0mg"},{"bike_id":"83094c49-8a16-4268-bb3f-b82bc8befb11","system_id":"levelo_inurba_marseille","lat":43.31083,"lon":5.42426,"is_reserved":false,"is_disabled":false,"rental_uris":{"android":"levelo://app?vid=83094c49-8a16-4268-bb3f-b82bc8befb11","ios":"levelo://app?vid=83094c49-8a16-4268-bb3f-b82bc8befb11"},"vehicle_type_id":"4","last_reported":1728515414,"current_range_meters":38000,"station_id":"ce4bhp92rcd13ifvqhag","pricing_plan_id":"cebpf4jnsgd1na2vs0mg"},{"bike_id":"d6b5cfa3-a44a-4b35-a171-f97b144308bc","system_id":"levelo_inurba_marseille","lat":43.31531,"lon":5.38026,"is_reserved":false,"is_disabled":false,"rental_uris":{"android":"levelo://app?vid=d6b5cfa3-a44a-4b35-a171-f97b144308bc","ios":"levelo://app?vid=d6b5cfa3-a44a-4b35-a171-f97b144308bc"},"vehicle_type_id":"4","last_reported":1728515414,"current_range_meters":24000,"station_id":"ce4bhsp2rcd13ifvqi50","pricing_plan_id":"cebpf4jnsgd1na2vs0mg"},{"bike_id":"4cdcd215-fc2e-4af7-9745-559a856b0ae4","system_id":"levelo_inurba_marseille","lat":43.33023,"lon":5.39047,"is_reserved":false,"is_disabled":false,"rental_uris":{"android":"levelo://app?vid=4cdcd215-fc2e-4af7-9745-559a856b0ae4","ios":"levelo://app?vid=4cdcd215-fc2e-4af7-9745-559a856b0ae4"},"vehicle_type_id":"4","last_reported":1728515414,"current_range_meters":34000,"station_id":"ce4bhr92rcd13ifvqhrg","pricing_plan_id":"cebpf4jnsgd1na2vs0mg"},{"bike_id":"6c9d17b9-7587-4e1f-a064-95fc5c59028f","system_id":"levelo_inurba_marseille","lat":43.28454,"lon":5.37506,"is_reserved":false,"is_disabled":false,"rental_uris":{"android":"levelo://app?vid=6c9d17b9-7587-4e1f-a064-95fc5c59028f","ios":"levelo://app?vid=6c9d17b9-7587-4e1f-a064-95fc5c59028f"},"vehicle_type_id":"4","last_reported":1728515414,"current_range_meters":16000,"station_id":"","pricing_plan_id":"cebpf4jnsgd1na2vs0mg"},{"bike_id":"06f3d421-f81e-4e56-bbad-68ffbe2945bb","system_id":"levelo_inurba_marseille","lat":43.28705,"lon":5.39986,"is_reserved":false,"is_disabled":false,"rental_uris":{"android":"levelo://app?vid=06f3d421-f81e-4e56-bbad-68ffbe2945bb","ios":"levelo://app?vid=06f3d421-f81e-4e56-bbad-68ffbe2945bb"},"vehicle_type_id":"4","last_reported":1728515414,"current_range_meters":35200,"station_id":"ce4bho92rcd13ifvqh3g","pricing_plan_id":"cebpf4jnsgd1na2vs0mg"},{"bike_id":"e737c6da-2fda-41b9-aba8-b1d00ea0817d","system_id":"levelo_inurba_marseille","lat":43.29956,"lon":5.41315,"is_reserved":false,"is_disabled":false,"rental_uris":{"android":"levelo://app?vid=e737c6da-2fda-41b9-aba8-b1d00ea0817d","ios":"levelo://app?vid=e737c6da-2fda-41b9-aba8-b1d00ea0817d"},"vehicle_type_id":"4","last_reported":1728515414,"current_range_meters":38400,"station_id":"ce4bhp12rcd13ifvqh9g","pricing_plan_id":"cebpf4jnsgd1na2vs0mg"},{"bike_id":"6be918ff-776e-400a-8dce-92f1e9e50ca6","system_id":"levelo_inurba_marseille","lat":43.3064,"lon":5.40074,"is_reserved":false,"is_disabled":false,"rental_uris":{"android":"levelo://app?vid=6be918ff-776e-400a-8dce-92f1e9e50ca6","ios":"levelo://app?vid=6be918ff-776e-400a-8dce-92f1e9e50ca6"},"vehicle_type_id":"4","last_reported":1728515414,"current_range_meters":34000,"station_id":"ce4bh112rcd13ifvqda0","pricing_plan_id":"cebpf4jnsgd1na2vs0mg"},{"bike_id":"dcf7fa1a-67f6-4cea-a4a2-70c202568816","system_id":"levelo_inurba_marseille","lat":43.24755,"lon":5.4002,"is_reserved":false,"is_disabled":false,"rental_uris":{"android":"levelo://app?vid=dcf7fa1a-67f6-4cea-a4a2-70c202568816","ios":"levelo://app?vid=dcf7fa1a-67f6-4cea-a4a2-70c202568816"},"vehicle_type_id":"4","last_reported":1728515414,"current_range_meters":24000,"station_id":"","pricing_plan_id":"cebpf4jnsgd1na2vs0mg"},{"bike_id":"98c417a8-30d2-498a-9fba-85b56f1b59df","system_id":"levelo_inurba_marseille","lat":43.29219,"lon":5.36066,"is_reserved":false,"is_disabled":false,"rental_uris":{"android":"levelo://app?vid=98c417a8-30d2-498a-9fba-85b56f1b59df","ios":"levelo://app?vid=98c417a8-30d2-498a-9fba-85b56f1b59df"},"vehicle_type_id":"4","last_reported":1728515414,"current_range_meters":38800,"station_id":"ce4bhbh2rcd13ifvqeqg","pricing_plan_id":"cebpf4jnsgd1na2vs0mg"},{"bike_id":"12dd3543-9792-411d-a2d3-090844735961","system_id":"levelo_inurba_marseille","lat":43.2794,"lon":5.41037,"is_reserved":false,"is_disabled":false,"rental_uris":{"android":"levelo://app?vid=12dd3543-9792-411d-a2d3-090844735961","ios":"levelo://app?vid=12dd3543-9792-411d-a2d3-090844735961"},"vehicle_type_id":"4","last_reported":1728515414,"current_range_meters":38800,"station_id":"ce4bhnp2rcd13ifvqh0g","pricing_plan_id":"cebpf4jnsgd1na2vs0mg"},{"bike_id":"dba7bf8e-d60b-4c12-8d0d-7862cf6225ac","system_id":"levelo_inurba_marseille","lat":43.28839,"lon":5.35828,"is_reserved":false,"is_disabled":false,"rental_uris":{"android":"levelo://app?vid=dba7bf8e-d60b-4c12-8d0d-7862cf6225ac","ios":"levelo://app?vid=dba7bf8e-d60b-4c12-8d0d-7862cf6225ac"},"vehicle_type_id":"4","last_reported":1728515414,"current_range_meters":38800,"station_id":"ce4bhb12rcd13ifvqem0","pricing_plan_id":"cebpf4jnsgd1na2vs0mg"},{"bike_id":"44e61575-33b3-45e4-9c52-16d46941b0ae","system_id":"levelo_inurba_marseille","lat":43.27948,"lon":5.41042,"is_reserved":false,"is_disabled":false,"rental_uris":{"android":"levelo://app?vid=44e61575-33b3-45e4-9c52-16d46941b0ae","ios":"levelo://app?vid=44e61575-33b3-45e4-9c52-16d46941b0ae"},"vehicle_type_id":"4","last_reported":1728515414,"current_range_meters":38800,"station_id":"ce4bhnp2rcd13ifvqh0g","pricing_plan_id":"cebpf4jnsgd1na2vs0mg"},{"bike_id":"8ab3d839-8f7f-4bb9-aab7-6ea07849175d","system_id":"levelo_inurba_marseille","lat":43.31889,"lon":5.40729,"is_reserved":false,"is_disabled":false,"rental_uris":{"android":"levelo://app?vid=8ab3d839-8f7f-4bb9-aab7-6ea07849175d","ios":"levelo://app?vid=8ab3d839-8f7f-4bb9-aab7-6ea07849175d"},"vehicle_type_id":"4","last_reported":1728515414,"current_range_meters":3600,"station_id":"ce4bhq12rcd13ifvqhig","pricing_plan_id":"cebpf4jnsgd1na2vs0mg"},{"bike_id":"11481a21-ad5d-4309-8223-34b7c8c34c3f","system_id":"levelo_inurba_marseille","lat":43.28927,"lon":5.36373,"is_reserved":false,"is_disabled":false,"rental_uris":{"android":"levelo://app?vid=11481a21-ad5d-4309-8223-34b7c8c34c3f","ios":"levelo://app?vid=11481a21-ad5d-4309-8223-34b7c8c34c3f"},"vehicle_type_id":"4","last_reported":1728515414,"current_range_meters":34000,"station_id":"ce4bhc92rcd13ifvqetg","pricing_plan_id":"cebpf4jnsgd1na2vs0mg"},{"bike_id":"f141fb1c-de96-4fa3-ad02-84eb957e3fc1","system_id":"levelo_inurba_marseille","lat":43.29868,"lon":5.39729,"is_reserved":false,"is_disabled":false,"rental_uris":{"android":"levelo://app?vid=f141fb1c-de96-4fa3-ad02-84eb957e3fc1","ios":"levelo://app?vid=f141fb1c-de96-4fa3-ad02-84eb957e3fc1"},"vehicle_type_id":"4","last_reported":1728515414,"current_range_meters":38800,"station_id":"ce4bh0h2rcd13ifvqd50","pricing_plan_id":"cebpf4jnsgd1na2vs0mg"},{"bike_id":"1230e06c-e562-49b4-8874-629a458917da","system_id":"levelo_inurba_marseille","lat":43.31692,"lon":5.40464,"is_reserved":false,"is_disabled":false,"rental_uris":{"android":"levelo://app?vid=1230e06c-e562-49b4-8874-629a458917da","ios":"levelo://app?vid=1230e06c-e562-49b4-8874-629a458917da"},"vehicle_type_id":"4","last_reported":1728515414,"current_range_meters":19600,"station_id":"ce4bh012rcd13ifvqd00","pricing_plan_id":"cebpf4jnsgd1na2vs0mg"},{"bike_id":"cfdf381a-e1e8-426b-85b9-1a78cba90dc6","system_id":"levelo_inurba_marseille","lat":43.31753,"lon":5.39017,"is_reserved":false,"is_disabled":false,"rental_uris":{"android":"levelo://app?vid=cfdf381a-e1e8-426b-85b9-1a78cba90dc6","ios":"levelo://app?vid=cfdf381a-e1e8-426b-85b9-1a78cba90dc6"},"vehicle_type_id":"4","last_reported":1728515414,"current_range_meters":38400,"station_id":"ce4bhqp2rcd13ifvqhng","pricing_plan_id":"cebpf4jnsgd1na2vs0mg"},{"bike_id":"6caf95ac-909f-41e1-8bc7-0f91444d16fb","system_id":"levelo_inurba_marseille","lat":43.23073,"lon":5.35493,"is_reserved":false,"is_disabled":false,"rental_uris":{"android":"levelo://app?vid=6caf95ac-909f-41e1-8bc7-0f91444d16fb","ios":"levelo://app?vid=6caf95ac-909f-41e1-8bc7-0f91444d16fb"},"vehicle_type_id":"4","last_reported":1728515414,"current_range_meters":16000,"station_id":"cpo3342slgdg3j2ifvpg","pricing_plan_id":"cebpf4jnsgd1na2vs0mg"},{"bike_id":"262f4592-b078-4da6-b5bb-9cb26e28cb3f","system_id":"levelo_inurba_marseille","lat":43.32,"lon":5.381504,"is_reserved":false,"is_disabled":false,"rental_uris":{"android":"levelo://app?vid=262f4592-b078-4da6-b5bb-9cb26e28cb3f","ios":"levelo://app?vid=262f4592-b078-4da6-b5bb-9cb26e28cb3f"},"vehicle_type_id":"4","last_reported":1728515414,"current_range_meters":38800,"station_id":"ce4bhr12rcd13ifvqhpg","pricing_plan_id":"cebpf4jnsgd1na2vs0mg"},{"bike_id":"3fab305b-1728-4a45-9f4f-fb39052b80d2","system_id":"levelo_inurba_marseille","lat":43.25491,"lon":5.37645,"is_reserved":false,"is_disabled":false,"rental_uris":{"android":"levelo://app?vid=3fab305b-1728-4a45-9f4f-fb39052b80d2","ios":"levelo://app?vid=3fab305b-1728-4a45-9f4f-fb39052b80d2"},"vehicle_type_id":"4","last_reported":1728515414,"current_range_meters":35600,"station_id":"ce4bhh12rcd13ifvqff0","pricing_plan_id":"cebpf4jnsgd1na2vs0mg"},{"bike_id":"2f946788-2ef0-4d95-94d0-374e4bea5849","system_id":"levelo_inurba_marseille","lat":43.33603,"lon":5.4103,"is_reserved":false,"is_disabled":false,"rental_uris":{"android":"levelo://app?vid=2f946788-2ef0-4d95-94d0-374e4bea5849","ios":"levelo://app?vid=2f946788-2ef0-4d95-94d0-374e4bea5849"},"vehicle_type_id":"4","last_reported":1728515414,"current_range_meters":38800,"station_id":"ce4bhqh2rcd13ifvqhmg","pricing_plan_id":"cebpf4jnsgd1na2vs0mg"},{"bike_id":"cb439072-15f2-4299-919f-ba4b86460e53","system_id":"levelo_inurba_marseille","lat":43.280353,"lon":5.369529,"is_reserved":false,"is_disabled":false,"rental_uris":{"android":"levelo://app?vid=cb439072-15f2-4299-919f-ba4b86460e53","ios":"levelo://app?vid=cb439072-15f2-4299-919f-ba4b86460e53"},"vehicle_type_id":"4","last_reported":1728515414,"current_range_meters":39200,"station_id":"ce4bha12rcd13ifvqef0","pricing_plan_id":"cebpf4jnsgd1na2vs0mg"},{"bike_id":"a01e6511-8d04-42fc-9359-9849193889b5","system_id":"levelo_inurba_marseille","lat":43.27182,"lon":5.40986,"is_reserved":false,"is_disabled":false,"rental_uris":{"android":"levelo://app?vid=a01e6511-8d04-42fc-9359-9849193889b5","ios":"levelo://app?vid=a01e6511-8d04-42fc-9359-9849193889b5"},"vehicle_type_id":"4","last_reported":1728515414,"current_range_meters":38800,"station_id":"ce4bhl12rcd13ifvqgf0","pricing_plan_id":"cebpf4jnsgd1na2vs0mg"},{"bike_id":"ede68b2f-f53f-4ad5-a3f5-950bc936b5eb","system_id":"levelo_inurba_marseille","lat":43.33773,"lon":5.37398,"is_reserved":false,"is_disabled":false,"rental_uris":{"android":"levelo://app?vid=ede68b2f-f53f-4ad5-a3f5-950bc936b5eb","ios":"levelo://app?vid=ede68b2f-f53f-4ad5-a3f5-950bc936b5eb"},"vehicle_type_id":"4","last_reported":1728515414,"current_range_meters":32000,"station_id":"","pricing_plan_id":"cebpf4jnsgd1na2vs0mg"},{"bike_id":"dce02e95-c712-4d68-98a4-68a7f35b44b2","system_id":"levelo_inurba_marseille","lat":43.2762,"lon":5.36112,"is_reserved":false,"is_disabled":false,"rental_uris":{"android":"levelo://app?vid=dce02e95-c712-4d68-98a4-68a7f35b44b2","ios":"levelo://app?vid=dce02e95-c712-4d68-98a4-68a7f35b44b2"},"vehicle_type_id":"4","last_reported":1728515414,"current_range_meters":37600,"station_id":"ce4bgj92rcd13ifvqbe0","pricing_plan_id":"cebpf4jnsgd1na2vs0mg"},{"bike_id":"ede11f7e-0841-4d60-b7dc-e38309e6814d","system_id":"levelo_inurba_marseille","lat":43.28457,"lon":5.35892,"is_reserved":false,"is_disabled":false,"rental_uris":{"android":"levelo://app?vid=ede11f7e-0841-4d60-b7dc-e38309e6814d","ios":"levelo://app?vid=ede11f7e-0841-4d60-b7dc-e38309e6814d"},"vehicle_type_id":"4","last_reported":1728515414,"current_range_meters":28000,"station_id":"ce4bhah2rcd13ifvqei0","pricing_plan_id":"cebpf4jnsgd1na2vs0mg"},{"bike_id":"bb2e048a-c55f-4f68-98e0-9f12edc3e4d6","system_id":"levelo_inurba_marseille","lat":43.24185,"lon":5.39731,"is_reserved":false,"is_disabled":false,"rental_uris":{"android":"levelo://app?vid=bb2e048a-c55f-4f68-98e0-9f12edc3e4d6","ios":"levelo://app?vid=bb2e048a-c55f-4f68-98e0-9f12edc3e4d6"},"vehicle_type_id":"4","last_reported":1728515414,"current_range_meters":38800,"station_id":"ce4bhn12rcd13ifvqgpg","pricing_plan_id":"cebpf4jnsgd1na2vs0mg"},{"bike_id":"51ac1468-270a-49d0-8cdb-4ef6fc2d7e71","system_id":"levelo_inurba_marseille","lat":43.33719,"lon":5.39176,"is_reserved":false,"is_disabled":false,"rental_uris":{"android":"levelo://app?vid=51ac1468-270a-49d0-8cdb-4ef6fc2d7e71","ios":"levelo://app?vid=51ac1468-270a-49d0-8cdb-4ef6fc2d7e71"},"vehicle_type_id":"4","last_reported":1728515414,"current_range_meters":16000,"station_id":"ce4bhr92rcd13ifvqhsg","pricing_plan_id":"cebpf4jnsgd1na2vs0mg"},{"bike_id":"a0970d4d-a991-40cf-a594-c427e102c323","system_id":"levelo_inurba_marseille","lat":43.31726,"lon":5.42396,"is_reserved":false,"is_disabled":false,"rental_uris":{"android":"levelo://app?vid=a0970d4d-a991-40cf-a594-c427e102c323","ios":"levelo://app?vid=a0970d4d-a991-40cf-a594-c427e102c323"},"vehicle_type_id":"4","last_reported":1728515414,"current_range_meters":29600,"station_id":"ce4bhp92rcd13ifvqhbg","pricing_plan_id":"cebpf4jnsgd1na2vs0mg"},{"bike_id":"2ca4a4b5-7b22-4790-9f9c-55b8b74a82e9","system_id":"levelo_inurba_marseille","lat":43.27957,"lon":5.41041,"is_reserved":false,"is_disabled":false,"rental_uris":{"android":"levelo://app?vid=2ca4a4b5-7b22-4790-9f9c-55b8b74a82e9","ios":"levelo://app?vid=2ca4a4b5-7b22-4790-9f9c-55b8b74a82e9"},"vehicle_type_id":"4","last_reported":1728515414,"current_range_meters":38400,"station_id":"ce4bhnp2rcd13ifvqh0g","pricing_plan_id":"cebpf4jnsgd1na2vs0mg"},{"bike_id":"154054a2-6c1e-467b-82d8-72e958c45190","system_id":"levelo_inurba_marseille","lat":43.24081,"lon":5.3775,"is_reserved":false,"is_disabled":false,"rental_uris":{"android":"levelo://app?vid=154054a2-6c1e-467b-82d8-72e958c45190","ios":"levelo://app?vid=154054a2-6c1e-467b-82d8-72e958c45190"},"vehicle_type_id":"4","last_reported":1728515414,"current_range_meters":9200,"station_id":"ce4bhnp2rcd13ifvqgvg","pricing_plan_id":"cebpf4jnsgd1na2vs0mg"},{"bike_id":"5d378526-5716-411b-b4b1-79e697cfb815","system_id":"levelo_inurba_marseille","lat":43.30798,"lon":5.43516,"is_reserved":false,"is_disabled":false,"rental_uris":{"android":"levelo://app?vid=5d378526-5716-411b-b4b1-79e697cfb815","ios":"levelo://app?vid=5d378526-5716-411b-b4b1-79e697cfb815"},"vehicle_type_id":"4","last_reported":1728515414,"current_range_meters":30400,"station_id":"ce4bhph2rcd13ifvqheg","pricing_plan_id":"cebpf4jnsgd1na2vs0mg"},{"bike_id":"ce4c5209-8f14-422f-933b-f32f2f1c85af","system_id":"levelo_inurba_marseille","lat":43.25109,"lon":5.40327,"is_reserved":false,"is_disabled":false,"rental_uris":{"android":"levelo://app?vid=ce4c5209-8f14-422f-933b-f32f2f1c85af","ios":"levelo://app?vid=ce4c5209-8f14-422f-933b-f32f2f1c85af"},"vehicle_type_id":"4","last_reported":1728515414,"current_range_meters":38800,"station_id":"ce4bhlh2rcd13ifvqgig","pricing_plan_id":"cebpf4jnsgd1na2vs0mg"},{"bike_id":"885b6ad9-0995-4c83-bb2b-01ee09830319","system_id":"levelo_inurba_marseille","lat":43.322886,"lon":5.382782,"is_reserved":false,"is_disabled":false,"rental_uris":{"android":"levelo://app?vid=885b6ad9-0995-4c83-bb2b-01ee09830319","ios":"levelo://app?vid=885b6ad9-0995-4c83-bb2b-01ee09830319"},"vehicle_type_id":"4","last_reported":1728515414,"current_range_meters":39200,"station_id":"ce4bhr12rcd13ifvqhqg","pricing_plan_id":"cebpf4jnsgd1na2vs0mg"},{"bike_id":"a57571ce-2382-4494-8dfc-fc2b9e9c4d97","system_id":"levelo_inurba_marseille","lat":43.28406,"lon":5.37514,"is_reserved":false,"is_disabled":false,"rental_uris":{"android":"levelo://app?vid=a57571ce-2382-4494-8dfc-fc2b9e9c4d97","ios":"levelo://app?vid=a57571ce-2382-4494-8dfc-fc2b9e9c4d97"},"vehicle_type_id":"4","last_reported":1728515414,"current_range_meters":38800,"station_id":"ce4bh412rcd13ifvqds0","pricing_plan_id":"cebpf4jnsgd1na2vs0mg"},{"bike_id":"189a04bd-0a5a-4751-981b-00ff5299697d","system_id":"levelo_inurba_marseille","lat":43.306,"lon":5.37231,"is_reserved":false,"is_disabled":false,"rental_uris":{"android":"levelo://app?vid=189a04bd-0a5a-4751-981b-00ff5299697d","ios":"levelo://app?vid=189a04bd-0a5a-4751-981b-00ff5299697d"},"vehicle_type_id":"4","last_reported":1728515414,"current_range_meters":9200,"station_id":"ce4bgqh2rcd13ifvqc4g","pricing_plan_id":"cebpf4jnsgd1na2vs0mg"},{"bike_id":"810b32d6-b30c-480b-a6ee-5bd54d112eb8","system_id":"levelo_inurba_marseille","lat":43.33749,"lon":5.37442,"is_reserved":false,"is_disabled":false,"rental_uris":{"android":"levelo://app?vid=810b32d6-b30c-480b-a6ee-5bd54d112eb8","ios":"levelo://app?vid=810b32d6-b30c-480b-a6ee-5bd54d112eb8"},"vehicle_type_id":"4","last_reported":1728515414,"current_range_meters":26000,"station_id":"ce4rr2p2rcd13i802rgg","pricing_plan_id":"cebpf4jnsgd1na2vs0mg"},{"bike_id":"44507ef2-d923-4461-81b5-8367eba8083b","system_id":"levelo_inurba_marseille","lat":43.287,"lon":5.39974,"is_reserved":false,"is_disabled":false,"rental_uris":{"android":"levelo://app?vid=44507ef2-d923-4461-81b5-8367eba8083b","ios":"levelo://app?vid=44507ef2-d923-4461-81b5-8367eba8083b"},"vehicle_type_id":"4","last_reported":1728515414,"current_range_meters":38800,"station_id":"ce4bho92rcd13ifvqh3g","pricing_plan_id":"cebpf4jnsgd1na2vs0mg"},{"bike_id":"7507b4b6-0e77-4929-840a-43395246c408","system_id":"levelo_inurba_marseille","lat":43.30883,"lon":5.39648,"is_reserved":false,"is_disabled":false,"rental_uris":{"android":"levelo://app?vid=7507b4b6-0e77-4929-840a-43395246c408","ios":"levelo://app?vid=7507b4b6-0e77-4929-840a-43395246c408"},"vehicle_type_id":"4","last_reported":1728515414,"current_range_meters":38800,"station_id":"ce4bh012rcd13ifvqcv0","pricing_plan_id":"cebpf4jnsgd1na2vs0mg"},{"bike_id":"332ad97f-5bed-41c2-8d9d-3cce24e6c5e8","system_id":"levelo_inurba_marseille","lat":43.309287,"lon":5.40146,"is_reserved":false,"is_disabled":false,"rental_uris":{"android":"levelo://app?vid=332ad97f-5bed-41c2-8d9d-3cce24e6c5e8","ios":"levelo://app?vid=332ad97f-5bed-41c2-8d9d-3cce24e6c5e8"},"vehicle_type_id":"4","last_reported":1728515414,"current_range_meters":34000,"station_id":"ce4bgvp2rcd13ifvqct0","pricing_plan_id":"cebpf4jnsgd1na2vs0mg"},{"bike_id":"930d5175-da31-4536-8c17-6a3e08a1658a","system_id":"levelo_inurba_marseille","lat":43.30604,"lon":5.40099,"is_reserved":false,"is_disabled":false,"rental_uris":{"android":"levelo://app?vid=930d5175-da31-4536-8c17-6a3e08a1658a","ios":"levelo://app?vid=930d5175-da31-4536-8c17-6a3e08a1658a"},"vehicle_type_id":"4","last_reported":1728515414,"current_range_meters":24400,"station_id":"ce4bh112rcd13ifvqda0","pricing_plan_id":"cebpf4jnsgd1na2vs0mg"},{"bike_id":"dcac3b1a-b82e-4bfc-8119-44654bbcd2b2","system_id":"levelo_inurba_marseille","lat":43.31175,"lon":5.38714,"is_reserved":false,"is_disabled":false,"rental_uris":{"android":"levelo://app?vid=dcac3b1a-b82e-4bfc-8119-44654bbcd2b2","ios":"levelo://app?vid=dcac3b1a-b82e-4bfc-8119-44654bbcd2b2"},"vehicle_type_id":"4","last_reported":1728515414,"current_range_meters":18000,"station_id":"ce4bgv12rcd13ifvqcp0","pricing_plan_id":"cebpf4jnsgd1na2vs0mg"},{"bike_id":"7404348e-d582-4212-80c1-ab7d59c5a446","system_id":"levelo_inurba_marseille","lat":43.25859,"lon":5.39903,"is_reserved":false,"is_disabled":false,"rental_uris":{"android":"levelo://app?vid=7404348e-d582-4212-80c1-ab7d59c5a446","ios":"levelo://app?vid=7404348e-d582-4212-80c1-ab7d59c5a446"},"vehicle_type_id":"4","last_reported":1728515414,"current_range_meters":38800,"station_id":"ce4bhl92rcd13ifvqghg","pricing_plan_id":"cebpf4jnsgd1na2vs0mg"},