{"last_updated":1760803861,"ttl":60,"version":"2.2","data":{"bikes":[{"bike_id":"063e1086-9c5b-4abc-ac7c-37372c76ff3b","system_id":"levelo_inurba_marseille","lat":43.29749,"lon":5.42781,"is_reserved":false,"is_disabled":false,"rental_uris":{"android":"levelo://app?vid=063e1086-9c5b-4abc-ac7c-37372c76ff3b","ios":"levelo://app?vid=063e1086-9c5b-4abc-ac7c-37372c76ff3b"},"vehicle_type_id":"4","last_reported":1760803861,"current_range_meters":2800,"station_id":"st_d3md5207bmas73dh9klg","pricing_plan_id":"cebpf4jnsgd1na2vs0mg"},{"bike_id":"3fecbbcc-173a-4846-acfa-e6700faaa090","system_id":"levelo_inurba_marseille","lat":43.297984,"lon":5.381099,"is_reserved":false,"is_disabled":false,"rental_uris":{"android":"levelo://app?vid=3fecbbcc-173a-4846-acfa-e6700faaa090","ios":"levelo://app?vid=3fecbbcc-173a-4846-acfa-e6700faaa090"},"vehicle_type_id":"4","last_reported":1760803861,"current_range_meters":2800,"station_id":"ce4bgip2rcd13ifvqbb0","pricing_plan_id":"cebpf4jnsgd1na2vs0mg"},{"bike_id":"ead36f5d-805a-4ae4-b2ba-efe2ee649af7","system_id":"levelo_inurba_marseille","lat":43.29367,"lon":5.37853,"is_reserved":false,"is_disabled":false,"rental_uris":{"android":"levelo://app?vid=ead36f5d-805a-4ae4-b2ba-efe2ee649af7","ios":"levelo://app?vid=ead36f5d-805a-4ae4-b2ba-efe2ee649af7"},"vehicle_type_id":"4","last_reported":1760803861,"current_range_meters":2800,"station_id":"ce4bgjh2rcd13ifvqbf0","pricing_plan_id":"cebpf4jnsgd1na2vs0mg"},{"bike_id":"5d1dddfe-8698-4113-981e-c5eb8ca1bee4","system_id":"levelo_inurba_marseille","lat":43.23065,"lon":5.35489,"is_reserved":false,"is_disabled":false,"rental_uris":{"android":"levelo://app?vid=5d1dddfe-8698-4113-981e-c5eb8ca1bee4","ios":"levelo://app?vid=5d1dddfe-8698-4113-981e-c5eb8ca1bee4"},"vehicle_type_id":"4","last_reported":1760803861,"current_range_meters":2800,"station_id":"cpo3342slgdg3j2ifvpg","pricing_plan_id":"cebpf4jnsgd1na2vs0mg"},{"bike_id":"f05ac229-7e34-4cc7-a859-1d1ac2973a15","system_id":"levelo_inurba_marseille","lat":43.272186,"lon":5.391843,"is_reserved":false,"is_disabled":false,"rental_uris":{"android":"levelo://app?vid=f05ac229-7e34-4cc7-a859-1d1ac2973a15","ios":"levelo://app?vid=f05ac229-7e34-4cc7-a859-1d1ac2973a15"},"vehicle_type_id":"4","last_reported":1760803861,"current_range_meters":2800,"station_id":"ce4bhhp2rcd13ifvqfm0","pricing_plan_id":"cebpf4jnsgd1na2vs0mg"},{"bike_id":"a0c92c7d-e509-47e7-897e-ac60d4b701c8","system_id":"levelo_inurba_marseille","lat":43.30511,"lon":5.36711,"is_reserved":false,"is_disabled":false,"rental_uris":{"android":"levelo://app?vid=a0c92c7d-e509-47e7-897e-ac60d4b701c8","ios":"levelo://app?vid=a0c92c7d-e509-47e7-897e-ac60d4b701c8"},"vehicle_type_id":"4","last_reported":1760803861,"current_range_meters":3200,"station_id":"ce4bgrp2rcd13ifvqc9g","pricing_plan_id":"cebpf4jnsgd1na2vs0mg"},{"bike_id":"834c820c-23d9-4b8c-8962-8556567ad1b8","system_id":"levelo_inurba_marseille","lat":43.26057,"lon":5.39405,"is_reserved":false,"is_disabled":false,"rental_uris":{"android":"levelo://app?vid=834c820c-23d9-4b8c-8962-8556567ad1b8","ios":"levelo://app?vid=834c820c-23d9-4b8c-8962-8556567ad1b8"},"vehicle_type_id":"4","last_reported":1760803861,"current_range_meters":3200,"station_id":"ce4bhh92rcd13ifvqfj0","pricing_plan_id":"cebpf4jnsgd1na2vs0mg"},{"bike_id":"4d714a26-2b1a-4bd4-b60e-cfe8419df733","system_id":"levelo_inurba_marseille","lat":43.2293,"lon":5.35378,"is_reserved":false,"is_disabled":false,"rental_uris":{"android":"levelo://app?vid=4d714a26-2b1a-4bd4-b60e-cfe8419df733","ios":"levelo://app?vid=4d714a26-2b1a-4bd4-b60e-cfe8419df733"},"vehicle_type_id":"4","last_reported":1760803861,"current_range_meters":3200,"station_id":"cpo3532slgdg3j2ikp40","pricing_plan_id":"cebpf4jnsgd1na2vs0mg"},{"bike_id":"f5cccb16-c4ad-493e-a9c8-f8f9da6a9d9f","system_id":"levelo_inurba_marseille","lat":43.27917,"lon":5.3958,"is_reserved":false,"is_disabled":false,"rental_uris":{"android":"levelo://app?vid=f5cccb16-c4ad-493e-a9c8-f8f9da6a9d9f","ios":"levelo://app?vid=f5cccb16-c4ad-493e-a9c8-f8f9da6a9d9f"},"vehicle_type_id":"4","last_reported":1760803861,"current_range_meters":3200,"station_id":"ce4bhf92rcd13ifvqf40","pricing_plan_id":"cebpf4jnsgd1na2vs0mg"},{"bike_id":"33de5793-85a5-48b8-bb7c-0ec374b034ca","system_id":"levelo_inurba_marseille","lat":43.22532,"lon":5.34832,"is_reserved":false,"is_disabled":true,"rental_uris":{"android":"levelo://app?vid=33de5793-85a5-48b8-bb7c-0ec374b034ca","ios":"levelo://app?vid=33de5793-85a5-48b8-bb7c-0ec374b034ca"},"vehicle_type_id":"4","last_reported":1760803861,"current_range_meters":3200,"station_id":"","pricing_plan_id":"cebpf4jnsgd1na2vs0mg"},{"bike_id":"121f55c8-5a85-4142-a96c-bf52eb873442","system_id":"levelo_inurba_marseille","lat":43.30478,"lon":5.36914,"is_reserved":false,"is_disabled":false,"rental_uris":{"android":"levelo://app?vid=121f55c8-5a85-4142-a96c-bf52eb873442","ios":"levelo://app?vid=121f55c8-5a85-4142-a96c-bf52eb873442"},"vehicle_type_id":"4","last_reported":1760803861,"current_range_meters":3200,"station_id":"","pricing_plan_id":"cebpf4jnsgd1na2vs0mg"},{"bike_id":"133c6656-2bfa-4343-867d-9ad47a7d1036","system_id":"levelo_inurba_marseille","lat":43.30532,"lon":5.36697,"is_reserved":false,"is_disabled":false,"rental_uris":{"android":"levelo://app?vid=133c6656-2bfa-4343-867d-9ad47a7d1036","ios":"levelo://app?vid=133c6656-2bfa-4343-867d-9ad47a7d1036"},"vehicle_type_id":"4","last_reported":1760803861,"current_range_meters":3200,"station_id":"ce4bgrp2rcd13ifvqc9g","pricing_plan_id":"cebpf4jnsgd1na2vs0mg"},{"bike_id":"e081c8d2-95dc-47dc-912f-90026f555914","system_id":"levelo_inurba_marseille","lat":43.305,"lon":5.41499,"is_reserved":false,"is_disabled":false,"rental_uris":{"android":"levelo://app?vid=e081c8d2-95dc-47dc-912f-90026f555914","ios":"levelo://app?vid=e081c8d2-95dc-47dc-912f-90026f555914"},"vehicle_type_id":"4","last_reported":1760803861,"current_range_meters":3200,"station_id":"","pricing_plan_id":"cebpf4jnsgd1na2vs0mg"},{"bike_id":"b6556eb6-1b08-48db-81ba-f04eaa12cfdc","system_id":"levelo_inurba_marseille","lat":43.217467,"lon":5.346032,"is_reserved":false,"is_disabled":false,"rental_uris":{"android":"levelo://app?vid=b6556eb6-1b08-48db-81ba-f04eaa12cfdc","ios":"levelo://app?vid=b6556eb6-1b08-48db-81ba-f04eaa12cfdc"},"vehicle_type_id":"4","last_reported":1760803861,"current_range_meters":3600,"station_id":"","pricing_plan_id":"cebpf4jnsgd1na2vs0mg"},{"bike_id":"a99d5f72-5783-4c0d-9490-2905d961e237","system_id":"levelo_inurba_marseille","lat":43.229221,"lon":5.353701,"is_reserved":false,"is_disabled":false,"rental_uris":{"android":"levelo://app?vid=a99d5f72-5783-4c0d-9490-2905d961e237","ios":"levelo://app?vid=a99d5f72-5783-4c0d-9490-2905d961e237"},"vehicle_type_id":"4","last_reported":1760803861,"current_range_meters":3600,"station_id":"cpo3532slgdg3j2ikp40","pricing_plan_id":"cebpf4jnsgd1na2vs0mg"},{"bike_id":"7ec8b36f-6f1a-41f0-a03a-a45e51acb027","system_id":"levelo_inurba_marseille","lat":43.21738,"lon":5.34615,"is_reserved":false,"is_disabled":true,"rental_uris":{"android":"levelo://app?vid=7ec8b36f-6f1a-41f0-a03a-a45e51acb027","ios":"levelo://app?vid=7ec8b36f-6f1a-41f0-a03a-a45e51acb027"},"vehicle_type_id":"4","last_reported":1760803861,"current_range_meters":3600,"station_id":"st_cvj6r9ubvosntc0bgbag","pricing_plan_id":"cebpf4jnsgd1na2vs0mg"},{"bike_id":"5959b819-a2fd-4cd9-b685-c1861816e5d0","system_id":"levelo_inurba_marseille","lat":43.268837,"lon":5.369304,"is_reserved":false,"is_disabled":false,"rental_uris":{"android":"levelo://app?vid=5959b819-a2fd-4cd9-b685-c1861816e5d0","ios":"levelo://app?vid=5959b819-a2fd-4cd9-b685-c1861816e5d0"},"vehicle_type_id":"4","last_reported":1760803861,"current_range_meters":3600,"station_id":"","pricing_plan_id":"cebpf4jnsgd1na2vs0mg"},{"bike_id":"0c9a1edf-e1cf-4072-a697-e6cd31e9290d","system_id":"levelo_inurba_marseille","lat":43.284149,"lon":5.349772,"is_reserved":false,"is_disabled":false,"rental_uris":{"android":"levelo://app?vid=0c9a1edf-e1cf-4072-a697-e6cd31e9290d","ios":"levelo://app?vid=0c9a1edf-e1cf-4072-a697-e6cd31e9290d"},"vehicle_type_id":"4","last_reported":1760803861,"current_range_meters":3600,"station_id":"","pricing_plan_id":"cebpf4jnsgd1na2vs0mg"},{"bike_id":"2b8af817-17ab-46f0-a2c4-8072bc431f46","system_id":"levelo_inurba_marseille","lat":43.23143,"lon":5.43724,"is_reserved":false,"is_disabled":false,"rental_uris":{"android":"levelo://app?vid=2b8af817-17ab-46f0-a2c4-8072bc431f46","ios":"levelo://app?vid=2b8af817-17ab-46f0-a2c4-8072bc431f46"},"vehicle_type_id":"4","last_reported":1760803861,"current_range_meters":3600,"station_id":"ce4bhmp2rcd13ifvqgog","pricing_plan_id":"cebpf4jnsgd1na2vs0mg"},{"bike_id":"59a2b21a-dc79-4928-8d60-10c078331374","system_id":"levelo_inurba_marseille","lat":43.2923,"lon":5.36072,"is_reserved":false,"is_disabled":false,"rental_uris":{"android":"levelo://app?vid=59a2b21a-dc79-4928-8d60-10c078331374","ios":"levelo://app?vid=59a2b21a-dc79-4928-8d60-10c078331374"},"vehicle_type_id":"4","last_reported":1760803861,"current_range_meters":3600,"station_id":"ce4bhbh2rcd13ifvqeqg","pricing_plan_id":"cebpf4jnsgd1na2vs0mg"},{"bike_id":"e257a5c9-b99e-4af1-ac4f-b017f1c8b418","system_id":"levelo_inurba_marseille","lat":43.33759,"lon":5.37438,"is_reserved":false,"is_disabled":false,"rental_uris":{"android":"levelo://app?vid=e257a5c9-b99e-4af1-ac4f-b017f1c8b418","ios":"levelo://app?vid=e257a5c9-b99e-4af1-ac4f-b017f1c8b418"},"vehicle_type_id":"4","last_reported":1760803861,"current_range_meters":4000,"station_id":"","pricing_plan_id":"cebpf4jnsgd1na2vs0mg"},{"bike_id":"5b776d9e-7fe5-443f-bacd-ffaae8612e42","system_id":"levelo_inurba_marseille","lat":43.2863,"lon":5.35098,"is_reserved":false,"is_disabled":false,"rental_uris":{"android":"levelo://app?vid=5b776d9e-7fe5-443f-bacd-ffaae8612e42","ios":"levelo://app?vid=5b776d9e-7fe5-443f-bacd-ffaae8612e42"},"vehicle_type_id":"4","last_reported":1760803861,"current_range_meters":4000,"station_id":"ce4bhch2rcd13ifvqeug","pricing_plan_id":"cebpf4jnsgd1na2vs0mg"},{"bike_id":"96671612-806a-4bbc-a649-ca088e4c3e78","system_id":"levelo_inurba_marseille","lat":43.231562,"lon":5.436958,"is_reserved":false,"is_disabled":true,"rental_uris":{"android":"levelo://app?vid=96671612-806a-4bbc-a649-ca088e4c3e78","ios":"levelo://app?vid=96671612-806a-4bbc-a649-ca088e4c3e78"},"vehicle_type_id":"4","last_reported":1760803861,"current_range_meters":4000,"station_id":"ce4bhmp2rcd13ifvqgog","pricing_plan_id":"cebpf4jnsgd1na2vs0mg"},{"bike_id":"ca49b6df-3250-49ae-a07e-8139cf527cf1","system_id":"levelo_inurba_marseille","lat":43.28463,"lon":5.35893,"is_reserved":false,"is_disabled":false,"rental_uris":{"android":"levelo://app?vid=ca49b6df-3250-49ae-a07e-8139cf527cf1","ios":"levelo://app?vid=ca49b6df-3250-49ae-a07e-8139cf527cf1"},"vehicle_type_id":"4","last_reported":1760803861,"current_range_meters":4000,"station_id":"ce4bhah2rcd13ifvqei0","pricing_plan_id":"cebpf4jnsgd1na2vs0mg"},{"bike_id":"c726d379-4bef-43c0-835f-345b2a28b709","system_id":"levelo_inurba_marseille","lat":43.301485,"lon":5.374212,"is_reserved":false,"is_disabled":false,"rental_uris":{"android":"levelo://app?vid=c726d379-4bef-43c0-835f-345b2a28b709","ios":"levelo://app?vid=c726d379-4bef-43c0-835f-345b2a28b709"},"vehicle_type_id":"4","last_reported":1760803861,"current_range_meters":4000,"station_id":"ce4bgs92rcd13ifvqcc0","pricing_plan_id":"cebpf4jnsgd1na2vs0mg"},{"bike_id":"d02f29c1-2a8c-4917-bd44-182e17dc974f","system_id":"levelo_inurba_marseille","lat":43.2977,"lon":5.37101,"is_reserved":false,"is_disabled":false,"rental_uris":{"android":"levelo://app?vid=d02f29c1-2a8c-4917-bd44-182e17dc974f","ios":"levelo://app?vid=d02f29c1-2a8c-4917-bd44-182e17dc974f"},"vehicle_type_id":"4","last_reported":1760803861,"current_range_meters":4000,"station_id":"ce4bgop2rcd13ifvqc1g","pricing_plan_id":"cebpf4jnsgd1na2vs0mg"},{"bike_id":"7a3e5a94-b744-4420-88ed-b67cf3b8b6d4","system_id":"levelo_inurba_marseille","lat":43.241667,"lon":5.363922,"is_reserved":false,"is_disabled":false,"rental_uris":{"android":"levelo://app?vid=7a3e5a94-b744-4420-88ed-b67cf3b8b6d4","ios":"levelo://app?vid=7a3e5a94-b744-4420-88ed-b67cf3b8b6d4"},"vehicle_type_id":"4","last_reported":1760803861,"current_range_meters":4000,"station_id":"cpo36qri1sfpv3e86is0","pricing_plan_id":"cebpf4jnsgd1na2vs0mg"},{"bike_id":"9a60d008-dc94-45b4-99e6-cdef5a841f3f","system_id":"levelo_inurba_marseille","lat":43.29614,"lon":5.37735,"is_reserved":false,"is_disabled":false,"rental_uris":{"android":"levelo://app?vid=9a60d008-dc94-45b4-99e6-cdef5a841f3f","ios":"levelo://app?vid=9a60d008-dc94-45b4-99e6-cdef5a841f3f"},"vehicle_type_id":"4","last_reported":1760803861,"current_range_meters":4000,"station_id":"ce4bgi92rcd13ifvqb90","pricing_plan_id":"cebpf4jnsgd1na2vs0mg"},{"bike_id":"3598b383-579b-47d9-89b6-df786d16c45f","system_id":"levelo_inurba_marseille","lat":43.29411,"lon":5.37499,"is_reserved":false,"is_disabled":false,"rental_uris":{"android":"levelo://app?vid=3598b383-579b-47d9-89b6-df786d16c45f","ios":"levelo://app?vid=3598b383-579b-47d9-89b6-df786d16c45f"},"vehicle_type_id":"4","last_reported":1760803861,"current_range_meters":4000,"station_id":"","pricing_plan_id":"cebpf4jnsgd1na2vs0mg"},{"bike_id":"c44cb94a-badb-4559-819d-bb48fcf0f2c8","system_id":"levelo_inurba_marseille","lat":43.292836,"lon":5.401143,"is_reserved":false,"is_disabled":false,"rental_uris":{"android":"levelo://app?vid=c44cb94a-badb-4559-819d-bb48fcf0f2c8","ios":"levelo://app?vid=c44cb94a-badb-4559-819d-bb48fcf0f2c8"},"vehicle_type_id":"4","last_reported":1760803861,"current_range_meters":4000,"station_id":"ce4bh312rcd13ifvqdk0","pricing_plan_id":"cebpf4jnsgd1na2vs0mg"},{"bike_id":"bb25126f-690f-4bed-8554-3cfe8d12514b","system_id":"levelo_inurba_marseille","lat":43.255056,"lon":5.376504,"is_reserved":false,"is_disabled":false,"rental_uris":{"android":"levelo://app?vid=bb25126f-690f-4bed-8554-3cfe8d12514b","ios":"levelo://app?vid=bb25126f-690f-4bed-8554-3cfe8d12514b"},"vehicle_type_id":"4","last_reported":1760803861,"current_range_meters":4400,"station_id":"ce4bhh12rcd13ifvqff0","pricing_plan_id":"cebpf4jnsgd1na2vs0mg"},{"bike_id":"f20d58cf-a843-4e5f-a1bf-203f5f861ee5","system_id":"levelo_inurba_marseille","lat":43.2827,"lon":5.35059,"is_reserved":false,"is_disabled":false,"rental_uris":{"android":"levelo://app?vid=f20d58cf-a843-4e5f-a1bf-203f5f861ee5","ios":"levelo://app?vid=f20d58cf-a843-4e5f-a1bf-203f5f861ee5"},"vehicle_type_id":"4","last_reported":1760803861,"current_range_meters":4400,"station_id":"ce4bhbp2rcd13ifvqerg","pricing_plan_id":"cebpf4jnsgd1na2vs0mg"},{"bike_id":"49ce2b9a-cd10-4a5f-bd77-66115be7608d","system_id":"levelo_inurba_marseille","lat":43.28419,"lon":5.35001,"is_reserved":false,"is_disabled":false,"rental_uris":{"android":"levelo://app?vid=49ce2b9a-cd10-4a5f-bd77-66115be7608d","ios":"levelo://app?vid=49ce2b9a-cd10-4a5f-bd77-66115be7608d"},"vehicle_type_id":"4","last_reported":1760803861,"current_range_meters":4400,"station_id":"ce4bhbh2rcd13ifvqepg","pricing_plan_id":"cebpf4jnsgd1na2vs0mg"},{"bike_id":"78f9e6bf-e731-4711-875e-3d47feaf80c8","system_id":"levelo_inurba_marseille","lat":43.28562,"lon":5.39495,"is_reserved":false,"is_disabled":false,"rental_uris":{"android":"levelo://app?vid=78f9e6bf-e731-4711-875e-3d47feaf80c8","ios":"levelo://app?vid=78f9e6bf-e731-4711-875e-3d47feaf80c8"},"vehicle_type_id":"4","last_reported":1760803861,"current_range_meters":4400,"station_id":"ce4bh292rcd13ifvqdg0","pricing_plan_id":"cebpf4jnsgd1na2vs0mg"},{"bike_id":"69ee454d-6d00-4d82-a381-fd708b1aa5cd","system_id":"levelo_inurba_marseille","lat":43.28613,"lon":5.35107,"is_reserved":false,"is_disabled":false,"rental_uris":{"android":"levelo://app?vid=69ee454d-6d00-4d82-a381-fd708b1aa5cd","ios":"levelo://app?vid=69ee454d-6d00-4d82-a381-fd708b1aa5cd"},"vehicle_type_id":"4","last_reported":1760803861,"current_range_meters":4400,"station_id":"ce4bhch2rcd13ifvqeug","pricing_plan_id":"cebpf4jnsgd1na2vs0mg"},{"bike_id":"6369551e-ebe8-4107-90c0-472d239b9d8b","system_id":"levelo_inurba_marseille","lat":43.2665,"lon":5.3886,"is_reserved":false,"is_disabled":false,"rental_uris":{"android":"levelo://app?vid=6369551e-ebe8-4107-90c0-472d239b9d8b","ios":"levelo://app?vid=6369551e-ebe8-4107-90c0-472d239b9d8b"},"vehicle_type_id":"4","last_reported":1760803861,"current_range_meters":4400,"station_id":"","pricing_plan_id":"cebpf4jnsgd1na2vs0mg"},{"bike_id":"c29148a1-1ae4-4915-a82e-81255d6782a7","system_id":"levelo_inurba_marseille","lat":43.275791,"lon":5.384426,"is_reserved":false,"is_disabled":false,"rental_uris":{"android":"levelo://app?vid=c29148a1-1ae4-4915-a82e-81255d6782a7","ios":"levelo://app?vid=c29148a1-1ae4-4915-a82e-81255d6782a7"},"vehicle_type_id":"4","last_reported":1760803861,"current_range_meters":4800,"station_id":"ce4bhh92rcd13ifvqfi0","pricing_plan_id":"cebpf4jnsgd1na2vs0mg"},{"bike_id":"1ee702e0-4548-41b5-8f38-78c69604b1ba","system_id":"levelo_inurba_marseille","lat":43.271779,"lon":5.410052,"is_reserved":false,"is_disabled":false,"rental_uris":{"android":"levelo://app?vid=1ee702e0-4548-41b5-8f38-78c69604b1ba","ios":"levelo://app?vid=1ee702e0-4548-41b5-8f38-78c69604b1ba"},"vehicle_type_id":"4","last_reported":1760803861,"current_range_meters":4800,"station_id":"ce4bhl12rcd13ifvqgf0","pricing_plan_id":"cebpf4jnsgd1na2vs0mg"},{"bike_id":"b1c84e62-3c1f-4a79-b696-93d9a96fcf2e","system_id":"levelo_inurba_marseille","lat":43.29021,"lon":5.38136,"is_reserved":false,"is_disabled":false,"rental_uris":{"android":"levelo://app?vid=b1c84e62-3c1f-4a79-b696-93d9a96fcf2e","ios":"levelo://app?vid=b1c84e62-3c1f-4a79-b696-93d9a96fcf2e"},"vehicle_type_id":"4","last_reported":1760803861,"current_range_meters":4800,"station_id":"ce4bh4p2rcd13ifvqe1g","pricing_plan_id":"cebpf4jnsgd1na2vs0mg"},{"bike_id":"36138ca6-1bbe-425b-8e00-9df5edc87cf6","system_id":"levelo_inurba_marseille","lat":43.32353,"lon":5.36756,"is_reserved":false,"is_disabled":false,"rental_uris":{"android":"levelo://app?vid=36138ca6-1bbe-425b-8e00-9df5edc87cf6","ios":"levelo://app?vid=36138ca6-1bbe-425b-8e00-9df5edc87cf6"},"vehicle_type_id":"4","last_reported":1760803861,"current_range_meters":4800,"station_id":"ce4bhsh2rcd13ifvqi2g","pricing_plan_id":"cebpf4jnsgd1na2vs0mg"},{"bike_id":"ca14c915-0361-4c0d-9307-5c9fbc4de036","system_id":"levelo_inurba_marseille","lat":43.323615,"lon":5.367564,"is_reserved":false,"is_disabled":false,"rental_uris":{"android":"levelo://app?vid=ca14c915-0361-4c0d-9307-5c9fbc4de036","ios":"levelo://app?vid=ca14c915-0361-4c0d-9307-5c9fbc4de036"},"vehicle_type_id":"4","last_reported":1760803861,"current_range_meters":4800,"station_id":"ce4bhsh2rcd13ifvqi2g","pricing_plan_id":"cebpf4jnsgd1na2vs0mg"},{"bike_id":"25f2e714-1bde-4087-a093-764d9c80a4f8","system_id":"levelo_inurba_marseille","lat":43.292795,"lon":5.368352,"is_reserved":false,"is_disabled":false,"rental_uris":{"android":"levelo://app?vid=25f2e714-1bde-4087-a093-764d9c80a4f8","ios":"levelo://app?vid=25f2e714-1bde-4087-a093-764d9c80a4f8"},"vehicle_type_id":"4","last_reported":1760803861,"current_range_meters":4800,"station_id":"ce4bhbp2rcd13ifvqesg","pricing_plan_id":"cebpf4jnsgd1na2vs0mg"},{"bike_id":"cc6097c2-1db4-4243-be37-6d66426abb34","system_id":"levelo_inurba_marseille","lat":43.31169,"lon":5.38725,"is_reserved":false,"is_disabled":false,"rental_uris":{"android":"levelo://app?vid=cc6097c2-1db4-4243-be37-6d66426abb34","ios":"levelo://app?vid=cc6097c2-1db4-4243-be37-6d66426abb34"},"vehicle_type_id":"4","last_reported":1760803861,"current_range_meters":4800,"station_id":"ce4bgv12rcd13ifvqcp0","pricing_plan_id":"cebpf4jnsgd1na2vs0mg"},{"bike_id":"2f933b37-1a74-4db4-9715-7d443247f40f","system_id":"levelo_inurba_marseille","lat":43.29021,"lon":5.38121,"is_reserved":false,"is_disabled":false,"rental_uris":{"android":"levelo://app?vid=2f933b37-1a74-4db4-9715-7d443247f40f","ios":"levelo://app?vid=2f933b37-1a74-4db4-9715-7d443247f40f"},"vehicle_type_id":"4","last_reported":1760803861,"current_range_meters":4800,"station_id":"ce4bh4p2rcd13ifvqe1g","pricing_plan_id":"cebpf4jnsgd1na2vs0mg"},{"bike_id":"847f1c8c-ea3d-4c8e-837d-8d1bc1a1831b","system_id":"levelo_inurba_marseille","lat":43.25584,"lon":5.3823,"is_reserved":false,"is_disabled":false,"rental_uris":{"android":"levelo://app?vid=847f1c8c-ea3d-4c8e-837d-8d1bc1a1831b","ios":"levelo://app?vid=847f1c8c-ea3d-4c8e-837d-8d1bc1a1831b"},"vehicle_type_id":"4","last_reported":1760803861,"current_range_meters":4800,"station_id":"ce4bhih2rcd13ifvqfs0","pricing_plan_id":"cebpf4jnsgd1na2vs0mg"},{"bike_id":"7ddf39ff-9e7d-4631-b144-45ce8000d829","system_id":"levelo_inurba_marseille","lat":43.30219,"lon":5.39033,"is_reserved":false,"is_disabled":false,"rental_uris":{"android":"levelo://app?vid=7ddf39ff-9e7d-4631-b144-45ce8000d829","ios":"levelo://app?vid=7ddf39ff-9e7d-4631-b144-45ce8000d829"},"vehicle_type_id":"4","last_reported":1760803861,"current_range_meters":4800,"station_id":"","pricing_plan_id":"cebpf4jnsgd1na2vs0mg"},{"bike_id":"ea7cb060-d598-4dde-8fb1-5edc70aa26d8","system_id":"levelo_inurba_marseille","lat":43.2649,"lon":5.39564,"is_reserved":false,"is_disabled":true,"rental_uris":{"android":"levelo://app?vid=ea7cb060-d598-4dde-8fb1-5edc70aa26d8","ios":"levelo://app?vid=ea7cb060-d598-4dde-8fb1-5edc70aa26d8"},"vehicle_type_id":"4","last_reported":1760803861,"current_range_meters":4800,"station_id":"ce4bhi12rcd13ifvqfq0","pricing_plan_id":"cebpf4jnsgd1na2vs0mg"},{"bike_id":"24d82d64-1145-442f-a9f5-19238b0b39ef","system_id":"levelo_inurba_marseille","lat":43.272133,"lon":5.391866,"is_reserved":false,"is_disabled":false,"rental_uris":{"android":"levelo://app?vid=24d82d64-1145-442f-a9f5-19238b0b39ef","ios":"levelo://app?vid=24d82d64-1145-442f-a9f5-19238b0b39ef"},"vehicle_type_id":"4","last_reported":1760803861,"current_range_meters":5600,"station_id":"","pricing_plan_id":"cebpf4jnsgd1na2vs0mg"},{"bike_id":"8792db22-e0f3-4d1f-8806-5400df97f727","system_id":"levelo_inurba_marseille","lat":43.21193,"lon":5.35074,"is_reserved":false,"is_disabled":false,"rental_uris":{"android":"levelo://app?vid=8792db22-e0f3-4d1f-8806-5400df97f727","ios":"levelo://app?vid=8792db22-e0f3-4d1f-8806-5400df97f727"},"vehicle_type_id":"4","last_reported":1760803861,"current_range_meters":6000,"station_id":"st_cvj6sg6p6f1abm77japg","pricing_plan_id":"cebpf4jnsgd1na2vs0mg"},{"bike_id":"9fa6a64a-026b-4c91-a93a-0fd2e7f79de7","system_id":"levelo_inurba_marseille","lat":43.28278,"lon":5.35081,"is_reserved":false,"is_disabled":false,"rental_uris":{"android":"levelo://app?vid=9fa6a64a-026b-4c91-a93a-0fd2e7f79de7","ios":"levelo://app?vid=9fa6a64a-026b-4c91-a93a-0fd2e7f79de7"},"vehicle_type_id":"4","last_reported":1760803861,"current_range_meters":6000,"station_id":"ce4bhbp2rcd13ifvqerg","pricing_plan_id":"cebpf4jnsgd1na2vs0mg"},{"bike_id":"9c54db7c-99d5-418b-b5cc-f9c88bad822b","system_id":"levelo_inurba_marseille","lat":43.28859,"lon":5.358445,"is_reserved":false,"is_disabled":false,"rental_uris":{"android":"levelo://app?vid=9c54db7c-99d5-418b-b5cc-f9c88bad822b","ios":"levelo://app?vid=9c54db7c-99d5-418b-b5cc-f9c88bad822b"},"vehicle_type_id":"4","last_reported":1760803861,"current_range_meters":6000,"station_id":"ce4bhb12rcd13ifvqem0","pricing_plan_id":"cebpf4jnsgd1na2vs0mg"},{"bike_id":"d43ce466-6ef3-4ac0-8f3d-a7e0824d3f06","system_id":"levelo_inurba_marseille","lat":43.287687,"lon":5.379282,"is_reserved":false,"is_disabled":false,"rental_uris":{"android":"levelo://app?vid=d43ce466-6ef3-4ac0-8f3d-a7e0824d3f06","ios":"levelo://app?vid=d43ce466-6ef3-4ac0-8f3d-a7e0824d3f06"},"vehicle_type_id":"4","last_reported":1760803861,"current_range_meters":6000,"station_id":"ce4bh9p2rcd13ifvqec0","pricing_plan_id":"cebpf4jnsgd1na2vs0mg"},{"bike_id":"ab9e97d6-49b8-424b-969a-246977b2b51c","system_id":"levelo_inurba_marseille","lat":43.297814,"lon":5.393328,"is_reserved":false,"is_disabled":false,"rental_uris":{"android":"levelo://app?vid=ab9e97d6-49b8-424b-969a-246977b2b51c","ios":"levelo://app?vid=ab9e97d6-49b8-424b-969a-246977b2b51c"},"vehicle_type_id":"4","last_reported":1760803861,"current_range_meters":6000,"station_id":"chh1huq6cuj3fo74tm60","pricing_plan_id":"cebpf4jnsgd1na2vs0mg"},{"bike_id":"e3a77ecc-f353-4c3a-8456-fd6ebdead15f","system_id":"levelo_inurba_marseille","lat":43.29031,"lon":5.3865,"is_reserved":false,"is_disabled":false,"rental_uris":{"android":"levelo://app?vid=e3a77ecc-f353-4c3a-8456-fd6ebdead15f","ios":"levelo://app?vid=e3a77ecc-f353-4c3a-8456-fd6ebdead15f"},"vehicle_type_id":"4","last_reported":1760803861,"current_range_meters":6400,"station_id":"ce4bh4p2rcd13ifvqe0g","pricing_plan_id":"cebpf4jnsgd1na2vs0mg"},{"bike_id":"fabeb410-ac35-40ef-9e87-ee9ef9cb6b16","system_id":"levelo_inurba_marseille","lat":43.258263,"lon":5.394365,"is_reserved":false,"is_disabled":false,"rental_uris":{"android":"levelo://app?vid=fabeb410-ac35-40ef-9e87-ee9ef9cb6b16","ios":"levelo://app?vid=fabeb410-ac35-40ef-9e87-ee9ef9cb6b16"},"vehicle_type_id":"4","last_reported":1760803861,"current_range_meters":6400,"station_id":"","pricing_plan_id":"cebpf4jnsgd1na2vs0mg"},{"bike_id":"fd4c49ce-5c31-444a-92fa-30ffe894c16f","system_id":"levelo_inurba_marseille","lat":43.3044,"lon":5.38897,"is_reserved":false,"is_disabled":false,"rental_uris":{"android":"levelo://app?vid=fd4c49ce-5c31-444a-92fa-30ffe894c16f","ios":"levelo://app?vid=fd4c49ce-5c31-444a-92fa-30ffe894c16f"},"vehicle_type_id":"4","last_reported":1760803861,"current_range_meters":6400,"station_id":"ce4bgk12rcd13ifvqbi0","pricing_plan_id":"cebpf4jnsgd1na2vs0mg"},{"bike_id":"dcc00e67-1191-4314-ab42-5b6a0efd1bdf","system_id":"levelo_inurba_marseille","lat":43.26227,"lon":5.40456,"is_reserved":false,"is_disabled":false,"rental_uris":{"android":"levelo://app?vid=dcc00e67-1191-4314-ab42-5b6a0efd1bdf","ios":"levelo://app?vid=dcc00e67-1191-4314-ab42-5b6a0efd1bdf"},"vehicle_type_id":"4","last_reported":1760803861,"current_range_meters":6400,"station_id":"ce4bhmh2rcd13ifvqgmg","pricing_plan_id":"cebpf4jnsgd1na2vs0mg"},{"bike_id":"18450335-3b41-4f11-b491-a6b2732daa55","system_id":"levelo_inurba_marseille","lat":43.24806,"lon":5.3746,"is_reserved":false,"is_disabled":false,"rental_uris":{"android":"levelo://app?vid=18450335-3b41-4f11-b491-a6b2732daa55","ios":"levelo://app?vid=18450335-3b41-4f11-b491-a6b2732daa55"},"vehicle_type_id":"4","last_reported":1760803861,"current_range_meters":6400,"station_id":"ce4bhgh2rcd13ifvqfb0","pricing_plan_id":"cebpf4jnsgd1na2vs0mg"},{"bike_id":"f0ed7a41-e169-4bc0-8e86-b2603ae24f4f","system_id":"levelo_inurba_marseille","lat":43.262225,"lon":5.404495,"is_reserved":false,"is_disabled":false,"rental_uris":{"android":"levelo://app?vid=f0ed7a41-e169-4bc0-8e86-b2603ae24f4f","ios":"levelo://app?vid=f0ed7a41-e169-4bc0-8e86-b2603ae24f4f"},"vehicle_type_id":"4","last_reported":1760803861,"current_range_meters":6400,"station_id":"ce4bhmh2rcd13ifvqgmg","pricing_plan_id":"cebpf4jnsgd1na2vs0mg"},{"bike_id":"f8a5bde0-ecb7-4eb4-b0ab-56b28dddb08c","system_id":"levelo_inurba_marseille","lat":43.29342,"lon":5.37877,"is_reserved":false,"is_disabled":false,"rental_uris":{"android":"levelo://app?vid=f8a5bde0-ecb7-4eb4-b0ab-56b28dddb08c","ios":"levelo://app?vid=f8a5bde0-ecb7-4eb4-b0ab-56b28dddb08c"},"vehicle_type_id":"4","last_reported":1760803861,"current_range_meters":6400,"station_id":"ce4bgjh2rcd13ifvqbf0","pricing_plan_id":"cebpf4jnsgd1na2vs0mg"},{"bike_id":"b198fdae-a02e-4380-b40a-23fa0f5e4197","system_id":"levelo_inurba_marseille","lat":43.286244,"lon":5.406947,"is_reserved":false,"is_disabled":false,"rental_uris":{"android":"levelo://app?vid=b198fdae-a02e-4380-b40a-23fa0f5e4197","ios":"levelo://app?vid=b198fdae-a02e-4380-b40a-23fa0f5e4197"},"vehicle_type_id":"4","last_reported":1760803861,"current_range_meters":6400,"station_id":"","pricing_plan_id":"cebpf4jnsgd1na2vs0mg"},{"bike_id":"18da792c-44d3-44fc-8e29-95376fa953ac","system_id":"levelo_inurba_marseille","lat":43.28277,"lon":5.35061,"is_reserved":false,"is_disabled":false,"rental_uris":{"android":"levelo://app?vid=18da792c-44d3-44fc-8e29-95376fa953ac","ios":"levelo://app?vid=18da792c-44d3-44fc-8e29-95376fa953ac"},"vehicle_type_id":"4","last_reported":1760803861,"current_range_meters":6400,"station_id":"ce4bhbp2rcd13ifvqerg","pricing_plan_id":"cebpf4jnsgd1na2vs0mg"},{"bike_id":"a2a6890e-075b-4667-8de1-c0189d861d50","system_id":"levelo_inurba_marseille","lat":43.26577,"lon":5.3903,"is_reserved":false,"is_disabled":false,"rental_uris":{"android":"levelo://app?vid=a2a6890e-075b-4667-8de1-c0189d861d50","ios":"levelo://app?vid=a2a6890e-075b-4667-8de1-c0189d861d50"},"vehicle_type_id":"4","last_reported":1760803861,"current_range_meters":6800,"station_id":"ce4bhe12rcd13ifvqf30","pricing_plan_id":"cebpf4jnsgd1na2vs0mg"},{"bike_id":"9dd1d8fe-c2a8-4a70-a175-61f5f9fe7fd2","system_id":"levelo_inurba_marseille","lat":43.321489,"lon":5.387333,"is_reserved":false,"is_disabled":false,"rental_uris":{"android":"levelo://app?vid=9dd1d8fe-c2a8-4a70-a175-61f5f9fe7fd2","ios":"levelo://app?vid=9dd1d8fe-c2a8-4a70-a175-61f5f9fe7fd2"},"vehicle_type_id":"4","last_reported":1760803861,"current_range_meters":6800,"station_id":"","pricing_plan_id":"cebpf4jnsgd1na2vs0mg"},{"bike_id":"dd229187-0646-4bc2-a5af-9940c67f5e15","system_id":"levelo_inurba_marseille","lat":43.26939,"lon":5.40251,"is_reserved":false,"is_disabled":false,"rental_uris":{"android":"levelo://app?vid=dd229187-0646-4bc2-a5af-9940c67f5e15","ios":"levelo://app?vid=dd229187-0646-4bc2-a5af-9940c67f5e15"},"vehicle_type_id":"4","last_reported":1760803861,"current_range_meters":6800,"station_id":"cjm6bp8fraef2m0cb0m0","pricing_plan_id":"cebpf4jnsgd1na2vs0mg"},{"bike_id":"3db39854-0d45-4fec-9f6a-53c7a723993c","system_id":"levelo_inurba_marseille","lat":43.2795,"lon":5.41039,"is_reserved":false,"is_disabled":false,"rental_uris":{"android":"levelo://app?vid=3db39854-0d45-4fec-9f6a-53c7a723993c","ios":"levelo://app?vid=3db39854-0d45-4fec-9f6a-53c7a723993c"},"vehicle_type_id":"4","last_reported":1760803861,"current_range_meters":6800,"station_id":"ce4bhnp2rcd13ifvqh0g","pricing_plan_id":"cebpf4jnsgd1na2vs0mg"},{"bike_id":"416f580b-31c7-4ade-8604-dbd86eb8155f","system_id":"levelo_inurba_marseille","lat":43.28162,"lon":5.42118,"is_reserved":false,"is_disabled":false,"rental_uris":{"android":"levelo://app?vid=416f580b-31c7-4ade-8604-dbd86eb8155f","ios":"levelo://app?vid=416f580b-31c7-4ade-8604-dbd86eb8155f"},"vehicle_type_id":"4","last_reported":1760803861,"current_range_meters":6800,"station_id":"","pricing_plan_id":"cebpf4jnsgd1na2vs0mg"},{"bike_id":"5fe6e873-dba1-40dd-bc65-77de126f2710","system_id":"levelo_inurba_marseille","lat":43.332893,"lon":5.395256,"is_reserved":false,"is_disabled":false,"rental_uris":{"android":"levelo://app?vid=5fe6e873-dba1-40dd-bc65-77de126f2710","ios":"levelo://app?vid=5fe6e873-dba1-40dd-bc65-77de126f2710"},"vehicle_type_id":"4","last_reported":1760803861,"current_range_meters":6800,"station_id":"","pricing_plan_id":"cebpf4jnsgd1na2vs0mg"},{"bike_id":"620d44ec-6b59-4607-9785-056118bfd4eb","system_id":"levelo_inurba_marseille","lat":43.26789,"lon":5.394152,"is_reserved":false,"is_disabled":false,"rental_uris":{"android":"levelo://app?vid=620d44ec-6b59-4607-9785-056118bfd4eb","ios":"levelo://app?vid=620d44ec-6b59-4607-9785-056118bfd4eb"},"vehicle_type_id":"4","last_reported":1760803861,"current_range_meters":6800,"station_id":"ce4bhh12rcd13ifvqfg0","pricing_plan_id":"cebpf4jnsgd1na2vs0mg"},{"bike_id":"1d8438de-873f-425a-b1b1-60b255817e79","system_id":"levelo_inurba_marseille","lat":43.28936,"lon":5.364159,"is_reserved":false,"is_disabled":false,"rental_uris":{"android":"levelo://app?vid=1d8438de-873f-425a-b1b1-60b255817e79","ios":"levelo://app?vid=1d8438de-873f-425a-b1b1-60b255817e79"},"vehicle_type_id":"4","last_reported":1760803861,"current_range_meters":7200,"station_id":"ce4bhc92rcd13ifvqetg","pricing_plan_id":"cebpf4jnsgd1na2vs0mg"},{"bike_id":"8c0be6c8-36fc-422f-8c68-5c9d892f5586","system_id":"levelo_inurba_marseille","lat":43.31129,"lon":5.37769,"is_reserved":false,"is_disabled":false,"rental_uris":{"android":"levelo://app?vid=8c0be6c8-36fc-422f-8c68-5c9d892f5586","ios":"levelo://app?vid=8c0be6c8-36fc-422f-8c68-5c9d892f5586"},"vehicle_type_id":"4","last_reported":1760803861,"current_range_meters":7200,"station_id":"ce4bgt92rcd13ifvqcg0","pricing_plan_id":"cebpf4jnsgd1na2vs0mg"},{"bike_id":"4b08cfe7-5df1-4e29-905e-03a9992f8dfa","system_id":"levelo_inurba_marseille","lat":43.33773,"lon":5.37456,"is_reserved":false,"is_disabled":false,"rental_uris":{"android":"levelo://app?vid=4b08cfe7-5df1-4e29-905e-03a9992f8dfa","ios":"levelo://app?vid=4b08cfe7-5df1-4e29-905e-03a9992f8dfa"},"vehicle_type_id":"4","last_reported":1760803861,"current_range_meters":7200,"station_id":"","pricing_plan_id":"cebpf4jnsgd1na2vs0mg"},{"bike_id":"80d44fdd-3701-419f-a838-63bc82740857","system_id":"levelo_inurba_marseille","lat":43.28925,"lon":5.36641,"is_reserved":false,"is_disabled":false,"rental_uris":{"android":"levelo://app?vid=80d44fdd-3701-419f-a838-63bc82740857","ios":"levelo://app?vid=80d44fdd-3701-419f-a838-63bc82740857"},"vehicle_type_id":"4","last_reported":1760803861,"current_range_meters":7200,"station_id":"ce4bhap2rcd13ifvqek0","pricing_plan_id":"cebpf4jnsgd1na2vs0mg"},{"bike_id":"c5e45447-2956-450f-bd7e-88aaf308c04d","system_id":"levelo_inurba_marseille","lat":43.29005,"lon":5.3653,"is_reserved":false,"is_disabled":false,"rental_uris":{"android":"levelo://app?vid=c5e45447-2956-450f-bd7e-88aaf308c04d","ios":"levelo://app?vid=c5e45447-2956-450f-bd7e-88aaf308c04d"},"vehicle_type_id":"4","last_reported":1760803861,"current_range_meters":8000,"station_id":"","pricing_plan_id":"cebpf4jnsgd1na2vs0mg"},{"bike_id":"245a030c-0c43-41f8-a4cc-088d55252b06","system_id":"levelo_inurba_marseille","lat":43.24466,"lon":5.36937,"is_reserved":false,"is_disabled":false,"rental_uris":{"android":"levelo://app?vid=245a030c-0c43-41f8-a4cc-088d55252b06","ios":"levelo://app?vid=245a030c-0c43-41f8-a4cc-088d55252b06"},"vehicle_type_id":"4","last_reported":1760803861,"current_range_meters":8000,"station_id":"","pricing_plan_id":"cebpf4jnsgd1na2vs0mg"},{"bike_id":"a687fb64-94c5-48f3-b90d-40698af80aa0","system_id":"levelo_inurba_marseille","lat":43.295297,"lon":5.385401,"is_reserved":false,"is_disabled":false,"rental_uris":{"android":"levelo://app?vid=a687fb64-94c5-48f3-b90d-40698af80aa0","ios":"levelo://app?vid=a687fb64-94c5-48f3-b90d-40698af80aa0"},"vehicle_type_id":"4","last_reported":1760803861,"current_range_meters":8000,"station_id":"ce4bgih2rcd13ifvqba0","pricing_plan_id":"cebpf4jnsgd1na2vs0mg"},{"bike_id":"8e7dcb0e-65b8-4597-834d-3673bacf15fb","system_id":"levelo_inurba_marseille","lat":43.27079,"lon":5.42299,"is_reserved":false,"is_disabled":false,"rental_uris":{"android":"levelo://app?vid=8e7dcb0e-65b8-4597-834d-3673bacf15fb","ios":"levelo://app?vid=8e7dcb0e-65b8-4597-834d-3673bacf15fb"},"vehicle_type_id":"4","last_reported":1760803861,"current_range_meters":8000,"station_id":"ce4bhk92rcd13ifvqgb0","pricing_plan_id":"cebpf4jnsgd1na2vs0mg"},{"bike_id":"c09c73c9-7adc-445c-8b59-d9db23df63d4","system_id":"levelo_inurba_marseille","lat":43.292646,"lon":5.376386,"is_reserved":false,"is_disabled":false,"rental_uris":{"android":"levelo://app?vid=c09c73c9-7adc-445c-8b59-d9db23df63d4","ios":"levelo://app?vid=c09c73c9-7adc-445c-8b59-d9db23df63d4"},"vehicle_type_id":"4","last_reported":1760803861,"current_range_meters":8000,"station_id":"ce4bgi12rcd13ifvqb80","pricing_plan_id":"cebpf4jnsgd1na2vs0mg"},{"bike_id":"0f9c20ae-f80b-4bc4-a84d-e94070c41d3b","system_id":"levelo_inurba_marseille","lat":43.22574,"lon":5.41622,"is_reserved":false,"is_disabled":false,"rental_uris":{"android":"levelo://app?vid=0f9c20ae-f80b-4bc4-a84d-e94070c41d3b","ios":"levelo://app?vid=0f9c20ae-f80b-4bc4-a84d-e94070c41d3b"},"vehicle_type_id":"4","last_reported":1760803861,"current_range_meters":8000,"station_id":"st_d2o4gvlbi1j2169b742g","pricing_plan_id":"cebpf4jnsgd1na2vs0mg"},{"bike_id":"7a167eac-7106-47dd-b2fa-e9e59a3976d3","system_id":"levelo_inurba_marseille","lat":43.28388,"lon":5.37524,"is_reserved":false,"is_disabled":false,"rental_uris":{"android":"levelo://app?vid=7a167eac-7106-47dd-b2fa-e9e59a3976d3","ios":"levelo://app?vid=7a167eac-7106-47dd-b2fa-e9e59a3976d3"},"vehicle_type_id":"4","last_reported":1760803861,"current_range_meters":8000,"station_id":"ce4bh412rcd13ifvqds0","pricing_plan_id":"cebpf4jnsgd1na2vs0mg"},{"bike_id":"a817b630-bbed-48d3-97f4-9bd571b9ebab","system_id":"levelo_inurba_marseille","lat":43.29961,"lon":5.37346,"is_reserved":false,"is_disabled":false,"rental_uris":{"android":"levelo://app?vid=a817b630-bbed-48d3-97f4-9bd571b9ebab","ios":"levelo://app?vid=a817b630-bbed-48d3-97f4-9bd571b9ebab"},"vehicle_type_id":"4","last_reported":1760803861,"current_range_meters":8000,"station_id":"","pricing_plan_id":"cebpf4jnsgd1na2vs0mg"},{"bike_id":"63d3674c-2ba3-4a40-b54d-fe3879108bec","system_id":"levelo_inurba_marseille","lat":43.30313,"lon":5.36899,"is_reserved":false,"is_disabled":false,"rental_uris":{"android":"levelo://app?vid=63d3674c-2ba3-4a40-b54d-fe3879108bec","ios":"levelo://app?vid=63d3674c-2ba3-4a40-b54d-fe3879108bec"},"vehicle_type_id":"4","last_reported":1760803861,"current_range_meters":8000,"station_id":"ce4bgqh2rcd13ifvqc5g","pricing_plan_id":"cebpf4jnsgd1na2vs0mg"},{"bike_id":"5d959701-7028-4289-91a6-21e5b74d813d","system_id":"levelo_inurba_marseille","lat":43.22927,"lon":5.35381,"is_reserved":false,"is_disabled":false,"rental_uris":{"android":"levelo://app?vid=5d959701-7028-4289-91a6-21e5b74d813d","ios":"levelo://app?vid=5d959701-7028-4289-91a6-21e5b74d813d"},"vehicle_type_id":"4","last_reported":1760803861,"current_range_meters":8400,"station_id":"cpo3532slgdg3j2ikp40","pricing_plan_id":"cebpf4jnsgd1na2vs0mg"},{"bike_id":"f3405251-7a19-4374-ad91-95acd2d9b292","system_id":"levelo_inurba_marseille","lat":43.25497,"lon":5.3765,"is_reserved":false,"is_disabled":false,"rental_uris":{"android":"levelo://app?vid=f3405251-7a19-4374-ad91-95acd2d9b292","ios":"levelo://app?vid=f3405251-7a19-4374-ad91-95acd2d9b292"},"vehicle_type_id":"4","last_reported":1760803861,"current_range_meters":8400,"station_id":"ce4bhh12rcd13ifvqff0","pricing_plan_id":"cebpf4jnsgd1na2vs0mg"},{"bike_id":"8bd272a3-683a-4148-9970-3334beb0a457","system_id":"levelo_inurba_marseille","lat":43.285299,"lon":5.441018,"is_reserved":false,"is_disabled":false,"rental_uris":{"android":"levelo://app?vid=8bd272a3-683a-4148-9970-3334beb0a457","ios":"levelo://app?vid=8bd272a3-683a-4148-9970-3334beb0a457"},"vehicle_type_id":"4","last_reported":1760803861,"current_range_meters":8400,"station_id":"st_d3j3df2ikq2c7380ej80","pricing_plan_id":"cebpf4jnsgd1na2vs0mg"},{"bike_id":"42c90d0d-7d8c-41d3-9f4d-b9927d2fd237","system_id":"levelo_inurba_marseille","lat":43.29718,"lon":5.37703,"is_reserved":false,"is_disabled":true,"rental_uris":{"android":"levelo://app?vid=42c90d0d-7d8c-41d3-9f4d-b9927d2fd237","ios":"levelo://app?vid=42c90d0d-7d8c-41d3-9f4d-b9927d2fd237"},"vehicle_type_id":"4","last_reported":1760803861,"current_range_meters":8400,"station_id":"ce4bgkh2rcd13ifvqbl0","pricing_plan_id":"cebpf4jnsgd1na2vs0mg"},{"bike_id":"acb13b64-f80e-4d69-9194-bb7dedd5ee35","system_id":"levelo_inurba_marseille","lat":43.29961,"lon":5.37165,"is_reserved":false,"is_disabled":false,"rental_uris":{"android":"levelo://app?vid=acb13b64-f80e-4d69-9194-bb7dedd5ee35","ios":"levelo://app?vid=acb13b64-f80e-4d69-9194-bb7dedd5ee35"},"vehicle_type_id":"4","last_reported":1760803861,"current_range_meters":8400,"station_id":"ce4bgr92rcd13ifvqc7g","pricing_plan_id":"cebpf4jnsgd1na2vs0mg"},{"bike_id":"8959e281-db6b-4214-83ae-cabfd9b7a1cb","system_id":"levelo_inurba_marseille","lat":43.31711,"lon":5.43704,"is_reserved":false,"is_disabled":false,"rental_uris":{"android":"levelo://app?vid=8959e281-db6b-4214-83ae-cabfd9b7a1cb","ios":"levelo://app?vid=8959e281-db6b-4214-83ae-cabfd9b7a1cb"},"vehicle_type_id":"4","last_reported":1760803861,"current_range_meters":8400,"station_id":"ce4bhp92rcd13ifvqhcg","pricing_plan_id":"cebpf4jnsgd1na2vs0mg"},{"bike_id":"cc3dbeb4-7b2d-4780-95dd-cfdaab96f3d5","system_id":"levelo_inurba_marseille","lat":43.28952,"lon":5.364525,"is_reserved":false,"is_disabled":false,"rental_uris":{"android":"levelo://app?vid=cc3dbeb4-7b2d-4780-95dd-cfdaab96f3d5","ios":"levelo://app?vid=cc3dbeb4-7b2d-4780-95dd-cfdaab96f3d5"},"vehicle_type_id":"4","last_reported":1760803861,"current_range_meters":8400,"station_id":"ce4bhc92rcd13ifvqetg","pricing_plan_id":"cebpf4jnsgd1na2vs0mg"},{"bike_id":"e2b150be-b728-498f-b17a-5af5d1289e57","system_id":"levelo_inurba_marseille","lat":43.289363,"lon":5.366469,"is_reserved":false,"is_disabled":false,"rental_uris":{"android":"levelo://app?vid=e2b150be-b728-498f-b17a-5af5d1289e57","ios":"levelo://app?vid=e2b150be-b728-498f-b17a-5af5d1289e57"},"vehicle_type_id":"4","last_reported":1760803861,"current_range_meters":8800,"station_id":"ce4bhap2rcd13ifvqek0","pricing_plan_id":"cebpf4jnsgd1na2vs0mg"},{"bike_id":"3b85ca76-6d69-4812-b8d9-6e2cf84fd10b","system_id":"levelo_inurba_marseille","lat":43.27201,"lon":5.40999,"is_reserved":false,"is_disabled":false,"rental_uris":{"android":"levelo://app?vid=3b85ca76-6d69-4812-b8d9-6e2cf84fd10b","ios":"levelo://app?vid=3b85ca76-6d69-4812-b8d9-6e2cf84fd10b"},"vehicle_type_id":"4","last_reported":1760803861,"current_range_meters":8800,"station_id":"ce4bhl12rcd13ifvqgf0","pricing_plan_id":"cebpf4jnsgd1na2vs0mg"},{"bike_id":"fdfa653a-80a4-493d-8bbc-f374513f1911","system_id":"levelo_inurba_marseille","lat":43.28937,"lon":5.36617,"is_reserved":false,"is_disabled":false,"rental_uris":{"android":"levelo://app?vid=fdfa653a-80a4-493d-8bbc-f374513f1911","ios":"levelo://app?vid=fdfa653a-80a4-493d-8bbc-f374513f1911"},"vehicle_type_id":"4","last_reported":1760803861,"current_range_meters":8800,"station_id":"ce4bhap2rcd13ifvqek0","pricing_plan_id":"cebpf4jnsgd1na2vs0mg"},{"bike_id":"b3edc609-7782-46af-831c-544f1d118f47","system_id":"levelo_inurba_marseille","lat":43.30786,"lon":5.43534,"is_reserved":false,"is_disabled":false,"rental_uris":{"android":"levelo://app?vid=b3edc609-7782-46af-831c-544f1d118f47","ios":"levelo://app?vid=b3edc609-7782-46af-831c-544f1d118f47"},"vehicle_type_id":"4","last_reported":1760803861,"current_range_meters":9200,"station_id":"ce4bhph2rcd13ifvqheg","pricing_plan_id":"cebpf4jnsgd1na2vs0mg"},{"bike_id":"1c8deb7b-5376-409a-8d64-d79671b1edc4","system_id":"levelo_inurba_marseille","lat":43.25494,"lon":5.37649,"is_reserved":false,"is_disabled":false,"rental_uris":{"android":"levelo://app?vid=1c8deb7b-5376-409a-8d64-d79671b1edc4","ios":"levelo://app?vid=1c8deb7b-5376-409a-8d64-d79671b1edc4"},"vehicle_type_id":"4","last_reported":1760803861,"current_range_meters":9200,"station_id":"ce4bhh12rcd13ifvqff0","pricing_plan_id":"cebpf4jnsgd1na2vs0mg"},{"bike_id":"fa015334-f5dc-4317-a74e-0111ac1e7538","system_id":"levelo_inurba_marseille","lat":43.31346,"lon":5.39716,"is_reserved":false,"is_disabled":false,"rental_uris":{"android":"levelo://app?vid=fa015334-f5dc-4317-a74e-0111ac1e7538","ios":"levelo://app?vid=fa015334-f5dc-4317-a74e-0111ac1e7538"},"vehicle_type_id":"4","last_reported":1760803861,"current_range_meters":9200,"station_id":"ce4bgvp2rcd13ifvqcu0","pricing_plan_id":"cebpf4jnsgd1na2vs0mg"},{"bike_id":"f287a1fb-b921-428c-8cc2-e5d2fd0beba9","system_id":"levelo_inurba_marseille","lat":43.301227,"lon":5.431204,"is_reserved":false,"is_disabled":false,"rental_uris":{"android":"levelo://app?vid=f287a1fb-b921-428c-8cc2-e5d2fd0beba9","ios":"levelo://app?vid=f287a1fb-b921-428c-8cc2-e5d2fd0beba9"},"vehicle_type_id":"4","last_reported":1760803861,"current_range_meters":9200,"station_id":"st_d3js3co5814s73ftftug","pricing_plan_id":"cebpf4jnsgd1na2vs0mg"},{"bike_id":"d1b36c7d-b957-40bc-9cda-a94d9f48c44a","system_id":"levelo_inurba_marseille","lat":43.30785,"lon":5.38161,"is_reserved":false,"is_disabled":false,"rental_uris":{"android":"levelo://app?vid=d1b36c7d-b957-40bc-9cda-a94d9f48c44a","ios":"levelo://app?vid=d1b36c7d-b957-40bc-9cda-a94d9f48c44a"},"vehicle_type_id":"4","last_reported":1760803861,"current_range_meters":9200,"station_id":"ce4bgt12rcd13ifvqce0","pricing_plan_id":"cebpf4jnsgd1na2vs0mg"},{"bike_id":"ea165df2-dc18-402c-aee7-e6ce6bdbc7b8","system_id":"levelo_inurba_marseille","lat":43.2315,"lon":5.43719,"is_reserved":false,"is_disabled":false,"rental_uris":{"android":"levelo://app?vid=ea165df2-dc18-402c-aee7-e6ce6bdbc7b8","ios":"levelo://app?vid=ea165df2-dc18-402c-aee7-e6ce6bdbc7b8"},"vehicle_type_id":"4","last_reported":1760803861,"current_range_meters":9600,"station_id":"ce4bhmp2rcd13ifvqgog","pricing_plan_id":"cebpf4jnsgd1na2vs0mg"},{"bike_id":"924ac669-be8b-47aa-9a8e-6f22baf815eb","system_id":"levelo_inurba_marseille","lat":43.337692,"lon":5.374734,"is_reserved":false,"is_disabled":false,"rental_uris":{"android":"levelo://app?vid=924ac669-be8b-47aa-9a8e-6f22baf815eb","ios":"levelo://app?vid=924ac669-be8b-47aa-9a8e-6f22baf815eb"},"vehicle_type_id":"4","last_reported":1760803861,"current_range_meters":9600,"station_id":"","pricing_plan_id":"cebpf4jnsgd1na2vs0mg"},{"bike_id":"8e41bdec-72cd-449b-8cff-bcea526da6de","system_id":"levelo_inurba_marseille","lat":43.296143,"lon":5.377146,"is_reserved":false,"is_disabled":false,"rental_uris":{"android":"levelo://app?vid=8e41bdec-72cd-449b-8cff-bcea526da6de","ios":"levelo://app?vid=8e41bdec-72cd-449b-8cff-bcea526da6de"},"vehicle_type_id":"4","last_reported":1760803861,"current_range_meters":9600,"station_id":"ce4bgi92rcd13ifvqb90","pricing_plan_id":"cebpf4jnsgd1na2vs0mg"},{"bike_id":"b684259b-f68d-46bf-829c-383099a898cc","system_id":"levelo_inurba_marseille","lat":43.267645,"lon":5.411391,"is_reserved":false,"is_disabled":false,"rental_uris":{"android":"levelo://app?vid=b684259b-f68d-46bf-829c-383099a898cc","ios":"levelo://app?vid=b684259b-f68d-46bf-829c-383099a898cc"},"vehicle_type_id":"4","last_reported":1760803861,"current_range_meters":9600,"station_id":"ce4bhn92rcd13ifvqgrg","pricing_plan_id":"cebpf4jnsgd1na2vs0mg"},{"bike_id":"e84a445d-7e58-44af-b798-acb64f51a914","system_id":"levelo_inurba_marseille","lat":43.286127,"lon":5.351058,"is_reserved":false,"is_disabled":false,"rental_uris":{"android":"levelo://app?vid=e84a445d-7e58-44af-b798-acb64f51a914","ios":"levelo://app?vid=e84a445d-7e58-44af-b798-acb64f51a914"},"vehicle_type_id":"4","last_reported":1760803861,"current_range_meters":9600,"station_id":"ce4bhb12rcd13ifvqel0","pricing_plan_id":"cebpf4jnsgd1na2vs0mg"},{"bike_id":"105b0d80-8b20-438d-b716-6a81b7eccbdd","system_id":"levelo_inurba_marseille","lat":43.28647,"lon":5.36337,"is_reserved":false,"is_disabled":false,"rental_uris":{"android":"levelo://app?vid=105b0d80-8b20-438d-b716-6a81b7eccbdd","ios":"levelo://app?vid=105b0d80-8b20-438d-b716-6a81b7eccbdd"},"vehicle_type_id":"4","last_reported":1760803861,"current_range_meters":9600,"station_id":"ce4bhah2rcd13ifvqej0","pricing_plan_id":"cebpf4jnsgd1na2vs0mg"},{"bike_id":"bf68c396-cff0-4b07-bda9-9701bf89ac04","system_id":"levelo_inurba_marseille","lat":43.23785,"lon":5.36637,"is_reserved":false,"is_disabled":false,"rental_uris":{"android":"levelo://app?vid=bf68c396-cff0-4b07-bda9-9701bf89ac04","ios":"levelo://app?vid=bf68c396-cff0-4b07-bda9-9701bf89ac04"},"vehicle_type_id":"4","last_reported":1760803861,"current_range_meters":9600,"station_id":"st_d3nk18o9ro0c73en2l3g","pricing_plan_id":"cebpf4jnsgd1na2vs0mg"},{"bike_id":"09547cd6-1ed3-48c9-a3c4-d57aec197780","system_id":"levelo_inurba_marseille","lat":43.292206,"lon":5.400991,"is_reserved":false,"is_disabled":false,"rental_uris":{"android":"levelo://app?vid=09547cd6-1ed3-48c9-a3c4-d57aec197780","ios":"levelo://app?vid=09547cd6-1ed3-48c9-a3c4-d57aec197780"},"vehicle_type_id":"4","last_reported":1760803861,"current_range_meters":9600,"station_id":"ce4bh312rcd13ifvqdk0","pricing_plan_id":"cebpf4jnsgd1na2vs0mg"},{"bike_id":"ff86eea6-c1e6-4578-b1e5-0e4fb5f089c5","system_id":"levelo_inurba_marseille","lat":43.28545,"lon":5.3843,"is_reserved":false,"is_disabled":false,"rental_uris":{"android":"levelo://app?vid=ff86eea6-c1e6-4578-b1e5-0e4fb5f089c5","ios":"levelo://app?vid=ff86eea6-c1e6-4578-b1e5-0e4fb5f089c5"},"vehicle_type_id":"4","last_reported":1760803861,"current_range_meters":10000,"station_id":"","pricing_plan_id":"cebpf4jnsgd1na2vs0mg"},{"bike_id":"1ae23019-ea31-4d05-9cf3-f48fd8ecdb6e","system_id":"levelo_inurba_marseille","lat":43.31081,"lon":5.42432,"is_reserved":false,"is_disabled":false,"rental_uris":{"android":"levelo://app?vid=1ae23019-ea31-4d05-9cf3-f48fd8ecdb6e","ios":"levelo://app?vid=1ae23019-ea31-4d05-9cf3-f48fd8ecdb6e"},"vehicle_type_id":"4","last_reported":1760803861,"current_range_meters":10000,"station_id":"ce4bhp92rcd13ifvqhag","pricing_plan_id":"cebpf4jnsgd1na2vs0mg"},{"bike_id":"513d4032-b76e-45a1-be3e-ce9b67d46507","system_id":"levelo_inurba_marseille","lat":43.28944,"lon":5.36635,"is_reserved":false,"is_disabled":false,"rental_uris":{"android":"levelo://app?vid=513d4032-b76e-45a1-be3e-ce9b67d46507","ios":"levelo://app?vid=513d4032-b76e-45a1-be3e-ce9b67d46507"},"vehicle_type_id":"4","last_reported":1760803861,"current_range_meters":10000,"station_id":"ce4bhap2rcd13ifvqek0","pricing_plan_id":"cebpf4jnsgd1na2vs0mg"},{"bike_id":"cdfe7d43-b2e7-4178-a205-1c2de89903c1","system_id":"levelo_inurba_marseille","lat":43.2927,"lon":5.36853,"is_reserved":false,"is_disabled":false,"rental_uris":{"android":"levelo://app?vid=cdfe7d43-b2e7-4178-a205-1c2de89903c1","ios":"levelo://app?vid=cdfe7d43-b2e7-4178-a205-1c2de89903c1"},"vehicle_type_id":"4","last_reported":1760803861,"current_range_meters":10000,"station_id":"ce4bhbp2rcd13ifvqesg","pricing_plan_id":"cebpf4jnsgd1na2vs0mg"},{"bike_id":"e427aaaf-ebc8-4540-808e-fa07955f06df","system_id":"levelo_inurba_marseille","lat":43.25877,"lon":5.39442,"is_reserved":false,"is_disabled":false,"rental_uris":{"android":"levelo://app?vid=e427aaaf-ebc8-4540-808e-fa07955f06df","ios":"levelo://app?vid=e427aaaf-ebc8-4540-808e-fa07955f06df"},"vehicle_type_id":"4","last_reported":1760803861,"current_range_meters":10000,"station_id":"","pricing_plan_id":"cebpf4jnsgd1na2vs0mg"},{"bike_id":"8e6781bb-2e20-454e-8191-54182f17bdfc","system_id":"levelo_inurba_marseille","lat":43.217499,"lon":5.346028,"is_reserved":false,"is_disabled":true,"rental_uris":{"android":"levelo://app?vid=8e6781bb-2e20-454e-8191-54182f17bdfc","ios":"levelo://app?vid=8e6781bb-2e20-454e-8191-54182f17bdfc"},"vehicle_type_id":"4","last_reported":1760803861,"current_range_meters":10000,"station_id":"st_cvj6r9ubvosntc0bgbag","pricing_plan_id":"cebpf4jnsgd1na2vs0mg"},{"bike_id":"216e8221-fe2a-4826-8a28-ae4ee39e3d38","system_id":"levelo_inurba_marseille","lat":43.29255,"lon":5.40154,"is_reserved":false,"is_disabled":false,"rental_uris":{"android":"levelo://app?vid=216e8221-fe2a-4826-8a28-ae4ee39e3d38","ios":"levelo://app?vid=216e8221-fe2a-4826-8a28-ae4ee39e3d38"},"vehicle_type_id":"4","last_reported":1760803861,"current_range_meters":10000,"station_id":"ce4bh312rcd13ifvqdk0","pricing_plan_id":"cebpf4jnsgd1na2vs0mg"},{"bike_id":"f79ed942-86fc-4b27-9729-61cda708bb82","system_id":"levelo_inurba_marseille","lat":43.337444,"lon":5.374475,"is_reserved":false,"is_disabled":false,"rental_uris":{"android":"levelo://app?vid=f79ed942-86fc-4b27-9729-61cda708bb82","ios":"levelo://app?vid=f79ed942-86fc-4b27-9729-61cda708bb82"},"vehicle_type_id":"4","last_reported":1760803861,"current_range_meters":10800,"station_id":"","pricing_plan_id":"cebpf4jnsgd1na2vs0mg"},{"bike_id":"a1d43f16-49bf-4baf-909a-f923b4623a20","system_id":"levelo_inurba_marseille","lat":43.293,"lon":5.37135,"is_reserved":false,"is_disabled":false,"rental_uris":{"android":"levelo://app?vid=a1d43f16-49bf-4baf-909a-f923b4623a20","ios":"levelo://app?vid=a1d43f16-49bf-4baf-909a-f923b4623a20"},"vehicle_type_id":"4","last_reported":1760803861,"current_range_meters":10800,"station_id":"ce4bgh92rcd13ifvqb40","pricing_plan_id":"cebpf4jnsgd1na2vs0mg"},{"bike_id":"75b02a51-1325-435e-9661-29bb451a696a","system_id":"levelo_inurba_marseille","lat":43.31448,"lon":5.38488,"is_reserved":false,"is_disabled":false,"rental_uris":{"android":"levelo://app?vid=75b02a51-1325-435e-9661-29bb451a696a","ios":"levelo://app?vid=75b02a51-1325-435e-9661-29bb451a696a"},"vehicle_type_id":"4","last_reported":1760803861,"current_range_meters":10800,"station_id":"","pricing_plan_id":"cebpf4jnsgd1na2vs0mg"},{"bike_id":"0679f37e-fcb2-46f1-bd09-ac9f52bc4278","system_id":"levelo_inurba_marseille","lat":43.2925,"lon":5.36861,"is_reserved":false,"is_disabled":true,"rental_uris":{"android":"levelo://app?vid=0679f37e-fcb2-46f1-bd09-ac9f52bc4278","ios":"levelo://app?vid=0679f37e-fcb2-46f1-bd09-ac9f52bc4278"},"vehicle_type_id":"4","last_reported":1760803861,"current_range_meters":10800,"station_id":"ce4bhbp2rcd13ifvqesg","pricing_plan_id":"cebpf4jnsgd1na2vs0mg"},{"bike_id":"5b2ddd47-aef2-4b3c-b3b5-05d0ed8427aa","system_id":"levelo_inurba_marseille","lat":43.30934,"lon":5.40156,"is_reserved":false,"is_disabled":false,"rental_uris":{"android":"levelo://app?vid=5b2ddd47-aef2-4b3c-b3b5-05d0ed8427aa","ios":"levelo://app?vid=5b2ddd47-aef2-4b3c-b3b5-05d0ed8427aa"},"vehicle_type_id":"4","last_reported":1760803861,"current_range_meters":11200,"station_id":"ce4bgvp2rcd13ifvqct0","pricing_plan_id":"cebpf4jnsgd1na2vs0mg"},{"bike_id":"3a4adad6-22d7-48b7-8c70-2f36f4da8dab","system_id":"levelo_inurba_marseille","lat":43.30579,"lon":5.39355,"is_reserved":false,"is_disabled":false,"rental_uris":{"android":"levelo://app?vid=3a4adad6-22d7-48b7-8c70-2f36f4da8dab","ios":"levelo://app?vid=3a4adad6-22d7-48b7-8c70-2f36f4da8dab"},"vehicle_type_id":"4","last_reported":1760803861,"current_range_meters":11200,"station_id":"ce4bh0p2rcd13ifvqd80","pricing_plan_id":"cebpf4jnsgd1na2vs0mg"},{"bike_id":"0b170382-a38a-48fc-b060-b901de311f1a","system_id":"levelo_inurba_marseille","lat":43.33047,"lon":5.39024,"is_reserved":false,"is_disabled":false,"rental_uris":{"android":"levelo://app?vid=0b170382-a38a-48fc-b060-b901de311f1a","ios":"levelo://app?vid=0b170382-a38a-48fc-b060-b901de311f1a"},"vehicle_type_id":"4","last_reported":1760803861,"current_range_meters":11600,"station_id":"ce4bhr92rcd13ifvqhrg","pricing_plan_id":"cebpf4jnsgd1na2vs0mg"},{"bike_id":"72815099-6205-4551-8030-eb2ac0b4d180","system_id":"levelo_inurba_marseille","lat":43.305381,"lon":5.365269,"is_reserved":false,"is_disabled":false,"rental_uris":{"android":"levelo://app?vid=72815099-6205-4551-8030-eb2ac0b4d180","ios":"levelo://app?vid=72815099-6205-4551-8030-eb2ac0b4d180"},"vehicle_type_id":"4","last_reported":1760803861,"current_range_meters":11600,"station_id":"ce4bgs12rcd13ifvqcag","pricing_plan_id":"cebpf4jnsgd1na2vs0mg"},{"bike_id":"5ec36f29-a595-43fb-81bc-e1f6ecf04525","system_id":"levelo_inurba_marseille","lat":43.21191,"lon":5.35089,"is_reserved":false,"is_disabled":true,"rental_uris":{"android":"levelo://app?vid=5ec36f29-a595-43fb-81bc-e1f6ecf04525","ios":"levelo://app?vid=5ec36f29-a595-43fb-81bc-e1f6ecf04525"},"vehicle_type_id":"4","last_reported":1760803861,"current_range_meters":11600,"station_id":"st_cvj6sg6p6f1abm77japg","pricing_plan_id":"cebpf4jnsgd1na2vs0mg"},{"bike_id":"786ed331-a56d-4ea1-acd3-739b61d4fad9","system_id":"levelo_inurba_marseille","lat":43.31713,"lon":5.37739,"is_reserved":false,"is_disabled":false,"rental_uris":{"android":"levelo://app?vid=786ed331-a56d-4ea1-acd3-739b61d4fad9","ios":"levelo://app?vid=786ed331-a56d-4ea1-acd3-739b61d4fad9"},"vehicle_type_id":"4","last_reported":1760803861,"current_range_meters":11600,"station_id":"ce4bgth2rcd13ifvqch0","pricing_plan_id":"cebpf4jnsgd1na2vs0mg"},{"bike_id":"43e8ecd9-67bb-40ed-a714-926a970a54cb","system_id":"levelo_inurba_marseille","lat":43.23151,"lon":5.43714,"is_reserved":false,"is_disabled":false,"rental_uris":{"android":"levelo://app?vid=43e8ecd9-67bb-40ed-a714-926a970a54cb","ios":"levelo://app?vid=43e8ecd9-67bb-40ed-a714-926a970a54cb"},"vehicle_type_id":"4","last_reported":1760803861,"current_range_meters":11600,"station_id":"ce4bhmp2rcd13ifvqgog","pricing_plan_id":"cebpf4jnsgd1na2vs0mg"},{"bike_id":"685435ed-23dd-4040-bf5b-3a0caa1012ba","system_id":"levelo_inurba_marseille","lat":43.287382,"lon":5.36549,"is_reserved":false,"is_disabled":false,"rental_uris":{"android":"levelo://app?vid=685435ed-23dd-4040-bf5b-3a0caa1012ba","ios":"levelo://app?vid=685435ed-23dd-4040-bf5b-3a0caa1012ba"},"vehicle_type_id":"4","last_reported":1760803861,"current_range_meters":12000,"station_id":"","pricing_plan_id":"cebpf4jnsgd1na2vs0mg"},{"bike_id":"740f6e53-f019-4d31-9438-9bc15d040d21","system_id":"levelo_inurba_marseille","lat":43.29424,"lon":5.39751,"is_reserved":false,"is_disabled":false,"rental_uris":{"android":"levelo://app?vid=740f6e53-f019-4d31-9438-9bc15d040d21","ios":"levelo://app?vid=740f6e53-f019-4d31-9438-9bc15d040d21"},"vehicle_type_id":"4","last_reported":1760803861,"current_range_meters":12400,"station_id":"ce4bh3h2rcd13ifvqdo0","pricing_plan_id":"cebpf4jnsgd1na2vs0mg"},{"bike_id":"b35843bb-8826-4f0d-a706-15255e94599e","system_id":"levelo_inurba_marseille","lat":43.279403,"lon":5.403843,"is_reserved":false,"is_disabled":false,"rental_uris":{"android":"levelo://app?vid=b35843bb-8826-4f0d-a706-15255e94599e","ios":"levelo://app?vid=b35843bb-8826-4f0d-a706-15255e94599e"},"vehicle_type_id":"4","last_reported":1760803861,"current_range_meters":12400,"station_id":"","pricing_plan_id":"cebpf4jnsgd1na2vs0mg"},{"bike_id":"0a414463-fe1a-4833-8a11-178a3c2c879a","system_id":"levelo_inurba_marseille","lat":43.29852,"lon":5.37897,"is_reserved":false,"is_disabled":false,"rental_uris":{"android":"levelo://app?vid=0a414463-fe1a-4833-8a11-178a3c2c879a","ios":"levelo://app?vid=0a414463-fe1a-4833-8a11-178a3c2c879a"},"vehicle_type_id":"4","last_reported":1760803861,"current_range_meters":12800,"station_id":"","pricing_plan_id":"cebpf4jnsgd1na2vs0mg"},{"bike_id":"f75d2ce7-20b3-4da3-b9ee-680dbf85584f","system_id":"levelo_inurba_marseille","lat":43.3153,"lon":5.38042,"is_reserved":false,"is_disabled":false,"rental_uris":{"android":"levelo://app?vid=f75d2ce7-20b3-4da3-b9ee-680dbf85584f","ios":"levelo://app?vid=f75d2ce7-20b3-4da3-b9ee-680dbf85584f"},"vehicle_type_id":"4","last_reported":1760803861,"current_range_meters":12800,"station_id":"ce4bhsp2rcd13ifvqi50","pricing_plan_id":"cebpf4jnsgd1na2vs0mg"},{"bike_id":"19affaf0-d539-444e-9181-aff108fd7649","system_id":"levelo_inurba_marseille","lat":43.28624,"lon":5.3511,"is_reserved":false,"is_disabled":false,"rental_uris":{"android":"levelo://app?vid=19affaf0-d539-444e-9181-aff108fd7649","ios":"levelo://app?vid=19affaf0-d539-444e-9181-aff108fd7649"},"vehicle_type_id":"4","last_reported":1760803861,"current_range_meters":12800,"station_id":"ce4bhch2rcd13ifvqeug","pricing_plan_id":"cebpf4jnsgd1na2vs0mg"},{"bike_id":"5c984b9a-d3ae-46a5-8510-44106865f7d4","system_id":"levelo_inurba_marseille","lat":43.28594,"lon":5.35144,"is_reserved":false,"is_disabled":false,"rental_uris":{"android":"levelo://app?vid=5c984b9a-d3ae-46a5-8510-44106865f7d4","ios":"levelo://app?vid=5c984b9a-d3ae-46a5-8510-44106865f7d4"},"vehicle_type_id":"4","last_reported":1760803861,"current_range_meters":12800,"station_id":"ce4bhch2rcd13ifvqeug","pricing_plan_id":"cebpf4jnsgd1na2vs0mg"},{"bike_id":"ea883585-d0e4-4bcb-922c-57b2a3efdeac","system_id":"levelo_inurba_marseille","lat":43.30512,"lon":5.3681,"is_reserved":false,"is_disabled":false,"rental_uris":{"android":"levelo://app?vid=ea883585-d0e4-4bcb-922c-57b2a3efdeac","ios":"levelo://app?vid=ea883585-d0e4-4bcb-922c-57b2a3efdeac"},"vehicle_type_id":"4","last_reported":1760803861,"current_range_meters":12800,"station_id":"","pricing_plan_id":"cebpf4jnsgd1na2vs0mg"},{"bike_id":"1382b748-840e-4ecc-afc5-0fb4eeaeb841","system_id":"levelo_inurba_marseille","lat":43.306134,"lon":5.374785,"is_reserved":false,"is_disabled":false,"rental_uris":{"android":"levelo://app?vid=1382b748-840e-4ecc-afc5-0fb4eeaeb841","ios":"levelo://app?vid=1382b748-840e-4ecc-afc5-0fb4eeaeb841"},"vehicle_type_id":"4","last_reported":1760803861,"current_range_meters":12800,"station_id":"","pricing_plan_id":"cebpf4jnsgd1na2vs0mg"},{"bike_id":"c6ffde32-bde6-4cce-a061-012b5830563b","system_id":"levelo_inurba_marseille","lat":43.29533,"lon":5.38537,"is_reserved":false,"is_disabled":false,"rental_uris":{"android":"levelo://app?vid=c6ffde32-bde6-4cce-a061-012b5830563b","ios":"levelo://app?vid=c6ffde32-bde6-4cce-a061-012b5830563b"},"vehicle_type_id":"4","last_reported":1760803861,"current_range_meters":12800,"station_id":"ce4bgih2rcd13ifvqba0","pricing_plan_id":"cebpf4jnsgd1na2vs0mg"},{"bike_id":"587199f8-8f8a-40ac-a953-777ecb8b00fb","system_id":"levelo_inurba_marseille","lat":43.27371,"lon":5.36263,"is_reserved":false,"is_disabled":false,"rental_uris":{"android":"levelo://app?vid=587199f8-8f8a-40ac-a953-777ecb8b00fb","ios":"levelo://app?vid=587199f8-8f8a-40ac-a953-777ecb8b00fb"},"vehicle_type_id":"4","last_reported":1760803861,"current_range_meters":12800,"station_id":"ce4bhbh2rcd13ifvqeo0","pricing_plan_id":"cebpf4jnsgd1na2vs0mg"},{"bike_id":"b1db1391-3474-48f3-85bd-dfc79b190eda","system_id":"levelo_inurba_marseille","lat":43.292893,"lon":5.360998,"is_reserved":false,"is_disabled":false,"rental_uris":{"android":"levelo://app?vid=b1db1391-3474-48f3-85bd-dfc79b190eda","ios":"levelo://app?vid=b1db1391-3474-48f3-85bd-dfc79b190eda"},"vehicle_type_id":"4","last_reported":1760803861,"current_range_meters":12800,"station_id":"","pricing_plan_id":"cebpf4jnsgd1na2vs0mg"},{"bike_id":"ae6eb0f2-4874-4ceb-8d8c-7385a8266f58","system_id":"levelo_inurba_marseille","lat":43.29515,"lon":5.37909,"is_reserved":false,"is_disabled":false,"rental_uris":{"android":"levelo://app?vid=ae6eb0f2-4874-4ceb-8d8c-7385a8266f58","ios":"levelo://app?vid=ae6eb0f2-4874-4ceb-8d8c-7385a8266f58"},"vehicle_type_id":"4","last_reported":1760803861,"current_range_meters":12800,"station_id":"","pricing_plan_id":"cebpf4jnsgd1na2vs0mg"},{"bike_id":"b96a0de8-1846-4c87-b3d2-3d4082e9a540","system_id":"levelo_inurba_marseille","lat":43.29529,"lon":5.3854,"is_reserved":false,"is_disabled":false,"rental_uris":{"android":"levelo://app?vid=b96a0de8-1846-4c87-b3d2-3d4082e9a540","ios":"levelo://app?vid=b96a0de8-1846-4c87-b3d2-3d4082e9a540"},"vehicle_type_id":"4","last_reported":1760803861,"current_range_meters":13600,"station_id":"ce4bgih2rcd13ifvqba0","pricing_plan_id":"cebpf4jnsgd1na2vs0mg"},{"bike_id":"c8e7e487-2046-4072-98bc-53764ffcd62b","system_id":"levelo_inurba_marseille","lat":43.25832,"lon":5.39453,"is_reserved":false,"is_disabled":false,"rental_uris":{"android":"levelo://app?vid=c8e7e487-2046-4072-98bc-53764ffcd62b","ios":"levelo://app?vid=c8e7e487-2046-4072-98bc-53764ffcd62b"},"vehicle_type_id":"4","last_reported":1760803861,"current_range_meters":13600,"station_id":"ce4bhip2rcd13ifvqft0","pricing_plan_id":"cebpf4jnsgd1na2vs0mg"},{"bike_id":"8c589492-470e-409a-a41a-27cbb846c959","system_id":"levelo_inurba_marseille","lat":43.30886,"lon":5.36852,"is_reserved":false,"is_disabled":false,"rental_uris":{"android":"levelo://app?vid=8c589492-470e-409a-a41a-27cbb846c959","ios":"levelo://app?vid=8c589492-470e-409a-a41a-27cbb846c959"},"vehicle_type_id":"4","last_reported":1760803861,"current_range_meters":13600,"station_id":"ce4bgn92rcd13ifvqbvg","pricing_plan_id":"cebpf4jnsgd1na2vs0mg"},{"bike_id":"a9df1999-35ba-4aea-bf41-5ab7d43175f1","system_id":"levelo_inurba_marseille","lat":43.24808,"lon":5.37468,"is_reserved":false,"is_disabled":false,"rental_uris":{"android":"levelo://app?vid=a9df1999-35ba-4aea-bf41-5ab7d43175f1","ios":"levelo://app?vid=a9df1999-35ba-4aea-bf41-5ab7d43175f1"},"vehicle_type_id":"4","last_reported":1760803861,"current_range_meters":13600,"station_id":"ce4bhgh2rcd13ifvqfb0","pricing_plan_id":"cebpf4jnsgd1na2vs0mg"},{"bike_id":"fa68b210-55bb-4a86-a8f5-f651a77004e6","system_id":"levelo_inurba_marseille","lat":43.23195,"lon":5.35578,"is_reserved":false,"is_disabled":false,"rental_uris":{"android":"levelo://app?vid=fa68b210-55bb-4a86-a8f5-f651a77004e6","ios":"levelo://app?vid=fa68b210-55bb-4a86-a8f5-f651a77004e6"},"vehicle_type_id":"4","last_reported":1760803861,"current_range_meters":13600,"station_id":"ce4bhu92rcd13ifvqi70","pricing_plan_id":"cebpf4jnsgd1na2vs0mg"},{"bike_id":"23d41a40-c2c8-4b1b-ab87-58223543eb75","system_id":"levelo_inurba_marseille","lat":43.24165,"lon":5.36405,"is_reserved":false,"is_disabled":false,"rental_uris":{"android":"levelo://app?vid=23d41a40-c2c8-4b1b-ab87-58223543eb75","ios":"levelo://app?vid=23d41a40-c2c8-4b1b-ab87-58223543eb75"},"vehicle_type_id":"4","last_reported":1760803861,"current_range_meters":13600,"station_id":"cpo36qri1sfpv3e86is0","pricing_plan_id":"cebpf4jnsgd1na2vs0mg"},{"bike_id":"b5edf16f-dcb2-48e6-bfb9-2faaf633dbfa","system_id":"levelo_inurba_marseille","lat":43.27999,"lon":5.39999,"is_reserved":false,"is_disabled":false,"rental_uris":{"android":"levelo://app?vid=b5edf16f-dcb2-48e6-bfb9-2faaf633dbfa","ios":"levelo://app?vid=b5edf16f-dcb2-48e6-bfb9-2faaf633dbfa"},"vehicle_type_id":"4","last_reported":1760803861,"current_range_meters":13600,"station_id":"ce4bho92rcd13ifvqh4g","pricing_plan_id":"cebpf4jnsgd1na2vs0mg"},{"bike_id":"8df55d1c-f117-4d7e-bf77-2c1831e1b3d7","system_id":"levelo_inurba_marseille","lat":43.23762,"lon":5.36656,"is_reserved":false,"is_disabled":false,"rental_uris":{"android":"levelo://app?vid=8df55d1c-f117-4d7e-bf77-2c1831e1b3d7","ios":"levelo://app?vid=8df55d1c-f117-4d7e-bf77-2c1831e1b3d7"},"vehicle_type_id":"4","last_reported":1760803861,"current_range_meters":13600,"station_id":"st_d3nk18o9ro0c73en2l3g","pricing_plan_id":"cebpf4jnsgd1na2vs0mg"},{"bike_id":"e978660f-731d-4a95-8df5-e0a54d8fe8be","system_id":"levelo_inurba_marseille","lat":43.21214,"lon":5.3506,"is_reserved":false,"is_disabled":true,"rental_uris":{"android":"levelo://app?vid=e978660f-731d-4a95-8df5-e0a54d8fe8be","ios":"levelo://app?vid=e978660f-731d-4a95-8df5-e0a54d8fe8be"},"vehicle_type_id":"4","last_reported":1760803861,"current_range_meters":13600,"station_id":"st_cvj6sg6p6f1abm77japg","pricing_plan_id":"cebpf4jnsgd1na2vs0mg"},{"bike_id":"83f32d95-f77b-425d-85c0-965feedaefdf","system_id":"levelo_inurba_marseille","lat":43.2657,"lon":5.39006,"is_reserved":false,"is_disabled":false,"rental_uris":{"android":"levelo://app?vid=83f32d95-f77b-425d-85c0-965feedaefdf","ios":"levelo://app?vid=83f32d95-f77b-425d-85c0-965feedaefdf"},"vehicle_type_id":"4","last_reported":1760803861,"current_range_meters":13600,"station_id":"ce4bhe12rcd13ifvqf30","pricing_plan_id":"cebpf4jnsgd1na2vs0mg"},{"bike_id":"9aca6410-dfe2-4f0b-8309-4bbe61aef318","system_id":"levelo_inurba_marseille","lat":43.33017,"lon":5.39052,"is_reserved":false,"is_disabled":false,"rental_uris":{"android":"levelo://app?vid=9aca6410-dfe2-4f0b-8309-4bbe61aef318","ios":"levelo://app?vid=9aca6410-dfe2-4f0b-8309-4bbe61aef318"},"vehicle_type_id":"4","last_reported":1760803861,"current_range_meters":14000,"station_id":"ce4bhr92rcd13ifvqhrg","pricing_plan_id":"cebpf4jnsgd1na2vs0mg"},{"bike_id":"57bc8ade-2963-404c-8f8d-cc0d93e1312e","system_id":"levelo_inurba_marseille","lat":43.286115,"lon":5.351105,"is_reserved":false,"is_disabled":false,"rental_uris":{"android":"levelo://app?vid=57bc8ade-2963-404c-8f8d-cc0d93e1312e","ios":"levelo://app?vid=57bc8ade-2963-404c-8f8d-cc0d93e1312e"},"vehicle_type_id":"4","last_reported":1760803861,"current_range_meters":14000,"station_id":"ce4bhbh2rcd13ifvqeqg","pricing_plan_id":"cebpf4jnsgd1na2vs0mg"},{"bike_id":"8081d717-17d7-41f4-848c-e842454d99a3","system_id":"levelo_inurba_marseille","lat":43.31363,"lon":5.38495,"is_reserved":false,"is_disabled":false,"rental_uris":{"android":"levelo://app?vid=8081d717-17d7-41f4-848c-e842454d99a3","ios":"levelo://app?vid=8081d717-17d7-41f4-848c-e842454d99a3"},"vehicle_type_id":"4","last_reported":1760803861,"current_range_meters":14000,"station_id":"ce4bgt92rcd13ifvqcf0","pricing_plan_id":"cebpf4jnsgd1na2vs0mg"},{"bike_id":"e0f1ef1f-01ad-4538-8d1f-3267922116b4","system_id":"levelo_inurba_marseille","lat":43.289669,"lon":5.387075,"is_reserved":false,"is_disabled":false,"rental_uris":{"android":"levelo://app?vid=e0f1ef1f-01ad-4538-8d1f-3267922116b4","ios":"levelo://app?vid=e0f1ef1f-01ad-4538-8d1f-3267922116b4"},"vehicle_type_id":"4","last_reported":1760803861,"current_range_meters":14000,"station_id":"ce4bh4p2rcd13ifvqe0g","pricing_plan_id":"cebpf4jnsgd1na2vs0mg"},{"bike_id":"4d639fc2-fd62-4b4f-8fc3-f0ee032daac3","system_id":"levelo_inurba_marseille","lat":43.241629,"lon":5.364019,"is_reserved":false,"is_disabled":false,"rental_uris":{"android":"levelo://app?vid=4d639fc2-fd62-4b4f-8fc3-f0ee032daac3","ios":"levelo://app?vid=4d639fc2-fd62-4b4f-8fc3-f0ee032daac3"},"vehicle_type_id":"4","last_reported":1760803861,"current_range_meters":14400,"station_id":"cpo36qri1sfpv3e86is0","pricing_plan_id":"cebpf4jnsgd1na2vs0mg"},{"bike_id":"07e2aba0-c781-4ea3-b419-157d2d12757c","system_id":"levelo_inurba_marseille","lat":43.29598,"lon":5.38096,"is_reserved":false,"is_disabled":false,"rental_uris":{"android":"levelo://app?vid=07e2aba0-c781-4ea3-b419-157d2d12757c","ios":"levelo://app?vid=07e2aba0-c781-4ea3-b419-157d2d12757c"},"vehicle_type_id":"4","last_reported":1760803861,"current_range_meters":14400,"station_id":"ce4bgl12rcd13ifvqbo0","pricing_plan_id":"cebpf4jnsgd1na2vs0mg"},{"bike_id":"c6227cff-120f-49c6-93a2-5454dd916cde","system_id":"levelo_inurba_marseille","lat":43.265475,"lon":5.372892,"is_reserved":false,"is_disabled":true,"rental_uris":{"android":"levelo://app?vid=c6227cff-120f-49c6-93a2-5454dd916cde","ios":"levelo://app?vid=c6227cff-120f-49c6-93a2-5454dd916cde"},"vehicle_type_id":"4","last_reported":1760803861,"current_range_meters":14400,"station_id":"","pricing_plan_id":"cebpf4jnsgd1na2vs0mg"},{"bike_id":"2387b78c-5569-4c75-ba88-76b0ec2749e5","system_id":"levelo_inurba_marseille","lat":43.29018,"lon":5.37148,"is_reserved":false,"is_disabled":false,"rental_uris":{"android":"levelo://app?vid=2387b78c-5569-4c75-ba88-76b0ec2749e5","ios":"levelo://app?vid=2387b78c-5569-4c75-ba88-76b0ec2749e5"},"vehicle_type_id":"4","last_reported":1760803861,"current_range_meters":14400,"station_id":"","pricing_plan_id":"cebpf4jnsgd1na2vs0mg"},{"bike_id":"074be791-6c38-4f2f-8dd0-b227e073e27e","system_id":"levelo_inurba_marseille","lat":43.24169,"lon":5.36402,"is_reserved":false,"is_disabled":false,"rental_uris":{"android":"levelo://app?vid=074be791-6c38-4f2f-8dd0-b227e073e27e","ios":"levelo://app?vid=074be791-6c38-4f2f-8dd0-b227e073e27e"},"vehicle_type_id":"4","last_reported":1760803861,"current_range_meters":14800,"station_id":"cpo36qri1sfpv3e86is0","pricing_plan_id":"cebpf4jnsgd1na2vs0mg"},{"bike_id":"6426e4fa-7f79-410d-acfa-0a51b3b2658a","system_id":"levelo_inurba_marseille","lat":43.31243,"lon":5.40412,"is_reserved":false,"is_disabled":false,"rental_uris":{"android":"levelo://app?vid=6426e4fa-7f79-410d-acfa-0a51b3b2658a","ios":"levelo://app?vid=6426e4fa-7f79-410d-acfa-0a51b3b2658a"},"vehicle_type_id":"4","last_reported":1760803861,"current_range_meters":14800,"station_id":"","pricing_plan_id":"cebpf4jnsgd1na2vs0mg"},{"bike_id":"365b1110-8604-4b2d-ad9b-3263b8a258f2","system_id":"levelo_inurba_marseille","lat":43.28655,"lon":5.3634,"is_reserved":false,"is_disabled":false,"rental_uris":{"android":"levelo://app?vid=365b1110-8604-4b2d-ad9b-3263b8a258f2","ios":"levelo://app?vid=365b1110-8604-4b2d-ad9b-3263b8a258f2"},"vehicle_type_id":"4","last_reported":1760803861,"current_range_meters":14800,"station_id":"ce4bhah2rcd13ifvqej0","pricing_plan_id":"cebpf4jnsgd1na2vs0mg"},{"bike_id":"bf2c3617-0e72-4f4a-8585-0c63bcbc4fce","system_id":"levelo_inurba_marseille","lat":43.28622,"lon":5.35103,"is_reserved":false,"is_disabled":true,"rental_uris":{"android":"levelo://app?vid=bf2c3617-0e72-4f4a-8585-0c63bcbc4fce","ios":"levelo://app?vid=bf2c3617-0e72-4f4a-8585-0c63bcbc4fce"},"vehicle_type_id":"4","last_reported":1760803861,"current_range_meters":14800,"station_id":"ce4bhch2rcd13ifvqeug","pricing_plan_id":"cebpf4jnsgd1na2vs0mg"},{"bike_id":"d4af579a-1ad6-4f54-9802-2f089d9b8adf","system_id":"levelo_inurba_marseille","lat":43.28451,"lon":5.35889,"is_reserved":false,"is_disabled":false,"rental_uris":{"android":"levelo://app?vid=d4af579a-1ad6-4f54-9802-2f089d9b8adf","ios":"levelo://app?vid=d4af579a-1ad6-4f54-9802-2f089d9b8adf"},"vehicle_type_id":"4","last_reported":1760803861,"current_range_meters":14800,"station_id":"ce4bhah2rcd13ifvqei0","pricing_plan_id":"cebpf4jnsgd1na2vs0mg"},{"bike_id":"f8925670-7ab9-4958-9513-76f86b130621","system_id":"levelo_inurba_marseille","lat":43.27309,"lon":5.39074,"is_reserved":false,"is_disabled":false,"rental_uris":{"android":"levelo://app?vid=f8925670-7ab9-4958-9513-76f86b130621","ios":"levelo://app?vid=f8925670-7ab9-4958-9513-76f86b130621"},"vehicle_type_id":"4","last_reported":1760803861,"current_range_meters":14800,"station_id":"ce4bhgp2rcd13ifvqfe0","pricing_plan_id":"cebpf4jnsgd1na2vs0mg"},{"bike_id":"ac6d2c4d-74a8-443d-a9f9-0d9807feacda","system_id":"levelo_inurba_marseille","lat":43.33772,"lon":5.37469,"is_reserved":false,"is_disabled":false,"rental_uris":{"android":"levelo://app?vid=ac6d2c4d-74a8-443d-a9f9-0d9807feacda","ios":"levelo://app?vid=ac6d2c4d-74a8-443d-a9f9-0d9807feacda"},"vehicle_type_id":"4","last_reported":1760803861,"current_range_meters":14800,"station_id":"","pricing_plan_id":"cebpf4jnsgd1na2vs0mg"},{"bike_id":"5fcd5f86-dc9e-4435-b98f-6250bb723fcd","system_id":"levelo_inurba_marseille","lat":43.255077,"lon":5.409486,"is_reserved":false,"is_disabled":false,"rental_uris":{"android":"levelo://app?vid=5fcd5f86-dc9e-4435-b98f-6250bb723fcd","ios":"levelo://app?vid=5fcd5f86-dc9e-4435-b98f-6250bb723fcd"},"vehicle_type_id":"4","last_reported":1760803861,"current_range_meters":14800,"station_id":"ce4bhkp2rcd13ifvqgd0","pricing_plan_id":"cebpf4jnsgd1na2vs0mg"},{"bike_id":"3f13991a-43fd-4b49-b31a-f84d43d4b745","system_id":"levelo_inurba_marseille","lat":43.28965,"lon":5.37194,"is_reserved":false,"is_disabled":false,"rental_uris":{"android":"levelo://app?vid=3f13991a-43fd-4b49-b31a-f84d43d4b745","ios":"levelo://app?vid=3f13991a-43fd-4b49-b31a-f84d43d4b745"},"vehicle_type_id":"4","last_reported":1760803861,"current_range_meters":15200,"station_id":"","pricing_plan_id":"cebpf4jnsgd1na2vs0mg"},{"bike_id":"d712d0ff-3096-41ad-87d0-b640167ff060","system_id":"levelo_inurba_marseille","lat":43.31541,"lon":5.38512,"is_reserved":false,"is_disabled":false,"rental_uris":{"android":"levelo://app?vid=d712d0ff-3096-41ad-87d0-b640167ff060","ios":"levelo://app?vid=d712d0ff-3096-41ad-87d0-b640167ff060"},"vehicle_type_id":"4","last_reported":1760803861,"current_range_meters":15200,"station_id":"","pricing_plan_id":"cebpf4jnsgd1na2vs0mg"},{"bike_id":"cf4c14bf-7635-4f96-a4b6-ee6481db3804","system_id":"levelo_inurba_marseille","lat":43.32293,"lon":5.38287,"is_reserved":false,"is_disabled":false,"rental_uris":{"android":"levelo://app?vid=cf4c14bf-7635-4f96-a4b6-ee6481db3804","ios":"levelo://app?vid=cf4c14bf-7635-4f96-a4b6-ee6481db3804"},"vehicle_type_id":"4","last_reported":1760803861,"current_range_meters":15200,"station_id":"ce4bhr12rcd13ifvqhqg","pricing_plan_id":"cebpf4jnsgd1na2vs0mg"},{"bike_id":"3e9130f7-2dc2-48e9-a6a6-56327ea869ab","system_id":"levelo_inurba_marseille","lat":43.241668,"lon":5.363942,"is_reserved":false,"is_disabled":false,"rental_uris":{"android":"levelo://app?vid=3e9130f7-2dc2-48e9-a6a6-56327ea869ab","ios":"levelo://app?vid=3e9130f7-2dc2-48e9-a6a6-56327ea869ab"},"vehicle_type_id":"4","last_reported":1760803861,"current_range_meters":15200,"station_id":"cpo36qri1sfpv3e86is0","pricing_plan_id":"cebpf4jnsgd1na2vs0mg"},{"bike_id":"a7b3764b-b896-4840-bd7e-9880973af195","system_id":"levelo_inurba_marseille","lat":43.292287,"lon":5.360602,"is_reserved":false,"is_disabled":false,"rental_uris":{"android":"levelo://app?vid=a7b3764b-b896-4840-bd7e-9880973af195","ios":"levelo://app?vid=a7b3764b-b896-4840-bd7e-9880973af195"},"vehicle_type_id":"4","last_reported":1760803861,"current_range_meters":15200,"station_id":"","pricing_plan_id":"cebpf4jnsgd1na2vs0mg"},{"bike_id":"f4b21278-7a88-4f1e-8b50-4cb4a181722f","system_id":"levelo_inurba_marseille","lat":43.28518,"lon":5.44124,"is_reserved":false,"is_disabled":false,"rental_uris":{"android":"levelo://app?vid=f4b21278-7a88-4f1e-8b50-4cb4a181722f","ios":"levelo://app?vid=f4b21278-7a88-4f1e-8b50-4cb4a181722f"},"vehicle_type_id":"4","last_reported":1760803861,"current_range_meters":15200,"station_id":"st_d3j3df2ikq2c7380ej80","pricing_plan_id":"cebpf4jnsgd1na2vs0mg"},{"bike_id":"975b850a-192b-4721-bdb8-950e4bb424c0","system_id":"levelo_inurba_marseille","lat":43.2742,"lon":5.3941,"is_reserved":false,"is_disabled":false,"rental_uris":{"android":"levelo://app?vid=975b850a-192b-4721-bdb8-950e4bb424c0","ios":"levelo://app?vid=975b850a-192b-4721-bdb8-950e4bb424c0"},"vehicle_type_id":"4","last_reported":1760803861,"current_range_meters":15200,"station_id":"ce4bhdp2rcd13ifvqf20","pricing_plan_id":"cebpf4jnsgd1na2vs0mg"},{"bike_id":"dad2a7a7-70da-464e-8342-447f3057a487","system_id":"levelo_inurba_marseille","lat":43.298222,"lon":5.38103,"is_reserved":false,"is_disabled":false,"rental_uris":{"android":"levelo://app?vid=dad2a7a7-70da-464e-8342-447f3057a487","ios":"levelo://app?vid=dad2a7a7-70da-464e-8342-447f3057a487"},"vehicle_type_id":"4","last_reported":1760803861,"current_range_meters":15200,"station_id":"ce4bgj12rcd13ifvqbc0","pricing_plan_id":"cebpf4jnsgd1na2vs0mg"},{"bike_id":"8d0dfff6-344d-44d4-a7c0-c8985a0e021b","system_id":"levelo_inurba_marseille","lat":43.29913,"lon":5.36818,"is_reserved":false,"is_disabled":false,"rental_uris":{"android":"levelo://app?vid=8d0dfff6-344d-44d4-a7c0-c8985a0e021b","ios":"levelo://app?vid=8d0dfff6-344d-44d4-a7c0-c8985a0e021b"},"vehicle_type_id":"4","last_reported":1760803861,"current_range_meters":15200,"station_id":"","pricing_plan_id":"cebpf4jnsgd1na2vs0mg"},{"bike_id":"74f529db-0a94-4e3a-8fb4-9946401df54f","system_id":"levelo_inurba_marseille","lat":43.28621,"lon":5.35115,"is_reserved":false,"is_disabled":false,"rental_uris":{"android":"levelo://app?vid=74f529db-0a94-4e3a-8fb4-9946401df54f","ios":"levelo://app?vid=74f529db-0a94-4e3a-8fb4-9946401df54f"},"vehicle_type_id":"4","last_reported":1760803861,"current_range_meters":16000,"station_id":"ce4bhch2rcd13ifvqeug","pricing_plan_id":"cebpf4jnsgd1na2vs0mg"},{"bike_id":"eec39279-21f0-401f-9da1-cac5955df489","system_id":"levelo_inurba_marseille","lat":43.24389,"lon":5.37064,"is_reserved":false,"is_disabled":false,"rental_uris":{"android":"levelo://app?vid=eec39279-21f0-401f-9da1-cac5955df489","ios":"levelo://app?vid=eec39279-21f0-401f-9da1-cac5955df489"},"vehicle_type_id":"4","last_reported":1760803861,"current_range_meters":16000,"station_id":"ce4bhhh2rcd13ifvqfk0","pricing_plan_id":"cebpf4jnsgd1na2vs0mg"},{"bike_id":"2d0f8f7b-d8f3-4190-94f5-016841dedac1","system_id":"levelo_inurba_marseille","lat":43.28077,"lon":5.39664,"is_reserved":false,"is_disabled":false,"rental_uris":{"android":"levelo://app?vid=2d0f8f7b-d8f3-4190-94f5-016841dedac1","ios":"levelo://app?vid=2d0f8f7b-d8f3-4190-94f5-016841dedac1"},"vehicle_type_id":"4","last_reported":1760803861,"current_range_meters":16000,"station_id":"ce4bho12rcd13ifvqh2g","pricing_plan_id":"cebpf4jnsgd1na2vs0mg"},{"bike_id":"7fcb5eb4-dc20-4aa8-a452-45b0d9bfb149","system_id":"levelo_inurba_marseille","lat":43.225487,"lon":5.416292,"is_reserved":false,"is_disabled":false,"rental_uris":{"android":"levelo://app?vid=7fcb5eb4-dc20-4aa8-a452-45b0d9bfb149","ios":"levelo://app?vid=7fcb5eb4-dc20-4aa8-a452-45b0d9bfb149"},"vehicle_type_id":"4","last_reported":1760803861,"current_range_meters":16400,"station_id":"st_d2o4gvlbi1j2169b742g","pricing_plan_id":"cebpf4jnsgd1na2vs0mg"},{"bike_id":"77056393-9c6f-4479-8302-96e6d6d45f82","system_id":"levelo_inurba_marseille","lat":43.2993,"lon":5.36546,"is_reserved":false,"is_disabled":false,"rental_uris":{"android":"levelo://app?vid=77056393-9c6f-4479-8302-96e6d6d45f82","ios":"levelo://app?vid=77056393-9c6f-4479-8302-96e6d6d45f82"},"vehicle_type_id":"4","last_reported":1760803861,"current_range_meters":16400,"station_id":"ce4bgm92rcd13ifvqbr0","pricing_plan_id":"cebpf4jnsgd1na2vs0mg"},{"bike_id":"b4ec7e03-6df3-4da5-b818-bf5b0512ecf9","system_id":"levelo_inurba_marseille","lat":43.23053,"lon":5.35501,"is_reserved":false,"is_disabled":false,"rental_uris":{"android":"levelo://app?vid=b4ec7e03-6df3-4da5-b818-bf5b0512ecf9","ios":"levelo://app?vid=b4ec7e03-6df3-4da5-b818-bf5b0512ecf9"},"vehicle_type_id":"4","last_reported":1760803861,"current_range_meters":16400,"station_id":"cpo3342slgdg3j2ifvpg","pricing_plan_id":"cebpf4jnsgd1na2vs0mg"},{"bike_id":"2161466a-add8-4a8d-a1c4-32f3abf50ad8","system_id":"levelo_inurba_marseille","lat":43.28617,"lon":5.35111,"is_reserved":false,"is_disabled":false,"rental_uris":{"android":"levelo://app?vid=2161466a-add8-4a8d-a1c4-32f3abf50ad8","ios":"levelo://app?vid=2161466a-add8-4a8d-a1c4-32f3abf50ad8"},"vehicle_type_id":"4","last_reported":1760803861,"current_range_meters":16800,"station_id":"ce4bhch2rcd13ifvqeug","pricing_plan_id":"cebpf4jnsgd1na2vs0mg"},{"bike_id":"24164bac-978c-41c1-aebe-b119454d83c7","system_id":"levelo_inurba_marseille","lat":43.27059,"lon":5.40256,"is_reserved":false,"is_disabled":false,"rental_uris":{"android":"levelo://app?vid=24164bac-978c-41c1-aebe-b119454d83c7","ios":"levelo://app?vid=24164bac-978c-41c1-aebe-b119454d83c7"},"vehicle_type_id":"4","last_reported":1760803861,"current_range_meters":17200,"station_id":"ce4bhk92rcd13ifvqgc0","pricing_plan_id":"cebpf4jnsgd1na2vs0mg"},{"bike_id":"ff27b0ea-7d06-466b-8650-886d3a7741bd","system_id":"levelo_inurba_marseille","lat":43.29533,"lon":5.38539,"is_reserved":false,"is_disabled":false,"rental_uris":{"android":"levelo://app?vid=ff27b0ea-7d06-466b-8650-886d3a7741bd","ios":"levelo://app?vid=ff27b0ea-7d06-466b-8650-886d3a7741bd"},"vehicle_type_id":"4","last_reported":1760803861,"current_range_meters":17200,"station_id":"ce4bgih2rcd13ifvqba0","pricing_plan_id":"cebpf4jnsgd1na2vs0mg"},{"bike_id":"8cd818e3-a9e2-4f48-92b2-26306f507696","system_id":"levelo_inurba_marseille","lat":43.31349,"lon":5.37913,"is_reserved":false,"is_disabled":false,"rental_uris":{"android":"levelo://app?vid=8cd818e3-a9e2-4f48-92b2-26306f507696","ios":"levelo://app?vid=8cd818e3-a9e2-4f48-92b2-26306f507696"},"vehicle_type_id":"4","last_reported":1760803861,"current_range_meters":17200,"station_id":"","pricing_plan_id":"cebpf4jnsgd1na2vs0mg"},{"bike_id":"b543257b-5582-454d-bd99-d0918be9c259","system_id":"levelo_inurba_marseille","lat":43.27366,"lon":5.36261,"is_reserved":false,"is_disabled":false,"rental_uris":{"android":"levelo://app?vid=b543257b-5582-454d-bd99-d0918be9c259","ios":"levelo://app?vid=b543257b-5582-454d-bd99-d0918be9c259"},"vehicle_type_id":"4","last_reported":1760803861,"current_range_meters":17200,"station_id":"ce4bhbh2rcd13ifvqeo0","pricing_plan_id":"cebpf4jnsgd1na2vs0mg"},{"bike_id":"d7ded36d-d299-42ab-8149-5c679c8d7b3f","system_id":"levelo_inurba_marseille","lat":43.3464,"lon":5.36671,"is_reserved":false,"is_disabled":false,"rental_uris":{"android":"levelo://app?vid=d7ded36d-d299-42ab-8149-5c679c8d7b3f","ios":"levelo://app?vid=d7ded36d-d299-42ab-8149-5c679c8d7b3f"},"vehicle_type_id":"4","last_reported":1760803861,"current_range_meters":17200,"station_id":"","pricing_plan_id":"cebpf4jnsgd1na2vs0mg"},{"bike_id":"0f787efd-37ca-4060-a03d-15d3c3ce389f","system_id":"levelo_inurba_marseille","lat":43.299974,"lon":5.373579,"is_reserved":false,"is_disabled":false,"rental_uris":{"android":"levelo://app?vid=0f787efd-37ca-4060-a03d-15d3c3ce389f","ios":"levelo://app?vid=0f787efd-37ca-4060-a03d-15d3c3ce389f"},"vehicle_type_id":"4","last_reported":1760803861,"current_range_meters":17200,"station_id":"","pricing_plan_id":"cebpf4jnsgd1na2vs0mg"},{"bike_id":"8f6c99a9-2111-4ea5-ba4d-4bb0a3b06aa1","system_id":"levelo_inurba_marseille","lat":43.2982,"lon":5.44064,"is_reserved":false,"is_disabled":false,"rental_uris":{"android":"levelo://app?vid=8f6c99a9-2111-4ea5-ba4d-4bb0a3b06aa1","ios":"levelo://app?vid=8f6c99a9-2111-4ea5-ba4d-4bb0a3b06aa1"},"vehicle_type_id":"4","last_reported":1760803861,"current_range_meters":17600,"station_id":"st_d3jp68qikq2c7381ktn0","pricing_plan_id":"cebpf4jnsgd1na2vs0mg"},{"bike_id":"6b06aa68-6da8-4f5c-bf18-9f5045bd8fa8","system_id":"levelo_inurba_marseille","lat":43.241709,"lon":5.363981,"is_reserved":false,"is_disabled":false,"rental_uris":{"android":"levelo://app?vid=6b06aa68-6da8-4f5c-bf18-9f5045bd8fa8","ios":"levelo://app?vid=6b06aa68-6da8-4f5c-bf18-9f5045bd8fa8"},"vehicle_type_id":"4","last_reported":1760803861,"current_range_meters":17600,"station_id":"cpo36qri1sfpv3e86is0","pricing_plan_id":"cebpf4jnsgd1na2vs0mg"},{"bike_id":"c253d0e3-592b-426f-ab2a-1f48f6584939","system_id":"levelo_inurba_marseille","lat":43.29007,"lon":5.356195,"is_reserved":false,"is_disabled":true,"rental_uris":{"android":"levelo://app?vid=c253d0e3-592b-426f-ab2a-1f48f6584939","ios":"levelo://app?vid=c253d0e3-592b-426f-ab2a-1f48f6584939"},"vehicle_type_id":"4","last_reported":1760803861,"current_range_meters":17600,"station_id":"ce4bh9p2rcd13ifvqec0","pricing_plan_id":"cebpf4jnsgd1na2vs0mg"},{"bike_id":"7fd36eea-805d-4dce-89b5-46f277eaf158","system_id":"levelo_inurba_marseille","lat":43.305097,"lon":5.366695,"is_reserved":false,"is_disabled":false,"rental_uris":{"android":"levelo://app?vid=7fd36eea-805d-4dce-89b5-46f277eaf158","ios":"levelo://app?vid=7fd36eea-805d-4dce-89b5-46f277eaf158"},"vehicle_type_id":"4","last_reported":1760803861,"current_range_meters":17600,"station_id":"","pricing_plan_id":"cebpf4jnsgd1na2vs0mg"},{"bike_id":"5fb8e998-d91b-473f-811f-5a6848dfc6f8","system_id":"levelo_inurba_marseille","lat":43.29005,"lon":5.38151,"is_reserved":false,"is_disabled":false,"rental_uris":{"android":"levelo://app?vid=5fb8e998-d91b-473f-811f-5a6848dfc6f8","ios":"levelo://app?vid=5fb8e998-d91b-473f-811f-5a6848dfc6f8"},"vehicle_type_id":"4","last_reported":1760803861,"current_range_meters":17600,"station_id":"ce4bh4p2rcd13ifvqe1g","pricing_plan_id":"cebpf4jnsgd1na2vs0mg"},{"bike_id":"3ebfd743-df1b-4249-8e6e-54b16b0ab693","system_id":"levelo_inurba_marseille","lat":43.28612,"lon":5.35112,"is_reserved":false,"is_disabled":false,"rental_uris":{"android":"levelo://app?vid=3ebfd743-df1b-4249-8e6e-54b16b0ab693","ios":"levelo://app?vid=3ebfd743-df1b-4249-8e6e-54b16b0ab693"},"vehicle_type_id":"4","last_reported":1760803861,"current_range_meters":17600,"station_id":"ce4bhch2rcd13ifvqeug","pricing_plan_id":"cebpf4jnsgd1na2vs0mg"},{"bike_id":"3f9922fa-5fa2-4bb2-b6fe-411d28b8df2c","system_id":"levelo_inurba_marseille","lat":43.284577,"lon":5.381403,"is_reserved":false,"is_disabled":false,"rental_uris":{"android":"levelo://app?vid=3f9922fa-5fa2-4bb2-b6fe-411d28b8df2c","ios":"levelo://app?vid=3f9922fa-5fa2-4bb2-b6fe-411d28b8df2c"},"vehicle_type_id":"4","last_reported":1760803861,"current_range_meters":17600,"station_id":"","pricing_plan_id":"cebpf4jnsgd1na2vs0mg"},{"bike_id":"86ce52f8-f590-4694-90e1-216ddc477b29","system_id":"levelo_inurba_marseille","lat":43.30968,"lon":5.3812,"is_reserved":false,"is_disabled":false,"rental_uris":{"android":"levelo://app?vid=86ce52f8-f590-4694-90e1-216ddc477b29","ios":"levelo://app?vid=86ce52f8-f590-4694-90e1-216ddc477b29"},"vehicle_type_id":"4","last_reported":1760803861,"current_range_meters":17600,"station_id":"","pricing_plan_id":"cebpf4jnsgd1na2vs0mg"},{"bike_id":"0a53904e-6100-4306-9c10-14b7a7cd0e43","system_id":"levelo_inurba_marseille","lat":43.299649,"lon":5.4132,"is_reserved":false,"is_disabled":false,"rental_uris":{"android":"levelo://app?vid=0a53904e-6100-4306-9c10-14b7a7cd0e43","ios":"levelo://app?vid=0a53904e-6100-4306-9c10-14b7a7cd0e43"},"vehicle_type_id":"4","last_reported":1760803861,"current_range_meters":17600,"station_id":"ce4bhp12rcd13ifvqh9g","pricing_plan_id":"cebpf4jnsgd1na2vs0mg"},{"bike_id":"6a03b1a9-beb0-459f-91c8-a6bf2da837d5","system_id":"levelo_inurba_marseille","lat":43.286163,"lon":5.351088,"is_reserved":false,"is_disabled":false,"rental_uris":{"android":"levelo://app?vid=6a03b1a9-beb0-459f-91c8-a6bf2da837d5","ios":"levelo://app?vid=6a03b1a9-beb0-459f-91c8-a6bf2da837d5"},"vehicle_type_id":"4","last_reported":1760803861,"current_range_meters":17600,"station_id":"","pricing_plan_id":"cebpf4jnsgd1na2vs0mg"},{"bike_id":"cafacda9-2331-4784-b07f-dbd6ab41e97a","system_id":"levelo_inurba_marseille","lat":43.2417,"lon":5.36382,"is_reserved":false,"is_disabled":false,"rental_uris":{"android":"levelo://app?vid=cafacda9-2331-4784-b07f-dbd6ab41e97a","ios":"levelo://app?vid=cafacda9-2331-4784-b07f-dbd6ab41e97a"},"vehicle_type_id":"4","last_reported":1760803861,"current_range_meters":17600,"station_id":"cpo36qri1sfpv3e86is0","pricing_plan_id":"cebpf4jnsgd1na2vs0mg"},{"bike_id":"f4edfdd9-2e3c-4d91-8462-de76adaee5a1","system_id":"levelo_inurba_marseille","lat":43.279159,"lon":5.395749,"is_reserved":false,"is_disabled":false,"rental_uris":{"android":"levelo://app?vid=f4edfdd9-2e3c-4d91-8462-de76adaee5a1","ios":"levelo://app?vid=f4edfdd9-2e3c-4d91-8462-de76adaee5a1"},"vehicle_type_id":"4","last_reported":1760803861,"current_range_meters":17600,"station_id":"ce4bhf92rcd13ifvqf40","pricing_plan_id":"cebpf4jnsgd1na2vs0mg"},{"bike_id":"7ed9128f-037d-4e68-8fe4-29d9636e35f1","system_id":"levelo_inurba_marseille","lat":43.292726,"lon":5.368456,"is_reserved":false,"is_disabled":false,"rental_uris":{"android":"levelo://app?vid=7ed9128f-037d-4e68-8fe4-29d9636e35f1","ios":"levelo://app?vid=7ed9128f-037d-4e68-8fe4-29d9636e35f1"},"vehicle_type_id":"4","last_reported":1760803861,"current_range_meters":17600,"station_id":"ce4bgh92rcd13ifvqb50","pricing_plan_id":"cebpf4jnsgd1na2vs0mg"},{"bike_id":"0e695bea-0650-41d5-a762-d450a10f75d4","system_id":"levelo_inurba_marseille","lat":43.24077,"lon":5.3776,"is_reserved":false,"is_disabled":false,"rental_uris":{"android":"levelo://app?vid=0e695bea-0650-41d5-a762-d450a10f75d4","ios":"levelo://app?vid=0e695bea-0650-41d5-a762-d450a10f75d4"},"vehicle_type_id":"4","last_reported":1760803861,"current_range_meters":17600,"station_id":"ce4bhnp2rcd13ifvqgvg","pricing_plan_id":"cebpf4jnsgd1na2vs0mg"},{"bike_id":"0c34208b-00e3-4de3-a2ad-31073c39ad77","system_id":"levelo_inurba_marseille","lat":43.29974,"lon":5.37183,"is_reserved":false,"is_disabled":false,"rental_uris":{"android":"levelo://app?vid=0c34208b-00e3-4de3-a2ad-31073c39ad77","ios":"levelo://app?vid=0c34208b-00e3-4de3-a2ad-31073c39ad77"},"vehicle_type_id":"4","last_reported":1760803861,"current_range_meters":17600,"station_id":"ce4bgr92rcd13ifvqc7g","pricing_plan_id":"cebpf4jnsgd1na2vs0mg"},{"bike_id":"7a8ac50b-c3a4-490a-8f96-9c005f89ed5d","system_id":"levelo_inurba_marseille","lat":43.26521,"lon":5.39049,"is_reserved":false,"is_disabled":false,"rental_uris":{"android":"levelo://app?vid=7a8ac50b-c3a4-490a-8f96-9c005f89ed5d","ios":"levelo://app?vid=7a8ac50b-c3a4-490a-8f96-9c005f89ed5d"},"vehicle_type_id":"4","last_reported":1760803861,"current_range_meters":18000,"station_id":"","pricing_plan_id":"cebpf4jnsgd1na2vs0mg"},{"bike_id":"7b4102bf-aba1-447f-93de-ffef7042242e","system_id":"levelo_inurba_marseille","lat":43.27756,"lon":5.37603,"is_reserved":false,"is_disabled":false,"rental_uris":{"android":"levelo://app?vid=7b4102bf-aba1-447f-93de-ffef7042242e","ios":"levelo://app?vid=7b4102bf-aba1-447f-93de-ffef7042242e"},"vehicle_type_id":"4","last_reported":1760803861,"current_range_meters":18000,"station_id":"","pricing_plan_id":"cebpf4jnsgd1na2vs0mg"},{"bike_id":"c717bcb7-799b-4ce7-9dcd-b862d6b3f098","system_id":"levelo_inurba_marseille","lat":43.229399,"lon":5.353745,"is_reserved":false,"is_disabled":false,"rental_uris":{"android":"levelo://app?vid=c717bcb7-799b-4ce7-9dcd-b862d6b3f098","ios":"levelo://app?vid=c717bcb7-799b-4ce7-9dcd-b862d6b3f098"},"vehicle_type_id":"4","last_reported":1760803861,"current_range_meters":18000,"station_id":"cpo3532slgdg3j2ikp40","pricing_plan_id":"cebpf4jnsgd1na2vs0mg"},{"bike_id":"281275b0-340b-4d2d-bc29-085f43a86d4d","system_id":"levelo_inurba_marseille","lat":43.27377,"lon":5.36251,"is_reserved":false,"is_disabled":false,"rental_uris":{"android":"levelo://app?vid=281275b0-340b-4d2d-bc29-085f43a86d4d","ios":"levelo://app?vid=281275b0-340b-4d2d-bc29-085f43a86d4d"},"vehicle_type_id":"4","last_reported":1760803861,"current_range_meters":18000,"station_id":"","pricing_plan_id":"cebpf4jnsgd1na2vs0mg"},{"bike_id":"c2109d25-d4ee-4a1f-897b-a03e90535513","system_id":"levelo_inurba_marseille","lat":43.28536,"lon":5.44106,"is_reserved":false,"is_disabled":false,"rental_uris":{"android":"levelo://app?vid=c2109d25-d4ee-4a1f-897b-a03e90535513","ios":"levelo://app?vid=c2109d25-d4ee-4a1f-897b-a03e90535513"},"vehicle_type_id":"4","last_reported":1760803861,"current_range_meters":18000,"station_id":"st_d3j3df2ikq2c7380ej80","pricing_plan_id":"cebpf4jnsgd1na2vs0mg"},{"bike_id":"e49f1957-12ca-4f31-9218-007afff6f309","system_id":"levelo_inurba_marseille","lat":43.237812,"lon":5.366284,"is_reserved":false,"is_disabled":false,"rental_uris":{"android":"levelo://app?vid=e49f1957-12ca-4f31-9218-007afff6f309","ios":"levelo://app?vid=e49f1957-12ca-4f31-9218-007afff6f309"},"vehicle_type_id":"4","last_reported":1760803861,"current_range_meters":18800,"station_id":"st_d3nk18o9ro0c73en2l3g","pricing_plan_id":"cebpf4jnsgd1na2vs0mg"},{"bike_id":"9652283e-21f4-4490-ac9e-ffa9429f0005","system_id":"levelo_inurba_marseille","lat":43.29025,"lon":5.40518,"is_reserved":false,"is_disabled":false,"rental_uris":{"android":"levelo://app?vid=9652283e-21f4-4490-ac9e-ffa9429f0005","ios":"levelo://app?vid=9652283e-21f4-4490-ac9e-ffa9429f0005"},"vehicle_type_id":"4","last_reported":1760803861,"current_range_meters":18800,"station_id":"","pricing_plan_id":"cebpf4jnsgd1na2vs0mg"},{"bike_id":"f5d61cde-3c0f-4247-af45-4c1d96632292","system_id":"levelo_inurba_marseille","lat":43.27965,"lon":5.38732,"is_reserved":false,"is_disabled":false,"rental_uris":{"android":"levelo://app?vid=f5d61cde-3c0f-4247-af45-4c1d96632292","ios":"levelo://app?vid=f5d61cde-3c0f-4247-af45-4c1d96632292"},"vehicle_type_id":"4","last_reported":1760803861,"current_range_meters":18800,"station_id":"ce4bhg12rcd13ifvqf80","pricing_plan_id":"cebpf4jnsgd1na2vs0mg"},{"bike_id":"dfeba9ff-51f8-4f85-97ee-de294b5335e5","system_id":"levelo_inurba_marseille","lat":43.27049,"lon":5.40267,"is_reserved":false,"is_disabled":false,"rental_uris":{"android":"levelo://app?vid=dfeba9ff-51f8-4f85-97ee-de294b5335e5","ios":"levelo://app?vid=dfeba9ff-51f8-4f85-97ee-de294b5335e5"},"vehicle_type_id":"4","last_reported":1760803861,"current_range_meters":18800,"station_id":"ce4bhk92rcd13ifvqgc0","pricing_plan_id":"cebpf4jnsgd1na2vs0mg"},{"bike_id":"ec9b3e09-59b2-46f5-b30e-4f6e4b4da5d0","system_id":"levelo_inurba_marseille","lat":43.23776,"lon":5.3663,"is_reserved":false,"is_disabled":false,"rental_uris":{"android":"levelo://app?vid=ec9b3e09-59b2-46f5-b30e-4f6e4b4da5d0","ios":"levelo://app?vid=ec9b3e09-59b2-46f5-b30e-4f6e4b4da5d0"},"vehicle_type_id":"4","last_reported":1760803861,"current_range_meters":18800,"station_id":"st_d3nk18o9ro0c73en2l3g","pricing_plan_id":"cebpf4jnsgd1na2vs0mg"},{"bike_id":"61ec9e20-79ea-4ef3-baa7-70072c22f716","system_id":"levelo_inurba_marseille","lat":43.29608,"lon":5.38108,"is_reserved":false,"is_disabled":false,"rental_uris":{"android":"levelo://app?vid=61ec9e20-79ea-4ef3-baa7-70072c22f716","ios":"levelo://app?vid=61ec9e20-79ea-4ef3-baa7-70072c22f716"},"vehicle_type_id":"4","last_reported":1760803861,"current_range_meters":18800,"station_id":"ce4bgl12rcd13ifvqbo0","pricing_plan_id":"cebpf4jnsgd1na2vs0mg"},{"bike_id":"d1668fd5-d05d-42a9-b5d1-4388db8ac6a3","system_id":"levelo_inurba_marseille","lat":43.31764,"lon":5.39029,"is_reserved":false,"is_disabled":false,"rental_uris":{"android":"levelo://app?vid=d1668fd5-d05d-42a9-b5d1-4388db8ac6a3","ios":"levelo://app?vid=d1668fd5-d05d-42a9-b5d1-4388db8ac6a3"},"vehicle_type_id":"4","last_reported":1760803861,"current_range_meters":18800,"station_id":"ce4bhqp2rcd13ifvqhng","pricing_plan_id":"cebpf4jnsgd1na2vs0mg"},{"bike_id":"953f0f91-35e1-457d-ade3-a9a3adf23708","system_id":"levelo_inurba_marseille","lat":43.22927,"lon":5.353753,"is_reserved":false,"is_disabled":false,"rental_uris":{"android":"levelo://app?vid=953f0f91-35e1-457d-ade3-a9a3adf23708","ios":"levelo://app?vid=953f0f91-35e1-457d-ade3-a9a3adf23708"},"vehicle_type_id":"4","last_reported":1760803861,"current_range_meters":19200,"station_id":"","pricing_plan_id":"cebpf4jnsgd1na2vs0mg"},{"bike_id":"d93aa977-6bff-4309-ab62-b88f4f172157","system_id":"levelo_inurba_marseille","lat":43.25331,"lon":5.42171,"is_reserved":false,"is_disabled":false,"rental_uris":{"android":"levelo://app?vid=d93aa977-6bff-4309-ab62-b88f4f172157","ios":"levelo://app?vid=d93aa977-6bff-4309-ab62-b88f4f172157"},"vehicle_type_id":"4","last_reported":1760803861,"current_range_meters":19200,"station_id":"st_d2m65c5bi1j21697t3ng","pricing_plan_id":"cebpf4jnsgd1na2vs0mg"},{"bike_id":"a7beab8f-4666-468e-8790-ef94ca6c56dc","system_id":"levelo_inurba_marseille","lat":43.268,"lon":5.40267,"is_reserved":false,"is_disabled":false,"rental_uris":{"android":"levelo://app?vid=a7beab8f-4666-468e-8790-ef94ca6c56dc","ios":"levelo://app?vid=a7beab8f-4666-468e-8790-ef94ca6c56dc"},"vehicle_type_id":"4","last_reported":1760803861,"current_range_meters":19200,"station_id":"ce501612rcd8frsf0b60","pricing_plan_id":"cebpf4jnsgd1na2vs0mg"},{"bike_id":"c22e92c8-3fe0-4c56-ab21-210e12f7f0b4","system_id":"levelo_inurba_marseille","lat":43.31948,"lon":5.41538,"is_reserved":false,"is_disabled":false,"rental_uris":{"android":"levelo://app?vid=c22e92c8-3fe0-4c56-ab21-210e12f7f0b4","ios":"levelo://app?vid=c22e92c8-3fe0-4c56-ab21-210e12f7f0b4"},"vehicle_type_id":"4","last_reported":1760803861,"current_range_meters":19200,"station_id":"","pricing_plan_id":"cebpf4jnsgd1na2vs0mg"},{"bike_id":"f1ad9d1d-9c06-41a3-9d14-eb8ccc0cf505","system_id":"levelo_inurba_marseille","lat":43.303749,"lon":5.424991,"is_reserved":false,"is_disabled":false,"rental_uris":{"android":"levelo://app?vid=f1ad9d1d-9c06-41a3-9d14-eb8ccc0cf505","ios":"levelo://app?vid=f1ad9d1d-9c06-41a3-9d14-eb8ccc0cf505"},"vehicle_type_id":"4","last_reported":1760803861,"current_range_meters":19200,"station_id":"ce4bhoh2rcd13ifvqh6g","pricing_plan_id":"cebpf4jnsgd1na2vs0mg"},{"bike_id":"b7e1300e-7850-4991-94c8-afcaa1f08917","system_id":"levelo_inurba_marseille","lat":43.3117,"lon":5.38724,"is_reserved":false,"is_disabled":false,"rental_uris":{"android":"levelo://app?vid=b7e1300e-7850-4991-94c8-afcaa1f08917","ios":"levelo://app?vid=b7e1300e-7850-4991-94c8-afcaa1f08917"},"vehicle_type_id":"4","last_reported":1760803861,"current_range_meters":19200,"station_id":"ce4bgv12rcd13ifvqcp0","pricing_plan_id":"cebpf4jnsgd1na2vs0mg"},{"bike_id":"bb79989d-871e-48b8-a3e7-7a297a28b04c","system_id":"levelo_inurba_marseille","lat":43.281524,"lon":5.351267,"is_reserved":false,"is_disabled":false,"rental_uris":{"android":"levelo://app?vid=bb79989d-871e-48b8-a3e7-7a297a28b04c","ios":"levelo://app?vid=bb79989d-871e-48b8-a3e7-7a297a28b04c"},"vehicle_type_id":"4","last_reported":1760803861,"current_range_meters":19600,"station_id":"","pricing_plan_id":"cebpf4jnsgd1na2vs0mg"},{"bike_id":"0a950a0d-01ce-40b2-be0e-ad7894fd72f2","system_id":"levelo_inurba_marseille","lat":43.32079,"lon":5.36788,"is_reserved":false,"is_disabled":true,"rental_uris":{"android":"levelo://app?vid=0a950a0d-01ce-40b2-be0e-ad7894fd72f2","ios":"levelo://app?vid=0a950a0d-01ce-40b2-be0e-ad7894fd72f2"},"vehicle_type_id":"4","last_reported":1760803861,"current_range_meters":19600,"station_id":"ce4bhrh2rcd13ifvqhug","pricing_plan_id":"cebpf4jnsgd1na2vs0mg"},{"bike_id":"8b9ef284-f57e-43ad-9332-2ba9d0b1b211","system_id":"levelo_inurba_marseille","lat":43.23794,"lon":5.36635,"is_reserved":false,"is_disabled":false,"rental_uris":{"android":"levelo://app?vid=8b9ef284-f57e-43ad-9332-2ba9d0b1b211","ios":"levelo://app?vid=8b9ef284-f57e-43ad-9332-2ba9d0b1b211"},"vehicle_type_id":"4","last_reported":1760803861,"current_range_meters":19600,"station_id":"st_d3nk18o9ro0c73en2l3g","pricing_plan_id":"cebpf4jnsgd1na2vs0mg"},{"bike_id":"0ebb8395-e3d9-4d81-aa01-bf4f3e7d265a","system_id":"levelo_inurba_marseille","lat":43.29973,"lon":5.38492,"is_reserved":false,"is_disabled":false,"rental_uris":{"android":"levelo://app?vid=0ebb8395-e3d9-4d81-aa01-bf4f3e7d265a","ios":"levelo://app?vid=0ebb8395-e3d9-4d81-aa01-bf4f3e7d265a"},