{"last_updated":1776927297,"ttl":60,"version":"2.2","data":{"bikes":[{"bike_id":"ee2ce43a-df7b-4494-b450-e529e78bf4ef","system_id":"levelo_inurba_marseille","lat":43.31205,"lon":5.36825,"is_reserved":false,"is_disabled":false,"rental_uris":{"android":"levelo://app?vid=ee2ce43a-df7b-4494-b450-e529e78bf4ef","ios":"levelo://app?vid=ee2ce43a-df7b-4494-b450-e529e78bf4ef"},"vehicle_type_id":"4","last_reported":1776927298,"current_range_meters":2800,"station_id":"ce4bgl92rcd13ifvqbq0","pricing_plan_id":"cebpf4jnsgd1na2vs0mg"},{"bike_id":"d9be86bb-6c4e-4c05-bc60-e02431cbb916","system_id":"levelo_inurba_marseille","lat":43.31893,"lon":5.36814,"is_reserved":false,"is_disabled":false,"rental_uris":{"android":"levelo://app?vid=d9be86bb-6c4e-4c05-bc60-e02431cbb916","ios":"levelo://app?vid=d9be86bb-6c4e-4c05-bc60-e02431cbb916"},"vehicle_type_id":"4","last_reported":1776927298,"current_range_meters":2800,"station_id":"st_d6o2h0d0559c73evc1b0","pricing_plan_id":"cebpf4jnsgd1na2vs0mg"},{"bike_id":"d204400f-8745-41a5-b8f3-30b0d4c8bfb2","system_id":"levelo_inurba_marseille","lat":43.31897,"lon":5.36806,"is_reserved":false,"is_disabled":false,"rental_uris":{"android":"levelo://app?vid=d204400f-8745-41a5-b8f3-30b0d4c8bfb2","ios":"levelo://app?vid=d204400f-8745-41a5-b8f3-30b0d4c8bfb2"},"vehicle_type_id":"4","last_reported":1776927298,"current_range_meters":2800,"station_id":"st_d6o2h0d0559c73evc1b0","pricing_plan_id":"cebpf4jnsgd1na2vs0mg"},{"bike_id":"defda785-852e-4e05-846c-d893bba2d686","system_id":"levelo_inurba_marseille","lat":43.33635,"lon":5.4095,"is_reserved":false,"is_disabled":false,"rental_uris":{"android":"levelo://app?vid=defda785-852e-4e05-846c-d893bba2d686","ios":"levelo://app?vid=defda785-852e-4e05-846c-d893bba2d686"},"vehicle_type_id":"4","last_reported":1776927298,"current_range_meters":2800,"station_id":"ce4bhqh2rcd13ifvqhmg","pricing_plan_id":"cebpf4jnsgd1na2vs0mg"},{"bike_id":"f5da2035-c33b-4c4f-b290-109944b20891","system_id":"levelo_inurba_marseille","lat":43.30257,"lon":5.36925,"is_reserved":false,"is_disabled":false,"rental_uris":{"android":"levelo://app?vid=f5da2035-c33b-4c4f-b290-109944b20891","ios":"levelo://app?vid=f5da2035-c33b-4c4f-b290-109944b20891"},"vehicle_type_id":"4","last_reported":1776927298,"current_range_meters":2800,"station_id":"ce4bgqh2rcd13ifvqc5g","pricing_plan_id":"cebpf4jnsgd1na2vs0mg"},{"bike_id":"7109d692-775c-445c-ba92-fa20dcb48f6e","system_id":"levelo_inurba_marseille","lat":43.29996,"lon":5.37511,"is_reserved":false,"is_disabled":false,"rental_uris":{"android":"levelo://app?vid=7109d692-775c-445c-ba92-fa20dcb48f6e","ios":"levelo://app?vid=7109d692-775c-445c-ba92-fa20dcb48f6e"},"vehicle_type_id":"4","last_reported":1776927298,"current_range_meters":3200,"station_id":"","pricing_plan_id":"cebpf4jnsgd1na2vs0mg"},{"bike_id":"40ff0f47-5944-4f70-b215-51be5bdd796a","system_id":"levelo_inurba_marseille","lat":43.29041,"lon":5.39939,"is_reserved":false,"is_disabled":false,"rental_uris":{"android":"levelo://app?vid=40ff0f47-5944-4f70-b215-51be5bdd796a","ios":"levelo://app?vid=40ff0f47-5944-4f70-b215-51be5bdd796a"},"vehicle_type_id":"4","last_reported":1776927298,"current_range_meters":3200,"station_id":"ce4bh392rcd13ifvqdm0","pricing_plan_id":"cebpf4jnsgd1na2vs0mg"},{"bike_id":"2d55dcb6-939b-4f02-b41f-c34266fa9e7a","system_id":"levelo_inurba_marseille","lat":43.29219,"lon":5.39307,"is_reserved":false,"is_disabled":true,"rental_uris":{"android":"levelo://app?vid=2d55dcb6-939b-4f02-b41f-c34266fa9e7a","ios":"levelo://app?vid=2d55dcb6-939b-4f02-b41f-c34266fa9e7a"},"vehicle_type_id":"4","last_reported":1776927298,"current_range_meters":3200,"station_id":"ce4bh192rcd13ifvqdd0","pricing_plan_id":"cebpf4jnsgd1na2vs0mg"},{"bike_id":"95cc961d-92b2-4634-98cf-b62603a7b592","system_id":"levelo_inurba_marseille","lat":43.29919,"lon":5.36374,"is_reserved":false,"is_disabled":false,"rental_uris":{"android":"levelo://app?vid=95cc961d-92b2-4634-98cf-b62603a7b592","ios":"levelo://app?vid=95cc961d-92b2-4634-98cf-b62603a7b592"},"vehicle_type_id":"4","last_reported":1776927298,"current_range_meters":3200,"station_id":"ce4bgpp2rcd13ifvqc3g","pricing_plan_id":"cebpf4jnsgd1na2vs0mg"},{"bike_id":"70607026-6186-4a87-8881-b5bc80f348a4","system_id":"levelo_inurba_marseille","lat":43.30743,"lon":5.37115,"is_reserved":false,"is_disabled":false,"rental_uris":{"android":"levelo://app?vid=70607026-6186-4a87-8881-b5bc80f348a4","ios":"levelo://app?vid=70607026-6186-4a87-8881-b5bc80f348a4"},"vehicle_type_id":"4","last_reported":1776927298,"current_range_meters":3200,"station_id":"","pricing_plan_id":"cebpf4jnsgd1na2vs0mg"},{"bike_id":"536fa38a-c1bc-4652-b1fd-ef3ff74def6b","system_id":"levelo_inurba_marseille","lat":43.2883,"lon":5.42547,"is_reserved":false,"is_disabled":false,"rental_uris":{"android":"levelo://app?vid=536fa38a-c1bc-4652-b1fd-ef3ff74def6b","ios":"levelo://app?vid=536fa38a-c1bc-4652-b1fd-ef3ff74def6b"},"vehicle_type_id":"4","last_reported":1776927298,"current_range_meters":3200,"station_id":"st_d3b462108ojc7389ooeg","pricing_plan_id":"cebpf4jnsgd1na2vs0mg"},{"bike_id":"6ee75b1e-3389-452c-805f-052a7231f6b2","system_id":"levelo_inurba_marseille","lat":43.28853,"lon":5.42521,"is_reserved":false,"is_disabled":false,"rental_uris":{"android":"levelo://app?vid=6ee75b1e-3389-452c-805f-052a7231f6b2","ios":"levelo://app?vid=6ee75b1e-3389-452c-805f-052a7231f6b2"},"vehicle_type_id":"4","last_reported":1776927298,"current_range_meters":3600,"station_id":"st_d3b462108ojc7389ooeg","pricing_plan_id":"cebpf4jnsgd1na2vs0mg"},{"bike_id":"ab441cdc-9cd1-4c8e-b69e-34bb46fece34","system_id":"levelo_inurba_marseille","lat":43.29391,"lon":5.363,"is_reserved":false,"is_disabled":false,"rental_uris":{"android":"levelo://app?vid=ab441cdc-9cd1-4c8e-b69e-34bb46fece34","ios":"levelo://app?vid=ab441cdc-9cd1-4c8e-b69e-34bb46fece34"},"vehicle_type_id":"4","last_reported":1776927298,"current_range_meters":3600,"station_id":"","pricing_plan_id":"cebpf4jnsgd1na2vs0mg"},{"bike_id":"4969db26-7f42-49f3-be84-41d1635a028c","system_id":"levelo_inurba_marseille","lat":43.30798,"lon":5.3815,"is_reserved":false,"is_disabled":false,"rental_uris":{"android":"levelo://app?vid=4969db26-7f42-49f3-be84-41d1635a028c","ios":"levelo://app?vid=4969db26-7f42-49f3-be84-41d1635a028c"},"vehicle_type_id":"4","last_reported":1776927298,"current_range_meters":3600,"station_id":"ce4bgt12rcd13ifvqce0","pricing_plan_id":"cebpf4jnsgd1na2vs0mg"},{"bike_id":"a38f4c3e-ffa5-476a-a8c7-cce13afb24a6","system_id":"levelo_inurba_marseille","lat":43.30334,"lon":5.40434,"is_reserved":false,"is_disabled":false,"rental_uris":{"android":"levelo://app?vid=a38f4c3e-ffa5-476a-a8c7-cce13afb24a6","ios":"levelo://app?vid=a38f4c3e-ffa5-476a-a8c7-cce13afb24a6"},"vehicle_type_id":"4","last_reported":1776927298,"current_range_meters":3600,"station_id":"ce4bh012rcd13ifvqd10","pricing_plan_id":"cebpf4jnsgd1na2vs0mg"},{"bike_id":"21880da7-0211-4f59-ad3c-2038f9e18f83","system_id":"levelo_inurba_marseille","lat":43.28403,"lon":5.37498,"is_reserved":false,"is_disabled":false,"rental_uris":{"android":"levelo://app?vid=21880da7-0211-4f59-ad3c-2038f9e18f83","ios":"levelo://app?vid=21880da7-0211-4f59-ad3c-2038f9e18f83"},"vehicle_type_id":"4","last_reported":1776927298,"current_range_meters":3600,"station_id":"ce4bh412rcd13ifvqds0","pricing_plan_id":"cebpf4jnsgd1na2vs0mg"},{"bike_id":"a5932d33-7fe4-4ab5-ab73-558a4a420627","system_id":"levelo_inurba_marseille","lat":43.24453,"lon":5.40062,"is_reserved":false,"is_disabled":false,"rental_uris":{"android":"levelo://app?vid=a5932d33-7fe4-4ab5-ab73-558a4a420627","ios":"levelo://app?vid=a5932d33-7fe4-4ab5-ab73-558a4a420627"},"vehicle_type_id":"4","last_reported":1776927298,"current_range_meters":3600,"station_id":"","pricing_plan_id":"cebpf4jnsgd1na2vs0mg"},{"bike_id":"c57148c5-f0e8-4cbc-a5e0-2392a594e6a8","system_id":"levelo_inurba_marseille","lat":43.25938,"lon":5.40901,"is_reserved":false,"is_disabled":false,"rental_uris":{"android":"levelo://app?vid=c57148c5-f0e8-4cbc-a5e0-2392a594e6a8","ios":"levelo://app?vid=c57148c5-f0e8-4cbc-a5e0-2392a594e6a8"},"vehicle_type_id":"4","last_reported":1776927298,"current_range_meters":3600,"station_id":"ce4bhm92rcd13ifvqglg","pricing_plan_id":"cebpf4jnsgd1na2vs0mg"},{"bike_id":"5b333185-778b-45e4-874d-0e2e87eb3471","system_id":"levelo_inurba_marseille","lat":43.30934,"lon":5.4016,"is_reserved":false,"is_disabled":false,"rental_uris":{"android":"levelo://app?vid=5b333185-778b-45e4-874d-0e2e87eb3471","ios":"levelo://app?vid=5b333185-778b-45e4-874d-0e2e87eb3471"},"vehicle_type_id":"4","last_reported":1776927298,"current_range_meters":3600,"station_id":"ce4bgvp2rcd13ifvqct0","pricing_plan_id":"cebpf4jnsgd1na2vs0mg"},{"bike_id":"73d436be-8bb5-400c-b5b8-edfd7e8d5913","system_id":"levelo_inurba_marseille","lat":43.337444,"lon":5.374475,"is_reserved":false,"is_disabled":false,"rental_uris":{"android":"levelo://app?vid=73d436be-8bb5-400c-b5b8-edfd7e8d5913","ios":"levelo://app?vid=73d436be-8bb5-400c-b5b8-edfd7e8d5913"},"vehicle_type_id":"4","last_reported":1776927298,"current_range_meters":4000,"station_id":"ce4bhgp2rcd13ifvqfc0","pricing_plan_id":"cebpf4jnsgd1na2vs0mg"},{"bike_id":"04257b95-4499-46e1-a4e3-88ab526291ba","system_id":"levelo_inurba_marseille","lat":43.28492,"lon":5.4838,"is_reserved":false,"is_disabled":false,"rental_uris":{"android":"levelo://app?vid=04257b95-4499-46e1-a4e3-88ab526291ba","ios":"levelo://app?vid=04257b95-4499-46e1-a4e3-88ab526291ba"},"vehicle_type_id":"4","last_reported":1776927298,"current_range_meters":4000,"station_id":"","pricing_plan_id":"cebpf4jnsgd1na2vs0mg"},{"bike_id":"7b965803-1aff-4f92-af64-1be2fe1260a9","system_id":"levelo_inurba_marseille","lat":43.2734,"lon":5.39088,"is_reserved":false,"is_disabled":false,"rental_uris":{"android":"levelo://app?vid=7b965803-1aff-4f92-af64-1be2fe1260a9","ios":"levelo://app?vid=7b965803-1aff-4f92-af64-1be2fe1260a9"},"vehicle_type_id":"4","last_reported":1776927298,"current_range_meters":4000,"station_id":"ce4bhgp2rcd13ifvqfe0","pricing_plan_id":"cebpf4jnsgd1na2vs0mg"},{"bike_id":"64deb89c-9a75-49bb-9fa1-f5db277c9ffb","system_id":"levelo_inurba_marseille","lat":43.29947,"lon":5.37159,"is_reserved":false,"is_disabled":false,"rental_uris":{"android":"levelo://app?vid=64deb89c-9a75-49bb-9fa1-f5db277c9ffb","ios":"levelo://app?vid=64deb89c-9a75-49bb-9fa1-f5db277c9ffb"},"vehicle_type_id":"4","last_reported":1776927298,"current_range_meters":4000,"station_id":"ce4bgr92rcd13ifvqc7g","pricing_plan_id":"cebpf4jnsgd1na2vs0mg"},{"bike_id":"ff422c07-4472-471c-ab0d-dcb023acae97","system_id":"levelo_inurba_marseille","lat":43.30599,"lon":5.37148,"is_reserved":false,"is_disabled":false,"rental_uris":{"android":"levelo://app?vid=ff422c07-4472-471c-ab0d-dcb023acae97","ios":"levelo://app?vid=ff422c07-4472-471c-ab0d-dcb023acae97"},"vehicle_type_id":"4","last_reported":1776927298,"current_range_meters":4000,"station_id":"","pricing_plan_id":"cebpf4jnsgd1na2vs0mg"},{"bike_id":"8e5ec7eb-261b-478f-95b0-b39d2da5a163","system_id":"levelo_inurba_marseille","lat":43.30301,"lon":5.39205,"is_reserved":false,"is_disabled":false,"rental_uris":{"android":"levelo://app?vid=8e5ec7eb-261b-478f-95b0-b39d2da5a163","ios":"levelo://app?vid=8e5ec7eb-261b-478f-95b0-b39d2da5a163"},"vehicle_type_id":"4","last_reported":1776927298,"current_range_meters":4000,"station_id":"ce4bgkh2rcd13ifvqbk0","pricing_plan_id":"cebpf4jnsgd1na2vs0mg"},{"bike_id":"7185d8ec-9dc6-41c8-947f-9d3b0aaeb86b","system_id":"levelo_inurba_marseille","lat":43.23899,"lon":5.37475,"is_reserved":false,"is_disabled":true,"rental_uris":{"android":"levelo://app?vid=7185d8ec-9dc6-41c8-947f-9d3b0aaeb86b","ios":"levelo://app?vid=7185d8ec-9dc6-41c8-947f-9d3b0aaeb86b"},"vehicle_type_id":"4","last_reported":1776927298,"current_range_meters":4000,"station_id":"st_d6sm7csbq4hs73f8fpjg","pricing_plan_id":"cebpf4jnsgd1na2vs0mg"},{"bike_id":"53ac9b94-d2b8-401a-8133-9009372f217e","system_id":"levelo_inurba_marseille","lat":43.28481,"lon":5.48391,"is_reserved":false,"is_disabled":false,"rental_uris":{"android":"levelo://app?vid=53ac9b94-d2b8-401a-8133-9009372f217e","ios":"levelo://app?vid=53ac9b94-d2b8-401a-8133-9009372f217e"},"vehicle_type_id":"4","last_reported":1776927298,"current_range_meters":4000,"station_id":"","pricing_plan_id":"cebpf4jnsgd1na2vs0mg"},{"bike_id":"fec246f2-cef1-4b14-bb77-1e94e6cc1ec8","system_id":"levelo_inurba_marseille","lat":43.31387,"lon":5.36707,"is_reserved":false,"is_disabled":false,"rental_uris":{"android":"levelo://app?vid=fec246f2-cef1-4b14-bb77-1e94e6cc1ec8","ios":"levelo://app?vid=fec246f2-cef1-4b14-bb77-1e94e6cc1ec8"},"vehicle_type_id":"4","last_reported":1776927298,"current_range_meters":4000,"station_id":"ce4bgr92rcd13ifvqc6g","pricing_plan_id":"cebpf4jnsgd1na2vs0mg"},{"bike_id":"94dd750c-b803-4852-8849-ece161b19e86","system_id":"levelo_inurba_marseille","lat":43.28471,"lon":5.48427,"is_reserved":false,"is_disabled":false,"rental_uris":{"android":"levelo://app?vid=94dd750c-b803-4852-8849-ece161b19e86","ios":"levelo://app?vid=94dd750c-b803-4852-8849-ece161b19e86"},"vehicle_type_id":"4","last_reported":1776927298,"current_range_meters":4000,"station_id":"st_d3svhcjqgbts73a3dn0g","pricing_plan_id":"cebpf4jnsgd1na2vs0mg"},{"bike_id":"1c4db81e-e54e-450a-b910-a202dc639503","system_id":"levelo_inurba_marseille","lat":43.28475,"lon":5.48403,"is_reserved":false,"is_disabled":false,"rental_uris":{"android":"levelo://app?vid=1c4db81e-e54e-450a-b910-a202dc639503","ios":"levelo://app?vid=1c4db81e-e54e-450a-b910-a202dc639503"},"vehicle_type_id":"4","last_reported":1776927298,"current_range_meters":4400,"station_id":"","pricing_plan_id":"cebpf4jnsgd1na2vs0mg"},{"bike_id":"50918bbe-8b4a-4832-b89d-ffef40c798ba","system_id":"levelo_inurba_marseille","lat":43.32377,"lon":5.36737,"is_reserved":false,"is_disabled":false,"rental_uris":{"android":"levelo://app?vid=50918bbe-8b4a-4832-b89d-ffef40c798ba","ios":"levelo://app?vid=50918bbe-8b4a-4832-b89d-ffef40c798ba"},"vehicle_type_id":"4","last_reported":1776927298,"current_range_meters":4400,"station_id":"ce4bhsh2rcd13ifvqi2g","pricing_plan_id":"cebpf4jnsgd1na2vs0mg"},{"bike_id":"a94d236d-eba8-4733-81ef-6d7a05120d94","system_id":"levelo_inurba_marseille","lat":43.24866,"lon":5.39401,"is_reserved":false,"is_disabled":false,"rental_uris":{"android":"levelo://app?vid=a94d236d-eba8-4733-81ef-6d7a05120d94","ios":"levelo://app?vid=a94d236d-eba8-4733-81ef-6d7a05120d94"},"vehicle_type_id":"4","last_reported":1776927298,"current_range_meters":4400,"station_id":"","pricing_plan_id":"cebpf4jnsgd1na2vs0mg"},{"bike_id":"97640678-22eb-456e-8a6b-8940edbd10ca","system_id":"levelo_inurba_marseille","lat":43.2392,"lon":5.41483,"is_reserved":false,"is_disabled":false,"rental_uris":{"android":"levelo://app?vid=97640678-22eb-456e-8a6b-8940edbd10ca","ios":"levelo://app?vid=97640678-22eb-456e-8a6b-8940edbd10ca"},"vehicle_type_id":"4","last_reported":1776927298,"current_range_meters":4400,"station_id":"","pricing_plan_id":"cebpf4jnsgd1na2vs0mg"},{"bike_id":"b8989963-1f04-4726-b80b-c4599a379545","system_id":"levelo_inurba_marseille","lat":43.2732,"lon":5.39062,"is_reserved":false,"is_disabled":false,"rental_uris":{"android":"levelo://app?vid=b8989963-1f04-4726-b80b-c4599a379545","ios":"levelo://app?vid=b8989963-1f04-4726-b80b-c4599a379545"},"vehicle_type_id":"4","last_reported":1776927298,"current_range_meters":4400,"station_id":"ce4bhgp2rcd13ifvqfe0","pricing_plan_id":"cebpf4jnsgd1na2vs0mg"},{"bike_id":"dc1f0d9e-bc53-49c7-a6fd-c8bc3f0d6d3e","system_id":"levelo_inurba_marseille","lat":43.2865,"lon":5.39438,"is_reserved":false,"is_disabled":false,"rental_uris":{"android":"levelo://app?vid=dc1f0d9e-bc53-49c7-a6fd-c8bc3f0d6d3e","ios":"levelo://app?vid=dc1f0d9e-bc53-49c7-a6fd-c8bc3f0d6d3e"},"vehicle_type_id":"4","last_reported":1776927298,"current_range_meters":4400,"station_id":"","pricing_plan_id":"cebpf4jnsgd1na2vs0mg"},{"bike_id":"ce2ca8dc-1450-460c-a671-43388b052d50","system_id":"levelo_inurba_marseille","lat":43.27043,"lon":5.38315,"is_reserved":false,"is_disabled":false,"rental_uris":{"android":"levelo://app?vid=ce2ca8dc-1450-460c-a671-43388b052d50","ios":"levelo://app?vid=ce2ca8dc-1450-460c-a671-43388b052d50"},"vehicle_type_id":"4","last_reported":1776927298,"current_range_meters":4400,"station_id":"st_d3n2fo6cfp8s73cte1j0","pricing_plan_id":"cebpf4jnsgd1na2vs0mg"},{"bike_id":"cfae3272-c0d2-4842-a120-7754aecffe1d","system_id":"levelo_inurba_marseille","lat":43.28937,"lon":5.38379,"is_reserved":false,"is_disabled":false,"rental_uris":{"android":"levelo://app?vid=cfae3272-c0d2-4842-a120-7754aecffe1d","ios":"levelo://app?vid=cfae3272-c0d2-4842-a120-7754aecffe1d"},"vehicle_type_id":"4","last_reported":1776927298,"current_range_meters":4400,"station_id":"ce4bh612rcd13ifvqe6g","pricing_plan_id":"cebpf4jnsgd1na2vs0mg"},{"bike_id":"2ad338ab-31f0-4614-b89c-3a1975c42567","system_id":"levelo_inurba_marseille","lat":43.25824,"lon":5.39436,"is_reserved":false,"is_disabled":false,"rental_uris":{"android":"levelo://app?vid=2ad338ab-31f0-4614-b89c-3a1975c42567","ios":"levelo://app?vid=2ad338ab-31f0-4614-b89c-3a1975c42567"},"vehicle_type_id":"4","last_reported":1776927298,"current_range_meters":4400,"station_id":"ce4bhip2rcd13ifvqft0","pricing_plan_id":"cebpf4jnsgd1na2vs0mg"},{"bike_id":"8c33dcad-8792-4b7f-9ebc-77429e11d6b0","system_id":"levelo_inurba_marseille","lat":43.32471,"lon":5.36575,"is_reserved":false,"is_disabled":false,"rental_uris":{"android":"levelo://app?vid=8c33dcad-8792-4b7f-9ebc-77429e11d6b0","ios":"levelo://app?vid=8c33dcad-8792-4b7f-9ebc-77429e11d6b0"},"vehicle_type_id":"4","last_reported":1776927298,"current_range_meters":4800,"station_id":"ce4bhs12rcd13ifvqhvg","pricing_plan_id":"cebpf4jnsgd1na2vs0mg"},{"bike_id":"b34ad18b-f9da-43b0-a436-238bbba0bcf5","system_id":"levelo_inurba_marseille","lat":43.25938,"lon":5.409,"is_reserved":false,"is_disabled":false,"rental_uris":{"android":"levelo://app?vid=b34ad18b-f9da-43b0-a436-238bbba0bcf5","ios":"levelo://app?vid=b34ad18b-f9da-43b0-a436-238bbba0bcf5"},"vehicle_type_id":"4","last_reported":1776927298,"current_range_meters":4800,"station_id":"ce4bhm92rcd13ifvqglg","pricing_plan_id":"cebpf4jnsgd1na2vs0mg"},{"bike_id":"fc83597b-c92a-4d6b-9ec3-85cccb5b70a7","system_id":"levelo_inurba_marseille","lat":43.31976,"lon":5.36807,"is_reserved":false,"is_disabled":false,"rental_uris":{"android":"levelo://app?vid=fc83597b-c92a-4d6b-9ec3-85cccb5b70a7","ios":"levelo://app?vid=fc83597b-c92a-4d6b-9ec3-85cccb5b70a7"},"vehicle_type_id":"4","last_reported":1776927298,"current_range_meters":4800,"station_id":"","pricing_plan_id":"cebpf4jnsgd1na2vs0mg"},{"bike_id":"46fcd30c-c87b-4d27-8e72-a965b5215561","system_id":"levelo_inurba_marseille","lat":43.30382,"lon":5.42488,"is_reserved":false,"is_disabled":false,"rental_uris":{"android":"levelo://app?vid=46fcd30c-c87b-4d27-8e72-a965b5215561","ios":"levelo://app?vid=46fcd30c-c87b-4d27-8e72-a965b5215561"},"vehicle_type_id":"4","last_reported":1776927298,"current_range_meters":4800,"station_id":"ce4bhoh2rcd13ifvqh6g","pricing_plan_id":"cebpf4jnsgd1na2vs0mg"},{"bike_id":"40740253-1dc1-46ee-9c5e-f199508e35bc","system_id":"levelo_inurba_marseille","lat":43.30526,"lon":5.36689,"is_reserved":false,"is_disabled":false,"rental_uris":{"android":"levelo://app?vid=40740253-1dc1-46ee-9c5e-f199508e35bc","ios":"levelo://app?vid=40740253-1dc1-46ee-9c5e-f199508e35bc"},"vehicle_type_id":"4","last_reported":1776927298,"current_range_meters":4800,"station_id":"ce4bgrp2rcd13ifvqc9g","pricing_plan_id":"cebpf4jnsgd1na2vs0mg"},{"bike_id":"b0292b57-bc6e-4d3d-855f-2c85d8c85123","system_id":"levelo_inurba_marseille","lat":43.29321,"lon":5.36256,"is_reserved":false,"is_disabled":false,"rental_uris":{"android":"levelo://app?vid=b0292b57-bc6e-4d3d-855f-2c85d8c85123","ios":"levelo://app?vid=b0292b57-bc6e-4d3d-855f-2c85d8c85123"},"vehicle_type_id":"4","last_reported":1776927298,"current_range_meters":4800,"station_id":"","pricing_plan_id":"cebpf4jnsgd1na2vs0mg"},{"bike_id":"6a5bbe70-48a0-4392-9136-9a0675f9bf10","system_id":"levelo_inurba_marseille","lat":43.26551,"lon":5.4034,"is_reserved":false,"is_disabled":true,"rental_uris":{"android":"levelo://app?vid=6a5bbe70-48a0-4392-9136-9a0675f9bf10","ios":"levelo://app?vid=6a5bbe70-48a0-4392-9136-9a0675f9bf10"},"vehicle_type_id":"4","last_reported":1776927298,"current_range_meters":4800,"station_id":"ce4bhmp2rcd13ifvqgng","pricing_plan_id":"cebpf4jnsgd1na2vs0mg"},{"bike_id":"6b23908a-27fc-400a-b1b6-9daa8d6ab014","system_id":"levelo_inurba_marseille","lat":43.33707,"lon":5.39819,"is_reserved":false,"is_disabled":false,"rental_uris":{"android":"levelo://app?vid=6b23908a-27fc-400a-b1b6-9daa8d6ab014","ios":"levelo://app?vid=6b23908a-27fc-400a-b1b6-9daa8d6ab014"},"vehicle_type_id":"4","last_reported":1776927298,"current_range_meters":4800,"station_id":"","pricing_plan_id":"cebpf4jnsgd1na2vs0mg"},{"bike_id":"b1f79930-b565-4eb8-9832-4ca11b4f86d1","system_id":"levelo_inurba_marseille","lat":43.30958,"lon":5.39031,"is_reserved":false,"is_disabled":false,"rental_uris":{"android":"levelo://app?vid=b1f79930-b565-4eb8-9832-4ca11b4f86d1","ios":"levelo://app?vid=b1f79930-b565-4eb8-9832-4ca11b4f86d1"},"vehicle_type_id":"4","last_reported":1776927298,"current_range_meters":5600,"station_id":"ce4bgup2rcd13ifvqco0","pricing_plan_id":"cebpf4jnsgd1na2vs0mg"},{"bike_id":"faf9535a-bce1-4796-967b-116ea7429902","system_id":"levelo_inurba_marseille","lat":43.29828,"lon":5.39356,"is_reserved":false,"is_disabled":false,"rental_uris":{"android":"levelo://app?vid=faf9535a-bce1-4796-967b-116ea7429902","ios":"levelo://app?vid=faf9535a-bce1-4796-967b-116ea7429902"},"vehicle_type_id":"4","last_reported":1776927298,"current_range_meters":5600,"station_id":"chh1huq6cuj3fo74tm60","pricing_plan_id":"cebpf4jnsgd1na2vs0mg"},{"bike_id":"ab61d9db-4d94-405c-9c98-c9a639014e6b","system_id":"levelo_inurba_marseille","lat":43.27614,"lon":5.36108,"is_reserved":false,"is_disabled":false,"rental_uris":{"android":"levelo://app?vid=ab61d9db-4d94-405c-9c98-c9a639014e6b","ios":"levelo://app?vid=ab61d9db-4d94-405c-9c98-c9a639014e6b"},"vehicle_type_id":"4","last_reported":1776927298,"current_range_meters":5600,"station_id":"ce4bgj92rcd13ifvqbe0","pricing_plan_id":"cebpf4jnsgd1na2vs0mg"},{"bike_id":"bd3c6b3e-d299-464a-9a96-a94e112dc80d","system_id":"levelo_inurba_marseille","lat":43.29848,"lon":5.36272,"is_reserved":false,"is_disabled":false,"rental_uris":{"android":"levelo://app?vid=bd3c6b3e-d299-464a-9a96-a94e112dc80d","ios":"levelo://app?vid=bd3c6b3e-d299-464a-9a96-a94e112dc80d"},"vehicle_type_id":"4","last_reported":1776927298,"current_range_meters":5600,"station_id":"ce4bgpp2rcd13ifvqc3g","pricing_plan_id":"cebpf4jnsgd1na2vs0mg"},{"bike_id":"8cf4aaef-20b2-4c4b-8fd6-8496f3f6c9d2","system_id":"levelo_inurba_marseille","lat":43.23977,"lon":5.3663,"is_reserved":false,"is_disabled":true,"rental_uris":{"android":"levelo://app?vid=8cf4aaef-20b2-4c4b-8fd6-8496f3f6c9d2","ios":"levelo://app?vid=8cf4aaef-20b2-4c4b-8fd6-8496f3f6c9d2"},"vehicle_type_id":"4","last_reported":1776927298,"current_range_meters":5600,"station_id":"ce4bhi12rcd13ifvqfp0","pricing_plan_id":"cebpf4jnsgd1na2vs0mg"},{"bike_id":"cfcc8dcf-6816-46a1-945d-fdf5ccf50752","system_id":"levelo_inurba_marseille","lat":43.30927,"lon":5.41183,"is_reserved":false,"is_disabled":false,"rental_uris":{"android":"levelo://app?vid=cfcc8dcf-6816-46a1-945d-fdf5ccf50752","ios":"levelo://app?vid=cfcc8dcf-6816-46a1-945d-fdf5ccf50752"},"vehicle_type_id":"4","last_reported":1776927298,"current_range_meters":5600,"station_id":"","pricing_plan_id":"cebpf4jnsgd1na2vs0mg"},{"bike_id":"706684ba-8b68-4a9d-afc2-2624b92f67e1","system_id":"levelo_inurba_marseille","lat":43.29059,"lon":5.38644,"is_reserved":false,"is_disabled":false,"rental_uris":{"android":"levelo://app?vid=706684ba-8b68-4a9d-afc2-2624b92f67e1","ios":"levelo://app?vid=706684ba-8b68-4a9d-afc2-2624b92f67e1"},"vehicle_type_id":"4","last_reported":1776927298,"current_range_meters":5600,"station_id":"ce4bh4p2rcd13ifvqe0g","pricing_plan_id":"cebpf4jnsgd1na2vs0mg"},{"bike_id":"0d8738c8-efd5-4f83-bedf-81eb9a1d6096","system_id":"levelo_inurba_marseille","lat":43.33166,"lon":5.36172,"is_reserved":false,"is_disabled":false,"rental_uris":{"android":"levelo://app?vid=0d8738c8-efd5-4f83-bedf-81eb9a1d6096","ios":"levelo://app?vid=0d8738c8-efd5-4f83-bedf-81eb9a1d6096"},"vehicle_type_id":"4","last_reported":1776927298,"current_range_meters":5600,"station_id":"","pricing_plan_id":"cebpf4jnsgd1na2vs0mg"},{"bike_id":"059b4ad8-665d-46df-9a3f-e9b9a20a1c99","system_id":"levelo_inurba_marseille","lat":43.33532,"lon":5.37469,"is_reserved":false,"is_disabled":false,"rental_uris":{"android":"levelo://app?vid=059b4ad8-665d-46df-9a3f-e9b9a20a1c99","ios":"levelo://app?vid=059b4ad8-665d-46df-9a3f-e9b9a20a1c99"},"vehicle_type_id":"4","last_reported":1776927298,"current_range_meters":5600,"station_id":"st_d46tts09ee8s73dlu43g","pricing_plan_id":"cebpf4jnsgd1na2vs0mg"},{"bike_id":"7890c4dc-8244-4ddd-88cb-746f0f6e39f6","system_id":"levelo_inurba_marseille","lat":43.24815,"lon":5.3745,"is_reserved":false,"is_disabled":true,"rental_uris":{"android":"levelo://app?vid=7890c4dc-8244-4ddd-88cb-746f0f6e39f6","ios":"levelo://app?vid=7890c4dc-8244-4ddd-88cb-746f0f6e39f6"},"vehicle_type_id":"4","last_reported":1776927298,"current_range_meters":6000,"station_id":"ce4bhgh2rcd13ifvqfb0","pricing_plan_id":"cebpf4jnsgd1na2vs0mg"},{"bike_id":"fd090187-b3cd-49e0-82c6-b3817cf3be1b","system_id":"levelo_inurba_marseille","lat":43.29862,"lon":5.38571,"is_reserved":false,"is_disabled":false,"rental_uris":{"android":"levelo://app?vid=fd090187-b3cd-49e0-82c6-b3817cf3be1b","ios":"levelo://app?vid=fd090187-b3cd-49e0-82c6-b3817cf3be1b"},"vehicle_type_id":"4","last_reported":1776927298,"current_range_meters":6000,"station_id":"","pricing_plan_id":"cebpf4jnsgd1na2vs0mg"},{"bike_id":"cfe7238a-0ca3-41a7-b1d5-287191ada9d4","system_id":"levelo_inurba_marseille","lat":43.29274,"lon":5.36847,"is_reserved":false,"is_disabled":false,"rental_uris":{"android":"levelo://app?vid=cfe7238a-0ca3-41a7-b1d5-287191ada9d4","ios":"levelo://app?vid=cfe7238a-0ca3-41a7-b1d5-287191ada9d4"},"vehicle_type_id":"4","last_reported":1776927298,"current_range_meters":6000,"station_id":"ce4bhbp2rcd13ifvqesg","pricing_plan_id":"cebpf4jnsgd1na2vs0mg"},{"bike_id":"f8d46f57-68ae-42a5-9479-ae67d8834276","system_id":"levelo_inurba_marseille","lat":43.30079,"lon":5.37099,"is_reserved":false,"is_disabled":false,"rental_uris":{"android":"levelo://app?vid=f8d46f57-68ae-42a5-9479-ae67d8834276","ios":"levelo://app?vid=f8d46f57-68ae-42a5-9479-ae67d8834276"},"vehicle_type_id":"4","last_reported":1776927298,"current_range_meters":6000,"station_id":"","pricing_plan_id":"cebpf4jnsgd1na2vs0mg"},{"bike_id":"78f71085-764d-4602-8867-e4e5b3330c46","system_id":"levelo_inurba_marseille","lat":43.27436,"lon":5.39417,"is_reserved":false,"is_disabled":false,"rental_uris":{"android":"levelo://app?vid=78f71085-764d-4602-8867-e4e5b3330c46","ios":"levelo://app?vid=78f71085-764d-4602-8867-e4e5b3330c46"},"vehicle_type_id":"4","last_reported":1776927298,"current_range_meters":6000,"station_id":"ce4bhdp2rcd13ifvqf20","pricing_plan_id":"cebpf4jnsgd1na2vs0mg"},{"bike_id":"95e1dbaa-3cbf-4254-aa41-b90b670a8890","system_id":"levelo_inurba_marseille","lat":43.29046,"lon":5.39999,"is_reserved":false,"is_disabled":false,"rental_uris":{"android":"levelo://app?vid=95e1dbaa-3cbf-4254-aa41-b90b670a8890","ios":"levelo://app?vid=95e1dbaa-3cbf-4254-aa41-b90b670a8890"},"vehicle_type_id":"4","last_reported":1776927298,"current_range_meters":6000,"station_id":"ce4bh392rcd13ifvqdm0","pricing_plan_id":"cebpf4jnsgd1na2vs0mg"},{"bike_id":"08f8f201-1512-4089-8d4e-a27faf29817c","system_id":"levelo_inurba_marseille","lat":43.29643,"lon":5.40606,"is_reserved":false,"is_disabled":true,"rental_uris":{"android":"levelo://app?vid=08f8f201-1512-4089-8d4e-a27faf29817c","ios":"levelo://app?vid=08f8f201-1512-4089-8d4e-a27faf29817c"},"vehicle_type_id":"4","last_reported":1776927298,"current_range_meters":6400,"station_id":"ce4bh0h2rcd13ifvqd60","pricing_plan_id":"cebpf4jnsgd1na2vs0mg"},{"bike_id":"09012acd-7e2a-4e46-b00e-3df38d87fafc","system_id":"levelo_inurba_marseille","lat":43.24872,"lon":5.40637,"is_reserved":false,"is_disabled":false,"rental_uris":{"android":"levelo://app?vid=09012acd-7e2a-4e46-b00e-3df38d87fafc","ios":"levelo://app?vid=09012acd-7e2a-4e46-b00e-3df38d87fafc"},"vehicle_type_id":"4","last_reported":1776927298,"current_range_meters":6400,"station_id":"","pricing_plan_id":"cebpf4jnsgd1na2vs0mg"},{"bike_id":"d5c77ed1-6ea1-4998-aea0-e9a1dcb59dd3","system_id":"levelo_inurba_marseille","lat":43.33017,"lon":5.37692,"is_reserved":false,"is_disabled":false,"rental_uris":{"android":"levelo://app?vid=d5c77ed1-6ea1-4998-aea0-e9a1dcb59dd3","ios":"levelo://app?vid=d5c77ed1-6ea1-4998-aea0-e9a1dcb59dd3"},"vehicle_type_id":"4","last_reported":1776927298,"current_range_meters":6400,"station_id":"","pricing_plan_id":"cebpf4jnsgd1na2vs0mg"},{"bike_id":"16f7fe35-694a-4eb9-9cc6-4679694d07e2","system_id":"levelo_inurba_marseille","lat":43.31246,"lon":5.37905,"is_reserved":false,"is_disabled":false,"rental_uris":{"android":"levelo://app?vid=16f7fe35-694a-4eb9-9cc6-4679694d07e2","ios":"levelo://app?vid=16f7fe35-694a-4eb9-9cc6-4679694d07e2"},"vehicle_type_id":"4","last_reported":1776927298,"current_range_meters":6400,"station_id":"","pricing_plan_id":"cebpf4jnsgd1na2vs0mg"},{"bike_id":"d76f2d60-2dee-4090-abe8-08a753bbddab","system_id":"levelo_inurba_marseille","lat":43.30159,"lon":5.38088,"is_reserved":false,"is_disabled":false,"rental_uris":{"android":"levelo://app?vid=d76f2d60-2dee-4090-abe8-08a753bbddab","ios":"levelo://app?vid=d76f2d60-2dee-4090-abe8-08a753bbddab"},"vehicle_type_id":"4","last_reported":1776927298,"current_range_meters":6400,"station_id":"ce4bgjp2rcd13ifvqbh0","pricing_plan_id":"cebpf4jnsgd1na2vs0mg"},{"bike_id":"e61bc510-c262-4934-8f35-de99fc50a31e","system_id":"levelo_inurba_marseille","lat":43.30156,"lon":5.39905,"is_reserved":false,"is_disabled":false,"rental_uris":{"android":"levelo://app?vid=e61bc510-c262-4934-8f35-de99fc50a31e","ios":"levelo://app?vid=e61bc510-c262-4934-8f35-de99fc50a31e"},"vehicle_type_id":"4","last_reported":1776927298,"current_range_meters":6400,"station_id":"","pricing_plan_id":"cebpf4jnsgd1na2vs0mg"},{"bike_id":"b74bbeae-370a-4ca8-9f60-acdb9feac79b","system_id":"levelo_inurba_marseille","lat":43.28974,"lon":5.37841,"is_reserved":false,"is_disabled":false,"rental_uris":{"android":"levelo://app?vid=b74bbeae-370a-4ca8-9f60-acdb9feac79b","ios":"levelo://app?vid=b74bbeae-370a-4ca8-9f60-acdb9feac79b"},"vehicle_type_id":"4","last_reported":1776927298,"current_range_meters":6400,"station_id":"ce4bh9p2rcd13ifvqed0","pricing_plan_id":"cebpf4jnsgd1na2vs0mg"},{"bike_id":"aa3d5a99-64bb-4996-8662-bfd3c15dc0fe","system_id":"levelo_inurba_marseille","lat":43.30105,"lon":5.39855,"is_reserved":false,"is_disabled":false,"rental_uris":{"android":"levelo://app?vid=aa3d5a99-64bb-4996-8662-bfd3c15dc0fe","ios":"levelo://app?vid=aa3d5a99-64bb-4996-8662-bfd3c15dc0fe"},"vehicle_type_id":"4","last_reported":1776927298,"current_range_meters":6400,"station_id":"ce4bh0h2rcd13ifvqd40","pricing_plan_id":"cebpf4jnsgd1na2vs0mg"},{"bike_id":"1b9f3033-b460-4e1f-a438-9ab71168e18f","system_id":"levelo_inurba_marseille","lat":43.28922,"lon":5.36642,"is_reserved":false,"is_disabled":false,"rental_uris":{"android":"levelo://app?vid=1b9f3033-b460-4e1f-a438-9ab71168e18f","ios":"levelo://app?vid=1b9f3033-b460-4e1f-a438-9ab71168e18f"},"vehicle_type_id":"4","last_reported":1776927298,"current_range_meters":6800,"station_id":"ce4bhap2rcd13ifvqek0","pricing_plan_id":"cebpf4jnsgd1na2vs0mg"},{"bike_id":"493c5cd0-8c21-4c6e-b6e2-4c97a78bd4db","system_id":"levelo_inurba_marseille","lat":43.28451,"lon":5.35893,"is_reserved":false,"is_disabled":true,"rental_uris":{"android":"levelo://app?vid=493c5cd0-8c21-4c6e-b6e2-4c97a78bd4db","ios":"levelo://app?vid=493c5cd0-8c21-4c6e-b6e2-4c97a78bd4db"},"vehicle_type_id":"4","last_reported":1776927298,"current_range_meters":6800,"station_id":"ce4bhah2rcd13ifvqei0","pricing_plan_id":"cebpf4jnsgd1na2vs0mg"},{"bike_id":"4546b1c6-bacb-4ed7-82ca-09a35652258f","system_id":"levelo_inurba_marseille","lat":43.28313,"lon":5.42655,"is_reserved":false,"is_disabled":false,"rental_uris":{"android":"levelo://app?vid=4546b1c6-bacb-4ed7-82ca-09a35652258f","ios":"levelo://app?vid=4546b1c6-bacb-4ed7-82ca-09a35652258f"},"vehicle_type_id":"4","last_reported":1776927298,"current_range_meters":6800,"station_id":"","pricing_plan_id":"cebpf4jnsgd1na2vs0mg"},{"bike_id":"27333076-abb5-4a9b-ac59-89b1742839cf","system_id":"levelo_inurba_marseille","lat":43.28726,"lon":5.3796,"is_reserved":false,"is_disabled":true,"rental_uris":{"android":"levelo://app?vid=27333076-abb5-4a9b-ac59-89b1742839cf","ios":"levelo://app?vid=27333076-abb5-4a9b-ac59-89b1742839cf"},"vehicle_type_id":"4","last_reported":1776927298,"current_range_meters":6800,"station_id":"ce4bh9p2rcd13ifvqec0","pricing_plan_id":"cebpf4jnsgd1na2vs0mg"},{"bike_id":"6b9e1e7f-0d7f-4ba6-8f84-dcedfe38e571","system_id":"levelo_inurba_marseille","lat":43.30141,"lon":5.38073,"is_reserved":false,"is_disabled":false,"rental_uris":{"android":"levelo://app?vid=6b9e1e7f-0d7f-4ba6-8f84-dcedfe38e571","ios":"levelo://app?vid=6b9e1e7f-0d7f-4ba6-8f84-dcedfe38e571"},"vehicle_type_id":"4","last_reported":1776927298,"current_range_meters":6800,"station_id":"ce4bgjp2rcd13ifvqbh0","pricing_plan_id":"cebpf4jnsgd1na2vs0mg"},{"bike_id":"7504ca5b-0bb8-4f84-8d7c-3258dacd117c","system_id":"levelo_inurba_marseille","lat":43.2594,"lon":5.40911,"is_reserved":false,"is_disabled":false,"rental_uris":{"android":"levelo://app?vid=7504ca5b-0bb8-4f84-8d7c-3258dacd117c","ios":"levelo://app?vid=7504ca5b-0bb8-4f84-8d7c-3258dacd117c"},"vehicle_type_id":"4","last_reported":1776927298,"current_range_meters":6800,"station_id":"ce4bhm92rcd13ifvqglg","pricing_plan_id":"cebpf4jnsgd1na2vs0mg"},{"bike_id":"772652df-39a3-4a7d-ab76-86683fdc6511","system_id":"levelo_inurba_marseille","lat":43.28931,"lon":5.36875,"is_reserved":false,"is_disabled":false,"rental_uris":{"android":"levelo://app?vid=772652df-39a3-4a7d-ab76-86683fdc6511","ios":"levelo://app?vid=772652df-39a3-4a7d-ab76-86683fdc6511"},"vehicle_type_id":"4","last_reported":1776927298,"current_range_meters":6800,"station_id":"","pricing_plan_id":"cebpf4jnsgd1na2vs0mg"},{"bike_id":"e8c9d71a-afbc-4c59-af4d-6ad77f1ebe3b","system_id":"levelo_inurba_marseille","lat":43.32718,"lon":5.3629,"is_reserved":false,"is_disabled":false,"rental_uris":{"android":"levelo://app?vid=e8c9d71a-afbc-4c59-af4d-6ad77f1ebe3b","ios":"levelo://app?vid=e8c9d71a-afbc-4c59-af4d-6ad77f1ebe3b"},"vehicle_type_id":"4","last_reported":1776927298,"current_range_meters":6800,"station_id":"","pricing_plan_id":"cebpf4jnsgd1na2vs0mg"},{"bike_id":"97563811-de7e-4fb9-bbc8-59c1cb66a0eb","system_id":"levelo_inurba_marseille","lat":43.243839,"lon":5.370514,"is_reserved":false,"is_disabled":false,"rental_uris":{"android":"levelo://app?vid=97563811-de7e-4fb9-bbc8-59c1cb66a0eb","ios":"levelo://app?vid=97563811-de7e-4fb9-bbc8-59c1cb66a0eb"},"vehicle_type_id":"4","last_reported":1776927298,"current_range_meters":7200,"station_id":"ce4bhhh2rcd13ifvqfk0","pricing_plan_id":"cebpf4jnsgd1na2vs0mg"},{"bike_id":"897ccc75-3e6d-4af3-94b6-7b8960c9a5e7","system_id":"levelo_inurba_marseille","lat":43.30656,"lon":5.4008,"is_reserved":false,"is_disabled":false,"rental_uris":{"android":"levelo://app?vid=897ccc75-3e6d-4af3-94b6-7b8960c9a5e7","ios":"levelo://app?vid=897ccc75-3e6d-4af3-94b6-7b8960c9a5e7"},"vehicle_type_id":"4","last_reported":1776927298,"current_range_meters":7200,"station_id":"ce4bh112rcd13ifvqda0","pricing_plan_id":"cebpf4jnsgd1na2vs0mg"},{"bike_id":"205eefac-f379-49f9-b02e-ad048a493b05","system_id":"levelo_inurba_marseille","lat":43.27114,"lon":5.42548,"is_reserved":false,"is_disabled":false,"rental_uris":{"android":"levelo://app?vid=205eefac-f379-49f9-b02e-ad048a493b05","ios":"levelo://app?vid=205eefac-f379-49f9-b02e-ad048a493b05"},"vehicle_type_id":"4","last_reported":1776927298,"current_range_meters":7200,"station_id":"","pricing_plan_id":"cebpf4jnsgd1na2vs0mg"},{"bike_id":"a7846c7e-6b12-434d-907f-06af07562d8e","system_id":"levelo_inurba_marseille","lat":43.29927,"lon":5.36523,"is_reserved":false,"is_disabled":false,"rental_uris":{"android":"levelo://app?vid=a7846c7e-6b12-434d-907f-06af07562d8e","ios":"levelo://app?vid=a7846c7e-6b12-434d-907f-06af07562d8e"},"vehicle_type_id":"4","last_reported":1776927298,"current_range_meters":7200,"station_id":"ce4bgm92rcd13ifvqbr0","pricing_plan_id":"cebpf4jnsgd1na2vs0mg"},{"bike_id":"199e28c1-111e-4ae6-8f88-ffc03ec993af","system_id":"levelo_inurba_marseille","lat":43.30953,"lon":5.39033,"is_reserved":false,"is_disabled":false,"rental_uris":{"android":"levelo://app?vid=199e28c1-111e-4ae6-8f88-ffc03ec993af","ios":"levelo://app?vid=199e28c1-111e-4ae6-8f88-ffc03ec993af"},"vehicle_type_id":"4","last_reported":1776927298,"current_range_meters":7200,"station_id":"ce4bgup2rcd13ifvqco0","pricing_plan_id":"cebpf4jnsgd1na2vs0mg"},{"bike_id":"8331af0f-100e-470f-9e36-7657fa113fe2","system_id":"levelo_inurba_marseille","lat":43.3128,"lon":5.36892,"is_reserved":false,"is_disabled":false,"rental_uris":{"android":"levelo://app?vid=8331af0f-100e-470f-9e36-7657fa113fe2","ios":"levelo://app?vid=8331af0f-100e-470f-9e36-7657fa113fe2"},"vehicle_type_id":"4","last_reported":1776927298,"current_range_meters":7200,"station_id":"","pricing_plan_id":"cebpf4jnsgd1na2vs0mg"},{"bike_id":"1c21b5e4-18ba-4d77-b990-0019b8294ddb","system_id":"levelo_inurba_marseille","lat":43.26489,"lon":5.39674,"is_reserved":false,"is_disabled":false,"rental_uris":{"android":"levelo://app?vid=1c21b5e4-18ba-4d77-b990-0019b8294ddb","ios":"levelo://app?vid=1c21b5e4-18ba-4d77-b990-0019b8294ddb"},"vehicle_type_id":"4","last_reported":1776927298,"current_range_meters":7200,"station_id":"","pricing_plan_id":"cebpf4jnsgd1na2vs0mg"},{"bike_id":"9c642c93-9d9f-4f71-8143-53448fb0043b","system_id":"levelo_inurba_marseille","lat":43.31499,"lon":5.37303,"is_reserved":false,"is_disabled":false,"rental_uris":{"android":"levelo://app?vid=9c642c93-9d9f-4f71-8143-53448fb0043b","ios":"levelo://app?vid=9c642c93-9d9f-4f71-8143-53448fb0043b"},"vehicle_type_id":"4","last_reported":1776927298,"current_range_meters":7200,"station_id":"ce4bgt12rcd13ifvqcd0","pricing_plan_id":"cebpf4jnsgd1na2vs0mg"},{"bike_id":"df56fc5d-a21b-4e75-8657-868a661710b1","system_id":"levelo_inurba_marseille","lat":43.28711,"lon":5.37929,"is_reserved":false,"is_disabled":false,"rental_uris":{"android":"levelo://app?vid=df56fc5d-a21b-4e75-8657-868a661710b1","ios":"levelo://app?vid=df56fc5d-a21b-4e75-8657-868a661710b1"},"vehicle_type_id":"4","last_reported":1776927298,"current_range_meters":7200,"station_id":"ce4bh9p2rcd13ifvqec0","pricing_plan_id":"cebpf4jnsgd1na2vs0mg"},{"bike_id":"4b431af8-4a48-43fe-951b-c1c4ace2904d","system_id":"levelo_inurba_marseille","lat":43.31047,"lon":5.37152,"is_reserved":false,"is_disabled":false,"rental_uris":{"android":"levelo://app?vid=4b431af8-4a48-43fe-951b-c1c4ace2904d","ios":"levelo://app?vid=4b431af8-4a48-43fe-951b-c1c4ace2904d"},"vehicle_type_id":"4","last_reported":1776927298,"current_range_meters":7200,"station_id":"st_d4kl2rp97mjs73e7tdfg","pricing_plan_id":"cebpf4jnsgd1na2vs0mg"},{"bike_id":"f391a571-cd1c-422a-8ff5-4f80494d96d7","system_id":"levelo_inurba_marseille","lat":43.24954,"lon":5.4051,"is_reserved":false,"is_disabled":false,"rental_uris":{"android":"levelo://app?vid=f391a571-cd1c-422a-8ff5-4f80494d96d7","ios":"levelo://app?vid=f391a571-cd1c-422a-8ff5-4f80494d96d7"},"vehicle_type_id":"4","last_reported":1776927298,"current_range_meters":7200,"station_id":"st_d2ngiaodas8pm72gd1h0","pricing_plan_id":"cebpf4jnsgd1na2vs0mg"},{"bike_id":"7bcf589d-1485-482c-947e-3b81d1633d3f","system_id":"levelo_inurba_marseille","lat":43.26398,"lon":5.41066,"is_reserved":false,"is_disabled":false,"rental_uris":{"android":"levelo://app?vid=7bcf589d-1485-482c-947e-3b81d1633d3f","ios":"levelo://app?vid=7bcf589d-1485-482c-947e-3b81d1633d3f"},"vehicle_type_id":"4","last_reported":1776927298,"current_range_meters":7200,"station_id":"st_d4e5ca6na9uc73bfl5fg","pricing_plan_id":"cebpf4jnsgd1na2vs0mg"},{"bike_id":"724e8b54-edea-47ab-9be6-0eaa6e8760fb","system_id":"levelo_inurba_marseille","lat":43.29644,"lon":5.40591,"is_reserved":false,"is_disabled":false,"rental_uris":{"android":"levelo://app?vid=724e8b54-edea-47ab-9be6-0eaa6e8760fb","ios":"levelo://app?vid=724e8b54-edea-47ab-9be6-0eaa6e8760fb"},"vehicle_type_id":"4","last_reported":1776927298,"current_range_meters":8000,"station_id":"ce4bh0h2rcd13ifvqd60","pricing_plan_id":"cebpf4jnsgd1na2vs0mg"},{"bike_id":"7815ddfa-84fd-4ae5-b67a-cd6d6508af90","system_id":"levelo_inurba_marseille","lat":43.27999,"lon":5.36952,"is_reserved":false,"is_disabled":false,"rental_uris":{"android":"levelo://app?vid=7815ddfa-84fd-4ae5-b67a-cd6d6508af90","ios":"levelo://app?vid=7815ddfa-84fd-4ae5-b67a-cd6d6508af90"},"vehicle_type_id":"4","last_reported":1776927298,"current_range_meters":8000,"station_id":"ce4bha12rcd13ifvqef0","pricing_plan_id":"cebpf4jnsgd1na2vs0mg"},{"bike_id":"f2ff52a7-1503-4a80-9a0e-a217d36469bb","system_id":"levelo_inurba_marseille","lat":43.30967,"lon":5.3714,"is_reserved":false,"is_disabled":false,"rental_uris":{"android":"levelo://app?vid=f2ff52a7-1503-4a80-9a0e-a217d36469bb","ios":"levelo://app?vid=f2ff52a7-1503-4a80-9a0e-a217d36469bb"},"vehicle_type_id":"4","last_reported":1776927298,"current_range_meters":8000,"station_id":"ce4bguh2rcd13ifvqckg","pricing_plan_id":"cebpf4jnsgd1na2vs0mg"},{"bike_id":"500638d0-cf5c-4061-b413-99b5dc6f2377","system_id":"levelo_inurba_marseille","lat":43.27427,"lon":5.42456,"is_reserved":false,"is_disabled":false,"rental_uris":{"android":"levelo://app?vid=500638d0-cf5c-4061-b413-99b5dc6f2377","ios":"levelo://app?vid=500638d0-cf5c-4061-b413-99b5dc6f2377"},"vehicle_type_id":"4","last_reported":1776927298,"current_range_meters":8000,"station_id":"","pricing_plan_id":"cebpf4jnsgd1na2vs0mg"},{"bike_id":"a56889e7-37d7-487e-a661-9c8461fe50da","system_id":"levelo_inurba_marseille","lat":43.30884,"lon":5.36819,"is_reserved":false,"is_disabled":false,"rental_uris":{"android":"levelo://app?vid=a56889e7-37d7-487e-a661-9c8461fe50da","ios":"levelo://app?vid=a56889e7-37d7-487e-a661-9c8461fe50da"},"vehicle_type_id":"4","last_reported":1776927298,"current_range_meters":8000,"station_id":"ce4bgn92rcd13ifvqbvg","pricing_plan_id":"cebpf4jnsgd1na2vs0mg"},{"bike_id":"ea3b4055-5736-41ca-9dbf-88b97ec2bd6d","system_id":"levelo_inurba_marseille","lat":43.31367,"lon":5.38487,"is_reserved":false,"is_disabled":false,"rental_uris":{"android":"levelo://app?vid=ea3b4055-5736-41ca-9dbf-88b97ec2bd6d","ios":"levelo://app?vid=ea3b4055-5736-41ca-9dbf-88b97ec2bd6d"},"vehicle_type_id":"4","last_reported":1776927298,"current_range_meters":8000,"station_id":"ce4bgt92rcd13ifvqcf0","pricing_plan_id":"cebpf4jnsgd1na2vs0mg"},{"bike_id":"88f890fb-d5ee-4423-9c7d-7bc75792c249","system_id":"levelo_inurba_marseille","lat":43.30364,"lon":5.42494,"is_reserved":false,"is_disabled":false,"rental_uris":{"android":"levelo://app?vid=88f890fb-d5ee-4423-9c7d-7bc75792c249","ios":"levelo://app?vid=88f890fb-d5ee-4423-9c7d-7bc75792c249"},"vehicle_type_id":"4","last_reported":1776927298,"current_range_meters":8000,"station_id":"ce4bhoh2rcd13ifvqh6g","pricing_plan_id":"cebpf4jnsgd1na2vs0mg"},{"bike_id":"25931435-472d-4946-9b9a-fc67e50f018d","system_id":"levelo_inurba_marseille","lat":43.22973,"lon":5.44391,"is_reserved":false,"is_disabled":false,"rental_uris":{"android":"levelo://app?vid=25931435-472d-4946-9b9a-fc67e50f018d","ios":"levelo://app?vid=25931435-472d-4946-9b9a-fc67e50f018d"},"vehicle_type_id":"4","last_reported":1776927298,"current_range_meters":8000,"station_id":"","pricing_plan_id":"cebpf4jnsgd1na2vs0mg"},{"bike_id":"2d348675-18ed-4bde-a9db-e3b23b8da37b","system_id":"levelo_inurba_marseille","lat":43.28156,"lon":5.4265,"is_reserved":false,"is_disabled":false,"rental_uris":{"android":"levelo://app?vid=2d348675-18ed-4bde-a9db-e3b23b8da37b","ios":"levelo://app?vid=2d348675-18ed-4bde-a9db-e3b23b8da37b"},"vehicle_type_id":"4","last_reported":1776927298,"current_range_meters":8000,"station_id":"ce4bhnh2rcd13ifvqgug","pricing_plan_id":"cebpf4jnsgd1na2vs0mg"},{"bike_id":"43551c7e-2e91-49bb-b9fd-9391ff299d13","system_id":"levelo_inurba_marseille","lat":43.23958,"lon":5.36643,"is_reserved":false,"is_disabled":false,"rental_uris":{"android":"levelo://app?vid=43551c7e-2e91-49bb-b9fd-9391ff299d13","ios":"levelo://app?vid=43551c7e-2e91-49bb-b9fd-9391ff299d13"},"vehicle_type_id":"4","last_reported":1776927298,"current_range_meters":8000,"station_id":"ce4bhi12rcd13ifvqfp0","pricing_plan_id":"cebpf4jnsgd1na2vs0mg"},{"bike_id":"eaa56526-29a5-4cc4-abc0-c621dd30f9a4","system_id":"levelo_inurba_marseille","lat":43.29262,"lon":5.4268,"is_reserved":false,"is_disabled":false,"rental_uris":{"android":"levelo://app?vid=eaa56526-29a5-4cc4-abc0-c621dd30f9a4","ios":"levelo://app?vid=eaa56526-29a5-4cc4-abc0-c621dd30f9a4"},"vehicle_type_id":"4","last_reported":1776927298,"current_range_meters":8400,"station_id":"","pricing_plan_id":"cebpf4jnsgd1na2vs0mg"},{"bike_id":"736e479d-3971-4e55-8f1a-91d301591267","system_id":"levelo_inurba_marseille","lat":43.28675,"lon":5.38656,"is_reserved":false,"is_disabled":true,"rental_uris":{"android":"levelo://app?vid=736e479d-3971-4e55-8f1a-91d301591267","ios":"levelo://app?vid=736e479d-3971-4e55-8f1a-91d301591267"},"vehicle_type_id":"4","last_reported":1776927298,"current_range_meters":8400,"station_id":"ce4bh492rcd13ifvqdug","pricing_plan_id":"cebpf4jnsgd1na2vs0mg"},{"bike_id":"b8f8d66f-2503-4e07-a7c5-6e97f6bb6d81","system_id":"levelo_inurba_marseille","lat":43.2816,"lon":5.42664,"is_reserved":false,"is_disabled":false,"rental_uris":{"android":"levelo://app?vid=b8f8d66f-2503-4e07-a7c5-6e97f6bb6d81","ios":"levelo://app?vid=b8f8d66f-2503-4e07-a7c5-6e97f6bb6d81"},"vehicle_type_id":"4","last_reported":1776927298,"current_range_meters":8400,"station_id":"ce4bhnh2rcd13ifvqgug","pricing_plan_id":"cebpf4jnsgd1na2vs0mg"},{"bike_id":"ed34d941-cc3a-4749-ac6a-5df2e0b4ce8e","system_id":"levelo_inurba_marseille","lat":43.29631,"lon":5.40595,"is_reserved":false,"is_disabled":false,"rental_uris":{"android":"levelo://app?vid=ed34d941-cc3a-4749-ac6a-5df2e0b4ce8e","ios":"levelo://app?vid=ed34d941-cc3a-4749-ac6a-5df2e0b4ce8e"},"vehicle_type_id":"4","last_reported":1776927298,"current_range_meters":8400,"station_id":"ce4bh0h2rcd13ifvqd60","pricing_plan_id":"cebpf4jnsgd1na2vs0mg"},{"bike_id":"0923929c-d272-4fa1-a3d9-8f4c7a6f830d","system_id":"levelo_inurba_marseille","lat":43.3084,"lon":5.38187,"is_reserved":false,"is_disabled":false,"rental_uris":{"android":"levelo://app?vid=0923929c-d272-4fa1-a3d9-8f4c7a6f830d","ios":"levelo://app?vid=0923929c-d272-4fa1-a3d9-8f4c7a6f830d"},"vehicle_type_id":"4","last_reported":1776927298,"current_range_meters":8400,"station_id":"","pricing_plan_id":"cebpf4jnsgd1na2vs0mg"},{"bike_id":"77529e7e-88e3-4fa6-9571-e201e7bfe4e1","system_id":"levelo_inurba_marseille","lat":43.23153,"lon":5.43709,"is_reserved":false,"is_disabled":false,"rental_uris":{"android":"levelo://app?vid=77529e7e-88e3-4fa6-9571-e201e7bfe4e1","ios":"levelo://app?vid=77529e7e-88e3-4fa6-9571-e201e7bfe4e1"},"vehicle_type_id":"4","last_reported":1776927298,"current_range_meters":8400,"station_id":"ce4bhmp2rcd13ifvqgog","pricing_plan_id":"cebpf4jnsgd1na2vs0mg"},{"bike_id":"466b9cd9-0deb-4b9b-b01a-72f0529a774e","system_id":"levelo_inurba_marseille","lat":43.28427,"lon":5.37526,"is_reserved":false,"is_disabled":true,"rental_uris":{"android":"levelo://app?vid=466b9cd9-0deb-4b9b-b01a-72f0529a774e","ios":"levelo://app?vid=466b9cd9-0deb-4b9b-b01a-72f0529a774e"},"vehicle_type_id":"4","last_reported":1776927298,"current_range_meters":8400,"station_id":"ce4bh412rcd13ifvqds0","pricing_plan_id":"cebpf4jnsgd1na2vs0mg"},{"bike_id":"afa86917-9d63-4702-abb0-d59d11e5b79a","system_id":"levelo_inurba_marseille","lat":43.30427,"lon":5.37917,"is_reserved":false,"is_disabled":false,"rental_uris":{"android":"levelo://app?vid=afa86917-9d63-4702-abb0-d59d11e5b79a","ios":"levelo://app?vid=afa86917-9d63-4702-abb0-d59d11e5b79a"},"vehicle_type_id":"4","last_reported":1776927298,"current_range_meters":8400,"station_id":"ce4bgup2rcd13ifvqcn0","pricing_plan_id":"cebpf4jnsgd1na2vs0mg"},{"bike_id":"4fc5c00c-81fb-407a-a0b6-31cf5174cbee","system_id":"levelo_inurba_marseille","lat":43.29033,"lon":5.40014,"is_reserved":false,"is_disabled":false,"rental_uris":{"android":"levelo://app?vid=4fc5c00c-81fb-407a-a0b6-31cf5174cbee","ios":"levelo://app?vid=4fc5c00c-81fb-407a-a0b6-31cf5174cbee"},"vehicle_type_id":"4","last_reported":1776927298,"current_range_meters":8400,"station_id":"ce4bh392rcd13ifvqdm0","pricing_plan_id":"cebpf4jnsgd1na2vs0mg"},{"bike_id":"61601d71-74e0-4e23-aaad-9705fd412fc8","system_id":"levelo_inurba_marseille","lat":43.29697,"lon":5.36982,"is_reserved":false,"is_disabled":false,"rental_uris":{"android":"levelo://app?vid=61601d71-74e0-4e23-aaad-9705fd412fc8","ios":"levelo://app?vid=61601d71-74e0-4e23-aaad-9705fd412fc8"},"vehicle_type_id":"4","last_reported":1776927298,"current_range_meters":8400,"station_id":"","pricing_plan_id":"cebpf4jnsgd1na2vs0mg"},{"bike_id":"52d848d3-e124-40a2-855d-fb7f07415aa4","system_id":"levelo_inurba_marseille","lat":43.28428,"lon":5.37526,"is_reserved":false,"is_disabled":true,"rental_uris":{"android":"levelo://app?vid=52d848d3-e124-40a2-855d-fb7f07415aa4","ios":"levelo://app?vid=52d848d3-e124-40a2-855d-fb7f07415aa4"},"vehicle_type_id":"4","last_reported":1776927298,"current_range_meters":8400,"station_id":"ce4bh412rcd13ifvqds0","pricing_plan_id":"cebpf4jnsgd1na2vs0mg"},{"bike_id":"b10e388b-a119-4b7b-87b2-c9ca007b4026","system_id":"levelo_inurba_marseille","lat":43.32606,"lon":5.35878,"is_reserved":false,"is_disabled":false,"rental_uris":{"android":"levelo://app?vid=b10e388b-a119-4b7b-87b2-c9ca007b4026","ios":"levelo://app?vid=b10e388b-a119-4b7b-87b2-c9ca007b4026"},"vehicle_type_id":"4","last_reported":1776927298,"current_range_meters":8400,"station_id":"","pricing_plan_id":"cebpf4jnsgd1na2vs0mg"},{"bike_id":"9c3677d0-627f-49f8-bd9c-64ba96ef4fce","system_id":"levelo_inurba_marseille","lat":43.28493,"lon":5.48397,"is_reserved":false,"is_disabled":false,"rental_uris":{"android":"levelo://app?vid=9c3677d0-627f-49f8-bd9c-64ba96ef4fce","ios":"levelo://app?vid=9c3677d0-627f-49f8-bd9c-64ba96ef4fce"},"vehicle_type_id":"4","last_reported":1776927298,"current_range_meters":8400,"station_id":"","pricing_plan_id":"cebpf4jnsgd1na2vs0mg"},{"bike_id":"5ffcf573-e1dc-4f63-a31b-04781cc66d0d","system_id":"levelo_inurba_marseille","lat":43.32346,"lon":5.36733,"is_reserved":false,"is_disabled":false,"rental_uris":{"android":"levelo://app?vid=5ffcf573-e1dc-4f63-a31b-04781cc66d0d","ios":"levelo://app?vid=5ffcf573-e1dc-4f63-a31b-04781cc66d0d"},"vehicle_type_id":"4","last_reported":1776927298,"current_range_meters":8400,"station_id":"ce4bhsh2rcd13ifvqi2g","pricing_plan_id":"cebpf4jnsgd1na2vs0mg"},{"bike_id":"ad12cdf9-4cc5-438a-abe4-405e7b6c584f","system_id":"levelo_inurba_marseille","lat":43.26692,"lon":5.38257,"is_reserved":false,"is_disabled":false,"rental_uris":{"android":"levelo://app?vid=ad12cdf9-4cc5-438a-abe4-405e7b6c584f","ios":"levelo://app?vid=ad12cdf9-4cc5-438a-abe4-405e7b6c584f"},"vehicle_type_id":"4","last_reported":1776927298,"current_range_meters":8400,"station_id":"ce4bhg92rcd13ifvqf90","pricing_plan_id":"cebpf4jnsgd1na2vs0mg"},{"bike_id":"1f812c79-a1cc-4770-94e4-c447fae650ce","system_id":"levelo_inurba_marseille","lat":43.28608,"lon":5.38963,"is_reserved":false,"is_disabled":false,"rental_uris":{"android":"levelo://app?vid=1f812c79-a1cc-4770-94e4-c447fae650ce","ios":"levelo://app?vid=1f812c79-a1cc-4770-94e4-c447fae650ce"},"vehicle_type_id":"4","last_reported":1776927298,"current_range_meters":8800,"station_id":"","pricing_plan_id":"cebpf4jnsgd1na2vs0mg"},{"bike_id":"b94479fe-5fb6-49b6-bbd0-4794bc39cdce","system_id":"levelo_inurba_marseille","lat":43.29168,"lon":5.35786,"is_reserved":false,"is_disabled":false,"rental_uris":{"android":"levelo://app?vid=b94479fe-5fb6-49b6-bbd0-4794bc39cdce","ios":"levelo://app?vid=b94479fe-5fb6-49b6-bbd0-4794bc39cdce"},"vehicle_type_id":"4","last_reported":1776927298,"current_range_meters":8800,"station_id":"ce4bhb12rcd13ifvqel0","pricing_plan_id":"cebpf4jnsgd1na2vs0mg"},{"bike_id":"fcf51bf8-7bd0-4289-aaac-a9a01c559fe1","system_id":"levelo_inurba_marseille","lat":43.29049,"lon":5.37153,"is_reserved":false,"is_disabled":false,"rental_uris":{"android":"levelo://app?vid=fcf51bf8-7bd0-4289-aaac-a9a01c559fe1","ios":"levelo://app?vid=fcf51bf8-7bd0-4289-aaac-a9a01c559fe1"},"vehicle_type_id":"4","last_reported":1776927298,"current_range_meters":8800,"station_id":"ce4bh5p2rcd13ifvqe4g","pricing_plan_id":"cebpf4jnsgd1na2vs0mg"},{"bike_id":"c7041db6-efe9-470b-b3aa-61638cf7bac3","system_id":"levelo_inurba_marseille","lat":43.33556,"lon":5.37458,"is_reserved":false,"is_disabled":false,"rental_uris":{"android":"levelo://app?vid=c7041db6-efe9-470b-b3aa-61638cf7bac3","ios":"levelo://app?vid=c7041db6-efe9-470b-b3aa-61638cf7bac3"},"vehicle_type_id":"4","last_reported":1776927298,"current_range_meters":8800,"station_id":"st_d46tts09ee8s73dlu43g","pricing_plan_id":"cebpf4jnsgd1na2vs0mg"},{"bike_id":"fe71ea70-6adf-4814-b5dd-ecebc27643f9","system_id":"levelo_inurba_marseille","lat":43.29875,"lon":5.39726,"is_reserved":false,"is_disabled":false,"rental_uris":{"android":"levelo://app?vid=fe71ea70-6adf-4814-b5dd-ecebc27643f9","ios":"levelo://app?vid=fe71ea70-6adf-4814-b5dd-ecebc27643f9"},"vehicle_type_id":"4","last_reported":1776927298,"current_range_meters":8800,"station_id":"ce4bh0h2rcd13ifvqd50","pricing_plan_id":"cebpf4jnsgd1na2vs0mg"},{"bike_id":"a018436e-1f48-4753-9510-3efc2a5265c2","system_id":"levelo_inurba_marseille","lat":43.29065,"lon":5.38167,"is_reserved":false,"is_disabled":false,"rental_uris":{"android":"levelo://app?vid=a018436e-1f48-4753-9510-3efc2a5265c2","ios":"levelo://app?vid=a018436e-1f48-4753-9510-3efc2a5265c2"},"vehicle_type_id":"4","last_reported":1776927298,"current_range_meters":8800,"station_id":"ce4bh512rcd13ifvqe2g","pricing_plan_id":"cebpf4jnsgd1na2vs0mg"},{"bike_id":"68e56175-b857-46c2-b84f-8591cfaf3283","system_id":"levelo_inurba_marseille","lat":43.23978,"lon":5.36629,"is_reserved":false,"is_disabled":false,"rental_uris":{"android":"levelo://app?vid=68e56175-b857-46c2-b84f-8591cfaf3283","ios":"levelo://app?vid=68e56175-b857-46c2-b84f-8591cfaf3283"},"vehicle_type_id":"4","last_reported":1776927298,"current_range_meters":8800,"station_id":"ce4bhi12rcd13ifvqfp0","pricing_plan_id":"cebpf4jnsgd1na2vs0mg"},{"bike_id":"7c785f2f-fe9b-43b3-a93c-b64a4c8daf77","system_id":"levelo_inurba_marseille","lat":43.29771,"lon":5.42765,"is_reserved":false,"is_disabled":false,"rental_uris":{"android":"levelo://app?vid=7c785f2f-fe9b-43b3-a93c-b64a4c8daf77","ios":"levelo://app?vid=7c785f2f-fe9b-43b3-a93c-b64a4c8daf77"},"vehicle_type_id":"4","last_reported":1776927298,"current_range_meters":8800,"station_id":"st_d3md5207bmas73dh9klg","pricing_plan_id":"cebpf4jnsgd1na2vs0mg"},{"bike_id":"e7cd391a-df6e-4376-9af8-8984bb2c7600","system_id":"levelo_inurba_marseille","lat":43.2816,"lon":5.42648,"is_reserved":false,"is_disabled":false,"rental_uris":{"android":"levelo://app?vid=e7cd391a-df6e-4376-9af8-8984bb2c7600","ios":"levelo://app?vid=e7cd391a-df6e-4376-9af8-8984bb2c7600"},"vehicle_type_id":"4","last_reported":1776927298,"current_range_meters":8800,"station_id":"ce4bhnh2rcd13ifvqgug","pricing_plan_id":"cebpf4jnsgd1na2vs0mg"},{"bike_id":"653ffef2-66b6-441f-9fc8-934d88a6c471","system_id":"levelo_inurba_marseille","lat":43.30931,"lon":5.40151,"is_reserved":false,"is_disabled":false,"rental_uris":{"android":"levelo://app?vid=653ffef2-66b6-441f-9fc8-934d88a6c471","ios":"levelo://app?vid=653ffef2-66b6-441f-9fc8-934d88a6c471"},"vehicle_type_id":"4","last_reported":1776927298,"current_range_meters":8800,"station_id":"ce4bgvp2rcd13ifvqct0","pricing_plan_id":"cebpf4jnsgd1na2vs0mg"},{"bike_id":"7229e485-2653-42f8-abc1-d369e9baffc6","system_id":"levelo_inurba_marseille","lat":43.302979,"lon":5.368844,"is_reserved":false,"is_disabled":false,"rental_uris":{"android":"levelo://app?vid=7229e485-2653-42f8-abc1-d369e9baffc6","ios":"levelo://app?vid=7229e485-2653-42f8-abc1-d369e9baffc6"},"vehicle_type_id":"4","last_reported":1776927298,"current_range_meters":8800,"station_id":"ce4bha92rcd13ifvqeg0","pricing_plan_id":"cebpf4jnsgd1na2vs0mg"},{"bike_id":"c366be47-591a-4881-84b3-6ecaca0c6af3","system_id":"levelo_inurba_marseille","lat":43.330238,"lon":5.390502,"is_reserved":false,"is_disabled":false,"rental_uris":{"android":"levelo://app?vid=c366be47-591a-4881-84b3-6ecaca0c6af3","ios":"levelo://app?vid=c366be47-591a-4881-84b3-6ecaca0c6af3"},"vehicle_type_id":"4","last_reported":1776927298,"current_range_meters":8800,"station_id":"","pricing_plan_id":"cebpf4jnsgd1na2vs0mg"},{"bike_id":"114454f2-fa10-4b30-b45c-46f11471a848","system_id":"levelo_inurba_marseille","lat":43.30539,"lon":5.36561,"is_reserved":false,"is_disabled":false,"rental_uris":{"android":"levelo://app?vid=114454f2-fa10-4b30-b45c-46f11471a848","ios":"levelo://app?vid=114454f2-fa10-4b30-b45c-46f11471a848"},"vehicle_type_id":"4","last_reported":1776927298,"current_range_meters":8800,"station_id":"ce4bgs12rcd13ifvqcag","pricing_plan_id":"cebpf4jnsgd1na2vs0mg"},{"bike_id":"2aaad7a4-9d5f-4074-b0a3-86e02980fd84","system_id":"levelo_inurba_marseille","lat":43.33523,"lon":5.37485,"is_reserved":false,"is_disabled":false,"rental_uris":{"android":"levelo://app?vid=2aaad7a4-9d5f-4074-b0a3-86e02980fd84","ios":"levelo://app?vid=2aaad7a4-9d5f-4074-b0a3-86e02980fd84"},"vehicle_type_id":"4","last_reported":1776927298,"current_range_meters":8800,"station_id":"st_d46tts09ee8s73dlu43g","pricing_plan_id":"cebpf4jnsgd1na2vs0mg"},{"bike_id":"e3e9e264-898c-4144-81c8-feef46976ec6","system_id":"levelo_inurba_marseille","lat":43.2753,"lon":5.39018,"is_reserved":false,"is_disabled":false,"rental_uris":{"android":"levelo://app?vid=e3e9e264-898c-4144-81c8-feef46976ec6","ios":"levelo://app?vid=e3e9e264-898c-4144-81c8-feef46976ec6"},"vehicle_type_id":"4","last_reported":1776927298,"current_range_meters":8800,"station_id":"","pricing_plan_id":"cebpf4jnsgd1na2vs0mg"},{"bike_id":"b1878473-b722-45ed-99b4-ccac71814f28","system_id":"levelo_inurba_marseille","lat":43.30376,"lon":5.42489,"is_reserved":false,"is_disabled":false,"rental_uris":{"android":"levelo://app?vid=b1878473-b722-45ed-99b4-ccac71814f28","ios":"levelo://app?vid=b1878473-b722-45ed-99b4-ccac71814f28"},"vehicle_type_id":"4","last_reported":1776927298,"current_range_meters":8800,"station_id":"ce4bhoh2rcd13ifvqh6g","pricing_plan_id":"cebpf4jnsgd1na2vs0mg"},{"bike_id":"7db8e5f3-3982-4808-8fb4-746a2f23f4b1","system_id":"levelo_inurba_marseille","lat":43.29342,"lon":5.4389,"is_reserved":false,"is_disabled":false,"rental_uris":{"android":"levelo://app?vid=7db8e5f3-3982-4808-8fb4-746a2f23f4b1","ios":"levelo://app?vid=7db8e5f3-3982-4808-8fb4-746a2f23f4b1"},"vehicle_type_id":"4","last_reported":1776927298,"current_range_meters":9200,"station_id":"","pricing_plan_id":"cebpf4jnsgd1na2vs0mg"},{"bike_id":"8db75b79-5718-462d-b907-a22490118526","system_id":"levelo_inurba_marseille","lat":43.27802,"lon":5.40628,"is_reserved":false,"is_disabled":false,"rental_uris":{"android":"levelo://app?vid=8db75b79-5718-462d-b907-a22490118526","ios":"levelo://app?vid=8db75b79-5718-462d-b907-a22490118526"},"vehicle_type_id":"4","last_reported":1776927298,"current_range_meters":9200,"station_id":"","pricing_plan_id":"cebpf4jnsgd1na2vs0mg"},{"bike_id":"d15c10f6-b577-4fd8-ba50-c18605747e31","system_id":"levelo_inurba_marseille","lat":43.28974,"lon":5.35576,"is_reserved":false,"is_disabled":false,"rental_uris":{"android":"levelo://app?vid=d15c10f6-b577-4fd8-ba50-c18605747e31","ios":"levelo://app?vid=d15c10f6-b577-4fd8-ba50-c18605747e31"},"vehicle_type_id":"4","last_reported":1776927298,"current_range_meters":9200,"station_id":"ce4bhb92rcd13ifvqen0","pricing_plan_id":"cebpf4jnsgd1na2vs0mg"},{"bike_id":"1dfb8304-4a5b-4c32-b67a-ccf966ce412e","system_id":"levelo_inurba_marseille","lat":43.30282,"lon":5.36895,"is_reserved":false,"is_disabled":true,"rental_uris":{"android":"levelo://app?vid=1dfb8304-4a5b-4c32-b67a-ccf966ce412e","ios":"levelo://app?vid=1dfb8304-4a5b-4c32-b67a-ccf966ce412e"},"vehicle_type_id":"4","last_reported":1776927298,"current_range_meters":9200,"station_id":"ce4bgqh2rcd13ifvqc5g","pricing_plan_id":"cebpf4jnsgd1na2vs0mg"},{"bike_id":"0f57f6fa-bc89-4215-a76c-5f96b1f6690f","system_id":"levelo_inurba_marseille","lat":43.26195,"lon":5.37461,"is_reserved":false,"is_disabled":false,"rental_uris":{"android":"levelo://app?vid=0f57f6fa-bc89-4215-a76c-5f96b1f6690f","ios":"levelo://app?vid=0f57f6fa-bc89-4215-a76c-5f96b1f6690f"},"vehicle_type_id":"4","last_reported":1776927298,"current_range_meters":9200,"station_id":"ce4bhgp2rcd13ifvqfc0","pricing_plan_id":"cebpf4jnsgd1na2vs0mg"},{"bike_id":"4c59e750-bd32-470f-aabb-d5afbed24b9c","system_id":"levelo_inurba_marseille","lat":43.24794,"lon":5.3748,"is_reserved":false,"is_disabled":false,"rental_uris":{"android":"levelo://app?vid=4c59e750-bd32-470f-aabb-d5afbed24b9c","ios":"levelo://app?vid=4c59e750-bd32-470f-aabb-d5afbed24b9c"},"vehicle_type_id":"4","last_reported":1776927298,"current_range_meters":9200,"station_id":"ce4bhgh2rcd13ifvqfb0","pricing_plan_id":"cebpf4jnsgd1na2vs0mg"},{"bike_id":"3ab04e0a-3ab2-4266-b34a-546ec1625124","system_id":"levelo_inurba_marseille","lat":43.29852,"lon":5.36282,"is_reserved":false,"is_disabled":false,"rental_uris":{"android":"levelo://app?vid=3ab04e0a-3ab2-4266-b34a-546ec1625124","ios":"levelo://app?vid=3ab04e0a-3ab2-4266-b34a-546ec1625124"},"vehicle_type_id":"4","last_reported":1776927298,"current_range_meters":9200,"station_id":"ce4bgpp2rcd13ifvqc3g","pricing_plan_id":"cebpf4jnsgd1na2vs0mg"},{"bike_id":"3861474c-5c79-40a8-a73c-d543fa3a8ccd","system_id":"levelo_inurba_marseille","lat":43.24811,"lon":5.37463,"is_reserved":false,"is_disabled":false,"rental_uris":{"android":"levelo://app?vid=3861474c-5c79-40a8-a73c-d543fa3a8ccd","ios":"levelo://app?vid=3861474c-5c79-40a8-a73c-d543fa3a8ccd"},"vehicle_type_id":"4","last_reported":1776927298,"current_range_meters":9200,"station_id":"ce4bhgh2rcd13ifvqfb0","pricing_plan_id":"cebpf4jnsgd1na2vs0mg"},{"bike_id":"63fe0f88-9c23-4539-8e22-fe4404d70bb6","system_id":"levelo_inurba_marseille","lat":43.30533,"lon":5.36549,"is_reserved":false,"is_disabled":false,"rental_uris":{"android":"levelo://app?vid=63fe0f88-9c23-4539-8e22-fe4404d70bb6","ios":"levelo://app?vid=63fe0f88-9c23-4539-8e22-fe4404d70bb6"},"vehicle_type_id":"4","last_reported":1776927298,"current_range_meters":9200,"station_id":"ce4bgs12rcd13ifvqcag","pricing_plan_id":"cebpf4jnsgd1na2vs0mg"},{"bike_id":"6843e882-7c36-4091-90e8-5bc86219a69e","system_id":"levelo_inurba_marseille","lat":43.30612,"lon":5.37222,"is_reserved":false,"is_disabled":false,"rental_uris":{"android":"levelo://app?vid=6843e882-7c36-4091-90e8-5bc86219a69e","ios":"levelo://app?vid=6843e882-7c36-4091-90e8-5bc86219a69e"},"vehicle_type_id":"4","last_reported":1776927298,"current_range_meters":9200,"station_id":"ce4bgqh2rcd13ifvqc4g","pricing_plan_id":"cebpf4jnsgd1na2vs0mg"},{"bike_id":"a44684de-5b58-4e58-8e3d-63bf5aaee796","system_id":"levelo_inurba_marseille","lat":43.27989,"lon":5.38745,"is_reserved":false,"is_disabled":false,"rental_uris":{"android":"levelo://app?vid=a44684de-5b58-4e58-8e3d-63bf5aaee796","ios":"levelo://app?vid=a44684de-5b58-4e58-8e3d-63bf5aaee796"},"vehicle_type_id":"4","last_reported":1776927298,"current_range_meters":9200,"station_id":"ce4bhg12rcd13ifvqf80","pricing_plan_id":"cebpf4jnsgd1na2vs0mg"},{"bike_id":"317213aa-694d-4877-9dcc-586bcc282c8c","system_id":"levelo_inurba_marseille","lat":43.28683,"lon":5.46635,"is_reserved":false,"is_disabled":false,"rental_uris":{"android":"levelo://app?vid=317213aa-694d-4877-9dcc-586bcc282c8c","ios":"levelo://app?vid=317213aa-694d-4877-9dcc-586bcc282c8c"},"vehicle_type_id":"4","last_reported":1776927298,"current_range_meters":9200,"station_id":"st_d6tc3vkotcvc738tfjhg","pricing_plan_id":"cebpf4jnsgd1na2vs0mg"},{"bike_id":"1b96147a-0a00-444b-a6da-e7e56ca38fd6","system_id":"levelo_inurba_marseille","lat":43.29874,"lon":5.39752,"is_reserved":false,"is_disabled":false,"rental_uris":{"android":"levelo://app?vid=1b96147a-0a00-444b-a6da-e7e56ca38fd6","ios":"levelo://app?vid=1b96147a-0a00-444b-a6da-e7e56ca38fd6"},"vehicle_type_id":"4","last_reported":1776927298,"current_range_meters":9600,"station_id":"ce4bh0h2rcd13ifvqd50","pricing_plan_id":"cebpf4jnsgd1na2vs0mg"},{"bike_id":"8f975cf4-69f4-4fd4-8c34-d7df8df21514","system_id":"levelo_inurba_marseille","lat":43.28849,"lon":5.39267,"is_reserved":false,"is_disabled":false,"rental_uris":{"android":"levelo://app?vid=8f975cf4-69f4-4fd4-8c34-d7df8df21514","ios":"levelo://app?vid=8f975cf4-69f4-4fd4-8c34-d7df8df21514"},"vehicle_type_id":"4","last_reported":1776927298,"current_range_meters":9600,"station_id":"ce4bh2p2rcd13ifvqdi0","pricing_plan_id":"cebpf4jnsgd1na2vs0mg"},{"bike_id":"d088911f-aeb5-4003-a7ea-8a92c9b216cf","system_id":"levelo_inurba_marseille","lat":43.29499,"lon":5.39019,"is_reserved":false,"is_disabled":true,"rental_uris":{"android":"levelo://app?vid=d088911f-aeb5-4003-a7ea-8a92c9b216cf","ios":"levelo://app?vid=d088911f-aeb5-4003-a7ea-8a92c9b216cf"},"vehicle_type_id":"4","last_reported":1776927298,"current_range_meters":9600,"station_id":"ce4bh3p2rcd13ifvqdp0","pricing_plan_id":"cebpf4jnsgd1na2vs0mg"},{"bike_id":"fc7363fe-b04d-489a-9727-90ca30e7bca6","system_id":"levelo_inurba_marseille","lat":43.3212,"lon":5.36787,"is_reserved":false,"is_disabled":false,"rental_uris":{"android":"levelo://app?vid=fc7363fe-b04d-489a-9727-90ca30e7bca6","ios":"levelo://app?vid=fc7363fe-b04d-489a-9727-90ca30e7bca6"},"vehicle_type_id":"4","last_reported":1776927298,"current_range_meters":9600,"station_id":"ce4bhrh2rcd13ifvqhug","pricing_plan_id":"cebpf4jnsgd1na2vs0mg"},{"bike_id":"75f433ca-3df0-4831-9633-bf7b5e16ebc1","system_id":"levelo_inurba_marseille","lat":43.30939,"lon":5.40156,"is_reserved":false,"is_disabled":false,"rental_uris":{"android":"levelo://app?vid=75f433ca-3df0-4831-9633-bf7b5e16ebc1","ios":"levelo://app?vid=75f433ca-3df0-4831-9633-bf7b5e16ebc1"},"vehicle_type_id":"4","last_reported":1776927298,"current_range_meters":9600,"station_id":"ce4bgvp2rcd13ifvqct0","pricing_plan_id":"cebpf4jnsgd1na2vs0mg"},{"bike_id":"1f68b41e-59e6-45c1-8843-64a039c566ec","system_id":"levelo_inurba_marseille","lat":43.27186,"lon":5.40979,"is_reserved":false,"is_disabled":false,"rental_uris":{"android":"levelo://app?vid=1f68b41e-59e6-45c1-8843-64a039c566ec","ios":"levelo://app?vid=1f68b41e-59e6-45c1-8843-64a039c566ec"},"vehicle_type_id":"4","last_reported":1776927298,"current_range_meters":9600,"station_id":"ce4bhl12rcd13ifvqgf0","pricing_plan_id":"cebpf4jnsgd1na2vs0mg"},{"bike_id":"6efae23b-4853-4978-a046-e2118aa389db","system_id":"levelo_inurba_marseille","lat":43.29452,"lon":5.38214,"is_reserved":false,"is_disabled":false,"rental_uris":{"android":"levelo://app?vid=6efae23b-4853-4978-a046-e2118aa389db","ios":"levelo://app?vid=6efae23b-4853-4978-a046-e2118aa389db"},"vehicle_type_id":"4","last_reported":1776927298,"current_range_meters":9600,"station_id":"","pricing_plan_id":"cebpf4jnsgd1na2vs0mg"},{"bike_id":"89cb976b-df3a-46fc-a9ef-0025de561630","system_id":"levelo_inurba_marseille","lat":43.2952,"lon":5.43474,"is_reserved":false,"is_disabled":false,"rental_uris":{"android":"levelo://app?vid=89cb976b-df3a-46fc-a9ef-0025de561630","ios":"levelo://app?vid=89cb976b-df3a-46fc-a9ef-0025de561630"},"vehicle_type_id":"4","last_reported":1776927298,"current_range_meters":9600,"station_id":"","pricing_plan_id":"cebpf4jnsgd1na2vs0mg"},{"bike_id":"a8aa9b10-b201-4335-86a5-69aaa3d0be38","system_id":"levelo_inurba_marseille","lat":43.28415,"lon":5.3751,"is_reserved":false,"is_disabled":false,"rental_uris":{"android":"levelo://app?vid=a8aa9b10-b201-4335-86a5-69aaa3d0be38","ios":"levelo://app?vid=a8aa9b10-b201-4335-86a5-69aaa3d0be38"},"vehicle_type_id":"4","last_reported":1776927298,"current_range_meters":9600,"station_id":"ce4bh412rcd13ifvqds0","pricing_plan_id":"cebpf4jnsgd1na2vs0mg"},{"bike_id":"a15cdab9-680f-4286-8f38-4a3449c3e787","system_id":"levelo_inurba_marseille","lat":43.2817,"lon":5.42643,"is_reserved":false,"is_disabled":false,"rental_uris":{"android":"levelo://app?vid=a15cdab9-680f-4286-8f38-4a3449c3e787","ios":"levelo://app?vid=a15cdab9-680f-4286-8f38-4a3449c3e787"},"vehicle_type_id":"4","last_reported":1776927298,"current_range_meters":9600,"station_id":"ce4bhnh2rcd13ifvqgug","pricing_plan_id":"cebpf4jnsgd1na2vs0mg"},{"bike_id":"35a9c97c-b85e-449d-99bb-1116c761abbd","system_id":"levelo_inurba_marseille","lat":43.32382,"lon":5.36748,"is_reserved":false,"is_disabled":false,"rental_uris":{"android":"levelo://app?vid=35a9c97c-b85e-449d-99bb-1116c761abbd","ios":"levelo://app?vid=35a9c97c-b85e-449d-99bb-1116c761abbd"},"vehicle_type_id":"4","last_reported":1776927298,"current_range_meters":9600,"station_id":"ce4bhsh2rcd13ifvqi2g","pricing_plan_id":"cebpf4jnsgd1na2vs0mg"},{"bike_id":"5dde9e8b-96ad-4abf-a426-92a2ce899a84","system_id":"levelo_inurba_marseille","lat":43.24995,"lon":5.38931,"is_reserved":false,"is_disabled":false,"rental_uris":{"android":"levelo://app?vid=5dde9e8b-96ad-4abf-a426-92a2ce899a84","ios":"levelo://app?vid=5dde9e8b-96ad-4abf-a426-92a2ce899a84"},"vehicle_type_id":"4","last_reported":1776927298,"current_range_meters":9600,"station_id":"ce4bhgp2rcd13ifvqfd0","pricing_plan_id":"cebpf4jnsgd1na2vs0mg"},{"bike_id":"42141a1f-7f30-463d-8d22-66f924ec5546","system_id":"levelo_inurba_marseille","lat":43.33603,"lon":5.41025,"is_reserved":false,"is_disabled":false,"rental_uris":{"android":"levelo://app?vid=42141a1f-7f30-463d-8d22-66f924ec5546","ios":"levelo://app?vid=42141a1f-7f30-463d-8d22-66f924ec5546"},"vehicle_type_id":"4","last_reported":1776927298,"current_range_meters":10000,"station_id":"ce4bhqh2rcd13ifvqhmg","pricing_plan_id":"cebpf4jnsgd1na2vs0mg"},{"bike_id":"ba0f19f9-bc38-4c7c-aba0-3dad327ba6be","system_id":"levelo_inurba_marseille","lat":43.31391,"lon":5.36761,"is_reserved":false,"is_disabled":false,"rental_uris":{"android":"levelo://app?vid=ba0f19f9-bc38-4c7c-aba0-3dad327ba6be","ios":"levelo://app?vid=ba0f19f9-bc38-4c7c-aba0-3dad327ba6be"},"vehicle_type_id":"4","last_reported":1776927298,"current_range_meters":10000,"station_id":"ce4bgr92rcd13ifvqc6g","pricing_plan_id":"cebpf4jnsgd1na2vs0mg"},{"bike_id":"e6cb6647-3e72-422a-86c7-56e5bf4979b7","system_id":"levelo_inurba_marseille","lat":43.28682,"lon":5.46677,"is_reserved":false,"is_disabled":false,"rental_uris":{"android":"levelo://app?vid=e6cb6647-3e72-422a-86c7-56e5bf4979b7","ios":"levelo://app?vid=e6cb6647-3e72-422a-86c7-56e5bf4979b7"},"vehicle_type_id":"4","last_reported":1776927298,"current_range_meters":10000,"station_id":"st_d6tc3vkotcvc738tfjhg","pricing_plan_id":"cebpf4jnsgd1na2vs0mg"},{"bike_id":"4009ecc9-2991-43a4-8d5d-eba3b086bf0a","system_id":"levelo_inurba_marseille","lat":43.32526,"lon":5.4143,"is_reserved":false,"is_disabled":false,"rental_uris":{"android":"levelo://app?vid=4009ecc9-2991-43a4-8d5d-eba3b086bf0a","ios":"levelo://app?vid=4009ecc9-2991-43a4-8d5d-eba3b086bf0a"},"vehicle_type_id":"4","last_reported":1776927298,"current_range_meters":10000,"station_id":"ce4bhq12rcd13ifvqhhg","pricing_plan_id":"cebpf4jnsgd1na2vs0mg"},{"bike_id":"584cdce0-810e-4b55-bd3b-08e2bfb93074","system_id":"levelo_inurba_marseille","lat":43.22563,"lon":5.41631,"is_reserved":false,"is_disabled":false,"rental_uris":{"android":"levelo://app?vid=584cdce0-810e-4b55-bd3b-08e2bfb93074","ios":"levelo://app?vid=584cdce0-810e-4b55-bd3b-08e2bfb93074"},"vehicle_type_id":"4","last_reported":1776927298,"current_range_meters":10000,"station_id":"st_d2o4gvlbi1j2169b742g","pricing_plan_id":"cebpf4jnsgd1na2vs0mg"},{"bike_id":"0cbc90b3-50ed-456e-a764-0d6e1269f49d","system_id":"levelo_inurba_marseille","lat":43.2782,"lon":5.40715,"is_reserved":false,"is_disabled":false,"rental_uris":{"android":"levelo://app?vid=0cbc90b3-50ed-456e-a764-0d6e1269f49d","ios":"levelo://app?vid=0cbc90b3-50ed-456e-a764-0d6e1269f49d"},"vehicle_type_id":"4","last_reported":1776927298,"current_range_meters":10000,"station_id":"ce4bhnh2rcd13ifvqgtg","pricing_plan_id":"cebpf4jnsgd1na2vs0mg"},{"bike_id":"35a6dbb5-1f6c-499d-b0dc-f3a5b44380bf","system_id":"levelo_inurba_marseille","lat":43.32506,"lon":5.38288,"is_reserved":false,"is_disabled":false,"rental_uris":{"android":"levelo://app?vid=35a6dbb5-1f6c-499d-b0dc-f3a5b44380bf","ios":"levelo://app?vid=35a6dbb5-1f6c-499d-b0dc-f3a5b44380bf"},"vehicle_type_id":"4","last_reported":1776927298,"current_range_meters":10000,"station_id":"st_d4asgbiv49dc73anf9m0","pricing_plan_id":"cebpf4jnsgd1na2vs0mg"},{"bike_id":"873038f8-52d6-4618-968d-d955136c8dae","system_id":"levelo_inurba_marseille","lat":43.28105,"lon":5.37853,"is_reserved":false,"is_disabled":true,"rental_uris":{"android":"levelo://app?vid=873038f8-52d6-4618-968d-d955136c8dae","ios":"levelo://app?vid=873038f8-52d6-4618-968d-d955136c8dae"},"vehicle_type_id":"4","last_reported":1776927298,"current_range_meters":10000,"station_id":"ce4bha12rcd13ifvqee0","pricing_plan_id":"cebpf4jnsgd1na2vs0mg"},{"bike_id":"a31c3d37-768f-4755-b7ac-350379bf2041","system_id":"levelo_inurba_marseille","lat":43.25118,"lon":5.40316,"is_reserved":false,"is_disabled":false,"rental_uris":{"android":"levelo://app?vid=a31c3d37-768f-4755-b7ac-350379bf2041","ios":"levelo://app?vid=a31c3d37-768f-4755-b7ac-350379bf2041"},"vehicle_type_id":"4","last_reported":1776927298,"current_range_meters":10000,"station_id":"ce4bhlh2rcd13ifvqgig","pricing_plan_id":"cebpf4jnsgd1na2vs0mg"},{"bike_id":"768abb91-8be4-4d81-b498-ec9507b98665","system_id":"levelo_inurba_marseille","lat":43.26394,"lon":5.42295,"is_reserved":false,"is_disabled":false,"rental_uris":{"android":"levelo://app?vid=768abb91-8be4-4d81-b498-ec9507b98665","ios":"levelo://app?vid=768abb91-8be4-4d81-b498-ec9507b98665"},"vehicle_type_id":"4","last_reported":1776927298,"current_range_meters":10000,"station_id":"","pricing_plan_id":"cebpf4jnsgd1na2vs0mg"},{"bike_id":"2d860e15-32c6-43ce-8381-55365baeeef5","system_id":"levelo_inurba_marseille","lat":43.33165,"lon":5.37693,"is_reserved":false,"is_disabled":false,"rental_uris":{"android":"levelo://app?vid=2d860e15-32c6-43ce-8381-55365baeeef5","ios":"levelo://app?vid=2d860e15-32c6-43ce-8381-55365baeeef5"},"vehicle_type_id":"4","last_reported":1776927298,"current_range_meters":10800,"station_id":"st_d46cu089ee8s73dldbu0","pricing_plan_id":"cebpf4jnsgd1na2vs0mg"},{"bike_id":"77bae04d-b155-4a06-9049-fda6a4b9e974","system_id":"levelo_inurba_marseille","lat":43.29147,"lon":5.42616,"is_reserved":false,"is_disabled":false,"rental_uris":{"android":"levelo://app?vid=77bae04d-b155-4a06-9049-fda6a4b9e974","ios":"levelo://app?vid=77bae04d-b155-4a06-9049-fda6a4b9e974"},"vehicle_type_id":"4","last_reported":1776927298,"current_range_meters":10800,"station_id":"","pricing_plan_id":"cebpf4jnsgd1na2vs0mg"},{"bike_id":"85e24309-26e8-4c34-a121-2fe3c4012f4d","system_id":"levelo_inurba_marseille","lat":43.2925,"lon":5.40892,"is_reserved":false,"is_disabled":false,"rental_uris":{"android":"levelo://app?vid=85e24309-26e8-4c34-a121-2fe3c4012f4d","ios":"levelo://app?vid=85e24309-26e8-4c34-a121-2fe3c4012f4d"},"vehicle_type_id":"4","last_reported":1776927298,"current_range_meters":10800,"station_id":"ce4bh192rcd13ifvqdc0","pricing_plan_id":"cebpf4jnsgd1na2vs0mg"},{"bike_id":"ccf9364e-5060-405b-9427-da49c47aa005","system_id":"levelo_inurba_marseille","lat":43.33111,"lon":5.37661,"is_reserved":false,"is_disabled":false,"rental_uris":{"android":"levelo://app?vid=ccf9364e-5060-405b-9427-da49c47aa005","ios":"levelo://app?vid=ccf9364e-5060-405b-9427-da49c47aa005"},"vehicle_type_id":"4","last_reported":1776927298,"current_range_meters":10800,"station_id":"","pricing_plan_id":"cebpf4jnsgd1na2vs0mg"},{"bike_id":"77c2bd96-8f65-43ef-acf6-16724d6e35ff","system_id":"levelo_inurba_marseille","lat":43.29038,"lon":5.40004,"is_reserved":false,"is_disabled":false,"rental_uris":{"android":"levelo://app?vid=77c2bd96-8f65-43ef-acf6-16724d6e35ff","ios":"levelo://app?vid=77c2bd96-8f65-43ef-acf6-16724d6e35ff"},"vehicle_type_id":"4","last_reported":1776927298,"current_range_meters":10800,"station_id":"ce4bh392rcd13ifvqdm0","pricing_plan_id":"cebpf4jnsgd1na2vs0mg"},{"bike_id":"c4a6cf3f-a5b9-43d7-91d0-4da564433a66","system_id":"levelo_inurba_marseille","lat":43.30153,"lon":5.37418,"is_reserved":false,"is_disabled":false,"rental_uris":{"android":"levelo://app?vid=c4a6cf3f-a5b9-43d7-91d0-4da564433a66","ios":"levelo://app?vid=c4a6cf3f-a5b9-43d7-91d0-4da564433a66"},"vehicle_type_id":"4","last_reported":1776927298,"current_range_meters":10800,"station_id":"ce4bgs92rcd13ifvqcc0","pricing_plan_id":"cebpf4jnsgd1na2vs0mg"},{"bike_id":"d3ee5326-29bd-49b4-8d14-2cbd41904530","system_id":"levelo_inurba_marseille","lat":43.2996,"lon":5.41305,"is_reserved":false,"is_disabled":false,"rental_uris":{"android":"levelo://app?vid=d3ee5326-29bd-49b4-8d14-2cbd41904530","ios":"levelo://app?vid=d3ee5326-29bd-49b4-8d14-2cbd41904530"},"vehicle_type_id":"4","last_reported":1776927298,"current_range_meters":10800,"station_id":"ce4bhp12rcd13ifvqh9g","pricing_plan_id":"cebpf4jnsgd1na2vs0mg"},{"bike_id":"2d226bc0-d360-4472-bc45-a0a64b909ef8","system_id":"levelo_inurba_marseille","lat":43.3354,"lon":5.37462,"is_reserved":false,"is_disabled":false,"rental_uris":{"android":"levelo://app?vid=2d226bc0-d360-4472-bc45-a0a64b909ef8","ios":"levelo://app?vid=2d226bc0-d360-4472-bc45-a0a64b909ef8"},"vehicle_type_id":"4","last_reported":1776927298,"current_range_meters":10800,"station_id":"st_d46tts09ee8s73dlu43g","pricing_plan_id":"cebpf4jnsgd1na2vs0mg"},{"bike_id":"998c535b-310d-41f7-ac79-e7a5eada4a5d","system_id":"levelo_inurba_marseille","lat":43.30134,"lon":5.38099,"is_reserved":false,"is_disabled":true,"rental_uris":{"android":"levelo://app?vid=998c535b-310d-41f7-ac79-e7a5eada4a5d","ios":"levelo://app?vid=998c535b-310d-41f7-ac79-e7a5eada4a5d"},"vehicle_type_id":"4","last_reported":1776927298,"current_range_meters":10800,"station_id":"ce4bgjp2rcd13ifvqbh0","pricing_plan_id":"cebpf4jnsgd1na2vs0mg"},{"bike_id":"364ed96c-6125-49ae-9b44-28c3e4f3725d","system_id":"levelo_inurba_marseille","lat":43.28407,"lon":5.37507,"is_reserved":false,"is_disabled":false,"rental_uris":{"android":"levelo://app?vid=364ed96c-6125-49ae-9b44-28c3e4f3725d","ios":"levelo://app?vid=364ed96c-6125-49ae-9b44-28c3e4f3725d"},"vehicle_type_id":"4","last_reported":1776927298,"current_range_meters":10800,"station_id":"ce4bh412rcd13ifvqds0","pricing_plan_id":"cebpf4jnsgd1na2vs0mg"},{"bike_id":"ed6c751d-11aa-4980-9be5-d32dd24768fe","system_id":"levelo_inurba_marseille","lat":43.33207,"lon":5.37795,"is_reserved":false,"is_disabled":false,"rental_uris":{"android":"levelo://app?vid=ed6c751d-11aa-4980-9be5-d32dd24768fe","ios":"levelo://app?vid=ed6c751d-11aa-4980-9be5-d32dd24768fe"},"vehicle_type_id":"4","last_reported":1776927298,"current_range_meters":10800,"station_id":"","pricing_plan_id":"cebpf4jnsgd1na2vs0mg"},{"bike_id":"9e5fd21b-18a9-4a14-a82f-e21eea85b2e6","system_id":"levelo_inurba_marseille","lat":43.23384,"lon":5.4124,"is_reserved":false,"is_disabled":false,"rental_uris":{"android":"levelo://app?vid=9e5fd21b-18a9-4a14-a82f-e21eea85b2e6","ios":"levelo://app?vid=9e5fd21b-18a9-4a14-a82f-e21eea85b2e6"},"vehicle_type_id":"4","last_reported":1776927298,"current_range_meters":10800,"station_id":"st_d75pvndhf9lc73cqq3eg","pricing_plan_id":"cebpf4jnsgd1na2vs0mg"},{"bike_id":"c2368943-d1d8-4d51-9ab6-795aff759156","system_id":"levelo_inurba_marseille","lat":43.30943,"lon":5.40157,"is_reserved":false,"is_disabled":false,"rental_uris":{"android":"levelo://app?vid=c2368943-d1d8-4d51-9ab6-795aff759156","ios":"levelo://app?vid=c2368943-d1d8-4d51-9ab6-795aff759156"},"vehicle_type_id":"4","last_reported":1776927298,"current_range_meters":10800,"station_id":"ce4bgvp2rcd13ifvqct0","pricing_plan_id":"cebpf4jnsgd1na2vs0mg"},{"bike_id":"679b07cb-ad86-4695-93f8-e7a36ab51714","system_id":"levelo_inurba_marseille","lat":43.30088,"lon":5.39075,"is_reserved":false,"is_disabled":false,"rental_uris":{"android":"levelo://app?vid=679b07cb-ad86-4695-93f8-e7a36ab51714","ios":"levelo://app?vid=679b07cb-ad86-4695-93f8-e7a36ab51714"},"vehicle_type_id":"4","last_reported":1776927298,"current_range_meters":10800,"station_id":"ce4bh192rcd13ifvqdb0","pricing_plan_id":"cebpf4jnsgd1na2vs0mg"},{"bike_id":"635086d1-593d-4987-9ae1-8731ea8eb561","system_id":"levelo_inurba_marseille","lat":43.30166,"lon":5.38071,"is_reserved":false,"is_disabled":false,"rental_uris":{"android":"levelo://app?vid=635086d1-593d-4987-9ae1-8731ea8eb561","ios":"levelo://app?vid=635086d1-593d-4987-9ae1-8731ea8eb561"},"vehicle_type_id":"4","last_reported":1776927298,"current_range_meters":11200,"station_id":"ce4bgjp2rcd13ifvqbh0","pricing_plan_id":"cebpf4jnsgd1na2vs0mg"},{"bike_id":"aafb67e4-bdc8-4500-b490-e4af65a19bdb","system_id":"levelo_inurba_marseille","lat":43.30109,"lon":5.38152,"is_reserved":false,"is_disabled":false,"rental_uris":{"android":"levelo://app?vid=aafb67e4-bdc8-4500-b490-e4af65a19bdb","ios":"levelo://app?vid=aafb67e4-bdc8-4500-b490-e4af65a19bdb"},"vehicle_type_id":"4","last_reported":1776927298,"current_range_meters":11200,"station_id":"ce4bgjp2rcd13ifvqbh0","pricing_plan_id":"cebpf4jnsgd1na2vs0mg"},{"bike_id":"3746d7cc-f173-4311-836b-c0fcbee16812","system_id":"levelo_inurba_marseille","lat":43.29841,"lon":5.36281,"is_reserved":false,"is_disabled":false,"rental_uris":{"android":"levelo://app?vid=3746d7cc-f173-4311-836b-c0fcbee16812","ios":"levelo://app?vid=3746d7cc-f173-4311-836b-c0fcbee16812"},"vehicle_type_id":"4","last_reported":1776927298,"current_range_meters":11200,"station_id":"ce4bgpp2rcd13ifvqc3g","pricing_plan_id":"cebpf4jnsgd1na2vs0mg"},{"bike_id":"3e0fc0f9-6fda-4694-840b-8578a8083669","system_id":"levelo_inurba_marseille","lat":43.29901,"lon":5.38149,"is_reserved":false,"is_disabled":false,"rental_uris":{"android":"levelo://app?vid=3e0fc0f9-6fda-4694-840b-8578a8083669","ios":"levelo://app?vid=3e0fc0f9-6fda-4694-840b-8578a8083669"},"vehicle_type_id":"4","last_reported":1776927298,"current_range_meters":11200,"station_id":"ce4bgj12rcd13ifvqbc0","pricing_plan_id":"cebpf4jnsgd1na2vs0mg"},{"bike_id":"e550c78d-b6eb-4600-86c5-369dce3159f6","system_id":"levelo_inurba_marseille","lat":43.2973,"lon":5.37685,"is_reserved":false,"is_disabled":true,"rental_uris":{"android":"levelo://app?vid=e550c78d-b6eb-4600-86c5-369dce3159f6","ios":"levelo://app?vid=e550c78d-b6eb-4600-86c5-369dce3159f6"},"vehicle_type_id":"4","last_reported":1776927298,"current_range_meters":11200,"station_id":"ce4bgkh2rcd13ifvqbl0","pricing_plan_id":"cebpf4jnsgd1na2vs0mg"},{"bike_id":"1b05f883-ee07-4add-a8e8-2c92297ddb00","system_id":"levelo_inurba_marseille","lat":43.29852,"lon":5.36285,"is_reserved":false,"is_disabled":false,"rental_uris":{"android":"levelo://app?vid=1b05f883-ee07-4add-a8e8-2c92297ddb00","ios":"levelo://app?vid=1b05f883-ee07-4add-a8e8-2c92297ddb00"},"vehicle_type_id":"4","last_reported":1776927298,"current_range_meters":11200,"station_id":"ce4bgpp2rcd13ifvqc3g","pricing_plan_id":"cebpf4jnsgd1na2vs0mg"},{"bike_id":"e8d6ce3d-1aa9-47ef-9b48-93862ee5f7fd","system_id":"levelo_inurba_marseille","lat":43.21292,"lon":5.35423,"is_reserved":false,"is_disabled":false,"rental_uris":{"android":"levelo://app?vid=e8d6ce3d-1aa9-47ef-9b48-93862ee5f7fd","ios":"levelo://app?vid=e8d6ce3d-1aa9-47ef-9b48-93862ee5f7fd"},"vehicle_type_id":"4","last_reported":1776927298,"current_range_meters":11200,"station_id":"","pricing_plan_id":"cebpf4jnsgd1na2vs0mg"},{"bike_id":"f5b9740b-a3d3-4e27-b301-bbc8bab6d802","system_id":"levelo_inurba_marseille","lat":43.31034,"lon":5.37152,"is_reserved":false,"is_disabled":false,"rental_uris":{"android":"levelo://app?vid=f5b9740b-a3d3-4e27-b301-bbc8bab6d802","ios":"levelo://app?vid=f5b9740b-a3d3-4e27-b301-bbc8bab6d802"},"vehicle_type_id":"4","last_reported":1776927298,"current_range_meters":11200,"station_id":"st_d4kl2rp97mjs73e7tdfg","pricing_plan_id":"cebpf4jnsgd1na2vs0mg"},{"bike_id":"ec19aaad-2410-439f-9123-e83fa1c535f8","system_id":"levelo_inurba_marseille","lat":43.28279,"lon":5.37895,"is_reserved":false,"is_disabled":false,"rental_uris":{"android":"levelo://app?vid=ec19aaad-2410-439f-9123-e83fa1c535f8","ios":"levelo://app?vid=ec19aaad-2410-439f-9123-e83fa1c535f8"},"vehicle_type_id":"4","last_reported":1776927298,"current_range_meters":11200,"station_id":"","pricing_plan_id":"cebpf4jnsgd1na2vs0mg"},{"bike_id":"5012c99c-2e28-411b-8580-9246e474ecb7","system_id":"levelo_inurba_marseille","lat":43.24999,"lon":5.38932,"is_reserved":false,"is_disabled":false,"rental_uris":{"android":"levelo://app?vid=5012c99c-2e28-411b-8580-9246e474ecb7","ios":"levelo://app?vid=5012c99c-2e28-411b-8580-9246e474ecb7"},"vehicle_type_id":"4","last_reported":1776927298,"current_range_meters":11200,"station_id":"ce4bhgp2rcd13ifvqfd0","pricing_plan_id":"cebpf4jnsgd1na2vs0mg"},{"bike_id":"09b36bd3-92a1-4671-9999-73b023a7ea25","system_id":"levelo_inurba_marseille","lat":43.28854,"lon":5.42521,"is_reserved":false,"is_disabled":false,"rental_uris":{"android":"levelo://app?vid=09b36bd3-92a1-4671-9999-73b023a7ea25","ios":"levelo://app?vid=09b36bd3-92a1-4671-9999-73b023a7ea25"},"vehicle_type_id":"4","last_reported":1776927298,"current_range_meters":11200,"station_id":"st_d3b462108ojc7389ooeg","pricing_plan_id":"cebpf4jnsgd1na2vs0mg"},{"bike_id":"4daa764a-9e0b-4dc0-b6b0-166754452505","system_id":"levelo_inurba_marseille","lat":43.248,"lon":5.374569,"is_reserved":false,"is_disabled":true,"rental_uris":{"android":"levelo://app?vid=4daa764a-9e0b-4dc0-b6b0-166754452505","ios":"levelo://app?vid=4daa764a-9e0b-4dc0-b6b0-166754452505"},"vehicle_type_id":"4","last_reported":1776927298,"current_range_meters":11200,"station_id":"ce4bhgh2rcd13ifvqfb0","pricing_plan_id":"cebpf4jnsgd1na2vs0mg"},{"bike_id":"c229b819-8f7f-4038-88d6-89ea1d92aeee","system_id":"levelo_inurba_marseille","lat":43.23378,"lon":5.41248,"is_reserved":false,"is_disabled":false,"rental_uris":{"android":"levelo://app?vid=c229b819-8f7f-4038-88d6-89ea1d92aeee","ios":"levelo://app?vid=c229b819-8f7f-4038-88d6-89ea1d92aeee"},"vehicle_type_id":"4","last_reported":1776927298,"current_range_meters":11200,"station_id":"st_d75pvndhf9lc73cqq3eg","pricing_plan_id":"cebpf4jnsgd1na2vs0mg"},{"bike_id":"580a1f1f-c38a-4dab-aa9f-676519db3517","system_id":"levelo_inurba_marseille","lat":43.244662,"lon":5.425304,"is_reserved":false,"is_disabled":false,"rental_uris":{"android":"levelo://app?vid=580a1f1f-c38a-4dab-aa9f-676519db3517","ios":"levelo://app?vid=580a1f1f-c38a-4dab-aa9f-676519db3517"},"vehicle_type_id":"4","last_reported":1776927298,"current_range_meters":11200,"station_id":"st_d4a3vfp97mjs738cd8kg","pricing_plan_id":"cebpf4jnsgd1na2vs0mg"},{"bike_id":"3e6a7419-a3f9-4b23-8836-c9e8e8df8c22","system_id":"levelo_inurba_marseille","lat":43.29503,"lon":5.39028,"is_reserved":false,"is_disabled":true,"rental_uris":{"android":"levelo://app?vid=3e6a7419-a3f9-4b23-8836-c9e8e8df8c22","ios":"levelo://app?vid=3e6a7419-a3f9-4b23-8836-c9e8e8df8c22"},"vehicle_type_id":"4","last_reported":1776927298,"current_range_meters":11600,"station_id":"ce4bh3p2rcd13ifvqdp0","pricing_plan_id":"cebpf4jnsgd1na2vs0mg"},{"bike_id":"fc3c57a7-edf3-4cae-b68c-af806246d4b6","system_id":"levelo_inurba_marseille","lat":43.24548,"lon":5.39523,"is_reserved":false,"is_disabled":false,"rental_uris":{"android":"levelo://app?vid=fc3c57a7-edf3-4cae-b68c-af806246d4b6","ios":"levelo://app?vid=fc3c57a7-edf3-4cae-b68c-af806246d4b6"},"vehicle_type_id":"4","last_reported":1776927298,"current_range_meters":11600,"station_id":"ce4bhlp2rcd13ifvqgjg","pricing_plan_id":"cebpf4jnsgd1na2vs0mg"},{"bike_id":"37dd84e8-b58b-43bc-9c14-c1031a32b136","system_id":"levelo_inurba_marseille","lat":43.3048,"lon":5.37903,"is_reserved":false,"is_disabled":false,"rental_uris":{"android":"levelo://app?vid=37dd84e8-b58b-43bc-9c14-c1031a32b136","ios":"levelo://app?vid=37dd84e8-b58b-43bc-9c14-c1031a32b136"},"vehicle_type_id":"4","last_reported":1776927298,"current_range_meters":11600,"station_id":"ce4bgup2rcd13ifvqcn0","pricing_plan_id":"cebpf4jnsgd1na2vs0mg"},{"bike_id":"137bb92b-25d3-4fd1-83b2-2c4d5cd75fe8","system_id":"levelo_inurba_marseille","lat":43.29226,"lon":5.36068,"is_reserved":false,"is_disabled":false,"rental_uris":{"android":"levelo://app?vid=137bb92b-25d3-4fd1-83b2-2c4d5cd75fe8","ios":"levelo://app?vid=137bb92b-25d3-4fd1-83b2-2c4d5cd75fe8"},"vehicle_type_id":"4","last_reported":1776927298,"current_range_meters":11600,"station_id":"ce4bhbh2rcd13ifvqeqg","pricing_plan_id":"cebpf4jnsgd1na2vs0mg"},{"bike_id":"6d2f07aa-876a-4ba6-802b-bb4e36ed8022","system_id":"levelo_inurba_marseille","lat":43.2861,"lon":5.35115,"is_reserved":false,"is_disabled":false,"rental_uris":{"android":"levelo://app?vid=6d2f07aa-876a-4ba6-802b-bb4e36ed8022","ios":"levelo://app?vid=6d2f07aa-876a-4ba6-802b-bb4e36ed8022"},"vehicle_type_id":"4","last_reported":1776927298,"current_range_meters":11600,"station_id":"ce4bhch2rcd13ifvqeug","pricing_plan_id":"cebpf4jnsgd1na2vs0mg"},{"bike_id":"d01e5ed0-578a-463a-acda-92085d3be77d","system_id":"levelo_inurba_marseille","lat":43.31394,"lon":5.36709,"is_reserved":false,"is_disabled":false,"rental_uris":{"android":"levelo://app?vid=d01e5ed0-578a-463a-acda-92085d3be77d","ios":"levelo://app?vid=d01e5ed0-578a-463a-acda-92085d3be77d"},"vehicle_type_id":"4","last_reported":1776927298,"current_range_meters":11600,"station_id":"","pricing_plan_id":"cebpf4jnsgd1na2vs0mg"},{"bike_id":"90336940-bf5a-4ff3-9172-6eab7ac2b9a1","system_id":"levelo_inurba_marseille","lat":43.29587,"lon":5.38114,"is_reserved":false,"is_disabled":true,"rental_uris":{"android":"levelo://app?vid=90336940-bf5a-4ff3-9172-6eab7ac2b9a1","ios":"levelo://app?vid=90336940-bf5a-4ff3-9172-6eab7ac2b9a1"},"vehicle_type_id":"4","last_reported":1776927298,"current_range_meters":11600,"station_id":"ce4bgl12rcd13ifvqbo0","pricing_plan_id":"cebpf4jnsgd1na2vs0mg"},{"bike_id":"22f01766-2621-4602-8503-49dc29f5c8df","system_id":"levelo_inurba_marseille","lat":43.27514,"lon":5.42467,"is_reserved":false,"is_disabled":false,"rental_uris":{"android":"levelo://app?vid=22f01766-2621-4602-8503-49dc29f5c8df","ios":"levelo://app?vid=22f01766-2621-4602-8503-49dc29f5c8df"},"vehicle_type_id":"4","last_reported":1776927298,"current_range_meters":11600,"station_id":"ce4bhn92rcd13ifvqgrg","pricing_plan_id":"cebpf4jnsgd1na2vs0mg"},{"bike_id":"a0b9e799-9421-4f41-8d4f-57c1f52c302a","system_id":"levelo_inurba_marseille","lat":43.2574,"lon":5.41107,"is_reserved":false,"is_disabled":false,"rental_uris":{"android":"levelo://app?vid=a0b9e799-9421-4f41-8d4f-57c1f52c302a","ios":"levelo://app?vid=a0b9e799-9421-4f41-8d4f-57c1f52c302a"},"vehicle_type_id":"4","last_reported":1776927298,"current_range_meters":11600,"station_id":"ce4bhkp2rcd13ifvqgd0","pricing_plan_id":"cebpf4jnsgd1na2vs0mg"},{"bike_id":"f5c0c244-0c65-42b0-bc1d-b914821a7da3","system_id":"levelo_inurba_marseille","lat":43.30892,"lon":5.37195,"is_reserved":false,"is_disabled":false,"rental_uris":{"android":"levelo://app?vid=f5c0c244-0c65-42b0-bc1d-b914821a7da3","ios":"levelo://app?vid=f5c0c244-0c65-42b0-bc1d-b914821a7da3"},"vehicle_type_id":"4","last_reported":1776927298,"current_range_meters":11600,"station_id":"ce4bguh2rcd13ifvqckg","pricing_plan_id":"cebpf4jnsgd1na2vs0mg"},{"bike_id":"bdcdc958-7a41-439a-b8a9-3cdbe553d760","system_id":"levelo_inurba_marseille","lat":43.30074,"lon":5.39084,"is_reserved":false,"is_disabled":false,"rental_uris":{"android":"levelo://app?vid=bdcdc958-7a41-439a-b8a9-3cdbe553d760","ios":"levelo://app?vid=bdcdc958-7a41-439a-b8a9-3cdbe553d760"},"vehicle_type_id":"4","last_reported":1776927298,"current_range_meters":12000,"station_id":"ce4bh192rcd13ifvqdb0","pricing_plan_id":"cebpf4jnsgd1na2vs0mg"},{"bike_id":"3f5e7837-6f5a-4446-b246-4ad4bc7d004c","system_id":"levelo_inurba_marseille","lat":43.30532,"lon":5.36705,"is_reserved":false,"is_disabled":false,"rental_uris":{"android":"levelo://app?vid=3f5e7837-6f5a-4446-b246-4ad4bc7d004c","ios":"levelo://app?vid=3f5e7837-6f5a-4446-b246-4ad4bc7d004c"},"vehicle_type_id":"4","last_reported":1776927298,"current_range_meters":12000,"station_id":"ce4bgrp2rcd13ifvqc9g","pricing_plan_id":"cebpf4jnsgd1na2vs0mg"},{"bike_id":"53d0b464-9d84-4ebb-a788-233487c8451c","system_id":"levelo_inurba_marseille","lat":43.33261,"lon":5.37783,"is_reserved":false,"is_disabled":false,"rental_uris":{"android":"levelo://app?vid=53d0b464-9d84-4ebb-a788-233487c8451c","ios":"levelo://app?vid=53d0b464-9d84-4ebb-a788-233487c8451c"},"vehicle_type_id":"4","last_reported":1776927298,"current_range_meters":12000,"station_id":"","pricing_plan_id":"cebpf4jnsgd1na2vs0mg"},{"bike_id":"d43d07a3-dce0-4542-b229-efb075755245","system_id":"levelo_inurba_marseille","lat":43.30958,"lon":5.39045,"is_reserved":false,"is_disabled":false,"rental_uris":{"android":"levelo://app?vid=d43d07a3-dce0-4542-b229-efb075755245","ios":"levelo://app?vid=d43d07a3-dce0-4542-b229-efb075755245"},"vehicle_type_id":"4","last_reported":1776927298,"current_range_meters":12000,"station_id":"ce4bgup2rcd13ifvqco0","pricing_plan_id":"cebpf4jnsgd1na2vs0mg"},{"bike_id":"027ca982-668b-40c6-9d7e-02be7161f10c","system_id":"levelo_inurba_marseille","lat":43.26736,"lon":5.39471,"is_reserved":false,"is_disabled":false,"rental_uris":{"android":"levelo://app?vid=027ca982-668b-40c6-9d7e-02be7161f10c","ios":"levelo://app?vid=027ca982-668b-40c6-9d7e-02be7161f10c"},"vehicle_type_id":"4","last_reported":1776927298,"current_range_meters":12000,"station_id":"ce4bhh12rcd13ifvqfg0","pricing_plan_id":"cebpf4jnsgd1na2vs0mg"},{"bike_id":"da8e93f4-9f1c-4952-8cba-f47945d35aa1","system_id":"levelo_inurba_marseille","lat":43.3081,"lon":5.37381,"is_reserved":false,"is_disabled":false,"rental_uris":{"android":"levelo://app?vid=da8e93f4-9f1c-4952-8cba-f47945d35aa1","ios":"levelo://app?vid=da8e93f4-9f1c-4952-8cba-f47945d35aa1"},"vehicle_type_id":"4","last_reported":1776927298,"current_range_meters":12000,"station_id":"","pricing_plan_id":"cebpf4jnsgd1na2vs0mg"},{"bike_id":"13de453e-5197-477c-bba1-2d4c0d148eb7","system_id":"levelo_inurba_marseille","lat":43.33195,"lon":5.37811,"is_reserved":false,"is_disabled":false,"rental_uris":{"android":"levelo://app?vid=13de453e-5197-477c-bba1-2d4c0d148eb7","ios":"levelo://app?vid=13de453e-5197-477c-bba1-2d4c0d148eb7"},"vehicle_type_id":"4","last_reported":1776927298,"current_range_meters":12000,"station_id":"","pricing_plan_id":"cebpf4jnsgd1na2vs0mg"},{"bike_id":"fa19ac8d-39c6-4878-bed9-f6a5b189b25a","system_id":"levelo_inurba_marseille","lat":43.30067,"lon":5.36371,"is_reserved":false,"is_disabled":false,"rental_uris":{"android":"levelo://app?vid=fa19ac8d-39c6-4878-bed9-f6a5b189b25a","ios":"levelo://app?vid=fa19ac8d-39c6-4878-bed9-f6a5b189b25a"},"vehicle_type_id":"4","last_reported":1776927298,"current_range_meters":12000,"station_id":"","pricing_plan_id":"cebpf4jnsgd1na2vs0mg"},{"bike_id":"d59302d9-0289-4d10-9994-7c59a6e76854","system_id":"levelo_inurba_marseille","lat":43.31077,"lon":5.37702,"is_reserved":false,"is_disabled":false,"rental_uris":{"android":"levelo://app?vid=d59302d9-0289-4d10-9994-7c59a6e76854","ios":"levelo://app?vid=d59302d9-0289-4d10-9994-7c59a6e76854"},"vehicle_type_id":"4","last_reported":1776927298,"current_range_meters":12000,"station_id":"","pricing_plan_id":"cebpf4jnsgd1na2vs0mg"},{"bike_id":"63c3f03e-d7c1-48af-b0d2-e1116fc4f8d0","system_id":"levelo_inurba_marseille","lat":43.25336,"lon":5.42168,"is_reserved":false,"is_disabled":false,"rental_uris":{"android":"levelo://app?vid=63c3f03e-d7c1-48af-b0d2-e1116fc4f8d0","ios":"levelo://app?vid=63c3f03e-d7c1-48af-b0d2-e1116fc4f8d0"},"vehicle_type_id":"4","last_reported":1776927298,"current_range_meters":12400,"station_id":"st_d2m65c5bi1j21697t3ng","pricing_plan_id":"cebpf4jnsgd1na2vs0mg"},{"bike_id":"ef1780af-1aea-4e08-82c2-da4d0be385bf","system_id":"levelo_inurba_marseille","lat":43.29003,"lon":5.35981,"is_reserved":false,"is_disabled":false,"rental_uris":{"android":"levelo://app?vid=ef1780af-1aea-4e08-82c2-da4d0be385bf","ios":"levelo://app?vid=ef1780af-1aea-4e08-82c2-da4d0be385bf"},"vehicle_type_id":"4","last_reported":1776927298,"current_range_meters":12400,"station_id":"","pricing_plan_id":"cebpf4jnsgd1na2vs0mg"},{"bike_id":"4a4a0df8-5f31-45c3-a76c-fd61c25cab78","system_id":"levelo_inurba_marseille","lat":43.31255,"lon":5.40174,"is_reserved":false,"is_disabled":false,"rental_uris":{"android":"levelo://app?vid=4a4a0df8-5f31-45c3-a76c-fd61c25cab78","ios":"levelo://app?vid=4a4a0df8-5f31-45c3-a76c-fd61c25cab78"},"vehicle_type_id":"4","last_reported":1776927298,"current_range_meters":12400,"station_id":"ce4bh092rcd13ifvqd30","pricing_plan_id":"cebpf4jnsgd1na2vs0mg"},{"bike_id":"15ead50d-19da-45d5-8b33-fa204106ccfd","system_id":"levelo_inurba_marseille","lat":43.26782,"lon":5.39375,"is_reserved":false,"is_disabled":false,"rental_uris":{"android":"levelo://app?vid=15ead50d-19da-45d5-8b33-fa204106ccfd","ios":"levelo://app?vid=15ead50d-19da-45d5-8b33-fa204106ccfd"},"vehicle_type_id":"4","last_reported":1776927298,"current_range_meters":12400,"station_id":"ce4bhh12rcd13ifvqfg0","pricing_plan_id":"cebpf4jnsgd1na2vs0mg"},{"bike_id":"ffb6c160-15e7-4200-9bf1-3a749fe92177","system_id":"levelo_inurba_marseille","lat":43.29258,"lon":5.36041,"is_reserved":false,"is_disabled":true,"rental_uris":{"android":"levelo://app?vid=ffb6c160-15e7-4200-9bf1-3a749fe92177","ios":"levelo://app?vid=ffb6c160-15e7-4200-9bf1-3a749fe92177"},"vehicle_type_id":"4","last_reported":1776927298,"current_range_meters":12400,"station_id":"ce4bhbh2rcd13ifvqeqg","pricing_plan_id":"cebpf4jnsgd1na2vs0mg"},{"bike_id":"cd21f6c1-a1f8-4978-8025-1d254a6bf514","system_id":"levelo_inurba_marseille","lat":43.28469,"lon":5.48394,"is_reserved":false,"is_disabled":false,"rental_uris":{"android":"levelo://app?vid=cd21f6c1-a1f8-4978-8025-1d254a6bf514","ios":"levelo://app?vid=cd21f6c1-a1f8-4978-8025-1d254a6bf514"},"vehicle_type_id":"4","last_reported":1776927298,"current_range_meters":12400,"station_id":"st_d3svhcjqgbts73a3dn0g","pricing_plan_id":"cebpf4jnsgd1na2vs0mg"},{"bike_id":"ad34945a-a214-4b6e-bbbb-2e55b107c025","system_id":"levelo_inurba_marseille","lat":43.28878,"lon":5.43038,"is_reserved":false,"is_disabled":false,"rental_uris":{"android":"levelo://app?vid=ad34945a-a214-4b6e-bbbb-2e55b107c025","ios":"levelo://app?vid=ad34945a-a214-4b6e-bbbb-2e55b107c025"},"vehicle_type_id":"4","last_reported":1776927298,"current_range_meters":12400,"station_id":"","pricing_plan_id":"cebpf4jnsgd1na2vs0mg"},{"bike_id":"3da1f621-1148-45db-a3cc-4909fa4a44b1","system_id":"levelo_inurba_marseille","lat":43.2655,"lon":5.37284,"is_reserved":false,"is_disabled":false,"rental_uris":{"android":"levelo://app?vid=3da1f621-1148-45db-a3cc-4909fa4a44b1","ios":"levelo://app?vid=3da1f621-1148-45db-a3cc-4909fa4a44b1"},"vehicle_type_id":"4","last_reported":1776927298,"current_range_meters":12400,"station_id":"ce4bhg12rcd13ifvqf70","pricing_plan_id":"cebpf4jnsgd1na2vs0mg"},{"bike_id":"7aded1df-1953-4558-a7ef-8b222a90db8f","system_id":"levelo_inurba_marseille","lat":43.24804,"lon":5.37471,"is_reserved":false,"is_disabled":false,"rental_uris":{"android":"levelo://app?vid=7aded1df-1953-4558-a7ef-8b222a90db8f","ios":"levelo://app?vid=7aded1df-1953-4558-a7ef-8b222a90db8f"},"vehicle_type_id":"4","last_reported":1776927298,"current_range_meters":12400,"station_id":"ce4bhgh2rcd13ifvqfb0","pricing_plan_id":"cebpf4jnsgd1na2vs0mg"},{"bike_id":"c4f5915b-d5bc-44aa-b10b-bfb190be2502","system_id":"levelo_inurba_marseille","lat":43.2681,"lon":5.39422,"is_reserved":false,"is_disabled":false,"rental_uris":{"android":"levelo://app?vid=c4f5915b-d5bc-44aa-b10b-bfb190be2502","ios":"levelo://app?vid=c4f5915b-d5bc-44aa-b10b-bfb190be2502"},"vehicle_type_id":"4","last_reported":1776927298,"current_range_meters":12400,"station_id":"ce4bhh12rcd13ifvqfg0","pricing_plan_id":"cebpf4jnsgd1na2vs0mg"},