{"last_updated":1778434831,"ttl":60,"version":"2.2","data":{"bikes":[{"bike_id":"0905bf26-d1df-4967-bcf7-a2c7f347956a","system_id":"levelo_inurba_marseille","lat":43.28949,"lon":5.39627,"is_reserved":false,"is_disabled":true,"rental_uris":{"android":"levelo://app?vid=0905bf26-d1df-4967-bcf7-a2c7f347956a","ios":"levelo://app?vid=0905bf26-d1df-4967-bcf7-a2c7f347956a"},"vehicle_type_id":"4","last_reported":1778434832,"current_range_meters":2800,"station_id":"ce4bh3h2rcd13ifvqdn0","pricing_plan_id":"cebpf4jnsgd1na2vs0mg"},{"bike_id":"dd074699-5920-40dc-ada2-4887ae6906b1","system_id":"levelo_inurba_marseille","lat":43.25826,"lon":5.39425,"is_reserved":false,"is_disabled":false,"rental_uris":{"android":"levelo://app?vid=dd074699-5920-40dc-ada2-4887ae6906b1","ios":"levelo://app?vid=dd074699-5920-40dc-ada2-4887ae6906b1"},"vehicle_type_id":"4","last_reported":1778434832,"current_range_meters":2800,"station_id":"ce4bhip2rcd13ifvqft0","pricing_plan_id":"cebpf4jnsgd1na2vs0mg"},{"bike_id":"3d87298d-84a8-4cff-b3a2-329294c913cc","system_id":"levelo_inurba_marseille","lat":43.2669,"lon":5.38264,"is_reserved":false,"is_disabled":false,"rental_uris":{"android":"levelo://app?vid=3d87298d-84a8-4cff-b3a2-329294c913cc","ios":"levelo://app?vid=3d87298d-84a8-4cff-b3a2-329294c913cc"},"vehicle_type_id":"4","last_reported":1778434832,"current_range_meters":2800,"station_id":"ce4bhg92rcd13ifvqf90","pricing_plan_id":"cebpf4jnsgd1na2vs0mg"},{"bike_id":"34fb1803-2551-4999-ae62-db7ccb1c204b","system_id":"levelo_inurba_marseille","lat":43.28274,"lon":5.35061,"is_reserved":false,"is_disabled":false,"rental_uris":{"android":"levelo://app?vid=34fb1803-2551-4999-ae62-db7ccb1c204b","ios":"levelo://app?vid=34fb1803-2551-4999-ae62-db7ccb1c204b"},"vehicle_type_id":"4","last_reported":1778434832,"current_range_meters":2800,"station_id":"ce4bhbp2rcd13ifvqerg","pricing_plan_id":"cebpf4jnsgd1na2vs0mg"},{"bike_id":"234d937c-0a51-4b7b-a5da-54c58b1cfe2d","system_id":"levelo_inurba_marseille","lat":43.30591,"lon":5.36794,"is_reserved":false,"is_disabled":true,"rental_uris":{"android":"levelo://app?vid=234d937c-0a51-4b7b-a5da-54c58b1cfe2d","ios":"levelo://app?vid=234d937c-0a51-4b7b-a5da-54c58b1cfe2d"},"vehicle_type_id":"4","last_reported":1778434832,"current_range_meters":2800,"station_id":"","pricing_plan_id":"cebpf4jnsgd1na2vs0mg"},{"bike_id":"f422b51e-1ef9-42a2-8365-1d33f807a8e0","system_id":"levelo_inurba_marseille","lat":43.23894,"lon":5.37462,"is_reserved":false,"is_disabled":true,"rental_uris":{"android":"levelo://app?vid=f422b51e-1ef9-42a2-8365-1d33f807a8e0","ios":"levelo://app?vid=f422b51e-1ef9-42a2-8365-1d33f807a8e0"},"vehicle_type_id":"4","last_reported":1778434832,"current_range_meters":2800,"station_id":"st_d6sm7csbq4hs73f8fpjg","pricing_plan_id":"cebpf4jnsgd1na2vs0mg"},{"bike_id":"c62eb961-ca4e-4863-b029-69000c6ec0b3","system_id":"levelo_inurba_marseille","lat":43.23214,"lon":5.35534,"is_reserved":false,"is_disabled":false,"rental_uris":{"android":"levelo://app?vid=c62eb961-ca4e-4863-b029-69000c6ec0b3","ios":"levelo://app?vid=c62eb961-ca4e-4863-b029-69000c6ec0b3"},"vehicle_type_id":"4","last_reported":1778434832,"current_range_meters":2800,"station_id":"ce4bhu92rcd13ifvqi70","pricing_plan_id":"cebpf4jnsgd1na2vs0mg"},{"bike_id":"74a938f2-f578-4294-9976-174677fe2f35","system_id":"levelo_inurba_marseille","lat":43.29491,"lon":5.43309,"is_reserved":false,"is_disabled":false,"rental_uris":{"android":"levelo://app?vid=74a938f2-f578-4294-9976-174677fe2f35","ios":"levelo://app?vid=74a938f2-f578-4294-9976-174677fe2f35"},"vehicle_type_id":"4","last_reported":1778434832,"current_range_meters":2800,"station_id":"st_d3j5ugp08ojc73fj9d10","pricing_plan_id":"cebpf4jnsgd1na2vs0mg"},{"bike_id":"84f20c2b-1c3a-49e0-98a6-e06389e78f5a","system_id":"levelo_inurba_marseille","lat":43.2656,"lon":5.40315,"is_reserved":false,"is_disabled":false,"rental_uris":{"android":"levelo://app?vid=84f20c2b-1c3a-49e0-98a6-e06389e78f5a","ios":"levelo://app?vid=84f20c2b-1c3a-49e0-98a6-e06389e78f5a"},"vehicle_type_id":"4","last_reported":1778434832,"current_range_meters":2800,"station_id":"ce4bhmp2rcd13ifvqgng","pricing_plan_id":"cebpf4jnsgd1na2vs0mg"},{"bike_id":"627ea465-4e71-4046-a508-023e31352421","system_id":"levelo_inurba_marseille","lat":43.25087,"lon":5.40483,"is_reserved":false,"is_disabled":false,"rental_uris":{"android":"levelo://app?vid=627ea465-4e71-4046-a508-023e31352421","ios":"levelo://app?vid=627ea465-4e71-4046-a508-023e31352421"},"vehicle_type_id":"4","last_reported":1778434832,"current_range_meters":2800,"station_id":"","pricing_plan_id":"cebpf4jnsgd1na2vs0mg"},{"bike_id":"959457cd-ffeb-435f-abd7-e609cfbc4e6a","system_id":"levelo_inurba_marseille","lat":43.27531,"lon":5.41566,"is_reserved":false,"is_disabled":false,"rental_uris":{"android":"levelo://app?vid=959457cd-ffeb-435f-abd7-e609cfbc4e6a","ios":"levelo://app?vid=959457cd-ffeb-435f-abd7-e609cfbc4e6a"},"vehicle_type_id":"4","last_reported":1778434832,"current_range_meters":3200,"station_id":"st_d6im8g6chgec73a5pndg","pricing_plan_id":"cebpf4jnsgd1na2vs0mg"},{"bike_id":"d408108d-df76-4537-a414-b1848a2f8b61","system_id":"levelo_inurba_marseille","lat":43.225387,"lon":5.348394,"is_reserved":false,"is_disabled":false,"rental_uris":{"android":"levelo://app?vid=d408108d-df76-4537-a414-b1848a2f8b61","ios":"levelo://app?vid=d408108d-df76-4537-a414-b1848a2f8b61"},"vehicle_type_id":"4","last_reported":1778434832,"current_range_meters":3200,"station_id":"st_cvj5dfep6f1abm77gieg","pricing_plan_id":"cebpf4jnsgd1na2vs0mg"},{"bike_id":"b8425fa1-a298-4679-ba8a-777546e14eca","system_id":"levelo_inurba_marseille","lat":43.33752,"lon":5.37454,"is_reserved":false,"is_disabled":false,"rental_uris":{"android":"levelo://app?vid=b8425fa1-a298-4679-ba8a-777546e14eca","ios":"levelo://app?vid=b8425fa1-a298-4679-ba8a-777546e14eca"},"vehicle_type_id":"4","last_reported":1778434832,"current_range_meters":3200,"station_id":"","pricing_plan_id":"cebpf4jnsgd1na2vs0mg"},{"bike_id":"2eff6ef1-edf3-44cb-8b0e-a8da93c0368f","system_id":"levelo_inurba_marseille","lat":43.23787,"lon":5.36637,"is_reserved":false,"is_disabled":false,"rental_uris":{"android":"levelo://app?vid=2eff6ef1-edf3-44cb-8b0e-a8da93c0368f","ios":"levelo://app?vid=2eff6ef1-edf3-44cb-8b0e-a8da93c0368f"},"vehicle_type_id":"4","last_reported":1778434832,"current_range_meters":3200,"station_id":"st_d3nk18o9ro0c73en2l3g","pricing_plan_id":"cebpf4jnsgd1na2vs0mg"},{"bike_id":"67584dec-0135-49c6-a9a2-57b3c3851eac","system_id":"levelo_inurba_marseille","lat":43.28491,"lon":5.38417,"is_reserved":false,"is_disabled":false,"rental_uris":{"android":"levelo://app?vid=67584dec-0135-49c6-a9a2-57b3c3851eac","ios":"levelo://app?vid=67584dec-0135-49c6-a9a2-57b3c3851eac"},"vehicle_type_id":"4","last_reported":1778434832,"current_range_meters":3200,"station_id":"ce4bh512rcd13ifvqe3g","pricing_plan_id":"cebpf4jnsgd1na2vs0mg"},{"bike_id":"95d9ef5b-7acc-4119-bfda-22b8af4f1458","system_id":"levelo_inurba_marseille","lat":43.284118,"lon":5.375033,"is_reserved":false,"is_disabled":false,"rental_uris":{"android":"levelo://app?vid=95d9ef5b-7acc-4119-bfda-22b8af4f1458","ios":"levelo://app?vid=95d9ef5b-7acc-4119-bfda-22b8af4f1458"},"vehicle_type_id":"4","last_reported":1778434832,"current_range_meters":3200,"station_id":"ce4bh412rcd13ifvqds0","pricing_plan_id":"cebpf4jnsgd1na2vs0mg"},{"bike_id":"97f964d8-1b4e-4439-a5e5-5bf9eca1819d","system_id":"levelo_inurba_marseille","lat":43.26366,"lon":5.41075,"is_reserved":false,"is_disabled":false,"rental_uris":{"android":"levelo://app?vid=97f964d8-1b4e-4439-a5e5-5bf9eca1819d","ios":"levelo://app?vid=97f964d8-1b4e-4439-a5e5-5bf9eca1819d"},"vehicle_type_id":"4","last_reported":1778434832,"current_range_meters":3600,"station_id":"st_d4e5ca6na9uc73bfl5fg","pricing_plan_id":"cebpf4jnsgd1na2vs0mg"},{"bike_id":"2a1755c6-621b-4ee0-b02e-fcd7e30106ff","system_id":"levelo_inurba_marseille","lat":43.29796,"lon":5.39346,"is_reserved":false,"is_disabled":true,"rental_uris":{"android":"levelo://app?vid=2a1755c6-621b-4ee0-b02e-fcd7e30106ff","ios":"levelo://app?vid=2a1755c6-621b-4ee0-b02e-fcd7e30106ff"},"vehicle_type_id":"4","last_reported":1778434832,"current_range_meters":3600,"station_id":"chh1huq6cuj3fo74tm60","pricing_plan_id":"cebpf4jnsgd1na2vs0mg"},{"bike_id":"62bbf096-1a3f-4b3f-9667-29c655162214","system_id":"levelo_inurba_marseille","lat":43.26576,"lon":5.39011,"is_reserved":false,"is_disabled":false,"rental_uris":{"android":"levelo://app?vid=62bbf096-1a3f-4b3f-9667-29c655162214","ios":"levelo://app?vid=62bbf096-1a3f-4b3f-9667-29c655162214"},"vehicle_type_id":"4","last_reported":1778434832,"current_range_meters":3600,"station_id":"ce4bhe12rcd13ifvqf30","pricing_plan_id":"cebpf4jnsgd1na2vs0mg"},{"bike_id":"4f2b66b9-d2be-480c-a44a-c9a32982cb61","system_id":"levelo_inurba_marseille","lat":43.286647,"lon":5.383252,"is_reserved":false,"is_disabled":true,"rental_uris":{"android":"levelo://app?vid=4f2b66b9-d2be-480c-a44a-c9a32982cb61","ios":"levelo://app?vid=4f2b66b9-d2be-480c-a44a-c9a32982cb61"},"vehicle_type_id":"4","last_reported":1778434832,"current_range_meters":4000,"station_id":"ce4bh192rcd13ifvqdd0","pricing_plan_id":"cebpf4jnsgd1na2vs0mg"},{"bike_id":"56782922-f68e-469a-88e0-e54568de9fa4","system_id":"levelo_inurba_marseille","lat":43.30305,"lon":5.39214,"is_reserved":false,"is_disabled":true,"rental_uris":{"android":"levelo://app?vid=56782922-f68e-469a-88e0-e54568de9fa4","ios":"levelo://app?vid=56782922-f68e-469a-88e0-e54568de9fa4"},"vehicle_type_id":"4","last_reported":1778434832,"current_range_meters":4000,"station_id":"ce4bgkh2rcd13ifvqbk0","pricing_plan_id":"cebpf4jnsgd1na2vs0mg"},{"bike_id":"689458f1-7c3d-457e-9967-103ee29a8833","system_id":"levelo_inurba_marseille","lat":43.29974,"lon":5.3718,"is_reserved":false,"is_disabled":true,"rental_uris":{"android":"levelo://app?vid=689458f1-7c3d-457e-9967-103ee29a8833","ios":"levelo://app?vid=689458f1-7c3d-457e-9967-103ee29a8833"},"vehicle_type_id":"4","last_reported":1778434832,"current_range_meters":4000,"station_id":"ce4bgr92rcd13ifvqc7g","pricing_plan_id":"cebpf4jnsgd1na2vs0mg"},{"bike_id":"14777d02-dcab-4a77-84b6-d2e189d53152","system_id":"levelo_inurba_marseille","lat":43.28152,"lon":5.3829,"is_reserved":false,"is_disabled":false,"rental_uris":{"android":"levelo://app?vid=14777d02-dcab-4a77-84b6-d2e189d53152","ios":"levelo://app?vid=14777d02-dcab-4a77-84b6-d2e189d53152"},"vehicle_type_id":"4","last_reported":1778434832,"current_range_meters":4000,"station_id":"","pricing_plan_id":"cebpf4jnsgd1na2vs0mg"},{"bike_id":"808c4ecd-9bba-4ef5-91dc-62b4109dcc93","system_id":"levelo_inurba_marseille","lat":43.29548,"lon":5.38554,"is_reserved":false,"is_disabled":true,"rental_uris":{"android":"levelo://app?vid=808c4ecd-9bba-4ef5-91dc-62b4109dcc93","ios":"levelo://app?vid=808c4ecd-9bba-4ef5-91dc-62b4109dcc93"},"vehicle_type_id":"4","last_reported":1778434832,"current_range_meters":4000,"station_id":"ce4bgih2rcd13ifvqba0","pricing_plan_id":"cebpf4jnsgd1na2vs0mg"},{"bike_id":"ff41f028-e74e-477a-8abb-51c0d2444223","system_id":"levelo_inurba_marseille","lat":43.25104,"lon":5.40332,"is_reserved":false,"is_disabled":false,"rental_uris":{"android":"levelo://app?vid=ff41f028-e74e-477a-8abb-51c0d2444223","ios":"levelo://app?vid=ff41f028-e74e-477a-8abb-51c0d2444223"},"vehicle_type_id":"4","last_reported":1778434832,"current_range_meters":4000,"station_id":"ce4bhlh2rcd13ifvqgig","pricing_plan_id":"cebpf4jnsgd1na2vs0mg"},{"bike_id":"0dd955da-180d-4e4e-8106-fa4503051446","system_id":"levelo_inurba_marseille","lat":43.295732,"lon":5.375243,"is_reserved":false,"is_disabled":false,"rental_uris":{"android":"levelo://app?vid=0dd955da-180d-4e4e-8106-fa4503051446","ios":"levelo://app?vid=0dd955da-180d-4e4e-8106-fa4503051446"},"vehicle_type_id":"4","last_reported":1778434832,"current_range_meters":4000,"station_id":"ce4bgh92rcd13ifvqb50","pricing_plan_id":"cebpf4jnsgd1na2vs0mg"},{"bike_id":"1c6f778a-b852-40d6-a88d-2ed485e079f6","system_id":"levelo_inurba_marseille","lat":43.23785,"lon":5.36634,"is_reserved":false,"is_disabled":false,"rental_uris":{"android":"levelo://app?vid=1c6f778a-b852-40d6-a88d-2ed485e079f6","ios":"levelo://app?vid=1c6f778a-b852-40d6-a88d-2ed485e079f6"},"vehicle_type_id":"4","last_reported":1778434832,"current_range_meters":4000,"station_id":"st_d3nk18o9ro0c73en2l3g","pricing_plan_id":"cebpf4jnsgd1na2vs0mg"},{"bike_id":"96a84fb0-a95f-4e72-8fcd-7d72c43a7639","system_id":"levelo_inurba_marseille","lat":43.30251,"lon":5.40089,"is_reserved":false,"is_disabled":false,"rental_uris":{"android":"levelo://app?vid=96a84fb0-a95f-4e72-8fcd-7d72c43a7639","ios":"levelo://app?vid=96a84fb0-a95f-4e72-8fcd-7d72c43a7639"},"vehicle_type_id":"4","last_reported":1778434832,"current_range_meters":4000,"station_id":"ce4bgvh2rcd13ifvqcs0","pricing_plan_id":"cebpf4jnsgd1na2vs0mg"},{"bike_id":"30b66022-1366-4606-862b-d547da8c8a3a","system_id":"levelo_inurba_marseille","lat":43.29062,"lon":5.39935,"is_reserved":false,"is_disabled":true,"rental_uris":{"android":"levelo://app?vid=30b66022-1366-4606-862b-d547da8c8a3a","ios":"levelo://app?vid=30b66022-1366-4606-862b-d547da8c8a3a"},"vehicle_type_id":"4","last_reported":1778434832,"current_range_meters":4000,"station_id":"ce4bh392rcd13ifvqdm0","pricing_plan_id":"cebpf4jnsgd1na2vs0mg"},{"bike_id":"8468097f-3d5b-4d22-b332-978266ebeb4b","system_id":"levelo_inurba_marseille","lat":43.28429,"lon":5.34974,"is_reserved":false,"is_disabled":false,"rental_uris":{"android":"levelo://app?vid=8468097f-3d5b-4d22-b332-978266ebeb4b","ios":"levelo://app?vid=8468097f-3d5b-4d22-b332-978266ebeb4b"},"vehicle_type_id":"4","last_reported":1778434832,"current_range_meters":4400,"station_id":"ce4bhbh2rcd13ifvqepg","pricing_plan_id":"cebpf4jnsgd1na2vs0mg"},{"bike_id":"24b614b1-21fe-4a2b-a521-7a850622da21","system_id":"levelo_inurba_marseille","lat":43.23977,"lon":5.36621,"is_reserved":false,"is_disabled":false,"rental_uris":{"android":"levelo://app?vid=24b614b1-21fe-4a2b-a521-7a850622da21","ios":"levelo://app?vid=24b614b1-21fe-4a2b-a521-7a850622da21"},"vehicle_type_id":"4","last_reported":1778434832,"current_range_meters":4400,"station_id":"ce4bhi12rcd13ifvqfp0","pricing_plan_id":"cebpf4jnsgd1na2vs0mg"},{"bike_id":"6185c6b4-782e-4ff8-b9f0-cc828921242d","system_id":"levelo_inurba_marseille","lat":43.27072,"lon":5.42275,"is_reserved":false,"is_disabled":false,"rental_uris":{"android":"levelo://app?vid=6185c6b4-782e-4ff8-b9f0-cc828921242d","ios":"levelo://app?vid=6185c6b4-782e-4ff8-b9f0-cc828921242d"},"vehicle_type_id":"4","last_reported":1778434832,"current_range_meters":4400,"station_id":"ce4bhk92rcd13ifvqgb0","pricing_plan_id":"cebpf4jnsgd1na2vs0mg"},{"bike_id":"0bff19b0-759c-4974-b971-6d7bfa56b685","system_id":"levelo_inurba_marseille","lat":43.2981,"lon":5.44055,"is_reserved":false,"is_disabled":false,"rental_uris":{"android":"levelo://app?vid=0bff19b0-759c-4974-b971-6d7bfa56b685","ios":"levelo://app?vid=0bff19b0-759c-4974-b971-6d7bfa56b685"},"vehicle_type_id":"4","last_reported":1778434832,"current_range_meters":4400,"station_id":"st_d3jp68qikq2c7381ktn0","pricing_plan_id":"cebpf4jnsgd1na2vs0mg"},{"bike_id":"768183db-c0d7-4cca-abdf-974e2f48f0f1","system_id":"levelo_inurba_marseille","lat":43.25113,"lon":5.40331,"is_reserved":false,"is_disabled":false,"rental_uris":{"android":"levelo://app?vid=768183db-c0d7-4cca-abdf-974e2f48f0f1","ios":"levelo://app?vid=768183db-c0d7-4cca-abdf-974e2f48f0f1"},"vehicle_type_id":"4","last_reported":1778434832,"current_range_meters":4400,"station_id":"ce4bhlh2rcd13ifvqgig","pricing_plan_id":"cebpf4jnsgd1na2vs0mg"},{"bike_id":"a6a60149-ea74-4dce-b409-ebc1a0b75a1f","system_id":"levelo_inurba_marseille","lat":43.30556,"lon":5.38428,"is_reserved":false,"is_disabled":true,"rental_uris":{"android":"levelo://app?vid=a6a60149-ea74-4dce-b409-ebc1a0b75a1f","ios":"levelo://app?vid=a6a60149-ea74-4dce-b409-ebc1a0b75a1f"},"vehicle_type_id":"4","last_reported":1778434832,"current_range_meters":4400,"station_id":"ce4bgg92rcd13ifvqb30","pricing_plan_id":"cebpf4jnsgd1na2vs0mg"},{"bike_id":"c8981d9f-3504-4cb4-a8fc-ea894bc43e05","system_id":"levelo_inurba_marseille","lat":43.30507,"lon":5.36515,"is_reserved":false,"is_disabled":false,"rental_uris":{"android":"levelo://app?vid=c8981d9f-3504-4cb4-a8fc-ea894bc43e05","ios":"levelo://app?vid=c8981d9f-3504-4cb4-a8fc-ea894bc43e05"},"vehicle_type_id":"4","last_reported":1778434832,"current_range_meters":4400,"station_id":"","pricing_plan_id":"cebpf4jnsgd1na2vs0mg"},{"bike_id":"3a7a6490-34c7-4e66-a967-52dc19722c9c","system_id":"levelo_inurba_marseille","lat":43.25371,"lon":5.3946,"is_reserved":false,"is_disabled":false,"rental_uris":{"android":"levelo://app?vid=3a7a6490-34c7-4e66-a967-52dc19722c9c","ios":"levelo://app?vid=3a7a6490-34c7-4e66-a967-52dc19722c9c"},"vehicle_type_id":"4","last_reported":1778434832,"current_range_meters":4400,"station_id":"","pricing_plan_id":"cebpf4jnsgd1na2vs0mg"},{"bike_id":"ee1a5dd9-04af-4787-9e08-5c55e5d06b4d","system_id":"levelo_inurba_marseille","lat":43.29813,"lon":5.38217,"is_reserved":false,"is_disabled":false,"rental_uris":{"android":"levelo://app?vid=ee1a5dd9-04af-4787-9e08-5c55e5d06b4d","ios":"levelo://app?vid=ee1a5dd9-04af-4787-9e08-5c55e5d06b4d"},"vehicle_type_id":"4","last_reported":1778434832,"current_range_meters":4800,"station_id":"","pricing_plan_id":"cebpf4jnsgd1na2vs0mg"},{"bike_id":"7278b5a3-7066-4fbd-8443-4750e11195fc","system_id":"levelo_inurba_marseille","lat":43.28473,"lon":5.35873,"is_reserved":false,"is_disabled":false,"rental_uris":{"android":"levelo://app?vid=7278b5a3-7066-4fbd-8443-4750e11195fc","ios":"levelo://app?vid=7278b5a3-7066-4fbd-8443-4750e11195fc"},"vehicle_type_id":"4","last_reported":1778434832,"current_range_meters":4800,"station_id":"ce4bhah2rcd13ifvqei0","pricing_plan_id":"cebpf4jnsgd1na2vs0mg"},{"bike_id":"323e4707-b629-4d35-ab4e-66a5c4e389f5","system_id":"levelo_inurba_marseille","lat":43.29193,"lon":5.35781,"is_reserved":false,"is_disabled":true,"rental_uris":{"android":"levelo://app?vid=323e4707-b629-4d35-ab4e-66a5c4e389f5","ios":"levelo://app?vid=323e4707-b629-4d35-ab4e-66a5c4e389f5"},"vehicle_type_id":"4","last_reported":1778434832,"current_range_meters":4800,"station_id":"ce4bhb12rcd13ifvqel0","pricing_plan_id":"cebpf4jnsgd1na2vs0mg"},{"bike_id":"5e506c32-8063-47a0-a03b-0e18aefd7f60","system_id":"levelo_inurba_marseille","lat":43.24092,"lon":5.37724,"is_reserved":false,"is_disabled":true,"rental_uris":{"android":"levelo://app?vid=5e506c32-8063-47a0-a03b-0e18aefd7f60","ios":"levelo://app?vid=5e506c32-8063-47a0-a03b-0e18aefd7f60"},"vehicle_type_id":"4","last_reported":1778434832,"current_range_meters":5600,"station_id":"ce4bhnp2rcd13ifvqgvg","pricing_plan_id":"cebpf4jnsgd1na2vs0mg"},{"bike_id":"8de89280-2a61-4268-b817-bf90021f9ced","system_id":"levelo_inurba_marseille","lat":43.3207,"lon":5.36826,"is_reserved":false,"is_disabled":false,"rental_uris":{"android":"levelo://app?vid=8de89280-2a61-4268-b817-bf90021f9ced","ios":"levelo://app?vid=8de89280-2a61-4268-b817-bf90021f9ced"},"vehicle_type_id":"4","last_reported":1778434832,"current_range_meters":5600,"station_id":"ce4bhrh2rcd13ifvqhug","pricing_plan_id":"cebpf4jnsgd1na2vs0mg"},{"bike_id":"6dec282d-38ec-4336-8ede-9a1772e1298f","system_id":"levelo_inurba_marseille","lat":43.29672,"lon":5.38005,"is_reserved":false,"is_disabled":false,"rental_uris":{"android":"levelo://app?vid=6dec282d-38ec-4336-8ede-9a1772e1298f","ios":"levelo://app?vid=6dec282d-38ec-4336-8ede-9a1772e1298f"},"vehicle_type_id":"4","last_reported":1778434832,"current_range_meters":5600,"station_id":"","pricing_plan_id":"cebpf4jnsgd1na2vs0mg"},{"bike_id":"e5f0fbb4-b8dc-4aa1-9466-61d5f4ac958f","system_id":"levelo_inurba_marseille","lat":43.29032,"lon":5.38129,"is_reserved":false,"is_disabled":true,"rental_uris":{"android":"levelo://app?vid=e5f0fbb4-b8dc-4aa1-9466-61d5f4ac958f","ios":"levelo://app?vid=e5f0fbb4-b8dc-4aa1-9466-61d5f4ac958f"},"vehicle_type_id":"4","last_reported":1778434832,"current_range_meters":5600,"station_id":"ce4bh4p2rcd13ifvqe1g","pricing_plan_id":"cebpf4jnsgd1na2vs0mg"},{"bike_id":"17cc4c0a-4b5f-4e18-aeb2-472d34557615","system_id":"levelo_inurba_marseille","lat":43.28638,"lon":5.46463,"is_reserved":false,"is_disabled":false,"rental_uris":{"android":"levelo://app?vid=17cc4c0a-4b5f-4e18-aeb2-472d34557615","ios":"levelo://app?vid=17cc4c0a-4b5f-4e18-aeb2-472d34557615"},"vehicle_type_id":"4","last_reported":1778434832,"current_range_meters":5600,"station_id":"st_d6tc3vkotcvc738tfjhg","pricing_plan_id":"cebpf4jnsgd1na2vs0mg"},{"bike_id":"7038e266-7dfa-42fa-8e91-50f179aa7f0e","system_id":"levelo_inurba_marseille","lat":43.33546,"lon":5.3746,"is_reserved":false,"is_disabled":false,"rental_uris":{"android":"levelo://app?vid=7038e266-7dfa-42fa-8e91-50f179aa7f0e","ios":"levelo://app?vid=7038e266-7dfa-42fa-8e91-50f179aa7f0e"},"vehicle_type_id":"4","last_reported":1778434832,"current_range_meters":5600,"station_id":"st_d46tts09ee8s73dlu43g","pricing_plan_id":"cebpf4jnsgd1na2vs0mg"},{"bike_id":"ad824b62-ba8d-40e6-a073-14a810f8f6bf","system_id":"levelo_inurba_marseille","lat":43.26068,"lon":5.39401,"is_reserved":false,"is_disabled":false,"rental_uris":{"android":"levelo://app?vid=ad824b62-ba8d-40e6-a073-14a810f8f6bf","ios":"levelo://app?vid=ad824b62-ba8d-40e6-a073-14a810f8f6bf"},"vehicle_type_id":"4","last_reported":1778434832,"current_range_meters":5600,"station_id":"ce4bhh92rcd13ifvqfj0","pricing_plan_id":"cebpf4jnsgd1na2vs0mg"},{"bike_id":"0152740e-06db-4ade-88eb-e3632fbb8a1f","system_id":"levelo_inurba_marseille","lat":43.28314,"lon":5.35093,"is_reserved":false,"is_disabled":true,"rental_uris":{"android":"levelo://app?vid=0152740e-06db-4ade-88eb-e3632fbb8a1f","ios":"levelo://app?vid=0152740e-06db-4ade-88eb-e3632fbb8a1f"},"vehicle_type_id":"4","last_reported":1778434832,"current_range_meters":5600,"station_id":"","pricing_plan_id":"cebpf4jnsgd1na2vs0mg"},{"bike_id":"147a4cde-83e7-4d1a-9487-5b4c45228b9b","system_id":"levelo_inurba_marseille","lat":43.33168,"lon":5.37694,"is_reserved":false,"is_disabled":false,"rental_uris":{"android":"levelo://app?vid=147a4cde-83e7-4d1a-9487-5b4c45228b9b","ios":"levelo://app?vid=147a4cde-83e7-4d1a-9487-5b4c45228b9b"},"vehicle_type_id":"4","last_reported":1778434832,"current_range_meters":5600,"station_id":"st_d46cu089ee8s73dldbu0","pricing_plan_id":"cebpf4jnsgd1na2vs0mg"},{"bike_id":"7017c387-278c-4b8c-9782-aa80dc34ecbe","system_id":"levelo_inurba_marseille","lat":43.23879,"lon":5.37479,"is_reserved":false,"is_disabled":true,"rental_uris":{"android":"levelo://app?vid=7017c387-278c-4b8c-9782-aa80dc34ecbe","ios":"levelo://app?vid=7017c387-278c-4b8c-9782-aa80dc34ecbe"},"vehicle_type_id":"4","last_reported":1778434832,"current_range_meters":5600,"station_id":"st_d6sm7csbq4hs73f8fpjg","pricing_plan_id":"cebpf4jnsgd1na2vs0mg"},{"bike_id":"f289a609-c36a-4e99-bba2-cdf1bda26ac9","system_id":"levelo_inurba_marseille","lat":43.26224,"lon":5.38773,"is_reserved":false,"is_disabled":false,"rental_uris":{"android":"levelo://app?vid=f289a609-c36a-4e99-bba2-cdf1bda26ac9","ios":"levelo://app?vid=f289a609-c36a-4e99-bba2-cdf1bda26ac9"},"vehicle_type_id":"4","last_reported":1778434832,"current_range_meters":5600,"station_id":"","pricing_plan_id":"cebpf4jnsgd1na2vs0mg"},{"bike_id":"45f8fdb7-2cb1-45b9-8a88-adeab1f325d7","system_id":"levelo_inurba_marseille","lat":43.29237,"lon":5.38326,"is_reserved":false,"is_disabled":false,"rental_uris":{"android":"levelo://app?vid=45f8fdb7-2cb1-45b9-8a88-adeab1f325d7","ios":"levelo://app?vid=45f8fdb7-2cb1-45b9-8a88-adeab1f325d7"},"vehicle_type_id":"4","last_reported":1778434832,"current_range_meters":5600,"station_id":"","pricing_plan_id":"cebpf4jnsgd1na2vs0mg"},{"bike_id":"dba4a746-d304-4a19-9656-8bfd1d58f07e","system_id":"levelo_inurba_marseille","lat":43.27985,"lon":5.41658,"is_reserved":false,"is_disabled":false,"rental_uris":{"android":"levelo://app?vid=dba4a746-d304-4a19-9656-8bfd1d58f07e","ios":"levelo://app?vid=dba4a746-d304-4a19-9656-8bfd1d58f07e"},"vehicle_type_id":"4","last_reported":1778434832,"current_range_meters":6000,"station_id":"ce4bho12rcd13ifvqh1g","pricing_plan_id":"cebpf4jnsgd1na2vs0mg"},{"bike_id":"8351b836-b458-4e50-bd94-7b7b9083100d","system_id":"levelo_inurba_marseille","lat":43.28633,"lon":5.3509,"is_reserved":false,"is_disabled":false,"rental_uris":{"android":"levelo://app?vid=8351b836-b458-4e50-bd94-7b7b9083100d","ios":"levelo://app?vid=8351b836-b458-4e50-bd94-7b7b9083100d"},"vehicle_type_id":"4","last_reported":1778434832,"current_range_meters":6000,"station_id":"ce4bhch2rcd13ifvqeug","pricing_plan_id":"cebpf4jnsgd1na2vs0mg"},{"bike_id":"9dc61640-987a-437c-ada7-637d7471e1db","system_id":"levelo_inurba_marseille","lat":43.33002,"lon":5.37457,"is_reserved":false,"is_disabled":false,"rental_uris":{"android":"levelo://app?vid=9dc61640-987a-437c-ada7-637d7471e1db","ios":"levelo://app?vid=9dc61640-987a-437c-ada7-637d7471e1db"},"vehicle_type_id":"4","last_reported":1778434832,"current_range_meters":6000,"station_id":"","pricing_plan_id":"cebpf4jnsgd1na2vs0mg"},{"bike_id":"8ef16af9-67c0-466d-aa89-61b55eb65a8a","system_id":"levelo_inurba_marseille","lat":43.27451,"lon":5.39402,"is_reserved":false,"is_disabled":true,"rental_uris":{"android":"levelo://app?vid=8ef16af9-67c0-466d-aa89-61b55eb65a8a","ios":"levelo://app?vid=8ef16af9-67c0-466d-aa89-61b55eb65a8a"},"vehicle_type_id":"4","last_reported":1778434832,"current_range_meters":6000,"station_id":"ce4bhdp2rcd13ifvqf20","pricing_plan_id":"cebpf4jnsgd1na2vs0mg"},{"bike_id":"b6c92175-e10d-49b8-8a34-f290881ecd96","system_id":"levelo_inurba_marseille","lat":43.255665,"lon":5.382279,"is_reserved":false,"is_disabled":false,"rental_uris":{"android":"levelo://app?vid=b6c92175-e10d-49b8-8a34-f290881ecd96","ios":"levelo://app?vid=b6c92175-e10d-49b8-8a34-f290881ecd96"},"vehicle_type_id":"4","last_reported":1778434832,"current_range_meters":6000,"station_id":"ce4bhih2rcd13ifvqfs0","pricing_plan_id":"cebpf4jnsgd1na2vs0mg"},{"bike_id":"24af17ce-9205-4a6b-96e2-d5bf90bbb0b5","system_id":"levelo_inurba_marseille","lat":43.29896,"lon":5.38147,"is_reserved":false,"is_disabled":false,"rental_uris":{"android":"levelo://app?vid=24af17ce-9205-4a6b-96e2-d5bf90bbb0b5","ios":"levelo://app?vid=24af17ce-9205-4a6b-96e2-d5bf90bbb0b5"},"vehicle_type_id":"4","last_reported":1778434832,"current_range_meters":6000,"station_id":"ce4bgj12rcd13ifvqbc0","pricing_plan_id":"cebpf4jnsgd1na2vs0mg"},{"bike_id":"d5f0dc25-4592-44f7-8db4-ee52a35f69ad","system_id":"levelo_inurba_marseille","lat":43.28474,"lon":5.48385,"is_reserved":false,"is_disabled":false,"rental_uris":{"android":"levelo://app?vid=d5f0dc25-4592-44f7-8db4-ee52a35f69ad","ios":"levelo://app?vid=d5f0dc25-4592-44f7-8db4-ee52a35f69ad"},"vehicle_type_id":"4","last_reported":1778434832,"current_range_meters":6000,"station_id":"","pricing_plan_id":"cebpf4jnsgd1na2vs0mg"},{"bike_id":"c8447383-7b52-438d-b516-7498cfd26d9a","system_id":"levelo_inurba_marseille","lat":43.30581,"lon":5.36509,"is_reserved":false,"is_disabled":true,"rental_uris":{"android":"levelo://app?vid=c8447383-7b52-438d-b516-7498cfd26d9a","ios":"levelo://app?vid=c8447383-7b52-438d-b516-7498cfd26d9a"},"vehicle_type_id":"4","last_reported":1778434832,"current_range_meters":6000,"station_id":"ce4bgs12rcd13ifvqcag","pricing_plan_id":"cebpf4jnsgd1na2vs0mg"},{"bike_id":"36e91cab-ca90-49ac-beff-eed3c5efe689","system_id":"levelo_inurba_marseille","lat":43.30548,"lon":5.36673,"is_reserved":false,"is_disabled":false,"rental_uris":{"android":"levelo://app?vid=36e91cab-ca90-49ac-beff-eed3c5efe689","ios":"levelo://app?vid=36e91cab-ca90-49ac-beff-eed3c5efe689"},"vehicle_type_id":"4","last_reported":1778434832,"current_range_meters":6000,"station_id":"","pricing_plan_id":"cebpf4jnsgd1na2vs0mg"},{"bike_id":"e8949b55-f495-4cbe-8589-f154a700456e","system_id":"levelo_inurba_marseille","lat":43.286714,"lon":5.363404,"is_reserved":false,"is_disabled":false,"rental_uris":{"android":"levelo://app?vid=e8949b55-f495-4cbe-8589-f154a700456e","ios":"levelo://app?vid=e8949b55-f495-4cbe-8589-f154a700456e"},"vehicle_type_id":"4","last_reported":1778434832,"current_range_meters":6000,"station_id":"ce4bhah2rcd13ifvqej0","pricing_plan_id":"cebpf4jnsgd1na2vs0mg"},{"bike_id":"bc0dff82-aa50-46ef-bb16-ecce4d346b43","system_id":"levelo_inurba_marseille","lat":43.28612,"lon":5.35103,"is_reserved":false,"is_disabled":false,"rental_uris":{"android":"levelo://app?vid=bc0dff82-aa50-46ef-bb16-ecce4d346b43","ios":"levelo://app?vid=bc0dff82-aa50-46ef-bb16-ecce4d346b43"},"vehicle_type_id":"4","last_reported":1778434832,"current_range_meters":6400,"station_id":"ce4bhch2rcd13ifvqeug","pricing_plan_id":"cebpf4jnsgd1na2vs0mg"},{"bike_id":"51ac79da-73b8-40fe-8601-c8f3e1221081","system_id":"levelo_inurba_marseille","lat":43.29076,"lon":5.39964,"is_reserved":false,"is_disabled":false,"rental_uris":{"android":"levelo://app?vid=51ac79da-73b8-40fe-8601-c8f3e1221081","ios":"levelo://app?vid=51ac79da-73b8-40fe-8601-c8f3e1221081"},"vehicle_type_id":"4","last_reported":1778434832,"current_range_meters":6400,"station_id":"ce4bh392rcd13ifvqdm0","pricing_plan_id":"cebpf4jnsgd1na2vs0mg"},{"bike_id":"2506be62-85f3-41a6-b103-e5faab53b5ba","system_id":"levelo_inurba_marseille","lat":43.27552,"lon":5.38424,"is_reserved":false,"is_disabled":true,"rental_uris":{"android":"levelo://app?vid=2506be62-85f3-41a6-b103-e5faab53b5ba","ios":"levelo://app?vid=2506be62-85f3-41a6-b103-e5faab53b5ba"},"vehicle_type_id":"4","last_reported":1778434832,"current_range_meters":6400,"station_id":"ce4bhh92rcd13ifvqfi0","pricing_plan_id":"cebpf4jnsgd1na2vs0mg"},{"bike_id":"8125f414-8ed3-4a61-a166-5bf2bd768e50","system_id":"levelo_inurba_marseille","lat":43.28389,"lon":5.37525,"is_reserved":false,"is_disabled":false,"rental_uris":{"android":"levelo://app?vid=8125f414-8ed3-4a61-a166-5bf2bd768e50","ios":"levelo://app?vid=8125f414-8ed3-4a61-a166-5bf2bd768e50"},"vehicle_type_id":"4","last_reported":1778434832,"current_range_meters":6400,"station_id":"ce4bh412rcd13ifvqds0","pricing_plan_id":"cebpf4jnsgd1na2vs0mg"},{"bike_id":"943cf82b-777f-474d-9abb-0bc061b7cd0c","system_id":"levelo_inurba_marseille","lat":43.2971,"lon":5.36612,"is_reserved":false,"is_disabled":true,"rental_uris":{"android":"levelo://app?vid=943cf82b-777f-474d-9abb-0bc061b7cd0c","ios":"levelo://app?vid=943cf82b-777f-474d-9abb-0bc061b7cd0c"},"vehicle_type_id":"4","last_reported":1778434832,"current_range_meters":6400,"station_id":"ce4bgn12rcd13ifvqbt0","pricing_plan_id":"cebpf4jnsgd1na2vs0mg"},{"bike_id":"f5b7da48-8f36-48f3-8f29-b8999120bea8","system_id":"levelo_inurba_marseille","lat":43.287274,"lon":5.360844,"is_reserved":false,"is_disabled":false,"rental_uris":{"android":"levelo://app?vid=f5b7da48-8f36-48f3-8f29-b8999120bea8","ios":"levelo://app?vid=f5b7da48-8f36-48f3-8f29-b8999120bea8"},"vehicle_type_id":"4","last_reported":1778434832,"current_range_meters":6400,"station_id":"cki0cbj6b192h4jlfktg","pricing_plan_id":"cebpf4jnsgd1na2vs0mg"},{"bike_id":"2a10f88f-9d4c-47c3-8c89-9fe21d53aeab","system_id":"levelo_inurba_marseille","lat":43.28368,"lon":5.37557,"is_reserved":false,"is_disabled":true,"rental_uris":{"android":"levelo://app?vid=2a10f88f-9d4c-47c3-8c89-9fe21d53aeab","ios":"levelo://app?vid=2a10f88f-9d4c-47c3-8c89-9fe21d53aeab"},"vehicle_type_id":"4","last_reported":1778434832,"current_range_meters":6400,"station_id":"","pricing_plan_id":"cebpf4jnsgd1na2vs0mg"},{"bike_id":"43ec9c65-e87a-4e85-86f3-9260a882dc04","system_id":"levelo_inurba_marseille","lat":43.30137,"lon":5.4312,"is_reserved":false,"is_disabled":true,"rental_uris":{"android":"levelo://app?vid=43ec9c65-e87a-4e85-86f3-9260a882dc04","ios":"levelo://app?vid=43ec9c65-e87a-4e85-86f3-9260a882dc04"},"vehicle_type_id":"4","last_reported":1778434832,"current_range_meters":6400,"station_id":"st_d3js3co5814s73ftftug","pricing_plan_id":"cebpf4jnsgd1na2vs0mg"},{"bike_id":"0430b939-0a1a-4600-93cd-ce6a1e4067ff","system_id":"levelo_inurba_marseille","lat":43.25509,"lon":5.37643,"is_reserved":false,"is_disabled":false,"rental_uris":{"android":"levelo://app?vid=0430b939-0a1a-4600-93cd-ce6a1e4067ff","ios":"levelo://app?vid=0430b939-0a1a-4600-93cd-ce6a1e4067ff"},"vehicle_type_id":"4","last_reported":1778434832,"current_range_meters":6400,"station_id":"ce4bhh12rcd13ifvqff0","pricing_plan_id":"cebpf4jnsgd1na2vs0mg"},{"bike_id":"76645867-9226-4148-a6ac-b7d91fe256ae","system_id":"levelo_inurba_marseille","lat":43.29913,"lon":5.37462,"is_reserved":false,"is_disabled":true,"rental_uris":{"android":"levelo://app?vid=76645867-9226-4148-a6ac-b7d91fe256ae","ios":"levelo://app?vid=76645867-9226-4148-a6ac-b7d91fe256ae"},"vehicle_type_id":"4","last_reported":1778434832,"current_range_meters":6400,"station_id":"","pricing_plan_id":"cebpf4jnsgd1na2vs0mg"},{"bike_id":"e16b2f5d-7245-403e-8e0c-40d392cb49f0","system_id":"levelo_inurba_marseille","lat":43.246526,"lon":5.381679,"is_reserved":false,"is_disabled":false,"rental_uris":{"android":"levelo://app?vid=e16b2f5d-7245-403e-8e0c-40d392cb49f0","ios":"levelo://app?vid=e16b2f5d-7245-403e-8e0c-40d392cb49f0"},"vehicle_type_id":"4","last_reported":1778434832,"current_range_meters":6400,"station_id":"ce4bhih2rcd13ifvqfr0","pricing_plan_id":"cebpf4jnsgd1na2vs0mg"},{"bike_id":"8f68cbe4-6b12-48b2-a1fb-2758d6a8a067","system_id":"levelo_inurba_marseille","lat":43.29014,"lon":5.35612,"is_reserved":false,"is_disabled":false,"rental_uris":{"android":"levelo://app?vid=8f68cbe4-6b12-48b2-a1fb-2758d6a8a067","ios":"levelo://app?vid=8f68cbe4-6b12-48b2-a1fb-2758d6a8a067"},"vehicle_type_id":"4","last_reported":1778434832,"current_range_meters":6800,"station_id":"ce4bhb92rcd13ifvqen0","pricing_plan_id":"cebpf4jnsgd1na2vs0mg"},{"bike_id":"66969438-299e-490d-ab31-e463b9efa104","system_id":"levelo_inurba_marseille","lat":43.2847,"lon":5.48404,"is_reserved":false,"is_disabled":false,"rental_uris":{"android":"levelo://app?vid=66969438-299e-490d-ab31-e463b9efa104","ios":"levelo://app?vid=66969438-299e-490d-ab31-e463b9efa104"},"vehicle_type_id":"4","last_reported":1778434832,"current_range_meters":6800,"station_id":"","pricing_plan_id":"cebpf4jnsgd1na2vs0mg"},{"bike_id":"f1c24aa7-e0ea-48cf-976a-1ab897ce524d","system_id":"levelo_inurba_marseille","lat":43.29988,"lon":5.37192,"is_reserved":false,"is_disabled":true,"rental_uris":{"android":"levelo://app?vid=f1c24aa7-e0ea-48cf-976a-1ab897ce524d","ios":"levelo://app?vid=f1c24aa7-e0ea-48cf-976a-1ab897ce524d"},"vehicle_type_id":"4","last_reported":1778434832,"current_range_meters":6800,"station_id":"ce4bgr92rcd13ifvqc7g","pricing_plan_id":"cebpf4jnsgd1na2vs0mg"},{"bike_id":"8c36f14f-0ea0-4eaf-8ef4-0bf3049421ef","system_id":"levelo_inurba_marseille","lat":43.30186,"lon":5.39967,"is_reserved":false,"is_disabled":false,"rental_uris":{"android":"levelo://app?vid=8c36f14f-0ea0-4eaf-8ef4-0bf3049421ef","ios":"levelo://app?vid=8c36f14f-0ea0-4eaf-8ef4-0bf3049421ef"},"vehicle_type_id":"4","last_reported":1778434832,"current_range_meters":6800,"station_id":"","pricing_plan_id":"cebpf4jnsgd1na2vs0mg"},{"bike_id":"59827150-34e3-4aef-a8c3-9fd1f0af10d9","system_id":"levelo_inurba_marseille","lat":43.23428,"lon":5.41212,"is_reserved":false,"is_disabled":false,"rental_uris":{"android":"levelo://app?vid=59827150-34e3-4aef-a8c3-9fd1f0af10d9","ios":"levelo://app?vid=59827150-34e3-4aef-a8c3-9fd1f0af10d9"},"vehicle_type_id":"4","last_reported":1778434832,"current_range_meters":6800,"station_id":"st_d75pvndhf9lc73cqq3eg","pricing_plan_id":"cebpf4jnsgd1na2vs0mg"},{"bike_id":"f3663f60-dbbf-48c6-8470-0b2e2be6f100","system_id":"levelo_inurba_marseille","lat":43.26448,"lon":5.41013,"is_reserved":false,"is_disabled":false,"rental_uris":{"android":"levelo://app?vid=f3663f60-dbbf-48c6-8470-0b2e2be6f100","ios":"levelo://app?vid=f3663f60-dbbf-48c6-8470-0b2e2be6f100"},"vehicle_type_id":"4","last_reported":1778434832,"current_range_meters":6800,"station_id":"st_d4e5ca6na9uc73bfl5fg","pricing_plan_id":"cebpf4jnsgd1na2vs0mg"},{"bike_id":"33c853a4-d3bd-40c8-a0e3-17178876022d","system_id":"levelo_inurba_marseille","lat":43.30542,"lon":5.36549,"is_reserved":false,"is_disabled":false,"rental_uris":{"android":"levelo://app?vid=33c853a4-d3bd-40c8-a0e3-17178876022d","ios":"levelo://app?vid=33c853a4-d3bd-40c8-a0e3-17178876022d"},"vehicle_type_id":"4","last_reported":1778434832,"current_range_meters":6800,"station_id":"ce4bgs12rcd13ifvqcag","pricing_plan_id":"cebpf4jnsgd1na2vs0mg"},{"bike_id":"fd218b19-8f33-4a74-8ae4-8251c7a63f98","system_id":"levelo_inurba_marseille","lat":43.24633,"lon":5.43156,"is_reserved":false,"is_disabled":false,"rental_uris":{"android":"levelo://app?vid=fd218b19-8f33-4a74-8ae4-8251c7a63f98","ios":"levelo://app?vid=fd218b19-8f33-4a74-8ae4-8251c7a63f98"},"vehicle_type_id":"4","last_reported":1778434832,"current_range_meters":6800,"station_id":"st_d2m6c4gdas8pm72e190g","pricing_plan_id":"cebpf4jnsgd1na2vs0mg"},{"bike_id":"8395579b-8f38-41a7-86cb-d8270590e280","system_id":"levelo_inurba_marseille","lat":43.25752,"lon":5.41108,"is_reserved":false,"is_disabled":false,"rental_uris":{"android":"levelo://app?vid=8395579b-8f38-41a7-86cb-d8270590e280","ios":"levelo://app?vid=8395579b-8f38-41a7-86cb-d8270590e280"},"vehicle_type_id":"4","last_reported":1778434832,"current_range_meters":6800,"station_id":"ce4bhkp2rcd13ifvqgd0","pricing_plan_id":"cebpf4jnsgd1na2vs0mg"},{"bike_id":"291028f7-956b-4f01-9660-75967269f4ff","system_id":"levelo_inurba_marseille","lat":43.30111,"lon":5.39074,"is_reserved":false,"is_disabled":true,"rental_uris":{"android":"levelo://app?vid=291028f7-956b-4f01-9660-75967269f4ff","ios":"levelo://app?vid=291028f7-956b-4f01-9660-75967269f4ff"},"vehicle_type_id":"4","last_reported":1778434832,"current_range_meters":6800,"station_id":"ce4bh192rcd13ifvqdb0","pricing_plan_id":"cebpf4jnsgd1na2vs0mg"},{"bike_id":"6be1be21-8155-4845-b665-1dad8a6c6bf4","system_id":"levelo_inurba_marseille","lat":43.28619,"lon":5.35094,"is_reserved":false,"is_disabled":true,"rental_uris":{"android":"levelo://app?vid=6be1be21-8155-4845-b665-1dad8a6c6bf4","ios":"levelo://app?vid=6be1be21-8155-4845-b665-1dad8a6c6bf4"},"vehicle_type_id":"4","last_reported":1778434832,"current_range_meters":6800,"station_id":"ce4bhch2rcd13ifvqeug","pricing_plan_id":"cebpf4jnsgd1na2vs0mg"},{"bike_id":"0837f443-9035-402b-a67c-b5168a8333fd","system_id":"levelo_inurba_marseille","lat":43.27024,"lon":5.40261,"is_reserved":false,"is_disabled":false,"rental_uris":{"android":"levelo://app?vid=0837f443-9035-402b-a67c-b5168a8333fd","ios":"levelo://app?vid=0837f443-9035-402b-a67c-b5168a8333fd"},"vehicle_type_id":"4","last_reported":1778434832,"current_range_meters":6800,"station_id":"ce4bhk92rcd13ifvqgc0","pricing_plan_id":"cebpf4jnsgd1na2vs0mg"},{"bike_id":"10032cbe-ae38-4812-b75e-e14f8fae2b66","system_id":"levelo_inurba_marseille","lat":43.2866,"lon":5.36356,"is_reserved":false,"is_disabled":false,"rental_uris":{"android":"levelo://app?vid=10032cbe-ae38-4812-b75e-e14f8fae2b66","ios":"levelo://app?vid=10032cbe-ae38-4812-b75e-e14f8fae2b66"},"vehicle_type_id":"4","last_reported":1778434832,"current_range_meters":6800,"station_id":"ce4bhah2rcd13ifvqej0","pricing_plan_id":"cebpf4jnsgd1na2vs0mg"},{"bike_id":"d4540253-c9ac-4127-82c4-03cac9441e10","system_id":"levelo_inurba_marseille","lat":43.243872,"lon":5.370605,"is_reserved":false,"is_disabled":false,"rental_uris":{"android":"levelo://app?vid=d4540253-c9ac-4127-82c4-03cac9441e10","ios":"levelo://app?vid=d4540253-c9ac-4127-82c4-03cac9441e10"},"vehicle_type_id":"4","last_reported":1778434832,"current_range_meters":6800,"station_id":"ce4bhhh2rcd13ifvqfk0","pricing_plan_id":"cebpf4jnsgd1na2vs0mg"},{"bike_id":"e7851071-634f-4696-b1e3-b9aa83f58389","system_id":"levelo_inurba_marseille","lat":43.2551,"lon":5.37653,"is_reserved":false,"is_disabled":false,"rental_uris":{"android":"levelo://app?vid=e7851071-634f-4696-b1e3-b9aa83f58389","ios":"levelo://app?vid=e7851071-634f-4696-b1e3-b9aa83f58389"},"vehicle_type_id":"4","last_reported":1778434832,"current_range_meters":6800,"station_id":"ce4bhh12rcd13ifvqff0","pricing_plan_id":"cebpf4jnsgd1na2vs0mg"},{"bike_id":"019248d2-541c-4fa1-abbd-e47be97aa96b","system_id":"levelo_inurba_marseille","lat":43.25364,"lon":5.42185,"is_reserved":false,"is_disabled":true,"rental_uris":{"android":"levelo://app?vid=019248d2-541c-4fa1-abbd-e47be97aa96b","ios":"levelo://app?vid=019248d2-541c-4fa1-abbd-e47be97aa96b"},"vehicle_type_id":"4","last_reported":1778434832,"current_range_meters":6800,"station_id":"st_d2m65c5bi1j21697t3ng","pricing_plan_id":"cebpf4jnsgd1na2vs0mg"},{"bike_id":"f38ef7cf-ea5f-432e-bea7-600f1bad7d0d","system_id":"levelo_inurba_marseille","lat":43.29287,"lon":5.37438,"is_reserved":false,"is_disabled":false,"rental_uris":{"android":"levelo://app?vid=f38ef7cf-ea5f-432e-bea7-600f1bad7d0d","ios":"levelo://app?vid=f38ef7cf-ea5f-432e-bea7-600f1bad7d0d"},"vehicle_type_id":"4","last_reported":1778434832,"current_range_meters":6800,"station_id":"ce4bgi12rcd13ifvqb70","pricing_plan_id":"cebpf4jnsgd1na2vs0mg"},{"bike_id":"b06f2ec6-776d-475e-9b25-b0220ee97636","system_id":"levelo_inurba_marseille","lat":43.313727,"lon":5.366972,"is_reserved":false,"is_disabled":false,"rental_uris":{"android":"levelo://app?vid=b06f2ec6-776d-475e-9b25-b0220ee97636","ios":"levelo://app?vid=b06f2ec6-776d-475e-9b25-b0220ee97636"},"vehicle_type_id":"4","last_reported":1778434832,"current_range_meters":6800,"station_id":"ce4bgr92rcd13ifvqc6g","pricing_plan_id":"cebpf4jnsgd1na2vs0mg"},{"bike_id":"adad9c44-f649-4e3f-9c6d-dc7040e2d6b7","system_id":"levelo_inurba_marseille","lat":43.290406,"lon":5.386374,"is_reserved":false,"is_disabled":false,"rental_uris":{"android":"levelo://app?vid=adad9c44-f649-4e3f-9c6d-dc7040e2d6b7","ios":"levelo://app?vid=adad9c44-f649-4e3f-9c6d-dc7040e2d6b7"},"vehicle_type_id":"4","last_reported":1778434832,"current_range_meters":6800,"station_id":"","pricing_plan_id":"cebpf4jnsgd1na2vs0mg"},{"bike_id":"a1d66207-ff5d-4a71-b148-d595e314ee4a","system_id":"levelo_inurba_marseille","lat":43.28795,"lon":5.42419,"is_reserved":false,"is_disabled":false,"rental_uris":{"android":"levelo://app?vid=a1d66207-ff5d-4a71-b148-d595e314ee4a","ios":"levelo://app?vid=a1d66207-ff5d-4a71-b148-d595e314ee4a"},"vehicle_type_id":"4","last_reported":1778434832,"current_range_meters":6800,"station_id":"","pricing_plan_id":"cebpf4jnsgd1na2vs0mg"},{"bike_id":"e7516044-4e84-4d65-b866-9f63aecad1de","system_id":"levelo_inurba_marseille","lat":43.23973,"lon":5.36617,"is_reserved":false,"is_disabled":false,"rental_uris":{"android":"levelo://app?vid=e7516044-4e84-4d65-b866-9f63aecad1de","ios":"levelo://app?vid=e7516044-4e84-4d65-b866-9f63aecad1de"},"vehicle_type_id":"4","last_reported":1778434832,"current_range_meters":7200,"station_id":"ce4bhi12rcd13ifvqfp0","pricing_plan_id":"cebpf4jnsgd1na2vs0mg"},{"bike_id":"31398a4d-4b5e-484e-bd5a-d9f31bc295bd","system_id":"levelo_inurba_marseille","lat":43.25082,"lon":5.39496,"is_reserved":false,"is_disabled":false,"rental_uris":{"android":"levelo://app?vid=31398a4d-4b5e-484e-bd5a-d9f31bc295bd","ios":"levelo://app?vid=31398a4d-4b5e-484e-bd5a-d9f31bc295bd"},"vehicle_type_id":"4","last_reported":1778434832,"current_range_meters":7200,"station_id":"ce4bhm12rcd13ifvqgkg","pricing_plan_id":"cebpf4jnsgd1na2vs0mg"},{"bike_id":"19fcb531-afbf-4fbb-8cfa-4fdace7952bb","system_id":"levelo_inurba_marseille","lat":43.297066,"lon":5.376863,"is_reserved":false,"is_disabled":false,"rental_uris":{"android":"levelo://app?vid=19fcb531-afbf-4fbb-8cfa-4fdace7952bb","ios":"levelo://app?vid=19fcb531-afbf-4fbb-8cfa-4fdace7952bb"},"vehicle_type_id":"4","last_reported":1778434832,"current_range_meters":7200,"station_id":"ce4bgkh2rcd13ifvqbl0","pricing_plan_id":"cebpf4jnsgd1na2vs0mg"},{"bike_id":"05873d3e-2f07-45ee-9c3a-8f47e65ca722","system_id":"levelo_inurba_marseille","lat":43.29884,"lon":5.39732,"is_reserved":false,"is_disabled":true,"rental_uris":{"android":"levelo://app?vid=05873d3e-2f07-45ee-9c3a-8f47e65ca722","ios":"levelo://app?vid=05873d3e-2f07-45ee-9c3a-8f47e65ca722"},"vehicle_type_id":"4","last_reported":1778434832,"current_range_meters":7200,"station_id":"ce4bh0h2rcd13ifvqd50","pricing_plan_id":"cebpf4jnsgd1na2vs0mg"},{"bike_id":"c2654815-5136-468d-9bc4-fbe9dc1ec491","system_id":"levelo_inurba_marseille","lat":43.32492,"lon":5.38399,"is_reserved":false,"is_disabled":false,"rental_uris":{"android":"levelo://app?vid=c2654815-5136-468d-9bc4-fbe9dc1ec491","ios":"levelo://app?vid=c2654815-5136-468d-9bc4-fbe9dc1ec491"},"vehicle_type_id":"4","last_reported":1778434832,"current_range_meters":7200,"station_id":"","pricing_plan_id":"cebpf4jnsgd1na2vs0mg"},{"bike_id":"5aac5ee5-4dc1-4743-8137-d80c05c478bd","system_id":"levelo_inurba_marseille","lat":43.28941,"lon":5.36404,"is_reserved":false,"is_disabled":false,"rental_uris":{"android":"levelo://app?vid=5aac5ee5-4dc1-4743-8137-d80c05c478bd","ios":"levelo://app?vid=5aac5ee5-4dc1-4743-8137-d80c05c478bd"},"vehicle_type_id":"4","last_reported":1778434832,"current_range_meters":7200,"station_id":"ce4bhc92rcd13ifvqetg","pricing_plan_id":"cebpf4jnsgd1na2vs0mg"},{"bike_id":"64ee1d1b-107a-4763-9db4-d26752131c23","system_id":"levelo_inurba_marseille","lat":43.25079,"lon":5.39499,"is_reserved":false,"is_disabled":false,"rental_uris":{"android":"levelo://app?vid=64ee1d1b-107a-4763-9db4-d26752131c23","ios":"levelo://app?vid=64ee1d1b-107a-4763-9db4-d26752131c23"},"vehicle_type_id":"4","last_reported":1778434832,"current_range_meters":7200,"station_id":"ce4bhm12rcd13ifvqgkg","pricing_plan_id":"cebpf4jnsgd1na2vs0mg"},{"bike_id":"4516e97d-1ec7-4f67-bd2c-30129b674d6c","system_id":"levelo_inurba_marseille","lat":43.28588,"lon":5.35094,"is_reserved":false,"is_disabled":true,"rental_uris":{"android":"levelo://app?vid=4516e97d-1ec7-4f67-bd2c-30129b674d6c","ios":"levelo://app?vid=4516e97d-1ec7-4f67-bd2c-30129b674d6c"},"vehicle_type_id":"4","last_reported":1778434832,"current_range_meters":7200,"station_id":"ce4bhch2rcd13ifvqeug","pricing_plan_id":"cebpf4jnsgd1na2vs0mg"},{"bike_id":"dd62df0d-0a41-4bac-abf8-b2770a0f384d","system_id":"levelo_inurba_marseille","lat":43.265499,"lon":5.372868,"is_reserved":false,"is_disabled":false,"rental_uris":{"android":"levelo://app?vid=dd62df0d-0a41-4bac-abf8-b2770a0f384d","ios":"levelo://app?vid=dd62df0d-0a41-4bac-abf8-b2770a0f384d"},"vehicle_type_id":"4","last_reported":1778434832,"current_range_meters":7200,"station_id":"ce4bhg12rcd13ifvqf70","pricing_plan_id":"cebpf4jnsgd1na2vs0mg"},{"bike_id":"829aeb58-c649-476d-904d-bd92827ec395","system_id":"levelo_inurba_marseille","lat":43.30877,"lon":5.41193,"is_reserved":false,"is_disabled":false,"rental_uris":{"android":"levelo://app?vid=829aeb58-c649-476d-904d-bd92827ec395","ios":"levelo://app?vid=829aeb58-c649-476d-904d-bd92827ec395"},"vehicle_type_id":"4","last_reported":1778434832,"current_range_meters":7200,"station_id":"","pricing_plan_id":"cebpf4jnsgd1na2vs0mg"},{"bike_id":"be68bf31-6edc-4e09-abfe-f2e9a86d432f","system_id":"levelo_inurba_marseille","lat":43.30189,"lon":5.36628,"is_reserved":false,"is_disabled":false,"rental_uris":{"android":"levelo://app?vid=be68bf31-6edc-4e09-abfe-f2e9a86d432f","ios":"levelo://app?vid=be68bf31-6edc-4e09-abfe-f2e9a86d432f"},"vehicle_type_id":"4","last_reported":1778434832,"current_range_meters":7200,"station_id":"ce4bgrh2rcd13ifvqc8g","pricing_plan_id":"cebpf4jnsgd1na2vs0mg"},{"bike_id":"d88fb0c3-5a50-4b91-899d-069920f26a81","system_id":"levelo_inurba_marseille","lat":43.28616,"lon":5.35109,"is_reserved":false,"is_disabled":false,"rental_uris":{"android":"levelo://app?vid=d88fb0c3-5a50-4b91-899d-069920f26a81","ios":"levelo://app?vid=d88fb0c3-5a50-4b91-899d-069920f26a81"},"vehicle_type_id":"4","last_reported":1778434832,"current_range_meters":7200,"station_id":"ce4bhch2rcd13ifvqeug","pricing_plan_id":"cebpf4jnsgd1na2vs0mg"},{"bike_id":"a2bc18bc-742d-49ea-bbf9-2554b9cd98da","system_id":"levelo_inurba_marseille","lat":43.26046,"lon":5.38631,"is_reserved":false,"is_disabled":false,"rental_uris":{"android":"levelo://app?vid=a2bc18bc-742d-49ea-bbf9-2554b9cd98da","ios":"levelo://app?vid=a2bc18bc-742d-49ea-bbf9-2554b9cd98da"},"vehicle_type_id":"4","last_reported":1778434832,"current_range_meters":7200,"station_id":"","pricing_plan_id":"cebpf4jnsgd1na2vs0mg"},{"bike_id":"a428d1fe-1781-4e88-88cc-9e6a2683e640","system_id":"levelo_inurba_marseille","lat":43.25563,"lon":5.38255,"is_reserved":false,"is_disabled":false,"rental_uris":{"android":"levelo://app?vid=a428d1fe-1781-4e88-88cc-9e6a2683e640","ios":"levelo://app?vid=a428d1fe-1781-4e88-88cc-9e6a2683e640"},"vehicle_type_id":"4","last_reported":1778434832,"current_range_meters":7200,"station_id":"ce4bhih2rcd13ifvqfs0","pricing_plan_id":"cebpf4jnsgd1na2vs0mg"},{"bike_id":"bda29820-c234-464b-9597-a673261b9b46","system_id":"levelo_inurba_marseille","lat":43.28614,"lon":5.37063,"is_reserved":false,"is_disabled":false,"rental_uris":{"android":"levelo://app?vid=bda29820-c234-464b-9597-a673261b9b46","ios":"levelo://app?vid=bda29820-c234-464b-9597-a673261b9b46"},"vehicle_type_id":"4","last_reported":1778434832,"current_range_meters":7200,"station_id":"ce4bht12rcd13ifvqi60","pricing_plan_id":"cebpf4jnsgd1na2vs0mg"},{"bike_id":"18840e6d-4281-4cf9-9931-90626d6ccc76","system_id":"levelo_inurba_marseille","lat":43.29084,"lon":5.37131,"is_reserved":false,"is_disabled":false,"rental_uris":{"android":"levelo://app?vid=18840e6d-4281-4cf9-9931-90626d6ccc76","ios":"levelo://app?vid=18840e6d-4281-4cf9-9931-90626d6ccc76"},"vehicle_type_id":"4","last_reported":1778434832,"current_range_meters":7200,"station_id":"ce4bh5p2rcd13ifvqe4g","pricing_plan_id":"cebpf4jnsgd1na2vs0mg"},{"bike_id":"02849ecd-84ae-4972-8247-931607cdaec0","system_id":"levelo_inurba_marseille","lat":43.28613,"lon":5.35103,"is_reserved":false,"is_disabled":false,"rental_uris":{"android":"levelo://app?vid=02849ecd-84ae-4972-8247-931607cdaec0","ios":"levelo://app?vid=02849ecd-84ae-4972-8247-931607cdaec0"},"vehicle_type_id":"4","last_reported":1778434832,"current_range_meters":7200,"station_id":"ce4bhch2rcd13ifvqeug","pricing_plan_id":"cebpf4jnsgd1na2vs0mg"},{"bike_id":"cccda472-7561-4978-9b74-a8c6197a578e","system_id":"levelo_inurba_marseille","lat":43.33188,"lon":5.37636,"is_reserved":false,"is_disabled":false,"rental_uris":{"android":"levelo://app?vid=cccda472-7561-4978-9b74-a8c6197a578e","ios":"levelo://app?vid=cccda472-7561-4978-9b74-a8c6197a578e"},"vehicle_type_id":"4","last_reported":1778434832,"current_range_meters":7200,"station_id":"st_d46cu089ee8s73dldbu0","pricing_plan_id":"cebpf4jnsgd1na2vs0mg"},{"bike_id":"1dd218e7-8808-4988-81d5-6f6ffc0dee7d","system_id":"levelo_inurba_marseille","lat":43.24651,"lon":5.38894,"is_reserved":false,"is_disabled":false,"rental_uris":{"android":"levelo://app?vid=1dd218e7-8808-4988-81d5-6f6ffc0dee7d","ios":"levelo://app?vid=1dd218e7-8808-4988-81d5-6f6ffc0dee7d"},"vehicle_type_id":"4","last_reported":1778434832,"current_range_meters":7200,"station_id":"ce4bhg12rcd13ifvqf60","pricing_plan_id":"cebpf4jnsgd1na2vs0mg"},{"bike_id":"e88067db-06e7-43fb-8b26-0f29cfb1ca74","system_id":"levelo_inurba_marseille","lat":43.28673,"lon":5.46694,"is_reserved":false,"is_disabled":false,"rental_uris":{"android":"levelo://app?vid=e88067db-06e7-43fb-8b26-0f29cfb1ca74","ios":"levelo://app?vid=e88067db-06e7-43fb-8b26-0f29cfb1ca74"},"vehicle_type_id":"4","last_reported":1778434832,"current_range_meters":7200,"station_id":"st_d6tc3vkotcvc738tfjhg","pricing_plan_id":"cebpf4jnsgd1na2vs0mg"},{"bike_id":"bd013f89-14e0-4bf4-b551-5f21536228af","system_id":"levelo_inurba_marseille","lat":43.26064,"lon":5.3937,"is_reserved":false,"is_disabled":false,"rental_uris":{"android":"levelo://app?vid=bd013f89-14e0-4bf4-b551-5f21536228af","ios":"levelo://app?vid=bd013f89-14e0-4bf4-b551-5f21536228af"},"vehicle_type_id":"4","last_reported":1778434832,"current_range_meters":8000,"station_id":"ce4bhh92rcd13ifvqfj0","pricing_plan_id":"cebpf4jnsgd1na2vs0mg"},{"bike_id":"d55796ed-4e9c-4094-8c61-04073e5fd354","system_id":"levelo_inurba_marseille","lat":43.28143,"lon":5.42684,"is_reserved":false,"is_disabled":false,"rental_uris":{"android":"levelo://app?vid=d55796ed-4e9c-4094-8c61-04073e5fd354","ios":"levelo://app?vid=d55796ed-4e9c-4094-8c61-04073e5fd354"},"vehicle_type_id":"4","last_reported":1778434832,"current_range_meters":8000,"station_id":"ce4bhnh2rcd13ifvqgug","pricing_plan_id":"cebpf4jnsgd1na2vs0mg"},{"bike_id":"3be48547-9755-4740-8c69-194d026c42aa","system_id":"levelo_inurba_marseille","lat":43.28409,"lon":5.37529,"is_reserved":false,"is_disabled":true,"rental_uris":{"android":"levelo://app?vid=3be48547-9755-4740-8c69-194d026c42aa","ios":"levelo://app?vid=3be48547-9755-4740-8c69-194d026c42aa"},"vehicle_type_id":"4","last_reported":1778434832,"current_range_meters":8000,"station_id":"ce4bh412rcd13ifvqds0","pricing_plan_id":"cebpf4jnsgd1na2vs0mg"},{"bike_id":"f3e5f4c8-4e21-43e7-b783-e32e46d7b1d8","system_id":"levelo_inurba_marseille","lat":43.31439,"lon":5.37374,"is_reserved":false,"is_disabled":false,"rental_uris":{"android":"levelo://app?vid=f3e5f4c8-4e21-43e7-b783-e32e46d7b1d8","ios":"levelo://app?vid=f3e5f4c8-4e21-43e7-b783-e32e46d7b1d8"},"vehicle_type_id":"4","last_reported":1778434832,"current_range_meters":8000,"station_id":"","pricing_plan_id":"cebpf4jnsgd1na2vs0mg"},{"bike_id":"80386a2b-e970-41f0-870f-0b66294b34a1","system_id":"levelo_inurba_marseille","lat":43.26399,"lon":5.41026,"is_reserved":false,"is_disabled":false,"rental_uris":{"android":"levelo://app?vid=80386a2b-e970-41f0-870f-0b66294b34a1","ios":"levelo://app?vid=80386a2b-e970-41f0-870f-0b66294b34a1"},"vehicle_type_id":"4","last_reported":1778434832,"current_range_meters":8000,"station_id":"st_d4e5ca6na9uc73bfl5fg","pricing_plan_id":"cebpf4jnsgd1na2vs0mg"},{"bike_id":"e16f3497-994b-4a5e-a623-feda354f6eb9","system_id":"levelo_inurba_marseille","lat":43.29498,"lon":5.43297,"is_reserved":false,"is_disabled":false,"rental_uris":{"android":"levelo://app?vid=e16f3497-994b-4a5e-a623-feda354f6eb9","ios":"levelo://app?vid=e16f3497-994b-4a5e-a623-feda354f6eb9"},"vehicle_type_id":"4","last_reported":1778434832,"current_range_meters":8000,"station_id":"st_d3j5ugp08ojc73fj9d10","pricing_plan_id":"cebpf4jnsgd1na2vs0mg"},{"bike_id":"26c46353-55bc-47c3-9260-64f044b246fd","system_id":"levelo_inurba_marseille","lat":43.26231,"lon":5.40514,"is_reserved":false,"is_disabled":false,"rental_uris":{"android":"levelo://app?vid=26c46353-55bc-47c3-9260-64f044b246fd","ios":"levelo://app?vid=26c46353-55bc-47c3-9260-64f044b246fd"},"vehicle_type_id":"4","last_reported":1778434832,"current_range_meters":8000,"station_id":"","pricing_plan_id":"cebpf4jnsgd1na2vs0mg"},{"bike_id":"85a2c4ce-7c71-46a9-ad68-674bbc81b695","system_id":"levelo_inurba_marseille","lat":43.29038,"lon":5.38637,"is_reserved":false,"is_disabled":false,"rental_uris":{"android":"levelo://app?vid=85a2c4ce-7c71-46a9-ad68-674bbc81b695","ios":"levelo://app?vid=85a2c4ce-7c71-46a9-ad68-674bbc81b695"},"vehicle_type_id":"4","last_reported":1778434832,"current_range_meters":8000,"station_id":"ce4bh4p2rcd13ifvqe0g","pricing_plan_id":"cebpf4jnsgd1na2vs0mg"},{"bike_id":"9419e6b1-d07e-4865-bc84-49f308e929ec","system_id":"levelo_inurba_marseille","lat":43.23311,"lon":5.358,"is_reserved":false,"is_disabled":false,"rental_uris":{"android":"levelo://app?vid=9419e6b1-d07e-4865-bc84-49f308e929ec","ios":"levelo://app?vid=9419e6b1-d07e-4865-bc84-49f308e929ec"},"vehicle_type_id":"4","last_reported":1778434832,"current_range_meters":8000,"station_id":"","pricing_plan_id":"cebpf4jnsgd1na2vs0mg"},{"bike_id":"1bf83d01-c2aa-49e9-b761-777f56954ab5","system_id":"levelo_inurba_marseille","lat":43.24969,"lon":5.405,"is_reserved":false,"is_disabled":false,"rental_uris":{"android":"levelo://app?vid=1bf83d01-c2aa-49e9-b761-777f56954ab5","ios":"levelo://app?vid=1bf83d01-c2aa-49e9-b761-777f56954ab5"},"vehicle_type_id":"4","last_reported":1778434832,"current_range_meters":8000,"station_id":"st_d2ngiaodas8pm72gd1h0","pricing_plan_id":"cebpf4jnsgd1na2vs0mg"},{"bike_id":"7fb2ffe8-f58b-4318-8e2b-b339a6fd3777","system_id":"levelo_inurba_marseille","lat":43.26222,"lon":5.40452,"is_reserved":false,"is_disabled":false,"rental_uris":{"android":"levelo://app?vid=7fb2ffe8-f58b-4318-8e2b-b339a6fd3777","ios":"levelo://app?vid=7fb2ffe8-f58b-4318-8e2b-b339a6fd3777"},"vehicle_type_id":"4","last_reported":1778434832,"current_range_meters":8000,"station_id":"ce4bhmh2rcd13ifvqgmg","pricing_plan_id":"cebpf4jnsgd1na2vs0mg"},{"bike_id":"43211608-7712-420d-8521-238fd313106b","system_id":"levelo_inurba_marseille","lat":43.28628,"lon":5.35121,"is_reserved":false,"is_disabled":false,"rental_uris":{"android":"levelo://app?vid=43211608-7712-420d-8521-238fd313106b","ios":"levelo://app?vid=43211608-7712-420d-8521-238fd313106b"},"vehicle_type_id":"4","last_reported":1778434832,"current_range_meters":8000,"station_id":"ce4bhch2rcd13ifvqeug","pricing_plan_id":"cebpf4jnsgd1na2vs0mg"},{"bike_id":"13c35e1c-0729-45db-b43b-804448beafcf","system_id":"levelo_inurba_marseille","lat":43.28008,"lon":5.40011,"is_reserved":false,"is_disabled":false,"rental_uris":{"android":"levelo://app?vid=13c35e1c-0729-45db-b43b-804448beafcf","ios":"levelo://app?vid=13c35e1c-0729-45db-b43b-804448beafcf"},"vehicle_type_id":"4","last_reported":1778434832,"current_range_meters":8000,"station_id":"ce4bho92rcd13ifvqh4g","pricing_plan_id":"cebpf4jnsgd1na2vs0mg"},{"bike_id":"e0d1dd3f-3f46-4987-88c2-2f07a471a0cd","system_id":"levelo_inurba_marseille","lat":43.26098,"lon":5.37369,"is_reserved":false,"is_disabled":false,"rental_uris":{"android":"levelo://app?vid=e0d1dd3f-3f46-4987-88c2-2f07a471a0cd","ios":"levelo://app?vid=e0d1dd3f-3f46-4987-88c2-2f07a471a0cd"},"vehicle_type_id":"4","last_reported":1778434832,"current_range_meters":8000,"station_id":"","pricing_plan_id":"cebpf4jnsgd1na2vs0mg"},{"bike_id":"ff16be1f-4f7a-4a2d-be7f-9195b8f8efb8","system_id":"levelo_inurba_marseille","lat":43.28665,"lon":5.36353,"is_reserved":false,"is_disabled":false,"rental_uris":{"android":"levelo://app?vid=ff16be1f-4f7a-4a2d-be7f-9195b8f8efb8","ios":"levelo://app?vid=ff16be1f-4f7a-4a2d-be7f-9195b8f8efb8"},"vehicle_type_id":"4","last_reported":1778434832,"current_range_meters":8000,"station_id":"ce4bhah2rcd13ifvqej0","pricing_plan_id":"cebpf4jnsgd1na2vs0mg"},{"bike_id":"017344b7-a6d9-41cc-b584-3eef658a84d5","system_id":"levelo_inurba_marseille","lat":43.29515,"lon":5.38551,"is_reserved":false,"is_disabled":false,"rental_uris":{"android":"levelo://app?vid=017344b7-a6d9-41cc-b584-3eef658a84d5","ios":"levelo://app?vid=017344b7-a6d9-41cc-b584-3eef658a84d5"},"vehicle_type_id":"4","last_reported":1778434832,"current_range_meters":8000,"station_id":"ce4bgih2rcd13ifvqba0","pricing_plan_id":"cebpf4jnsgd1na2vs0mg"},{"bike_id":"7dbf7745-483b-4f52-8105-cff3becf72e5","system_id":"levelo_inurba_marseille","lat":43.286167,"lon":5.351041,"is_reserved":false,"is_disabled":false,"rental_uris":{"android":"levelo://app?vid=7dbf7745-483b-4f52-8105-cff3becf72e5","ios":"levelo://app?vid=7dbf7745-483b-4f52-8105-cff3becf72e5"},"vehicle_type_id":"4","last_reported":1778434832,"current_range_meters":8400,"station_id":"ce4bhch2rcd13ifvqeug","pricing_plan_id":"cebpf4jnsgd1na2vs0mg"},{"bike_id":"daf21bfc-b3b9-4762-b2ab-c49f351c7dfe","system_id":"levelo_inurba_marseille","lat":43.29026,"lon":5.38643,"is_reserved":false,"is_disabled":false,"rental_uris":{"android":"levelo://app?vid=daf21bfc-b3b9-4762-b2ab-c49f351c7dfe","ios":"levelo://app?vid=daf21bfc-b3b9-4762-b2ab-c49f351c7dfe"},"vehicle_type_id":"4","last_reported":1778434832,"current_range_meters":8400,"station_id":"ce4bh4p2rcd13ifvqe0g","pricing_plan_id":"cebpf4jnsgd1na2vs0mg"},{"bike_id":"9978bf29-8be4-416d-9e1c-7cc044f2b9f1","system_id":"levelo_inurba_marseille","lat":43.31434,"lon":5.37414,"is_reserved":false,"is_disabled":false,"rental_uris":{"android":"levelo://app?vid=9978bf29-8be4-416d-9e1c-7cc044f2b9f1","ios":"levelo://app?vid=9978bf29-8be4-416d-9e1c-7cc044f2b9f1"},"vehicle_type_id":"4","last_reported":1778434832,"current_range_meters":8400,"station_id":"","pricing_plan_id":"cebpf4jnsgd1na2vs0mg"},{"bike_id":"7f14ac2a-95a1-4ff9-8272-a58b1f33bddd","system_id":"levelo_inurba_marseille","lat":43.32364,"lon":5.38884,"is_reserved":false,"is_disabled":false,"rental_uris":{"android":"levelo://app?vid=7f14ac2a-95a1-4ff9-8272-a58b1f33bddd","ios":"levelo://app?vid=7f14ac2a-95a1-4ff9-8272-a58b1f33bddd"},"vehicle_type_id":"4","last_reported":1778434832,"current_range_meters":8400,"station_id":"ce4bhqp2rcd13ifvqhog","pricing_plan_id":"cebpf4jnsgd1na2vs0mg"},{"bike_id":"d59b1513-c5e0-4a44-a647-2d42866bfbdf","system_id":"levelo_inurba_marseille","lat":43.23205,"lon":5.35575,"is_reserved":false,"is_disabled":false,"rental_uris":{"android":"levelo://app?vid=d59b1513-c5e0-4a44-a647-2d42866bfbdf","ios":"levelo://app?vid=d59b1513-c5e0-4a44-a647-2d42866bfbdf"},"vehicle_type_id":"4","last_reported":1778434832,"current_range_meters":8400,"station_id":"ce4bhu92rcd13ifvqi70","pricing_plan_id":"cebpf4jnsgd1na2vs0mg"},{"bike_id":"052db3d7-6dca-4eed-99f8-49960a36ffee","system_id":"levelo_inurba_marseille","lat":43.30534,"lon":5.3652,"is_reserved":false,"is_disabled":false,"rental_uris":{"android":"levelo://app?vid=052db3d7-6dca-4eed-99f8-49960a36ffee","ios":"levelo://app?vid=052db3d7-6dca-4eed-99f8-49960a36ffee"},"vehicle_type_id":"4","last_reported":1778434832,"current_range_meters":8400,"station_id":"ce4bgs12rcd13ifvqcag","pricing_plan_id":"cebpf4jnsgd1na2vs0mg"},{"bike_id":"1cd7704b-c4e0-419d-a5da-dd1c40e6ed26","system_id":"levelo_inurba_marseille","lat":43.30608,"lon":5.37232,"is_reserved":false,"is_disabled":false,"rental_uris":{"android":"levelo://app?vid=1cd7704b-c4e0-419d-a5da-dd1c40e6ed26","ios":"levelo://app?vid=1cd7704b-c4e0-419d-a5da-dd1c40e6ed26"},"vehicle_type_id":"4","last_reported":1778434832,"current_range_meters":8400,"station_id":"ce4bgqh2rcd13ifvqc4g","pricing_plan_id":"cebpf4jnsgd1na2vs0mg"},{"bike_id":"0fdd2634-3a09-446a-be37-6d2e2fa070de","system_id":"levelo_inurba_marseille","lat":43.28839,"lon":5.4255,"is_reserved":false,"is_disabled":false,"rental_uris":{"android":"levelo://app?vid=0fdd2634-3a09-446a-be37-6d2e2fa070de","ios":"levelo://app?vid=0fdd2634-3a09-446a-be37-6d2e2fa070de"},"vehicle_type_id":"4","last_reported":1778434832,"current_range_meters":8400,"station_id":"st_d3b462108ojc7389ooeg","pricing_plan_id":"cebpf4jnsgd1na2vs0mg"},{"bike_id":"faa150b8-366e-4180-834c-a68ef9fd5382","system_id":"levelo_inurba_marseille","lat":43.2929,"lon":5.36852,"is_reserved":false,"is_disabled":false,"rental_uris":{"android":"levelo://app?vid=faa150b8-366e-4180-834c-a68ef9fd5382","ios":"levelo://app?vid=faa150b8-366e-4180-834c-a68ef9fd5382"},"vehicle_type_id":"4","last_reported":1778434832,"current_range_meters":8400,"station_id":"ce4bhbp2rcd13ifvqesg","pricing_plan_id":"cebpf4jnsgd1na2vs0mg"},{"bike_id":"439c580c-91fb-4f07-899b-17e34535b7cf","system_id":"levelo_inurba_marseille","lat":43.28722,"lon":5.37947,"is_reserved":false,"is_disabled":true,"rental_uris":{"android":"levelo://app?vid=439c580c-91fb-4f07-899b-17e34535b7cf","ios":"levelo://app?vid=439c580c-91fb-4f07-899b-17e34535b7cf"},"vehicle_type_id":"4","last_reported":1778434832,"current_range_meters":8400,"station_id":"ce4bh9p2rcd13ifvqec0","pricing_plan_id":"cebpf4jnsgd1na2vs0mg"},{"bike_id":"33b0d095-e46d-4eb3-bad0-940eb73a3f51","system_id":"levelo_inurba_marseille","lat":43.28752,"lon":5.377225,"is_reserved":false,"is_disabled":false,"rental_uris":{"android":"levelo://app?vid=33b0d095-e46d-4eb3-bad0-940eb73a3f51","ios":"levelo://app?vid=33b0d095-e46d-4eb3-bad0-940eb73a3f51"},"vehicle_type_id":"4","last_reported":1778434832,"current_range_meters":8400,"station_id":"","pricing_plan_id":"cebpf4jnsgd1na2vs0mg"},{"bike_id":"655ec224-3a12-4051-b935-4567b80ae3b8","system_id":"levelo_inurba_marseille","lat":43.22572,"lon":5.4163,"is_reserved":false,"is_disabled":false,"rental_uris":{"android":"levelo://app?vid=655ec224-3a12-4051-b935-4567b80ae3b8","ios":"levelo://app?vid=655ec224-3a12-4051-b935-4567b80ae3b8"},"vehicle_type_id":"4","last_reported":1778434832,"current_range_meters":8400,"station_id":"st_d2o4gvlbi1j2169b742g","pricing_plan_id":"cebpf4jnsgd1na2vs0mg"},{"bike_id":"35297700-817e-4ef0-baae-79cddf947ae5","system_id":"levelo_inurba_marseille","lat":43.29244,"lon":5.38445,"is_reserved":false,"is_disabled":false,"rental_uris":{"android":"levelo://app?vid=35297700-817e-4ef0-baae-79cddf947ae5","ios":"levelo://app?vid=35297700-817e-4ef0-baae-79cddf947ae5"},"vehicle_type_id":"4","last_reported":1778434832,"current_range_meters":8400,"station_id":"ce4bh692rcd13ifvqea0","pricing_plan_id":"cebpf4jnsgd1na2vs0mg"},{"bike_id":"ad206cfa-883b-417b-b1ab-804ae7af3a6b","system_id":"levelo_inurba_marseille","lat":43.31352,"lon":5.3851,"is_reserved":false,"is_disabled":false,"rental_uris":{"android":"levelo://app?vid=ad206cfa-883b-417b-b1ab-804ae7af3a6b","ios":"levelo://app?vid=ad206cfa-883b-417b-b1ab-804ae7af3a6b"},"vehicle_type_id":"4","last_reported":1778434832,"current_range_meters":8400,"station_id":"ce4bgt92rcd13ifvqcf0","pricing_plan_id":"cebpf4jnsgd1na2vs0mg"},{"bike_id":"4be48e83-9343-4c3a-b884-b414c3010644","system_id":"levelo_inurba_marseille","lat":43.25848,"lon":5.39898,"is_reserved":false,"is_disabled":true,"rental_uris":{"android":"levelo://app?vid=4be48e83-9343-4c3a-b884-b414c3010644","ios":"levelo://app?vid=4be48e83-9343-4c3a-b884-b414c3010644"},"vehicle_type_id":"4","last_reported":1778434832,"current_range_meters":8400,"station_id":"ce4bhl92rcd13ifvqghg","pricing_plan_id":"cebpf4jnsgd1na2vs0mg"},{"bike_id":"754d7886-8847-4f64-883b-886c99a30df8","system_id":"levelo_inurba_marseille","lat":43.30469,"lon":5.37912,"is_reserved":false,"is_disabled":false,"rental_uris":{"android":"levelo://app?vid=754d7886-8847-4f64-883b-886c99a30df8","ios":"levelo://app?vid=754d7886-8847-4f64-883b-886c99a30df8"},"vehicle_type_id":"4","last_reported":1778434832,"current_range_meters":8400,"station_id":"ce4bgup2rcd13ifvqcn0","pricing_plan_id":"cebpf4jnsgd1na2vs0mg"},{"bike_id":"91f7bbaf-6f66-4506-ac78-858fd407afae","system_id":"levelo_inurba_marseille","lat":43.27961,"lon":5.38742,"is_reserved":false,"is_disabled":false,"rental_uris":{"android":"levelo://app?vid=91f7bbaf-6f66-4506-ac78-858fd407afae","ios":"levelo://app?vid=91f7bbaf-6f66-4506-ac78-858fd407afae"},"vehicle_type_id":"4","last_reported":1778434832,"current_range_meters":8400,"station_id":"ce4bhg12rcd13ifvqf80","pricing_plan_id":"cebpf4jnsgd1na2vs0mg"},{"bike_id":"e8633e0a-3342-4f0b-9397-7c8e18cf0f4b","system_id":"levelo_inurba_marseille","lat":43.3078,"lon":5.38178,"is_reserved":false,"is_disabled":false,"rental_uris":{"android":"levelo://app?vid=e8633e0a-3342-4f0b-9397-7c8e18cf0f4b","ios":"levelo://app?vid=e8633e0a-3342-4f0b-9397-7c8e18cf0f4b"},"vehicle_type_id":"4","last_reported":1778434832,"current_range_meters":8800,"station_id":"ce4bgt12rcd13ifvqce0","pricing_plan_id":"cebpf4jnsgd1na2vs0mg"},{"bike_id":"f3dd264d-b4a5-42df-ae5f-347bfbba078f","system_id":"levelo_inurba_marseille","lat":43.28488,"lon":5.38428,"is_reserved":false,"is_disabled":false,"rental_uris":{"android":"levelo://app?vid=f3dd264d-b4a5-42df-ae5f-347bfbba078f","ios":"levelo://app?vid=f3dd264d-b4a5-42df-ae5f-347bfbba078f"},"vehicle_type_id":"4","last_reported":1778434832,"current_range_meters":8800,"station_id":"ce4bh512rcd13ifvqe3g","pricing_plan_id":"cebpf4jnsgd1na2vs0mg"},{"bike_id":"47c02a04-2152-4969-a4c6-51e87d7e8693","system_id":"levelo_inurba_marseille","lat":43.24638,"lon":5.38895,"is_reserved":false,"is_disabled":false,"rental_uris":{"android":"levelo://app?vid=47c02a04-2152-4969-a4c6-51e87d7e8693","ios":"levelo://app?vid=47c02a04-2152-4969-a4c6-51e87d7e8693"},"vehicle_type_id":"4","last_reported":1778434832,"current_range_meters":8800,"station_id":"ce4bhg12rcd13ifvqf60","pricing_plan_id":"cebpf4jnsgd1na2vs0mg"},{"bike_id":"c29bc1aa-6d91-4740-bd3e-ab45ff8ae09b","system_id":"levelo_inurba_marseille","lat":43.29539,"lon":5.38555,"is_reserved":false,"is_disabled":false,"rental_uris":{"android":"levelo://app?vid=c29bc1aa-6d91-4740-bd3e-ab45ff8ae09b","ios":"levelo://app?vid=c29bc1aa-6d91-4740-bd3e-ab45ff8ae09b"},"vehicle_type_id":"4","last_reported":1778434832,"current_range_meters":8800,"station_id":"ce4bgih2rcd13ifvqba0","pricing_plan_id":"cebpf4jnsgd1na2vs0mg"},{"bike_id":"1ef3ad0d-3aaa-482d-8d94-78d293e11b2b","system_id":"levelo_inurba_marseille","lat":43.21211,"lon":5.35038,"is_reserved":false,"is_disabled":false,"rental_uris":{"android":"levelo://app?vid=1ef3ad0d-3aaa-482d-8d94-78d293e11b2b","ios":"levelo://app?vid=1ef3ad0d-3aaa-482d-8d94-78d293e11b2b"},"vehicle_type_id":"4","last_reported":1778434832,"current_range_meters":8800,"station_id":"","pricing_plan_id":"cebpf4jnsgd1na2vs0mg"},{"bike_id":"9bb74d20-8aee-4a2e-996c-43ecf8d7375f","system_id":"levelo_inurba_marseille","lat":43.24681,"lon":5.38177,"is_reserved":false,"is_disabled":true,"rental_uris":{"android":"levelo://app?vid=9bb74d20-8aee-4a2e-996c-43ecf8d7375f","ios":"levelo://app?vid=9bb74d20-8aee-4a2e-996c-43ecf8d7375f"},"vehicle_type_id":"4","last_reported":1778434832,"current_range_meters":8800,"station_id":"ce4bhih2rcd13ifvqfr0","pricing_plan_id":"cebpf4jnsgd1na2vs0mg"},{"bike_id":"5c5f1b2c-364a-42ea-b18e-b314ba5bf6e3","system_id":"levelo_inurba_marseille","lat":43.28424,"lon":5.34993,"is_reserved":false,"is_disabled":true,"rental_uris":{"android":"levelo://app?vid=5c5f1b2c-364a-42ea-b18e-b314ba5bf6e3","ios":"levelo://app?vid=5c5f1b2c-364a-42ea-b18e-b314ba5bf6e3"},"vehicle_type_id":"4","last_reported":1778434832,"current_range_meters":8800,"station_id":"ce4bhbh2rcd13ifvqepg","pricing_plan_id":"cebpf4jnsgd1na2vs0mg"},{"bike_id":"902c5a5f-7267-43c5-a354-8e2e086ea276","system_id":"levelo_inurba_marseille","lat":43.29054,"lon":5.37183,"is_reserved":false,"is_disabled":false,"rental_uris":{"android":"levelo://app?vid=902c5a5f-7267-43c5-a354-8e2e086ea276","ios":"levelo://app?vid=902c5a5f-7267-43c5-a354-8e2e086ea276"},"vehicle_type_id":"4","last_reported":1778434832,"current_range_meters":8800,"station_id":"ce4bh5p2rcd13ifvqe4g","pricing_plan_id":"cebpf4jnsgd1na2vs0mg"},{"bike_id":"9fb94e69-3038-4e70-b37c-9e41dddc049b","system_id":"levelo_inurba_marseille","lat":43.28346,"lon":5.38108,"is_reserved":false,"is_disabled":true,"rental_uris":{"android":"levelo://app?vid=9fb94e69-3038-4e70-b37c-9e41dddc049b","ios":"levelo://app?vid=9fb94e69-3038-4e70-b37c-9e41dddc049b"},"vehicle_type_id":"4","last_reported":1778434832,"current_range_meters":8800,"station_id":"ce4bh412rcd13ifvqdr0","pricing_plan_id":"cebpf4jnsgd1na2vs0mg"},{"bike_id":"fbd6823c-d178-4ae7-b4e0-3fdb7e380ab5","system_id":"levelo_inurba_marseille","lat":43.27625,"lon":5.36111,"is_reserved":false,"is_disabled":false,"rental_uris":{"android":"levelo://app?vid=fbd6823c-d178-4ae7-b4e0-3fdb7e380ab5","ios":"levelo://app?vid=fbd6823c-d178-4ae7-b4e0-3fdb7e380ab5"},"vehicle_type_id":"4","last_reported":1778434832,"current_range_meters":8800,"station_id":"ce4bgj92rcd13ifvqbe0","pricing_plan_id":"cebpf4jnsgd1na2vs0mg"},{"bike_id":"6c221b35-333b-451f-b80c-c18ff57def2c","system_id":"levelo_inurba_marseille","lat":43.32111,"lon":5.36765,"is_reserved":false,"is_disabled":false,"rental_uris":{"android":"levelo://app?vid=6c221b35-333b-451f-b80c-c18ff57def2c","ios":"levelo://app?vid=6c221b35-333b-451f-b80c-c18ff57def2c"},"vehicle_type_id":"4","last_reported":1778434832,"current_range_meters":8800,"station_id":"ce4bhrh2rcd13ifvqhug","pricing_plan_id":"cebpf4jnsgd1na2vs0mg"},{"bike_id":"3dfae26f-f308-4faf-a069-46d4602d1683","system_id":"levelo_inurba_marseille","lat":43.31173,"lon":5.38711,"is_reserved":false,"is_disabled":false,"rental_uris":{"android":"levelo://app?vid=3dfae26f-f308-4faf-a069-46d4602d1683","ios":"levelo://app?vid=3dfae26f-f308-4faf-a069-46d4602d1683"},"vehicle_type_id":"4","last_reported":1778434832,"current_range_meters":8800,"station_id":"ce4bgv12rcd13ifvqcp0","pricing_plan_id":"cebpf4jnsgd1na2vs0mg"},{"bike_id":"fa5fb22c-1e68-4174-84c8-3208640a3e25","system_id":"levelo_inurba_marseille","lat":43.28426,"lon":5.34992,"is_reserved":false,"is_disabled":false,"rental_uris":{"android":"levelo://app?vid=fa5fb22c-1e68-4174-84c8-3208640a3e25","ios":"levelo://app?vid=fa5fb22c-1e68-4174-84c8-3208640a3e25"},"vehicle_type_id":"4","last_reported":1778434832,"current_range_meters":8800,"station_id":"ce4bhbh2rcd13ifvqepg","pricing_plan_id":"cebpf4jnsgd1na2vs0mg"},{"bike_id":"1f120ac7-7ee8-43e5-8a49-7d8f26aa9f00","system_id":"levelo_inurba_marseille","lat":43.302,"lon":5.3944,"is_reserved":false,"is_disabled":false,"rental_uris":{"android":"levelo://app?vid=1f120ac7-7ee8-43e5-8a49-7d8f26aa9f00","ios":"levelo://app?vid=1f120ac7-7ee8-43e5-8a49-7d8f26aa9f00"},"vehicle_type_id":"4","last_reported":1778434832,"current_range_meters":8800,"station_id":"ce4bh0p2rcd13ifvqd70","pricing_plan_id":"cebpf4jnsgd1na2vs0mg"},{"bike_id":"c09685fb-9485-4344-be1d-350a141f03bd","system_id":"levelo_inurba_marseille","lat":43.26689,"lon":5.38261,"is_reserved":false,"is_disabled":false,"rental_uris":{"android":"levelo://app?vid=c09685fb-9485-4344-be1d-350a141f03bd","ios":"levelo://app?vid=c09685fb-9485-4344-be1d-350a141f03bd"},"vehicle_type_id":"4","last_reported":1778434832,"current_range_meters":8800,"station_id":"ce4bhg92rcd13ifvqf90","pricing_plan_id":"cebpf4jnsgd1na2vs0mg"},{"bike_id":"66f9f5fa-1564-480b-8ceb-90edfa1b4d32","system_id":"levelo_inurba_marseille","lat":43.21175,"lon":5.3506,"is_reserved":false,"is_disabled":false,"rental_uris":{"android":"levelo://app?vid=66f9f5fa-1564-480b-8ceb-90edfa1b4d32","ios":"levelo://app?vid=66f9f5fa-1564-480b-8ceb-90edfa1b4d32"},"vehicle_type_id":"4","last_reported":1778434832,"current_range_meters":8800,"station_id":"st_cvj6sg6p6f1abm77japg","pricing_plan_id":"cebpf4jnsgd1na2vs0mg"},{"bike_id":"2f451d67-dd75-4a26-aa43-0a0aec9326fd","system_id":"levelo_inurba_marseille","lat":43.33162,"lon":5.37684,"is_reserved":false,"is_disabled":false,"rental_uris":{"android":"levelo://app?vid=2f451d67-dd75-4a26-aa43-0a0aec9326fd","ios":"levelo://app?vid=2f451d67-dd75-4a26-aa43-0a0aec9326fd"},"vehicle_type_id":"4","last_reported":1778434832,"current_range_meters":8800,"station_id":"st_d46cu089ee8s73dldbu0","pricing_plan_id":"cebpf4jnsgd1na2vs0mg"},{"bike_id":"80d58f53-2529-4455-9be9-26437af97c77","system_id":"levelo_inurba_marseille","lat":43.29182,"lon":5.39317,"is_reserved":false,"is_disabled":false,"rental_uris":{"android":"levelo://app?vid=80d58f53-2529-4455-9be9-26437af97c77","ios":"levelo://app?vid=80d58f53-2529-4455-9be9-26437af97c77"},"vehicle_type_id":"4","last_reported":1778434832,"current_range_meters":8800,"station_id":"ce4bh192rcd13ifvqdd0","pricing_plan_id":"cebpf4jnsgd1na2vs0mg"},{"bike_id":"8c152893-e66a-4c69-b32e-1261be3ba9a6","system_id":"levelo_inurba_marseille","lat":43.29009,"lon":5.35616,"is_reserved":false,"is_disabled":false,"rental_uris":{"android":"levelo://app?vid=8c152893-e66a-4c69-b32e-1261be3ba9a6","ios":"levelo://app?vid=8c152893-e66a-4c69-b32e-1261be3ba9a6"},"vehicle_type_id":"4","last_reported":1778434832,"current_range_meters":9200,"station_id":"ce4bhb92rcd13ifvqen0","pricing_plan_id":"cebpf4jnsgd1na2vs0mg"},{"bike_id":"2feed767-cb3b-4ce9-ac0d-4265ec2220cf","system_id":"levelo_inurba_marseille","lat":43.29022,"lon":5.38651,"is_reserved":false,"is_disabled":false,"rental_uris":{"android":"levelo://app?vid=2feed767-cb3b-4ce9-ac0d-4265ec2220cf","ios":"levelo://app?vid=2feed767-cb3b-4ce9-ac0d-4265ec2220cf"},"vehicle_type_id":"4","last_reported":1778434832,"current_range_meters":9200,"station_id":"ce4bh4p2rcd13ifvqe0g","pricing_plan_id":"cebpf4jnsgd1na2vs0mg"},{"bike_id":"2dec4711-e93b-4101-b52c-7a6c5e8b131c","system_id":"levelo_inurba_marseille","lat":43.27908,"lon":5.38032,"is_reserved":false,"is_disabled":false,"rental_uris":{"android":"levelo://app?vid=2dec4711-e93b-4101-b52c-7a6c5e8b131c","ios":"levelo://app?vid=2dec4711-e93b-4101-b52c-7a6c5e8b131c"},"vehicle_type_id":"4","last_reported":1778434832,"current_range_meters":9200,"station_id":"ce4bhf92rcd13ifvqf50","pricing_plan_id":"cebpf4jnsgd1na2vs0mg"},{"bike_id":"db8a576c-9375-4aa7-a828-1b46e8e3d489","system_id":"levelo_inurba_marseille","lat":43.26076,"lon":5.39374,"is_reserved":false,"is_disabled":false,"rental_uris":{"android":"levelo://app?vid=db8a576c-9375-4aa7-a828-1b46e8e3d489","ios":"levelo://app?vid=db8a576c-9375-4aa7-a828-1b46e8e3d489"},"vehicle_type_id":"4","last_reported":1778434832,"current_range_meters":9200,"station_id":"ce4bhh92rcd13ifvqfj0","pricing_plan_id":"cebpf4jnsgd1na2vs0mg"},{"bike_id":"35f35c16-6156-42e2-a421-61b93b5f12e7","system_id":"levelo_inurba_marseille","lat":43.26063,"lon":5.39383,"is_reserved":false,"is_disabled":false,"rental_uris":{"android":"levelo://app?vid=35f35c16-6156-42e2-a421-61b93b5f12e7","ios":"levelo://app?vid=35f35c16-6156-42e2-a421-61b93b5f12e7"},"vehicle_type_id":"4","last_reported":1778434832,"current_range_meters":9200,"station_id":"ce4bhh92rcd13ifvqfj0","pricing_plan_id":"cebpf4jnsgd1na2vs0mg"},{"bike_id":"09fa49d6-2f72-44fb-aecc-f42e40eb9080","system_id":"levelo_inurba_marseille","lat":43.25729,"lon":5.41106,"is_reserved":false,"is_disabled":false,"rental_uris":{"android":"levelo://app?vid=09fa49d6-2f72-44fb-aecc-f42e40eb9080","ios":"levelo://app?vid=09fa49d6-2f72-44fb-aecc-f42e40eb9080"},"vehicle_type_id":"4","last_reported":1778434832,"current_range_meters":9200,"station_id":"ce4bhkp2rcd13ifvqgd0","pricing_plan_id":"cebpf4jnsgd1na2vs0mg"},{"bike_id":"23a3b7b3-dda7-4a8d-8cc2-7374a26394c2","system_id":"levelo_inurba_marseille","lat":43.23204,"lon":5.35551,"is_reserved":false,"is_disabled":false,"rental_uris":{"android":"levelo://app?vid=23a3b7b3-dda7-4a8d-8cc2-7374a26394c2","ios":"levelo://app?vid=23a3b7b3-dda7-4a8d-8cc2-7374a26394c2"},"vehicle_type_id":"4","last_reported":1778434832,"current_range_meters":9200,"station_id":"ce4bhu92rcd13ifvqi70","pricing_plan_id":"cebpf4jnsgd1na2vs0mg"},{"bike_id":"f3777a01-9725-4380-9dee-358cbc1c6a30","system_id":"levelo_inurba_marseille","lat":43.25094,"lon":5.40339,"is_reserved":false,"is_disabled":false,"rental_uris":{"android":"levelo://app?vid=f3777a01-9725-4380-9dee-358cbc1c6a30","ios":"levelo://app?vid=f3777a01-9725-4380-9dee-358cbc1c6a30"},"vehicle_type_id":"4","last_reported":1778434832,"current_range_meters":9200,"station_id":"ce4bhlh2rcd13ifvqgig","pricing_plan_id":"cebpf4jnsgd1na2vs0mg"},{"bike_id":"fa1d71c1-12a9-4336-9f1b-0e1a4e8f4513","system_id":"levelo_inurba_marseille","lat":43.29273,"lon":5.38433,"is_reserved":false,"is_disabled":false,"rental_uris":{"android":"levelo://app?vid=fa1d71c1-12a9-4336-9f1b-0e1a4e8f4513","ios":"levelo://app?vid=fa1d71c1-12a9-4336-9f1b-0e1a4e8f4513"},"vehicle_type_id":"4","last_reported":1778434832,"current_range_meters":9200,"station_id":"ce4bh692rcd13ifvqea0","pricing_plan_id":"cebpf4jnsgd1na2vs0mg"},{"bike_id":"adb7e7cb-a593-497c-a98a-a2fb06b55033","system_id":"levelo_inurba_marseille","lat":43.29533,"lon":5.38539,"is_reserved":false,"is_disabled":false,"rental_uris":{"android":"levelo://app?vid=adb7e7cb-a593-497c-a98a-a2fb06b55033","ios":"levelo://app?vid=adb7e7cb-a593-497c-a98a-a2fb06b55033"},"vehicle_type_id":"4","last_reported":1778434832,"current_range_meters":9200,"station_id":"ce4bgih2rcd13ifvqba0","pricing_plan_id":"cebpf4jnsgd1na2vs0mg"},{"bike_id":"41ecb6d4-6eb0-4766-b142-ca32b6634c39","system_id":"levelo_inurba_marseille","lat":43.33143,"lon":5.37703,"is_reserved":false,"is_disabled":false,"rental_uris":{"android":"levelo://app?vid=41ecb6d4-6eb0-4766-b142-ca32b6634c39","ios":"levelo://app?vid=41ecb6d4-6eb0-4766-b142-ca32b6634c39"},"vehicle_type_id":"4","last_reported":1778434832,"current_range_meters":9200,"station_id":"st_d46cu089ee8s73dldbu0","pricing_plan_id":"cebpf4jnsgd1na2vs0mg"},{"bike_id":"6956ccb8-1d2c-4074-9ac2-9acd405c121a","system_id":"levelo_inurba_marseille","lat":43.29626,"lon":5.40587,"is_reserved":false,"is_disabled":false,"rental_uris":{"android":"levelo://app?vid=6956ccb8-1d2c-4074-9ac2-9acd405c121a","ios":"levelo://app?vid=6956ccb8-1d2c-4074-9ac2-9acd405c121a"},"vehicle_type_id":"4","last_reported":1778434832,"current_range_meters":9200,"station_id":"ce4bh0h2rcd13ifvqd60","pricing_plan_id":"cebpf4jnsgd1na2vs0mg"},{"bike_id":"c9879d05-d956-426a-a4ce-b6c4925ed9b6","system_id":"levelo_inurba_marseille","lat":43.30526,"lon":5.36706,"is_reserved":false,"is_disabled":false,"rental_uris":{"android":"levelo://app?vid=c9879d05-d956-426a-a4ce-b6c4925ed9b6","ios":"levelo://app?vid=c9879d05-d956-426a-a4ce-b6c4925ed9b6"},"vehicle_type_id":"4","last_reported":1778434832,"current_range_meters":9200,"station_id":"ce4bgrp2rcd13ifvqc9g","pricing_plan_id":"cebpf4jnsgd1na2vs0mg"},{"bike_id":"21a7f896-b278-4e64-96ff-f2d3e49aae77","system_id":"levelo_inurba_marseille","lat":43.24637,"lon":5.43125,"is_reserved":false,"is_disabled":true,"rental_uris":{"android":"levelo://app?vid=21a7f896-b278-4e64-96ff-f2d3e49aae77","ios":"levelo://app?vid=21a7f896-b278-4e64-96ff-f2d3e49aae77"},"vehicle_type_id":"4","last_reported":1778434832,"current_range_meters":9200,"station_id":"st_d2m6c4gdas8pm72e190g","pricing_plan_id":"cebpf4jnsgd1na2vs0mg"},{"bike_id":"f07498a7-95fd-4055-a597-58fe3d087fdd","system_id":"levelo_inurba_marseille","lat":43.31367,"lon":5.38487,"is_reserved":false,"is_disabled":false,"rental_uris":{"android":"levelo://app?vid=f07498a7-95fd-4055-a597-58fe3d087fdd","ios":"levelo://app?vid=f07498a7-95fd-4055-a597-58fe3d087fdd"},"vehicle_type_id":"4","last_reported":1778434832,"current_range_meters":9200,"station_id":"ce4bgt92rcd13ifvqcf0","pricing_plan_id":"cebpf4jnsgd1na2vs0mg"},{"bike_id":"44868998-b627-4428-b562-6c3362e9ceec","system_id":"levelo_inurba_marseille","lat":43.25495,"lon":5.37648,"is_reserved":false,"is_disabled":false,"rental_uris":{"android":"levelo://app?vid=44868998-b627-4428-b562-6c3362e9ceec","ios":"levelo://app?vid=44868998-b627-4428-b562-6c3362e9ceec"},"vehicle_type_id":"4","last_reported":1778434832,"current_range_meters":9200,"station_id":"ce4bhh12rcd13ifvqff0","pricing_plan_id":"cebpf4jnsgd1na2vs0mg"},{"bike_id":"092ef964-44c6-4685-80ee-795c5947a307","system_id":"levelo_inurba_marseille","lat":43.24161,"lon":5.397,"is_reserved":false,"is_disabled":false,"rental_uris":{"android":"levelo://app?vid=092ef964-44c6-4685-80ee-795c5947a307","ios":"levelo://app?vid=092ef964-44c6-4685-80ee-795c5947a307"},"vehicle_type_id":"4","last_reported":1778434832,"current_range_meters":9200,"station_id":"ce4bhn12rcd13ifvqgpg","pricing_plan_id":"cebpf4jnsgd1na2vs0mg"},{"bike_id":"7a691dfd-c72c-446b-899e-4c8b22ebb699","system_id":"levelo_inurba_marseille","lat":43.25011,"lon":5.38917,"is_reserved":false,"is_disabled":false,"rental_uris":{"android":"levelo://app?vid=7a691dfd-c72c-446b-899e-4c8b22ebb699","ios":"levelo://app?vid=7a691dfd-c72c-446b-899e-4c8b22ebb699"},"vehicle_type_id":"4","last_reported":1778434832,"current_range_meters":9200,"station_id":"ce4bhgp2rcd13ifvqfd0","pricing_plan_id":"cebpf4jnsgd1na2vs0mg"},{"bike_id":"93848c8c-e38d-48fb-b985-0ebf7e95828f","system_id":"levelo_inurba_marseille","lat":43.33737,"lon":5.39168,"is_reserved":false,"is_disabled":false,"rental_uris":{"android":"levelo://app?vid=93848c8c-e38d-48fb-b985-0ebf7e95828f","ios":"levelo://app?vid=93848c8c-e38d-48fb-b985-0ebf7e95828f"},"vehicle_type_id":"4","last_reported":1778434832,"current_range_meters":9600,"station_id":"ce4bhr92rcd13ifvqhsg","pricing_plan_id":"cebpf4jnsgd1na2vs0mg"},{"bike_id":"84af626e-8cc2-4704-a6dd-ae7645c7f206","system_id":"levelo_inurba_marseille","lat":43.30504,"lon":5.36581,"is_reserved":false,"is_disabled":false,"rental_uris":{"android":"levelo://app?vid=84af626e-8cc2-4704-a6dd-ae7645c7f206","ios":"levelo://app?vid=84af626e-8cc2-4704-a6dd-ae7645c7f206"},"vehicle_type_id":"4","last_reported":1778434832,"current_range_meters":9600,"station_id":"","pricing_plan_id":"cebpf4jnsgd1na2vs0mg"},{"bike_id":"9b62c6f7-7051-42a4-84b0-1f9e60c35a33","system_id":"levelo_inurba_marseille","lat":43.28449,"lon":5.35863,"is_reserved":false,"is_disabled":false,"rental_uris":{"android":"levelo://app?vid=9b62c6f7-7051-42a4-84b0-1f9e60c35a33","ios":"levelo://app?vid=9b62c6f7-7051-42a4-84b0-1f9e60c35a33"},"vehicle_type_id":"4","last_reported":1778434832,"current_range_meters":9600,"station_id":"ce4bhah2rcd13ifvqei0","pricing_plan_id":"cebpf4jnsgd1na2vs0mg"},{"bike_id":"fa97b013-cf20-4697-baec-25d48d14dd9d","system_id":"levelo_inurba_marseille","lat":43.29262,"lon":5.38424,"is_reserved":false,"is_disabled":true,"rental_uris":{"android":"levelo://app?vid=fa97b013-cf20-4697-baec-25d48d14dd9d","ios":"levelo://app?vid=fa97b013-cf20-4697-baec-25d48d14dd9d"},"vehicle_type_id":"4","last_reported":1778434832,"current_range_meters":9600,"station_id":"ce4bh692rcd13ifvqea0","pricing_plan_id":"cebpf4jnsgd1na2vs0mg"},{"bike_id":"7884910f-8322-48f4-b6be-b90036e4d9ea","system_id":"levelo_inurba_marseille","lat":43.24799,"lon":5.37465,"is_reserved":false,"is_disabled":false,"rental_uris":{"android":"levelo://app?vid=7884910f-8322-48f4-b6be-b90036e4d9ea","ios":"levelo://app?vid=7884910f-8322-48f4-b6be-b90036e4d9ea"},"vehicle_type_id":"4","last_reported":1778434832,"current_range_meters":9600,"station_id":"ce4bhgh2rcd13ifvqfb0","pricing_plan_id":"cebpf4jnsgd1na2vs0mg"},{"bike_id":"aa77ea44-d77e-48bc-af16-69d497b15ff0","system_id":"levelo_inurba_marseille","lat":43.27068,"lon":5.38317,"is_reserved":false,"is_disabled":false,"rental_uris":{"android":"levelo://app?vid=aa77ea44-d77e-48bc-af16-69d497b15ff0","ios":"levelo://app?vid=aa77ea44-d77e-48bc-af16-69d497b15ff0"},"vehicle_type_id":"4","last_reported":1778434832,"current_range_meters":9600,"station_id":"st_d3n2fo6cfp8s73cte1j0","pricing_plan_id":"cebpf4jnsgd1na2vs0mg"},{"bike_id":"9b28a99a-5b50-4e95-a545-b6e6d6cb4e10","system_id":"levelo_inurba_marseille","lat":43.29579,"lon":5.38126,"is_reserved":false,"is_disabled":false,"rental_uris":{"android":"levelo://app?vid=9b28a99a-5b50-4e95-a545-b6e6d6cb4e10","ios":"levelo://app?vid=9b28a99a-5b50-4e95-a545-b6e6d6cb4e10"},"vehicle_type_id":"4","last_reported":1778434832,"current_range_meters":9600,"station_id":"ce4bgl12rcd13ifvqbo0","pricing_plan_id":"cebpf4jnsgd1na2vs0mg"},{"bike_id":"7c0caa52-21c5-41d5-bddb-76a38bb998b8","system_id":"levelo_inurba_marseille","lat":43.29811,"lon":5.44069,"is_reserved":false,"is_disabled":false,"rental_uris":{"android":"levelo://app?vid=7c0caa52-21c5-41d5-bddb-76a38bb998b8","ios":"levelo://app?vid=7c0caa52-21c5-41d5-bddb-76a38bb998b8"},"vehicle_type_id":"4","last_reported":1778434832,"current_range_meters":9600,"station_id":"st_d3jp68qikq2c7381ktn0","pricing_plan_id":"cebpf4jnsgd1na2vs0mg"},{"bike_id":"b5b0524a-16d5-40b7-8ca1-117d09866cbf","system_id":"levelo_inurba_marseille","lat":43.3394,"lon":5.41698,"is_reserved":false,"is_disabled":false,"rental_uris":{"android":"levelo://app?vid=b5b0524a-16d5-40b7-8ca1-117d09866cbf","ios":"levelo://app?vid=b5b0524a-16d5-40b7-8ca1-117d09866cbf"},"vehicle_type_id":"4","last_reported":1778434832,"current_range_meters":9600,"station_id":"","pricing_plan_id":"cebpf4jnsgd1na2vs0mg"},{"bike_id":"b8253c6e-2e65-422a-b604-6720af1ef768","system_id":"levelo_inurba_marseille","lat":43.33188,"lon":5.37692,"is_reserved":false,"is_disabled":false,"rental_uris":{"android":"levelo://app?vid=b8253c6e-2e65-422a-b604-6720af1ef768","ios":"levelo://app?vid=b8253c6e-2e65-422a-b604-6720af1ef768"},"vehicle_type_id":"4","last_reported":1778434832,"current_range_meters":9600,"station_id":"st_d46cu089ee8s73dldbu0","pricing_plan_id":"cebpf4jnsgd1na2vs0mg"},{"bike_id":"38062592-6f68-45d4-ab1b-82f68f0f9c12","system_id":"levelo_inurba_marseille","lat":43.304263,"lon":5.397475,"is_reserved":false,"is_disabled":false,"rental_uris":{"android":"levelo://app?vid=38062592-6f68-45d4-ab1b-82f68f0f9c12","ios":"levelo://app?vid=38062592-6f68-45d4-ab1b-82f68f0f9c12"},"vehicle_type_id":"4","last_reported":1778434832,"current_range_meters":9600,"station_id":"ce4bh092rcd13ifvqd20","pricing_plan_id":"cebpf4jnsgd1na2vs0mg"},{"bike_id":"d3ed0906-9379-4354-90fd-002e622d42f3","system_id":"levelo_inurba_marseille","lat":43.24829,"lon":5.37447,"is_reserved":false,"is_disabled":false,"rental_uris":{"android":"levelo://app?vid=d3ed0906-9379-4354-90fd-002e622d42f3","ios":"levelo://app?vid=d3ed0906-9379-4354-90fd-002e622d42f3"},"vehicle_type_id":"4","last_reported":1778434832,"current_range_meters":9600,"station_id":"ce4bhgh2rcd13ifvqfb0","pricing_plan_id":"cebpf4jnsgd1na2vs0mg"},{"bike_id":"4c4e04b5-7e96-4437-9abd-fede96e9b602","system_id":"levelo_inurba_marseille","lat":43.309173,"lon":5.368435,"is_reserved":false,"is_disabled":false,"rental_uris":{"android":"levelo://app?vid=4c4e04b5-7e96-4437-9abd-fede96e9b602","ios":"levelo://app?vid=4c4e04b5-7e96-4437-9abd-fede96e9b602"},"vehicle_type_id":"4","last_reported":1778434832,"current_range_meters":9600,"station_id":"ce4bgn92rcd13ifvqbvg","pricing_plan_id":"cebpf4jnsgd1na2vs0mg"},{"bike_id":"57394a6b-0e54-4a7c-b04a-d450a2ab5e79","system_id":"levelo_inurba_marseille","lat":43.2553,"lon":5.37643,"is_reserved":false,"is_disabled":true,"rental_uris":{"android":"levelo://app?vid=57394a6b-0e54-4a7c-b04a-d450a2ab5e79","ios":"levelo://app?vid=57394a6b-0e54-4a7c-b04a-d450a2ab5e79"},"vehicle_type_id":"4","last_reported":1778434832,"current_range_meters":9600,"station_id":"ce4bhh12rcd13ifvqff0","pricing_plan_id":"cebpf4jnsgd1na2vs0mg"},{"bike_id":"75d44f43-cf7b-4662-8428-a2cc94a2980d","system_id":"levelo_inurba_marseille","lat":43.28847,"lon":5.42502,"is_reserved":false,"is_disabled":false,"rental_uris":{"android":"levelo://app?vid=75d44f43-cf7b-4662-8428-a2cc94a2980d","ios":"levelo://app?vid=75d44f43-cf7b-4662-8428-a2cc94a2980d"},"vehicle_type_id":"4","last_reported":1778434832,"current_range_meters":9600,"station_id":"st_d3b462108ojc7389ooeg","pricing_plan_id":"cebpf4jnsgd1na2vs0mg"},{"bike_id":"bc064478-0a99-4bf3-b995-d874edf0899d","system_id":"levelo_inurba_marseille","lat":43.30897,"lon":5.37184,"is_reserved":false,"is_disabled":false,"rental_uris":{"android":"levelo://app?vid=bc064478-0a99-4bf3-b995-d874edf0899d","ios":"levelo://app?vid=bc064478-0a99-4bf3-b995-d874edf0899d"},"vehicle_type_id":"4","last_reported":1778434832,"current_range_meters":9600,"station_id":"ce4bguh2rcd13ifvqckg","pricing_plan_id":"cebpf4jnsgd1na2vs0mg"},{"bike_id":"f0f401d4-150c-4cfa-919d-efdf4f923085","system_id":"levelo_inurba_marseille","lat":43.23897,"lon":5.37462,"is_reserved":false,"is_disabled":true,"rental_uris":{"android":"levelo://app?vid=f0f401d4-150c-4cfa-919d-efdf4f923085","ios":"levelo://app?vid=f0f401d4-150c-4cfa-919d-efdf4f923085"},"vehicle_type_id":"4","last_reported":1778434832,"current_range_meters":9600,"station_id":"st_d6sm7csbq4hs73f8fpjg","pricing_plan_id":"cebpf4jnsgd1na2vs0mg"},{"bike_id":"99099676-9b26-41f6-8ded-38e69c372eea","system_id":"levelo_inurba_marseille","lat":43.295332,"lon":5.38543,"is_reserved":false,"is_disabled":false,"rental_uris":{"android":"levelo://app?vid=99099676-9b26-41f6-8ded-38e69c372eea","ios":"levelo://app?vid=99099676-9b26-41f6-8ded-38e69c372eea"},"vehicle_type_id":"4","last_reported":1778434832,"current_range_meters":9600,"station_id":"ce4bgih2rcd13ifvqba0","pricing_plan_id":"cebpf4jnsgd1na2vs0mg"},{"bike_id":"d2654d3d-15d5-4633-b838-ab8529bcbbd7","system_id":"levelo_inurba_marseille","lat":43.27965,"lon":5.38819,"is_reserved":false,"is_disabled":false,"rental_uris":{"android":"levelo://app?vid=d2654d3d-15d5-4633-b838-ab8529bcbbd7","ios":"levelo://app?vid=d2654d3d-15d5-4633-b838-ab8529bcbbd7"},"vehicle_type_id":"4","last_reported":1778434832,"current_range_meters":9600,"station_id":"ce4bhg12rcd13ifvqf80","pricing_plan_id":"cebpf4jnsgd1na2vs0mg"},{"bike_id":"14d13d5b-27e9-42d0-9ffa-b5dd8fd7de4d","system_id":"levelo_inurba_marseille","lat":43.254903,"lon":5.376452,"is_reserved":false,"is_disabled":false,"rental_uris":{"android":"levelo://app?vid=14d13d5b-27e9-42d0-9ffa-b5dd8fd7de4d","ios":"levelo://app?vid=14d13d5b-27e9-42d0-9ffa-b5dd8fd7de4d"},"vehicle_type_id":"4","last_reported":1778434832,"current_range_meters":9600,"station_id":"ce4bhh12rcd13ifvqff0","pricing_plan_id":"cebpf4jnsgd1na2vs0mg"},{"bike_id":"96178097-25e8-4e8a-b55e-03e212451214","system_id":"levelo_inurba_marseille","lat":43.325,"lon":5.41478,"is_reserved":false,"is_disabled":false,"rental_uris":{"android":"levelo://app?vid=96178097-25e8-4e8a-b55e-03e212451214","ios":"levelo://app?vid=96178097-25e8-4e8a-b55e-03e212451214"},"vehicle_type_id":"4","last_reported":1778434832,"current_range_meters":9600,"station_id":"ce4bhq12rcd13ifvqhhg","pricing_plan_id":"cebpf4jnsgd1na2vs0mg"},{"bike_id":"0eb1f0be-171b-438d-9494-79347ecbfe25","system_id":"levelo_inurba_marseille","lat":43.28635,"lon":5.35077,"is_reserved":false,"is_disabled":false,"rental_uris":{"android":"levelo://app?vid=0eb1f0be-171b-438d-9494-79347ecbfe25","ios":"levelo://app?vid=0eb1f0be-171b-438d-9494-79347ecbfe25"},"vehicle_type_id":"4","last_reported":1778434832,"current_range_meters":9600,"station_id":"ce4bhch2rcd13ifvqeug","pricing_plan_id":"cebpf4jnsgd1na2vs0mg"},{"bike_id":"4fef0feb-36ab-4ab3-b750-07e41cd016aa","system_id":"levelo_inurba_marseille","lat":43.31722,"lon":5.40421,"is_reserved":false,"is_disabled":false,"rental_uris":{"android":"levelo://app?vid=4fef0feb-36ab-4ab3-b750-07e41cd016aa","ios":"levelo://app?vid=4fef0feb-36ab-4ab3-b750-07e41cd016aa"},"vehicle_type_id":"4","last_reported":1778434832,"current_range_meters":9600,"station_id":"","pricing_plan_id":"cebpf4jnsgd1na2vs0mg"},{"bike_id":"08b76b8f-d54e-439b-a6d3-f08fc0226cdf","system_id":"levelo_inurba_marseille","lat":43.33084,"lon":5.39003,"is_reserved":false,"is_disabled":false,"rental_uris":{"android":"levelo://app?vid=08b76b8f-d54e-439b-a6d3-f08fc0226cdf","ios":"levelo://app?vid=08b76b8f-d54e-439b-a6d3-f08fc0226cdf"},"vehicle_type_id":"4","last_reported":1778434832,"current_range_meters":9600,"station_id":"","pricing_plan_id":"cebpf4jnsgd1na2vs0mg"},{"bike_id":"f99699a8-34df-4374-a079-b7b9de9af49b","system_id":"levelo_inurba_marseille","lat":43.26494,"lon":5.39554,"is_reserved":false,"is_disabled":false,"rental_uris":{"android":"levelo://app?vid=f99699a8-34df-4374-a079-b7b9de9af49b","ios":"levelo://app?vid=f99699a8-34df-4374-a079-b7b9de9af49b"},"vehicle_type_id":"4","last_reported":1778434832,"current_range_meters":10000,"station_id":"ce4bhi12rcd13ifvqfq0","pricing_plan_id":"cebpf4jnsgd1na2vs0mg"},{"bike_id":"3513c7c9-429c-4027-9626-3747f3ee85c7","system_id":"levelo_inurba_marseille","lat":43.33592,"lon":5.37436,"is_reserved":false,"is_disabled":false,"rental_uris":{"android":"levelo://app?vid=3513c7c9-429c-4027-9626-3747f3ee85c7","ios":"levelo://app?vid=3513c7c9-429c-4027-9626-3747f3ee85c7"},"vehicle_type_id":"4","last_reported":1778434832,"current_range_meters":10000,"station_id":"st_d46tts09ee8s73dlu43g","pricing_plan_id":"cebpf4jnsgd1na2vs0mg"},{"bike_id":"1acb59de-f9c0-4f44-8499-4cddce70eb26","system_id":"levelo_inurba_marseille","lat":43.24669,"lon":5.38157,"is_reserved":false,"is_disabled":true,"rental_uris":{"android":"levelo://app?vid=1acb59de-f9c0-4f44-8499-4cddce70eb26","ios":"levelo://app?vid=1acb59de-f9c0-4f44-8499-4cddce70eb26"},"vehicle_type_id":"4","last_reported":1778434832,"current_range_meters":10000,"station_id":"ce4bhih2rcd13ifvqfr0","pricing_plan_id":"cebpf4jnsgd1na2vs0mg"},{"bike_id":"0581dd68-fab5-40b3-97eb-d997570c92b1","system_id":"levelo_inurba_marseille","lat":43.30781,"lon":5.37651,"is_reserved":false,"is_disabled":false,"rental_uris":{"android":"levelo://app?vid=0581dd68-fab5-40b3-97eb-d997570c92b1","ios":"levelo://app?vid=0581dd68-fab5-40b3-97eb-d997570c92b1"},"vehicle_type_id":"4","last_reported":1778434832,"current_range_meters":10000,"station_id":"ce4bgv92rcd13ifvqcq0","pricing_plan_id":"cebpf4jnsgd1na2vs0mg"},{"bike_id":"eaa6e3e2-521e-4ba6-b77e-c951a02ad257","system_id":"levelo_inurba_marseille","lat":43.30865,"lon":5.38887,"is_reserved":false,"is_disabled":false,"rental_uris":{"android":"levelo://app?vid=eaa6e3e2-521e-4ba6-b77e-c951a02ad257","ios":"levelo://app?vid=eaa6e3e2-521e-4ba6-b77e-c951a02ad257"},"vehicle_type_id":"4","last_reported":1778434832,"current_range_meters":10000,"station_id":"","pricing_plan_id":"cebpf4jnsgd1na2vs0mg"},{"bike_id":"782b02f9-c57b-456b-a4bf-832d640b8f92","system_id":"levelo_inurba_marseille","lat":43.25727,"lon":5.41111,"is_reserved":false,"is_disabled":false,"rental_uris":{"android":"levelo://app?vid=782b02f9-c57b-456b-a4bf-832d640b8f92","ios":"levelo://app?vid=782b02f9-c57b-456b-a4bf-832d640b8f92"},"vehicle_type_id":"4","last_reported":1778434832,"current_range_meters":10000,"station_id":"ce4bhkp2rcd13ifvqgd0","pricing_plan_id":"cebpf4jnsgd1na2vs0mg"},{"bike_id":"eb4b1be6-e8e6-4510-b715-3e46790a696f","system_id":"levelo_inurba_marseille","lat":43.2846,"lon":5.38417,"is_reserved":false,"is_disabled":false,"rental_uris":{"android":"levelo://app?vid=eb4b1be6-e8e6-4510-b715-3e46790a696f","ios":"levelo://app?vid=eb4b1be6-e8e6-4510-b715-3e46790a696f"},"vehicle_type_id":"4","last_reported":1778434832,"current_range_meters":10000,"station_id":"ce4bh512rcd13ifvqe3g","pricing_plan_id":"cebpf4jnsgd1na2vs0mg"},{"bike_id":"e43e504f-b154-42c7-b40d-0beb3358c4f8","system_id":"levelo_inurba_marseille","lat":43.30885,"lon":5.39634,"is_reserved":false,"is_disabled":false,"rental_uris":{"android":"levelo://app?vid=e43e504f-b154-42c7-b40d-0beb3358c4f8","ios":"levelo://app?vid=e43e504f-b154-42c7-b40d-0beb3358c4f8"},"vehicle_type_id":"4","last_reported":1778434832,"current_range_meters":10000,"station_id":"ce4bh012rcd13ifvqcv0","pricing_plan_id":"cebpf4jnsgd1na2vs0mg"},{"bike_id":"269fcc6c-db46-402a-9ba0-98b92d98d7a8","system_id":"levelo_inurba_marseille","lat":43.31163,"lon":5.38725,"is_reserved":false,"is_disabled":false,"rental_uris":{"android":"levelo://app?vid=269fcc6c-db46-402a-9ba0-98b92d98d7a8","ios":"levelo://app?vid=269fcc6c-db46-402a-9ba0-98b92d98d7a8"},"vehicle_type_id":"4","last_reported":1778434832,"current_range_meters":10000,"station_id":"ce4bgv12rcd13ifvqcp0","pricing_plan_id":"cebpf4jnsgd1na2vs0mg"},{"bike_id":"6b94ee3b-979f-4ff9-839d-05382e65b14c","system_id":"levelo_inurba_marseille","lat":43.28392,"lon":5.37593,"is_reserved":false,"is_disabled":false,"rental_uris":{"android":"levelo://app?vid=6b94ee3b-979f-4ff9-839d-05382e65b14c","ios":"levelo://app?vid=6b94ee3b-979f-4ff9-839d-05382e65b14c"},"vehicle_type_id":"4","last_reported":1778434832,"current_range_meters":10000,"station_id":"","pricing_plan_id":"cebpf4jnsgd1na2vs0mg"},{"bike_id":"635e37d3-7b93-4e97-82bd-bbf4c4561837","system_id":"levelo_inurba_marseille","lat":43.32238,"lon":5.36884,"is_reserved":false,"is_disabled":false,"rental_uris":{"android":"levelo://app?vid=635e37d3-7b93-4e97-82bd-bbf4c4561837","ios":"levelo://app?vid=635e37d3-7b93-4e97-82bd-bbf4c4561837"},"vehicle_type_id":"4","last_reported":1778434832,"current_range_meters":10000,"station_id":"","pricing_plan_id":"cebpf4jnsgd1na2vs0mg"},{"bike_id":"de5e63f3-90b9-4eb1-8a88-6b8b6b27e91d","system_id":"levelo_inurba_marseille","lat":43.23208,"lon":5.35567,"is_reserved":false,"is_disabled":true,"rental_uris":{"android":"levelo://app?vid=de5e63f3-90b9-4eb1-8a88-6b8b6b27e91d","ios":"levelo://app?vid=de5e63f3-90b9-4eb1-8a88-6b8b6b27e91d"},"vehicle_type_id":"4","last_reported":1778434832,"current_range_meters":10000,"station_id":"ce4bhu92rcd13ifvqi70","pricing_plan_id":"cebpf4jnsgd1na2vs0mg"},{"bike_id":"ded3ddf8-605b-4d28-b69f-a3d3077311b9","system_id":"levelo_inurba_marseille","lat":43.29869,"lon":5.39755,"is_reserved":false,"is_disabled":true,"rental_uris":{"android":"levelo://app?vid=ded3ddf8-605b-4d28-b69f-a3d3077311b9","ios":"levelo://app?vid=ded3ddf8-605b-4d28-b69f-a3d3077311b9"},"vehicle_type_id":"4","last_reported":1778434832,"current_range_meters":10000,"station_id":"ce4bh0h2rcd13ifvqd50","pricing_plan_id":"cebpf4jnsgd1na2vs0mg"},{"bike_id":"e77e8a28-cf89-4392-9af8-8ac8c549d352","system_id":"levelo_inurba_marseille","lat":43.30356,"lon":5.41882,"is_reserved":false,"is_disabled":false,"rental_uris":{"android":"levelo://app?vid=e77e8a28-cf89-4392-9af8-8ac8c549d352","ios":"levelo://app?vid=e77e8a28-cf89-4392-9af8-8ac8c549d352"},"vehicle_type_id":"4","last_reported":1778434832,"current_range_meters":10000,"station_id":"ce4bhop2rcd13ifvqh7g","pricing_plan_id":"cebpf4jnsgd1na2vs0mg"},