{"last_updated":1778860513,"ttl":60,"version":"2.2","data":{"bikes":[{"bike_id":"9a57878b-ca78-45f0-98b7-1607ca844e45","system_id":"levelo_inurba_marseille","lat":43.28003,"lon":5.40029,"is_reserved":false,"is_disabled":false,"rental_uris":{"android":"levelo://app?vid=9a57878b-ca78-45f0-98b7-1607ca844e45","ios":"levelo://app?vid=9a57878b-ca78-45f0-98b7-1607ca844e45"},"vehicle_type_id":"4","last_reported":1778860514,"current_range_meters":2800,"station_id":"ce4bho92rcd13ifvqh4g","pricing_plan_id":"cebpf4jnsgd1na2vs0mg"},{"bike_id":"8d31b457-acba-410e-b5ba-95dc7afc393d","system_id":"levelo_inurba_marseille","lat":43.23158,"lon":5.43704,"is_reserved":false,"is_disabled":false,"rental_uris":{"android":"levelo://app?vid=8d31b457-acba-410e-b5ba-95dc7afc393d","ios":"levelo://app?vid=8d31b457-acba-410e-b5ba-95dc7afc393d"},"vehicle_type_id":"4","last_reported":1778860514,"current_range_meters":2800,"station_id":"ce4bhmp2rcd13ifvqgog","pricing_plan_id":"cebpf4jnsgd1na2vs0mg"},{"bike_id":"ce736d31-5c4a-4182-8436-26212fad2d4d","system_id":"levelo_inurba_marseille","lat":43.303752,"lon":5.389109,"is_reserved":false,"is_disabled":false,"rental_uris":{"android":"levelo://app?vid=ce736d31-5c4a-4182-8436-26212fad2d4d","ios":"levelo://app?vid=ce736d31-5c4a-4182-8436-26212fad2d4d"},"vehicle_type_id":"4","last_reported":1778860514,"current_range_meters":2800,"station_id":"ce4bgk12rcd13ifvqbi0","pricing_plan_id":"cebpf4jnsgd1na2vs0mg"},{"bike_id":"728ede5e-8396-42a0-9807-0882eca13298","system_id":"levelo_inurba_marseille","lat":43.254972,"lon":5.376452,"is_reserved":false,"is_disabled":true,"rental_uris":{"android":"levelo://app?vid=728ede5e-8396-42a0-9807-0882eca13298","ios":"levelo://app?vid=728ede5e-8396-42a0-9807-0882eca13298"},"vehicle_type_id":"4","last_reported":1778860514,"current_range_meters":2800,"station_id":"ce4bhh12rcd13ifvqff0","pricing_plan_id":"cebpf4jnsgd1na2vs0mg"},{"bike_id":"3b0f532a-60d0-4a77-bde1-99220a1be30c","system_id":"levelo_inurba_marseille","lat":43.2979,"lon":5.38105,"is_reserved":false,"is_disabled":false,"rental_uris":{"android":"levelo://app?vid=3b0f532a-60d0-4a77-bde1-99220a1be30c","ios":"levelo://app?vid=3b0f532a-60d0-4a77-bde1-99220a1be30c"},"vehicle_type_id":"4","last_reported":1778860514,"current_range_meters":2800,"station_id":"ce4bgip2rcd13ifvqbb0","pricing_plan_id":"cebpf4jnsgd1na2vs0mg"},{"bike_id":"67416e37-e49a-4483-b1ba-da2fa5c5c0c1","system_id":"levelo_inurba_marseille","lat":43.25181,"lon":5.37456,"is_reserved":false,"is_disabled":false,"rental_uris":{"android":"levelo://app?vid=67416e37-e49a-4483-b1ba-da2fa5c5c0c1","ios":"levelo://app?vid=67416e37-e49a-4483-b1ba-da2fa5c5c0c1"},"vehicle_type_id":"4","last_reported":1778860514,"current_range_meters":2800,"station_id":"","pricing_plan_id":"cebpf4jnsgd1na2vs0mg"},{"bike_id":"2844e8c2-ca90-46d9-a517-76a41cd23922","system_id":"levelo_inurba_marseille","lat":43.28081,"lon":5.39662,"is_reserved":false,"is_disabled":false,"rental_uris":{"android":"levelo://app?vid=2844e8c2-ca90-46d9-a517-76a41cd23922","ios":"levelo://app?vid=2844e8c2-ca90-46d9-a517-76a41cd23922"},"vehicle_type_id":"4","last_reported":1778860514,"current_range_meters":2800,"station_id":"ce4bho12rcd13ifvqh2g","pricing_plan_id":"cebpf4jnsgd1na2vs0mg"},{"bike_id":"8217edcc-059e-43db-998b-7e0b9076710e","system_id":"levelo_inurba_marseille","lat":43.28582,"lon":5.38616,"is_reserved":false,"is_disabled":false,"rental_uris":{"android":"levelo://app?vid=8217edcc-059e-43db-998b-7e0b9076710e","ios":"levelo://app?vid=8217edcc-059e-43db-998b-7e0b9076710e"},"vehicle_type_id":"4","last_reported":1778860514,"current_range_meters":2800,"station_id":"","pricing_plan_id":"cebpf4jnsgd1na2vs0mg"},{"bike_id":"c9a1b626-1a87-4275-833e-d62fa874aef8","system_id":"levelo_inurba_marseille","lat":43.26215,"lon":5.37433,"is_reserved":false,"is_disabled":false,"rental_uris":{"android":"levelo://app?vid=c9a1b626-1a87-4275-833e-d62fa874aef8","ios":"levelo://app?vid=c9a1b626-1a87-4275-833e-d62fa874aef8"},"vehicle_type_id":"4","last_reported":1778860514,"current_range_meters":2800,"station_id":"ce4bhgp2rcd13ifvqfc0","pricing_plan_id":"cebpf4jnsgd1na2vs0mg"},{"bike_id":"c72f0051-c0fb-4024-93b5-7bcc666ef308","system_id":"levelo_inurba_marseille","lat":43.26226,"lon":5.38774,"is_reserved":false,"is_disabled":false,"rental_uris":{"android":"levelo://app?vid=c72f0051-c0fb-4024-93b5-7bcc666ef308","ios":"levelo://app?vid=c72f0051-c0fb-4024-93b5-7bcc666ef308"},"vehicle_type_id":"4","last_reported":1778860514,"current_range_meters":2800,"station_id":"","pricing_plan_id":"cebpf4jnsgd1na2vs0mg"},{"bike_id":"d2ac4a8f-057e-4335-a9fe-2a880ec35ae4","system_id":"levelo_inurba_marseille","lat":43.30378,"lon":5.42487,"is_reserved":false,"is_disabled":false,"rental_uris":{"android":"levelo://app?vid=d2ac4a8f-057e-4335-a9fe-2a880ec35ae4","ios":"levelo://app?vid=d2ac4a8f-057e-4335-a9fe-2a880ec35ae4"},"vehicle_type_id":"4","last_reported":1778860514,"current_range_meters":2800,"station_id":"ce4bhoh2rcd13ifvqh6g","pricing_plan_id":"cebpf4jnsgd1na2vs0mg"},{"bike_id":"4bec882a-40ea-4680-a214-0690b72e23a7","system_id":"levelo_inurba_marseille","lat":43.25576,"lon":5.38221,"is_reserved":false,"is_disabled":false,"rental_uris":{"android":"levelo://app?vid=4bec882a-40ea-4680-a214-0690b72e23a7","ios":"levelo://app?vid=4bec882a-40ea-4680-a214-0690b72e23a7"},"vehicle_type_id":"4","last_reported":1778860514,"current_range_meters":2800,"station_id":"ce4bhih2rcd13ifvqfs0","pricing_plan_id":"cebpf4jnsgd1na2vs0mg"},{"bike_id":"d67cdba8-9bfb-428d-97d7-1325fbc3f85e","system_id":"levelo_inurba_marseille","lat":43.28737,"lon":5.36076,"is_reserved":false,"is_disabled":false,"rental_uris":{"android":"levelo://app?vid=d67cdba8-9bfb-428d-97d7-1325fbc3f85e","ios":"levelo://app?vid=d67cdba8-9bfb-428d-97d7-1325fbc3f85e"},"vehicle_type_id":"4","last_reported":1778860514,"current_range_meters":2800,"station_id":"cki0cbj6b192h4jlfktg","pricing_plan_id":"cebpf4jnsgd1na2vs0mg"},{"bike_id":"d92af890-5a00-42de-9eaf-dee0512d539b","system_id":"levelo_inurba_marseille","lat":43.29713,"lon":5.3661,"is_reserved":false,"is_disabled":false,"rental_uris":{"android":"levelo://app?vid=d92af890-5a00-42de-9eaf-dee0512d539b","ios":"levelo://app?vid=d92af890-5a00-42de-9eaf-dee0512d539b"},"vehicle_type_id":"4","last_reported":1778860514,"current_range_meters":2800,"station_id":"ce4bgn12rcd13ifvqbt0","pricing_plan_id":"cebpf4jnsgd1na2vs0mg"},{"bike_id":"0c344e4d-9084-4f54-905c-b599c21430c2","system_id":"levelo_inurba_marseille","lat":43.28978,"lon":5.37834,"is_reserved":false,"is_disabled":false,"rental_uris":{"android":"levelo://app?vid=0c344e4d-9084-4f54-905c-b599c21430c2","ios":"levelo://app?vid=0c344e4d-9084-4f54-905c-b599c21430c2"},"vehicle_type_id":"4","last_reported":1778860514,"current_range_meters":3200,"station_id":"ce4bh9p2rcd13ifvqed0","pricing_plan_id":"cebpf4jnsgd1na2vs0mg"},{"bike_id":"11cddc59-5472-4063-a6e6-74337bb5af4e","system_id":"levelo_inurba_marseille","lat":43.281,"lon":5.37856,"is_reserved":false,"is_disabled":false,"rental_uris":{"android":"levelo://app?vid=11cddc59-5472-4063-a6e6-74337bb5af4e","ios":"levelo://app?vid=11cddc59-5472-4063-a6e6-74337bb5af4e"},"vehicle_type_id":"4","last_reported":1778860514,"current_range_meters":3200,"station_id":"ce4bha12rcd13ifvqee0","pricing_plan_id":"cebpf4jnsgd1na2vs0mg"},{"bike_id":"cbd319b4-1a76-42c8-a8cd-b21cc8eba74e","system_id":"levelo_inurba_marseille","lat":43.33218,"lon":5.43052,"is_reserved":false,"is_disabled":false,"rental_uris":{"android":"levelo://app?vid=cbd319b4-1a76-42c8-a8cd-b21cc8eba74e","ios":"levelo://app?vid=cbd319b4-1a76-42c8-a8cd-b21cc8eba74e"},"vehicle_type_id":"4","last_reported":1778860514,"current_range_meters":3200,"station_id":"","pricing_plan_id":"cebpf4jnsgd1na2vs0mg"},{"bike_id":"80b9fe10-82b1-4b43-a2cd-ad2fc3b3c9f2","system_id":"levelo_inurba_marseille","lat":43.295422,"lon":5.385926,"is_reserved":false,"is_disabled":false,"rental_uris":{"android":"levelo://app?vid=80b9fe10-82b1-4b43-a2cd-ad2fc3b3c9f2","ios":"levelo://app?vid=80b9fe10-82b1-4b43-a2cd-ad2fc3b3c9f2"},"vehicle_type_id":"4","last_reported":1778860514,"current_range_meters":3200,"station_id":"ce4bgih2rcd13ifvqba0","pricing_plan_id":"cebpf4jnsgd1na2vs0mg"},{"bike_id":"0caa6e24-40af-444f-bb60-106d12241bd4","system_id":"levelo_inurba_marseille","lat":43.3211,"lon":5.36761,"is_reserved":false,"is_disabled":false,"rental_uris":{"android":"levelo://app?vid=0caa6e24-40af-444f-bb60-106d12241bd4","ios":"levelo://app?vid=0caa6e24-40af-444f-bb60-106d12241bd4"},"vehicle_type_id":"4","last_reported":1778860514,"current_range_meters":3200,"station_id":"ce4bhrh2rcd13ifvqhug","pricing_plan_id":"cebpf4jnsgd1na2vs0mg"},{"bike_id":"f7b03cc1-778b-4be1-a2da-3b90b48cdd90","system_id":"levelo_inurba_marseille","lat":43.2621,"lon":5.37447,"is_reserved":false,"is_disabled":false,"rental_uris":{"android":"levelo://app?vid=f7b03cc1-778b-4be1-a2da-3b90b48cdd90","ios":"levelo://app?vid=f7b03cc1-778b-4be1-a2da-3b90b48cdd90"},"vehicle_type_id":"4","last_reported":1778860514,"current_range_meters":3200,"station_id":"ce4bhgp2rcd13ifvqfc0","pricing_plan_id":"cebpf4jnsgd1na2vs0mg"},{"bike_id":"d2d34ecd-2327-4e3b-801c-4f86c48483f9","system_id":"levelo_inurba_marseille","lat":43.29915,"lon":5.4366,"is_reserved":false,"is_disabled":false,"rental_uris":{"android":"levelo://app?vid=d2d34ecd-2327-4e3b-801c-4f86c48483f9","ios":"levelo://app?vid=d2d34ecd-2327-4e3b-801c-4f86c48483f9"},"vehicle_type_id":"4","last_reported":1778860514,"current_range_meters":3200,"station_id":"ce4bhpp2rcd13ifvqhfg","pricing_plan_id":"cebpf4jnsgd1na2vs0mg"},{"bike_id":"cc5edb9b-7a5a-4a5e-b9ac-997e5fefdc17","system_id":"levelo_inurba_marseille","lat":43.25113,"lon":5.4031,"is_reserved":false,"is_disabled":false,"rental_uris":{"android":"levelo://app?vid=cc5edb9b-7a5a-4a5e-b9ac-997e5fefdc17","ios":"levelo://app?vid=cc5edb9b-7a5a-4a5e-b9ac-997e5fefdc17"},"vehicle_type_id":"4","last_reported":1778860514,"current_range_meters":3200,"station_id":"ce4bhlh2rcd13ifvqgig","pricing_plan_id":"cebpf4jnsgd1na2vs0mg"},{"bike_id":"e4795ebb-fa01-470e-b7a8-9dee1cfc0a71","system_id":"levelo_inurba_marseille","lat":43.24453,"lon":5.42534,"is_reserved":false,"is_disabled":false,"rental_uris":{"android":"levelo://app?vid=e4795ebb-fa01-470e-b7a8-9dee1cfc0a71","ios":"levelo://app?vid=e4795ebb-fa01-470e-b7a8-9dee1cfc0a71"},"vehicle_type_id":"4","last_reported":1778860514,"current_range_meters":3600,"station_id":"st_d4a3vfp97mjs738cd8kg","pricing_plan_id":"cebpf4jnsgd1na2vs0mg"},{"bike_id":"0f798a45-ad1c-408a-bcd5-9fdadcc80470","system_id":"levelo_inurba_marseille","lat":43.26222,"lon":5.38773,"is_reserved":false,"is_disabled":false,"rental_uris":{"android":"levelo://app?vid=0f798a45-ad1c-408a-bcd5-9fdadcc80470","ios":"levelo://app?vid=0f798a45-ad1c-408a-bcd5-9fdadcc80470"},"vehicle_type_id":"4","last_reported":1778860514,"current_range_meters":3600,"station_id":"","pricing_plan_id":"cebpf4jnsgd1na2vs0mg"},{"bike_id":"eb3d4ad3-e107-406a-b64d-35e58ed665f9","system_id":"levelo_inurba_marseille","lat":43.30377,"lon":5.42495,"is_reserved":false,"is_disabled":false,"rental_uris":{"android":"levelo://app?vid=eb3d4ad3-e107-406a-b64d-35e58ed665f9","ios":"levelo://app?vid=eb3d4ad3-e107-406a-b64d-35e58ed665f9"},"vehicle_type_id":"4","last_reported":1778860514,"current_range_meters":3600,"station_id":"ce4bhoh2rcd13ifvqh6g","pricing_plan_id":"cebpf4jnsgd1na2vs0mg"},{"bike_id":"4386a1a8-bd22-4967-a962-135850809da0","system_id":"levelo_inurba_marseille","lat":43.25863,"lon":5.39904,"is_reserved":false,"is_disabled":false,"rental_uris":{"android":"levelo://app?vid=4386a1a8-bd22-4967-a962-135850809da0","ios":"levelo://app?vid=4386a1a8-bd22-4967-a962-135850809da0"},"vehicle_type_id":"4","last_reported":1778860514,"current_range_meters":3600,"station_id":"ce4bhl92rcd13ifvqghg","pricing_plan_id":"cebpf4jnsgd1na2vs0mg"},{"bike_id":"5b635612-f0db-4ee6-940c-814a9d375565","system_id":"levelo_inurba_marseille","lat":43.26214,"lon":5.37426,"is_reserved":false,"is_disabled":false,"rental_uris":{"android":"levelo://app?vid=5b635612-f0db-4ee6-940c-814a9d375565","ios":"levelo://app?vid=5b635612-f0db-4ee6-940c-814a9d375565"},"vehicle_type_id":"4","last_reported":1778860514,"current_range_meters":3600,"station_id":"ce4bhgp2rcd13ifvqfc0","pricing_plan_id":"cebpf4jnsgd1na2vs0mg"},{"bike_id":"7371956d-65cc-4606-90ac-67524011e64b","system_id":"levelo_inurba_marseille","lat":43.26225,"lon":5.40471,"is_reserved":false,"is_disabled":false,"rental_uris":{"android":"levelo://app?vid=7371956d-65cc-4606-90ac-67524011e64b","ios":"levelo://app?vid=7371956d-65cc-4606-90ac-67524011e64b"},"vehicle_type_id":"4","last_reported":1778860514,"current_range_meters":3600,"station_id":"ce4bhmh2rcd13ifvqgmg","pricing_plan_id":"cebpf4jnsgd1na2vs0mg"},{"bike_id":"615bf618-424b-4b6c-8190-71a262419c01","system_id":"levelo_inurba_marseille","lat":43.2952,"lon":5.39398,"is_reserved":false,"is_disabled":false,"rental_uris":{"android":"levelo://app?vid=615bf618-424b-4b6c-8190-71a262419c01","ios":"levelo://app?vid=615bf618-424b-4b6c-8190-71a262419c01"},"vehicle_type_id":"4","last_reported":1778860514,"current_range_meters":3600,"station_id":"ce4bh292rcd13ifvqdf0","pricing_plan_id":"cebpf4jnsgd1na2vs0mg"},{"bike_id":"cc728bb2-11bb-4e0b-a02e-35acb2a61bdb","system_id":"levelo_inurba_marseille","lat":43.28445,"lon":5.39214,"is_reserved":false,"is_disabled":false,"rental_uris":{"android":"levelo://app?vid=cc728bb2-11bb-4e0b-a02e-35acb2a61bdb","ios":"levelo://app?vid=cc728bb2-11bb-4e0b-a02e-35acb2a61bdb"},"vehicle_type_id":"4","last_reported":1778860514,"current_range_meters":3600,"station_id":"ce4bhoh2rcd13ifvqh5g","pricing_plan_id":"cebpf4jnsgd1na2vs0mg"},{"bike_id":"34cc4d3a-e7bf-4318-861e-844fc97a8b48","system_id":"levelo_inurba_marseille","lat":43.3319,"lon":5.40638,"is_reserved":false,"is_disabled":false,"rental_uris":{"android":"levelo://app?vid=34cc4d3a-e7bf-4318-861e-844fc97a8b48","ios":"levelo://app?vid=34cc4d3a-e7bf-4318-861e-844fc97a8b48"},"vehicle_type_id":"4","last_reported":1778860514,"current_range_meters":3600,"station_id":"","pricing_plan_id":"cebpf4jnsgd1na2vs0mg"},{"bike_id":"d8eadd94-c92c-49f1-9eaf-bead0a260df5","system_id":"levelo_inurba_marseille","lat":43.29033,"lon":5.37563,"is_reserved":false,"is_disabled":false,"rental_uris":{"android":"levelo://app?vid=d8eadd94-c92c-49f1-9eaf-bead0a260df5","ios":"levelo://app?vid=d8eadd94-c92c-49f1-9eaf-bead0a260df5"},"vehicle_type_id":"4","last_reported":1778860514,"current_range_meters":3600,"station_id":"ce4bh692rcd13ifvqe90","pricing_plan_id":"cebpf4jnsgd1na2vs0mg"},{"bike_id":"45cf9c0b-6517-426d-84c8-131c878da5ef","system_id":"levelo_inurba_marseille","lat":43.295252,"lon":5.39406,"is_reserved":false,"is_disabled":false,"rental_uris":{"android":"levelo://app?vid=45cf9c0b-6517-426d-84c8-131c878da5ef","ios":"levelo://app?vid=45cf9c0b-6517-426d-84c8-131c878da5ef"},"vehicle_type_id":"4","last_reported":1778860514,"current_range_meters":3600,"station_id":"ce4bh292rcd13ifvqdf0","pricing_plan_id":"cebpf4jnsgd1na2vs0mg"},{"bike_id":"1fb450e9-ae02-4642-a99b-8f87062373f6","system_id":"levelo_inurba_marseille","lat":43.26372,"lon":5.41087,"is_reserved":false,"is_disabled":false,"rental_uris":{"android":"levelo://app?vid=1fb450e9-ae02-4642-a99b-8f87062373f6","ios":"levelo://app?vid=1fb450e9-ae02-4642-a99b-8f87062373f6"},"vehicle_type_id":"4","last_reported":1778860514,"current_range_meters":3600,"station_id":"st_d4e5ca6na9uc73bfl5fg","pricing_plan_id":"cebpf4jnsgd1na2vs0mg"},{"bike_id":"f61bd6b5-2fc0-4815-842c-74552042b784","system_id":"levelo_inurba_marseille","lat":43.28712,"lon":5.46682,"is_reserved":false,"is_disabled":false,"rental_uris":{"android":"levelo://app?vid=f61bd6b5-2fc0-4815-842c-74552042b784","ios":"levelo://app?vid=f61bd6b5-2fc0-4815-842c-74552042b784"},"vehicle_type_id":"4","last_reported":1778860514,"current_range_meters":4000,"station_id":"st_d6tc3vkotcvc738tfjhg","pricing_plan_id":"cebpf4jnsgd1na2vs0mg"},{"bike_id":"85bd4e25-b45d-406f-a2c2-dc99c5ee3273","system_id":"levelo_inurba_marseille","lat":43.25572,"lon":5.38263,"is_reserved":false,"is_disabled":false,"rental_uris":{"android":"levelo://app?vid=85bd4e25-b45d-406f-a2c2-dc99c5ee3273","ios":"levelo://app?vid=85bd4e25-b45d-406f-a2c2-dc99c5ee3273"},"vehicle_type_id":"4","last_reported":1778860514,"current_range_meters":4000,"station_id":"ce4bhih2rcd13ifvqfs0","pricing_plan_id":"cebpf4jnsgd1na2vs0mg"},{"bike_id":"8490b855-e3e6-4030-aec1-7a2ec37f6f43","system_id":"levelo_inurba_marseille","lat":43.29517,"lon":5.4058,"is_reserved":false,"is_disabled":false,"rental_uris":{"android":"levelo://app?vid=8490b855-e3e6-4030-aec1-7a2ec37f6f43","ios":"levelo://app?vid=8490b855-e3e6-4030-aec1-7a2ec37f6f43"},"vehicle_type_id":"4","last_reported":1778860514,"current_range_meters":4000,"station_id":"","pricing_plan_id":"cebpf4jnsgd1na2vs0mg"},{"bike_id":"a3107669-75fe-4279-bf66-e7fd55c77925","system_id":"levelo_inurba_marseille","lat":43.27511,"lon":5.41594,"is_reserved":false,"is_disabled":false,"rental_uris":{"android":"levelo://app?vid=a3107669-75fe-4279-bf66-e7fd55c77925","ios":"levelo://app?vid=a3107669-75fe-4279-bf66-e7fd55c77925"},"vehicle_type_id":"4","last_reported":1778860514,"current_range_meters":4000,"station_id":"st_d6im8g6chgec73a5pndg","pricing_plan_id":"cebpf4jnsgd1na2vs0mg"},{"bike_id":"d1e77208-f010-4d42-97b2-81a7c51c0243","system_id":"levelo_inurba_marseille","lat":43.3081,"lon":5.38147,"is_reserved":false,"is_disabled":true,"rental_uris":{"android":"levelo://app?vid=d1e77208-f010-4d42-97b2-81a7c51c0243","ios":"levelo://app?vid=d1e77208-f010-4d42-97b2-81a7c51c0243"},"vehicle_type_id":"4","last_reported":1778860514,"current_range_meters":4000,"station_id":"ce4bgt12rcd13ifvqce0","pricing_plan_id":"cebpf4jnsgd1na2vs0mg"},{"bike_id":"914108a0-f411-4c5e-aa00-8cc72a61a685","system_id":"levelo_inurba_marseille","lat":43.286146,"lon":5.398691,"is_reserved":false,"is_disabled":false,"rental_uris":{"android":"levelo://app?vid=914108a0-f411-4c5e-aa00-8cc72a61a685","ios":"levelo://app?vid=914108a0-f411-4c5e-aa00-8cc72a61a685"},"vehicle_type_id":"4","last_reported":1778860514,"current_range_meters":4000,"station_id":"st_d4a7ka997mjs738ck50g","pricing_plan_id":"cebpf4jnsgd1na2vs0mg"},{"bike_id":"f7374a26-d67c-417b-a8dc-c0cf50e048ba","system_id":"levelo_inurba_marseille","lat":43.30326,"lon":5.40426,"is_reserved":false,"is_disabled":false,"rental_uris":{"android":"levelo://app?vid=f7374a26-d67c-417b-a8dc-c0cf50e048ba","ios":"levelo://app?vid=f7374a26-d67c-417b-a8dc-c0cf50e048ba"},"vehicle_type_id":"4","last_reported":1778860514,"current_range_meters":4000,"station_id":"ce4bh012rcd13ifvqd10","pricing_plan_id":"cebpf4jnsgd1na2vs0mg"},{"bike_id":"5ce02f4a-3210-4acf-992d-4e4316cbea4f","system_id":"levelo_inurba_marseille","lat":43.28534,"lon":5.441,"is_reserved":false,"is_disabled":false,"rental_uris":{"android":"levelo://app?vid=5ce02f4a-3210-4acf-992d-4e4316cbea4f","ios":"levelo://app?vid=5ce02f4a-3210-4acf-992d-4e4316cbea4f"},"vehicle_type_id":"4","last_reported":1778860514,"current_range_meters":4000,"station_id":"st_d3j3df2ikq2c7380ej80","pricing_plan_id":"cebpf4jnsgd1na2vs0mg"},{"bike_id":"c929f9fc-d5ba-4e20-975b-fc65a7eda03e","system_id":"levelo_inurba_marseille","lat":43.25585,"lon":5.38235,"is_reserved":false,"is_disabled":false,"rental_uris":{"android":"levelo://app?vid=c929f9fc-d5ba-4e20-975b-fc65a7eda03e","ios":"levelo://app?vid=c929f9fc-d5ba-4e20-975b-fc65a7eda03e"},"vehicle_type_id":"4","last_reported":1778860514,"current_range_meters":4000,"station_id":"ce4bhih2rcd13ifvqfs0","pricing_plan_id":"cebpf4jnsgd1na2vs0mg"},{"bike_id":"b6cd6533-3180-4f47-b6d7-020b9729e199","system_id":"levelo_inurba_marseille","lat":43.23068,"lon":5.35486,"is_reserved":false,"is_disabled":false,"rental_uris":{"android":"levelo://app?vid=b6cd6533-3180-4f47-b6d7-020b9729e199","ios":"levelo://app?vid=b6cd6533-3180-4f47-b6d7-020b9729e199"},"vehicle_type_id":"4","last_reported":1778860514,"current_range_meters":4000,"station_id":"cpo3342slgdg3j2ifvpg","pricing_plan_id":"cebpf4jnsgd1na2vs0mg"},{"bike_id":"4f196515-e20d-4c26-b1db-f87413eb84b6","system_id":"levelo_inurba_marseille","lat":43.28728,"lon":5.3609,"is_reserved":false,"is_disabled":false,"rental_uris":{"android":"levelo://app?vid=4f196515-e20d-4c26-b1db-f87413eb84b6","ios":"levelo://app?vid=4f196515-e20d-4c26-b1db-f87413eb84b6"},"vehicle_type_id":"4","last_reported":1778860514,"current_range_meters":4000,"station_id":"cki0cbj6b192h4jlfktg","pricing_plan_id":"cebpf4jnsgd1na2vs0mg"},{"bike_id":"a8c6a963-0599-4c77-9965-0529c5fcbed8","system_id":"levelo_inurba_marseille","lat":43.29538,"lon":5.38517,"is_reserved":false,"is_disabled":false,"rental_uris":{"android":"levelo://app?vid=a8c6a963-0599-4c77-9965-0529c5fcbed8","ios":"levelo://app?vid=a8c6a963-0599-4c77-9965-0529c5fcbed8"},"vehicle_type_id":"4","last_reported":1778860514,"current_range_meters":4000,"station_id":"ce4bgih2rcd13ifvqba0","pricing_plan_id":"cebpf4jnsgd1na2vs0mg"},{"bike_id":"74c567f7-b93d-4d5d-9193-98b4977fe01a","system_id":"levelo_inurba_marseille","lat":43.27576,"lon":5.39528,"is_reserved":false,"is_disabled":false,"rental_uris":{"android":"levelo://app?vid=74c567f7-b93d-4d5d-9193-98b4977fe01a","ios":"levelo://app?vid=74c567f7-b93d-4d5d-9193-98b4977fe01a"},"vehicle_type_id":"4","last_reported":1778860514,"current_range_meters":4000,"station_id":"","pricing_plan_id":"cebpf4jnsgd1na2vs0mg"},{"bike_id":"12b40916-1947-4987-bdbe-adfc983ab10a","system_id":"levelo_inurba_marseille","lat":43.30377,"lon":5.42491,"is_reserved":false,"is_disabled":false,"rental_uris":{"android":"levelo://app?vid=12b40916-1947-4987-bdbe-adfc983ab10a","ios":"levelo://app?vid=12b40916-1947-4987-bdbe-adfc983ab10a"},"vehicle_type_id":"4","last_reported":1778860514,"current_range_meters":4000,"station_id":"ce4bhoh2rcd13ifvqh6g","pricing_plan_id":"cebpf4jnsgd1na2vs0mg"},{"bike_id":"5041e263-a003-4237-ae3b-a9f02805cfda","system_id":"levelo_inurba_marseille","lat":43.28702,"lon":5.42652,"is_reserved":false,"is_disabled":false,"rental_uris":{"android":"levelo://app?vid=5041e263-a003-4237-ae3b-a9f02805cfda","ios":"levelo://app?vid=5041e263-a003-4237-ae3b-a9f02805cfda"},"vehicle_type_id":"4","last_reported":1778860514,"current_range_meters":4000,"station_id":"","pricing_plan_id":"cebpf4jnsgd1na2vs0mg"},{"bike_id":"8fbd0612-dece-4262-a661-aee2766f8651","system_id":"levelo_inurba_marseille","lat":43.225359,"lon":5.348402,"is_reserved":false,"is_disabled":false,"rental_uris":{"android":"levelo://app?vid=8fbd0612-dece-4262-a661-aee2766f8651","ios":"levelo://app?vid=8fbd0612-dece-4262-a661-aee2766f8651"},"vehicle_type_id":"4","last_reported":1778860514,"current_range_meters":4000,"station_id":"st_cvj5dfep6f1abm77gieg","pricing_plan_id":"cebpf4jnsgd1na2vs0mg"},{"bike_id":"5d09f941-0b02-41c7-82a2-efc726f6823a","system_id":"levelo_inurba_marseille","lat":43.28346,"lon":5.38628,"is_reserved":false,"is_disabled":false,"rental_uris":{"android":"levelo://app?vid=5d09f941-0b02-41c7-82a2-efc726f6823a","ios":"levelo://app?vid=5d09f941-0b02-41c7-82a2-efc726f6823a"},"vehicle_type_id":"4","last_reported":1778860514,"current_range_meters":4400,"station_id":"ce4bh492rcd13ifvqdvg","pricing_plan_id":"cebpf4jnsgd1na2vs0mg"},{"bike_id":"fe7d93d6-045d-4262-9216-5e84078f29ac","system_id":"levelo_inurba_marseille","lat":43.24076,"lon":5.37757,"is_reserved":false,"is_disabled":true,"rental_uris":{"android":"levelo://app?vid=fe7d93d6-045d-4262-9216-5e84078f29ac","ios":"levelo://app?vid=fe7d93d6-045d-4262-9216-5e84078f29ac"},"vehicle_type_id":"4","last_reported":1778860514,"current_range_meters":4400,"station_id":"ce4bhnp2rcd13ifvqgvg","pricing_plan_id":"cebpf4jnsgd1na2vs0mg"},{"bike_id":"af31eeb7-aa54-412c-a364-9bccc5200845","system_id":"levelo_inurba_marseille","lat":43.29968,"lon":5.38503,"is_reserved":false,"is_disabled":false,"rental_uris":{"android":"levelo://app?vid=af31eeb7-aa54-412c-a364-9bccc5200845","ios":"levelo://app?vid=af31eeb7-aa54-412c-a364-9bccc5200845"},"vehicle_type_id":"4","last_reported":1778860514,"current_range_meters":4400,"station_id":"ce4bgj92rcd13ifvqbd0","pricing_plan_id":"cebpf4jnsgd1na2vs0mg"},{"bike_id":"4155b0fd-4d09-4b1d-bef7-05889aec4919","system_id":"levelo_inurba_marseille","lat":43.30212,"lon":5.39461,"is_reserved":false,"is_disabled":false,"rental_uris":{"android":"levelo://app?vid=4155b0fd-4d09-4b1d-bef7-05889aec4919","ios":"levelo://app?vid=4155b0fd-4d09-4b1d-bef7-05889aec4919"},"vehicle_type_id":"4","last_reported":1778860514,"current_range_meters":4400,"station_id":"ce4bh0p2rcd13ifvqd70","pricing_plan_id":"cebpf4jnsgd1na2vs0mg"},{"bike_id":"7c200d4e-8211-4fe1-be86-2e631cb36ad2","system_id":"levelo_inurba_marseille","lat":43.27379,"lon":5.36267,"is_reserved":false,"is_disabled":false,"rental_uris":{"android":"levelo://app?vid=7c200d4e-8211-4fe1-be86-2e631cb36ad2","ios":"levelo://app?vid=7c200d4e-8211-4fe1-be86-2e631cb36ad2"},"vehicle_type_id":"4","last_reported":1778860514,"current_range_meters":4400,"station_id":"ce4bhbh2rcd13ifvqeo0","pricing_plan_id":"cebpf4jnsgd1na2vs0mg"},{"bike_id":"4d916b27-a262-49c5-87a7-eab1bde8b1cb","system_id":"levelo_inurba_marseille","lat":43.30432,"lon":5.39751,"is_reserved":false,"is_disabled":false,"rental_uris":{"android":"levelo://app?vid=4d916b27-a262-49c5-87a7-eab1bde8b1cb","ios":"levelo://app?vid=4d916b27-a262-49c5-87a7-eab1bde8b1cb"},"vehicle_type_id":"4","last_reported":1778860514,"current_range_meters":4400,"station_id":"ce4bh092rcd13ifvqd20","pricing_plan_id":"cebpf4jnsgd1na2vs0mg"},{"bike_id":"7935e910-dedf-4086-997c-1daadcb1d121","system_id":"levelo_inurba_marseille","lat":43.28673,"lon":5.36349,"is_reserved":false,"is_disabled":false,"rental_uris":{"android":"levelo://app?vid=7935e910-dedf-4086-997c-1daadcb1d121","ios":"levelo://app?vid=7935e910-dedf-4086-997c-1daadcb1d121"},"vehicle_type_id":"4","last_reported":1778860514,"current_range_meters":4400,"station_id":"ce4bhah2rcd13ifvqej0","pricing_plan_id":"cebpf4jnsgd1na2vs0mg"},{"bike_id":"b7f4d5df-281d-4d4d-84d1-c8f941421d96","system_id":"levelo_inurba_marseille","lat":43.2738,"lon":5.36261,"is_reserved":false,"is_disabled":false,"rental_uris":{"android":"levelo://app?vid=b7f4d5df-281d-4d4d-84d1-c8f941421d96","ios":"levelo://app?vid=b7f4d5df-281d-4d4d-84d1-c8f941421d96"},"vehicle_type_id":"4","last_reported":1778860514,"current_range_meters":4400,"station_id":"ce4bhbh2rcd13ifvqeo0","pricing_plan_id":"cebpf4jnsgd1na2vs0mg"},{"bike_id":"1e2af8b3-62ab-41ef-8c6f-721044d0f7aa","system_id":"levelo_inurba_marseille","lat":43.29704,"lon":5.36607,"is_reserved":false,"is_disabled":false,"rental_uris":{"android":"levelo://app?vid=1e2af8b3-62ab-41ef-8c6f-721044d0f7aa","ios":"levelo://app?vid=1e2af8b3-62ab-41ef-8c6f-721044d0f7aa"},"vehicle_type_id":"4","last_reported":1778860514,"current_range_meters":4400,"station_id":"ce4bgn12rcd13ifvqbt0","pricing_plan_id":"cebpf4jnsgd1na2vs0mg"},{"bike_id":"e274e17c-c989-45d5-b305-b109876905c5","system_id":"levelo_inurba_marseille","lat":43.28532,"lon":5.44088,"is_reserved":false,"is_disabled":false,"rental_uris":{"android":"levelo://app?vid=e274e17c-c989-45d5-b305-b109876905c5","ios":"levelo://app?vid=e274e17c-c989-45d5-b305-b109876905c5"},"vehicle_type_id":"4","last_reported":1778860514,"current_range_meters":4400,"station_id":"st_d3j3df2ikq2c7380ej80","pricing_plan_id":"cebpf4jnsgd1na2vs0mg"},{"bike_id":"fb2be0ef-013d-46bf-8f29-2b202f23f6b8","system_id":"levelo_inurba_marseille","lat":43.29058,"lon":5.39991,"is_reserved":false,"is_disabled":true,"rental_uris":{"android":"levelo://app?vid=fb2be0ef-013d-46bf-8f29-2b202f23f6b8","ios":"levelo://app?vid=fb2be0ef-013d-46bf-8f29-2b202f23f6b8"},"vehicle_type_id":"4","last_reported":1778860514,"current_range_meters":4400,"station_id":"ce4bh392rcd13ifvqdm0","pricing_plan_id":"cebpf4jnsgd1na2vs0mg"},{"bike_id":"18deb3e6-63c0-49c6-91e8-e036f55611ee","system_id":"levelo_inurba_marseille","lat":43.29844,"lon":5.36269,"is_reserved":false,"is_disabled":false,"rental_uris":{"android":"levelo://app?vid=18deb3e6-63c0-49c6-91e8-e036f55611ee","ios":"levelo://app?vid=18deb3e6-63c0-49c6-91e8-e036f55611ee"},"vehicle_type_id":"4","last_reported":1778860514,"current_range_meters":4800,"station_id":"ce4bgpp2rcd13ifvqc3g","pricing_plan_id":"cebpf4jnsgd1na2vs0mg"},{"bike_id":"e66c181d-229d-4996-9fb7-9f90b89dc5a2","system_id":"levelo_inurba_marseille","lat":43.27203,"lon":5.39167,"is_reserved":false,"is_disabled":false,"rental_uris":{"android":"levelo://app?vid=e66c181d-229d-4996-9fb7-9f90b89dc5a2","ios":"levelo://app?vid=e66c181d-229d-4996-9fb7-9f90b89dc5a2"},"vehicle_type_id":"4","last_reported":1778860514,"current_range_meters":4800,"station_id":"ce4bhhp2rcd13ifvqfm0","pricing_plan_id":"cebpf4jnsgd1na2vs0mg"},{"bike_id":"e68395aa-2161-4934-b97f-9ce401107932","system_id":"levelo_inurba_marseille","lat":43.28845,"lon":5.39648,"is_reserved":false,"is_disabled":false,"rental_uris":{"android":"levelo://app?vid=e68395aa-2161-4934-b97f-9ce401107932","ios":"levelo://app?vid=e68395aa-2161-4934-b97f-9ce401107932"},"vehicle_type_id":"4","last_reported":1778860514,"current_range_meters":4800,"station_id":"","pricing_plan_id":"cebpf4jnsgd1na2vs0mg"},{"bike_id":"282246c2-87cf-4b8a-8a35-9f3a773e1511","system_id":"levelo_inurba_marseille","lat":43.27374,"lon":5.36254,"is_reserved":false,"is_disabled":false,"rental_uris":{"android":"levelo://app?vid=282246c2-87cf-4b8a-8a35-9f3a773e1511","ios":"levelo://app?vid=282246c2-87cf-4b8a-8a35-9f3a773e1511"},"vehicle_type_id":"4","last_reported":1778860514,"current_range_meters":4800,"station_id":"ce4bhbh2rcd13ifvqeo0","pricing_plan_id":"cebpf4jnsgd1na2vs0mg"},{"bike_id":"a74cd36c-7b0f-4adc-878c-718ad575213b","system_id":"levelo_inurba_marseille","lat":43.295197,"lon":5.394025,"is_reserved":false,"is_disabled":false,"rental_uris":{"android":"levelo://app?vid=a74cd36c-7b0f-4adc-878c-718ad575213b","ios":"levelo://app?vid=a74cd36c-7b0f-4adc-878c-718ad575213b"},"vehicle_type_id":"4","last_reported":1778860514,"current_range_meters":4800,"station_id":"ce4bh292rcd13ifvqdf0","pricing_plan_id":"cebpf4jnsgd1na2vs0mg"},{"bike_id":"0d0d63cb-ee66-44d3-8967-305e9399fa3a","system_id":"levelo_inurba_marseille","lat":43.30299,"lon":5.39219,"is_reserved":false,"is_disabled":false,"rental_uris":{"android":"levelo://app?vid=0d0d63cb-ee66-44d3-8967-305e9399fa3a","ios":"levelo://app?vid=0d0d63cb-ee66-44d3-8967-305e9399fa3a"},"vehicle_type_id":"4","last_reported":1778860514,"current_range_meters":4800,"station_id":"ce4bgkh2rcd13ifvqbk0","pricing_plan_id":"cebpf4jnsgd1na2vs0mg"},{"bike_id":"f3eea6d4-1b6b-45ad-bddd-3b24c1d0acd4","system_id":"levelo_inurba_marseille","lat":43.28544,"lon":5.44112,"is_reserved":false,"is_disabled":false,"rental_uris":{"android":"levelo://app?vid=f3eea6d4-1b6b-45ad-bddd-3b24c1d0acd4","ios":"levelo://app?vid=f3eea6d4-1b6b-45ad-bddd-3b24c1d0acd4"},"vehicle_type_id":"4","last_reported":1778860514,"current_range_meters":4800,"station_id":"st_d3j3df2ikq2c7380ej80","pricing_plan_id":"cebpf4jnsgd1na2vs0mg"},{"bike_id":"3dcc69de-df33-47d4-9744-23d3fa90d27f","system_id":"levelo_inurba_marseille","lat":43.30296,"lon":5.392115,"is_reserved":false,"is_disabled":false,"rental_uris":{"android":"levelo://app?vid=3dcc69de-df33-47d4-9744-23d3fa90d27f","ios":"levelo://app?vid=3dcc69de-df33-47d4-9744-23d3fa90d27f"},"vehicle_type_id":"4","last_reported":1778860514,"current_range_meters":4800,"station_id":"ce4bgkh2rcd13ifvqbk0","pricing_plan_id":"cebpf4jnsgd1na2vs0mg"},{"bike_id":"a6d30950-9426-4056-a129-ffab5dbdb61e","system_id":"levelo_inurba_marseille","lat":43.33546,"lon":5.37463,"is_reserved":false,"is_disabled":false,"rental_uris":{"android":"levelo://app?vid=a6d30950-9426-4056-a129-ffab5dbdb61e","ios":"levelo://app?vid=a6d30950-9426-4056-a129-ffab5dbdb61e"},"vehicle_type_id":"4","last_reported":1778860514,"current_range_meters":4800,"station_id":"st_d46tts09ee8s73dlu43g","pricing_plan_id":"cebpf4jnsgd1na2vs0mg"},{"bike_id":"8ff45fc5-c5e6-4b37-bab9-5f5ce4affec1","system_id":"levelo_inurba_marseille","lat":43.27997,"lon":5.40009,"is_reserved":false,"is_disabled":false,"rental_uris":{"android":"levelo://app?vid=8ff45fc5-c5e6-4b37-bab9-5f5ce4affec1","ios":"levelo://app?vid=8ff45fc5-c5e6-4b37-bab9-5f5ce4affec1"},"vehicle_type_id":"4","last_reported":1778860514,"current_range_meters":4800,"station_id":"ce4bho92rcd13ifvqh4g","pricing_plan_id":"cebpf4jnsgd1na2vs0mg"},{"bike_id":"bea04ebb-b529-4c69-8cdb-d6036ea90e41","system_id":"levelo_inurba_marseille","lat":43.28619,"lon":5.351,"is_reserved":false,"is_disabled":false,"rental_uris":{"android":"levelo://app?vid=bea04ebb-b529-4c69-8cdb-d6036ea90e41","ios":"levelo://app?vid=bea04ebb-b529-4c69-8cdb-d6036ea90e41"},"vehicle_type_id":"4","last_reported":1778860514,"current_range_meters":4800,"station_id":"ce4bhch2rcd13ifvqeug","pricing_plan_id":"cebpf4jnsgd1na2vs0mg"},{"bike_id":"b6891aac-0884-4126-8ee5-c964eca3a759","system_id":"levelo_inurba_marseille","lat":43.29633,"lon":5.38015,"is_reserved":false,"is_disabled":false,"rental_uris":{"android":"levelo://app?vid=b6891aac-0884-4126-8ee5-c964eca3a759","ios":"levelo://app?vid=b6891aac-0884-4126-8ee5-c964eca3a759"},"vehicle_type_id":"4","last_reported":1778860514,"current_range_meters":4800,"station_id":"","pricing_plan_id":"cebpf4jnsgd1na2vs0mg"},{"bike_id":"e4b04f72-bec1-4cdf-a147-70a1ad1ad1e7","system_id":"levelo_inurba_marseille","lat":43.260246,"lon":5.375555,"is_reserved":false,"is_disabled":false,"rental_uris":{"android":"levelo://app?vid=e4b04f72-bec1-4cdf-a147-70a1ad1ad1e7","ios":"levelo://app?vid=e4b04f72-bec1-4cdf-a147-70a1ad1ad1e7"},"vehicle_type_id":"4","last_reported":1778860514,"current_range_meters":4800,"station_id":"ce4bhgh2rcd13ifvqfa0","pricing_plan_id":"cebpf4jnsgd1na2vs0mg"},{"bike_id":"1147defb-6174-4c03-ab1a-5052170adbb6","system_id":"levelo_inurba_marseille","lat":43.237844,"lon":5.366335,"is_reserved":false,"is_disabled":false,"rental_uris":{"android":"levelo://app?vid=1147defb-6174-4c03-ab1a-5052170adbb6","ios":"levelo://app?vid=1147defb-6174-4c03-ab1a-5052170adbb6"},"vehicle_type_id":"4","last_reported":1778860514,"current_range_meters":4800,"station_id":"st_d3nk18o9ro0c73en2l3g","pricing_plan_id":"cebpf4jnsgd1na2vs0mg"},{"bike_id":"83dcb175-12c5-418e-b1e3-52492229a3f4","system_id":"levelo_inurba_marseille","lat":43.22532,"lon":5.34853,"is_reserved":false,"is_disabled":false,"rental_uris":{"android":"levelo://app?vid=83dcb175-12c5-418e-b1e3-52492229a3f4","ios":"levelo://app?vid=83dcb175-12c5-418e-b1e3-52492229a3f4"},"vehicle_type_id":"4","last_reported":1778860514,"current_range_meters":5600,"station_id":"st_cvj5dfep6f1abm77gieg","pricing_plan_id":"cebpf4jnsgd1na2vs0mg"},{"bike_id":"8787245e-192a-4a58-8f6d-171a097bad29","system_id":"levelo_inurba_marseille","lat":43.24811,"lon":5.37441,"is_reserved":false,"is_disabled":false,"rental_uris":{"android":"levelo://app?vid=8787245e-192a-4a58-8f6d-171a097bad29","ios":"levelo://app?vid=8787245e-192a-4a58-8f6d-171a097bad29"},"vehicle_type_id":"4","last_reported":1778860514,"current_range_meters":5600,"station_id":"ce4bhgh2rcd13ifvqfb0","pricing_plan_id":"cebpf4jnsgd1na2vs0mg"},{"bike_id":"9824cae9-b0e9-476c-9253-330e69e1e476","system_id":"levelo_inurba_marseille","lat":43.27919,"lon":5.39223,"is_reserved":false,"is_disabled":false,"rental_uris":{"android":"levelo://app?vid=9824cae9-b0e9-476c-9253-330e69e1e476","ios":"levelo://app?vid=9824cae9-b0e9-476c-9253-330e69e1e476"},"vehicle_type_id":"4","last_reported":1778860514,"current_range_meters":5600,"station_id":"","pricing_plan_id":"cebpf4jnsgd1na2vs0mg"},{"bike_id":"caa1e77b-e366-4856-92bf-877daee812e3","system_id":"levelo_inurba_marseille","lat":43.27617,"lon":5.36134,"is_reserved":false,"is_disabled":false,"rental_uris":{"android":"levelo://app?vid=caa1e77b-e366-4856-92bf-877daee812e3","ios":"levelo://app?vid=caa1e77b-e366-4856-92bf-877daee812e3"},"vehicle_type_id":"4","last_reported":1778860514,"current_range_meters":5600,"station_id":"ce4bgj92rcd13ifvqbe0","pricing_plan_id":"cebpf4jnsgd1na2vs0mg"},{"bike_id":"38b7b14a-beb3-4b24-9112-567c53be6e0b","system_id":"levelo_inurba_marseille","lat":43.31747,"lon":5.39007,"is_reserved":false,"is_disabled":false,"rental_uris":{"android":"levelo://app?vid=38b7b14a-beb3-4b24-9112-567c53be6e0b","ios":"levelo://app?vid=38b7b14a-beb3-4b24-9112-567c53be6e0b"},"vehicle_type_id":"4","last_reported":1778860514,"current_range_meters":5600,"station_id":"ce4bhqp2rcd13ifvqhng","pricing_plan_id":"cebpf4jnsgd1na2vs0mg"},{"bike_id":"47becb97-fc16-4a28-89ed-8cbe23e4b367","system_id":"levelo_inurba_marseille","lat":43.30914,"lon":5.36836,"is_reserved":false,"is_disabled":false,"rental_uris":{"android":"levelo://app?vid=47becb97-fc16-4a28-89ed-8cbe23e4b367","ios":"levelo://app?vid=47becb97-fc16-4a28-89ed-8cbe23e4b367"},"vehicle_type_id":"4","last_reported":1778860514,"current_range_meters":5600,"station_id":"ce4bgn92rcd13ifvqbvg","pricing_plan_id":"cebpf4jnsgd1na2vs0mg"},{"bike_id":"95cc4cc8-3880-4bc2-b650-123840016246","system_id":"levelo_inurba_marseille","lat":43.3355,"lon":5.37464,"is_reserved":false,"is_disabled":false,"rental_uris":{"android":"levelo://app?vid=95cc4cc8-3880-4bc2-b650-123840016246","ios":"levelo://app?vid=95cc4cc8-3880-4bc2-b650-123840016246"},"vehicle_type_id":"4","last_reported":1778860514,"current_range_meters":5600,"station_id":"st_d46tts09ee8s73dlu43g","pricing_plan_id":"cebpf4jnsgd1na2vs0mg"},{"bike_id":"e4e42e37-4072-4208-b214-fc8e53dbff74","system_id":"levelo_inurba_marseille","lat":43.28483,"lon":5.38426,"is_reserved":false,"is_disabled":false,"rental_uris":{"android":"levelo://app?vid=e4e42e37-4072-4208-b214-fc8e53dbff74","ios":"levelo://app?vid=e4e42e37-4072-4208-b214-fc8e53dbff74"},"vehicle_type_id":"4","last_reported":1778860514,"current_range_meters":5600,"station_id":"ce4bh512rcd13ifvqe3g","pricing_plan_id":"cebpf4jnsgd1na2vs0mg"},{"bike_id":"4ed7626c-4035-4109-b2a7-eb408a50f1c8","system_id":"levelo_inurba_marseille","lat":43.28153,"lon":5.42659,"is_reserved":false,"is_disabled":false,"rental_uris":{"android":"levelo://app?vid=4ed7626c-4035-4109-b2a7-eb408a50f1c8","ios":"levelo://app?vid=4ed7626c-4035-4109-b2a7-eb408a50f1c8"},"vehicle_type_id":"4","last_reported":1778860514,"current_range_meters":5600,"station_id":"ce4bhnh2rcd13ifvqgug","pricing_plan_id":"cebpf4jnsgd1na2vs0mg"},{"bike_id":"2bf57112-a4df-4c85-8876-921c6e54fa9c","system_id":"levelo_inurba_marseille","lat":43.24658,"lon":5.38157,"is_reserved":false,"is_disabled":false,"rental_uris":{"android":"levelo://app?vid=2bf57112-a4df-4c85-8876-921c6e54fa9c","ios":"levelo://app?vid=2bf57112-a4df-4c85-8876-921c6e54fa9c"},"vehicle_type_id":"4","last_reported":1778860514,"current_range_meters":5600,"station_id":"ce4bhih2rcd13ifvqfr0","pricing_plan_id":"cebpf4jnsgd1na2vs0mg"},{"bike_id":"84030b31-de2d-40d3-ac3b-36f8cca2402d","system_id":"levelo_inurba_marseille","lat":43.28521,"lon":5.48417,"is_reserved":false,"is_disabled":false,"rental_uris":{"android":"levelo://app?vid=84030b31-de2d-40d3-ac3b-36f8cca2402d","ios":"levelo://app?vid=84030b31-de2d-40d3-ac3b-36f8cca2402d"},"vehicle_type_id":"4","last_reported":1778860514,"current_range_meters":5600,"station_id":"","pricing_plan_id":"cebpf4jnsgd1na2vs0mg"},{"bike_id":"a473a236-9174-44d9-b585-fbedda8251ef","system_id":"levelo_inurba_marseille","lat":43.27374,"lon":5.36248,"is_reserved":false,"is_disabled":false,"rental_uris":{"android":"levelo://app?vid=a473a236-9174-44d9-b585-fbedda8251ef","ios":"levelo://app?vid=a473a236-9174-44d9-b585-fbedda8251ef"},"vehicle_type_id":"4","last_reported":1778860514,"current_range_meters":5600,"station_id":"ce4bhbh2rcd13ifvqeo0","pricing_plan_id":"cebpf4jnsgd1na2vs0mg"},{"bike_id":"37dbd673-47f3-43ae-9cdc-ff90230182e1","system_id":"levelo_inurba_marseille","lat":43.26192,"lon":5.37473,"is_reserved":false,"is_disabled":true,"rental_uris":{"android":"levelo://app?vid=37dbd673-47f3-43ae-9cdc-ff90230182e1","ios":"levelo://app?vid=37dbd673-47f3-43ae-9cdc-ff90230182e1"},"vehicle_type_id":"4","last_reported":1778860514,"current_range_meters":5600,"station_id":"ce4bhgp2rcd13ifvqfc0","pricing_plan_id":"cebpf4jnsgd1na2vs0mg"},{"bike_id":"0814cb57-df6e-484f-aa67-d40877bd1284","system_id":"levelo_inurba_marseille","lat":43.2871,"lon":5.3795,"is_reserved":false,"is_disabled":false,"rental_uris":{"android":"levelo://app?vid=0814cb57-df6e-484f-aa67-d40877bd1284","ios":"levelo://app?vid=0814cb57-df6e-484f-aa67-d40877bd1284"},"vehicle_type_id":"4","last_reported":1778860514,"current_range_meters":5600,"station_id":"ce4bh9p2rcd13ifvqec0","pricing_plan_id":"cebpf4jnsgd1na2vs0mg"},{"bike_id":"29454027-44e6-46aa-b1f3-3c2b0ae34a44","system_id":"levelo_inurba_marseille","lat":43.29703,"lon":5.36617,"is_reserved":false,"is_disabled":false,"rental_uris":{"android":"levelo://app?vid=29454027-44e6-46aa-b1f3-3c2b0ae34a44","ios":"levelo://app?vid=29454027-44e6-46aa-b1f3-3c2b0ae34a44"},"vehicle_type_id":"4","last_reported":1778860514,"current_range_meters":5600,"station_id":"ce4bgn12rcd13ifvqbt0","pricing_plan_id":"cebpf4jnsgd1na2vs0mg"},{"bike_id":"80fc9781-3a82-4256-933f-7d3ac28318f2","system_id":"levelo_inurba_marseille","lat":43.2174,"lon":5.34619,"is_reserved":false,"is_disabled":false,"rental_uris":{"android":"levelo://app?vid=80fc9781-3a82-4256-933f-7d3ac28318f2","ios":"levelo://app?vid=80fc9781-3a82-4256-933f-7d3ac28318f2"},"vehicle_type_id":"4","last_reported":1778860514,"current_range_meters":5600,"station_id":"st_cvj6r9ubvosntc0bgbag","pricing_plan_id":"cebpf4jnsgd1na2vs0mg"},{"bike_id":"31e2f297-74b3-45b6-8075-62f9e515ef2a","system_id":"levelo_inurba_marseille","lat":43.25327,"lon":5.42281,"is_reserved":false,"is_disabled":false,"rental_uris":{"android":"levelo://app?vid=31e2f297-74b3-45b6-8075-62f9e515ef2a","ios":"levelo://app?vid=31e2f297-74b3-45b6-8075-62f9e515ef2a"},"vehicle_type_id":"4","last_reported":1778860514,"current_range_meters":5600,"station_id":"st_d2m65c5bi1j21697t3ng","pricing_plan_id":"cebpf4jnsgd1na2vs0mg"},{"bike_id":"cc7cfa3f-b175-4374-9f69-80fb45043698","system_id":"levelo_inurba_marseille","lat":43.31353,"lon":5.367,"is_reserved":false,"is_disabled":false,"rental_uris":{"android":"levelo://app?vid=cc7cfa3f-b175-4374-9f69-80fb45043698","ios":"levelo://app?vid=cc7cfa3f-b175-4374-9f69-80fb45043698"},"vehicle_type_id":"4","last_reported":1778860514,"current_range_meters":6000,"station_id":"ce4bgr92rcd13ifvqc6g","pricing_plan_id":"cebpf4jnsgd1na2vs0mg"},{"bike_id":"5b9dc5e4-7984-4f7d-b844-1e8e2effe550","system_id":"levelo_inurba_marseille","lat":43.21738,"lon":5.34601,"is_reserved":false,"is_disabled":false,"rental_uris":{"android":"levelo://app?vid=5b9dc5e4-7984-4f7d-b844-1e8e2effe550","ios":"levelo://app?vid=5b9dc5e4-7984-4f7d-b844-1e8e2effe550"},"vehicle_type_id":"4","last_reported":1778860514,"current_range_meters":6000,"station_id":"st_cvj6r9ubvosntc0bgbag","pricing_plan_id":"cebpf4jnsgd1na2vs0mg"},{"bike_id":"2df43119-0312-4e2b-a014-08257e78706f","system_id":"levelo_inurba_marseille","lat":43.22559,"lon":5.34806,"is_reserved":false,"is_disabled":true,"rental_uris":{"android":"levelo://app?vid=2df43119-0312-4e2b-a014-08257e78706f","ios":"levelo://app?vid=2df43119-0312-4e2b-a014-08257e78706f"},"vehicle_type_id":"4","last_reported":1778860514,"current_range_meters":6000,"station_id":"st_cvj5dfep6f1abm77gieg","pricing_plan_id":"cebpf4jnsgd1na2vs0mg"},{"bike_id":"c3cbd7d3-d30f-4ddf-bc57-1f6204a78169","system_id":"levelo_inurba_marseille","lat":43.23957,"lon":5.36637,"is_reserved":false,"is_disabled":false,"rental_uris":{"android":"levelo://app?vid=c3cbd7d3-d30f-4ddf-bc57-1f6204a78169","ios":"levelo://app?vid=c3cbd7d3-d30f-4ddf-bc57-1f6204a78169"},"vehicle_type_id":"4","last_reported":1778860514,"current_range_meters":6000,"station_id":"ce4bhi12rcd13ifvqfp0","pricing_plan_id":"cebpf4jnsgd1na2vs0mg"},{"bike_id":"e5c0491e-68d5-4cb2-87cf-0ff1befcedbe","system_id":"levelo_inurba_marseille","lat":43.30472,"lon":5.37909,"is_reserved":false,"is_disabled":false,"rental_uris":{"android":"levelo://app?vid=e5c0491e-68d5-4cb2-87cf-0ff1befcedbe","ios":"levelo://app?vid=e5c0491e-68d5-4cb2-87cf-0ff1befcedbe"},"vehicle_type_id":"4","last_reported":1778860514,"current_range_meters":6000,"station_id":"ce4bgup2rcd13ifvqcn0","pricing_plan_id":"cebpf4jnsgd1na2vs0mg"},{"bike_id":"308b2a05-db73-4a42-b7bb-201e4c98e0c2","system_id":"levelo_inurba_marseille","lat":43.27081,"lon":5.42269,"is_reserved":false,"is_disabled":false,"rental_uris":{"android":"levelo://app?vid=308b2a05-db73-4a42-b7bb-201e4c98e0c2","ios":"levelo://app?vid=308b2a05-db73-4a42-b7bb-201e4c98e0c2"},"vehicle_type_id":"4","last_reported":1778860514,"current_range_meters":6000,"station_id":"ce4bhk92rcd13ifvqgb0","pricing_plan_id":"cebpf4jnsgd1na2vs0mg"},{"bike_id":"dab0da80-ed77-4706-b4e6-cce61a57da5e","system_id":"levelo_inurba_marseille","lat":43.32541,"lon":5.41434,"is_reserved":false,"is_disabled":false,"rental_uris":{"android":"levelo://app?vid=dab0da80-ed77-4706-b4e6-cce61a57da5e","ios":"levelo://app?vid=dab0da80-ed77-4706-b4e6-cce61a57da5e"},"vehicle_type_id":"4","last_reported":1778860514,"current_range_meters":6000,"station_id":"ce4bhq12rcd13ifvqhhg","pricing_plan_id":"cebpf4jnsgd1na2vs0mg"},{"bike_id":"14993b33-a640-4e36-ab98-47f2eaada32d","system_id":"levelo_inurba_marseille","lat":43.26573,"lon":5.39053,"is_reserved":false,"is_disabled":false,"rental_uris":{"android":"levelo://app?vid=14993b33-a640-4e36-ab98-47f2eaada32d","ios":"levelo://app?vid=14993b33-a640-4e36-ab98-47f2eaada32d"},"vehicle_type_id":"4","last_reported":1778860514,"current_range_meters":6000,"station_id":"ce4bhe12rcd13ifvqf30","pricing_plan_id":"cebpf4jnsgd1na2vs0mg"},{"bike_id":"b8ede090-1d49-43bf-b657-19fc68d7f376","system_id":"levelo_inurba_marseille","lat":43.30169,"lon":5.38095,"is_reserved":false,"is_disabled":true,"rental_uris":{"android":"levelo://app?vid=b8ede090-1d49-43bf-b657-19fc68d7f376","ios":"levelo://app?vid=b8ede090-1d49-43bf-b657-19fc68d7f376"},"vehicle_type_id":"4","last_reported":1778860514,"current_range_meters":6000,"station_id":"ce4bgjp2rcd13ifvqbh0","pricing_plan_id":"cebpf4jnsgd1na2vs0mg"},{"bike_id":"a85484b5-842c-4858-a15f-598c4f4664f7","system_id":"levelo_inurba_marseille","lat":43.229304,"lon":5.353776,"is_reserved":false,"is_disabled":false,"rental_uris":{"android":"levelo://app?vid=a85484b5-842c-4858-a15f-598c4f4664f7","ios":"levelo://app?vid=a85484b5-842c-4858-a15f-598c4f4664f7"},"vehicle_type_id":"4","last_reported":1778860514,"current_range_meters":6000,"station_id":"cpo3532slgdg3j2ikp40","pricing_plan_id":"cebpf4jnsgd1na2vs0mg"},{"bike_id":"6dcd8d99-502a-4f0e-a5c8-f2c7cfec4cb0","system_id":"levelo_inurba_marseille","lat":43.26384,"lon":5.40295,"is_reserved":false,"is_disabled":false,"rental_uris":{"android":"levelo://app?vid=6dcd8d99-502a-4f0e-a5c8-f2c7cfec4cb0","ios":"levelo://app?vid=6dcd8d99-502a-4f0e-a5c8-f2c7cfec4cb0"},"vehicle_type_id":"4","last_reported":1778860514,"current_range_meters":6000,"station_id":"","pricing_plan_id":"cebpf4jnsgd1na2vs0mg"},{"bike_id":"42e71ca5-2054-4a5b-8a07-dcf4e71610df","system_id":"levelo_inurba_marseille","lat":43.24459,"lon":5.42533,"is_reserved":false,"is_disabled":false,"rental_uris":{"android":"levelo://app?vid=42e71ca5-2054-4a5b-8a07-dcf4e71610df","ios":"levelo://app?vid=42e71ca5-2054-4a5b-8a07-dcf4e71610df"},"vehicle_type_id":"4","last_reported":1778860514,"current_range_meters":6000,"station_id":"st_d4a3vfp97mjs738cd8kg","pricing_plan_id":"cebpf4jnsgd1na2vs0mg"},{"bike_id":"0942f3a5-8ddd-43eb-8c0b-e78bd4c11b58","system_id":"levelo_inurba_marseille","lat":43.27069,"lon":5.42276,"is_reserved":false,"is_disabled":false,"rental_uris":{"android":"levelo://app?vid=0942f3a5-8ddd-43eb-8c0b-e78bd4c11b58","ios":"levelo://app?vid=0942f3a5-8ddd-43eb-8c0b-e78bd4c11b58"},"vehicle_type_id":"4","last_reported":1778860514,"current_range_meters":6000,"station_id":"ce4bhk92rcd13ifvqgb0","pricing_plan_id":"cebpf4jnsgd1na2vs0mg"},{"bike_id":"19130b4e-a78d-444d-9c2c-983ce5379600","system_id":"levelo_inurba_marseille","lat":43.262078,"lon":5.374498,"is_reserved":false,"is_disabled":false,"rental_uris":{"android":"levelo://app?vid=19130b4e-a78d-444d-9c2c-983ce5379600","ios":"levelo://app?vid=19130b4e-a78d-444d-9c2c-983ce5379600"},"vehicle_type_id":"4","last_reported":1778860514,"current_range_meters":6000,"station_id":"ce4bhgp2rcd13ifvqfc0","pricing_plan_id":"cebpf4jnsgd1na2vs0mg"},{"bike_id":"38c5589d-a5cb-4dd2-a069-b8f627f74bc6","system_id":"levelo_inurba_marseille","lat":43.294414,"lon":5.397501,"is_reserved":false,"is_disabled":false,"rental_uris":{"android":"levelo://app?vid=38c5589d-a5cb-4dd2-a069-b8f627f74bc6","ios":"levelo://app?vid=38c5589d-a5cb-4dd2-a069-b8f627f74bc6"},"vehicle_type_id":"4","last_reported":1778860514,"current_range_meters":6000,"station_id":"ce4bh3h2rcd13ifvqdo0","pricing_plan_id":"cebpf4jnsgd1na2vs0mg"},{"bike_id":"398c274f-cb2c-452c-a097-6f22b3d5458f","system_id":"levelo_inurba_marseille","lat":43.24082,"lon":5.37716,"is_reserved":false,"is_disabled":false,"rental_uris":{"android":"levelo://app?vid=398c274f-cb2c-452c-a097-6f22b3d5458f","ios":"levelo://app?vid=398c274f-cb2c-452c-a097-6f22b3d5458f"},"vehicle_type_id":"4","last_reported":1778860514,"current_range_meters":6400,"station_id":"ce4bhnp2rcd13ifvqgvg","pricing_plan_id":"cebpf4jnsgd1na2vs0mg"},{"bike_id":"1c31eb9b-695a-43f3-93a0-3d286e13ad8a","system_id":"levelo_inurba_marseille","lat":43.28266,"lon":5.35086,"is_reserved":false,"is_disabled":true,"rental_uris":{"android":"levelo://app?vid=1c31eb9b-695a-43f3-93a0-3d286e13ad8a","ios":"levelo://app?vid=1c31eb9b-695a-43f3-93a0-3d286e13ad8a"},"vehicle_type_id":"4","last_reported":1778860514,"current_range_meters":6400,"station_id":"ce4bhbp2rcd13ifvqerg","pricing_plan_id":"cebpf4jnsgd1na2vs0mg"},{"bike_id":"0178064c-0d65-4ac2-a36c-2461cd9005e6","system_id":"levelo_inurba_marseille","lat":43.30532,"lon":5.36536,"is_reserved":false,"is_disabled":false,"rental_uris":{"android":"levelo://app?vid=0178064c-0d65-4ac2-a36c-2461cd9005e6","ios":"levelo://app?vid=0178064c-0d65-4ac2-a36c-2461cd9005e6"},"vehicle_type_id":"4","last_reported":1778860514,"current_range_meters":6400,"station_id":"ce4bgs12rcd13ifvqcag","pricing_plan_id":"cebpf4jnsgd1na2vs0mg"},{"bike_id":"e6cb1df4-9ad4-44a6-9271-cfe63cc286b7","system_id":"levelo_inurba_marseille","lat":43.28919,"lon":5.36222,"is_reserved":false,"is_disabled":false,"rental_uris":{"android":"levelo://app?vid=e6cb1df4-9ad4-44a6-9271-cfe63cc286b7","ios":"levelo://app?vid=e6cb1df4-9ad4-44a6-9271-cfe63cc286b7"},"vehicle_type_id":"4","last_reported":1778860514,"current_range_meters":6400,"station_id":"","pricing_plan_id":"cebpf4jnsgd1na2vs0mg"},{"bike_id":"ae26d1a7-3c75-4529-94ff-afc1a0629f52","system_id":"levelo_inurba_marseille","lat":43.26222,"lon":5.38769,"is_reserved":false,"is_disabled":false,"rental_uris":{"android":"levelo://app?vid=ae26d1a7-3c75-4529-94ff-afc1a0629f52","ios":"levelo://app?vid=ae26d1a7-3c75-4529-94ff-afc1a0629f52"},"vehicle_type_id":"4","last_reported":1778860514,"current_range_meters":6400,"station_id":"","pricing_plan_id":"cebpf4jnsgd1na2vs0mg"},{"bike_id":"d759e6d5-68e6-41b5-9afb-8af20fe9d3fe","system_id":"levelo_inurba_marseille","lat":43.24809,"lon":5.37464,"is_reserved":false,"is_disabled":false,"rental_uris":{"android":"levelo://app?vid=d759e6d5-68e6-41b5-9afb-8af20fe9d3fe","ios":"levelo://app?vid=d759e6d5-68e6-41b5-9afb-8af20fe9d3fe"},"vehicle_type_id":"4","last_reported":1778860514,"current_range_meters":6400,"station_id":"ce4bhgh2rcd13ifvqfb0","pricing_plan_id":"cebpf4jnsgd1na2vs0mg"},{"bike_id":"4b3d7435-f511-432b-9b30-fb8fcac3fe1b","system_id":"levelo_inurba_marseille","lat":43.25091,"lon":5.39521,"is_reserved":false,"is_disabled":false,"rental_uris":{"android":"levelo://app?vid=4b3d7435-f511-432b-9b30-fb8fcac3fe1b","ios":"levelo://app?vid=4b3d7435-f511-432b-9b30-fb8fcac3fe1b"},"vehicle_type_id":"4","last_reported":1778860514,"current_range_meters":6400,"station_id":"ce4bhm12rcd13ifvqgkg","pricing_plan_id":"cebpf4jnsgd1na2vs0mg"},{"bike_id":"7b933543-14fe-482e-b03e-9428bff3fe0d","system_id":"levelo_inurba_marseille","lat":43.28541,"lon":5.44103,"is_reserved":false,"is_disabled":false,"rental_uris":{"android":"levelo://app?vid=7b933543-14fe-482e-b03e-9428bff3fe0d","ios":"levelo://app?vid=7b933543-14fe-482e-b03e-9428bff3fe0d"},"vehicle_type_id":"4","last_reported":1778860514,"current_range_meters":6400,"station_id":"st_d3j3df2ikq2c7380ej80","pricing_plan_id":"cebpf4jnsgd1na2vs0mg"},{"bike_id":"53c8a2cb-e916-43f6-941e-8990c0e09d28","system_id":"levelo_inurba_marseille","lat":43.22546,"lon":5.34897,"is_reserved":false,"is_disabled":false,"rental_uris":{"android":"levelo://app?vid=53c8a2cb-e916-43f6-941e-8990c0e09d28","ios":"levelo://app?vid=53c8a2cb-e916-43f6-941e-8990c0e09d28"},"vehicle_type_id":"4","last_reported":1778860514,"current_range_meters":6400,"station_id":"st_cvj5dfep6f1abm77gieg","pricing_plan_id":"cebpf4jnsgd1na2vs0mg"},{"bike_id":"063d8449-b927-4a62-aa2d-ed5f86a51e79","system_id":"levelo_inurba_marseille","lat":43.30311,"lon":5.3921,"is_reserved":false,"is_disabled":false,"rental_uris":{"android":"levelo://app?vid=063d8449-b927-4a62-aa2d-ed5f86a51e79","ios":"levelo://app?vid=063d8449-b927-4a62-aa2d-ed5f86a51e79"},"vehicle_type_id":"4","last_reported":1778860514,"current_range_meters":6400,"station_id":"ce4bgkh2rcd13ifvqbk0","pricing_plan_id":"cebpf4jnsgd1na2vs0mg"},{"bike_id":"e97cd923-226c-4499-a459-9fb29cfa2b7f","system_id":"levelo_inurba_marseille","lat":43.26041,"lon":5.37598,"is_reserved":false,"is_disabled":false,"rental_uris":{"android":"levelo://app?vid=e97cd923-226c-4499-a459-9fb29cfa2b7f","ios":"levelo://app?vid=e97cd923-226c-4499-a459-9fb29cfa2b7f"},"vehicle_type_id":"4","last_reported":1778860514,"current_range_meters":6400,"station_id":"ce4bhgh2rcd13ifvqfa0","pricing_plan_id":"cebpf4jnsgd1na2vs0mg"},{"bike_id":"22819e54-14b0-49b2-bac0-83fb0336d601","system_id":"levelo_inurba_marseille","lat":43.25392,"lon":5.41678,"is_reserved":false,"is_disabled":false,"rental_uris":{"android":"levelo://app?vid=22819e54-14b0-49b2-bac0-83fb0336d601","ios":"levelo://app?vid=22819e54-14b0-49b2-bac0-83fb0336d601"},"vehicle_type_id":"4","last_reported":1778860514,"current_range_meters":6400,"station_id":"","pricing_plan_id":"cebpf4jnsgd1na2vs0mg"},{"bike_id":"345fd2b2-8506-4f31-8163-3a594bcabf0d","system_id":"levelo_inurba_marseille","lat":43.29953,"lon":5.38688,"is_reserved":false,"is_disabled":false,"rental_uris":{"android":"levelo://app?vid=345fd2b2-8506-4f31-8163-3a594bcabf0d","ios":"levelo://app?vid=345fd2b2-8506-4f31-8163-3a594bcabf0d"},"vehicle_type_id":"4","last_reported":1778860514,"current_range_meters":6400,"station_id":"","pricing_plan_id":"cebpf4jnsgd1na2vs0mg"},{"bike_id":"f2956f3b-433b-41af-853c-fb5499be3fce","system_id":"levelo_inurba_marseille","lat":43.24074,"lon":5.37747,"is_reserved":false,"is_disabled":false,"rental_uris":{"android":"levelo://app?vid=f2956f3b-433b-41af-853c-fb5499be3fce","ios":"levelo://app?vid=f2956f3b-433b-41af-853c-fb5499be3fce"},"vehicle_type_id":"4","last_reported":1778860514,"current_range_meters":6400,"station_id":"ce4bhnp2rcd13ifvqgvg","pricing_plan_id":"cebpf4jnsgd1na2vs0mg"},{"bike_id":"7c05f74b-2041-43b0-9371-23a157ba07a6","system_id":"levelo_inurba_marseille","lat":43.2738,"lon":5.3626,"is_reserved":false,"is_disabled":false,"rental_uris":{"android":"levelo://app?vid=7c05f74b-2041-43b0-9371-23a157ba07a6","ios":"levelo://app?vid=7c05f74b-2041-43b0-9371-23a157ba07a6"},"vehicle_type_id":"4","last_reported":1778860514,"current_range_meters":6400,"station_id":"ce4bhbh2rcd13ifvqeo0","pricing_plan_id":"cebpf4jnsgd1na2vs0mg"},{"bike_id":"0eb915d1-a2fb-4c1c-b023-ac4e4e9cacb4","system_id":"levelo_inurba_marseille","lat":43.24658,"lon":5.38153,"is_reserved":false,"is_disabled":false,"rental_uris":{"android":"levelo://app?vid=0eb915d1-a2fb-4c1c-b023-ac4e4e9cacb4","ios":"levelo://app?vid=0eb915d1-a2fb-4c1c-b023-ac4e4e9cacb4"},"vehicle_type_id":"4","last_reported":1778860514,"current_range_meters":6400,"station_id":"ce4bhih2rcd13ifvqfr0","pricing_plan_id":"cebpf4jnsgd1na2vs0mg"},{"bike_id":"badddb26-98a1-4b3f-8837-c80c7ed20a71","system_id":"levelo_inurba_marseille","lat":43.24801,"lon":5.37454,"is_reserved":false,"is_disabled":false,"rental_uris":{"android":"levelo://app?vid=badddb26-98a1-4b3f-8837-c80c7ed20a71","ios":"levelo://app?vid=badddb26-98a1-4b3f-8837-c80c7ed20a71"},"vehicle_type_id":"4","last_reported":1778860514,"current_range_meters":6800,"station_id":"ce4bhgh2rcd13ifvqfb0","pricing_plan_id":"cebpf4jnsgd1na2vs0mg"},{"bike_id":"4422d873-64c5-42e7-b4e7-d7ec147361c9","system_id":"levelo_inurba_marseille","lat":43.237852,"lon":5.366327,"is_reserved":false,"is_disabled":false,"rental_uris":{"android":"levelo://app?vid=4422d873-64c5-42e7-b4e7-d7ec147361c9","ios":"levelo://app?vid=4422d873-64c5-42e7-b4e7-d7ec147361c9"},"vehicle_type_id":"4","last_reported":1778860514,"current_range_meters":6800,"station_id":"st_d3nk18o9ro0c73en2l3g","pricing_plan_id":"cebpf4jnsgd1na2vs0mg"},{"bike_id":"ec258081-d90d-41f4-8a31-732e78a2c80c","system_id":"levelo_inurba_marseille","lat":43.30561,"lon":5.36513,"is_reserved":false,"is_disabled":false,"rental_uris":{"android":"levelo://app?vid=ec258081-d90d-41f4-8a31-732e78a2c80c","ios":"levelo://app?vid=ec258081-d90d-41f4-8a31-732e78a2c80c"},"vehicle_type_id":"4","last_reported":1778860514,"current_range_meters":6800,"station_id":"ce4bgs12rcd13ifvqcag","pricing_plan_id":"cebpf4jnsgd1na2vs0mg"},{"bike_id":"eeddb46a-660c-4c2a-88f3-ace119d3b7da","system_id":"levelo_inurba_marseille","lat":43.337444,"lon":5.374475,"is_reserved":false,"is_disabled":true,"rental_uris":{"android":"levelo://app?vid=eeddb46a-660c-4c2a-88f3-ace119d3b7da","ios":"levelo://app?vid=eeddb46a-660c-4c2a-88f3-ace119d3b7da"},"vehicle_type_id":"4","last_reported":1778860514,"current_range_meters":6800,"station_id":"","pricing_plan_id":"cebpf4jnsgd1na2vs0mg"},{"bike_id":"8877f4cc-2712-44a8-85e8-1a9b6814ec5e","system_id":"levelo_inurba_marseille","lat":43.28215,"lon":5.39048,"is_reserved":false,"is_disabled":true,"rental_uris":{"android":"levelo://app?vid=8877f4cc-2712-44a8-85e8-1a9b6814ec5e","ios":"levelo://app?vid=8877f4cc-2712-44a8-85e8-1a9b6814ec5e"},"vehicle_type_id":"4","last_reported":1778860514,"current_range_meters":6800,"station_id":"ce4bhn92rcd13ifvqgsg","pricing_plan_id":"cebpf4jnsgd1na2vs0mg"},{"bike_id":"94869835-ef09-4398-9442-5a7f6069f3ce","system_id":"levelo_inurba_marseille","lat":43.29286,"lon":5.37616,"is_reserved":false,"is_disabled":false,"rental_uris":{"android":"levelo://app?vid=94869835-ef09-4398-9442-5a7f6069f3ce","ios":"levelo://app?vid=94869835-ef09-4398-9442-5a7f6069f3ce"},"vehicle_type_id":"4","last_reported":1778860514,"current_range_meters":6800,"station_id":"ce4bgi12rcd13ifvqb80","pricing_plan_id":"cebpf4jnsgd1na2vs0mg"},{"bike_id":"a54ac1cc-adda-42c7-8310-238feeb4a900","system_id":"levelo_inurba_marseille","lat":43.23973,"lon":5.36624,"is_reserved":false,"is_disabled":false,"rental_uris":{"android":"levelo://app?vid=a54ac1cc-adda-42c7-8310-238feeb4a900","ios":"levelo://app?vid=a54ac1cc-adda-42c7-8310-238feeb4a900"},"vehicle_type_id":"4","last_reported":1778860514,"current_range_meters":6800,"station_id":"ce4bhi12rcd13ifvqfp0","pricing_plan_id":"cebpf4jnsgd1na2vs0mg"},{"bike_id":"8b4cf675-9e91-4af5-a7a7-dc94f30379c6","system_id":"levelo_inurba_marseille","lat":43.23151,"lon":5.40016,"is_reserved":false,"is_disabled":false,"rental_uris":{"android":"levelo://app?vid=8b4cf675-9e91-4af5-a7a7-dc94f30379c6","ios":"levelo://app?vid=8b4cf675-9e91-4af5-a7a7-dc94f30379c6"},"vehicle_type_id":"4","last_reported":1778860514,"current_range_meters":6800,"station_id":"ce4bhn12rcd13ifvqgqg","pricing_plan_id":"cebpf4jnsgd1na2vs0mg"},{"bike_id":"e2e29b66-e722-40b7-b955-da8add6258a7","system_id":"levelo_inurba_marseille","lat":43.22561,"lon":5.41628,"is_reserved":false,"is_disabled":false,"rental_uris":{"android":"levelo://app?vid=e2e29b66-e722-40b7-b955-da8add6258a7","ios":"levelo://app?vid=e2e29b66-e722-40b7-b955-da8add6258a7"},"vehicle_type_id":"4","last_reported":1778860514,"current_range_meters":6800,"station_id":"st_d2o4gvlbi1j2169b742g","pricing_plan_id":"cebpf4jnsgd1na2vs0mg"},{"bike_id":"9060eaec-d40b-4998-9dba-c00ff39f93ef","system_id":"levelo_inurba_marseille","lat":43.28467,"lon":5.38433,"is_reserved":false,"is_disabled":false,"rental_uris":{"android":"levelo://app?vid=9060eaec-d40b-4998-9dba-c00ff39f93ef","ios":"levelo://app?vid=9060eaec-d40b-4998-9dba-c00ff39f93ef"},"vehicle_type_id":"4","last_reported":1778860514,"current_range_meters":6800,"station_id":"ce4bh512rcd13ifvqe3g","pricing_plan_id":"cebpf4jnsgd1na2vs0mg"},{"bike_id":"8f71531c-c7a3-4581-910d-4b2e94d11deb","system_id":"levelo_inurba_marseille","lat":43.30211,"lon":5.3947,"is_reserved":false,"is_disabled":false,"rental_uris":{"android":"levelo://app?vid=8f71531c-c7a3-4581-910d-4b2e94d11deb","ios":"levelo://app?vid=8f71531c-c7a3-4581-910d-4b2e94d11deb"},"vehicle_type_id":"4","last_reported":1778860514,"current_range_meters":6800,"station_id":"ce4bh0p2rcd13ifvqd70","pricing_plan_id":"cebpf4jnsgd1na2vs0mg"},{"bike_id":"83ca7a02-2e7a-4411-acce-b59fd7509ff5","system_id":"levelo_inurba_marseille","lat":43.26221,"lon":5.40463,"is_reserved":false,"is_disabled":false,"rental_uris":{"android":"levelo://app?vid=83ca7a02-2e7a-4411-acce-b59fd7509ff5","ios":"levelo://app?vid=83ca7a02-2e7a-4411-acce-b59fd7509ff5"},"vehicle_type_id":"4","last_reported":1778860514,"current_range_meters":6800,"station_id":"ce4bhmh2rcd13ifvqgmg","pricing_plan_id":"cebpf4jnsgd1na2vs0mg"},{"bike_id":"a0c19f56-3c4d-4a74-a3eb-6d1c6eb516b0","system_id":"levelo_inurba_marseille","lat":43.28699,"lon":5.46697,"is_reserved":false,"is_disabled":false,"rental_uris":{"android":"levelo://app?vid=a0c19f56-3c4d-4a74-a3eb-6d1c6eb516b0","ios":"levelo://app?vid=a0c19f56-3c4d-4a74-a3eb-6d1c6eb516b0"},"vehicle_type_id":"4","last_reported":1778860514,"current_range_meters":6800,"station_id":"st_d6tc3vkotcvc738tfjhg","pricing_plan_id":"cebpf4jnsgd1na2vs0mg"},{"bike_id":"ececb059-38de-4526-9ded-0d8d3b35b6d2","system_id":"levelo_inurba_marseille","lat":43.28926,"lon":5.38399,"is_reserved":false,"is_disabled":false,"rental_uris":{"android":"levelo://app?vid=ececb059-38de-4526-9ded-0d8d3b35b6d2","ios":"levelo://app?vid=ececb059-38de-4526-9ded-0d8d3b35b6d2"},"vehicle_type_id":"4","last_reported":1778860514,"current_range_meters":6800,"station_id":"ce4bh612rcd13ifvqe6g","pricing_plan_id":"cebpf4jnsgd1na2vs0mg"},{"bike_id":"ce890eaa-d7e8-4b8a-9985-0884e0f8bf4c","system_id":"levelo_inurba_marseille","lat":43.26376,"lon":5.41078,"is_reserved":false,"is_disabled":false,"rental_uris":{"android":"levelo://app?vid=ce890eaa-d7e8-4b8a-9985-0884e0f8bf4c","ios":"levelo://app?vid=ce890eaa-d7e8-4b8a-9985-0884e0f8bf4c"},"vehicle_type_id":"4","last_reported":1778860514,"current_range_meters":6800,"station_id":"st_d4e5ca6na9uc73bfl5fg","pricing_plan_id":"cebpf4jnsgd1na2vs0mg"},{"bike_id":"67f4f1c3-be3a-4539-8611-e7610a693976","system_id":"levelo_inurba_marseille","lat":43.25577,"lon":5.38233,"is_reserved":false,"is_disabled":false,"rental_uris":{"android":"levelo://app?vid=67f4f1c3-be3a-4539-8611-e7610a693976","ios":"levelo://app?vid=67f4f1c3-be3a-4539-8611-e7610a693976"},"vehicle_type_id":"4","last_reported":1778860514,"current_range_meters":6800,"station_id":"ce4bhih2rcd13ifvqfs0","pricing_plan_id":"cebpf4jnsgd1na2vs0mg"},{"bike_id":"5563a6b9-7238-4df4-908d-01ec70bd30b0","system_id":"levelo_inurba_marseille","lat":43.28699,"lon":5.46687,"is_reserved":false,"is_disabled":false,"rental_uris":{"android":"levelo://app?vid=5563a6b9-7238-4df4-908d-01ec70bd30b0","ios":"levelo://app?vid=5563a6b9-7238-4df4-908d-01ec70bd30b0"},"vehicle_type_id":"4","last_reported":1778860514,"current_range_meters":6800,"station_id":"st_d6tc3vkotcvc738tfjhg","pricing_plan_id":"cebpf4jnsgd1na2vs0mg"},{"bike_id":"726a6e92-7b85-4a95-b7c5-88ac2037a285","system_id":"levelo_inurba_marseille","lat":43.30472,"lon":5.37901,"is_reserved":false,"is_disabled":true,"rental_uris":{"android":"levelo://app?vid=726a6e92-7b85-4a95-b7c5-88ac2037a285","ios":"levelo://app?vid=726a6e92-7b85-4a95-b7c5-88ac2037a285"},"vehicle_type_id":"4","last_reported":1778860514,"current_range_meters":7200,"station_id":"ce4bgup2rcd13ifvqcn0","pricing_plan_id":"cebpf4jnsgd1na2vs0mg"},{"bike_id":"a637f75b-01be-4714-bb60-666338f88b4d","system_id":"levelo_inurba_marseille","lat":43.29173,"lon":5.3714,"is_reserved":false,"is_disabled":false,"rental_uris":{"android":"levelo://app?vid=a637f75b-01be-4714-bb60-666338f88b4d","ios":"levelo://app?vid=a637f75b-01be-4714-bb60-666338f88b4d"},"vehicle_type_id":"4","last_reported":1778860514,"current_range_meters":7200,"station_id":"ce4bha92rcd13ifvqeh0","pricing_plan_id":"cebpf4jnsgd1na2vs0mg"},{"bike_id":"438446b2-9c2b-41f6-bf40-0d7f72b445b8","system_id":"levelo_inurba_marseille","lat":43.30362,"lon":5.42482,"is_reserved":false,"is_disabled":false,"rental_uris":{"android":"levelo://app?vid=438446b2-9c2b-41f6-bf40-0d7f72b445b8","ios":"levelo://app?vid=438446b2-9c2b-41f6-bf40-0d7f72b445b8"},"vehicle_type_id":"4","last_reported":1778860514,"current_range_meters":7200,"station_id":"ce4bhoh2rcd13ifvqh6g","pricing_plan_id":"cebpf4jnsgd1na2vs0mg"},{"bike_id":"33521628-26aa-4df3-82be-04c0e079df7c","system_id":"levelo_inurba_marseille","lat":43.29568,"lon":5.37527,"is_reserved":false,"is_disabled":false,"rental_uris":{"android":"levelo://app?vid=33521628-26aa-4df3-82be-04c0e079df7c","ios":"levelo://app?vid=33521628-26aa-4df3-82be-04c0e079df7c"},"vehicle_type_id":"4","last_reported":1778860514,"current_range_meters":7200,"station_id":"ce4bgh92rcd13ifvqb50","pricing_plan_id":"cebpf4jnsgd1na2vs0mg"},{"bike_id":"b5665182-121b-46eb-afed-c9899cb3d26b","system_id":"levelo_inurba_marseille","lat":43.31355,"lon":5.38493,"is_reserved":false,"is_disabled":false,"rental_uris":{"android":"levelo://app?vid=b5665182-121b-46eb-afed-c9899cb3d26b","ios":"levelo://app?vid=b5665182-121b-46eb-afed-c9899cb3d26b"},"vehicle_type_id":"4","last_reported":1778860514,"current_range_meters":7200,"station_id":"ce4bgt92rcd13ifvqcf0","pricing_plan_id":"cebpf4jnsgd1na2vs0mg"},{"bike_id":"923a0e35-33a7-43c6-a893-f3151a142bdd","system_id":"levelo_inurba_marseille","lat":43.29298,"lon":5.3746,"is_reserved":false,"is_disabled":false,"rental_uris":{"android":"levelo://app?vid=923a0e35-33a7-43c6-a893-f3151a142bdd","ios":"levelo://app?vid=923a0e35-33a7-43c6-a893-f3151a142bdd"},"vehicle_type_id":"4","last_reported":1778860514,"current_range_meters":7200,"station_id":"ce4bgi12rcd13ifvqb70","pricing_plan_id":"cebpf4jnsgd1na2vs0mg"},{"bike_id":"785e2670-9f8d-4c90-b665-ec85aaa594f8","system_id":"levelo_inurba_marseille","lat":43.29049,"lon":5.37571,"is_reserved":false,"is_disabled":false,"rental_uris":{"android":"levelo://app?vid=785e2670-9f8d-4c90-b665-ec85aaa594f8","ios":"levelo://app?vid=785e2670-9f8d-4c90-b665-ec85aaa594f8"},"vehicle_type_id":"4","last_reported":1778860514,"current_range_meters":7200,"station_id":"ce4bh692rcd13ifvqe90","pricing_plan_id":"cebpf4jnsgd1na2vs0mg"},{"bike_id":"ce56d14b-ad59-450a-be58-58ca7149fb4b","system_id":"levelo_inurba_marseille","lat":43.26665,"lon":5.37245,"is_reserved":false,"is_disabled":false,"rental_uris":{"android":"levelo://app?vid=ce56d14b-ad59-450a-be58-58ca7149fb4b","ios":"levelo://app?vid=ce56d14b-ad59-450a-be58-58ca7149fb4b"},"vehicle_type_id":"4","last_reported":1778860514,"current_range_meters":7200,"station_id":"","pricing_plan_id":"cebpf4jnsgd1na2vs0mg"},{"bike_id":"8b431fca-ba79-4ce3-83cc-fccf3e7063e7","system_id":"levelo_inurba_marseille","lat":43.29718,"lon":5.37696,"is_reserved":false,"is_disabled":false,"rental_uris":{"android":"levelo://app?vid=8b431fca-ba79-4ce3-83cc-fccf3e7063e7","ios":"levelo://app?vid=8b431fca-ba79-4ce3-83cc-fccf3e7063e7"},"vehicle_type_id":"4","last_reported":1778860514,"current_range_meters":7200,"station_id":"ce4bgkh2rcd13ifvqbl0","pricing_plan_id":"cebpf4jnsgd1na2vs0mg"},{"bike_id":"5fb4c1a0-828e-4210-8039-2c3b382e5163","system_id":"levelo_inurba_marseille","lat":43.30535,"lon":5.36524,"is_reserved":false,"is_disabled":false,"rental_uris":{"android":"levelo://app?vid=5fb4c1a0-828e-4210-8039-2c3b382e5163","ios":"levelo://app?vid=5fb4c1a0-828e-4210-8039-2c3b382e5163"},"vehicle_type_id":"4","last_reported":1778860514,"current_range_meters":7200,"station_id":"ce4bgs12rcd13ifvqcag","pricing_plan_id":"cebpf4jnsgd1na2vs0mg"},{"bike_id":"2c0d287e-73d9-4652-b60f-b9dcb8c60683","system_id":"levelo_inurba_marseille","lat":43.27682,"lon":5.38889,"is_reserved":false,"is_disabled":false,"rental_uris":{"android":"levelo://app?vid=2c0d287e-73d9-4652-b60f-b9dcb8c60683","ios":"levelo://app?vid=2c0d287e-73d9-4652-b60f-b9dcb8c60683"},"vehicle_type_id":"4","last_reported":1778860514,"current_range_meters":7200,"station_id":"ce4bhi12rcd13ifvqfo0","pricing_plan_id":"cebpf4jnsgd1na2vs0mg"},{"bike_id":"04ee544e-c04b-458a-9087-2be16edb485a","system_id":"levelo_inurba_marseille","lat":43.27621,"lon":5.36109,"is_reserved":false,"is_disabled":false,"rental_uris":{"android":"levelo://app?vid=04ee544e-c04b-458a-9087-2be16edb485a","ios":"levelo://app?vid=04ee544e-c04b-458a-9087-2be16edb485a"},"vehicle_type_id":"4","last_reported":1778860514,"current_range_meters":7200,"station_id":"ce4bgj92rcd13ifvqbe0","pricing_plan_id":"cebpf4jnsgd1na2vs0mg"},{"bike_id":"c38265ac-9e99-478d-8325-7bdb5b734b4d","system_id":"levelo_inurba_marseille","lat":43.27389,"lon":5.43548,"is_reserved":false,"is_disabled":false,"rental_uris":{"android":"levelo://app?vid=c38265ac-9e99-478d-8325-7bdb5b734b4d","ios":"levelo://app?vid=c38265ac-9e99-478d-8325-7bdb5b734b4d"},"vehicle_type_id":"4","last_reported":1778860514,"current_range_meters":7200,"station_id":"","pricing_plan_id":"cebpf4jnsgd1na2vs0mg"},{"bike_id":"c8a51622-f14a-4b20-9f0e-877bdb62250f","system_id":"levelo_inurba_marseille","lat":43.27357,"lon":5.36249,"is_reserved":false,"is_disabled":false,"rental_uris":{"android":"levelo://app?vid=c8a51622-f14a-4b20-9f0e-877bdb62250f","ios":"levelo://app?vid=c8a51622-f14a-4b20-9f0e-877bdb62250f"},"vehicle_type_id":"4","last_reported":1778860514,"current_range_meters":7200,"station_id":"ce4bhbh2rcd13ifvqeo0","pricing_plan_id":"cebpf4jnsgd1na2vs0mg"},{"bike_id":"cff75b2c-0157-41bd-a0e9-87bed1affc9d","system_id":"levelo_inurba_marseille","lat":43.26217,"lon":5.37416,"is_reserved":false,"is_disabled":false,"rental_uris":{"android":"levelo://app?vid=cff75b2c-0157-41bd-a0e9-87bed1affc9d","ios":"levelo://app?vid=cff75b2c-0157-41bd-a0e9-87bed1affc9d"},"vehicle_type_id":"4","last_reported":1778860514,"current_range_meters":7200,"station_id":"ce4bhgp2rcd13ifvqfc0","pricing_plan_id":"cebpf4jnsgd1na2vs0mg"},{"bike_id":"54e9c598-498a-41a4-887d-22670255accd","system_id":"levelo_inurba_marseille","lat":43.24066,"lon":5.37771,"is_reserved":false,"is_disabled":false,"rental_uris":{"android":"levelo://app?vid=54e9c598-498a-41a4-887d-22670255accd","ios":"levelo://app?vid=54e9c598-498a-41a4-887d-22670255accd"},"vehicle_type_id":"4","last_reported":1778860514,"current_range_meters":7200,"station_id":"ce4bhnp2rcd13ifvqgvg","pricing_plan_id":"cebpf4jnsgd1na2vs0mg"},{"bike_id":"65366c88-2453-4b24-865f-120308ecf935","system_id":"levelo_inurba_marseille","lat":43.26545,"lon":5.37302,"is_reserved":false,"is_disabled":false,"rental_uris":{"android":"levelo://app?vid=65366c88-2453-4b24-865f-120308ecf935","ios":"levelo://app?vid=65366c88-2453-4b24-865f-120308ecf935"},"vehicle_type_id":"4","last_reported":1778860514,"current_range_meters":7200,"station_id":"ce4bhg12rcd13ifvqf70","pricing_plan_id":"cebpf4jnsgd1na2vs0mg"},{"bike_id":"91e6e1f2-3ba8-4a75-b11c-2ee7e1cd5282","system_id":"levelo_inurba_marseille","lat":43.24647,"lon":5.38891,"is_reserved":false,"is_disabled":false,"rental_uris":{"android":"levelo://app?vid=91e6e1f2-3ba8-4a75-b11c-2ee7e1cd5282","ios":"levelo://app?vid=91e6e1f2-3ba8-4a75-b11c-2ee7e1cd5282"},"vehicle_type_id":"4","last_reported":1778860514,"current_range_meters":7200,"station_id":"ce4bhg12rcd13ifvqf60","pricing_plan_id":"cebpf4jnsgd1na2vs0mg"},{"bike_id":"cc387a56-8a49-4519-bab4-b1b206871b5b","system_id":"levelo_inurba_marseille","lat":43.29859,"lon":5.3626,"is_reserved":false,"is_disabled":false,"rental_uris":{"android":"levelo://app?vid=cc387a56-8a49-4519-bab4-b1b206871b5b","ios":"levelo://app?vid=cc387a56-8a49-4519-bab4-b1b206871b5b"},"vehicle_type_id":"4","last_reported":1778860514,"current_range_meters":7200,"station_id":"ce4bgpp2rcd13ifvqc3g","pricing_plan_id":"cebpf4jnsgd1na2vs0mg"},{"bike_id":"49a262cf-9142-4787-9084-94a4462d1063","system_id":"levelo_inurba_marseille","lat":43.22564,"lon":5.41631,"is_reserved":false,"is_disabled":false,"rental_uris":{"android":"levelo://app?vid=49a262cf-9142-4787-9084-94a4462d1063","ios":"levelo://app?vid=49a262cf-9142-4787-9084-94a4462d1063"},"vehicle_type_id":"4","last_reported":1778860514,"current_range_meters":7200,"station_id":"st_d2o4gvlbi1j2169b742g","pricing_plan_id":"cebpf4jnsgd1na2vs0mg"},{"bike_id":"a423284b-1660-4088-89fb-5ccc08631695","system_id":"levelo_inurba_marseille","lat":43.23157,"lon":5.43711,"is_reserved":false,"is_disabled":false,"rental_uris":{"android":"levelo://app?vid=a423284b-1660-4088-89fb-5ccc08631695","ios":"levelo://app?vid=a423284b-1660-4088-89fb-5ccc08631695"},"vehicle_type_id":"4","last_reported":1778860514,"current_range_meters":8000,"station_id":"ce4bhmp2rcd13ifvqgog","pricing_plan_id":"cebpf4jnsgd1na2vs0mg"},{"bike_id":"ea71ba4f-eae9-4d78-881d-41971f6aba4e","system_id":"levelo_inurba_marseille","lat":43.30095,"lon":5.39059,"is_reserved":false,"is_disabled":false,"rental_uris":{"android":"levelo://app?vid=ea71ba4f-eae9-4d78-881d-41971f6aba4e","ios":"levelo://app?vid=ea71ba4f-eae9-4d78-881d-41971f6aba4e"},"vehicle_type_id":"4","last_reported":1778860514,"current_range_meters":8000,"station_id":"ce4bh192rcd13ifvqdb0","pricing_plan_id":"cebpf4jnsgd1na2vs0mg"},{"bike_id":"b2adc4ff-8ece-4d2f-a004-41df0e64da8b","system_id":"levelo_inurba_marseille","lat":43.29782,"lon":5.38107,"is_reserved":false,"is_disabled":false,"rental_uris":{"android":"levelo://app?vid=b2adc4ff-8ece-4d2f-a004-41df0e64da8b","ios":"levelo://app?vid=b2adc4ff-8ece-4d2f-a004-41df0e64da8b"},"vehicle_type_id":"4","last_reported":1778860514,"current_range_meters":8000,"station_id":"ce4bgip2rcd13ifvqbb0","pricing_plan_id":"cebpf4jnsgd1na2vs0mg"},{"bike_id":"a011fbc0-f2ef-4745-9639-83a1b04a2290","system_id":"levelo_inurba_marseille","lat":43.2696,"lon":5.38933,"is_reserved":false,"is_disabled":false,"rental_uris":{"android":"levelo://app?vid=a011fbc0-f2ef-4745-9639-83a1b04a2290","ios":"levelo://app?vid=a011fbc0-f2ef-4745-9639-83a1b04a2290"},"vehicle_type_id":"4","last_reported":1778860514,"current_range_meters":8000,"station_id":"ce4bhhh2rcd13ifvqfl0","pricing_plan_id":"cebpf4jnsgd1na2vs0mg"},{"bike_id":"8b94244b-dfae-41de-ad1d-291679e2b4cc","system_id":"levelo_inurba_marseille","lat":43.2997,"lon":5.38508,"is_reserved":false,"is_disabled":false,"rental_uris":{"android":"levelo://app?vid=8b94244b-dfae-41de-ad1d-291679e2b4cc","ios":"levelo://app?vid=8b94244b-dfae-41de-ad1d-291679e2b4cc"},"vehicle_type_id":"4","last_reported":1778860514,"current_range_meters":8000,"station_id":"ce4bgj92rcd13ifvqbd0","pricing_plan_id":"cebpf4jnsgd1na2vs0mg"},{"bike_id":"b91e9388-76f4-4629-bbe9-5722b0f37773","system_id":"levelo_inurba_marseille","lat":43.29813,"lon":5.38648,"is_reserved":false,"is_disabled":false,"rental_uris":{"android":"levelo://app?vid=b91e9388-76f4-4629-bbe9-5722b0f37773","ios":"levelo://app?vid=b91e9388-76f4-4629-bbe9-5722b0f37773"},"vehicle_type_id":"4","last_reported":1778860514,"current_range_meters":8000,"station_id":"","pricing_plan_id":"cebpf4jnsgd1na2vs0mg"},{"bike_id":"983c57ab-0be0-4536-b4e6-7ff14284bfec","system_id":"levelo_inurba_marseille","lat":43.25517,"lon":5.37645,"is_reserved":false,"is_disabled":false,"rental_uris":{"android":"levelo://app?vid=983c57ab-0be0-4536-b4e6-7ff14284bfec","ios":"levelo://app?vid=983c57ab-0be0-4536-b4e6-7ff14284bfec"},"vehicle_type_id":"4","last_reported":1778860514,"current_range_meters":8000,"station_id":"ce4bhh12rcd13ifvqff0","pricing_plan_id":"cebpf4jnsgd1na2vs0mg"},{"bike_id":"984f46dd-c348-4e82-be9f-e1ee573bad70","system_id":"levelo_inurba_marseille","lat":43.28611,"lon":5.37074,"is_reserved":false,"is_disabled":true,"rental_uris":{"android":"levelo://app?vid=984f46dd-c348-4e82-be9f-e1ee573bad70","ios":"levelo://app?vid=984f46dd-c348-4e82-be9f-e1ee573bad70"},"vehicle_type_id":"4","last_reported":1778860514,"current_range_meters":8000,"station_id":"ce4bht12rcd13ifvqi60","pricing_plan_id":"cebpf4jnsgd1na2vs0mg"},{"bike_id":"82fa534e-a9d3-418a-a461-813a7d988255","system_id":"levelo_inurba_marseille","lat":43.26214,"lon":5.37439,"is_reserved":false,"is_disabled":false,"rental_uris":{"android":"levelo://app?vid=82fa534e-a9d3-418a-a461-813a7d988255","ios":"levelo://app?vid=82fa534e-a9d3-418a-a461-813a7d988255"},"vehicle_type_id":"4","last_reported":1778860514,"current_range_meters":8000,"station_id":"ce4bhgp2rcd13ifvqfc0","pricing_plan_id":"cebpf4jnsgd1na2vs0mg"},{"bike_id":"e1ef4cbd-5e40-44fd-81b4-60fc132f0016","system_id":"levelo_inurba_marseille","lat":43.22933,"lon":5.35379,"is_reserved":false,"is_disabled":false,"rental_uris":{"android":"levelo://app?vid=e1ef4cbd-5e40-44fd-81b4-60fc132f0016","ios":"levelo://app?vid=e1ef4cbd-5e40-44fd-81b4-60fc132f0016"},"vehicle_type_id":"4","last_reported":1778860514,"current_range_meters":8000,"station_id":"cpo3532slgdg3j2ikp40","pricing_plan_id":"cebpf4jnsgd1na2vs0mg"},{"bike_id":"d797ad95-4f9d-4ac2-8b82-a6094fc95349","system_id":"levelo_inurba_marseille","lat":43.25075,"lon":5.39517,"is_reserved":false,"is_disabled":false,"rental_uris":{"android":"levelo://app?vid=d797ad95-4f9d-4ac2-8b82-a6094fc95349","ios":"levelo://app?vid=d797ad95-4f9d-4ac2-8b82-a6094fc95349"},"vehicle_type_id":"4","last_reported":1778860514,"current_range_meters":8000,"station_id":"ce4bhm12rcd13ifvqgkg","pricing_plan_id":"cebpf4jnsgd1na2vs0mg"},{"bike_id":"ee267d1c-361b-4861-b513-e20278dec712","system_id":"levelo_inurba_marseille","lat":43.30538,"lon":5.36545,"is_reserved":false,"is_disabled":false,"rental_uris":{"android":"levelo://app?vid=ee267d1c-361b-4861-b513-e20278dec712","ios":"levelo://app?vid=ee267d1c-361b-4861-b513-e20278dec712"},"vehicle_type_id":"4","last_reported":1778860514,"current_range_meters":8000,"station_id":"ce4bgs12rcd13ifvqcag","pricing_plan_id":"cebpf4jnsgd1na2vs0mg"},{"bike_id":"e2eee655-6946-45b4-a875-38201f0d71ee","system_id":"levelo_inurba_marseille","lat":43.29607,"lon":5.38105,"is_reserved":false,"is_disabled":true,"rental_uris":{"android":"levelo://app?vid=e2eee655-6946-45b4-a875-38201f0d71ee","ios":"levelo://app?vid=e2eee655-6946-45b4-a875-38201f0d71ee"},"vehicle_type_id":"4","last_reported":1778860514,"current_range_meters":8000,"station_id":"ce4bgl12rcd13ifvqbo0","pricing_plan_id":"cebpf4jnsgd1na2vs0mg"},{"bike_id":"07c9ce9b-3910-4c07-9946-0f2acdc069f3","system_id":"levelo_inurba_marseille","lat":43.3021,"lon":5.39454,"is_reserved":false,"is_disabled":false,"rental_uris":{"android":"levelo://app?vid=07c9ce9b-3910-4c07-9946-0f2acdc069f3","ios":"levelo://app?vid=07c9ce9b-3910-4c07-9946-0f2acdc069f3"},"vehicle_type_id":"4","last_reported":1778860514,"current_range_meters":8000,"station_id":"ce4bh0p2rcd13ifvqd70","pricing_plan_id":"cebpf4jnsgd1na2vs0mg"},{"bike_id":"17689864-9fe3-496f-a09b-8854d1832ba5","system_id":"levelo_inurba_marseille","lat":43.29996,"lon":5.43067,"is_reserved":false,"is_disabled":false,"rental_uris":{"android":"levelo://app?vid=17689864-9fe3-496f-a09b-8854d1832ba5","ios":"levelo://app?vid=17689864-9fe3-496f-a09b-8854d1832ba5"},"vehicle_type_id":"4","last_reported":1778860514,"current_range_meters":8000,"station_id":"","pricing_plan_id":"cebpf4jnsgd1na2vs0mg"},{"bike_id":"468d411a-be62-4df0-b102-b00dd4bae91a","system_id":"levelo_inurba_marseille","lat":43.31063,"lon":5.37169,"is_reserved":false,"is_disabled":false,"rental_uris":{"android":"levelo://app?vid=468d411a-be62-4df0-b102-b00dd4bae91a","ios":"levelo://app?vid=468d411a-be62-4df0-b102-b00dd4bae91a"},"vehicle_type_id":"4","last_reported":1778860514,"current_range_meters":8000,"station_id":"st_d4kl2rp97mjs73e7tdfg","pricing_plan_id":"cebpf4jnsgd1na2vs0mg"},{"bike_id":"7f25759a-ee01-4c99-966b-586eb0f886f2","system_id":"levelo_inurba_marseille","lat":43.31496,"lon":5.37307,"is_reserved":false,"is_disabled":false,"rental_uris":{"android":"levelo://app?vid=7f25759a-ee01-4c99-966b-586eb0f886f2","ios":"levelo://app?vid=7f25759a-ee01-4c99-966b-586eb0f886f2"},"vehicle_type_id":"4","last_reported":1778860514,"current_range_meters":8000,"station_id":"ce4bgt12rcd13ifvqcd0","pricing_plan_id":"cebpf4jnsgd1na2vs0mg"},{"bike_id":"4e956bcf-0947-443f-80e8-d4a03c91a534","system_id":"levelo_inurba_marseille","lat":43.23147,"lon":5.43716,"is_reserved":false,"is_disabled":false,"rental_uris":{"android":"levelo://app?vid=4e956bcf-0947-443f-80e8-d4a03c91a534","ios":"levelo://app?vid=4e956bcf-0947-443f-80e8-d4a03c91a534"},"vehicle_type_id":"4","last_reported":1778860514,"current_range_meters":8000,"station_id":"ce4bhmp2rcd13ifvqgog","pricing_plan_id":"cebpf4jnsgd1na2vs0mg"},{"bike_id":"7e67d4e5-7e84-4067-9218-2d7b07ddb6f7","system_id":"levelo_inurba_marseille","lat":43.30305,"lon":5.39213,"is_reserved":false,"is_disabled":false,"rental_uris":{"android":"levelo://app?vid=7e67d4e5-7e84-4067-9218-2d7b07ddb6f7","ios":"levelo://app?vid=7e67d4e5-7e84-4067-9218-2d7b07ddb6f7"},"vehicle_type_id":"4","last_reported":1778860514,"current_range_meters":8000,"station_id":"ce4bgkh2rcd13ifvqbk0","pricing_plan_id":"cebpf4jnsgd1na2vs0mg"},{"bike_id":"d7938777-2e3b-445e-9c04-8a77f8fe0fec","system_id":"levelo_inurba_marseille","lat":43.250836,"lon":5.395278,"is_reserved":false,"is_disabled":false,"rental_uris":{"android":"levelo://app?vid=d7938777-2e3b-445e-9c04-8a77f8fe0fec","ios":"levelo://app?vid=d7938777-2e3b-445e-9c04-8a77f8fe0fec"},"vehicle_type_id":"4","last_reported":1778860514,"current_range_meters":8000,"station_id":"ce4bhm12rcd13ifvqgkg","pricing_plan_id":"cebpf4jnsgd1na2vs0mg"},{"bike_id":"7592e554-fccc-48e6-9727-e072814b3ba8","system_id":"levelo_inurba_marseille","lat":43.30538,"lon":5.36529,"is_reserved":false,"is_disabled":true,"rental_uris":{"android":"levelo://app?vid=7592e554-fccc-48e6-9727-e072814b3ba8","ios":"levelo://app?vid=7592e554-fccc-48e6-9727-e072814b3ba8"},"vehicle_type_id":"4","last_reported":1778860514,"current_range_meters":8000,"station_id":"ce4bgs12rcd13ifvqcag","pricing_plan_id":"cebpf4jnsgd1na2vs0mg"},{"bike_id":"bf7bc927-b552-438f-8ac9-64f29f8f7946","system_id":"levelo_inurba_marseille","lat":43.2844,"lon":5.39166,"is_reserved":false,"is_disabled":false,"rental_uris":{"android":"levelo://app?vid=bf7bc927-b552-438f-8ac9-64f29f8f7946","ios":"levelo://app?vid=bf7bc927-b552-438f-8ac9-64f29f8f7946"},"vehicle_type_id":"4","last_reported":1778860514,"current_range_meters":8000,"station_id":"ce4bhoh2rcd13ifvqh5g","pricing_plan_id":"cebpf4jnsgd1na2vs0mg"},{"bike_id":"d6855c7e-39e4-478b-8168-34e3ccbebba7","system_id":"levelo_inurba_marseille","lat":43.237845,"lon":5.366364,"is_reserved":false,"is_disabled":false,"rental_uris":{"android":"levelo://app?vid=d6855c7e-39e4-478b-8168-34e3ccbebba7","ios":"levelo://app?vid=d6855c7e-39e4-478b-8168-34e3ccbebba7"},"vehicle_type_id":"4","last_reported":1778860514,"current_range_meters":8000,"station_id":"st_d3nk18o9ro0c73en2l3g","pricing_plan_id":"cebpf4jnsgd1na2vs0mg"},{"bike_id":"60c85a53-22c1-42b1-8964-1dd1726c4157","system_id":"levelo_inurba_marseille","lat":43.29225,"lon":5.36069,"is_reserved":false,"is_disabled":false,"rental_uris":{"android":"levelo://app?vid=60c85a53-22c1-42b1-8964-1dd1726c4157","ios":"levelo://app?vid=60c85a53-22c1-42b1-8964-1dd1726c4157"},"vehicle_type_id":"4","last_reported":1778860514,"current_range_meters":8000,"station_id":"ce4bhbh2rcd13ifvqeqg","pricing_plan_id":"cebpf4jnsgd1na2vs0mg"},{"bike_id":"1d88b7a3-a1ac-4324-9cee-325c41420473","system_id":"levelo_inurba_marseille","lat":43.30435,"lon":5.38889,"is_reserved":false,"is_disabled":false,"rental_uris":{"android":"levelo://app?vid=1d88b7a3-a1ac-4324-9cee-325c41420473","ios":"levelo://app?vid=1d88b7a3-a1ac-4324-9cee-325c41420473"},"vehicle_type_id":"4","last_reported":1778860514,"current_range_meters":8000,"station_id":"ce4bgk12rcd13ifvqbi0","pricing_plan_id":"cebpf4jnsgd1na2vs0mg"},{"bike_id":"460835d2-c2d1-4285-9a56-6ee5b6a9e681","system_id":"levelo_inurba_marseille","lat":43.2473,"lon":5.39291,"is_reserved":false,"is_disabled":false,"rental_uris":{"android":"levelo://app?vid=460835d2-c2d1-4285-9a56-6ee5b6a9e681","ios":"levelo://app?vid=460835d2-c2d1-4285-9a56-6ee5b6a9e681"},"vehicle_type_id":"4","last_reported":1778860514,"current_range_meters":8000,"station_id":"","pricing_plan_id":"cebpf4jnsgd1na2vs0mg"},{"bike_id":"eb6ce6ee-52bb-4ed9-a57f-7c64b8ec8c82","system_id":"levelo_inurba_marseille","lat":43.27021,"lon":5.36453,"is_reserved":false,"is_disabled":false,"rental_uris":{"android":"levelo://app?vid=eb6ce6ee-52bb-4ed9-a57f-7c64b8ec8c82","ios":"levelo://app?vid=eb6ce6ee-52bb-4ed9-a57f-7c64b8ec8c82"},"vehicle_type_id":"4","last_reported":1778860514,"current_range_meters":8000,"station_id":"","pricing_plan_id":"cebpf4jnsgd1na2vs0mg"},{"bike_id":"aedaac73-1376-4cc6-b862-3e3427ccb0e9","system_id":"levelo_inurba_marseille","lat":43.31057,"lon":5.37158,"is_reserved":false,"is_disabled":false,"rental_uris":{"android":"levelo://app?vid=aedaac73-1376-4cc6-b862-3e3427ccb0e9","ios":"levelo://app?vid=aedaac73-1376-4cc6-b862-3e3427ccb0e9"},"vehicle_type_id":"4","last_reported":1778860514,"current_range_meters":8000,"station_id":"st_d4kl2rp97mjs73e7tdfg","pricing_plan_id":"cebpf4jnsgd1na2vs0mg"},{"bike_id":"512cd850-3e86-4c41-9d13-55bb94935ffc","system_id":"levelo_inurba_marseille","lat":43.27619,"lon":5.36113,"is_reserved":false,"is_disabled":false,"rental_uris":{"android":"levelo://app?vid=512cd850-3e86-4c41-9d13-55bb94935ffc","ios":"levelo://app?vid=512cd850-3e86-4c41-9d13-55bb94935ffc"},"vehicle_type_id":"4","last_reported":1778860514,"current_range_meters":8400,"station_id":"ce4bgj92rcd13ifvqbe0","pricing_plan_id":"cebpf4jnsgd1na2vs0mg"},{"bike_id":"be532eb8-4644-4091-af3c-ba3a4d05e1f2","system_id":"levelo_inurba_marseille","lat":43.21733,"lon":5.34611,"is_reserved":false,"is_disabled":false,"rental_uris":{"android":"levelo://app?vid=be532eb8-4644-4091-af3c-ba3a4d05e1f2","ios":"levelo://app?vid=be532eb8-4644-4091-af3c-ba3a4d05e1f2"},"vehicle_type_id":"4","last_reported":1778860514,"current_range_meters":8400,"station_id":"st_cvj6r9ubvosntc0bgbag","pricing_plan_id":"cebpf4jnsgd1na2vs0mg"},{"bike_id":"63b0726f-2512-4a36-9702-6961ff4730f4","system_id":"levelo_inurba_marseille","lat":43.28624,"lon":5.35116,"is_reserved":false,"is_disabled":false,"rental_uris":{"android":"levelo://app?vid=63b0726f-2512-4a36-9702-6961ff4730f4","ios":"levelo://app?vid=63b0726f-2512-4a36-9702-6961ff4730f4"},"vehicle_type_id":"4","last_reported":1778860514,"current_range_meters":8400,"station_id":"ce4bhch2rcd13ifvqeug","pricing_plan_id":"cebpf4jnsgd1na2vs0mg"},{"bike_id":"7cb24778-c855-4efb-ad7d-516358bc5eff","system_id":"levelo_inurba_marseille","lat":43.28463,"lon":5.35884,"is_reserved":false,"is_disabled":false,"rental_uris":{"android":"levelo://app?vid=7cb24778-c855-4efb-ad7d-516358bc5eff","ios":"levelo://app?vid=7cb24778-c855-4efb-ad7d-516358bc5eff"},"vehicle_type_id":"4","last_reported":1778860514,"current_range_meters":8400,"station_id":"ce4bhah2rcd13ifvqei0","pricing_plan_id":"cebpf4jnsgd1na2vs0mg"},{"bike_id":"50fb2984-0d47-49e4-b096-8d220a44d77a","system_id":"levelo_inurba_marseille","lat":43.29557,"lon":5.42284,"is_reserved":false,"is_disabled":false,"rental_uris":{"android":"levelo://app?vid=50fb2984-0d47-49e4-b096-8d220a44d77a","ios":"levelo://app?vid=50fb2984-0d47-49e4-b096-8d220a44d77a"},"vehicle_type_id":"4","last_reported":1778860514,"current_range_meters":8400,"station_id":"ce4bhph2rcd13ifvqhdg","pricing_plan_id":"cebpf4jnsgd1na2vs0mg"},{"bike_id":"02d4ce49-de2d-4a25-8870-41624b2337ce","system_id":"levelo_inurba_marseille","lat":43.29202,"lon":5.39322,"is_reserved":false,"is_disabled":false,"rental_uris":{"android":"levelo://app?vid=02d4ce49-de2d-4a25-8870-41624b2337ce","ios":"levelo://app?vid=02d4ce49-de2d-4a25-8870-41624b2337ce"},"vehicle_type_id":"4","last_reported":1778860514,"current_range_meters":8400,"station_id":"ce4bh192rcd13ifvqdd0","pricing_plan_id":"cebpf4jnsgd1na2vs0mg"},{"bike_id":"6f5a7b65-490f-48c5-a3c9-3119b8e5a21f","system_id":"levelo_inurba_marseille","lat":43.21183,"lon":5.35077,"is_reserved":false,"is_disabled":false,"rental_uris":{"android":"levelo://app?vid=6f5a7b65-490f-48c5-a3c9-3119b8e5a21f","ios":"levelo://app?vid=6f5a7b65-490f-48c5-a3c9-3119b8e5a21f"},"vehicle_type_id":"4","last_reported":1778860514,"current_range_meters":8400,"station_id":"st_cvj6sg6p6f1abm77japg","pricing_plan_id":"cebpf4jnsgd1na2vs0mg"},{"bike_id":"1e0b433e-b7c1-47b6-8751-89a3bf4513a8","system_id":"levelo_inurba_marseille","lat":43.337679,"lon":5.374413,"is_reserved":false,"is_disabled":false,"rental_uris":{"android":"levelo://app?vid=1e0b433e-b7c1-47b6-8751-89a3bf4513a8","ios":"levelo://app?vid=1e0b433e-b7c1-47b6-8751-89a3bf4513a8"},"vehicle_type_id":"4","last_reported":1778860514,"current_range_meters":8400,"station_id":"","pricing_plan_id":"cebpf4jnsgd1na2vs0mg"},{"bike_id":"57e51084-7c52-4c70-b795-6dc6062189fa","system_id":"levelo_inurba_marseille","lat":43.25588,"lon":5.3825,"is_reserved":false,"is_disabled":false,"rental_uris":{"android":"levelo://app?vid=57e51084-7c52-4c70-b795-6dc6062189fa","ios":"levelo://app?vid=57e51084-7c52-4c70-b795-6dc6062189fa"},"vehicle_type_id":"4","last_reported":1778860514,"current_range_meters":8400,"station_id":"ce4bhih2rcd13ifvqfs0","pricing_plan_id":"cebpf4jnsgd1na2vs0mg"},{"bike_id":"ac4d8329-4740-4c70-b8f9-5ba631a2739a","system_id":"levelo_inurba_marseille","lat":43.27326,"lon":5.39054,"is_reserved":false,"is_disabled":false,"rental_uris":{"android":"levelo://app?vid=ac4d8329-4740-4c70-b8f9-5ba631a2739a","ios":"levelo://app?vid=ac4d8329-4740-4c70-b8f9-5ba631a2739a"},"vehicle_type_id":"4","last_reported":1778860514,"current_range_meters":8400,"station_id":"ce4bhgp2rcd13ifvqfe0","pricing_plan_id":"cebpf4jnsgd1na2vs0mg"},{"bike_id":"a273b838-a5bf-4b65-9e3a-6aa2848c7d30","system_id":"levelo_inurba_marseille","lat":43.30441,"lon":5.3888,"is_reserved":false,"is_disabled":false,"rental_uris":{"android":"levelo://app?vid=a273b838-a5bf-4b65-9e3a-6aa2848c7d30","ios":"levelo://app?vid=a273b838-a5bf-4b65-9e3a-6aa2848c7d30"},"vehicle_type_id":"4","last_reported":1778860514,"current_range_meters":8400,"station_id":"ce4bgk12rcd13ifvqbi0","pricing_plan_id":"cebpf4jnsgd1na2vs0mg"},{"bike_id":"597d50c2-b8f4-4f19-8cf2-754108c86c23","system_id":"levelo_inurba_marseille","lat":43.24813,"lon":5.37445,"is_reserved":false,"is_disabled":false,"rental_uris":{"android":"levelo://app?vid=597d50c2-b8f4-4f19-8cf2-754108c86c23","ios":"levelo://app?vid=597d50c2-b8f4-4f19-8cf2-754108c86c23"},"vehicle_type_id":"4","last_reported":1778860514,"current_range_meters":8400,"station_id":"ce4bhgh2rcd13ifvqfb0","pricing_plan_id":"cebpf4jnsgd1na2vs0mg"},{"bike_id":"b7c782fe-42f9-40ac-bbc1-2772afee1491","system_id":"levelo_inurba_marseille","lat":43.26546,"lon":5.37277,"is_reserved":false,"is_disabled":false,"rental_uris":{"android":"levelo://app?vid=b7c782fe-42f9-40ac-bbc1-2772afee1491","ios":"levelo://app?vid=b7c782fe-42f9-40ac-bbc1-2772afee1491"},"vehicle_type_id":"4","last_reported":1778860514,"current_range_meters":8400,"station_id":"ce4bhg12rcd13ifvqf70","pricing_plan_id":"cebpf4jnsgd1na2vs0mg"},{"bike_id":"40078d06-6916-4a45-96b8-85d65ec0c1bc","system_id":"levelo_inurba_marseille","lat":43.25004,"lon":5.38924,"is_reserved":false,"is_disabled":false,"rental_uris":{"android":"levelo://app?vid=40078d06-6916-4a45-96b8-85d65ec0c1bc","ios":"levelo://app?vid=40078d06-6916-4a45-96b8-85d65ec0c1bc"},"vehicle_type_id":"4","last_reported":1778860514,"current_range_meters":8400,"station_id":"ce4bhgp2rcd13ifvqfd0","pricing_plan_id":"cebpf4jnsgd1na2vs0mg"},{"bike_id":"1dea25d3-9975-48d2-92a7-1c3aafb1121d","system_id":"levelo_inurba_marseille","lat":43.2871,"lon":5.37397,"is_reserved":false,"is_disabled":false,"rental_uris":{"android":"levelo://app?vid=1dea25d3-9975-48d2-92a7-1c3aafb1121d","ios":"levelo://app?vid=1dea25d3-9975-48d2-92a7-1c3aafb1121d"},"vehicle_type_id":"4","last_reported":1778860514,"current_range_meters":8400,"station_id":"ce4bh3p2rcd13ifvqdq0","pricing_plan_id":"cebpf4jnsgd1na2vs0mg"},{"bike_id":"c196d6ca-31b7-47fd-8551-46a4c4500978","system_id":"levelo_inurba_marseille","lat":43.26412,"lon":5.38821,"is_reserved":false,"is_disabled":false,"rental_uris":{"android":"levelo://app?vid=c196d6ca-31b7-47fd-8551-46a4c4500978","ios":"levelo://app?vid=c196d6ca-31b7-47fd-8551-46a4c4500978"},"vehicle_type_id":"4","last_reported":1778860514,"current_range_meters":8400,"station_id":"","pricing_plan_id":"cebpf4jnsgd1na2vs0mg"},{"bike_id":"91d5571b-3e89-477c-a492-1c90ea20cad1","system_id":"levelo_inurba_marseille","lat":43.212,"lon":5.35094,"is_reserved":false,"is_disabled":false,"rental_uris":{"android":"levelo://app?vid=91d5571b-3e89-477c-a492-1c90ea20cad1","ios":"levelo://app?vid=91d5571b-3e89-477c-a492-1c90ea20cad1"},"vehicle_type_id":"4","last_reported":1778860514,"current_range_meters":8400,"station_id":"st_cvj6sg6p6f1abm77japg","pricing_plan_id":"cebpf4jnsgd1na2vs0mg"},{"bike_id":"975afb08-ed3b-4ff7-8fa8-537348ff5f6f","system_id":"levelo_inurba_marseille","lat":43.28,"lon":5.41659,"is_reserved":false,"is_disabled":false,"rental_uris":{"android":"levelo://app?vid=975afb08-ed3b-4ff7-8fa8-537348ff5f6f","ios":"levelo://app?vid=975afb08-ed3b-4ff7-8fa8-537348ff5f6f"},"vehicle_type_id":"4","last_reported":1778860514,"current_range_meters":8400,"station_id":"ce4bho12rcd13ifvqh1g","pricing_plan_id":"cebpf4jnsgd1na2vs0mg"},{"bike_id":"f6b557cb-d8d0-4779-a6ff-2759ab306a04","system_id":"levelo_inurba_marseille","lat":43.29253,"lon":5.38416,"is_reserved":false,"is_disabled":true,"rental_uris":{"android":"levelo://app?vid=f6b557cb-d8d0-4779-a6ff-2759ab306a04","ios":"levelo://app?vid=f6b557cb-d8d0-4779-a6ff-2759ab306a04"},"vehicle_type_id":"4","last_reported":1778860514,"current_range_meters":8400,"station_id":"ce4bh692rcd13ifvqea0","pricing_plan_id":"cebpf4jnsgd1na2vs0mg"},{"bike_id":"b491eb96-cfe5-49db-ab5c-cf9a31e2963d","system_id":"levelo_inurba_marseille","lat":43.26037,"lon":5.37552,"is_reserved":false,"is_disabled":false,"rental_uris":{"android":"levelo://app?vid=b491eb96-cfe5-49db-ab5c-cf9a31e2963d","ios":"levelo://app?vid=b491eb96-cfe5-49db-ab5c-cf9a31e2963d"},"vehicle_type_id":"4","last_reported":1778860514,"current_range_meters":8400,"station_id":"ce4bhgh2rcd13ifvqfa0","pricing_plan_id":"cebpf4jnsgd1na2vs0mg"},{"bike_id":"2a357983-68c8-4c5f-99b8-47ecc13de384","system_id":"levelo_inurba_marseille","lat":43.2853,"lon":5.44097,"is_reserved":false,"is_disabled":false,"rental_uris":{"android":"levelo://app?vid=2a357983-68c8-4c5f-99b8-47ecc13de384","ios":"levelo://app?vid=2a357983-68c8-4c5f-99b8-47ecc13de384"},"vehicle_type_id":"4","last_reported":1778860514,"current_range_meters":8400,"station_id":"st_d3j3df2ikq2c7380ej80","pricing_plan_id":"cebpf4jnsgd1na2vs0mg"},{"bike_id":"2f902841-b8c7-4f90-aee6-354e43e3f0d4","system_id":"levelo_inurba_marseille","lat":43.2844,"lon":5.39222,"is_reserved":false,"is_disabled":false,"rental_uris":{"android":"levelo://app?vid=2f902841-b8c7-4f90-aee6-354e43e3f0d4","ios":"levelo://app?vid=2f902841-b8c7-4f90-aee6-354e43e3f0d4"},"vehicle_type_id":"4","last_reported":1778860514,"current_range_meters":8400,"station_id":"ce4bhoh2rcd13ifvqh5g","pricing_plan_id":"cebpf4jnsgd1na2vs0mg"},{"bike_id":"93e00374-b197-4e2c-a878-e515937d670c","system_id":"levelo_inurba_marseille","lat":43.21748,"lon":5.34607,"is_reserved":false,"is_disabled":false,"rental_uris":{"android":"levelo://app?vid=93e00374-b197-4e2c-a878-e515937d670c","ios":"levelo://app?vid=93e00374-b197-4e2c-a878-e515937d670c"},"vehicle_type_id":"4","last_reported":1778860514,"current_range_meters":8400,"station_id":"st_cvj6r9ubvosntc0bgbag","pricing_plan_id":"cebpf4jnsgd1na2vs0mg"},{"bike_id":"e9e21ada-1f92-407c-8c3e-cc2dcfa81a46","system_id":"levelo_inurba_marseille","lat":43.24471,"lon":5.42535,"is_reserved":false,"is_disabled":false,"rental_uris":{"android":"levelo://app?vid=e9e21ada-1f92-407c-8c3e-cc2dcfa81a46","ios":"levelo://app?vid=e9e21ada-1f92-407c-8c3e-cc2dcfa81a46"},"vehicle_type_id":"4","last_reported":1778860514,"current_range_meters":8400,"station_id":"st_d4a3vfp97mjs738cd8kg","pricing_plan_id":"cebpf4jnsgd1na2vs0mg"},{"bike_id":"15852070-8a5e-4444-abb4-84c148c5d4eb","system_id":"levelo_inurba_marseille","lat":43.25578,"lon":5.38219,"is_reserved":false,"is_disabled":false,"rental_uris":{"android":"levelo://app?vid=15852070-8a5e-4444-abb4-84c148c5d4eb","ios":"levelo://app?vid=15852070-8a5e-4444-abb4-84c148c5d4eb"},"vehicle_type_id":"4","last_reported":1778860514,"current_range_meters":8400,"station_id":"ce4bhih2rcd13ifvqfs0","pricing_plan_id":"cebpf4jnsgd1na2vs0mg"},{"bike_id":"8de32dc5-b38b-4f47-bdb0-39e63f14a75b","system_id":"levelo_inurba_marseille","lat":43.21757,"lon":5.34608,"is_reserved":false,"is_disabled":false,"rental_uris":{"android":"levelo://app?vid=8de32dc5-b38b-4f47-bdb0-39e63f14a75b","ios":"levelo://app?vid=8de32dc5-b38b-4f47-bdb0-39e63f14a75b"},"vehicle_type_id":"4","last_reported":1778860514,"current_range_meters":8400,"station_id":"st_cvj6r9ubvosntc0bgbag","pricing_plan_id":"cebpf4jnsgd1na2vs0mg"},{"bike_id":"8b955a9b-5c4a-401e-89ca-221c2e4d8c05","system_id":"levelo_inurba_marseille","lat":43.30323,"lon":5.40443,"is_reserved":false,"is_disabled":false,"rental_uris":{"android":"levelo://app?vid=8b955a9b-5c4a-401e-89ca-221c2e4d8c05","ios":"levelo://app?vid=8b955a9b-5c4a-401e-89ca-221c2e4d8c05"},"vehicle_type_id":"4","last_reported":1778860514,"current_range_meters":8800,"station_id":"ce4bh012rcd13ifvqd10","pricing_plan_id":"cebpf4jnsgd1na2vs0mg"},{"bike_id":"2e09fbec-0877-4858-9786-2d0a8a1f69cc","system_id":"levelo_inurba_marseille","lat":43.29788,"lon":5.37103,"is_reserved":false,"is_disabled":true,"rental_uris":{"android":"levelo://app?vid=2e09fbec-0877-4858-9786-2d0a8a1f69cc","ios":"levelo://app?vid=2e09fbec-0877-4858-9786-2d0a8a1f69cc"},"vehicle_type_id":"4","last_reported":1778860514,"current_range_meters":8800,"station_id":"ce4bgop2rcd13ifvqc1g","pricing_plan_id":"cebpf4jnsgd1na2vs0mg"},{"bike_id":"51a3b553-43b9-4536-8361-a327d68a1c5f","system_id":"levelo_inurba_marseille","lat":43.22573,"lon":5.41626,"is_reserved":false,"is_disabled":false,"rental_uris":{"android":"levelo://app?vid=51a3b553-43b9-4536-8361-a327d68a1c5f","ios":"levelo://app?vid=51a3b553-43b9-4536-8361-a327d68a1c5f"},"vehicle_type_id":"4","last_reported":1778860514,"current_range_meters":8800,"station_id":"st_d2o4gvlbi1j2169b742g","pricing_plan_id":"cebpf4jnsgd1na2vs0mg"},{"bike_id":"0f5b00f6-6614-40eb-871a-6b35b9c424ac","system_id":"levelo_inurba_marseille","lat":43.33754,"lon":5.37506,"is_reserved":false,"is_disabled":false,"rental_uris":{"android":"levelo://app?vid=0f5b00f6-6614-40eb-871a-6b35b9c424ac","ios":"levelo://app?vid=0f5b00f6-6614-40eb-871a-6b35b9c424ac"},"vehicle_type_id":"4","last_reported":1778860514,"current_range_meters":8800,"station_id":"","pricing_plan_id":"cebpf4jnsgd1na2vs0mg"},{"bike_id":"a40c1df6-fa40-484f-b207-861b6551906f","system_id":"levelo_inurba_marseille","lat":43.282663,"lon":5.350634,"is_reserved":false,"is_disabled":false,"rental_uris":{"android":"levelo://app?vid=a40c1df6-fa40-484f-b207-861b6551906f","ios":"levelo://app?vid=a40c1df6-fa40-484f-b207-861b6551906f"},"vehicle_type_id":"4","last_reported":1778860514,"current_range_meters":8800,"station_id":"ce4bhbp2rcd13ifvqerg","pricing_plan_id":"cebpf4jnsgd1na2vs0mg"},{"bike_id":"b9bc74fa-c34c-4652-b384-35fef20ce965","system_id":"levelo_inurba_marseille","lat":43.26576,"lon":5.39015,"is_reserved":false,"is_disabled":false,"rental_uris":{"android":"levelo://app?vid=b9bc74fa-c34c-4652-b384-35fef20ce965","ios":"levelo://app?vid=b9bc74fa-c34c-4652-b384-35fef20ce965"},"vehicle_type_id":"4","last_reported":1778860514,"current_range_meters":8800,"station_id":"ce4bhe12rcd13ifvqf30","pricing_plan_id":"cebpf4jnsgd1na2vs0mg"},