{"last_updated":1729271307,"ttl":60,"version":"2.2","data":{"bikes":[{"bike_id":"7c215bb1-a727-4569-986d-c8f6cf1e676e","system_id":"levelo_inurba_marseille","lat":43.31712,"lon":5.43706,"is_reserved":false,"is_disabled":false,"rental_uris":{"android":"levelo://app?vid=7c215bb1-a727-4569-986d-c8f6cf1e676e","ios":"levelo://app?vid=7c215bb1-a727-4569-986d-c8f6cf1e676e"},"vehicle_type_id":"4","last_reported":1729271308,"current_range_meters":38800,"station_id":"ce4bhp92rcd13ifvqhcg","pricing_plan_id":"cebpf4jnsgd1na2vs0mg"},{"bike_id":"9415f9f7-8dd5-4c39-b636-672f22cf6422","system_id":"levelo_inurba_marseille","lat":43.32109,"lon":5.36786,"is_reserved":false,"is_disabled":false,"rental_uris":{"android":"levelo://app?vid=9415f9f7-8dd5-4c39-b636-672f22cf6422","ios":"levelo://app?vid=9415f9f7-8dd5-4c39-b636-672f22cf6422"},"vehicle_type_id":"4","last_reported":1729271308,"current_range_meters":38800,"station_id":"ce4bhrh2rcd13ifvqhug","pricing_plan_id":"cebpf4jnsgd1na2vs0mg"},{"bike_id":"0bd29515-40d3-4b3d-a1be-6c5884ab24e6","system_id":"levelo_inurba_marseille","lat":43.32481,"lon":5.37388,"is_reserved":false,"is_disabled":false,"rental_uris":{"android":"levelo://app?vid=0bd29515-40d3-4b3d-a1be-6c5884ab24e6","ios":"levelo://app?vid=0bd29515-40d3-4b3d-a1be-6c5884ab24e6"},"vehicle_type_id":"4","last_reported":1729271308,"current_range_meters":22400,"station_id":"","pricing_plan_id":"cebpf4jnsgd1na2vs0mg"},{"bike_id":"676ec6c4-6b42-43e0-81fe-327782965da5","system_id":"levelo_inurba_marseille","lat":43.33765,"lon":5.37484,"is_reserved":false,"is_disabled":false,"rental_uris":{"android":"levelo://app?vid=676ec6c4-6b42-43e0-81fe-327782965da5","ios":"levelo://app?vid=676ec6c4-6b42-43e0-81fe-327782965da5"},"vehicle_type_id":"4","last_reported":1729271308,"current_range_meters":17200,"station_id":"","pricing_plan_id":"cebpf4jnsgd1na2vs0mg"},{"bike_id":"966f251d-4412-4e77-82b7-c125675614ef","system_id":"levelo_inurba_marseille","lat":43.337444,"lon":5.374475,"is_reserved":false,"is_disabled":false,"rental_uris":{"android":"levelo://app?vid=966f251d-4412-4e77-82b7-c125675614ef","ios":"levelo://app?vid=966f251d-4412-4e77-82b7-c125675614ef"},"vehicle_type_id":"4","last_reported":1729271308,"current_range_meters":7200,"station_id":"","pricing_plan_id":"cebpf4jnsgd1na2vs0mg"},{"bike_id":"53893ee7-7d5e-4c2b-a931-da13ada2e74f","system_id":"levelo_inurba_marseille","lat":43.3171,"lon":5.43714,"is_reserved":false,"is_disabled":false,"rental_uris":{"android":"levelo://app?vid=53893ee7-7d5e-4c2b-a931-da13ada2e74f","ios":"levelo://app?vid=53893ee7-7d5e-4c2b-a931-da13ada2e74f"},"vehicle_type_id":"4","last_reported":1729271308,"current_range_meters":3200,"station_id":"ce4bhp92rcd13ifvqhcg","pricing_plan_id":"cebpf4jnsgd1na2vs0mg"},{"bike_id":"a2b49fb0-0a99-4ff3-8383-b403d3058899","system_id":"levelo_inurba_marseille","lat":43.308,"lon":5.43527,"is_reserved":false,"is_disabled":false,"rental_uris":{"android":"levelo://app?vid=a2b49fb0-0a99-4ff3-8383-b403d3058899","ios":"levelo://app?vid=a2b49fb0-0a99-4ff3-8383-b403d3058899"},"vehicle_type_id":"4","last_reported":1729271308,"current_range_meters":10800,"station_id":"ce4bhph2rcd13ifvqheg","pricing_plan_id":"cebpf4jnsgd1na2vs0mg"},{"bike_id":"9e23534c-3873-44a5-b32e-f42e453f7851","system_id":"levelo_inurba_marseille","lat":43.31083,"lon":5.42434,"is_reserved":false,"is_disabled":false,"rental_uris":{"android":"levelo://app?vid=9e23534c-3873-44a5-b32e-f42e453f7851","ios":"levelo://app?vid=9e23534c-3873-44a5-b32e-f42e453f7851"},"vehicle_type_id":"4","last_reported":1729271308,"current_range_meters":10800,"station_id":"ce4bhp92rcd13ifvqhag","pricing_plan_id":"cebpf4jnsgd1na2vs0mg"},{"bike_id":"bdac7045-6822-4f98-8d23-075c35d4893f","system_id":"levelo_inurba_marseille","lat":43.2799,"lon":5.41883,"is_reserved":false,"is_disabled":false,"rental_uris":{"android":"levelo://app?vid=bdac7045-6822-4f98-8d23-075c35d4893f","ios":"levelo://app?vid=bdac7045-6822-4f98-8d23-075c35d4893f"},"vehicle_type_id":"4","last_reported":1729271308,"current_range_meters":9200,"station_id":"","pricing_plan_id":"cebpf4jnsgd1na2vs0mg"},{"bike_id":"7fbc18f3-4eec-463a-ac6e-295c6a98a376","system_id":"levelo_inurba_marseille","lat":43.3233,"lon":5.40623,"is_reserved":false,"is_disabled":false,"rental_uris":{"android":"levelo://app?vid=7fbc18f3-4eec-463a-ac6e-295c6a98a376","ios":"levelo://app?vid=7fbc18f3-4eec-463a-ac6e-295c6a98a376"},"vehicle_type_id":"4","last_reported":1729271308,"current_range_meters":32000,"station_id":"ce4bhq92rcd13ifvqhjg","pricing_plan_id":"cebpf4jnsgd1na2vs0mg"},{"bike_id":"f0f41540-2dd5-4ca4-9fbe-3ab7d6c7960a","system_id":"levelo_inurba_marseille","lat":43.28037,"lon":5.36945,"is_reserved":false,"is_disabled":false,"rental_uris":{"android":"levelo://app?vid=f0f41540-2dd5-4ca4-9fbe-3ab7d6c7960a","ios":"levelo://app?vid=f0f41540-2dd5-4ca4-9fbe-3ab7d6c7960a"},"vehicle_type_id":"4","last_reported":1729271308,"current_range_meters":26800,"station_id":"ce4bha12rcd13ifvqef0","pricing_plan_id":"cebpf4jnsgd1na2vs0mg"},{"bike_id":"987db766-2f31-42fa-971c-a05ffd71f512","system_id":"levelo_inurba_marseille","lat":43.26565,"lon":5.39002,"is_reserved":false,"is_disabled":false,"rental_uris":{"android":"levelo://app?vid=987db766-2f31-42fa-971c-a05ffd71f512","ios":"levelo://app?vid=987db766-2f31-42fa-971c-a05ffd71f512"},"vehicle_type_id":"4","last_reported":1729271308,"current_range_meters":15200,"station_id":"ce4bhe12rcd13ifvqf30","pricing_plan_id":"cebpf4jnsgd1na2vs0mg"},{"bike_id":"90713fff-0658-4173-861d-55f3228b099b","system_id":"levelo_inurba_marseille","lat":43.25487,"lon":5.37646,"is_reserved":false,"is_disabled":false,"rental_uris":{"android":"levelo://app?vid=90713fff-0658-4173-861d-55f3228b099b","ios":"levelo://app?vid=90713fff-0658-4173-861d-55f3228b099b"},"vehicle_type_id":"4","last_reported":1729271308,"current_range_meters":36000,"station_id":"ce4bhh12rcd13ifvqff0","pricing_plan_id":"cebpf4jnsgd1na2vs0mg"},{"bike_id":"da083d8d-73aa-4a06-a4d1-b1b2d9fc9081","system_id":"levelo_inurba_marseille","lat":43.28603,"lon":5.37083,"is_reserved":false,"is_disabled":false,"rental_uris":{"android":"levelo://app?vid=da083d8d-73aa-4a06-a4d1-b1b2d9fc9081","ios":"levelo://app?vid=da083d8d-73aa-4a06-a4d1-b1b2d9fc9081"},"vehicle_type_id":"4","last_reported":1729271308,"current_range_meters":18800,"station_id":"ce4bht12rcd13ifvqi60","pricing_plan_id":"cebpf4jnsgd1na2vs0mg"},{"bike_id":"60f2b256-a820-4c1a-9d20-2590aa950a2d","system_id":"levelo_inurba_marseille","lat":43.28074,"lon":5.39665,"is_reserved":false,"is_disabled":false,"rental_uris":{"android":"levelo://app?vid=60f2b256-a820-4c1a-9d20-2590aa950a2d","ios":"levelo://app?vid=60f2b256-a820-4c1a-9d20-2590aa950a2d"},"vehicle_type_id":"4","last_reported":1729271308,"current_range_meters":6800,"station_id":"ce4bho12rcd13ifvqh2g","pricing_plan_id":"cebpf4jnsgd1na2vs0mg"},{"bike_id":"3d2b97f6-a1fb-415d-9676-cbf139be6dee","system_id":"levelo_inurba_marseille","lat":43.31311,"lon":5.385122,"is_reserved":false,"is_disabled":false,"rental_uris":{"android":"levelo://app?vid=3d2b97f6-a1fb-415d-9676-cbf139be6dee","ios":"levelo://app?vid=3d2b97f6-a1fb-415d-9676-cbf139be6dee"},"vehicle_type_id":"4","last_reported":1729271308,"current_range_meters":24400,"station_id":"ce4bgt92rcd13ifvqcf0","pricing_plan_id":"cebpf4jnsgd1na2vs0mg"},{"bike_id":"5a4da7a4-f5eb-4237-b05f-ee2a37f20477","system_id":"levelo_inurba_marseille","lat":43.28462,"lon":5.38434,"is_reserved":false,"is_disabled":false,"rental_uris":{"android":"levelo://app?vid=5a4da7a4-f5eb-4237-b05f-ee2a37f20477","ios":"levelo://app?vid=5a4da7a4-f5eb-4237-b05f-ee2a37f20477"},"vehicle_type_id":"4","last_reported":1729271308,"current_range_meters":3600,"station_id":"ce4bh512rcd13ifvqe3g","pricing_plan_id":"cebpf4jnsgd1na2vs0mg"},{"bike_id":"b33500b9-9d61-4c18-ab8f-ecb6aa4dd323","system_id":"levelo_inurba_marseille","lat":43.2707,"lon":5.42281,"is_reserved":false,"is_disabled":false,"rental_uris":{"android":"levelo://app?vid=b33500b9-9d61-4c18-ab8f-ecb6aa4dd323","ios":"levelo://app?vid=b33500b9-9d61-4c18-ab8f-ecb6aa4dd323"},"vehicle_type_id":"4","last_reported":1729271308,"current_range_meters":26800,"station_id":"ce4bhk92rcd13ifvqgb0","pricing_plan_id":"cebpf4jnsgd1na2vs0mg"},{"bike_id":"784b097e-53c4-4fea-ba95-f4a3e1605189","system_id":"levelo_inurba_marseille","lat":43.2707,"lon":5.42286,"is_reserved":false,"is_disabled":false,"rental_uris":{"android":"levelo://app?vid=784b097e-53c4-4fea-ba95-f4a3e1605189","ios":"levelo://app?vid=784b097e-53c4-4fea-ba95-f4a3e1605189"},"vehicle_type_id":"4","last_reported":1729271308,"current_range_meters":26800,"station_id":"ce4bhk92rcd13ifvqgb0","pricing_plan_id":"cebpf4jnsgd1na2vs0mg"},{"bike_id":"08967319-56a9-464c-8dea-9f7ec3d0eca6","system_id":"levelo_inurba_marseille","lat":43.31166,"lon":5.38722,"is_reserved":false,"is_disabled":false,"rental_uris":{"android":"levelo://app?vid=08967319-56a9-464c-8dea-9f7ec3d0eca6","ios":"levelo://app?vid=08967319-56a9-464c-8dea-9f7ec3d0eca6"},"vehicle_type_id":"4","last_reported":1729271308,"current_range_meters":38800,"station_id":"ce4bgv12rcd13ifvqcp0","pricing_plan_id":"cebpf4jnsgd1na2vs0mg"},{"bike_id":"2aa30074-a798-4517-9910-408fe840d5c0","system_id":"levelo_inurba_marseille","lat":43.23188,"lon":5.35566,"is_reserved":false,"is_disabled":false,"rental_uris":{"android":"levelo://app?vid=2aa30074-a798-4517-9910-408fe840d5c0","ios":"levelo://app?vid=2aa30074-a798-4517-9910-408fe840d5c0"},"vehicle_type_id":"4","last_reported":1729271308,"current_range_meters":28000,"station_id":"ce4bhu92rcd13ifvqi70","pricing_plan_id":"cebpf4jnsgd1na2vs0mg"},{"bike_id":"78d77dc2-ce5c-4f30-bfb4-e46048f3393c","system_id":"levelo_inurba_marseille","lat":43.30132,"lon":5.38783,"is_reserved":false,"is_disabled":false,"rental_uris":{"android":"levelo://app?vid=78d77dc2-ce5c-4f30-bfb4-e46048f3393c","ios":"levelo://app?vid=78d77dc2-ce5c-4f30-bfb4-e46048f3393c"},"vehicle_type_id":"4","last_reported":1729271308,"current_range_meters":39200,"station_id":"ce4bghh2rcd13ifvqb60","pricing_plan_id":"cebpf4jnsgd1na2vs0mg"},{"bike_id":"1db2b0dd-0bfe-4de3-9a81-90864d74327b","system_id":"levelo_inurba_marseille","lat":43.29515,"lon":5.39035,"is_reserved":false,"is_disabled":false,"rental_uris":{"android":"levelo://app?vid=1db2b0dd-0bfe-4de3-9a81-90864d74327b","ios":"levelo://app?vid=1db2b0dd-0bfe-4de3-9a81-90864d74327b"},"vehicle_type_id":"4","last_reported":1729271308,"current_range_meters":4400,"station_id":"ce4bh3p2rcd13ifvqdp0","pricing_plan_id":"cebpf4jnsgd1na2vs0mg"},{"bike_id":"bc4dfd71-cdf3-45e3-8aa3-c5528379f96a","system_id":"levelo_inurba_marseille","lat":43.27609,"lon":5.36119,"is_reserved":false,"is_disabled":false,"rental_uris":{"android":"levelo://app?vid=bc4dfd71-cdf3-45e3-8aa3-c5528379f96a","ios":"levelo://app?vid=bc4dfd71-cdf3-45e3-8aa3-c5528379f96a"},"vehicle_type_id":"4","last_reported":1729271308,"current_range_meters":24800,"station_id":"ce4bgj92rcd13ifvqbe0","pricing_plan_id":"cebpf4jnsgd1na2vs0mg"},{"bike_id":"1ecce1b5-331b-45b7-87eb-f21a956116d0","system_id":"levelo_inurba_marseille","lat":43.28481,"lon":5.3842,"is_reserved":false,"is_disabled":false,"rental_uris":{"android":"levelo://app?vid=1ecce1b5-331b-45b7-87eb-f21a956116d0","ios":"levelo://app?vid=1ecce1b5-331b-45b7-87eb-f21a956116d0"},"vehicle_type_id":"4","last_reported":1729271308,"current_range_meters":3200,"station_id":"ce4bh512rcd13ifvqe3g","pricing_plan_id":"cebpf4jnsgd1na2vs0mg"},{"bike_id":"c746da30-0175-4c63-8cc4-f4d0284e8127","system_id":"levelo_inurba_marseille","lat":43.23963,"lon":5.36643,"is_reserved":false,"is_disabled":false,"rental_uris":{"android":"levelo://app?vid=c746da30-0175-4c63-8cc4-f4d0284e8127","ios":"levelo://app?vid=c746da30-0175-4c63-8cc4-f4d0284e8127"},"vehicle_type_id":"4","last_reported":1729271308,"current_range_meters":20400,"station_id":"ce4bhi12rcd13ifvqfp0","pricing_plan_id":"cebpf4jnsgd1na2vs0mg"},{"bike_id":"86fc8e12-6bde-41fc-be67-773b79d6a218","system_id":"levelo_inurba_marseille","lat":43.26061,"lon":5.39402,"is_reserved":false,"is_disabled":false,"rental_uris":{"android":"levelo://app?vid=86fc8e12-6bde-41fc-be67-773b79d6a218","ios":"levelo://app?vid=86fc8e12-6bde-41fc-be67-773b79d6a218"},"vehicle_type_id":"4","last_reported":1729271308,"current_range_meters":3600,"station_id":"ce4bhh92rcd13ifvqfj0","pricing_plan_id":"cebpf4jnsgd1na2vs0mg"},{"bike_id":"2fe01ebe-cd32-417e-8908-bff13e2c3a86","system_id":"levelo_inurba_marseille","lat":43.290373,"lon":5.386551,"is_reserved":false,"is_disabled":false,"rental_uris":{"android":"levelo://app?vid=2fe01ebe-cd32-417e-8908-bff13e2c3a86","ios":"levelo://app?vid=2fe01ebe-cd32-417e-8908-bff13e2c3a86"},"vehicle_type_id":"4","last_reported":1729271308,"current_range_meters":12400,"station_id":"ce4bh4p2rcd13ifvqe0g","pricing_plan_id":"cebpf4jnsgd1na2vs0mg"},{"bike_id":"6b7c65c8-2620-406b-9377-2ca6fb33b7b1","system_id":"levelo_inurba_marseille","lat":43.26215,"lon":5.37443,"is_reserved":false,"is_disabled":false,"rental_uris":{"android":"levelo://app?vid=6b7c65c8-2620-406b-9377-2ca6fb33b7b1","ios":"levelo://app?vid=6b7c65c8-2620-406b-9377-2ca6fb33b7b1"},"vehicle_type_id":"4","last_reported":1729271308,"current_range_meters":38800,"station_id":"ce4bhgp2rcd13ifvqfc0","pricing_plan_id":"cebpf4jnsgd1na2vs0mg"},{"bike_id":"f1c25fa7-25ed-4369-af71-6ab49c483818","system_id":"levelo_inurba_marseille","lat":43.28177,"lon":5.36931,"is_reserved":false,"is_disabled":false,"rental_uris":{"android":"levelo://app?vid=f1c25fa7-25ed-4369-af71-6ab49c483818","ios":"levelo://app?vid=f1c25fa7-25ed-4369-af71-6ab49c483818"},"vehicle_type_id":"4","last_reported":1729271308,"current_range_meters":2800,"station_id":"ce4bht12rcd13ifvqi60","pricing_plan_id":"cebpf4jnsgd1na2vs0mg"},{"bike_id":"fbe7fd35-d970-4695-b1fb-33da508bcad4","system_id":"levelo_inurba_marseille","lat":43.23179,"lon":5.39991,"is_reserved":false,"is_disabled":false,"rental_uris":{"android":"levelo://app?vid=fbe7fd35-d970-4695-b1fb-33da508bcad4","ios":"levelo://app?vid=fbe7fd35-d970-4695-b1fb-33da508bcad4"},"vehicle_type_id":"4","last_reported":1729271308,"current_range_meters":24000,"station_id":"ce4bhn12rcd13ifvqgqg","pricing_plan_id":"cebpf4jnsgd1na2vs0mg"},{"bike_id":"5f3582d3-4361-487a-a9c7-a05959e6a7ee","system_id":"levelo_inurba_marseille","lat":43.27058,"lon":5.40263,"is_reserved":false,"is_disabled":false,"rental_uris":{"android":"levelo://app?vid=5f3582d3-4361-487a-a9c7-a05959e6a7ee","ios":"levelo://app?vid=5f3582d3-4361-487a-a9c7-a05959e6a7ee"},"vehicle_type_id":"4","last_reported":1729271308,"current_range_meters":24000,"station_id":"ce4bhk92rcd13ifvqgc0","pricing_plan_id":"cebpf4jnsgd1na2vs0mg"},{"bike_id":"3cc9ca15-d23c-4891-9216-c134fa816eb8","system_id":"levelo_inurba_marseille","lat":43.24175,"lon":5.3973,"is_reserved":false,"is_disabled":false,"rental_uris":{"android":"levelo://app?vid=3cc9ca15-d23c-4891-9216-c134fa816eb8","ios":"levelo://app?vid=3cc9ca15-d23c-4891-9216-c134fa816eb8"},"vehicle_type_id":"4","last_reported":1729271308,"current_range_meters":27200,"station_id":"ce4bhn12rcd13ifvqgpg","pricing_plan_id":"cebpf4jnsgd1na2vs0mg"},{"bike_id":"299dfc52-ccaa-46a8-85e5-ed1f38c31e59","system_id":"levelo_inurba_marseille","lat":43.2418,"lon":5.39728,"is_reserved":false,"is_disabled":false,"rental_uris":{"android":"levelo://app?vid=299dfc52-ccaa-46a8-85e5-ed1f38c31e59","ios":"levelo://app?vid=299dfc52-ccaa-46a8-85e5-ed1f38c31e59"},"vehicle_type_id":"4","last_reported":1729271308,"current_range_meters":17600,"station_id":"ce4bhn12rcd13ifvqgpg","pricing_plan_id":"cebpf4jnsgd1na2vs0mg"},{"bike_id":"698ed040-999b-48d4-8e54-879fb07ba923","system_id":"levelo_inurba_marseille","lat":43.31683,"lon":5.40474,"is_reserved":false,"is_disabled":false,"rental_uris":{"android":"levelo://app?vid=698ed040-999b-48d4-8e54-879fb07ba923","ios":"levelo://app?vid=698ed040-999b-48d4-8e54-879fb07ba923"},"vehicle_type_id":"4","last_reported":1729271308,"current_range_meters":2800,"station_id":"ce4bh012rcd13ifvqd00","pricing_plan_id":"cebpf4jnsgd1na2vs0mg"},{"bike_id":"3d7546d0-4dba-4212-88c9-dfe9a2032237","system_id":"levelo_inurba_marseille","lat":43.24164,"lon":5.36402,"is_reserved":false,"is_disabled":false,"rental_uris":{"android":"levelo://app?vid=3d7546d0-4dba-4212-88c9-dfe9a2032237","ios":"levelo://app?vid=3d7546d0-4dba-4212-88c9-dfe9a2032237"},"vehicle_type_id":"4","last_reported":1729271308,"current_range_meters":36800,"station_id":"cpo36qri1sfpv3e86is0","pricing_plan_id":"cebpf4jnsgd1na2vs0mg"},{"bike_id":"4a7be492-19b6-48b1-b7c2-11aa7a381c9e","system_id":"levelo_inurba_marseille","lat":43.26211,"lon":5.37445,"is_reserved":false,"is_disabled":false,"rental_uris":{"android":"levelo://app?vid=4a7be492-19b6-48b1-b7c2-11aa7a381c9e","ios":"levelo://app?vid=4a7be492-19b6-48b1-b7c2-11aa7a381c9e"},"vehicle_type_id":"4","last_reported":1729271308,"current_range_meters":38800,"station_id":"ce4bhgp2rcd13ifvqfc0","pricing_plan_id":"cebpf4jnsgd1na2vs0mg"},{"bike_id":"141ab974-c134-4cbd-9411-422aa2252e61","system_id":"levelo_inurba_marseille","lat":43.27617,"lon":5.36102,"is_reserved":false,"is_disabled":false,"rental_uris":{"android":"levelo://app?vid=141ab974-c134-4cbd-9411-422aa2252e61","ios":"levelo://app?vid=141ab974-c134-4cbd-9411-422aa2252e61"},"vehicle_type_id":"4","last_reported":1729271308,"current_range_meters":6400,"station_id":"ce4bgj92rcd13ifvqbe0","pricing_plan_id":"cebpf4jnsgd1na2vs0mg"},{"bike_id":"25573e2f-a445-4919-a85f-8daef7637352","system_id":"levelo_inurba_marseille","lat":43.30802,"lon":5.43524,"is_reserved":false,"is_disabled":false,"rental_uris":{"android":"levelo://app?vid=25573e2f-a445-4919-a85f-8daef7637352","ios":"levelo://app?vid=25573e2f-a445-4919-a85f-8daef7637352"},"vehicle_type_id":"4","last_reported":1729271308,"current_range_meters":32400,"station_id":"ce4bhph2rcd13ifvqheg","pricing_plan_id":"cebpf4jnsgd1na2vs0mg"},{"bike_id":"90b7df2b-2805-4913-a745-07d80216980c","system_id":"levelo_inurba_marseille","lat":43.30801,"lon":5.43519,"is_reserved":false,"is_disabled":false,"rental_uris":{"android":"levelo://app?vid=90b7df2b-2805-4913-a745-07d80216980c","ios":"levelo://app?vid=90b7df2b-2805-4913-a745-07d80216980c"},"vehicle_type_id":"4","last_reported":1729271308,"current_range_meters":10800,"station_id":"ce4bhph2rcd13ifvqheg","pricing_plan_id":"cebpf4jnsgd1na2vs0mg"},{"bike_id":"32ce68a3-3fc7-4257-974f-ab657619c295","system_id":"levelo_inurba_marseille","lat":43.33733,"lon":5.37458,"is_reserved":false,"is_disabled":false,"rental_uris":{"android":"levelo://app?vid=32ce68a3-3fc7-4257-974f-ab657619c295","ios":"levelo://app?vid=32ce68a3-3fc7-4257-974f-ab657619c295"},"vehicle_type_id":"4","last_reported":1729271308,"current_range_meters":9600,"station_id":"","pricing_plan_id":"cebpf4jnsgd1na2vs0mg"},{"bike_id":"310dc4d8-21a4-4d74-926f-4ffe3f0ed12b","system_id":"levelo_inurba_marseille","lat":43.27376,"lon":5.36263,"is_reserved":false,"is_disabled":false,"rental_uris":{"android":"levelo://app?vid=310dc4d8-21a4-4d74-926f-4ffe3f0ed12b","ios":"levelo://app?vid=310dc4d8-21a4-4d74-926f-4ffe3f0ed12b"},"vehicle_type_id":"4","last_reported":1729271308,"current_range_meters":30800,"station_id":"ce4bhbh2rcd13ifvqeo0","pricing_plan_id":"cebpf4jnsgd1na2vs0mg"},{"bike_id":"04cb7446-ee98-4560-8432-b144922aafe7","system_id":"levelo_inurba_marseille","lat":43.30653,"lon":5.38161,"is_reserved":false,"is_disabled":false,"rental_uris":{"android":"levelo://app?vid=04cb7446-ee98-4560-8432-b144922aafe7","ios":"levelo://app?vid=04cb7446-ee98-4560-8432-b144922aafe7"},"vehicle_type_id":"4","last_reported":1729271308,"current_range_meters":9600,"station_id":"","pricing_plan_id":"cebpf4jnsgd1na2vs0mg"},{"bike_id":"555ff3cf-777b-4ff4-b149-9575fc002950","system_id":"levelo_inurba_marseille","lat":43.24179,"lon":5.39737,"is_reserved":false,"is_disabled":false,"rental_uris":{"android":"levelo://app?vid=555ff3cf-777b-4ff4-b149-9575fc002950","ios":"levelo://app?vid=555ff3cf-777b-4ff4-b149-9575fc002950"},"vehicle_type_id":"4","last_reported":1729271308,"current_range_meters":30800,"station_id":"ce4bhn12rcd13ifvqgpg","pricing_plan_id":"cebpf4jnsgd1na2vs0mg"},{"bike_id":"b64362e2-b043-4f67-8e42-f68524e828ed","system_id":"levelo_inurba_marseille","lat":43.24175,"lon":5.39713,"is_reserved":false,"is_disabled":false,"rental_uris":{"android":"levelo://app?vid=b64362e2-b043-4f67-8e42-f68524e828ed","ios":"levelo://app?vid=b64362e2-b043-4f67-8e42-f68524e828ed"},"vehicle_type_id":"4","last_reported":1729271308,"current_range_meters":24400,"station_id":"ce4bhn12rcd13ifvqgpg","pricing_plan_id":"cebpf4jnsgd1na2vs0mg"},{"bike_id":"fa7bbdc9-afbe-404d-8676-647037cc76a9","system_id":"levelo_inurba_marseille","lat":43.2319,"lon":5.35555,"is_reserved":false,"is_disabled":false,"rental_uris":{"android":"levelo://app?vid=fa7bbdc9-afbe-404d-8676-647037cc76a9","ios":"levelo://app?vid=fa7bbdc9-afbe-404d-8676-647037cc76a9"},"vehicle_type_id":"4","last_reported":1729271308,"current_range_meters":28400,"station_id":"ce4bhu92rcd13ifvqi70","pricing_plan_id":"cebpf4jnsgd1na2vs0mg"},{"bike_id":"ae72d7e7-44c5-4936-b652-a590a2ba24a2","system_id":"levelo_inurba_marseille","lat":43.28041,"lon":5.36955,"is_reserved":false,"is_disabled":false,"rental_uris":{"android":"levelo://app?vid=ae72d7e7-44c5-4936-b652-a590a2ba24a2","ios":"levelo://app?vid=ae72d7e7-44c5-4936-b652-a590a2ba24a2"},"vehicle_type_id":"4","last_reported":1729271308,"current_range_meters":35200,"station_id":"ce4bha12rcd13ifvqef0","pricing_plan_id":"cebpf4jnsgd1na2vs0mg"},{"bike_id":"f8d2e239-573b-4f9d-8955-e6720aa9663e","system_id":"levelo_inurba_marseille","lat":43.24647,"lon":5.38897,"is_reserved":false,"is_disabled":false,"rental_uris":{"android":"levelo://app?vid=f8d2e239-573b-4f9d-8955-e6720aa9663e","ios":"levelo://app?vid=f8d2e239-573b-4f9d-8955-e6720aa9663e"},"vehicle_type_id":"4","last_reported":1729271308,"current_range_meters":30400,"station_id":"ce4bhg12rcd13ifvqf60","pricing_plan_id":"cebpf4jnsgd1na2vs0mg"},{"bike_id":"d88aeb6e-c2cc-4a3f-be09-bedf13f1d5fa","system_id":"levelo_inurba_marseille","lat":43.31996,"lon":5.38156,"is_reserved":false,"is_disabled":false,"rental_uris":{"android":"levelo://app?vid=d88aeb6e-c2cc-4a3f-be09-bedf13f1d5fa","ios":"levelo://app?vid=d88aeb6e-c2cc-4a3f-be09-bedf13f1d5fa"},"vehicle_type_id":"4","last_reported":1729271308,"current_range_meters":38800,"station_id":"ce4bhr12rcd13ifvqhpg","pricing_plan_id":"cebpf4jnsgd1na2vs0mg"},{"bike_id":"8c1ec6cb-2291-4814-837b-be8625c706f3","system_id":"levelo_inurba_marseille","lat":43.23195,"lon":5.35544,"is_reserved":false,"is_disabled":false,"rental_uris":{"android":"levelo://app?vid=8c1ec6cb-2291-4814-837b-be8625c706f3","ios":"levelo://app?vid=8c1ec6cb-2291-4814-837b-be8625c706f3"},"vehicle_type_id":"4","last_reported":1729271308,"current_range_meters":32000,"station_id":"ce4bhu92rcd13ifvqi70","pricing_plan_id":"cebpf4jnsgd1na2vs0mg"},{"bike_id":"a4b90121-4a34-45c9-9222-0d4c7d195929","system_id":"levelo_inurba_marseille","lat":43.26211,"lon":5.3745,"is_reserved":false,"is_disabled":false,"rental_uris":{"android":"levelo://app?vid=a4b90121-4a34-45c9-9222-0d4c7d195929","ios":"levelo://app?vid=a4b90121-4a34-45c9-9222-0d4c7d195929"},"vehicle_type_id":"4","last_reported":1729271308,"current_range_meters":12800,"station_id":"ce4bhgp2rcd13ifvqfc0","pricing_plan_id":"cebpf4jnsgd1na2vs0mg"},{"bike_id":"21afa2f5-6fa9-45ba-9536-b02ef898f02c","system_id":"levelo_inurba_marseille","lat":43.28679,"lon":5.40002,"is_reserved":false,"is_disabled":false,"rental_uris":{"android":"levelo://app?vid=21afa2f5-6fa9-45ba-9536-b02ef898f02c","ios":"levelo://app?vid=21afa2f5-6fa9-45ba-9536-b02ef898f02c"},"vehicle_type_id":"4","last_reported":1729271308,"current_range_meters":3600,"station_id":"ce4bho92rcd13ifvqh3g","pricing_plan_id":"cebpf4jnsgd1na2vs0mg"},{"bike_id":"8429a31c-77f3-41b6-b710-38d8ca6d27dc","system_id":"levelo_inurba_marseille","lat":43.2508,"lon":5.39518,"is_reserved":false,"is_disabled":false,"rental_uris":{"android":"levelo://app?vid=8429a31c-77f3-41b6-b710-38d8ca6d27dc","ios":"levelo://app?vid=8429a31c-77f3-41b6-b710-38d8ca6d27dc"},"vehicle_type_id":"4","last_reported":1729271308,"current_range_meters":16800,"station_id":"ce4bhm12rcd13ifvqgkg","pricing_plan_id":"cebpf4jnsgd1na2vs0mg"},{"bike_id":"237d7f97-c455-4e9c-921e-eac7b8d93fcf","system_id":"levelo_inurba_marseille","lat":43.24809,"lon":5.37461,"is_reserved":false,"is_disabled":false,"rental_uris":{"android":"levelo://app?vid=237d7f97-c455-4e9c-921e-eac7b8d93fcf","ios":"levelo://app?vid=237d7f97-c455-4e9c-921e-eac7b8d93fcf"},"vehicle_type_id":"4","last_reported":1729271308,"current_range_meters":37600,"station_id":"ce4bhgh2rcd13ifvqfb0","pricing_plan_id":"cebpf4jnsgd1na2vs0mg"},{"bike_id":"dd2b4f0c-6344-4a16-bdd5-9a39e0be809c","system_id":"levelo_inurba_marseille","lat":43.27994,"lon":5.4166,"is_reserved":false,"is_disabled":false,"rental_uris":{"android":"levelo://app?vid=dd2b4f0c-6344-4a16-bdd5-9a39e0be809c","ios":"levelo://app?vid=dd2b4f0c-6344-4a16-bdd5-9a39e0be809c"},"vehicle_type_id":"4","last_reported":1729271308,"current_range_meters":37600,"station_id":"ce4bho12rcd13ifvqh1g","pricing_plan_id":"cebpf4jnsgd1na2vs0mg"},{"bike_id":"c28dcc41-e290-4ac5-920f-78c8b4b9a18e","system_id":"levelo_inurba_marseille","lat":43.27606,"lon":5.36115,"is_reserved":false,"is_disabled":false,"rental_uris":{"android":"levelo://app?vid=c28dcc41-e290-4ac5-920f-78c8b4b9a18e","ios":"levelo://app?vid=c28dcc41-e290-4ac5-920f-78c8b4b9a18e"},"vehicle_type_id":"4","last_reported":1729271308,"current_range_meters":36400,"station_id":"ce4bgj92rcd13ifvqbe0","pricing_plan_id":"cebpf4jnsgd1na2vs0mg"},{"bike_id":"a1fd0e95-800f-4462-bdc4-2edfdd006d21","system_id":"levelo_inurba_marseille","lat":43.2828,"lon":5.35091,"is_reserved":false,"is_disabled":false,"rental_uris":{"android":"levelo://app?vid=a1fd0e95-800f-4462-bdc4-2edfdd006d21","ios":"levelo://app?vid=a1fd0e95-800f-4462-bdc4-2edfdd006d21"},"vehicle_type_id":"4","last_reported":1729271308,"current_range_meters":38800,"station_id":"ce4bhbp2rcd13ifvqerg","pricing_plan_id":"cebpf4jnsgd1na2vs0mg"},{"bike_id":"afbdfb60-b454-4b81-b018-ae7f330abdf2","system_id":"levelo_inurba_marseille","lat":43.299,"lon":5.43663,"is_reserved":false,"is_disabled":false,"rental_uris":{"android":"levelo://app?vid=afbdfb60-b454-4b81-b018-ae7f330abdf2","ios":"levelo://app?vid=afbdfb60-b454-4b81-b018-ae7f330abdf2"},"vehicle_type_id":"4","last_reported":1729271308,"current_range_meters":26000,"station_id":"ce4bhpp2rcd13ifvqhfg","pricing_plan_id":"cebpf4jnsgd1na2vs0mg"},{"bike_id":"8921811e-36e0-48a7-986e-72723a676581","system_id":"levelo_inurba_marseille","lat":43.29227,"lon":5.36074,"is_reserved":false,"is_disabled":false,"rental_uris":{"android":"levelo://app?vid=8921811e-36e0-48a7-986e-72723a676581","ios":"levelo://app?vid=8921811e-36e0-48a7-986e-72723a676581"},"vehicle_type_id":"4","last_reported":1729271308,"current_range_meters":38800,"station_id":"ce4bhbh2rcd13ifvqeqg","pricing_plan_id":"cebpf4jnsgd1na2vs0mg"},{"bike_id":"8b33911e-5d42-46bd-b00d-c1d5ce72f577","system_id":"levelo_inurba_marseille","lat":43.23188,"lon":5.39989,"is_reserved":false,"is_disabled":false,"rental_uris":{"android":"levelo://app?vid=8b33911e-5d42-46bd-b00d-c1d5ce72f577","ios":"levelo://app?vid=8b33911e-5d42-46bd-b00d-c1d5ce72f577"},"vehicle_type_id":"4","last_reported":1729271308,"current_range_meters":40000,"station_id":"ce4bhn12rcd13ifvqgqg","pricing_plan_id":"cebpf4jnsgd1na2vs0mg"},{"bike_id":"a8bebfd9-4735-4de6-a49d-9bdc4ff748d1","system_id":"levelo_inurba_marseille","lat":43.30798,"lon":5.43525,"is_reserved":false,"is_disabled":false,"rental_uris":{"android":"levelo://app?vid=a8bebfd9-4735-4de6-a49d-9bdc4ff748d1","ios":"levelo://app?vid=a8bebfd9-4735-4de6-a49d-9bdc4ff748d1"},"vehicle_type_id":"4","last_reported":1729271308,"current_range_meters":16400,"station_id":"ce4bhph2rcd13ifvqheg","pricing_plan_id":"cebpf4jnsgd1na2vs0mg"},{"bike_id":"0e29f6eb-c215-4f2b-bb4e-804d4616c62e","system_id":"levelo_inurba_marseille","lat":43.28272,"lon":5.35078,"is_reserved":false,"is_disabled":false,"rental_uris":{"android":"levelo://app?vid=0e29f6eb-c215-4f2b-bb4e-804d4616c62e","ios":"levelo://app?vid=0e29f6eb-c215-4f2b-bb4e-804d4616c62e"},"vehicle_type_id":"4","last_reported":1729271308,"current_range_meters":38800,"station_id":"ce4bhbp2rcd13ifvqerg","pricing_plan_id":"cebpf4jnsgd1na2vs0mg"},{"bike_id":"0994d7f0-fa2e-480f-b967-2b1e1b476b78","system_id":"levelo_inurba_marseille","lat":43.23188,"lon":5.35573,"is_reserved":false,"is_disabled":false,"rental_uris":{"android":"levelo://app?vid=0994d7f0-fa2e-480f-b967-2b1e1b476b78","ios":"levelo://app?vid=0994d7f0-fa2e-480f-b967-2b1e1b476b78"},"vehicle_type_id":"4","last_reported":1729271308,"current_range_meters":8000,"station_id":"ce4bhu92rcd13ifvqi70","pricing_plan_id":"cebpf4jnsgd1na2vs0mg"},{"bike_id":"5268f476-3951-4500-8551-08d88af9228c","system_id":"levelo_inurba_marseille","lat":43.23056,"lon":5.35496,"is_reserved":false,"is_disabled":false,"rental_uris":{"android":"levelo://app?vid=5268f476-3951-4500-8551-08d88af9228c","ios":"levelo://app?vid=5268f476-3951-4500-8551-08d88af9228c"},"vehicle_type_id":"4","last_reported":1729271308,"current_range_meters":7200,"station_id":"cpo3342slgdg3j2ifvpg","pricing_plan_id":"cebpf4jnsgd1na2vs0mg"},{"bike_id":"66ccc46d-618e-4760-b09c-27382152bdab","system_id":"levelo_inurba_marseille","lat":43.23196,"lon":5.35554,"is_reserved":false,"is_disabled":false,"rental_uris":{"android":"levelo://app?vid=66ccc46d-618e-4760-b09c-27382152bdab","ios":"levelo://app?vid=66ccc46d-618e-4760-b09c-27382152bdab"},"vehicle_type_id":"4","last_reported":1729271308,"current_range_meters":27600,"station_id":"ce4bhu92rcd13ifvqi70","pricing_plan_id":"cebpf4jnsgd1na2vs0mg"},{"bike_id":"e9e06989-753d-4795-b8db-5902cb11facd","system_id":"levelo_inurba_marseille","lat":43.29176,"lon":5.37138,"is_reserved":false,"is_disabled":false,"rental_uris":{"android":"levelo://app?vid=e9e06989-753d-4795-b8db-5902cb11facd","ios":"levelo://app?vid=e9e06989-753d-4795-b8db-5902cb11facd"},"vehicle_type_id":"4","last_reported":1729271308,"current_range_meters":3200,"station_id":"ce4bha92rcd13ifvqeh0","pricing_plan_id":"cebpf4jnsgd1na2vs0mg"},{"bike_id":"fc262b45-2b88-4d3d-8020-e7c946d1fec3","system_id":"levelo_inurba_marseille","lat":43.32111,"lon":5.36778,"is_reserved":false,"is_disabled":false,"rental_uris":{"android":"levelo://app?vid=fc262b45-2b88-4d3d-8020-e7c946d1fec3","ios":"levelo://app?vid=fc262b45-2b88-4d3d-8020-e7c946d1fec3"},"vehicle_type_id":"4","last_reported":1729271308,"current_range_meters":37600,"station_id":"ce4bhrh2rcd13ifvqhug","pricing_plan_id":"cebpf4jnsgd1na2vs0mg"},{"bike_id":"907d90e2-7e08-4846-bbc2-01977b54a9bd","system_id":"levelo_inurba_marseille","lat":43.24163,"lon":5.36403,"is_reserved":false,"is_disabled":false,"rental_uris":{"android":"levelo://app?vid=907d90e2-7e08-4846-bbc2-01977b54a9bd","ios":"levelo://app?vid=907d90e2-7e08-4846-bbc2-01977b54a9bd"},"vehicle_type_id":"4","last_reported":1729271308,"current_range_meters":16800,"station_id":"cpo36qri1sfpv3e86is0","pricing_plan_id":"cebpf4jnsgd1na2vs0mg"},{"bike_id":"bd03689e-281b-4a3e-bb54-db6551518775","system_id":"levelo_inurba_marseille","lat":43.31479,"lon":5.39742,"is_reserved":false,"is_disabled":false,"rental_uris":{"android":"levelo://app?vid=bd03689e-281b-4a3e-bb54-db6551518775","ios":"levelo://app?vid=bd03689e-281b-4a3e-bb54-db6551518775"},"vehicle_type_id":"4","last_reported":1729271308,"current_range_meters":27200,"station_id":"ce4bgrh2rcd13ifvqc8g","pricing_plan_id":"cebpf4jnsgd1na2vs0mg"},{"bike_id":"1968f13e-0715-46c4-8c5a-b9134a137eb1","system_id":"levelo_inurba_marseille","lat":43.30541,"lon":5.36561,"is_reserved":false,"is_disabled":false,"rental_uris":{"android":"levelo://app?vid=1968f13e-0715-46c4-8c5a-b9134a137eb1","ios":"levelo://app?vid=1968f13e-0715-46c4-8c5a-b9134a137eb1"},"vehicle_type_id":"4","last_reported":1729271308,"current_range_meters":11600,"station_id":"ce4bgs12rcd13ifvqcag","pricing_plan_id":"cebpf4jnsgd1na2vs0mg"},{"bike_id":"e419b7c0-1db8-48ae-950b-ec09bcf292b6","system_id":"levelo_inurba_marseille","lat":43.30611,"lon":5.37206,"is_reserved":false,"is_disabled":false,"rental_uris":{"android":"levelo://app?vid=e419b7c0-1db8-48ae-950b-ec09bcf292b6","ios":"levelo://app?vid=e419b7c0-1db8-48ae-950b-ec09bcf292b6"},"vehicle_type_id":"4","last_reported":1729271308,"current_range_meters":16000,"station_id":"ce4bgqh2rcd13ifvqc4g","pricing_plan_id":"cebpf4jnsgd1na2vs0mg"},{"bike_id":"c4bd91c4-7063-4b0f-9dce-746879557933","system_id":"levelo_inurba_marseille","lat":43.28102,"lon":5.37846,"is_reserved":false,"is_disabled":false,"rental_uris":{"android":"levelo://app?vid=c4bd91c4-7063-4b0f-9dce-746879557933","ios":"levelo://app?vid=c4bd91c4-7063-4b0f-9dce-746879557933"},"vehicle_type_id":"4","last_reported":1729271308,"current_range_meters":36800,"station_id":"ce4bha12rcd13ifvqee0","pricing_plan_id":"cebpf4jnsgd1na2vs0mg"},{"bike_id":"d2c3b769-4c37-41c9-b8e0-de5d70d9a8b2","system_id":"levelo_inurba_marseille","lat":43.25716,"lon":5.41118,"is_reserved":false,"is_disabled":false,"rental_uris":{"android":"levelo://app?vid=d2c3b769-4c37-41c9-b8e0-de5d70d9a8b2","ios":"levelo://app?vid=d2c3b769-4c37-41c9-b8e0-de5d70d9a8b2"},"vehicle_type_id":"4","last_reported":1729271308,"current_range_meters":12800,"station_id":"ce4bhkp2rcd13ifvqgd0","pricing_plan_id":"cebpf4jnsgd1na2vs0mg"},{"bike_id":"de77b258-5937-4af9-a98c-7115151770a1","system_id":"levelo_inurba_marseille","lat":43.30876,"lon":5.39657,"is_reserved":false,"is_disabled":false,"rental_uris":{"android":"levelo://app?vid=de77b258-5937-4af9-a98c-7115151770a1","ios":"levelo://app?vid=de77b258-5937-4af9-a98c-7115151770a1"},"vehicle_type_id":"4","last_reported":1729271308,"current_range_meters":19200,"station_id":"ce4bh012rcd13ifvqcv0","pricing_plan_id":"cebpf4jnsgd1na2vs0mg"},{"bike_id":"94dad7f8-6585-4b37-b691-74420d23ef13","system_id":"levelo_inurba_marseille","lat":43.30794,"lon":5.43528,"is_reserved":false,"is_disabled":false,"rental_uris":{"android":"levelo://app?vid=94dad7f8-6585-4b37-b691-74420d23ef13","ios":"levelo://app?vid=94dad7f8-6585-4b37-b691-74420d23ef13"},"vehicle_type_id":"4","last_reported":1729271308,"current_range_meters":36000,"station_id":"ce4bhph2rcd13ifvqheg","pricing_plan_id":"cebpf4jnsgd1na2vs0mg"},{"bike_id":"4562e9bb-7c1e-4e0e-95e1-858d0f8d86d1","system_id":"levelo_inurba_marseille","lat":43.2319,"lon":5.35563,"is_reserved":false,"is_disabled":false,"rental_uris":{"android":"levelo://app?vid=4562e9bb-7c1e-4e0e-95e1-858d0f8d86d1","ios":"levelo://app?vid=4562e9bb-7c1e-4e0e-95e1-858d0f8d86d1"},"vehicle_type_id":"4","last_reported":1729271308,"current_range_meters":32800,"station_id":"ce4bhu92rcd13ifvqi70","pricing_plan_id":"cebpf4jnsgd1na2vs0mg"},{"bike_id":"6837ac97-30a8-4145-8047-b6d6df61ac48","system_id":"levelo_inurba_marseille","lat":43.23185,"lon":5.39993,"is_reserved":false,"is_disabled":false,"rental_uris":{"android":"levelo://app?vid=6837ac97-30a8-4145-8047-b6d6df61ac48","ios":"levelo://app?vid=6837ac97-30a8-4145-8047-b6d6df61ac48"},"vehicle_type_id":"4","last_reported":1729271308,"current_range_meters":40000,"station_id":"ce4bhn12rcd13ifvqgqg","pricing_plan_id":"cebpf4jnsgd1na2vs0mg"},{"bike_id":"2140b6a3-5118-4150-823e-9225aeb56201","system_id":"levelo_inurba_marseille","lat":43.23193,"lon":5.35557,"is_reserved":false,"is_disabled":false,"rental_uris":{"android":"levelo://app?vid=2140b6a3-5118-4150-823e-9225aeb56201","ios":"levelo://app?vid=2140b6a3-5118-4150-823e-9225aeb56201"},"vehicle_type_id":"4","last_reported":1729271308,"current_range_meters":30400,"station_id":"ce4bhu92rcd13ifvqi70","pricing_plan_id":"cebpf4jnsgd1na2vs0mg"},{"bike_id":"c39f6517-4c78-47b8-ad26-803d664ab942","system_id":"levelo_inurba_marseille","lat":43.23187,"lon":5.3999,"is_reserved":false,"is_disabled":false,"rental_uris":{"android":"levelo://app?vid=c39f6517-4c78-47b8-ad26-803d664ab942","ios":"levelo://app?vid=c39f6517-4c78-47b8-ad26-803d664ab942"},"vehicle_type_id":"4","last_reported":1729271308,"current_range_meters":28000,"station_id":"ce4bhn12rcd13ifvqgqg","pricing_plan_id":"cebpf4jnsgd1na2vs0mg"},{"bike_id":"5fcafa2e-9de4-4b9a-bba5-451af068b69e","system_id":"levelo_inurba_marseille","lat":43.27991,"lon":5.41659,"is_reserved":false,"is_disabled":false,"rental_uris":{"android":"levelo://app?vid=5fcafa2e-9de4-4b9a-bba5-451af068b69e","ios":"levelo://app?vid=5fcafa2e-9de4-4b9a-bba5-451af068b69e"},"vehicle_type_id":"4","last_reported":1729271308,"current_range_meters":36800,"station_id":"ce4bho12rcd13ifvqh1g","pricing_plan_id":"cebpf4jnsgd1na2vs0mg"},{"bike_id":"ac39a91b-8b7a-480a-902b-b473f1a9edb3","system_id":"levelo_inurba_marseille","lat":43.255,"lon":5.37658,"is_reserved":false,"is_disabled":false,"rental_uris":{"android":"levelo://app?vid=ac39a91b-8b7a-480a-902b-b473f1a9edb3","ios":"levelo://app?vid=ac39a91b-8b7a-480a-902b-b473f1a9edb3"},"vehicle_type_id":"4","last_reported":1729271308,"current_range_meters":38800,"station_id":"ce4bhh12rcd13ifvqff0","pricing_plan_id":"cebpf4jnsgd1na2vs0mg"},{"bike_id":"afd99549-4ddf-4d6a-91ec-27466ceaa217","system_id":"levelo_inurba_marseille","lat":43.31268,"lon":5.40176,"is_reserved":false,"is_disabled":false,"rental_uris":{"android":"levelo://app?vid=afd99549-4ddf-4d6a-91ec-27466ceaa217","ios":"levelo://app?vid=afd99549-4ddf-4d6a-91ec-27466ceaa217"},"vehicle_type_id":"4","last_reported":1729271308,"current_range_meters":8400,"station_id":"ce4bh092rcd13ifvqd30","pricing_plan_id":"cebpf4jnsgd1na2vs0mg"},{"bike_id":"ddff7144-cf39-425d-a9c5-128b10fe5e3d","system_id":"levelo_inurba_marseille","lat":43.28462,"lon":5.359,"is_reserved":false,"is_disabled":false,"rental_uris":{"android":"levelo://app?vid=ddff7144-cf39-425d-a9c5-128b10fe5e3d","ios":"levelo://app?vid=ddff7144-cf39-425d-a9c5-128b10fe5e3d"},"vehicle_type_id":"4","last_reported":1729271308,"current_range_meters":30000,"station_id":"ce4bhah2rcd13ifvqei0","pricing_plan_id":"cebpf4jnsgd1na2vs0mg"},{"bike_id":"a9df822d-44dd-4080-ada2-7c8a6d578db8","system_id":"levelo_inurba_marseille","lat":43.30325,"lon":5.40426,"is_reserved":false,"is_disabled":false,"rental_uris":{"android":"levelo://app?vid=a9df822d-44dd-4080-ada2-7c8a6d578db8","ios":"levelo://app?vid=a9df822d-44dd-4080-ada2-7c8a6d578db8"},"vehicle_type_id":"4","last_reported":1729271308,"current_range_meters":6400,"station_id":"ce4bh012rcd13ifvqd10","pricing_plan_id":"cebpf4jnsgd1na2vs0mg"},{"bike_id":"fe43c112-c7dc-4ca3-8df8-b2abfd672792","system_id":"levelo_inurba_marseille","lat":43.30532,"lon":5.36561,"is_reserved":false,"is_disabled":false,"rental_uris":{"android":"levelo://app?vid=fe43c112-c7dc-4ca3-8df8-b2abfd672792","ios":"levelo://app?vid=fe43c112-c7dc-4ca3-8df8-b2abfd672792"},"vehicle_type_id":"4","last_reported":1729271308,"current_range_meters":25200,"station_id":"ce4bgs12rcd13ifvqcag","pricing_plan_id":"cebpf4jnsgd1na2vs0mg"},{"bike_id":"7772d39f-5e28-445c-af91-069b0cf63793","system_id":"levelo_inurba_marseille","lat":43.33765,"lon":5.37438,"is_reserved":false,"is_disabled":false,"rental_uris":{"android":"levelo://app?vid=7772d39f-5e28-445c-af91-069b0cf63793","ios":"levelo://app?vid=7772d39f-5e28-445c-af91-069b0cf63793"},"vehicle_type_id":"4","last_reported":1729271308,"current_range_meters":12400,"station_id":"","pricing_plan_id":"cebpf4jnsgd1na2vs0mg"},{"bike_id":"e0ab6bb6-c6b9-4385-b41c-27bea5d9c0cb","system_id":"levelo_inurba_marseille","lat":43.33039,"lon":5.39046,"is_reserved":false,"is_disabled":false,"rental_uris":{"android":"levelo://app?vid=e0ab6bb6-c6b9-4385-b41c-27bea5d9c0cb","ios":"levelo://app?vid=e0ab6bb6-c6b9-4385-b41c-27bea5d9c0cb"},"vehicle_type_id":"4","last_reported":1729271308,"current_range_meters":22000,"station_id":"ce4bhr92rcd13ifvqhrg","pricing_plan_id":"cebpf4jnsgd1na2vs0mg"},{"bike_id":"058ec527-60b8-4877-8817-19590c3cd4f5","system_id":"levelo_inurba_marseille","lat":43.32283,"lon":5.38294,"is_reserved":false,"is_disabled":false,"rental_uris":{"android":"levelo://app?vid=058ec527-60b8-4877-8817-19590c3cd4f5","ios":"levelo://app?vid=058ec527-60b8-4877-8817-19590c3cd4f5"},"vehicle_type_id":"4","last_reported":1729271308,"current_range_meters":39200,"station_id":"ce4bhr12rcd13ifvqhqg","pricing_plan_id":"cebpf4jnsgd1na2vs0mg"},{"bike_id":"3213665e-989c-4d22-9f5a-31c8522597dd","system_id":"levelo_inurba_marseille","lat":43.296,"lon":5.36142,"is_reserved":false,"is_disabled":false,"rental_uris":{"android":"levelo://app?vid=3213665e-989c-4d22-9f5a-31c8522597dd","ios":"levelo://app?vid=3213665e-989c-4d22-9f5a-31c8522597dd"},"vehicle_type_id":"4","last_reported":1729271308,"current_range_meters":23200,"station_id":"","pricing_plan_id":"cebpf4jnsgd1na2vs0mg"},{"bike_id":"601a6a3f-c3c3-4f27-af65-f42be9a18c34","system_id":"levelo_inurba_marseille","lat":43.307787,"lon":5.37649,"is_reserved":false,"is_disabled":false,"rental_uris":{"android":"levelo://app?vid=601a6a3f-c3c3-4f27-af65-f42be9a18c34","ios":"levelo://app?vid=601a6a3f-c3c3-4f27-af65-f42be9a18c34"},"vehicle_type_id":"4","last_reported":1729271308,"current_range_meters":3200,"station_id":"","pricing_plan_id":"cebpf4jnsgd1na2vs0mg"},{"bike_id":"cddb2538-acdb-46a5-bc95-6e0a8d74ef0c","system_id":"levelo_inurba_marseille","lat":43.30802,"lon":5.43537,"is_reserved":false,"is_disabled":false,"rental_uris":{"android":"levelo://app?vid=cddb2538-acdb-46a5-bc95-6e0a8d74ef0c","ios":"levelo://app?vid=cddb2538-acdb-46a5-bc95-6e0a8d74ef0c"},"vehicle_type_id":"4","last_reported":1729271308,"current_range_meters":30800,"station_id":"ce4bhph2rcd13ifvqheg","pricing_plan_id":"cebpf4jnsgd1na2vs0mg"},{"bike_id":"f1023bfa-3122-4e72-94c6-5cebd3702d90","system_id":"levelo_inurba_marseille","lat":43.2737,"lon":5.362634,"is_reserved":false,"is_disabled":false,"rental_uris":{"android":"levelo://app?vid=f1023bfa-3122-4e72-94c6-5cebd3702d90","ios":"levelo://app?vid=f1023bfa-3122-4e72-94c6-5cebd3702d90"},"vehicle_type_id":"4","last_reported":1729271308,"current_range_meters":4000,"station_id":"ce4bhbh2rcd13ifvqeo0","pricing_plan_id":"cebpf4jnsgd1na2vs0mg"},{"bike_id":"5cf701f4-c452-4ee1-a4c7-99dbef61185a","system_id":"levelo_inurba_marseille","lat":43.24545,"lon":5.39533,"is_reserved":false,"is_disabled":false,"rental_uris":{"android":"levelo://app?vid=5cf701f4-c452-4ee1-a4c7-99dbef61185a","ios":"levelo://app?vid=5cf701f4-c452-4ee1-a4c7-99dbef61185a"},"vehicle_type_id":"4","last_reported":1729271308,"current_range_meters":13600,"station_id":"ce4bhlp2rcd13ifvqgjg","pricing_plan_id":"cebpf4jnsgd1na2vs0mg"},{"bike_id":"ea6e9ea3-c192-46ed-96fc-5a2fd9c43012","system_id":"levelo_inurba_marseille","lat":43.255752,"lon":5.382398,"is_reserved":false,"is_disabled":false,"rental_uris":{"android":"levelo://app?vid=ea6e9ea3-c192-46ed-96fc-5a2fd9c43012","ios":"levelo://app?vid=ea6e9ea3-c192-46ed-96fc-5a2fd9c43012"},"vehicle_type_id":"4","last_reported":1729271308,"current_range_meters":8800,"station_id":"ce4bhih2rcd13ifvqfs0","pricing_plan_id":"cebpf4jnsgd1na2vs0mg"},{"bike_id":"1641b826-604a-4181-8231-dca386f637a6","system_id":"levelo_inurba_marseille","lat":43.23189,"lon":5.35564,"is_reserved":false,"is_disabled":false,"rental_uris":{"android":"levelo://app?vid=1641b826-604a-4181-8231-dca386f637a6","ios":"levelo://app?vid=1641b826-604a-4181-8231-dca386f637a6"},"vehicle_type_id":"4","last_reported":1729271308,"current_range_meters":28400,"station_id":"ce4bhu92rcd13ifvqi70","pricing_plan_id":"cebpf4jnsgd1na2vs0mg"},{"bike_id":"89211ee2-076f-4df3-92bd-cd8885f2e76d","system_id":"levelo_inurba_marseille","lat":43.23194,"lon":5.35556,"is_reserved":false,"is_disabled":false,"rental_uris":{"android":"levelo://app?vid=89211ee2-076f-4df3-92bd-cd8885f2e76d","ios":"levelo://app?vid=89211ee2-076f-4df3-92bd-cd8885f2e76d"},"vehicle_type_id":"4","last_reported":1729271308,"current_range_meters":28000,"station_id":"ce4bhu92rcd13ifvqi70","pricing_plan_id":"cebpf4jnsgd1na2vs0mg"},{"bike_id":"d458e74f-0c3d-47f2-8e18-2617e61b1c42","system_id":"levelo_inurba_marseille","lat":43.284882,"lon":5.385672,"is_reserved":false,"is_disabled":false,"rental_uris":{"android":"levelo://app?vid=d458e74f-0c3d-47f2-8e18-2617e61b1c42","ios":"levelo://app?vid=d458e74f-0c3d-47f2-8e18-2617e61b1c42"},"vehicle_type_id":"4","last_reported":1729271308,"current_range_meters":14000,"station_id":"ce4bh8p2rcd13ifvqeb0","pricing_plan_id":"cebpf4jnsgd1na2vs0mg"},{"bike_id":"48f2469d-4594-4ecb-a7ea-698cf7713650","system_id":"levelo_inurba_marseille","lat":43.33019,"lon":5.39038,"is_reserved":false,"is_disabled":false,"rental_uris":{"android":"levelo://app?vid=48f2469d-4594-4ecb-a7ea-698cf7713650","ios":"levelo://app?vid=48f2469d-4594-4ecb-a7ea-698cf7713650"},"vehicle_type_id":"4","last_reported":1729271308,"current_range_meters":28000,"station_id":"ce4bhr92rcd13ifvqhrg","pricing_plan_id":"cebpf4jnsgd1na2vs0mg"},{"bike_id":"c512b685-749c-4085-874d-3ecbdefb892c","system_id":"levelo_inurba_marseille","lat":43.28656,"lon":5.36341,"is_reserved":false,"is_disabled":false,"rental_uris":{"android":"levelo://app?vid=c512b685-749c-4085-874d-3ecbdefb892c","ios":"levelo://app?vid=c512b685-749c-4085-874d-3ecbdefb892c"},"vehicle_type_id":"4","last_reported":1729271308,"current_range_meters":17600,"station_id":"ce4bhah2rcd13ifvqej0","pricing_plan_id":"cebpf4jnsgd1na2vs0mg"},{"bike_id":"a089f93c-8c87-4258-90c6-190c9af2093f","system_id":"levelo_inurba_marseille","lat":43.28921,"lon":5.38403,"is_reserved":false,"is_disabled":false,"rental_uris":{"android":"levelo://app?vid=a089f93c-8c87-4258-90c6-190c9af2093f","ios":"levelo://app?vid=a089f93c-8c87-4258-90c6-190c9af2093f"},"vehicle_type_id":"4","last_reported":1729271308,"current_range_meters":26000,"station_id":"ce4bh612rcd13ifvqe6g","pricing_plan_id":"cebpf4jnsgd1na2vs0mg"},{"bike_id":"87440bd7-4730-412f-b52f-03b263c3d6ba","system_id":"levelo_inurba_marseille","lat":43.23191,"lon":5.35557,"is_reserved":false,"is_disabled":false,"rental_uris":{"android":"levelo://app?vid=87440bd7-4730-412f-b52f-03b263c3d6ba","ios":"levelo://app?vid=87440bd7-4730-412f-b52f-03b263c3d6ba"},"vehicle_type_id":"4","last_reported":1729271308,"current_range_meters":12000,"station_id":"ce4bhu92rcd13ifvqi70","pricing_plan_id":"cebpf4jnsgd1na2vs0mg"},{"bike_id":"55eb298f-efeb-4ee6-8828-ef22afa3e422","system_id":"levelo_inurba_marseille","lat":43.30547,"lon":5.38414,"is_reserved":false,"is_disabled":false,"rental_uris":{"android":"levelo://app?vid=55eb298f-efeb-4ee6-8828-ef22afa3e422","ios":"levelo://app?vid=55eb298f-efeb-4ee6-8828-ef22afa3e422"},"vehicle_type_id":"4","last_reported":1729271308,"current_range_meters":29600,"station_id":"ce4bgg92rcd13ifvqb30","pricing_plan_id":"cebpf4jnsgd1na2vs0mg"},{"bike_id":"d59b4faf-acbf-4473-8dd7-e910cc268744","system_id":"levelo_inurba_marseille","lat":43.28718,"lon":5.37943,"is_reserved":false,"is_disabled":false,"rental_uris":{"android":"levelo://app?vid=d59b4faf-acbf-4473-8dd7-e910cc268744","ios":"levelo://app?vid=d59b4faf-acbf-4473-8dd7-e910cc268744"},"vehicle_type_id":"4","last_reported":1729271308,"current_range_meters":4400,"station_id":"ce4bh9p2rcd13ifvqec0","pricing_plan_id":"cebpf4jnsgd1na2vs0mg"},{"bike_id":"df50999f-2c36-4645-8915-f1b914616dfc","system_id":"levelo_inurba_marseille","lat":43.32105,"lon":5.36786,"is_reserved":false,"is_disabled":false,"rental_uris":{"android":"levelo://app?vid=df50999f-2c36-4645-8915-f1b914616dfc","ios":"levelo://app?vid=df50999f-2c36-4645-8915-f1b914616dfc"},"vehicle_type_id":"4","last_reported":1729271308,"current_range_meters":27600,"station_id":"ce4bhrh2rcd13ifvqhug","pricing_plan_id":"cebpf4jnsgd1na2vs0mg"},{"bike_id":"206a3461-7b74-4c7a-afba-2182e5cf2662","system_id":"levelo_inurba_marseille","lat":43.2979,"lon":5.39349,"is_reserved":false,"is_disabled":false,"rental_uris":{"android":"levelo://app?vid=206a3461-7b74-4c7a-afba-2182e5cf2662","ios":"levelo://app?vid=206a3461-7b74-4c7a-afba-2182e5cf2662"},"vehicle_type_id":"4","last_reported":1729271308,"current_range_meters":24400,"station_id":"chh1huq6cuj3fo74tm60","pricing_plan_id":"cebpf4jnsgd1na2vs0mg"},{"bike_id":"960c73a4-3648-4a80-bb77-7d3b65a63284","system_id":"levelo_inurba_marseille","lat":43.29206,"lon":5.39316,"is_reserved":false,"is_disabled":false,"rental_uris":{"android":"levelo://app?vid=960c73a4-3648-4a80-bb77-7d3b65a63284","ios":"levelo://app?vid=960c73a4-3648-4a80-bb77-7d3b65a63284"},"vehicle_type_id":"4","last_reported":1729271308,"current_range_meters":17600,"station_id":"ce4bh192rcd13ifvqdd0","pricing_plan_id":"cebpf4jnsgd1na2vs0mg"},{"bike_id":"b1b001f0-fb76-4b68-9d5d-c79bedc5dc3a","system_id":"levelo_inurba_marseille","lat":43.27966,"lon":5.38734,"is_reserved":false,"is_disabled":false,"rental_uris":{"android":"levelo://app?vid=b1b001f0-fb76-4b68-9d5d-c79bedc5dc3a","ios":"levelo://app?vid=b1b001f0-fb76-4b68-9d5d-c79bedc5dc3a"},"vehicle_type_id":"4","last_reported":1729271308,"current_range_meters":5600,"station_id":"ce4bhg12rcd13ifvqf80","pricing_plan_id":"cebpf4jnsgd1na2vs0mg"},{"bike_id":"c0bae04e-a97a-434e-879b-56ac9e10b15a","system_id":"levelo_inurba_marseille","lat":43.30312,"lon":5.36894,"is_reserved":false,"is_disabled":false,"rental_uris":{"android":"levelo://app?vid=c0bae04e-a97a-434e-879b-56ac9e10b15a","ios":"levelo://app?vid=c0bae04e-a97a-434e-879b-56ac9e10b15a"},"vehicle_type_id":"4","last_reported":1729271308,"current_range_meters":19200,"station_id":"ce4bgqh2rcd13ifvqc5g","pricing_plan_id":"cebpf4jnsgd1na2vs0mg"},{"bike_id":"80dff6fe-042f-474e-99ca-1901d75ba951","system_id":"levelo_inurba_marseille","lat":43.29169,"lon":5.37156,"is_reserved":false,"is_disabled":false,"rental_uris":{"android":"levelo://app?vid=80dff6fe-042f-474e-99ca-1901d75ba951","ios":"levelo://app?vid=80dff6fe-042f-474e-99ca-1901d75ba951"},"vehicle_type_id":"4","last_reported":1729271308,"current_range_meters":32400,"station_id":"ce4bha92rcd13ifvqeh0","pricing_plan_id":"cebpf4jnsgd1na2vs0mg"},{"bike_id":"73a3cbb2-23ac-404f-a886-c893cdf1c48b","system_id":"levelo_inurba_marseille","lat":43.27808,"lon":5.40717,"is_reserved":false,"is_disabled":false,"rental_uris":{"android":"levelo://app?vid=73a3cbb2-23ac-404f-a886-c893cdf1c48b","ios":"levelo://app?vid=73a3cbb2-23ac-404f-a886-c893cdf1c48b"},"vehicle_type_id":"4","last_reported":1729271308,"current_range_meters":38000,"station_id":"ce4bhnh2rcd13ifvqgtg","pricing_plan_id":"cebpf4jnsgd1na2vs0mg"},{"bike_id":"3ff3f96a-21f6-4efc-b76f-cb749c6fad29","system_id":"levelo_inurba_marseille","lat":43.26804,"lon":5.40274,"is_reserved":false,"is_disabled":false,"rental_uris":{"android":"levelo://app?vid=3ff3f96a-21f6-4efc-b76f-cb749c6fad29","ios":"levelo://app?vid=3ff3f96a-21f6-4efc-b76f-cb749c6fad29"},"vehicle_type_id":"4","last_reported":1729271308,"current_range_meters":9200,"station_id":"ce501612rcd8frsf0b60","pricing_plan_id":"cebpf4jnsgd1na2vs0mg"},{"bike_id":"61cd13f8-8cd5-4c2c-bba3-e2c0d3d4a7a6","system_id":"levelo_inurba_marseille","lat":43.31168,"lon":5.38722,"is_reserved":false,"is_disabled":false,"rental_uris":{"android":"levelo://app?vid=61cd13f8-8cd5-4c2c-bba3-e2c0d3d4a7a6","ios":"levelo://app?vid=61cd13f8-8cd5-4c2c-bba3-e2c0d3d4a7a6"},"vehicle_type_id":"4","last_reported":1729271308,"current_range_meters":38800,"station_id":"ce4bgv12rcd13ifvqcp0","pricing_plan_id":"cebpf4jnsgd1na2vs0mg"},{"bike_id":"87a62a5a-6731-4ae0-88c0-85b276181ce1","system_id":"levelo_inurba_marseille","lat":43.2621,"lon":5.37441,"is_reserved":false,"is_disabled":false,"rental_uris":{"android":"levelo://app?vid=87a62a5a-6731-4ae0-88c0-85b276181ce1","ios":"levelo://app?vid=87a62a5a-6731-4ae0-88c0-85b276181ce1"},"vehicle_type_id":"4","last_reported":1729271308,"current_range_meters":25600,"station_id":"ce4bhgp2rcd13ifvqfc0","pricing_plan_id":"cebpf4jnsgd1na2vs0mg"},{"bike_id":"2b33303e-316e-4167-9435-9c0f7190f418","system_id":"levelo_inurba_marseille","lat":43.301707,"lon":5.397968,"is_reserved":false,"is_disabled":false,"rental_uris":{"android":"levelo://app?vid=2b33303e-316e-4167-9435-9c0f7190f418","ios":"levelo://app?vid=2b33303e-316e-4167-9435-9c0f7190f418"},"vehicle_type_id":"4","last_reported":1729271308,"current_range_meters":13600,"station_id":"","pricing_plan_id":"cebpf4jnsgd1na2vs0mg"},{"bike_id":"3664398f-378f-46f2-bd12-30042ad8db9d","system_id":"levelo_inurba_marseille","lat":43.23177,"lon":5.39983,"is_reserved":false,"is_disabled":false,"rental_uris":{"android":"levelo://app?vid=3664398f-378f-46f2-bd12-30042ad8db9d","ios":"levelo://app?vid=3664398f-378f-46f2-bd12-30042ad8db9d"},"vehicle_type_id":"4","last_reported":1729271308,"current_range_meters":28800,"station_id":"ce4bhn12rcd13ifvqgqg","pricing_plan_id":"cebpf4jnsgd1na2vs0mg"},{"bike_id":"16ca97be-8607-4298-9729-c7ed332cc8d3","system_id":"levelo_inurba_marseille","lat":43.32482,"lon":5.36558,"is_reserved":false,"is_disabled":false,"rental_uris":{"android":"levelo://app?vid=16ca97be-8607-4298-9729-c7ed332cc8d3","ios":"levelo://app?vid=16ca97be-8607-4298-9729-c7ed332cc8d3"},"vehicle_type_id":"4","last_reported":1729271308,"current_range_meters":34000,"station_id":"ce4bhs12rcd13ifvqhvg","pricing_plan_id":"cebpf4jnsgd1na2vs0mg"},{"bike_id":"a9d80141-cb04-4f88-bcc5-9763572e3517","system_id":"levelo_inurba_marseille","lat":43.23194,"lon":5.35546,"is_reserved":false,"is_disabled":false,"rental_uris":{"android":"levelo://app?vid=a9d80141-cb04-4f88-bcc5-9763572e3517","ios":"levelo://app?vid=a9d80141-cb04-4f88-bcc5-9763572e3517"},"vehicle_type_id":"4","last_reported":1729271308,"current_range_meters":27600,"station_id":"ce4bhu92rcd13ifvqi70","pricing_plan_id":"cebpf4jnsgd1na2vs0mg"},{"bike_id":"c0058689-30df-472b-b66c-bd420119669b","system_id":"levelo_inurba_marseille","lat":43.27177,"lon":5.40992,"is_reserved":false,"is_disabled":false,"rental_uris":{"android":"levelo://app?vid=c0058689-30df-472b-b66c-bd420119669b","ios":"levelo://app?vid=c0058689-30df-472b-b66c-bd420119669b"},"vehicle_type_id":"4","last_reported":1729271308,"current_range_meters":38800,"station_id":"ce4bhl12rcd13ifvqgf0","pricing_plan_id":"cebpf4jnsgd1na2vs0mg"},{"bike_id":"4494673c-ebac-42b3-884d-4d7420fce07c","system_id":"levelo_inurba_marseille","lat":43.23958,"lon":5.36635,"is_reserved":false,"is_disabled":false,"rental_uris":{"android":"levelo://app?vid=4494673c-ebac-42b3-884d-4d7420fce07c","ios":"levelo://app?vid=4494673c-ebac-42b3-884d-4d7420fce07c"},"vehicle_type_id":"4","last_reported":1729271308,"current_range_meters":4800,"station_id":"ce4bhi12rcd13ifvqfp0","pricing_plan_id":"cebpf4jnsgd1na2vs0mg"},{"bike_id":"fb72b6fc-3438-4a8d-845c-721776e3614d","system_id":"levelo_inurba_marseille","lat":43.24645,"lon":5.38899,"is_reserved":false,"is_disabled":false,"rental_uris":{"android":"levelo://app?vid=fb72b6fc-3438-4a8d-845c-721776e3614d","ios":"levelo://app?vid=fb72b6fc-3438-4a8d-845c-721776e3614d"},"vehicle_type_id":"4","last_reported":1729271308,"current_range_meters":9600,"station_id":"ce4bhg12rcd13ifvqf60","pricing_plan_id":"cebpf4jnsgd1na2vs0mg"},{"bike_id":"1185016f-df9b-4e61-b964-54bd7386f7c9","system_id":"levelo_inurba_marseille","lat":43.33022,"lon":5.39048,"is_reserved":false,"is_disabled":false,"rental_uris":{"android":"levelo://app?vid=1185016f-df9b-4e61-b964-54bd7386f7c9","ios":"levelo://app?vid=1185016f-df9b-4e61-b964-54bd7386f7c9"},"vehicle_type_id":"4","last_reported":1729271308,"current_range_meters":38400,"station_id":"ce4bhr92rcd13ifvqhrg","pricing_plan_id":"cebpf4jnsgd1na2vs0mg"},{"bike_id":"d41309ab-1a1f-4395-acaa-455483c3f8e1","system_id":"levelo_inurba_marseille","lat":43.2319,"lon":5.35561,"is_reserved":false,"is_disabled":false,"rental_uris":{"android":"levelo://app?vid=d41309ab-1a1f-4395-acaa-455483c3f8e1","ios":"levelo://app?vid=d41309ab-1a1f-4395-acaa-455483c3f8e1"},"vehicle_type_id":"4","last_reported":1729271308,"current_range_meters":30400,"station_id":"ce4bhu92rcd13ifvqi70","pricing_plan_id":"cebpf4jnsgd1na2vs0mg"},{"bike_id":"7fcdc616-d022-4cb9-a753-a24d5c9ea837","system_id":"levelo_inurba_marseille","lat":43.29627,"lon":5.37152,"is_reserved":false,"is_disabled":false,"rental_uris":{"android":"levelo://app?vid=7fcdc616-d022-4cb9-a753-a24d5c9ea837","ios":"levelo://app?vid=7fcdc616-d022-4cb9-a753-a24d5c9ea837"},"vehicle_type_id":"4","last_reported":1729271308,"current_range_meters":38400,"station_id":"ce4bgnh2rcd13ifvqc0g","pricing_plan_id":"cebpf4jnsgd1na2vs0mg"},{"bike_id":"f530cf14-8834-436a-8d12-cb025cf4d094","system_id":"levelo_inurba_marseille","lat":43.24807,"lon":5.37459,"is_reserved":false,"is_disabled":false,"rental_uris":{"android":"levelo://app?vid=f530cf14-8834-436a-8d12-cb025cf4d094","ios":"levelo://app?vid=f530cf14-8834-436a-8d12-cb025cf4d094"},"vehicle_type_id":"4","last_reported":1729271308,"current_range_meters":38800,"station_id":"ce4bhgh2rcd13ifvqfb0","pricing_plan_id":"cebpf4jnsgd1na2vs0mg"},{"bike_id":"ce04ac14-91dc-435b-94f7-41bd0bf71530","system_id":"levelo_inurba_marseille","lat":43.32292,"lon":5.38274,"is_reserved":false,"is_disabled":false,"rental_uris":{"android":"levelo://app?vid=ce04ac14-91dc-435b-94f7-41bd0bf71530","ios":"levelo://app?vid=ce04ac14-91dc-435b-94f7-41bd0bf71530"},"vehicle_type_id":"4","last_reported":1729271308,"current_range_meters":22000,"station_id":"ce4bhr12rcd13ifvqhqg","pricing_plan_id":"cebpf4jnsgd1na2vs0mg"},{"bike_id":"50e69f38-ddbe-4b72-aa2a-3ab8e95cd3ab","system_id":"levelo_inurba_marseille","lat":43.29227,"lon":5.36063,"is_reserved":false,"is_disabled":false,"rental_uris":{"android":"levelo://app?vid=50e69f38-ddbe-4b72-aa2a-3ab8e95cd3ab","ios":"levelo://app?vid=50e69f38-ddbe-4b72-aa2a-3ab8e95cd3ab"},"vehicle_type_id":"4","last_reported":1729271308,"current_range_meters":14800,"station_id":"ce4bhbh2rcd13ifvqeqg","pricing_plan_id":"cebpf4jnsgd1na2vs0mg"},{"bike_id":"42089fd0-1e71-4f89-9f4d-71906d405a17","system_id":"levelo_inurba_marseille","lat":43.23194,"lon":5.35553,"is_reserved":false,"is_disabled":false,"rental_uris":{"android":"levelo://app?vid=42089fd0-1e71-4f89-9f4d-71906d405a17","ios":"levelo://app?vid=42089fd0-1e71-4f89-9f4d-71906d405a17"},"vehicle_type_id":"4","last_reported":1729271308,"current_range_meters":38800,"station_id":"ce4bhu92rcd13ifvqi70","pricing_plan_id":"cebpf4jnsgd1na2vs0mg"},{"bike_id":"70a417f3-27a5-4f50-b3ac-b33893deeb80","system_id":"levelo_inurba_marseille","lat":43.314882,"lon":5.373094,"is_reserved":false,"is_disabled":false,"rental_uris":{"android":"levelo://app?vid=70a417f3-27a5-4f50-b3ac-b33893deeb80","ios":"levelo://app?vid=70a417f3-27a5-4f50-b3ac-b33893deeb80"},"vehicle_type_id":"4","last_reported":1729271308,"current_range_meters":4400,"station_id":"ce4bgt12rcd13ifvqcd0","pricing_plan_id":"cebpf4jnsgd1na2vs0mg"},{"bike_id":"0af561d1-7665-4d15-91b4-f1c5187a3da8","system_id":"levelo_inurba_marseille","lat":43.27805,"lon":5.40721,"is_reserved":false,"is_disabled":false,"rental_uris":{"android":"levelo://app?vid=0af561d1-7665-4d15-91b4-f1c5187a3da8","ios":"levelo://app?vid=0af561d1-7665-4d15-91b4-f1c5187a3da8"},"vehicle_type_id":"4","last_reported":1729271308,"current_range_meters":16000,"station_id":"ce4bhnh2rcd13ifvqgtg","pricing_plan_id":"cebpf4jnsgd1na2vs0mg"},{"bike_id":"a417ea90-2677-4128-ad80-9d6526661d0d","system_id":"levelo_inurba_marseille","lat":43.23956,"lon":5.36631,"is_reserved":false,"is_disabled":false,"rental_uris":{"android":"levelo://app?vid=a417ea90-2677-4128-ad80-9d6526661d0d","ios":"levelo://app?vid=a417ea90-2677-4128-ad80-9d6526661d0d"},"vehicle_type_id":"4","last_reported":1729271308,"current_range_meters":21600,"station_id":"ce4bhi12rcd13ifvqfp0","pricing_plan_id":"cebpf4jnsgd1na2vs0mg"},{"bike_id":"ef152d67-04e6-4846-8ac3-35d83738af7a","system_id":"levelo_inurba_marseille","lat":43.29278,"lon":5.36847,"is_reserved":false,"is_disabled":false,"rental_uris":{"android":"levelo://app?vid=ef152d67-04e6-4846-8ac3-35d83738af7a","ios":"levelo://app?vid=ef152d67-04e6-4846-8ac3-35d83738af7a"},"vehicle_type_id":"4","last_reported":1729271308,"current_range_meters":16000,"station_id":"ce4bhbp2rcd13ifvqesg","pricing_plan_id":"cebpf4jnsgd1na2vs0mg"},{"bike_id":"f93454e1-a669-4c63-a4ca-b572042c7971","system_id":"levelo_inurba_marseille","lat":43.23194,"lon":5.35554,"is_reserved":false,"is_disabled":false,"rental_uris":{"android":"levelo://app?vid=f93454e1-a669-4c63-a4ca-b572042c7971","ios":"levelo://app?vid=f93454e1-a669-4c63-a4ca-b572042c7971"},"vehicle_type_id":"4","last_reported":1729271308,"current_range_meters":8400,"station_id":"ce4bhu92rcd13ifvqi70","pricing_plan_id":"cebpf4jnsgd1na2vs0mg"},{"bike_id":"9feebf6a-cf06-4283-9475-cface9a88761","system_id":"levelo_inurba_marseille","lat":43.30801,"lon":5.43526,"is_reserved":false,"is_disabled":false,"rental_uris":{"android":"levelo://app?vid=9feebf6a-cf06-4283-9475-cface9a88761","ios":"levelo://app?vid=9feebf6a-cf06-4283-9475-cface9a88761"},"vehicle_type_id":"4","last_reported":1729271308,"current_range_meters":33200,"station_id":"ce4bhph2rcd13ifvqheg","pricing_plan_id":"cebpf4jnsgd1na2vs0mg"},{"bike_id":"1e5abc10-2158-43de-8ff5-ac92e23d130f","system_id":"levelo_inurba_marseille","lat":43.289612,"lon":5.36549,"is_reserved":false,"is_disabled":false,"rental_uris":{"android":"levelo://app?vid=1e5abc10-2158-43de-8ff5-ac92e23d130f","ios":"levelo://app?vid=1e5abc10-2158-43de-8ff5-ac92e23d130f"},"vehicle_type_id":"4","last_reported":1729271308,"current_range_meters":18000,"station_id":"ce4bh2h2rcd13ifvqdh0","pricing_plan_id":"cebpf4jnsgd1na2vs0mg"},{"bike_id":"22b37876-70ac-4ba0-9001-79de88a5c4f9","system_id":"levelo_inurba_marseille","lat":43.33776,"lon":5.3744,"is_reserved":false,"is_disabled":false,"rental_uris":{"android":"levelo://app?vid=22b37876-70ac-4ba0-9001-79de88a5c4f9","ios":"levelo://app?vid=22b37876-70ac-4ba0-9001-79de88a5c4f9"},"vehicle_type_id":"4","last_reported":1729271308,"current_range_meters":32000,"station_id":"","pricing_plan_id":"cebpf4jnsgd1na2vs0mg"},{"bike_id":"9b78167b-ae5a-47c9-9d1b-58b45505fd1c","system_id":"levelo_inurba_marseille","lat":43.2417,"lon":5.36404,"is_reserved":false,"is_disabled":false,"rental_uris":{"android":"levelo://app?vid=9b78167b-ae5a-47c9-9d1b-58b45505fd1c","ios":"levelo://app?vid=9b78167b-ae5a-47c9-9d1b-58b45505fd1c"},"vehicle_type_id":"4","last_reported":1729271308,"current_range_meters":38400,"station_id":"cpo36qri1sfpv3e86is0","pricing_plan_id":"cebpf4jnsgd1na2vs0mg"},{"bike_id":"69e5ce56-0f4e-4050-86e2-db0ca729bdc5","system_id":"levelo_inurba_marseille","lat":43.30308,"lon":5.36872,"is_reserved":false,"is_disabled":false,"rental_uris":{"android":"levelo://app?vid=69e5ce56-0f4e-4050-86e2-db0ca729bdc5","ios":"levelo://app?vid=69e5ce56-0f4e-4050-86e2-db0ca729bdc5"},"vehicle_type_id":"4","last_reported":1729271308,"current_range_meters":38800,"station_id":"ce4bgqh2rcd13ifvqc5g","pricing_plan_id":"cebpf4jnsgd1na2vs0mg"},{"bike_id":"a5111c40-207c-4c14-bc13-ff44db6c4280","system_id":"levelo_inurba_marseille","lat":43.2558,"lon":5.38235,"is_reserved":false,"is_disabled":false,"rental_uris":{"android":"levelo://app?vid=a5111c40-207c-4c14-bc13-ff44db6c4280","ios":"levelo://app?vid=a5111c40-207c-4c14-bc13-ff44db6c4280"},"vehicle_type_id":"4","last_reported":1729271308,"current_range_meters":6000,"station_id":"ce4bhih2rcd13ifvqfs0","pricing_plan_id":"cebpf4jnsgd1na2vs0mg"},{"bike_id":"9148e795-ab2f-4a9c-9ea1-3a24d5eb76e8","system_id":"levelo_inurba_marseille","lat":43.25721,"lon":5.41115,"is_reserved":false,"is_disabled":false,"rental_uris":{"android":"levelo://app?vid=9148e795-ab2f-4a9c-9ea1-3a24d5eb76e8","ios":"levelo://app?vid=9148e795-ab2f-4a9c-9ea1-3a24d5eb76e8"},"vehicle_type_id":"4","last_reported":1729271308,"current_range_meters":2000,"station_id":"ce4bhkp2rcd13ifvqgd0","pricing_plan_id":"cebpf4jnsgd1na2vs0mg"},{"bike_id":"9d3765dd-cb02-4294-89c8-1f2e4bf9c7db","system_id":"levelo_inurba_marseille","lat":43.33024,"lon":5.39042,"is_reserved":false,"is_disabled":false,"rental_uris":{"android":"levelo://app?vid=9d3765dd-cb02-4294-89c8-1f2e4bf9c7db","ios":"levelo://app?vid=9d3765dd-cb02-4294-89c8-1f2e4bf9c7db"},"vehicle_type_id":"4","last_reported":1729271308,"current_range_meters":28800,"station_id":"ce4bhr92rcd13ifvqhrg","pricing_plan_id":"cebpf4jnsgd1na2vs0mg"},{"bike_id":"6c06604c-3c64-4f7e-bffd-173b6ef2d359","system_id":"levelo_inurba_marseille","lat":43.26211,"lon":5.37447,"is_reserved":false,"is_disabled":false,"rental_uris":{"android":"levelo://app?vid=6c06604c-3c64-4f7e-bffd-173b6ef2d359","ios":"levelo://app?vid=6c06604c-3c64-4f7e-bffd-173b6ef2d359"},"vehicle_type_id":"4","last_reported":1729271308,"current_range_meters":26800,"station_id":"ce4bhgp2rcd13ifvqfc0","pricing_plan_id":"cebpf4jnsgd1na2vs0mg"},{"bike_id":"c8fa6f39-e07d-463d-8d01-7ccf9e86f944","system_id":"levelo_inurba_marseille","lat":43.23194,"lon":5.35553,"is_reserved":false,"is_disabled":false,"rental_uris":{"android":"levelo://app?vid=c8fa6f39-e07d-463d-8d01-7ccf9e86f944","ios":"levelo://app?vid=c8fa6f39-e07d-463d-8d01-7ccf9e86f944"},"vehicle_type_id":"4","last_reported":1729271308,"current_range_meters":23200,"station_id":"ce4bhu92rcd13ifvqi70","pricing_plan_id":"cebpf4jnsgd1na2vs0mg"},{"bike_id":"b1b20f6e-0716-43fb-ac17-e3baadd6bd01","system_id":"levelo_inurba_marseille","lat":43.31533,"lon":5.38035,"is_reserved":false,"is_disabled":false,"rental_uris":{"android":"levelo://app?vid=b1b20f6e-0716-43fb-ac17-e3baadd6bd01","ios":"levelo://app?vid=b1b20f6e-0716-43fb-ac17-e3baadd6bd01"},"vehicle_type_id":"4","last_reported":1729271308,"current_range_meters":16800,"station_id":"ce4bhsp2rcd13ifvqi50","pricing_plan_id":"cebpf4jnsgd1na2vs0mg"},{"bike_id":"7083d6dd-62a3-40cd-bc95-f4d44769330f","system_id":"levelo_inurba_marseille","lat":43.32197,"lon":5.38722,"is_reserved":false,"is_disabled":false,"rental_uris":{"android":"levelo://app?vid=7083d6dd-62a3-40cd-bc95-f4d44769330f","ios":"levelo://app?vid=7083d6dd-62a3-40cd-bc95-f4d44769330f"},"vehicle_type_id":"4","last_reported":1729271308,"current_range_meters":7200,"station_id":"","pricing_plan_id":"cebpf4jnsgd1na2vs0mg"},{"bike_id":"8053555a-c9fd-46ca-95df-f3e34a17dbb4","system_id":"levelo_inurba_marseille","lat":43.25492,"lon":5.37653,"is_reserved":false,"is_disabled":false,"rental_uris":{"android":"levelo://app?vid=8053555a-c9fd-46ca-95df-f3e34a17dbb4","ios":"levelo://app?vid=8053555a-c9fd-46ca-95df-f3e34a17dbb4"},"vehicle_type_id":"4","last_reported":1729271308,"current_range_meters":2800,"station_id":"ce4bhh12rcd13ifvqff0","pricing_plan_id":"cebpf4jnsgd1na2vs0mg"},{"bike_id":"70356b67-d1e8-4bf6-a51d-890e62b9e09b","system_id":"levelo_inurba_marseille","lat":43.26992,"lon":5.3997,"is_reserved":false,"is_disabled":false,"rental_uris":{"android":"levelo://app?vid=70356b67-d1e8-4bf6-a51d-890e62b9e09b","ios":"levelo://app?vid=70356b67-d1e8-4bf6-a51d-890e62b9e09b"},"vehicle_type_id":"4","last_reported":1729271308,"current_range_meters":27200,"station_id":"","pricing_plan_id":"cebpf4jnsgd1na2vs0mg"},{"bike_id":"67201c16-e975-412c-9df6-b80bd56f7397","system_id":"levelo_inurba_marseille","lat":43.29274,"lon":5.4012,"is_reserved":false,"is_disabled":false,"rental_uris":{"android":"levelo://app?vid=67201c16-e975-412c-9df6-b80bd56f7397","ios":"levelo://app?vid=67201c16-e975-412c-9df6-b80bd56f7397"},"vehicle_type_id":"4","last_reported":1729271308,"current_range_meters":37600,"station_id":"ce4bh312rcd13ifvqdk0","pricing_plan_id":"cebpf4jnsgd1na2vs0mg"},{"bike_id":"480ee312-85ef-4fbe-be5c-5278a7d6f4dc","system_id":"levelo_inurba_marseille","lat":43.31707,"lon":5.3774,"is_reserved":false,"is_disabled":false,"rental_uris":{"android":"levelo://app?vid=480ee312-85ef-4fbe-be5c-5278a7d6f4dc","ios":"levelo://app?vid=480ee312-85ef-4fbe-be5c-5278a7d6f4dc"},"vehicle_type_id":"4","last_reported":1729271308,"current_range_meters":38400,"station_id":"ce4bgth2rcd13ifvqch0","pricing_plan_id":"cebpf4jnsgd1na2vs0mg"},{"bike_id":"a3dcf1c1-814a-4929-8eda-aebfecf0a6b0","system_id":"levelo_inurba_marseille","lat":43.2972,"lon":5.37689,"is_reserved":false,"is_disabled":false,"rental_uris":{"android":"levelo://app?vid=a3dcf1c1-814a-4929-8eda-aebfecf0a6b0","ios":"levelo://app?vid=a3dcf1c1-814a-4929-8eda-aebfecf0a6b0"},"vehicle_type_id":"4","last_reported":1729271308,"current_range_meters":7200,"station_id":"ce4bgkh2rcd13ifvqbl0","pricing_plan_id":"cebpf4jnsgd1na2vs0mg"},{"bike_id":"83f5a396-9321-4e25-9270-1fc14263f293","system_id":"levelo_inurba_marseille","lat":43.31535,"lon":5.380365,"is_reserved":false,"is_disabled":false,"rental_uris":{"android":"levelo://app?vid=83f5a396-9321-4e25-9270-1fc14263f293","ios":"levelo://app?vid=83f5a396-9321-4e25-9270-1fc14263f293"},"vehicle_type_id":"4","last_reported":1729271308,"current_range_meters":8800,"station_id":"ce4bhsp2rcd13ifvqi50","pricing_plan_id":"cebpf4jnsgd1na2vs0mg"},{"bike_id":"527bc5af-a70d-4bb7-a529-cce61f55da98","system_id":"levelo_inurba_marseille","lat":43.33716,"lon":5.39191,"is_reserved":false,"is_disabled":false,"rental_uris":{"android":"levelo://app?vid=527bc5af-a70d-4bb7-a529-cce61f55da98","ios":"levelo://app?vid=527bc5af-a70d-4bb7-a529-cce61f55da98"},"vehicle_type_id":"4","last_reported":1729271308,"current_range_meters":40000,"station_id":"ce4bhr92rcd13ifvqhsg","pricing_plan_id":"cebpf4jnsgd1na2vs0mg"},{"bike_id":"a56dd8aa-f6fd-42c7-b0c2-23a347d557fc","system_id":"levelo_inurba_marseille","lat":43.32408,"lon":5.38887,"is_reserved":false,"is_disabled":false,"rental_uris":{"android":"levelo://app?vid=a56dd8aa-f6fd-42c7-b0c2-23a347d557fc","ios":"levelo://app?vid=a56dd8aa-f6fd-42c7-b0c2-23a347d557fc"},"vehicle_type_id":"4","last_reported":1729271308,"current_range_meters":27600,"station_id":"ce4bhqp2rcd13ifvqhog","pricing_plan_id":"cebpf4jnsgd1na2vs0mg"},{"bike_id":"045e21b8-e9d7-484d-bbeb-6e6fd7dea2bb","system_id":"levelo_inurba_marseille","lat":43.31751,"lon":5.39027,"is_reserved":false,"is_disabled":false,"rental_uris":{"android":"levelo://app?vid=045e21b8-e9d7-484d-bbeb-6e6fd7dea2bb","ios":"levelo://app?vid=045e21b8-e9d7-484d-bbeb-6e6fd7dea2bb"},"vehicle_type_id":"4","last_reported":1729271308,"current_range_meters":8400,"station_id":"ce4bhqp2rcd13ifvqhng","pricing_plan_id":"cebpf4jnsgd1na2vs0mg"},{"bike_id":"4aa7b353-7718-4045-bebb-b71ab86c1f97","system_id":"levelo_inurba_marseille","lat":43.27555,"lon":5.38446,"is_reserved":false,"is_disabled":false,"rental_uris":{"android":"levelo://app?vid=4aa7b353-7718-4045-bebb-b71ab86c1f97","ios":"levelo://app?vid=4aa7b353-7718-4045-bebb-b71ab86c1f97"},"vehicle_type_id":"4","last_reported":1729271308,"current_range_meters":8800,"station_id":"ce4bhh92rcd13ifvqfi0","pricing_plan_id":"cebpf4jnsgd1na2vs0mg"},{"bike_id":"b233f12d-53d2-45b4-8378-436cb3f5b962","system_id":"levelo_inurba_marseille","lat":43.2737,"lon":5.36262,"is_reserved":false,"is_disabled":false,"rental_uris":{"android":"levelo://app?vid=b233f12d-53d2-45b4-8378-436cb3f5b962","ios":"levelo://app?vid=b233f12d-53d2-45b4-8378-436cb3f5b962"},"vehicle_type_id":"4","last_reported":1729271308,"current_range_meters":21600,"station_id":"ce4bhbh2rcd13ifvqeo0","pricing_plan_id":"cebpf4jnsgd1na2vs0mg"},{"bike_id":"d041d6c3-c758-49e3-a0eb-d2eb891d2311","system_id":"levelo_inurba_marseille","lat":43.29286,"lon":5.37486,"is_reserved":false,"is_disabled":false,"rental_uris":{"android":"levelo://app?vid=d041d6c3-c758-49e3-a0eb-d2eb891d2311","ios":"levelo://app?vid=d041d6c3-c758-49e3-a0eb-d2eb891d2311"},"vehicle_type_id":"4","last_reported":1729271308,"current_range_meters":13600,"station_id":"ce4bht12rcd13ifvqi60","pricing_plan_id":"cebpf4jnsgd1na2vs0mg"},{"bike_id":"c3fe07dc-ac18-46f5-bcab-19eb83c77839","system_id":"levelo_inurba_marseille","lat":43.23181,"lon":5.39991,"is_reserved":false,"is_disabled":false,"rental_uris":{"android":"levelo://app?vid=c3fe07dc-ac18-46f5-bcab-19eb83c77839","ios":"levelo://app?vid=c3fe07dc-ac18-46f5-bcab-19eb83c77839"},"vehicle_type_id":"4","last_reported":1729271308,"current_range_meters":9200,"station_id":"ce4bhn12rcd13ifvqgqg","pricing_plan_id":"cebpf4jnsgd1na2vs0mg"},{"bike_id":"cedb6f00-f060-42df-a722-f4106e9debc6","system_id":"levelo_inurba_marseille","lat":43.2694,"lon":5.40249,"is_reserved":false,"is_disabled":false,"rental_uris":{"android":"levelo://app?vid=cedb6f00-f060-42df-a722-f4106e9debc6","ios":"levelo://app?vid=cedb6f00-f060-42df-a722-f4106e9debc6"},"vehicle_type_id":"4","last_reported":1729271308,"current_range_meters":2800,"station_id":"cjm6bp8fraef2m0cb0m0","pricing_plan_id":"cebpf4jnsgd1na2vs0mg"},{"bike_id":"80f35db7-f202-49a6-bd8d-e58224a9422c","system_id":"levelo_inurba_marseille","lat":43.28566,"lon":5.39511,"is_reserved":false,"is_disabled":false,"rental_uris":{"android":"levelo://app?vid=80f35db7-f202-49a6-bd8d-e58224a9422c","ios":"levelo://app?vid=80f35db7-f202-49a6-bd8d-e58224a9422c"},"vehicle_type_id":"4","last_reported":1729271308,"current_range_meters":38800,"station_id":"ce4bh292rcd13ifvqdg0","pricing_plan_id":"cebpf4jnsgd1na2vs0mg"},{"bike_id":"f1a5e72b-ae18-43f4-b110-c8295490aba1","system_id":"levelo_inurba_marseille","lat":43.28407,"lon":5.37532,"is_reserved":false,"is_disabled":false,"rental_uris":{"android":"levelo://app?vid=f1a5e72b-ae18-43f4-b110-c8295490aba1","ios":"levelo://app?vid=f1a5e72b-ae18-43f4-b110-c8295490aba1"},"vehicle_type_id":"4","last_reported":1729271308,"current_range_meters":7200,"station_id":"ce4bh412rcd13ifvqds0","pricing_plan_id":"cebpf4jnsgd1na2vs0mg"},{"bike_id":"d5209b33-1e25-4957-a55a-41786d202da8","system_id":"levelo_inurba_marseille","lat":43.25499,"lon":5.37656,"is_reserved":false,"is_disabled":false,"rental_uris":{"android":"levelo://app?vid=d5209b33-1e25-4957-a55a-41786d202da8","ios":"levelo://app?vid=d5209b33-1e25-4957-a55a-41786d202da8"},"vehicle_type_id":"4","last_reported":1729271308,"current_range_meters":38800,"station_id":"ce4bhh12rcd13ifvqff0","pricing_plan_id":"cebpf4jnsgd1na2vs0mg"},{"bike_id":"f269126c-1b0b-4a1a-a1d6-f8c3716f5336","system_id":"levelo_inurba_marseille","lat":43.23192,"lon":5.35551,"is_reserved":false,"is_disabled":false,"rental_uris":{"android":"levelo://app?vid=f269126c-1b0b-4a1a-a1d6-f8c3716f5336","ios":"levelo://app?vid=f269126c-1b0b-4a1a-a1d6-f8c3716f5336"},"vehicle_type_id":"4","last_reported":1729271308,"current_range_meters":16400,"station_id":"ce4bhu92rcd13ifvqi70","pricing_plan_id":"cebpf4jnsgd1na2vs0mg"},{"bike_id":"6504c83e-ee5c-44f6-b566-d985f5f17132","system_id":"levelo_inurba_marseille","lat":43.26207,"lon":5.37447,"is_reserved":false,"is_disabled":false,"rental_uris":{"android":"levelo://app?vid=6504c83e-ee5c-44f6-b566-d985f5f17132","ios":"levelo://app?vid=6504c83e-ee5c-44f6-b566-d985f5f17132"},"vehicle_type_id":"4","last_reported":1729271308,"current_range_meters":14400,"station_id":"ce4bhgp2rcd13ifvqfc0","pricing_plan_id":"cebpf4jnsgd1na2vs0mg"},{"bike_id":"9d750dcf-388c-45eb-af4c-5da280f7cd1d","system_id":"levelo_inurba_marseille","lat":43.29417,"lon":5.38636,"is_reserved":false,"is_disabled":false,"rental_uris":{"android":"levelo://app?vid=9d750dcf-388c-45eb-af4c-5da280f7cd1d","ios":"levelo://app?vid=9d750dcf-388c-45eb-af4c-5da280f7cd1d"},"vehicle_type_id":"4","last_reported":1729271308,"current_range_meters":13600,"station_id":"ce4bgj92rcd13ifvqbe0","pricing_plan_id":"cebpf4jnsgd1na2vs0mg"},{"bike_id":"3db984fd-15e6-41f5-b356-a7cdf74ff322","system_id":"levelo_inurba_marseille","lat":43.31115,"lon":5.37783,"is_reserved":false,"is_disabled":false,"rental_uris":{"android":"levelo://app?vid=3db984fd-15e6-41f5-b356-a7cdf74ff322","ios":"levelo://app?vid=3db984fd-15e6-41f5-b356-a7cdf74ff322"},"vehicle_type_id":"4","last_reported":1729271308,"current_range_meters":38800,"station_id":"ce4bgt92rcd13ifvqcg0","pricing_plan_id":"cebpf4jnsgd1na2vs0mg"},{"bike_id":"95d7f1c3-2dca-4e9c-93e8-7100d945d24a","system_id":"levelo_inurba_marseille","lat":43.266821,"lon":5.382767,"is_reserved":false,"is_disabled":false,"rental_uris":{"android":"levelo://app?vid=95d7f1c3-2dca-4e9c-93e8-7100d945d24a","ios":"levelo://app?vid=95d7f1c3-2dca-4e9c-93e8-7100d945d24a"},"vehicle_type_id":"4","last_reported":1729271308,"current_range_meters":16400,"station_id":"ce4bhg92rcd13ifvqf90","pricing_plan_id":"cebpf4jnsgd1na2vs0mg"},{"bike_id":"ebd02eac-6cc5-4413-b022-ab085dda9557","system_id":"levelo_inurba_marseille","lat":43.27373,"lon":5.36261,"is_reserved":false,"is_disabled":false,"rental_uris":{"android":"levelo://app?vid=ebd02eac-6cc5-4413-b022-ab085dda9557","ios":"levelo://app?vid=ebd02eac-6cc5-4413-b022-ab085dda9557"},"vehicle_type_id":"4","last_reported":1729271308,"current_range_meters":18800,"station_id":"ce4bhbh2rcd13ifvqeo0","pricing_plan_id":"cebpf4jnsgd1na2vs0mg"},{"bike_id":"d2523f85-1092-433f-b4f4-6d97e9201be5","system_id":"levelo_inurba_marseille","lat":43.28442,"lon":5.39197,"is_reserved":false,"is_disabled":false,"rental_uris":{"android":"levelo://app?vid=d2523f85-1092-433f-b4f4-6d97e9201be5","ios":"levelo://app?vid=d2523f85-1092-433f-b4f4-6d97e9201be5"},"vehicle_type_id":"4","last_reported":1729271308,"current_range_meters":16800,"station_id":"ce4bhoh2rcd13ifvqh5g","pricing_plan_id":"cebpf4jnsgd1na2vs0mg"},{"bike_id":"091165f1-d675-4ce3-b4a9-dc5bea14886b","system_id":"levelo_inurba_marseille","lat":43.29439,"lon":5.39756,"is_reserved":false,"is_disabled":false,"rental_uris":{"android":"levelo://app?vid=091165f1-d675-4ce3-b4a9-dc5bea14886b","ios":"levelo://app?vid=091165f1-d675-4ce3-b4a9-dc5bea14886b"},"vehicle_type_id":"4","last_reported":1729271308,"current_range_meters":36000,"station_id":"ce4bh3h2rcd13ifvqdo0","pricing_plan_id":"cebpf4jnsgd1na2vs0mg"},{"bike_id":"d20262c8-4239-4244-8d3e-c29521b401a0","system_id":"levelo_inurba_marseille","lat":43.23964,"lon":5.36644,"is_reserved":false,"is_disabled":false,"rental_uris":{"android":"levelo://app?vid=d20262c8-4239-4244-8d3e-c29521b401a0","ios":"levelo://app?vid=d20262c8-4239-4244-8d3e-c29521b401a0"},"vehicle_type_id":"4","last_reported":1729271308,"current_range_meters":8800,"station_id":"ce4bhi12rcd13ifvqfp0","pricing_plan_id":"cebpf4jnsgd1na2vs0mg"},{"bike_id":"a7942a3d-b6cf-473e-b7cc-3ae070feacf4","system_id":"levelo_inurba_marseille","lat":43.29272,"lon":5.36847,"is_reserved":false,"is_disabled":false,"rental_uris":{"android":"levelo://app?vid=a7942a3d-b6cf-473e-b7cc-3ae070feacf4","ios":"levelo://app?vid=a7942a3d-b6cf-473e-b7cc-3ae070feacf4"},"vehicle_type_id":"4","last_reported":1729271308,"current_range_meters":25600,"station_id":"ce4bhbp2rcd13ifvqesg","pricing_plan_id":"cebpf4jnsgd1na2vs0mg"},{"bike_id":"3351a68b-76ef-4259-929e-a9112c5ffb19","system_id":"levelo_inurba_marseille","lat":43.28937,"lon":5.3664,"is_reserved":false,"is_disabled":false,"rental_uris":{"android":"levelo://app?vid=3351a68b-76ef-4259-929e-a9112c5ffb19","ios":"levelo://app?vid=3351a68b-76ef-4259-929e-a9112c5ffb19"},"vehicle_type_id":"4","last_reported":1729271308,"current_range_meters":40000,"station_id":"ce4bhap2rcd13ifvqek0","pricing_plan_id":"cebpf4jnsgd1na2vs0mg"},{"bike_id":"257f5226-3c06-404c-a6bb-d52a24a40191","system_id":"levelo_inurba_marseille","lat":43.31708,"lon":5.43715,"is_reserved":false,"is_disabled":false,"rental_uris":{"android":"levelo://app?vid=257f5226-3c06-404c-a6bb-d52a24a40191","ios":"levelo://app?vid=257f5226-3c06-404c-a6bb-d52a24a40191"},"vehicle_type_id":"4","last_reported":1729271308,"current_range_meters":2800,"station_id":"ce4bhp92rcd13ifvqhcg","pricing_plan_id":"cebpf4jnsgd1na2vs0mg"},{"bike_id":"72c84ff0-30d1-4a65-b39d-805bbcd1bcdd","system_id":"levelo_inurba_marseille","lat":43.28394,"lon":5.37535,"is_reserved":false,"is_disabled":false,"rental_uris":{"android":"levelo://app?vid=72c84ff0-30d1-4a65-b39d-805bbcd1bcdd","ios":"levelo://app?vid=72c84ff0-30d1-4a65-b39d-805bbcd1bcdd"},"vehicle_type_id":"4","last_reported":1729271308,"current_range_meters":12400,"station_id":"ce4bh412rcd13ifvqds0","pricing_plan_id":"cebpf4jnsgd1na2vs0mg"},{"bike_id":"62391eef-865c-4a9c-97f9-ad248b50e3ab","system_id":"levelo_inurba_marseille","lat":43.24078,"lon":5.37755,"is_reserved":false,"is_disabled":false,"rental_uris":{"android":"levelo://app?vid=62391eef-865c-4a9c-97f9-ad248b50e3ab","ios":"levelo://app?vid=62391eef-865c-4a9c-97f9-ad248b50e3ab"},"vehicle_type_id":"4","last_reported":1729271308,"current_range_meters":26800,"station_id":"ce4bhnp2rcd13ifvqgvg","pricing_plan_id":"cebpf4jnsgd1na2vs0mg"},{"bike_id":"b971428a-30a5-4521-99ef-074886c8479d","system_id":"levelo_inurba_marseille","lat":43.29963,"lon":5.37176,"is_reserved":false,"is_disabled":false,"rental_uris":{"android":"levelo://app?vid=b971428a-30a5-4521-99ef-074886c8479d","ios":"levelo://app?vid=b971428a-30a5-4521-99ef-074886c8479d"},"vehicle_type_id":"4","last_reported":1729271308,"current_range_meters":28000,"station_id":"ce4bgr92rcd13ifvqc7g","pricing_plan_id":"cebpf4jnsgd1na2vs0mg"},{"bike_id":"9bc83f69-0768-49da-b663-1d3e063c9e13","system_id":"levelo_inurba_marseille","lat":43.337666,"lon":5.374568,"is_reserved":false,"is_disabled":false,"rental_uris":{"android":"levelo://app?vid=9bc83f69-0768-49da-b663-1d3e063c9e13","ios":"levelo://app?vid=9bc83f69-0768-49da-b663-1d3e063c9e13"},"vehicle_type_id":"4","last_reported":1729271308,"current_range_meters":2800,"station_id":"","pricing_plan_id":"cebpf4jnsgd1na2vs0mg"},{"bike_id":"777add0e-e7c1-484d-a7fc-5cd0ee18a575","system_id":"levelo_inurba_marseille","lat":43.26193,"lon":5.37455,"is_reserved":false,"is_disabled":false,"rental_uris":{"android":"levelo://app?vid=777add0e-e7c1-484d-a7fc-5cd0ee18a575","ios":"levelo://app?vid=777add0e-e7c1-484d-a7fc-5cd0ee18a575"},"vehicle_type_id":"4","last_reported":1729271308,"current_range_meters":9600,"station_id":"ce4bhgp2rcd13ifvqfc0","pricing_plan_id":"cebpf4jnsgd1na2vs0mg"},{"bike_id":"8d88c93f-5a0f-4b3b-99b3-28abe9b1ee7e","system_id":"levelo_inurba_marseille","lat":43.25489,"lon":5.37647,"is_reserved":false,"is_disabled":false,"rental_uris":{"android":"levelo://app?vid=8d88c93f-5a0f-4b3b-99b3-28abe9b1ee7e","ios":"levelo://app?vid=8d88c93f-5a0f-4b3b-99b3-28abe9b1ee7e"},"vehicle_type_id":"4","last_reported":1729271308,"current_range_meters":6000,"station_id":"ce4bhh12rcd13ifvqff0","pricing_plan_id":"cebpf4jnsgd1na2vs0mg"},{"bike_id":"69c78ed1-854b-47d7-aaa8-26a907aa52ef","system_id":"levelo_inurba_marseille","lat":43.27817,"lon":5.40715,"is_reserved":false,"is_disabled":false,"rental_uris":{"android":"levelo://app?vid=69c78ed1-854b-47d7-aaa8-26a907aa52ef","ios":"levelo://app?vid=69c78ed1-854b-47d7-aaa8-26a907aa52ef"},"vehicle_type_id":"4","last_reported":1729271308,"current_range_meters":27600,"station_id":"ce4bhnh2rcd13ifvqgtg","pricing_plan_id":"cebpf4jnsgd1na2vs0mg"},{"bike_id":"1fa089e4-d91d-4b5f-ab62-5de4dac5a020","system_id":"levelo_inurba_marseille","lat":43.26494,"lon":5.39552,"is_reserved":false,"is_disabled":false,"rental_uris":{"android":"levelo://app?vid=1fa089e4-d91d-4b5f-ab62-5de4dac5a020","ios":"levelo://app?vid=1fa089e4-d91d-4b5f-ab62-5de4dac5a020"},"vehicle_type_id":"4","last_reported":1729271308,"current_range_meters":36800,"station_id":"ce4bhi12rcd13ifvqfq0","pricing_plan_id":"cebpf4jnsgd1na2vs0mg"},{"bike_id":"1cea25e3-c03d-40c2-9b82-cac6c297a0f9","system_id":"levelo_inurba_marseille","lat":43.230591,"lon":5.354851,"is_reserved":false,"is_disabled":false,"rental_uris":{"android":"levelo://app?vid=1cea25e3-c03d-40c2-9b82-cac6c297a0f9","ios":"levelo://app?vid=1cea25e3-c03d-40c2-9b82-cac6c297a0f9"},"vehicle_type_id":"4","last_reported":1729271308,"current_range_meters":38800,"station_id":"cpo3342slgdg3j2ifvpg","pricing_plan_id":"cebpf4jnsgd1na2vs0mg"},{"bike_id":"58d148dd-5772-4722-afd5-21cc4a4af850","system_id":"levelo_inurba_marseille","lat":43.3042,"lon":5.41287,"is_reserved":false,"is_disabled":false,"rental_uris":{"android":"levelo://app?vid=58d148dd-5772-4722-afd5-21cc4a4af850","ios":"levelo://app?vid=58d148dd-5772-4722-afd5-21cc4a4af850"},"vehicle_type_id":"4","last_reported":1729271308,"current_range_meters":24800,"station_id":"ce4bhop2rcd13ifvqh8g","pricing_plan_id":"cebpf4jnsgd1na2vs0mg"},{"bike_id":"8d464aea-a29f-4a78-9b6d-b84662283839","system_id":"levelo_inurba_marseille","lat":43.29032,"lon":5.3866,"is_reserved":false,"is_disabled":false,"rental_uris":{"android":"levelo://app?vid=8d464aea-a29f-4a78-9b6d-b84662283839","ios":"levelo://app?vid=8d464aea-a29f-4a78-9b6d-b84662283839"},"vehicle_type_id":"4","last_reported":1729271308,"current_range_meters":38800,"station_id":"ce4bh4p2rcd13ifvqe0g","pricing_plan_id":"cebpf4jnsgd1na2vs0mg"},{"bike_id":"d8de94a5-e751-4afa-96a7-ba4acf870ca6","system_id":"levelo_inurba_marseille","lat":43.33022,"lon":5.39036,"is_reserved":false,"is_disabled":false,"rental_uris":{"android":"levelo://app?vid=d8de94a5-e751-4afa-96a7-ba4acf870ca6","ios":"levelo://app?vid=d8de94a5-e751-4afa-96a7-ba4acf870ca6"},"vehicle_type_id":"4","last_reported":1729271308,"current_range_meters":15200,"station_id":"ce4bhr92rcd13ifvqhrg","pricing_plan_id":"cebpf4jnsgd1na2vs0mg"},{"bike_id":"7cf52ff0-478c-46e2-940e-6842be0d4e38","system_id":"levelo_inurba_marseille","lat":43.24165,"lon":5.364,"is_reserved":false,"is_disabled":false,"rental_uris":{"android":"levelo://app?vid=7cf52ff0-478c-46e2-940e-6842be0d4e38","ios":"levelo://app?vid=7cf52ff0-478c-46e2-940e-6842be0d4e38"},"vehicle_type_id":"4","last_reported":1729271308,"current_range_meters":9600,"station_id":"cpo36qri1sfpv3e86is0","pricing_plan_id":"cebpf4jnsgd1na2vs0mg"},{"bike_id":"08063365-de99-42e0-8daa-5611bb95e7d4","system_id":"levelo_inurba_marseille","lat":43.29035,"lon":5.37575,"is_reserved":false,"is_disabled":false,"rental_uris":{"android":"levelo://app?vid=08063365-de99-42e0-8daa-5611bb95e7d4","ios":"levelo://app?vid=08063365-de99-42e0-8daa-5611bb95e7d4"},"vehicle_type_id":"4","last_reported":1729271308,"current_range_meters":31200,"station_id":"ce4bh692rcd13ifvqe90","pricing_plan_id":"cebpf4jnsgd1na2vs0mg"},{"bike_id":"a1e0278e-920e-4eea-a381-891331e8e403","system_id":"levelo_inurba_marseille","lat":43.23198,"lon":5.35547,"is_reserved":false,"is_disabled":false,"rental_uris":{"android":"levelo://app?vid=a1e0278e-920e-4eea-a381-891331e8e403","ios":"levelo://app?vid=a1e0278e-920e-4eea-a381-891331e8e403"},"vehicle_type_id":"4","last_reported":1729271308,"current_range_meters":26000,"station_id":"ce4bhu92rcd13ifvqi70","pricing_plan_id":"cebpf4jnsgd1na2vs0mg"},{"bike_id":"1dc2efc4-5cdd-4907-983c-f89552c4dd61","system_id":"levelo_inurba_marseille","lat":43.24167,"lon":5.36399,"is_reserved":false,"is_disabled":false,"rental_uris":{"android":"levelo://app?vid=1dc2efc4-5cdd-4907-983c-f89552c4dd61","ios":"levelo://app?vid=1dc2efc4-5cdd-4907-983c-f89552c4dd61"},"vehicle_type_id":"4","last_reported":1729271308,"current_range_meters":38000,"station_id":"cpo36qri1sfpv3e86is0","pricing_plan_id":"cebpf4jnsgd1na2vs0mg"},{"bike_id":"4bb1a66b-345d-4cf3-b233-a6a49fd69889","system_id":"levelo_inurba_marseille","lat":43.29706,"lon":5.36603,"is_reserved":false,"is_disabled":false,"rental_uris":{"android":"levelo://app?vid=4bb1a66b-345d-4cf3-b233-a6a49fd69889","ios":"levelo://app?vid=4bb1a66b-345d-4cf3-b233-a6a49fd69889"},"vehicle_type_id":"4","last_reported":1729271308,"current_range_meters":3200,"station_id":"ce4bgn12rcd13ifvqbt0","pricing_plan_id":"cebpf4jnsgd1na2vs0mg"},{"bike_id":"9d40e33f-9e46-4f7b-a172-ac51f99950bd","system_id":"levelo_inurba_marseille","lat":43.24168,"lon":5.3641,"is_reserved":false,"is_disabled":false,"rental_uris":{"android":"levelo://app?vid=9d40e33f-9e46-4f7b-a172-ac51f99950bd","ios":"levelo://app?vid=9d40e33f-9e46-4f7b-a172-ac51f99950bd"},"vehicle_type_id":"4","last_reported":1729271308,"current_range_meters":21600,"station_id":"cpo36qri1sfpv3e86is0","pricing_plan_id":"cebpf4jnsgd1na2vs0mg"},{"bike_id":"aa93ae9d-e68b-4a05-b7e2-daeabc87ed1e","system_id":"levelo_inurba_marseille","lat":43.23189,"lon":5.35558,"is_reserved":false,"is_disabled":false,"rental_uris":{"android":"levelo://app?vid=aa93ae9d-e68b-4a05-b7e2-daeabc87ed1e","ios":"levelo://app?vid=aa93ae9d-e68b-4a05-b7e2-daeabc87ed1e"},"vehicle_type_id":"4","last_reported":1729271308,"current_range_meters":24800,"station_id":"ce4bhu92rcd13ifvqi70","pricing_plan_id":"cebpf4jnsgd1na2vs0mg"},{"bike_id":"a4d25b90-19be-4143-b1e3-ff12d70e671e","system_id":"levelo_inurba_marseille","lat":43.2315,"lon":5.43713,"is_reserved":false,"is_disabled":false,"rental_uris":{"android":"levelo://app?vid=a4d25b90-19be-4143-b1e3-ff12d70e671e","ios":"levelo://app?vid=a4d25b90-19be-4143-b1e3-ff12d70e671e"},"vehicle_type_id":"4","last_reported":1729271308,"current_range_meters":24000,"station_id":"ce4bhmp2rcd13ifvqgog","pricing_plan_id":"cebpf4jnsgd1na2vs0mg"},{"bike_id":"b915f077-0d1a-43fc-86d7-d54c787b59a2","system_id":"levelo_inurba_marseille","lat":43.24287,"lon":5.43838,"is_reserved":false,"is_disabled":false,"rental_uris":{"android":"levelo://app?vid=b915f077-0d1a-43fc-86d7-d54c787b59a2","ios":"levelo://app?vid=b915f077-0d1a-43fc-86d7-d54c787b59a2"},"vehicle_type_id":"4","last_reported":1729271308,"current_range_meters":23200,"station_id":"","pricing_plan_id":"cebpf4jnsgd1na2vs0mg"},{"bike_id":"53b47e54-791c-45e6-b70e-862e60473175","system_id":"levelo_inurba_marseille","lat":43.29982,"lon":5.3719,"is_reserved":false,"is_disabled":false,"rental_uris":{"android":"levelo://app?vid=53b47e54-791c-45e6-b70e-862e60473175","ios":"levelo://app?vid=53b47e54-791c-45e6-b70e-862e60473175"},"vehicle_type_id":"4","last_reported":1729271308,"current_range_meters":3600,"station_id":"ce4bgr92rcd13ifvqc7g","pricing_plan_id":"cebpf4jnsgd1na2vs0mg"},{"bike_id":"cd011ccb-7f36-49a5-bc23-77bbd6ead258","system_id":"levelo_inurba_marseille","lat":43.24157,"lon":5.36401,"is_reserved":false,"is_disabled":false,"rental_uris":{"android":"levelo://app?vid=cd011ccb-7f36-49a5-bc23-77bbd6ead258","ios":"levelo://app?vid=cd011ccb-7f36-49a5-bc23-77bbd6ead258"},"vehicle_type_id":"4","last_reported":1729271308,"current_range_meters":28000,"station_id":"cpo36qri1sfpv3e86is0","pricing_plan_id":"cebpf4jnsgd1na2vs0mg"},{"bike_id":"ef07b20c-ae21-40d3-a186-1433e85da5fe","system_id":"levelo_inurba_marseille","lat":43.295593,"lon":5.397671,"is_reserved":false,"is_disabled":false,"rental_uris":{"android":"levelo://app?vid=ef07b20c-ae21-40d3-a186-1433e85da5fe","ios":"levelo://app?vid=ef07b20c-ae21-40d3-a186-1433e85da5fe"},"vehicle_type_id":"4","last_reported":1729271308,"current_range_meters":36800,"station_id":"ce4bh192rcd13ifvqdd0","pricing_plan_id":"cebpf4jnsgd1na2vs0mg"},{"bike_id":"5df66906-f65f-4a3d-8ba9-b8513d4a795c","system_id":"levelo_inurba_marseille","lat":43.32283,"lon":5.38301,"is_reserved":false,"is_disabled":false,"rental_uris":{"android":"levelo://app?vid=5df66906-f65f-4a3d-8ba9-b8513d4a795c","ios":"levelo://app?vid=5df66906-f65f-4a3d-8ba9-b8513d4a795c"},"vehicle_type_id":"4","last_reported":1729271308,"current_range_meters":36800,"station_id":"ce4bhr12rcd13ifvqhqg","pricing_plan_id":"cebpf4jnsgd1na2vs0mg"},{"bike_id":"a0fe3727-9b36-4dae-8457-6f2f2a36aa89","system_id":"levelo_inurba_marseille","lat":43.32191,"lon":5.38717,"is_reserved":false,"is_disabled":false,"rental_uris":{"android":"levelo://app?vid=a0fe3727-9b36-4dae-8457-6f2f2a36aa89","ios":"levelo://app?vid=a0fe3727-9b36-4dae-8457-6f2f2a36aa89"},"vehicle_type_id":"4","last_reported":1729271308,"current_range_meters":22800,"station_id":"","pricing_plan_id":"cebpf4jnsgd1na2vs0mg"},{"bike_id":"9cd4f3ab-430a-4551-b632-6f9c072607a3","system_id":"levelo_inurba_marseille","lat":43.31753,"lon":5.39024,"is_reserved":false,"is_disabled":false,"rental_uris":{"android":"levelo://app?vid=9cd4f3ab-430a-4551-b632-6f9c072607a3","ios":"levelo://app?vid=9cd4f3ab-430a-4551-b632-6f9c072607a3"},"vehicle_type_id":"4","last_reported":1729271308,"current_range_meters":38000,"station_id":"ce4bhqp2rcd13ifvqhng","pricing_plan_id":"cebpf4jnsgd1na2vs0mg"},{"bike_id":"ccaf278f-37c2-455c-978b-5d913e72bd44","system_id":"levelo_inurba_marseille","lat":43.28605,"lon":5.3707,"is_reserved":false,"is_disabled":false,"rental_uris":{"android":"levelo://app?vid=ccaf278f-37c2-455c-978b-5d913e72bd44","ios":"levelo://app?vid=ccaf278f-37c2-455c-978b-5d913e72bd44"},"vehicle_type_id":"4","last_reported":1729271308,"current_range_meters":22400,"station_id":"ce4bht12rcd13ifvqi60","pricing_plan_id":"cebpf4jnsgd1na2vs0mg"},{"bike_id":"71118002-fabe-4e03-a265-92cc7da4a157","system_id":"levelo_inurba_marseille","lat":43.29895,"lon":5.43674,"is_reserved":false,"is_disabled":false,"rental_uris":{"android":"levelo://app?vid=71118002-fabe-4e03-a265-92cc7da4a157","ios":"levelo://app?vid=71118002-fabe-4e03-a265-92cc7da4a157"},"vehicle_type_id":"4","last_reported":1729271308,"current_range_meters":18800,"station_id":"ce4bhpp2rcd13ifvqhfg","pricing_plan_id":"cebpf4jnsgd1na2vs0mg"},{"bike_id":"4eefa1ec-0d89-406a-9ba6-ab04341864b0","system_id":"levelo_inurba_marseille","lat":43.2319,"lon":5.35544,"is_reserved":false,"is_disabled":false,"rental_uris":{"android":"levelo://app?vid=4eefa1ec-0d89-406a-9ba6-ab04341864b0","ios":"levelo://app?vid=4eefa1ec-0d89-406a-9ba6-ab04341864b0"},"vehicle_type_id":"4","last_reported":1729271308,"current_range_meters":39200,"station_id":"ce4bhu92rcd13ifvqi70","pricing_plan_id":"cebpf4jnsgd1na2vs0mg"},{"bike_id":"f58c5e69-eb40-417e-b171-0c493c16b88f","system_id":"levelo_inurba_marseille","lat":43.23185,"lon":5.39995,"is_reserved":false,"is_disabled":false,"rental_uris":{"android":"levelo://app?vid=f58c5e69-eb40-417e-b171-0c493c16b88f","ios":"levelo://app?vid=f58c5e69-eb40-417e-b171-0c493c16b88f"},"vehicle_type_id":"4","last_reported":1729271308,"current_range_meters":4800,"station_id":"ce4bhn12rcd13ifvqgqg","pricing_plan_id":"cebpf4jnsgd1na2vs0mg"},{"bike_id":"336beaef-6f69-4736-9506-fe1ebb477cc3","system_id":"levelo_inurba_marseille","lat":43.23187,"lon":5.35567,"is_reserved":false,"is_disabled":false,"rental_uris":{"android":"levelo://app?vid=336beaef-6f69-4736-9506-fe1ebb477cc3","ios":"levelo://app?vid=336beaef-6f69-4736-9506-fe1ebb477cc3"},"vehicle_type_id":"4","last_reported":1729271308,"current_range_meters":21600,"station_id":"ce4bhu92rcd13ifvqi70","pricing_plan_id":"cebpf4jnsgd1na2vs0mg"},{"bike_id":"c1f180b2-9332-4296-84b0-58e9a498ded7","system_id":"levelo_inurba_marseille","lat":43.30799,"lon":5.43529,"is_reserved":false,"is_disabled":false,"rental_uris":{"android":"levelo://app?vid=c1f180b2-9332-4296-84b0-58e9a498ded7","ios":"levelo://app?vid=c1f180b2-9332-4296-84b0-58e9a498ded7"},"vehicle_type_id":"4","last_reported":1729271308,"current_range_meters":9200,"station_id":"ce4bhph2rcd13ifvqheg","pricing_plan_id":"cebpf4jnsgd1na2vs0mg"},{"bike_id":"f8f986fe-152a-41dd-a31b-94461ed9e082","system_id":"levelo_inurba_marseille","lat":43.297019,"lon":5.368272,"is_reserved":false,"is_disabled":false,"rental_uris":{"android":"levelo://app?vid=f8f986fe-152a-41dd-a31b-94461ed9e082","ios":"levelo://app?vid=f8f986fe-152a-41dd-a31b-94461ed9e082"},"vehicle_type_id":"4","last_reported":1729271308,"current_range_meters":11600,"station_id":"ce4bgop2rcd13ifvqc1g","pricing_plan_id":"cebpf4jnsgd1na2vs0mg"},{"bike_id":"6d862052-078d-4a4c-865a-98f8af6e5450","system_id":"levelo_inurba_marseille","lat":43.24068,"lon":5.3777,"is_reserved":false,"is_disabled":false,"rental_uris":{"android":"levelo://app?vid=6d862052-078d-4a4c-865a-98f8af6e5450","ios":"levelo://app?vid=6d862052-078d-4a4c-865a-98f8af6e5450"},"vehicle_type_id":"4","last_reported":1729271308,"current_range_meters":17600,"station_id":"ce4bhnp2rcd13ifvqgvg","pricing_plan_id":"cebpf4jnsgd1na2vs0mg"},{"bike_id":"0b2cb814-94fa-49c0-b65f-cfcf3cbe5eca","system_id":"levelo_inurba_marseille","lat":43.23182,"lon":5.35567,"is_reserved":false,"is_disabled":false,"rental_uris":{"android":"levelo://app?vid=0b2cb814-94fa-49c0-b65f-cfcf3cbe5eca","ios":"levelo://app?vid=0b2cb814-94fa-49c0-b65f-cfcf3cbe5eca"},"vehicle_type_id":"4","last_reported":1729271308,"current_range_meters":27600,"station_id":"ce4bhu92rcd13ifvqi70","pricing_plan_id":"cebpf4jnsgd1na2vs0mg"},{"bike_id":"fc290ba2-17a8-4ba1-88ef-11a276d7ddc4","system_id":"levelo_inurba_marseille","lat":43.33023,"lon":5.3904,"is_reserved":false,"is_disabled":false,"rental_uris":{"android":"levelo://app?vid=fc290ba2-17a8-4ba1-88ef-11a276d7ddc4","ios":"levelo://app?vid=fc290ba2-17a8-4ba1-88ef-11a276d7ddc4"},"vehicle_type_id":"4","last_reported":1729271308,"current_range_meters":37600,"station_id":"ce4bhr92rcd13ifvqhrg","pricing_plan_id":"cebpf4jnsgd1na2vs0mg"},{"bike_id":"d259de4f-d482-45c6-97ed-21edca69e149","system_id":"levelo_inurba_marseille","lat":43.29225,"lon":5.36075,"is_reserved":false,"is_disabled":false,"rental_uris":{"android":"levelo://app?vid=d259de4f-d482-45c6-97ed-21edca69e149","ios":"levelo://app?vid=d259de4f-d482-45c6-97ed-21edca69e149"},"vehicle_type_id":"4","last_reported":1729271308,"current_range_meters":6000,"station_id":"ce4bhbh2rcd13ifvqeqg","pricing_plan_id":"cebpf4jnsgd1na2vs0mg"},{"bike_id":"f6db7653-b7cc-4dd6-853f-481664ae740f","system_id":"levelo_inurba_marseille","lat":43.27893,"lon":5.38017,"is_reserved":false,"is_disabled":false,"rental_uris":{"android":"levelo://app?vid=f6db7653-b7cc-4dd6-853f-481664ae740f","ios":"levelo://app?vid=f6db7653-b7cc-4dd6-853f-481664ae740f"},"vehicle_type_id":"4","last_reported":1729271308,"current_range_meters":5600,"station_id":"ce4bhf92rcd13ifvqf50","pricing_plan_id":"cebpf4jnsgd1na2vs0mg"},{"bike_id":"028ede46-0b0a-477e-912e-93fb297304e0","system_id":"levelo_inurba_marseille","lat":43.28279,"lon":5.35072,"is_reserved":false,"is_disabled":false,"rental_uris":{"android":"levelo://app?vid=028ede46-0b0a-477e-912e-93fb297304e0","ios":"levelo://app?vid=028ede46-0b0a-477e-912e-93fb297304e0"},"vehicle_type_id":"4","last_reported":1729271308,"current_range_meters":38800,"station_id":"ce4bhbp2rcd13ifvqerg","pricing_plan_id":"cebpf4jnsgd1na2vs0mg"},{"bike_id":"b5aaf4d9-0ccd-4f37-8e35-9479f228afed","system_id":"levelo_inurba_marseille","lat":43.29045,"lon":5.35918,"is_reserved":false,"is_disabled":false,"rental_uris":{"android":"levelo://app?vid=b5aaf4d9-0ccd-4f37-8e35-9479f228afed","ios":"levelo://app?vid=b5aaf4d9-0ccd-4f37-8e35-9479f228afed"},"vehicle_type_id":"4","last_reported":1729271308,"current_range_meters":24800,"station_id":"ce4bha92rcd13ifvqeg0","pricing_plan_id":"cebpf4jnsgd1na2vs0mg"},{"bike_id":"3c980105-cf15-40a3-b8ae-1efa01f9c62b","system_id":"levelo_inurba_marseille","lat":43.26212,"lon":5.37443,"is_reserved":false,"is_disabled":false,"rental_uris":{"android":"levelo://app?vid=3c980105-cf15-40a3-b8ae-1efa01f9c62b","ios":"levelo://app?vid=3c980105-cf15-40a3-b8ae-1efa01f9c62b"},"vehicle_type_id":"4","last_reported":1729271308,"current_range_meters":35200,"station_id":"ce4bhgp2rcd13ifvqfc0","pricing_plan_id":"cebpf4jnsgd1na2vs0mg"},{"bike_id":"734366ce-4d0d-4ff8-861d-07f8dd799c45","system_id":"levelo_inurba_marseille","lat":43.31706,"lon":5.37743,"is_reserved":false,"is_disabled":false,"rental_uris":{"android":"levelo://app?vid=734366ce-4d0d-4ff8-861d-07f8dd799c45","ios":"levelo://app?vid=734366ce-4d0d-4ff8-861d-07f8dd799c45"},"vehicle_type_id":"4","last_reported":1729271308,"current_range_meters":16000,"station_id":"ce4bgth2rcd13ifvqch0","pricing_plan_id":"cebpf4jnsgd1na2vs0mg"},{"bike_id":"ca0313dc-b0ca-4cdc-8f0c-80db62d16e2e","system_id":"levelo_inurba_marseille","lat":43.30803,"lon":5.43532,"is_reserved":false,"is_disabled":false,"rental_uris":{"android":"levelo://app?vid=ca0313dc-b0ca-4cdc-8f0c-80db62d16e2e","ios":"levelo://app?vid=ca0313dc-b0ca-4cdc-8f0c-80db62d16e2e"},"vehicle_type_id":"4","last_reported":1729271308,"current_range_meters":4400,"station_id":"ce4bhph2rcd13ifvqheg","pricing_plan_id":"cebpf4jnsgd1na2vs0mg"},{"bike_id":"91430f3f-397b-488f-94e3-85339a84c4ac","system_id":"levelo_inurba_marseille","lat":43.28715,"lon":5.37934,"is_reserved":false,"is_disabled":false,"rental_uris":{"android":"levelo://app?vid=91430f3f-397b-488f-94e3-85339a84c4ac","ios":"levelo://app?vid=91430f3f-397b-488f-94e3-85339a84c4ac"},"vehicle_type_id":"4","last_reported":1729271308,"current_range_meters":6800,"station_id":"ce4bh9p2rcd13ifvqec0","pricing_plan_id":"cebpf4jnsgd1na2vs0mg"},{"bike_id":"7f94c346-8fe8-4ec6-ba57-07dd8b11013e","system_id":"levelo_inurba_marseille","lat":43.27996,"lon":5.41663,"is_reserved":false,"is_disabled":false,"rental_uris":{"android":"levelo://app?vid=7f94c346-8fe8-4ec6-ba57-07dd8b11013e","ios":"levelo://app?vid=7f94c346-8fe8-4ec6-ba57-07dd8b11013e"},"vehicle_type_id":"4","last_reported":1729271308,"current_range_meters":27600,"station_id":"ce4bho12rcd13ifvqh1g","pricing_plan_id":"cebpf4jnsgd1na2vs0mg"},