{"last_updated":1726427170,"ttl":30,"version":"2.2","data":{"bikes":[{"bike_id":"21f0f158-5ee2-490d-9587-1c1786b6b1ee","system_id":"levelo_inurba_marseille","lat":43.29868,"lon":5.39728,"is_reserved":false,"is_disabled":false,"rental_uris":{"android":"levelo://app?vid=21f0f158-5ee2-490d-9587-1c1786b6b1ee","ios":"levelo://app?vid=21f0f158-5ee2-490d-9587-1c1786b6b1ee"},"vehicle_type_id":"4","last_reported":1726427171,"current_range_meters":8400,"station_id":"ce4bh0h2rcd13ifvqd50","pricing_plan_id":"cebpf4jnsgd1na2vs0mg"},{"bike_id":"2127b193-183a-42a0-b237-2bb5fece0670","system_id":"levelo_inurba_marseille","lat":43.28678,"lon":5.38669,"is_reserved":false,"is_disabled":false,"rental_uris":{"android":"levelo://app?vid=2127b193-183a-42a0-b237-2bb5fece0670","ios":"levelo://app?vid=2127b193-183a-42a0-b237-2bb5fece0670"},"vehicle_type_id":"4","last_reported":1726427171,"current_range_meters":3600,"station_id":"ce4bh492rcd13ifvqdug","pricing_plan_id":"cebpf4jnsgd1na2vs0mg"},{"bike_id":"2670a8af-4d7f-4f2d-a031-c95c6000e594","system_id":"levelo_inurba_marseille","lat":43.297942,"lon":5.381126,"is_reserved":false,"is_disabled":false,"rental_uris":{"android":"levelo://app?vid=2670a8af-4d7f-4f2d-a031-c95c6000e594","ios":"levelo://app?vid=2670a8af-4d7f-4f2d-a031-c95c6000e594"},"vehicle_type_id":"4","last_reported":1726427171,"current_range_meters":35600,"station_id":"ce4bgip2rcd13ifvqbb0","pricing_plan_id":"cebpf4jnsgd1na2vs0mg"},{"bike_id":"5440ae72-f8d2-4dc7-b6cd-9b12f1ca8829","system_id":"levelo_inurba_marseille","lat":43.29879,"lon":5.39732,"is_reserved":false,"is_disabled":false,"rental_uris":{"android":"levelo://app?vid=5440ae72-f8d2-4dc7-b6cd-9b12f1ca8829","ios":"levelo://app?vid=5440ae72-f8d2-4dc7-b6cd-9b12f1ca8829"},"vehicle_type_id":"4","last_reported":1726427171,"current_range_meters":20800,"station_id":"ce4bh0h2rcd13ifvqd50","pricing_plan_id":"cebpf4jnsgd1na2vs0mg"},{"bike_id":"48a82de2-7872-40cb-b1bf-43e70b76834b","system_id":"levelo_inurba_marseille","lat":43.31294,"lon":5.37812,"is_reserved":false,"is_disabled":false,"rental_uris":{"android":"levelo://app?vid=48a82de2-7872-40cb-b1bf-43e70b76834b","ios":"levelo://app?vid=48a82de2-7872-40cb-b1bf-43e70b76834b"},"vehicle_type_id":"4","last_reported":1726427171,"current_range_meters":32800,"station_id":"","pricing_plan_id":"cebpf4jnsgd1na2vs0mg"},{"bike_id":"5e7ade19-5c62-4cb9-80bb-754ba4c0799e","system_id":"levelo_inurba_marseille","lat":43.295258,"lon":5.390545,"is_reserved":false,"is_disabled":false,"rental_uris":{"android":"levelo://app?vid=5e7ade19-5c62-4cb9-80bb-754ba4c0799e","ios":"levelo://app?vid=5e7ade19-5c62-4cb9-80bb-754ba4c0799e"},"vehicle_type_id":"4","last_reported":1726427171,"current_range_meters":18800,"station_id":"ce4bh3p2rcd13ifvqdp0","pricing_plan_id":"cebpf4jnsgd1na2vs0mg"},{"bike_id":"35d737be-72e2-4a47-b9f4-508f6d1ff612","system_id":"levelo_inurba_marseille","lat":43.25118,"lon":5.40318,"is_reserved":false,"is_disabled":false,"rental_uris":{"android":"levelo://app?vid=35d737be-72e2-4a47-b9f4-508f6d1ff612","ios":"levelo://app?vid=35d737be-72e2-4a47-b9f4-508f6d1ff612"},"vehicle_type_id":"4","last_reported":1726427171,"current_range_meters":12400,"station_id":"ce4bhlh2rcd13ifvqgig","pricing_plan_id":"cebpf4jnsgd1na2vs0mg"},{"bike_id":"491f625c-672a-429b-adf2-44db696ce223","system_id":"levelo_inurba_marseille","lat":43.24811,"lon":5.37454,"is_reserved":false,"is_disabled":false,"rental_uris":{"android":"levelo://app?vid=491f625c-672a-429b-adf2-44db696ce223","ios":"levelo://app?vid=491f625c-672a-429b-adf2-44db696ce223"},"vehicle_type_id":"4","last_reported":1726427171,"current_range_meters":9200,"station_id":"ce4bhgh2rcd13ifvqfb0","pricing_plan_id":"cebpf4jnsgd1na2vs0mg"},{"bike_id":"3e95191c-26d6-40c6-826c-1d4bf6e9c90f","system_id":"levelo_inurba_marseille","lat":43.29271,"lon":5.36853,"is_reserved":false,"is_disabled":false,"rental_uris":{"android":"levelo://app?vid=3e95191c-26d6-40c6-826c-1d4bf6e9c90f","ios":"levelo://app?vid=3e95191c-26d6-40c6-826c-1d4bf6e9c90f"},"vehicle_type_id":"4","last_reported":1726427171,"current_range_meters":2800,"station_id":"ce4bhbp2rcd13ifvqesg","pricing_plan_id":"cebpf4jnsgd1na2vs0mg"},{"bike_id":"892d6ba7-ec27-48aa-a06b-9fcc2866af0b","system_id":"levelo_inurba_marseille","lat":43.25928,"lon":5.40919,"is_reserved":false,"is_disabled":false,"rental_uris":{"android":"levelo://app?vid=892d6ba7-ec27-48aa-a06b-9fcc2866af0b","ios":"levelo://app?vid=892d6ba7-ec27-48aa-a06b-9fcc2866af0b"},"vehicle_type_id":"4","last_reported":1726427171,"current_range_meters":38800,"station_id":"ce4bhm92rcd13ifvqglg","pricing_plan_id":"cebpf4jnsgd1na2vs0mg"},{"bike_id":"7c475990-5c91-40de-8e97-2ed5070be005","system_id":"levelo_inurba_marseille","lat":43.23032,"lon":5.401,"is_reserved":false,"is_disabled":false,"rental_uris":{"android":"levelo://app?vid=7c475990-5c91-40de-8e97-2ed5070be005","ios":"levelo://app?vid=7c475990-5c91-40de-8e97-2ed5070be005"},"vehicle_type_id":"4","last_reported":1726427171,"current_range_meters":37600,"station_id":"","pricing_plan_id":"cebpf4jnsgd1na2vs0mg"},{"bike_id":"13ec4916-f0ea-4897-8afc-596425b42c42","system_id":"levelo_inurba_marseille","lat":43.23191,"lon":5.35553,"is_reserved":false,"is_disabled":false,"rental_uris":{"android":"levelo://app?vid=13ec4916-f0ea-4897-8afc-596425b42c42","ios":"levelo://app?vid=13ec4916-f0ea-4897-8afc-596425b42c42"},"vehicle_type_id":"4","last_reported":1726427171,"current_range_meters":20400,"station_id":"ce4bhu92rcd13ifvqi70","pricing_plan_id":"cebpf4jnsgd1na2vs0mg"},{"bike_id":"e8549387-9deb-4f66-b733-a7cdaa0db866","system_id":"levelo_inurba_marseille","lat":43.33021,"lon":5.3904,"is_reserved":false,"is_disabled":false,"rental_uris":{"android":"levelo://app?vid=e8549387-9deb-4f66-b733-a7cdaa0db866","ios":"levelo://app?vid=e8549387-9deb-4f66-b733-a7cdaa0db866"},"vehicle_type_id":"4","last_reported":1726427171,"current_range_meters":14400,"station_id":"ce4bhr92rcd13ifvqhrg","pricing_plan_id":"cebpf4jnsgd1na2vs0mg"},{"bike_id":"3a57dd91-1a95-424b-a54b-4da239084d75","system_id":"levelo_inurba_marseille","lat":43.2871,"lon":5.37941,"is_reserved":false,"is_disabled":false,"rental_uris":{"android":"levelo://app?vid=3a57dd91-1a95-424b-a54b-4da239084d75","ios":"levelo://app?vid=3a57dd91-1a95-424b-a54b-4da239084d75"},"vehicle_type_id":"4","last_reported":1726427171,"current_range_meters":39200,"station_id":"ce4bh9p2rcd13ifvqec0","pricing_plan_id":"cebpf4jnsgd1na2vs0mg"},{"bike_id":"2c47c24e-96d3-4e99-910a-98524d55c13a","system_id":"levelo_inurba_marseille","lat":43.28483,"lon":5.38557,"is_reserved":false,"is_disabled":false,"rental_uris":{"android":"levelo://app?vid=2c47c24e-96d3-4e99-910a-98524d55c13a","ios":"levelo://app?vid=2c47c24e-96d3-4e99-910a-98524d55c13a"},"vehicle_type_id":"4","last_reported":1726427171,"current_range_meters":36800,"station_id":"ce4bh8p2rcd13ifvqeb0","pricing_plan_id":"cebpf4jnsgd1na2vs0mg"},{"bike_id":"d9f05485-5ea4-48e7-907c-ec174e4eaff2","system_id":"levelo_inurba_marseille","lat":43.26921,"lon":5.40284,"is_reserved":false,"is_disabled":false,"rental_uris":{"android":"levelo://app?vid=d9f05485-5ea4-48e7-907c-ec174e4eaff2","ios":"levelo://app?vid=d9f05485-5ea4-48e7-907c-ec174e4eaff2"},"vehicle_type_id":"4","last_reported":1726427171,"current_range_meters":0,"station_id":"cjm6bp8fraef2m0cb0m0","pricing_plan_id":"cebpf4jnsgd1na2vs0mg"},{"bike_id":"74c67d55-8a5f-40c9-8066-d68354718f8c","system_id":"levelo_inurba_marseille","lat":43.23189,"lon":5.35554,"is_reserved":false,"is_disabled":false,"rental_uris":{"android":"levelo://app?vid=74c67d55-8a5f-40c9-8066-d68354718f8c","ios":"levelo://app?vid=74c67d55-8a5f-40c9-8066-d68354718f8c"},"vehicle_type_id":"4","last_reported":1726427171,"current_range_meters":17600,"station_id":"ce4bhu92rcd13ifvqi70","pricing_plan_id":"cebpf4jnsgd1na2vs0mg"},{"bike_id":"edb18170-6467-400a-a1b3-8e384e4793d9","system_id":"levelo_inurba_marseille","lat":43.2655,"lon":5.37288,"is_reserved":false,"is_disabled":false,"rental_uris":{"android":"levelo://app?vid=edb18170-6467-400a-a1b3-8e384e4793d9","ios":"levelo://app?vid=edb18170-6467-400a-a1b3-8e384e4793d9"},"vehicle_type_id":"4","last_reported":1726427171,"current_range_meters":21600,"station_id":"ce4bhg12rcd13ifvqf70","pricing_plan_id":"cebpf4jnsgd1na2vs0mg"},{"bike_id":"6180efdf-3198-430d-bc12-feef85e7274e","system_id":"levelo_inurba_marseille","lat":43.25823,"lon":5.39438,"is_reserved":false,"is_disabled":false,"rental_uris":{"android":"levelo://app?vid=6180efdf-3198-430d-bc12-feef85e7274e","ios":"levelo://app?vid=6180efdf-3198-430d-bc12-feef85e7274e"},"vehicle_type_id":"4","last_reported":1726427171,"current_range_meters":37600,"station_id":"ce4bhip2rcd13ifvqft0","pricing_plan_id":"cebpf4jnsgd1na2vs0mg"},{"bike_id":"dfe82a79-9dcb-4e9d-98c8-0333bebdfc7a","system_id":"levelo_inurba_marseille","lat":43.3199,"lon":5.38172,"is_reserved":false,"is_disabled":false,"rental_uris":{"android":"levelo://app?vid=dfe82a79-9dcb-4e9d-98c8-0333bebdfc7a","ios":"levelo://app?vid=dfe82a79-9dcb-4e9d-98c8-0333bebdfc7a"},"vehicle_type_id":"4","last_reported":1726427171,"current_range_meters":4400,"station_id":"ce4bhr12rcd13ifvqhpg","pricing_plan_id":"cebpf4jnsgd1na2vs0mg"},{"bike_id":"212c501b-a753-4c1a-ba0c-b560582af171","system_id":"levelo_inurba_marseille","lat":43.29547,"lon":5.42279,"is_reserved":false,"is_disabled":false,"rental_uris":{"android":"levelo://app?vid=212c501b-a753-4c1a-ba0c-b560582af171","ios":"levelo://app?vid=212c501b-a753-4c1a-ba0c-b560582af171"},"vehicle_type_id":"4","last_reported":1726427171,"current_range_meters":17600,"station_id":"ce4bhph2rcd13ifvqhdg","pricing_plan_id":"cebpf4jnsgd1na2vs0mg"},{"bike_id":"ef5e5f70-c564-4716-9c55-aa2148bb88d6","system_id":"levelo_inurba_marseille","lat":43.31712,"lon":5.37751,"is_reserved":false,"is_disabled":false,"rental_uris":{"android":"levelo://app?vid=ef5e5f70-c564-4716-9c55-aa2148bb88d6","ios":"levelo://app?vid=ef5e5f70-c564-4716-9c55-aa2148bb88d6"},"vehicle_type_id":"4","last_reported":1726427171,"current_range_meters":36400,"station_id":"ce4bgth2rcd13ifvqch0","pricing_plan_id":"cebpf4jnsgd1na2vs0mg"},{"bike_id":"9df403c3-53c3-47d4-91b9-94e0e8946522","system_id":"levelo_inurba_marseille","lat":43.28099,"lon":5.37839,"is_reserved":false,"is_disabled":false,"rental_uris":{"android":"levelo://app?vid=9df403c3-53c3-47d4-91b9-94e0e8946522","ios":"levelo://app?vid=9df403c3-53c3-47d4-91b9-94e0e8946522"},"vehicle_type_id":"4","last_reported":1726427171,"current_range_meters":23200,"station_id":"ce4bha12rcd13ifvqee0","pricing_plan_id":"cebpf4jnsgd1na2vs0mg"},{"bike_id":"cf705a6d-8fa3-4170-8d46-076c59b67666","system_id":"levelo_inurba_marseille","lat":43.2407,"lon":5.37763,"is_reserved":false,"is_disabled":false,"rental_uris":{"android":"levelo://app?vid=cf705a6d-8fa3-4170-8d46-076c59b67666","ios":"levelo://app?vid=cf705a6d-8fa3-4170-8d46-076c59b67666"},"vehicle_type_id":"4","last_reported":1726427171,"current_range_meters":20400,"station_id":"ce4bhnp2rcd13ifvqgvg","pricing_plan_id":"cebpf4jnsgd1na2vs0mg"},{"bike_id":"20eb087f-4278-4b34-bbd3-f69101acacae","system_id":"levelo_inurba_marseille","lat":43.29521,"lon":5.39044,"is_reserved":false,"is_disabled":false,"rental_uris":{"android":"levelo://app?vid=20eb087f-4278-4b34-bbd3-f69101acacae","ios":"levelo://app?vid=20eb087f-4278-4b34-bbd3-f69101acacae"},"vehicle_type_id":"4","last_reported":1726427171,"current_range_meters":4000,"station_id":"ce4bh3p2rcd13ifvqdp0","pricing_plan_id":"cebpf4jnsgd1na2vs0mg"},{"bike_id":"40869c76-4f82-404f-9cdf-639196b728f9","system_id":"levelo_inurba_marseille","lat":43.28557,"lon":5.39501,"is_reserved":false,"is_disabled":false,"rental_uris":{"android":"levelo://app?vid=40869c76-4f82-404f-9cdf-639196b728f9","ios":"levelo://app?vid=40869c76-4f82-404f-9cdf-639196b728f9"},"vehicle_type_id":"4","last_reported":1726427171,"current_range_meters":22400,"station_id":"ce4bh292rcd13ifvqdg0","pricing_plan_id":"cebpf4jnsgd1na2vs0mg"},{"bike_id":"33e3b5af-e6bf-4a19-9a11-ee1b8b29314e","system_id":"levelo_inurba_marseille","lat":43.32337,"lon":5.40619,"is_reserved":false,"is_disabled":false,"rental_uris":{"android":"levelo://app?vid=33e3b5af-e6bf-4a19-9a11-ee1b8b29314e","ios":"levelo://app?vid=33e3b5af-e6bf-4a19-9a11-ee1b8b29314e"},"vehicle_type_id":"4","last_reported":1726427171,"current_range_meters":3600,"station_id":"ce4bhq92rcd13ifvqhjg","pricing_plan_id":"cebpf4jnsgd1na2vs0mg"},{"bike_id":"958689e9-93d3-4caa-ad47-66f185a26470","system_id":"levelo_inurba_marseille","lat":43.31781,"lon":5.37228,"is_reserved":false,"is_disabled":false,"rental_uris":{"android":"levelo://app?vid=958689e9-93d3-4caa-ad47-66f185a26470","ios":"levelo://app?vid=958689e9-93d3-4caa-ad47-66f185a26470"},"vehicle_type_id":"4","last_reported":1726427171,"current_range_meters":6400,"station_id":"","pricing_plan_id":"cebpf4jnsgd1na2vs0mg"},{"bike_id":"82140458-3aae-4584-b03f-0279d1855882","system_id":"levelo_inurba_marseille","lat":43.2926,"lon":5.38437,"is_reserved":false,"is_disabled":false,"rental_uris":{"android":"levelo://app?vid=82140458-3aae-4584-b03f-0279d1855882","ios":"levelo://app?vid=82140458-3aae-4584-b03f-0279d1855882"},"vehicle_type_id":"4","last_reported":1726427171,"current_range_meters":38800,"station_id":"ce4bh692rcd13ifvqea0","pricing_plan_id":"cebpf4jnsgd1na2vs0mg"},{"bike_id":"83c995e2-c90d-4126-8799-3247855d0482","system_id":"levelo_inurba_marseille","lat":43.28431,"lon":5.39189,"is_reserved":false,"is_disabled":false,"rental_uris":{"android":"levelo://app?vid=83c995e2-c90d-4126-8799-3247855d0482","ios":"levelo://app?vid=83c995e2-c90d-4126-8799-3247855d0482"},"vehicle_type_id":"4","last_reported":1726427171,"current_range_meters":18000,"station_id":"ce4bhoh2rcd13ifvqh5g","pricing_plan_id":"cebpf4jnsgd1na2vs0mg"},{"bike_id":"09c8d53c-4289-4d1e-a3d4-6108388617b2","system_id":"levelo_inurba_marseille","lat":43.30783,"lon":5.37642,"is_reserved":false,"is_disabled":false,"rental_uris":{"android":"levelo://app?vid=09c8d53c-4289-4d1e-a3d4-6108388617b2","ios":"levelo://app?vid=09c8d53c-4289-4d1e-a3d4-6108388617b2"},"vehicle_type_id":"4","last_reported":1726427171,"current_range_meters":36800,"station_id":"ce4bgv92rcd13ifvqcq0","pricing_plan_id":"cebpf4jnsgd1na2vs0mg"},{"bike_id":"08aeee95-fd1e-4362-8ad9-97d06ae834ce","system_id":"levelo_inurba_marseille","lat":43.31267,"lon":5.40167,"is_reserved":false,"is_disabled":false,"rental_uris":{"android":"levelo://app?vid=08aeee95-fd1e-4362-8ad9-97d06ae834ce","ios":"levelo://app?vid=08aeee95-fd1e-4362-8ad9-97d06ae834ce"},"vehicle_type_id":"4","last_reported":1726427171,"current_range_meters":20000,"station_id":"ce4bh092rcd13ifvqd30","pricing_plan_id":"cebpf4jnsgd1na2vs0mg"},{"bike_id":"1a01e9be-b5ec-4708-9a6a-d302a65a4a05","system_id":"levelo_inurba_marseille","lat":43.32287,"lon":5.38274,"is_reserved":false,"is_disabled":false,"rental_uris":{"android":"levelo://app?vid=1a01e9be-b5ec-4708-9a6a-d302a65a4a05","ios":"levelo://app?vid=1a01e9be-b5ec-4708-9a6a-d302a65a4a05"},"vehicle_type_id":"4","last_reported":1726427171,"current_range_meters":17600,"station_id":"ce4bhr12rcd13ifvqhqg","pricing_plan_id":"cebpf4jnsgd1na2vs0mg"},{"bike_id":"25c7284e-78b0-42c0-9669-65b7960aaeea","system_id":"levelo_inurba_marseille","lat":43.29284,"lon":5.38352,"is_reserved":false,"is_disabled":false,"rental_uris":{"android":"levelo://app?vid=25c7284e-78b0-42c0-9669-65b7960aaeea","ios":"levelo://app?vid=25c7284e-78b0-42c0-9669-65b7960aaeea"},"vehicle_type_id":"4","last_reported":1726427171,"current_range_meters":11600,"station_id":"","pricing_plan_id":"cebpf4jnsgd1na2vs0mg"},{"bike_id":"8052f64d-5e41-4baf-987f-b0ed1b94f6e6","system_id":"levelo_inurba_marseille","lat":43.28076,"lon":5.3966,"is_reserved":false,"is_disabled":false,"rental_uris":{"android":"levelo://app?vid=8052f64d-5e41-4baf-987f-b0ed1b94f6e6","ios":"levelo://app?vid=8052f64d-5e41-4baf-987f-b0ed1b94f6e6"},"vehicle_type_id":"4","last_reported":1726427171,"current_range_meters":19600,"station_id":"ce4bho12rcd13ifvqh2g","pricing_plan_id":"cebpf4jnsgd1na2vs0mg"},{"bike_id":"17b83fd8-d718-49f5-9dfe-4677ada68b5c","system_id":"levelo_inurba_marseille","lat":43.30542,"lon":5.36705,"is_reserved":false,"is_disabled":false,"rental_uris":{"android":"levelo://app?vid=17b83fd8-d718-49f5-9dfe-4677ada68b5c","ios":"levelo://app?vid=17b83fd8-d718-49f5-9dfe-4677ada68b5c"},"vehicle_type_id":"4","last_reported":1726427171,"current_range_meters":10800,"station_id":"ce4bgrp2rcd13ifvqc9g","pricing_plan_id":"cebpf4jnsgd1na2vs0mg"},{"bike_id":"f79ff168-7c1f-43a6-9a48-819ae1e3b151","system_id":"levelo_inurba_marseille","lat":43.24071,"lon":5.37756,"is_reserved":false,"is_disabled":false,"rental_uris":{"android":"levelo://app?vid=f79ff168-7c1f-43a6-9a48-819ae1e3b151","ios":"levelo://app?vid=f79ff168-7c1f-43a6-9a48-819ae1e3b151"},"vehicle_type_id":"4","last_reported":1726427171,"current_range_meters":10800,"station_id":"ce4bhnp2rcd13ifvqgvg","pricing_plan_id":"cebpf4jnsgd1na2vs0mg"},{"bike_id":"3a0f783c-a38b-42d4-9fa6-620a863153fe","system_id":"levelo_inurba_marseille","lat":43.25719,"lon":5.41112,"is_reserved":false,"is_disabled":false,"rental_uris":{"android":"levelo://app?vid=3a0f783c-a38b-42d4-9fa6-620a863153fe","ios":"levelo://app?vid=3a0f783c-a38b-42d4-9fa6-620a863153fe"},"vehicle_type_id":"4","last_reported":1726427171,"current_range_meters":38800,"station_id":"ce4bhkp2rcd13ifvqgd0","pricing_plan_id":"cebpf4jnsgd1na2vs0mg"},{"bike_id":"33d7f647-3c77-4900-85cd-f62125c908a0","system_id":"levelo_inurba_marseille","lat":43.25081,"lon":5.39514,"is_reserved":false,"is_disabled":false,"rental_uris":{"android":"levelo://app?vid=33d7f647-3c77-4900-85cd-f62125c908a0","ios":"levelo://app?vid=33d7f647-3c77-4900-85cd-f62125c908a0"},"vehicle_type_id":"4","last_reported":1726427171,"current_range_meters":24400,"station_id":"ce4bhm12rcd13ifvqgkg","pricing_plan_id":"cebpf4jnsgd1na2vs0mg"},{"bike_id":"029f0ea1-5077-4b01-9417-dd5c03c6e280","system_id":"levelo_inurba_marseille","lat":43.25712,"lon":5.41113,"is_reserved":false,"is_disabled":false,"rental_uris":{"android":"levelo://app?vid=029f0ea1-5077-4b01-9417-dd5c03c6e280","ios":"levelo://app?vid=029f0ea1-5077-4b01-9417-dd5c03c6e280"},"vehicle_type_id":"4","last_reported":1726427171,"current_range_meters":38800,"station_id":"ce4bhkp2rcd13ifvqgd0","pricing_plan_id":"cebpf4jnsgd1na2vs0mg"},{"bike_id":"59b5c4ae-3ccd-4cc6-a33b-b13f89bdf698","system_id":"levelo_inurba_marseille","lat":43.299778,"lon":5.384786,"is_reserved":false,"is_disabled":false,"rental_uris":{"android":"levelo://app?vid=59b5c4ae-3ccd-4cc6-a33b-b13f89bdf698","ios":"levelo://app?vid=59b5c4ae-3ccd-4cc6-a33b-b13f89bdf698"},"vehicle_type_id":"4","last_reported":1726427171,"current_range_meters":6800,"station_id":"ce4bgj92rcd13ifvqbd0","pricing_plan_id":"cebpf4jnsgd1na2vs0mg"},{"bike_id":"f1a8d4b2-ee3e-4da6-9a8d-207546ab8baa","system_id":"levelo_inurba_marseille","lat":43.29574,"lon":5.3751,"is_reserved":false,"is_disabled":false,"rental_uris":{"android":"levelo://app?vid=f1a8d4b2-ee3e-4da6-9a8d-207546ab8baa","ios":"levelo://app?vid=f1a8d4b2-ee3e-4da6-9a8d-207546ab8baa"},"vehicle_type_id":"4","last_reported":1726427171,"current_range_meters":13600,"station_id":"ce4bgh92rcd13ifvqb50","pricing_plan_id":"cebpf4jnsgd1na2vs0mg"},{"bike_id":"19adf85e-ebbc-4c52-9a74-52799c73f607","system_id":"levelo_inurba_marseille","lat":43.30292,"lon":5.39208,"is_reserved":false,"is_disabled":false,"rental_uris":{"android":"levelo://app?vid=19adf85e-ebbc-4c52-9a74-52799c73f607","ios":"levelo://app?vid=19adf85e-ebbc-4c52-9a74-52799c73f607"},"vehicle_type_id":"4","last_reported":1726427171,"current_range_meters":38000,"station_id":"ce4bgkh2rcd13ifvqbk0","pricing_plan_id":"cebpf4jnsgd1na2vs0mg"},{"bike_id":"f0c80138-35a8-4472-9afb-e4c6f8153af2","system_id":"levelo_inurba_marseille","lat":43.31358,"lon":5.38495,"is_reserved":false,"is_disabled":false,"rental_uris":{"android":"levelo://app?vid=f0c80138-35a8-4472-9afb-e4c6f8153af2","ios":"levelo://app?vid=f0c80138-35a8-4472-9afb-e4c6f8153af2"},"vehicle_type_id":"4","last_reported":1726427171,"current_range_meters":17600,"station_id":"ce4bgt92rcd13ifvqcf0","pricing_plan_id":"cebpf4jnsgd1na2vs0mg"},{"bike_id":"ecab2b07-b455-4c0a-a787-affa632df0b6","system_id":"levelo_inurba_marseille","lat":43.29554,"lon":5.42289,"is_reserved":false,"is_disabled":false,"rental_uris":{"android":"levelo://app?vid=ecab2b07-b455-4c0a-a787-affa632df0b6","ios":"levelo://app?vid=ecab2b07-b455-4c0a-a787-affa632df0b6"},"vehicle_type_id":"4","last_reported":1726427171,"current_range_meters":20400,"station_id":"ce4bhph2rcd13ifvqhdg","pricing_plan_id":"cebpf4jnsgd1na2vs0mg"},{"bike_id":"e0578bd3-1a0e-429a-8b90-c50cda685c19","system_id":"levelo_inurba_marseille","lat":43.25821,"lon":5.3943,"is_reserved":false,"is_disabled":false,"rental_uris":{"android":"levelo://app?vid=e0578bd3-1a0e-429a-8b90-c50cda685c19","ios":"levelo://app?vid=e0578bd3-1a0e-429a-8b90-c50cda685c19"},"vehicle_type_id":"4","last_reported":1726427171,"current_range_meters":26000,"station_id":"ce4bhip2rcd13ifvqft0","pricing_plan_id":"cebpf4jnsgd1na2vs0mg"},{"bike_id":"26db0265-0a91-4c66-8aa8-67a94f7eef0d","system_id":"levelo_inurba_marseille","lat":43.26941,"lon":5.40063,"is_reserved":false,"is_disabled":false,"rental_uris":{"android":"levelo://app?vid=26db0265-0a91-4c66-8aa8-67a94f7eef0d","ios":"levelo://app?vid=26db0265-0a91-4c66-8aa8-67a94f7eef0d"},"vehicle_type_id":"4","last_reported":1726427171,"current_range_meters":8800,"station_id":"","pricing_plan_id":"cebpf4jnsgd1na2vs0mg"},{"bike_id":"f8a51900-9430-4882-b0ec-fab5477158b9","system_id":"levelo_inurba_marseille","lat":43.32333,"lon":5.40621,"is_reserved":false,"is_disabled":false,"rental_uris":{"android":"levelo://app?vid=f8a51900-9430-4882-b0ec-fab5477158b9","ios":"levelo://app?vid=f8a51900-9430-4882-b0ec-fab5477158b9"},"vehicle_type_id":"4","last_reported":1726427171,"current_range_meters":8000,"station_id":"ce4bhq92rcd13ifvqhjg","pricing_plan_id":"cebpf4jnsgd1na2vs0mg"},{"bike_id":"98146a55-0bb8-4140-892c-d49fa1ded5aa","system_id":"levelo_inurba_marseille","lat":43.28569,"lon":5.39503,"is_reserved":false,"is_disabled":false,"rental_uris":{"android":"levelo://app?vid=98146a55-0bb8-4140-892c-d49fa1ded5aa","ios":"levelo://app?vid=98146a55-0bb8-4140-892c-d49fa1ded5aa"},"vehicle_type_id":"4","last_reported":1726427171,"current_range_meters":24400,"station_id":"ce4bh292rcd13ifvqdg0","pricing_plan_id":"cebpf4jnsgd1na2vs0mg"},{"bike_id":"189b6bc1-c1a3-4f5b-a4cc-c0f641262031","system_id":"levelo_inurba_marseille","lat":43.28401,"lon":5.37525,"is_reserved":false,"is_disabled":false,"rental_uris":{"android":"levelo://app?vid=189b6bc1-c1a3-4f5b-a4cc-c0f641262031","ios":"levelo://app?vid=189b6bc1-c1a3-4f5b-a4cc-c0f641262031"},"vehicle_type_id":"4","last_reported":1726427171,"current_range_meters":30000,"station_id":"ce4bh412rcd13ifvqds0","pricing_plan_id":"cebpf4jnsgd1na2vs0mg"},{"bike_id":"b07b1ce0-8af4-41a9-a682-c0a51e6eb954","system_id":"levelo_inurba_marseille","lat":43.30307,"lon":5.36884,"is_reserved":false,"is_disabled":false,"rental_uris":{"android":"levelo://app?vid=b07b1ce0-8af4-41a9-a682-c0a51e6eb954","ios":"levelo://app?vid=b07b1ce0-8af4-41a9-a682-c0a51e6eb954"},"vehicle_type_id":"4","last_reported":1726427171,"current_range_meters":27200,"station_id":"ce4bgqh2rcd13ifvqc5g","pricing_plan_id":"cebpf4jnsgd1na2vs0mg"},{"bike_id":"fa0bba81-ae28-438c-aaa0-a2a0c9d69ac5","system_id":"levelo_inurba_marseille","lat":43.29548,"lon":5.42285,"is_reserved":false,"is_disabled":false,"rental_uris":{"android":"levelo://app?vid=fa0bba81-ae28-438c-aaa0-a2a0c9d69ac5","ios":"levelo://app?vid=fa0bba81-ae28-438c-aaa0-a2a0c9d69ac5"},"vehicle_type_id":"4","last_reported":1726427171,"current_range_meters":32800,"station_id":"ce4bhph2rcd13ifvqhdg","pricing_plan_id":"cebpf4jnsgd1na2vs0mg"},{"bike_id":"22abc786-11de-49ba-8901-022e94127ff5","system_id":"levelo_inurba_marseille","lat":43.28451,"lon":5.35887,"is_reserved":false,"is_disabled":false,"rental_uris":{"android":"levelo://app?vid=22abc786-11de-49ba-8901-022e94127ff5","ios":"levelo://app?vid=22abc786-11de-49ba-8901-022e94127ff5"},"vehicle_type_id":"4","last_reported":1726427171,"current_range_meters":38800,"station_id":"ce4bhah2rcd13ifvqei0","pricing_plan_id":"cebpf4jnsgd1na2vs0mg"},{"bike_id":"415b13fd-de58-480c-861b-9f42d1eebf31","system_id":"levelo_inurba_marseille","lat":43.30413,"lon":5.41288,"is_reserved":false,"is_disabled":false,"rental_uris":{"android":"levelo://app?vid=415b13fd-de58-480c-861b-9f42d1eebf31","ios":"levelo://app?vid=415b13fd-de58-480c-861b-9f42d1eebf31"},"vehicle_type_id":"4","last_reported":1726427171,"current_range_meters":36000,"station_id":"ce4bhop2rcd13ifvqh8g","pricing_plan_id":"cebpf4jnsgd1na2vs0mg"},{"bike_id":"9a3ff2d9-dcab-48e6-9ccd-acffc216205f","system_id":"levelo_inurba_marseille","lat":43.28258,"lon":5.35086,"is_reserved":false,"is_disabled":false,"rental_uris":{"android":"levelo://app?vid=9a3ff2d9-dcab-48e6-9ccd-acffc216205f","ios":"levelo://app?vid=9a3ff2d9-dcab-48e6-9ccd-acffc216205f"},"vehicle_type_id":"4","last_reported":1726427171,"current_range_meters":38800,"station_id":"ce4bhbp2rcd13ifvqerg","pricing_plan_id":"cebpf4jnsgd1na2vs0mg"},{"bike_id":"54d5f88b-77d9-4f86-838c-83c23612c543","system_id":"levelo_inurba_marseille","lat":43.31345,"lon":5.36714,"is_reserved":false,"is_disabled":false,"rental_uris":{"android":"levelo://app?vid=54d5f88b-77d9-4f86-838c-83c23612c543","ios":"levelo://app?vid=54d5f88b-77d9-4f86-838c-83c23612c543"},"vehicle_type_id":"4","last_reported":1726427171,"current_range_meters":38000,"station_id":"ce4bgr92rcd13ifvqc6g","pricing_plan_id":"cebpf4jnsgd1na2vs0mg"},{"bike_id":"734240c6-29e1-4ec6-9380-37be44386dff","system_id":"levelo_inurba_marseille","lat":43.31696,"lon":5.4047,"is_reserved":false,"is_disabled":false,"rental_uris":{"android":"levelo://app?vid=734240c6-29e1-4ec6-9380-37be44386dff","ios":"levelo://app?vid=734240c6-29e1-4ec6-9380-37be44386dff"},"vehicle_type_id":"4","last_reported":1726427171,"current_range_meters":40000,"station_id":"ce4bh012rcd13ifvqd00","pricing_plan_id":"cebpf4jnsgd1na2vs0mg"},{"bike_id":"72d7f52f-1f06-4c9f-bc6d-1cde49746e8f","system_id":"levelo_inurba_marseille","lat":43.28476,"lon":5.383969,"is_reserved":false,"is_disabled":false,"rental_uris":{"android":"levelo://app?vid=72d7f52f-1f06-4c9f-bc6d-1cde49746e8f","ios":"levelo://app?vid=72d7f52f-1f06-4c9f-bc6d-1cde49746e8f"},"vehicle_type_id":"4","last_reported":1726427171,"current_range_meters":24800,"station_id":"ce4bh512rcd13ifvqe3g","pricing_plan_id":"cebpf4jnsgd1na2vs0mg"},{"bike_id":"1134581e-f810-461e-b37e-c93b04fe2c0f","system_id":"levelo_inurba_marseille","lat":43.30254,"lon":5.40087,"is_reserved":false,"is_disabled":false,"rental_uris":{"android":"levelo://app?vid=1134581e-f810-461e-b37e-c93b04fe2c0f","ios":"levelo://app?vid=1134581e-f810-461e-b37e-c93b04fe2c0f"},"vehicle_type_id":"4","last_reported":1726427171,"current_range_meters":20400,"station_id":"ce4bgvh2rcd13ifvqcs0","pricing_plan_id":"cebpf4jnsgd1na2vs0mg"},{"bike_id":"28606dd2-d697-43cc-8a7b-3d972d1bfad5","system_id":"levelo_inurba_marseille","lat":43.28464,"lon":5.35894,"is_reserved":false,"is_disabled":false,"rental_uris":{"android":"levelo://app?vid=28606dd2-d697-43cc-8a7b-3d972d1bfad5","ios":"levelo://app?vid=28606dd2-d697-43cc-8a7b-3d972d1bfad5"},"vehicle_type_id":"4","last_reported":1726427171,"current_range_meters":14400,"station_id":"ce4bhah2rcd13ifvqei0","pricing_plan_id":"cebpf4jnsgd1na2vs0mg"},{"bike_id":"8f979555-d0d6-4c8f-9fce-0747a350b182","system_id":"levelo_inurba_marseille","lat":43.28707,"lon":5.37924,"is_reserved":false,"is_disabled":false,"rental_uris":{"android":"levelo://app?vid=8f979555-d0d6-4c8f-9fce-0747a350b182","ios":"levelo://app?vid=8f979555-d0d6-4c8f-9fce-0747a350b182"},"vehicle_type_id":"4","last_reported":1726427171,"current_range_meters":38800,"station_id":"ce4bh9p2rcd13ifvqec0","pricing_plan_id":"cebpf4jnsgd1na2vs0mg"},{"bike_id":"e25427e0-6ffd-4bb2-8d0f-05b9a72e43de","system_id":"levelo_inurba_marseille","lat":43.292496,"lon":5.384026,"is_reserved":false,"is_disabled":false,"rental_uris":{"android":"levelo://app?vid=e25427e0-6ffd-4bb2-8d0f-05b9a72e43de","ios":"levelo://app?vid=e25427e0-6ffd-4bb2-8d0f-05b9a72e43de"},"vehicle_type_id":"4","last_reported":1726427171,"current_range_meters":30000,"station_id":"ce4bh692rcd13ifvqea0","pricing_plan_id":"cebpf4jnsgd1na2vs0mg"},{"bike_id":"b1db6496-7d7b-4acc-a88c-e5406d38e100","system_id":"levelo_inurba_marseille","lat":43.23194,"lon":5.35557,"is_reserved":false,"is_disabled":false,"rental_uris":{"android":"levelo://app?vid=b1db6496-7d7b-4acc-a88c-e5406d38e100","ios":"levelo://app?vid=b1db6496-7d7b-4acc-a88c-e5406d38e100"},"vehicle_type_id":"4","last_reported":1726427171,"current_range_meters":36000,"station_id":"ce4bhu92rcd13ifvqi70","pricing_plan_id":"cebpf4jnsgd1na2vs0mg"},{"bike_id":"ee721f16-71d0-49c8-9da4-858f78b55bcb","system_id":"levelo_inurba_marseille","lat":43.25938,"lon":5.40902,"is_reserved":false,"is_disabled":false,"rental_uris":{"android":"levelo://app?vid=ee721f16-71d0-49c8-9da4-858f78b55bcb","ios":"levelo://app?vid=ee721f16-71d0-49c8-9da4-858f78b55bcb"},"vehicle_type_id":"4","last_reported":1726427171,"current_range_meters":24800,"station_id":"ce4bhm92rcd13ifvqglg","pricing_plan_id":"cebpf4jnsgd1na2vs0mg"},{"bike_id":"826f4136-a005-4203-8c5f-7808e18dcf00","system_id":"levelo_inurba_marseille","lat":43.29551,"lon":5.4229,"is_reserved":false,"is_disabled":false,"rental_uris":{"android":"levelo://app?vid=826f4136-a005-4203-8c5f-7808e18dcf00","ios":"levelo://app?vid=826f4136-a005-4203-8c5f-7808e18dcf00"},"vehicle_type_id":"4","last_reported":1726427171,"current_range_meters":7200,"station_id":"ce4bhph2rcd13ifvqhdg","pricing_plan_id":"cebpf4jnsgd1na2vs0mg"},{"bike_id":"4aa8fffc-3009-4aac-a523-81d25af77ad2","system_id":"levelo_inurba_marseille","lat":43.28409,"lon":5.3751,"is_reserved":false,"is_disabled":false,"rental_uris":{"android":"levelo://app?vid=4aa8fffc-3009-4aac-a523-81d25af77ad2","ios":"levelo://app?vid=4aa8fffc-3009-4aac-a523-81d25af77ad2"},"vehicle_type_id":"4","last_reported":1726427171,"current_range_meters":30800,"station_id":"ce4bh412rcd13ifvqds0","pricing_plan_id":"cebpf4jnsgd1na2vs0mg"},{"bike_id":"48ebd6d9-4973-4a9e-878f-e22bf714baf1","system_id":"levelo_inurba_marseille","lat":43.29254,"lon":5.3844,"is_reserved":false,"is_disabled":false,"rental_uris":{"android":"levelo://app?vid=48ebd6d9-4973-4a9e-878f-e22bf714baf1","ios":"levelo://app?vid=48ebd6d9-4973-4a9e-878f-e22bf714baf1"},"vehicle_type_id":"4","last_reported":1726427171,"current_range_meters":16000,"station_id":"ce4bh692rcd13ifvqea0","pricing_plan_id":"cebpf4jnsgd1na2vs0mg"},{"bike_id":"5cf4c2f1-f092-4550-b8cf-369099ebc3bc","system_id":"levelo_inurba_marseille","lat":43.24568,"lon":5.41551,"is_reserved":false,"is_disabled":false,"rental_uris":{"android":"levelo://app?vid=5cf4c2f1-f092-4550-b8cf-369099ebc3bc","ios":"levelo://app?vid=5cf4c2f1-f092-4550-b8cf-369099ebc3bc"},"vehicle_type_id":"4","last_reported":1726427171,"current_range_meters":12400,"station_id":"ce4bhlh2rcd13ifvqgig","pricing_plan_id":"cebpf4jnsgd1na2vs0mg"},{"bike_id":"4721e0a5-8c0a-4c61-91fb-10c3ba183135","system_id":"levelo_inurba_marseille","lat":43.24074,"lon":5.37764,"is_reserved":false,"is_disabled":false,"rental_uris":{"android":"levelo://app?vid=4721e0a5-8c0a-4c61-91fb-10c3ba183135","ios":"levelo://app?vid=4721e0a5-8c0a-4c61-91fb-10c3ba183135"},"vehicle_type_id":"4","last_reported":1726427171,"current_range_meters":12400,"station_id":"ce4bhnp2rcd13ifvqgvg","pricing_plan_id":"cebpf4jnsgd1na2vs0mg"},{"bike_id":"af14ea28-99c8-4f02-9e97-70bdea229624","system_id":"levelo_inurba_marseille","lat":43.31327,"lon":5.39699,"is_reserved":false,"is_disabled":false,"rental_uris":{"android":"levelo://app?vid=af14ea28-99c8-4f02-9e97-70bdea229624","ios":"levelo://app?vid=af14ea28-99c8-4f02-9e97-70bdea229624"},"vehicle_type_id":"4","last_reported":1726427171,"current_range_meters":29600,"station_id":"ce4bgvp2rcd13ifvqcu0","pricing_plan_id":"cebpf4jnsgd1na2vs0mg"},{"bike_id":"d12afbcf-c3e3-43c2-89a1-1023e91bddb8","system_id":"levelo_inurba_marseille","lat":43.29794,"lon":5.38089,"is_reserved":false,"is_disabled":false,"rental_uris":{"android":"levelo://app?vid=d12afbcf-c3e3-43c2-89a1-1023e91bddb8","ios":"levelo://app?vid=d12afbcf-c3e3-43c2-89a1-1023e91bddb8"},"vehicle_type_id":"4","last_reported":1726427171,"current_range_meters":20800,"station_id":"ce4bgip2rcd13ifvqbb0","pricing_plan_id":"cebpf4jnsgd1na2vs0mg"},{"bike_id":"b3aafc82-a09b-4903-b7bb-2be6831d12dc","system_id":"levelo_inurba_marseille","lat":43.301819,"lon":5.366112,"is_reserved":false,"is_disabled":false,"rental_uris":{"android":"levelo://app?vid=b3aafc82-a09b-4903-b7bb-2be6831d12dc","ios":"levelo://app?vid=b3aafc82-a09b-4903-b7bb-2be6831d12dc"},"vehicle_type_id":"4","last_reported":1726427171,"current_range_meters":11200,"station_id":"ce4bgrh2rcd13ifvqc8g","pricing_plan_id":"cebpf4jnsgd1na2vs0mg"},{"bike_id":"b3296071-3ee4-4cd4-a9c0-ea1b11b66293","system_id":"levelo_inurba_marseille","lat":43.3215,"lon":5.38741,"is_reserved":false,"is_disabled":false,"rental_uris":{"android":"levelo://app?vid=b3296071-3ee4-4cd4-a9c0-ea1b11b66293","ios":"levelo://app?vid=b3296071-3ee4-4cd4-a9c0-ea1b11b66293"},"vehicle_type_id":"4","last_reported":1726427171,"current_range_meters":8800,"station_id":"","pricing_plan_id":"cebpf4jnsgd1na2vs0mg"},{"bike_id":"b645ac77-0d58-4fa9-8ad3-947af8bdb1d9","system_id":"levelo_inurba_marseille","lat":43.299,"lon":5.43665,"is_reserved":false,"is_disabled":false,"rental_uris":{"android":"levelo://app?vid=b645ac77-0d58-4fa9-8ad3-947af8bdb1d9","ios":"levelo://app?vid=b645ac77-0d58-4fa9-8ad3-947af8bdb1d9"},"vehicle_type_id":"4","last_reported":1726427171,"current_range_meters":32800,"station_id":"ce4bhpp2rcd13ifvqhfg","pricing_plan_id":"cebpf4jnsgd1na2vs0mg"},{"bike_id":"03515e55-0de8-4f6d-953a-abbf71a9cce4","system_id":"levelo_inurba_marseille","lat":43.24071,"lon":5.37759,"is_reserved":false,"is_disabled":false,"rental_uris":{"android":"levelo://app?vid=03515e55-0de8-4f6d-953a-abbf71a9cce4","ios":"levelo://app?vid=03515e55-0de8-4f6d-953a-abbf71a9cce4"},"vehicle_type_id":"4","last_reported":1726427171,"current_range_meters":16000,"station_id":"ce4bhnp2rcd13ifvqgvg","pricing_plan_id":"cebpf4jnsgd1na2vs0mg"},{"bike_id":"2fb0a951-68fe-4eaa-acb1-d7887bf01ff7","system_id":"levelo_inurba_marseille","lat":43.29563,"lon":5.37525,"is_reserved":false,"is_disabled":false,"rental_uris":{"android":"levelo://app?vid=2fb0a951-68fe-4eaa-acb1-d7887bf01ff7","ios":"levelo://app?vid=2fb0a951-68fe-4eaa-acb1-d7887bf01ff7"},"vehicle_type_id":"4","last_reported":1726427171,"current_range_meters":35600,"station_id":"ce4bgh92rcd13ifvqb50","pricing_plan_id":"cebpf4jnsgd1na2vs0mg"},{"bike_id":"7abc2a25-404a-4f70-a7c0-c89315b5c4bc","system_id":"levelo_inurba_marseille","lat":43.29058,"lon":5.40556,"is_reserved":false,"is_disabled":false,"rental_uris":{"android":"levelo://app?vid=7abc2a25-404a-4f70-a7c0-c89315b5c4bc","ios":"levelo://app?vid=7abc2a25-404a-4f70-a7c0-c89315b5c4bc"},"vehicle_type_id":"4","last_reported":1726427171,"current_range_meters":28000,"station_id":"","pricing_plan_id":"cebpf4jnsgd1na2vs0mg"},{"bike_id":"8aa4fefd-c592-43d8-b310-3b55b8a70543","system_id":"levelo_inurba_marseille","lat":43.283518,"lon":5.386483,"is_reserved":false,"is_disabled":false,"rental_uris":{"android":"levelo://app?vid=8aa4fefd-c592-43d8-b310-3b55b8a70543","ios":"levelo://app?vid=8aa4fefd-c592-43d8-b310-3b55b8a70543"},"vehicle_type_id":"4","last_reported":1726427171,"current_range_meters":3200,"station_id":"ce4bh492rcd13ifvqdvg","pricing_plan_id":"cebpf4jnsgd1na2vs0mg"},{"bike_id":"7646c591-ba02-4a98-a2f6-74af65491dc1","system_id":"levelo_inurba_marseille","lat":43.27991,"lon":5.4003,"is_reserved":false,"is_disabled":false,"rental_uris":{"android":"levelo://app?vid=7646c591-ba02-4a98-a2f6-74af65491dc1","ios":"levelo://app?vid=7646c591-ba02-4a98-a2f6-74af65491dc1"},"vehicle_type_id":"4","last_reported":1726427171,"current_range_meters":34000,"station_id":"ce4bho92rcd13ifvqh4g","pricing_plan_id":"cebpf4jnsgd1na2vs0mg"},{"bike_id":"677498c9-746b-4650-9a8e-2c7479635944","system_id":"levelo_inurba_marseille","lat":43.33023,"lon":5.39044,"is_reserved":false,"is_disabled":false,"rental_uris":{"android":"levelo://app?vid=677498c9-746b-4650-9a8e-2c7479635944","ios":"levelo://app?vid=677498c9-746b-4650-9a8e-2c7479635944"},"vehicle_type_id":"4","last_reported":1726427171,"current_range_meters":31200,"station_id":"ce4bhr92rcd13ifvqhrg","pricing_plan_id":"cebpf4jnsgd1na2vs0mg"},{"bike_id":"0dc4fcd0-fa14-47bc-8685-5cbcb19b70cd","system_id":"levelo_inurba_marseille","lat":43.28697,"lon":5.39985,"is_reserved":false,"is_disabled":false,"rental_uris":{"android":"levelo://app?vid=0dc4fcd0-fa14-47bc-8685-5cbcb19b70cd","ios":"levelo://app?vid=0dc4fcd0-fa14-47bc-8685-5cbcb19b70cd"},"vehicle_type_id":"4","last_reported":1726427171,"current_range_meters":39200,"station_id":"ce4bho92rcd13ifvqh3g","pricing_plan_id":"cebpf4jnsgd1na2vs0mg"},{"bike_id":"ae9dfe45-5da3-46c3-8019-d38239e72c74","system_id":"levelo_inurba_marseille","lat":43.27993,"lon":5.41664,"is_reserved":false,"is_disabled":false,"rental_uris":{"android":"levelo://app?vid=ae9dfe45-5da3-46c3-8019-d38239e72c74","ios":"levelo://app?vid=ae9dfe45-5da3-46c3-8019-d38239e72c74"},"vehicle_type_id":"4","last_reported":1726427171,"current_range_meters":2800,"station_id":"ce4bho12rcd13ifvqh1g","pricing_plan_id":"cebpf4jnsgd1na2vs0mg"},{"bike_id":"c0042362-d76e-412e-8000-c06d63ef023d","system_id":"levelo_inurba_marseille","lat":43.29045,"lon":5.35919,"is_reserved":false,"is_disabled":false,"rental_uris":{"android":"levelo://app?vid=c0042362-d76e-412e-8000-c06d63ef023d","ios":"levelo://app?vid=c0042362-d76e-412e-8000-c06d63ef023d"},"vehicle_type_id":"4","last_reported":1726427171,"current_range_meters":38800,"station_id":"ce4bha92rcd13ifvqeg0","pricing_plan_id":"cebpf4jnsgd1na2vs0mg"},{"bike_id":"cf028563-d17e-4a71-83c1-f6497bd0743b","system_id":"levelo_inurba_marseille","lat":43.311707,"lon":5.387236,"is_reserved":false,"is_disabled":false,"rental_uris":{"android":"levelo://app?vid=cf028563-d17e-4a71-83c1-f6497bd0743b","ios":"levelo://app?vid=cf028563-d17e-4a71-83c1-f6497bd0743b"},"vehicle_type_id":"4","last_reported":1726427171,"current_range_meters":19600,"station_id":"ce4bgv12rcd13ifvqcp0","pricing_plan_id":"cebpf4jnsgd1na2vs0mg"},{"bike_id":"f0882d74-8aef-4065-baa9-8227137f8ddf","system_id":"levelo_inurba_marseille","lat":43.28851,"lon":5.39313,"is_reserved":false,"is_disabled":false,"rental_uris":{"android":"levelo://app?vid=f0882d74-8aef-4065-baa9-8227137f8ddf","ios":"levelo://app?vid=f0882d74-8aef-4065-baa9-8227137f8ddf"},"vehicle_type_id":"4","last_reported":1726427171,"current_range_meters":38800,"station_id":"ce4bh2p2rcd13ifvqdi0","pricing_plan_id":"cebpf4jnsgd1na2vs0mg"},{"bike_id":"a1fd93be-9189-4d8f-bc5f-8b82d66d4441","system_id":"levelo_inurba_marseille","lat":43.24665,"lon":5.38163,"is_reserved":false,"is_disabled":false,"rental_uris":{"android":"levelo://app?vid=a1fd93be-9189-4d8f-bc5f-8b82d66d4441","ios":"levelo://app?vid=a1fd93be-9189-4d8f-bc5f-8b82d66d4441"},"vehicle_type_id":"4","last_reported":1726427171,"current_range_meters":39200,"station_id":"ce4bhih2rcd13ifvqfr0","pricing_plan_id":"cebpf4jnsgd1na2vs0mg"},{"bike_id":"59c2c49a-1762-42b4-9559-0e22c089f63b","system_id":"levelo_inurba_marseille","lat":43.25114,"lon":5.40319,"is_reserved":false,"is_disabled":false,"rental_uris":{"android":"levelo://app?vid=59c2c49a-1762-42b4-9559-0e22c089f63b","ios":"levelo://app?vid=59c2c49a-1762-42b4-9559-0e22c089f63b"},"vehicle_type_id":"4","last_reported":1726427171,"current_range_meters":26000,"station_id":"ce4bhlh2rcd13ifvqgig","pricing_plan_id":"cebpf4jnsgd1na2vs0mg"},{"bike_id":"beab53ff-70cd-4efb-8751-5f79fcc636ef","system_id":"levelo_inurba_marseille","lat":43.29896,"lon":5.43668,"is_reserved":false,"is_disabled":false,"rental_uris":{"android":"levelo://app?vid=beab53ff-70cd-4efb-8751-5f79fcc636ef","ios":"levelo://app?vid=beab53ff-70cd-4efb-8751-5f79fcc636ef"},"vehicle_type_id":"4","last_reported":1726427171,"current_range_meters":2800,"station_id":"ce4bhpp2rcd13ifvqhfg","pricing_plan_id":"cebpf4jnsgd1na2vs0mg"},{"bike_id":"e26cdc24-c624-4d47-b139-36e9c5ec5975","system_id":"levelo_inurba_marseille","lat":43.28571,"lon":5.39495,"is_reserved":false,"is_disabled":false,"rental_uris":{"android":"levelo://app?vid=e26cdc24-c624-4d47-b139-36e9c5ec5975","ios":"levelo://app?vid=e26cdc24-c624-4d47-b139-36e9c5ec5975"},"vehicle_type_id":"4","last_reported":1726427171,"current_range_meters":24800,"station_id":"ce4bh292rcd13ifvqdg0","pricing_plan_id":"cebpf4jnsgd1na2vs0mg"},{"bike_id":"157a4b55-096e-486e-bc1f-0e234c301f3a","system_id":"levelo_inurba_marseille","lat":43.24801,"lon":5.37458,"is_reserved":false,"is_disabled":false,"rental_uris":{"android":"levelo://app?vid=157a4b55-096e-486e-bc1f-0e234c301f3a","ios":"levelo://app?vid=157a4b55-096e-486e-bc1f-0e234c301f3a"},"vehicle_type_id":"4","last_reported":1726427171,"current_range_meters":30800,"station_id":"ce4bhgh2rcd13ifvqfb0","pricing_plan_id":"cebpf4jnsgd1na2vs0mg"},{"bike_id":"2b51f057-3d88-46eb-8d2b-f57e8e47a46b","system_id":"levelo_inurba_marseille","lat":43.28703,"lon":5.37366,"is_reserved":false,"is_disabled":false,"rental_uris":{"android":"levelo://app?vid=2b51f057-3d88-46eb-8d2b-f57e8e47a46b","ios":"levelo://app?vid=2b51f057-3d88-46eb-8d2b-f57e8e47a46b"},"vehicle_type_id":"4","last_reported":1726427171,"current_range_meters":39200,"station_id":"ce4bh3p2rcd13ifvqdq0","pricing_plan_id":"cebpf4jnsgd1na2vs0mg"},{"bike_id":"58286d15-9785-4010-942d-ccd63c6b2535","system_id":"levelo_inurba_marseille","lat":43.27985,"lon":5.41651,"is_reserved":false,"is_disabled":false,"rental_uris":{"android":"levelo://app?vid=58286d15-9785-4010-942d-ccd63c6b2535","ios":"levelo://app?vid=58286d15-9785-4010-942d-ccd63c6b2535"},"vehicle_type_id":"4","last_reported":1726427171,"current_range_meters":26800,"station_id":"ce4bho12rcd13ifvqh1g","pricing_plan_id":"cebpf4jnsgd1na2vs0mg"},{"bike_id":"23d7e93e-4d91-456b-9662-18ad55fc5712","system_id":"levelo_inurba_marseille","lat":43.28349,"lon":5.38112,"is_reserved":false,"is_disabled":false,"rental_uris":{"android":"levelo://app?vid=23d7e93e-4d91-456b-9662-18ad55fc5712","ios":"levelo://app?vid=23d7e93e-4d91-456b-9662-18ad55fc5712"},"vehicle_type_id":"4","last_reported":1726427171,"current_range_meters":22800,"station_id":"ce4bh412rcd13ifvqdr0","pricing_plan_id":"cebpf4jnsgd1na2vs0mg"},{"bike_id":"3709e871-70a4-471a-a01b-eee384645ff0","system_id":"levelo_inurba_marseille","lat":43.31718,"lon":5.42415,"is_reserved":false,"is_disabled":false,"rental_uris":{"android":"levelo://app?vid=3709e871-70a4-471a-a01b-eee384645ff0","ios":"levelo://app?vid=3709e871-70a4-471a-a01b-eee384645ff0"},"vehicle_type_id":"4","last_reported":1726427171,"current_range_meters":38800,"station_id":"ce4bhp92rcd13ifvqhbg","pricing_plan_id":"cebpf4jnsgd1na2vs0mg"},{"bike_id":"b0363f9d-59ce-48c4-ae28-686464acd852","system_id":"levelo_inurba_marseille","lat":43.31493,"lon":5.37306,"is_reserved":false,"is_disabled":false,"rental_uris":{"android":"levelo://app?vid=b0363f9d-59ce-48c4-ae28-686464acd852","ios":"levelo://app?vid=b0363f9d-59ce-48c4-ae28-686464acd852"},"vehicle_type_id":"4","last_reported":1726427171,"current_range_meters":37600,"station_id":"ce4bgt12rcd13ifvqcd0","pricing_plan_id":"cebpf4jnsgd1na2vs0mg"},{"bike_id":"12b76948-bd92-42ee-b359-c6fef93aba38","system_id":"levelo_inurba_marseille","lat":43.25722,"lon":5.41114,"is_reserved":false,"is_disabled":false,"rental_uris":{"android":"levelo://app?vid=12b76948-bd92-42ee-b359-c6fef93aba38","ios":"levelo://app?vid=12b76948-bd92-42ee-b359-c6fef93aba38"},"vehicle_type_id":"4","last_reported":1726427171,"current_range_meters":8000,"station_id":"ce4bhkp2rcd13ifvqgd0","pricing_plan_id":"cebpf4jnsgd1na2vs0mg"},{"bike_id":"dde9add0-5c35-4eef-ba65-19df115b9389","system_id":"levelo_inurba_marseille","lat":43.28694,"lon":5.37395,"is_reserved":false,"is_disabled":false,"rental_uris":{"android":"levelo://app?vid=dde9add0-5c35-4eef-ba65-19df115b9389","ios":"levelo://app?vid=dde9add0-5c35-4eef-ba65-19df115b9389"},"vehicle_type_id":"4","last_reported":1726427171,"current_range_meters":24800,"station_id":"ce4bh3p2rcd13ifvqdq0","pricing_plan_id":"cebpf4jnsgd1na2vs0mg"},{"bike_id":"fec350e5-27d7-4eac-afb2-922e42f8467a","system_id":"levelo_inurba_marseille","lat":43.2925,"lon":5.38449,"is_reserved":false,"is_disabled":false,"rental_uris":{"android":"levelo://app?vid=fec350e5-27d7-4eac-afb2-922e42f8467a","ios":"levelo://app?vid=fec350e5-27d7-4eac-afb2-922e42f8467a"},"vehicle_type_id":"4","last_reported":1726427171,"current_range_meters":18000,"station_id":"ce4bh692rcd13ifvqea0","pricing_plan_id":"cebpf4jnsgd1na2vs0mg"},{"bike_id":"68bc764f-b42a-4124-a878-40c92c27c47d","system_id":"levelo_inurba_marseille","lat":43.31756,"lon":5.3902,"is_reserved":false,"is_disabled":false,"rental_uris":{"android":"levelo://app?vid=68bc764f-b42a-4124-a878-40c92c27c47d","ios":"levelo://app?vid=68bc764f-b42a-4124-a878-40c92c27c47d"},"vehicle_type_id":"4","last_reported":1726427171,"current_range_meters":36000,"station_id":"ce4bhqp2rcd13ifvqhng","pricing_plan_id":"cebpf4jnsgd1na2vs0mg"},{"bike_id":"a9a24f85-f7ae-4a06-b94a-e9e63f6718bb","system_id":"levelo_inurba_marseille","lat":43.29017,"lon":5.38643,"is_reserved":false,"is_disabled":false,"rental_uris":{"android":"levelo://app?vid=a9a24f85-f7ae-4a06-b94a-e9e63f6718bb","ios":"levelo://app?vid=a9a24f85-f7ae-4a06-b94a-e9e63f6718bb"},"vehicle_type_id":"4","last_reported":1726427171,"current_range_meters":15200,"station_id":"ce4bh4p2rcd13ifvqe0g","pricing_plan_id":"cebpf4jnsgd1na2vs0mg"},{"bike_id":"3706c829-e221-4120-bd51-24e7bea22aa8","system_id":"levelo_inurba_marseille","lat":43.27957,"lon":5.38716,"is_reserved":false,"is_disabled":false,"rental_uris":{"android":"levelo://app?vid=3706c829-e221-4120-bd51-24e7bea22aa8","ios":"levelo://app?vid=3706c829-e221-4120-bd51-24e7bea22aa8"},"vehicle_type_id":"4","last_reported":1726427171,"current_range_meters":38800,"station_id":"ce4bhg12rcd13ifvqf80","pricing_plan_id":"cebpf4jnsgd1na2vs0mg"},{"bike_id":"072cde95-f7e9-4d24-b101-b47bc456a189","system_id":"levelo_inurba_marseille","lat":43.2891,"lon":5.38406,"is_reserved":false,"is_disabled":false,"rental_uris":{"android":"levelo://app?vid=072cde95-f7e9-4d24-b101-b47bc456a189","ios":"levelo://app?vid=072cde95-f7e9-4d24-b101-b47bc456a189"},"vehicle_type_id":"4","last_reported":1726427171,"current_range_meters":30400,"station_id":"ce4bh612rcd13ifvqe6g","pricing_plan_id":"cebpf4jnsgd1na2vs0mg"},{"bike_id":"5cc3b4c6-8e3f-4d20-a577-d2f5ce9f95fd","system_id":"levelo_inurba_marseille","lat":43.29893,"lon":5.43655,"is_reserved":false,"is_disabled":false,"rental_uris":{"android":"levelo://app?vid=5cc3b4c6-8e3f-4d20-a577-d2f5ce9f95fd","ios":"levelo://app?vid=5cc3b4c6-8e3f-4d20-a577-d2f5ce9f95fd"},"vehicle_type_id":"4","last_reported":1726427171,"current_range_meters":17600,"station_id":"ce4bhpp2rcd13ifvqhfg","pricing_plan_id":"cebpf4jnsgd1na2vs0mg"},{"bike_id":"be6a7145-0791-40f8-a3e4-321fb362448d","system_id":"levelo_inurba_marseille","lat":43.27492,"lon":5.42452,"is_reserved":false,"is_disabled":false,"rental_uris":{"android":"levelo://app?vid=be6a7145-0791-40f8-a3e4-321fb362448d","ios":"levelo://app?vid=be6a7145-0791-40f8-a3e4-321fb362448d"},"vehicle_type_id":"4","last_reported":1726427171,"current_range_meters":7200,"station_id":"ce4bhn92rcd13ifvqgrg","pricing_plan_id":"cebpf4jnsgd1na2vs0mg"},{"bike_id":"cbfb2c21-43bc-45c1-8027-96ca986f0d8c","system_id":"levelo_inurba_marseille","lat":43.32033,"lon":5.41554,"is_reserved":false,"is_disabled":false,"rental_uris":{"android":"levelo://app?vid=cbfb2c21-43bc-45c1-8027-96ca986f0d8c","ios":"levelo://app?vid=cbfb2c21-43bc-45c1-8027-96ca986f0d8c"},"vehicle_type_id":"4","last_reported":1726427171,"current_range_meters":19600,"station_id":"ce4bhq92rcd13ifvqhkg","pricing_plan_id":"cebpf4jnsgd1na2vs0mg"},{"bike_id":"a265eb93-a8ff-4ed4-a578-edcaf57acfe8","system_id":"levelo_inurba_marseille","lat":43.30124,"lon":5.39839,"is_reserved":false,"is_disabled":false,"rental_uris":{"android":"levelo://app?vid=a265eb93-a8ff-4ed4-a578-edcaf57acfe8","ios":"levelo://app?vid=a265eb93-a8ff-4ed4-a578-edcaf57acfe8"},"vehicle_type_id":"4","last_reported":1726427171,"current_range_meters":7200,"station_id":"ce4bh0h2rcd13ifvqd40","pricing_plan_id":"cebpf4jnsgd1na2vs0mg"},{"bike_id":"6ad2fe94-195b-4d58-9ac6-d3a9675a4c80","system_id":"levelo_inurba_marseille","lat":43.23066,"lon":5.35492,"is_reserved":false,"is_disabled":false,"rental_uris":{"android":"levelo://app?vid=6ad2fe94-195b-4d58-9ac6-d3a9675a4c80","ios":"levelo://app?vid=6ad2fe94-195b-4d58-9ac6-d3a9675a4c80"},"vehicle_type_id":"4","last_reported":1726427171,"current_range_meters":20800,"station_id":"cpo3342slgdg3j2ifvpg","pricing_plan_id":"cebpf4jnsgd1na2vs0mg"},{"bike_id":"cee64eec-d08b-4ed5-8d8c-4389e98dc7ef","system_id":"levelo_inurba_marseille","lat":43.32478,"lon":5.36563,"is_reserved":false,"is_disabled":false,"rental_uris":{"android":"levelo://app?vid=cee64eec-d08b-4ed5-8d8c-4389e98dc7ef","ios":"levelo://app?vid=cee64eec-d08b-4ed5-8d8c-4389e98dc7ef"},"vehicle_type_id":"4","last_reported":1726427171,"current_range_meters":3600,"station_id":"ce4bhs12rcd13ifvqhvg","pricing_plan_id":"cebpf4jnsgd1na2vs0mg"},{"bike_id":"ed395158-49bb-4ed0-a30f-caaeb4a15a1c","system_id":"levelo_inurba_marseille","lat":43.24077,"lon":5.37753,"is_reserved":false,"is_disabled":false,"rental_uris":{"android":"levelo://app?vid=ed395158-49bb-4ed0-a30f-caaeb4a15a1c","ios":"levelo://app?vid=ed395158-49bb-4ed0-a30f-caaeb4a15a1c"},"vehicle_type_id":"4","last_reported":1726427171,"current_range_meters":11600,"station_id":"ce4bhnp2rcd13ifvqgvg","pricing_plan_id":"cebpf4jnsgd1na2vs0mg"},{"bike_id":"8fd7b1c5-b548-48b1-9a55-be35dd3453c1","system_id":"levelo_inurba_marseille","lat":43.31786,"lon":5.38991,"is_reserved":false,"is_disabled":false,"rental_uris":{"android":"levelo://app?vid=8fd7b1c5-b548-48b1-9a55-be35dd3453c1","ios":"levelo://app?vid=8fd7b1c5-b548-48b1-9a55-be35dd3453c1"},"vehicle_type_id":"4","last_reported":1726427171,"current_range_meters":13600,"station_id":"ce4bhqp2rcd13ifvqhng","pricing_plan_id":"cebpf4jnsgd1na2vs0mg"},{"bike_id":"fd37d85e-2f58-4c1e-b767-ba4724637168","system_id":"levelo_inurba_marseille","lat":43.29261,"lon":5.40899,"is_reserved":false,"is_disabled":false,"rental_uris":{"android":"levelo://app?vid=fd37d85e-2f58-4c1e-b767-ba4724637168","ios":"levelo://app?vid=fd37d85e-2f58-4c1e-b767-ba4724637168"},"vehicle_type_id":"4","last_reported":1726427171,"current_range_meters":4400,"station_id":"ce4bh192rcd13ifvqdc0","pricing_plan_id":"cebpf4jnsgd1na2vs0mg"},{"bike_id":"3e6cd0d4-8c02-4d4a-8834-df1978faa95c","system_id":"levelo_inurba_marseille","lat":43.27555,"lon":5.38432,"is_reserved":false,"is_disabled":false,"rental_uris":{"android":"levelo://app?vid=3e6cd0d4-8c02-4d4a-8834-df1978faa95c","ios":"levelo://app?vid=3e6cd0d4-8c02-4d4a-8834-df1978faa95c"},"vehicle_type_id":"4","last_reported":1726427171,"current_range_meters":14000,"station_id":"ce4bhh92rcd13ifvqfi0","pricing_plan_id":"cebpf4jnsgd1na2vs0mg"},{"bike_id":"2a29b635-860d-4fcf-b9ef-7b9429843b40","system_id":"levelo_inurba_marseille","lat":43.31717,"lon":5.42405,"is_reserved":false,"is_disabled":false,"rental_uris":{"android":"levelo://app?vid=2a29b635-860d-4fcf-b9ef-7b9429843b40","ios":"levelo://app?vid=2a29b635-860d-4fcf-b9ef-7b9429843b40"},"vehicle_type_id":"4","last_reported":1726427171,"current_range_meters":36400,"station_id":"ce4bhp92rcd13ifvqhbg","pricing_plan_id":"cebpf4jnsgd1na2vs0mg"},{"bike_id":"3c589fcf-8664-4ef6-a007-88d74cf42479","system_id":"levelo_inurba_marseille","lat":43.31352,"lon":5.38495,"is_reserved":false,"is_disabled":false,"rental_uris":{"android":"levelo://app?vid=3c589fcf-8664-4ef6-a007-88d74cf42479","ios":"levelo://app?vid=3c589fcf-8664-4ef6-a007-88d74cf42479"},"vehicle_type_id":"4","last_reported":1726427171,"current_range_meters":34000,"station_id":"ce4bgt92rcd13ifvqcf0","pricing_plan_id":"cebpf4jnsgd1na2vs0mg"},{"bike_id":"65eecb51-7024-4f30-af20-d65f809bce2b","system_id":"levelo_inurba_marseille","lat":43.31322,"lon":5.39695,"is_reserved":false,"is_disabled":false,"rental_uris":{"android":"levelo://app?vid=65eecb51-7024-4f30-af20-d65f809bce2b","ios":"levelo://app?vid=65eecb51-7024-4f30-af20-d65f809bce2b"},"vehicle_type_id":"4","last_reported":1726427171,"current_range_meters":16400,"station_id":"ce4bgvp2rcd13ifvqcu0","pricing_plan_id":"cebpf4jnsgd1na2vs0mg"},{"bike_id":"adcb95c0-34df-43fd-8998-1c63dd5f0806","system_id":"levelo_inurba_marseille","lat":43.28098,"lon":5.37841,"is_reserved":false,"is_disabled":false,"rental_uris":{"android":"levelo://app?vid=adcb95c0-34df-43fd-8998-1c63dd5f0806","ios":"levelo://app?vid=adcb95c0-34df-43fd-8998-1c63dd5f0806"},"vehicle_type_id":"4","last_reported":1726427171,"current_range_meters":11200,"station_id":"ce4bha12rcd13ifvqee0","pricing_plan_id":"cebpf4jnsgd1na2vs0mg"},{"bike_id":"c5420d2d-15c1-444c-8801-d166f4c1e391","system_id":"levelo_inurba_marseille","lat":43.26552,"lon":5.39019,"is_reserved":false,"is_disabled":false,"rental_uris":{"android":"levelo://app?vid=c5420d2d-15c1-444c-8801-d166f4c1e391","ios":"levelo://app?vid=c5420d2d-15c1-444c-8801-d166f4c1e391"},"vehicle_type_id":"4","last_reported":1726427171,"current_range_meters":38400,"station_id":"ce4bhe12rcd13ifvqf30","pricing_plan_id":"cebpf4jnsgd1na2vs0mg"},{"bike_id":"d1f38fcd-be46-4877-a9ac-34b365272c30","system_id":"levelo_inurba_marseille","lat":43.27102,"lon":5.43322,"is_reserved":false,"is_disabled":false,"rental_uris":{"android":"levelo://app?vid=d1f38fcd-be46-4877-a9ac-34b365272c30","ios":"levelo://app?vid=d1f38fcd-be46-4877-a9ac-34b365272c30"},"vehicle_type_id":"4","last_reported":1726427171,"current_range_meters":13600,"station_id":"","pricing_plan_id":"cebpf4jnsgd1na2vs0mg"},{"bike_id":"5dd812c1-471e-4696-8ab0-e50e2dc97a3e","system_id":"levelo_inurba_marseille","lat":43.32344,"lon":5.40614,"is_reserved":false,"is_disabled":false,"rental_uris":{"android":"levelo://app?vid=5dd812c1-471e-4696-8ab0-e50e2dc97a3e","ios":"levelo://app?vid=5dd812c1-471e-4696-8ab0-e50e2dc97a3e"},"vehicle_type_id":"4","last_reported":1726427171,"current_range_meters":3600,"station_id":"ce4bhq92rcd13ifvqhjg","pricing_plan_id":"cebpf4jnsgd1na2vs0mg"},{"bike_id":"26739c8b-35f4-4c75-8b23-6661e5814a1f","system_id":"levelo_inurba_marseille","lat":43.27613,"lon":5.36123,"is_reserved":false,"is_disabled":false,"rental_uris":{"android":"levelo://app?vid=26739c8b-35f4-4c75-8b23-6661e5814a1f","ios":"levelo://app?vid=26739c8b-35f4-4c75-8b23-6661e5814a1f"},"vehicle_type_id":"4","last_reported":1726427171,"current_range_meters":16800,"station_id":"ce4bgj92rcd13ifvqbe0","pricing_plan_id":"cebpf4jnsgd1na2vs0mg"},{"bike_id":"0acac1db-5ef5-428c-a3e6-0cec0a79c01a","system_id":"levelo_inurba_marseille","lat":43.3014,"lon":5.38789,"is_reserved":false,"is_disabled":false,"rental_uris":{"android":"levelo://app?vid=0acac1db-5ef5-428c-a3e6-0cec0a79c01a","ios":"levelo://app?vid=0acac1db-5ef5-428c-a3e6-0cec0a79c01a"},"vehicle_type_id":"4","last_reported":1726427171,"current_range_meters":16000,"station_id":"ce4bghh2rcd13ifvqb60","pricing_plan_id":"cebpf4jnsgd1na2vs0mg"},{"bike_id":"e3dfab87-bbc8-4d87-9cfa-83a45062eefc","system_id":"levelo_inurba_marseille","lat":43.31226,"lon":5.36863,"is_reserved":false,"is_disabled":false,"rental_uris":{"android":"levelo://app?vid=e3dfab87-bbc8-4d87-9cfa-83a45062eefc","ios":"levelo://app?vid=e3dfab87-bbc8-4d87-9cfa-83a45062eefc"},"vehicle_type_id":"4","last_reported":1726427171,"current_range_meters":24400,"station_id":"ce4bgl92rcd13ifvqbq0","pricing_plan_id":"cebpf4jnsgd1na2vs0mg"},{"bike_id":"91f7e9e5-076e-4e3a-8acf-289dc20e3d9f","system_id":"levelo_inurba_marseille","lat":43.31721,"lon":5.42411,"is_reserved":false,"is_disabled":false,"rental_uris":{"android":"levelo://app?vid=91f7e9e5-076e-4e3a-8acf-289dc20e3d9f","ios":"levelo://app?vid=91f7e9e5-076e-4e3a-8acf-289dc20e3d9f"},"vehicle_type_id":"4","last_reported":1726427171,"current_range_meters":36400,"station_id":"ce4bhp92rcd13ifvqhbg","pricing_plan_id":"cebpf4jnsgd1na2vs0mg"},{"bike_id":"2b1abe3c-e149-4e96-a874-2b5643ae8fc2","system_id":"levelo_inurba_marseille","lat":43.25489,"lon":5.37651,"is_reserved":false,"is_disabled":false,"rental_uris":{"android":"levelo://app?vid=2b1abe3c-e149-4e96-a874-2b5643ae8fc2","ios":"levelo://app?vid=2b1abe3c-e149-4e96-a874-2b5643ae8fc2"},"vehicle_type_id":"4","last_reported":1726427171,"current_range_meters":35200,"station_id":"ce4bhh12rcd13ifvqff0","pricing_plan_id":"cebpf4jnsgd1na2vs0mg"},{"bike_id":"d4dcec5a-b0b6-4319-8584-aaf3103d153c","system_id":"levelo_inurba_marseille","lat":43.29562,"lon":5.42276,"is_reserved":false,"is_disabled":false,"rental_uris":{"android":"levelo://app?vid=d4dcec5a-b0b6-4319-8584-aaf3103d153c","ios":"levelo://app?vid=d4dcec5a-b0b6-4319-8584-aaf3103d153c"},"vehicle_type_id":"4","last_reported":1726427171,"current_range_meters":34800,"station_id":"ce4bhph2rcd13ifvqhdg","pricing_plan_id":"cebpf4jnsgd1na2vs0mg"},{"bike_id":"67b5b757-e0f3-43f5-9024-da319fb1d16e","system_id":"levelo_inurba_marseille","lat":43.2318,"lon":5.39988,"is_reserved":false,"is_disabled":false,"rental_uris":{"android":"levelo://app?vid=67b5b757-e0f3-43f5-9024-da319fb1d16e","ios":"levelo://app?vid=67b5b757-e0f3-43f5-9024-da319fb1d16e"},"vehicle_type_id":"4","last_reported":1726427171,"current_range_meters":22000,"station_id":"ce4bhn12rcd13ifvqgqg","pricing_plan_id":"cebpf4jnsgd1na2vs0mg"},{"bike_id":"1ad34421-a24f-4bc0-a824-1422d0b39cb0","system_id":"levelo_inurba_marseille","lat":43.28153,"lon":5.42645,"is_reserved":false,"is_disabled":false,"rental_uris":{"android":"levelo://app?vid=1ad34421-a24f-4bc0-a824-1422d0b39cb0","ios":"levelo://app?vid=1ad34421-a24f-4bc0-a824-1422d0b39cb0"},"vehicle_type_id":"4","last_reported":1726427171,"current_range_meters":35600,"station_id":"ce4bhnh2rcd13ifvqgug","pricing_plan_id":"cebpf4jnsgd1na2vs0mg"},{"bike_id":"5263c75a-b0ca-4e1c-9976-2df708ba914c","system_id":"levelo_inurba_marseille","lat":43.29555,"lon":5.42297,"is_reserved":false,"is_disabled":false,"rental_uris":{"android":"levelo://app?vid=5263c75a-b0ca-4e1c-9976-2df708ba914c","ios":"levelo://app?vid=5263c75a-b0ca-4e1c-9976-2df708ba914c"},"vehicle_type_id":"4","last_reported":1726427171,"current_range_meters":9600,"station_id":"ce4bhph2rcd13ifvqhdg","pricing_plan_id":"cebpf4jnsgd1na2vs0mg"},{"bike_id":"2b3fca79-0f3e-45d7-be74-0e0f0d63ff36","system_id":"levelo_inurba_marseille","lat":43.30642,"lon":5.40102,"is_reserved":false,"is_disabled":false,"rental_uris":{"android":"levelo://app?vid=2b3fca79-0f3e-45d7-be74-0e0f0d63ff36","ios":"levelo://app?vid=2b3fca79-0f3e-45d7-be74-0e0f0d63ff36"},"vehicle_type_id":"4","last_reported":1726427171,"current_range_meters":30000,"station_id":"ce4bh112rcd13ifvqda0","pricing_plan_id":"cebpf4jnsgd1na2vs0mg"},{"bike_id":"882165ea-a1f1-4886-8134-25212c585518","system_id":"levelo_inurba_marseille","lat":43.29563,"lon":5.39971,"is_reserved":false,"is_disabled":false,"rental_uris":{"android":"levelo://app?vid=882165ea-a1f1-4886-8134-25212c585518","ios":"levelo://app?vid=882165ea-a1f1-4886-8134-25212c585518"},"vehicle_type_id":"4","last_reported":1726427171,"current_range_meters":8400,"station_id":"ce4bh312rcd13ifvqdj0","pricing_plan_id":"cebpf4jnsgd1na2vs0mg"},{"bike_id":"d9dcf7c4-4f63-4d90-a328-5c977ce3df1b","system_id":"levelo_inurba_marseille","lat":43.289958,"lon":5.35635,"is_reserved":false,"is_disabled":false,"rental_uris":{"android":"levelo://app?vid=d9dcf7c4-4f63-4d90-a328-5c977ce3df1b","ios":"levelo://app?vid=d9dcf7c4-4f63-4d90-a328-5c977ce3df1b"},"vehicle_type_id":"4","last_reported":1726427171,"current_range_meters":30000,"station_id":"ce4bhb92rcd13ifvqen0","pricing_plan_id":"cebpf4jnsgd1na2vs0mg"},{"bike_id":"a3a7e0f0-573a-4b05-8fec-575977380c1d","system_id":"levelo_inurba_marseille","lat":43.29904,"lon":5.38155,"is_reserved":false,"is_disabled":false,"rental_uris":{"android":"levelo://app?vid=a3a7e0f0-573a-4b05-8fec-575977380c1d","ios":"levelo://app?vid=a3a7e0f0-573a-4b05-8fec-575977380c1d"},"vehicle_type_id":"4","last_reported":1726427171,"current_range_meters":8800,"station_id":"ce4bgj12rcd13ifvqbc0","pricing_plan_id":"cebpf4jnsgd1na2vs0mg"},{"bike_id":"0696e589-433a-4e9c-9e8b-1869252a8f5e","system_id":"levelo_inurba_marseille","lat":43.28697,"lon":5.37392,"is_reserved":false,"is_disabled":false,"rental_uris":{"android":"levelo://app?vid=0696e589-433a-4e9c-9e8b-1869252a8f5e","ios":"levelo://app?vid=0696e589-433a-4e9c-9e8b-1869252a8f5e"},"vehicle_type_id":"4","last_reported":1726427171,"current_range_meters":38800,"station_id":"ce4bh3p2rcd13ifvqdq0","pricing_plan_id":"cebpf4jnsgd1na2vs0mg"},{"bike_id":"103368f7-6cf9-4f61-a9f7-0e638a4ed99a","system_id":"levelo_inurba_marseille","lat":43.24073,"lon":5.37759,"is_reserved":false,"is_disabled":false,"rental_uris":{"android":"levelo://app?vid=103368f7-6cf9-4f61-a9f7-0e638a4ed99a","ios":"levelo://app?vid=103368f7-6cf9-4f61-a9f7-0e638a4ed99a"},"vehicle_type_id":"4","last_reported":1726427171,"current_range_meters":10800,"station_id":"ce4bhnp2rcd13ifvqgvg","pricing_plan_id":"cebpf4jnsgd1na2vs0mg"},{"bike_id":"d777a0b3-3f17-475c-b403-efafc48e02e0","system_id":"levelo_inurba_marseille","lat":43.28403,"lon":5.37519,"is_reserved":false,"is_disabled":false,"rental_uris":{"android":"levelo://app?vid=d777a0b3-3f17-475c-b403-efafc48e02e0","ios":"levelo://app?vid=d777a0b3-3f17-475c-b403-efafc48e02e0"},"vehicle_type_id":"4","last_reported":1726427171,"current_range_meters":14800,"station_id":"ce4bh412rcd13ifvqds0","pricing_plan_id":"cebpf4jnsgd1na2vs0mg"},{"bike_id":"8364ac4b-6b07-47bd-9c47-2eec4bd55d78","system_id":"levelo_inurba_marseille","lat":43.29923,"lon":5.36573,"is_reserved":false,"is_disabled":false,"rental_uris":{"android":"levelo://app?vid=8364ac4b-6b07-47bd-9c47-2eec4bd55d78","ios":"levelo://app?vid=8364ac4b-6b07-47bd-9c47-2eec4bd55d78"},"vehicle_type_id":"4","last_reported":1726427171,"current_range_meters":38800,"station_id":"ce4bgm92rcd13ifvqbr0","pricing_plan_id":"cebpf4jnsgd1na2vs0mg"},{"bike_id":"fc057f22-b28d-4bf5-9760-a9095aef4ced","system_id":"levelo_inurba_marseille","lat":43.28716,"lon":5.37935,"is_reserved":false,"is_disabled":false,"rental_uris":{"android":"levelo://app?vid=fc057f22-b28d-4bf5-9760-a9095aef4ced","ios":"levelo://app?vid=fc057f22-b28d-4bf5-9760-a9095aef4ced"},"vehicle_type_id":"4","last_reported":1726427171,"current_range_meters":39200,"station_id":"ce4bh9p2rcd13ifvqec0","pricing_plan_id":"cebpf4jnsgd1na2vs0mg"},{"bike_id":"7c82eff3-455c-4ac5-a0d4-aa6e30fca420","system_id":"levelo_inurba_marseille","lat":43.24805,"lon":5.37461,"is_reserved":false,"is_disabled":false,"rental_uris":{"android":"levelo://app?vid=7c82eff3-455c-4ac5-a0d4-aa6e30fca420","ios":"levelo://app?vid=7c82eff3-455c-4ac5-a0d4-aa6e30fca420"},"vehicle_type_id":"4","last_reported":1726427171,"current_range_meters":20000,"station_id":"ce4bhgh2rcd13ifvqfb0","pricing_plan_id":"cebpf4jnsgd1na2vs0mg"},{"bike_id":"2de6abdc-9fce-4d7c-8677-5bc6e76e1f41","system_id":"levelo_inurba_marseille","lat":43.308258,"lon":5.396183,"is_reserved":false,"is_disabled":false,"rental_uris":{"android":"levelo://app?vid=2de6abdc-9fce-4d7c-8677-5bc6e76e1f41","ios":"levelo://app?vid=2de6abdc-9fce-4d7c-8677-5bc6e76e1f41"},"vehicle_type_id":"4","last_reported":1726427171,"current_range_meters":6800,"station_id":"","pricing_plan_id":"cebpf4jnsgd1na2vs0mg"},{"bike_id":"eddc9a4c-0dbc-453c-9d94-34f27e1c0445","system_id":"levelo_inurba_marseille","lat":43.25719,"lon":5.41113,"is_reserved":false,"is_disabled":false,"rental_uris":{"android":"levelo://app?vid=eddc9a4c-0dbc-453c-9d94-34f27e1c0445","ios":"levelo://app?vid=eddc9a4c-0dbc-453c-9d94-34f27e1c0445"},"vehicle_type_id":"4","last_reported":1726427171,"current_range_meters":38800,"station_id":"ce4bhkp2rcd13ifvqgd0","pricing_plan_id":"cebpf4jnsgd1na2vs0mg"},{"bike_id":"328d45f9-980e-4811-97c0-47d761861509","system_id":"levelo_inurba_marseille","lat":43.29847,"lon":5.37836,"is_reserved":false,"is_disabled":false,"rental_uris":{"android":"levelo://app?vid=328d45f9-980e-4811-97c0-47d761861509","ios":"levelo://app?vid=328d45f9-980e-4811-97c0-47d761861509"},"vehicle_type_id":"4","last_reported":1726427171,"current_range_meters":26800,"station_id":"ce4bgkh2rcd13ifvqbl0","pricing_plan_id":"cebpf4jnsgd1na2vs0mg"},{"bike_id":"ed894eb8-418b-420e-8b0a-60c234bd212d","system_id":"levelo_inurba_marseille","lat":43.25092,"lon":5.39528,"is_reserved":false,"is_disabled":false,"rental_uris":{"android":"levelo://app?vid=ed894eb8-418b-420e-8b0a-60c234bd212d","ios":"levelo://app?vid=ed894eb8-418b-420e-8b0a-60c234bd212d"},"vehicle_type_id":"4","last_reported":1726427171,"current_range_meters":7200,"station_id":"ce4bhm12rcd13ifvqgkg","pricing_plan_id":"cebpf4jnsgd1na2vs0mg"},{"bike_id":"faf816e6-4e87-4e93-88d4-5861eae33b5c","system_id":"levelo_inurba_marseille","lat":43.24078,"lon":5.3775,"is_reserved":false,"is_disabled":false,"rental_uris":{"android":"levelo://app?vid=faf816e6-4e87-4e93-88d4-5861eae33b5c","ios":"levelo://app?vid=faf816e6-4e87-4e93-88d4-5861eae33b5c"},"vehicle_type_id":"4","last_reported":1726427171,"current_range_meters":24800,"station_id":"ce4bhnp2rcd13ifvqgvg","pricing_plan_id":"cebpf4jnsgd1na2vs0mg"},{"bike_id":"c264ec44-e2d7-4307-8c45-7a567c428ef9","system_id":"levelo_inurba_marseille","lat":43.24646,"lon":5.38902,"is_reserved":false,"is_disabled":false,"rental_uris":{"android":"levelo://app?vid=c264ec44-e2d7-4307-8c45-7a567c428ef9","ios":"levelo://app?vid=c264ec44-e2d7-4307-8c45-7a567c428ef9"},"vehicle_type_id":"4","last_reported":1726427171,"current_range_meters":38800,"station_id":"ce4bhg12rcd13ifvqf60","pricing_plan_id":"cebpf4jnsgd1na2vs0mg"},{"bike_id":"06853d7a-5d52-4522-85f8-6cec99cbe725","system_id":"levelo_inurba_marseille","lat":43.287018,"lon":5.373785,"is_reserved":false,"is_disabled":false,"rental_uris":{"android":"levelo://app?vid=06853d7a-5d52-4522-85f8-6cec99cbe725","ios":"levelo://app?vid=06853d7a-5d52-4522-85f8-6cec99cbe725"},"vehicle_type_id":"4","last_reported":1726427171,"current_range_meters":38800,"station_id":"ce4bh3p2rcd13ifvqdq0","pricing_plan_id":"cebpf4jnsgd1na2vs0mg"},{"bike_id":"9a3eac03-f625-4acd-81c2-b5b243e2e77f","system_id":"levelo_inurba_marseille","lat":43.30875,"lon":5.3966,"is_reserved":false,"is_disabled":false,"rental_uris":{"android":"levelo://app?vid=9a3eac03-f625-4acd-81c2-b5b243e2e77f","ios":"levelo://app?vid=9a3eac03-f625-4acd-81c2-b5b243e2e77f"},"vehicle_type_id":"4","last_reported":1726427171,"current_range_meters":3600,"station_id":"ce4bh012rcd13ifvqcv0","pricing_plan_id":"cebpf4jnsgd1na2vs0mg"},{"bike_id":"e1edda8f-74dc-4ce7-9d4d-9da26d9fad43","system_id":"levelo_inurba_marseille","lat":43.31484,"lon":5.37308,"is_reserved":false,"is_disabled":false,"rental_uris":{"android":"levelo://app?vid=e1edda8f-74dc-4ce7-9d4d-9da26d9fad43","ios":"levelo://app?vid=e1edda8f-74dc-4ce7-9d4d-9da26d9fad43"},"vehicle_type_id":"4","last_reported":1726427171,"current_range_meters":8800,"station_id":"ce4bgt12rcd13ifvqcd0","pricing_plan_id":"cebpf4jnsgd1na2vs0mg"},{"bike_id":"8b608b96-fedf-4511-8d4b-09bad2606e1a","system_id":"levelo_inurba_marseille","lat":43.2773,"lon":5.41134,"is_reserved":false,"is_disabled":false,"rental_uris":{"android":"levelo://app?vid=8b608b96-fedf-4511-8d4b-09bad2606e1a","ios":"levelo://app?vid=8b608b96-fedf-4511-8d4b-09bad2606e1a"},"vehicle_type_id":"4","last_reported":1726427171,"current_range_meters":19600,"station_id":"","pricing_plan_id":"cebpf4jnsgd1na2vs0mg"},{"bike_id":"fbe16d59-293a-4dbb-b9df-853d163b3260","system_id":"levelo_inurba_marseille","lat":43.28471,"lon":5.35893,"is_reserved":false,"is_disabled":false,"rental_uris":{"android":"levelo://app?vid=fbe16d59-293a-4dbb-b9df-853d163b3260","ios":"levelo://app?vid=fbe16d59-293a-4dbb-b9df-853d163b3260"},"vehicle_type_id":"4","last_reported":1726427171,"current_range_meters":38800,"station_id":"ce4bhah2rcd13ifvqei0","pricing_plan_id":"cebpf4jnsgd1na2vs0mg"},{"bike_id":"d6149948-cc69-48c8-b75f-51b423ee5546","system_id":"levelo_inurba_marseille","lat":43.31167,"lon":5.39357,"is_reserved":false,"is_disabled":false,"rental_uris":{"android":"levelo://app?vid=d6149948-cc69-48c8-b75f-51b423ee5546","ios":"levelo://app?vid=d6149948-cc69-48c8-b75f-51b423ee5546"},"vehicle_type_id":"4","last_reported":1726427171,"current_range_meters":26000,"station_id":"","pricing_plan_id":"cebpf4jnsgd1na2vs0mg"},{"bike_id":"033f8a09-3d86-4af9-a20e-f66149a8ac76","system_id":"levelo_inurba_marseille","lat":43.28844,"lon":5.39313,"is_reserved":false,"is_disabled":false,"rental_uris":{"android":"levelo://app?vid=033f8a09-3d86-4af9-a20e-f66149a8ac76","ios":"levelo://app?vid=033f8a09-3d86-4af9-a20e-f66149a8ac76"},"vehicle_type_id":"4","last_reported":1726427171,"current_range_meters":38800,"station_id":"ce4bh2p2rcd13ifvqdi0","pricing_plan_id":"cebpf4jnsgd1na2vs0mg"},{"bike_id":"6f4f7321-2be7-4c36-bb04-a516f10e06a9","system_id":"levelo_inurba_marseille","lat":43.23174,"lon":5.39992,"is_reserved":false,"is_disabled":false,"rental_uris":{"android":"levelo://app?vid=6f4f7321-2be7-4c36-bb04-a516f10e06a9","ios":"levelo://app?vid=6f4f7321-2be7-4c36-bb04-a516f10e06a9"},"vehicle_type_id":"4","last_reported":1726427171,"current_range_meters":30400,"station_id":"ce4bhn12rcd13ifvqgqg","pricing_plan_id":"cebpf4jnsgd1na2vs0mg"},{"bike_id":"fa2b0a9f-66ad-4cd1-b7bb-93b9cffdc904","system_id":"levelo_inurba_marseille","lat":43.25927,"lon":5.40918,"is_reserved":false,"is_disabled":false,"rental_uris":{"android":"levelo://app?vid=fa2b0a9f-66ad-4cd1-b7bb-93b9cffdc904","ios":"levelo://app?vid=fa2b0a9f-66ad-4cd1-b7bb-93b9cffdc904"},"vehicle_type_id":"4","last_reported":1726427171,"current_range_meters":30800,"station_id":"ce4bhm92rcd13ifvqglg","pricing_plan_id":"cebpf4jnsgd1na2vs0mg"},{"bike_id":"c45291b2-6b4d-4db1-9aa7-f2bedcc8df6b","system_id":"levelo_inurba_marseille","lat":43.2797,"lon":5.38769,"is_reserved":false,"is_disabled":false,"rental_uris":{"android":"levelo://app?vid=c45291b2-6b4d-4db1-9aa7-f2bedcc8df6b","ios":"levelo://app?vid=c45291b2-6b4d-4db1-9aa7-f2bedcc8df6b"},"vehicle_type_id":"4","last_reported":1726427171,"current_range_meters":38800,"station_id":"ce4bhg12rcd13ifvqf80","pricing_plan_id":"cebpf4jnsgd1na2vs0mg"},{"bike_id":"d2ca61ed-07b0-4f91-990e-b98a38e76d1b","system_id":"levelo_inurba_marseille","lat":43.24068,"lon":5.37758,"is_reserved":false,"is_disabled":false,"rental_uris":{"android":"levelo://app?vid=d2ca61ed-07b0-4f91-990e-b98a38e76d1b","ios":"levelo://app?vid=d2ca61ed-07b0-4f91-990e-b98a38e76d1b"},"vehicle_type_id":"4","last_reported":1726427171,"current_range_meters":10800,"station_id":"ce4bhnp2rcd13ifvqgvg","pricing_plan_id":"cebpf4jnsgd1na2vs0mg"},{"bike_id":"a611fc18-9ffe-484d-8333-1270f51867ec","system_id":"levelo_inurba_marseille","lat":43.31322,"lon":5.39693,"is_reserved":false,"is_disabled":false,"rental_uris":{"android":"levelo://app?vid=a611fc18-9ffe-484d-8333-1270f51867ec","ios":"levelo://app?vid=a611fc18-9ffe-484d-8333-1270f51867ec"},"vehicle_type_id":"4","last_reported":1726427171,"current_range_meters":38000,"station_id":"ce4bgvp2rcd13ifvqcu0","pricing_plan_id":"cebpf4jnsgd1na2vs0mg"},{"bike_id":"a1b069b8-c026-4c9f-8e34-d5bd0fe15995","system_id":"levelo_inurba_marseille","lat":43.30134,"lon":5.39859,"is_reserved":false,"is_disabled":false,"rental_uris":{"android":"levelo://app?vid=a1b069b8-c026-4c9f-8e34-d5bd0fe15995","ios":"levelo://app?vid=a1b069b8-c026-4c9f-8e34-d5bd0fe15995"},"vehicle_type_id":"4","last_reported":1726427171,"current_range_meters":14800,"station_id":"ce4bh0h2rcd13ifvqd40","pricing_plan_id":"cebpf4jnsgd1na2vs0mg"},{"bike_id":"fc338d94-8319-42a9-88b2-c22b1bd3b29b","system_id":"levelo_inurba_marseille","lat":43.29605,"lon":5.38154,"is_reserved":false,"is_disabled":false,"rental_uris":{"android":"levelo://app?vid=fc338d94-8319-42a9-88b2-c22b1bd3b29b","ios":"levelo://app?vid=fc338d94-8319-42a9-88b2-c22b1bd3b29b"},"vehicle_type_id":"4","last_reported":1726427171,"current_range_meters":38800,"station_id":"ce4bgl12rcd13ifvqbo0","pricing_plan_id":"cebpf4jnsgd1na2vs0mg"},{"bike_id":"998460b9-5e8f-453c-b355-2194979b4112","system_id":"levelo_inurba_marseille","lat":43.31104,"lon":5.37778,"is_reserved":false,"is_disabled":false,"rental_uris":{"android":"levelo://app?vid=998460b9-5e8f-453c-b355-2194979b4112","ios":"levelo://app?vid=998460b9-5e8f-453c-b355-2194979b4112"},"vehicle_type_id":"4","last_reported":1726427171,"current_range_meters":36000,"station_id":"ce4bgt92rcd13ifvqcg0","pricing_plan_id":"cebpf4jnsgd1na2vs0mg"},{"bike_id":"452e1e49-15ff-498b-a09c-be78556bb005","system_id":"levelo_inurba_marseille","lat":43.278076,"lon":5.407102,"is_reserved":false,"is_disabled":false,"rental_uris":{"android":"levelo://app?vid=452e1e49-15ff-498b-a09c-be78556bb005","ios":"levelo://app?vid=452e1e49-15ff-498b-a09c-be78556bb005"},"vehicle_type_id":"4","last_reported":1726427171,"current_range_meters":22400,"station_id":"ce4bhnh2rcd13ifvqgtg","pricing_plan_id":"cebpf4jnsgd1na2vs0mg"},{"bike_id":"1c956d28-b66e-427b-9681-b110484fbd57","system_id":"levelo_inurba_marseille","lat":43.27989,"lon":5.41662,"is_reserved":false,"is_disabled":false,"rental_uris":{"android":"levelo://app?vid=1c956d28-b66e-427b-9681-b110484fbd57","ios":"levelo://app?vid=1c956d28-b66e-427b-9681-b110484fbd57"},"vehicle_type_id":"4","last_reported":1726427171,"current_range_meters":38800,"station_id":"ce4bho12rcd13ifvqh1g","pricing_plan_id":"cebpf4jnsgd1na2vs0mg"},{"bike_id":"f1e8ceee-9573-4b77-ab79-482d0d3b70cc","system_id":"levelo_inurba_marseille","lat":43.24172,"lon":5.36403,"is_reserved":false,"is_disabled":false,"rental_uris":{"android":"levelo://app?vid=f1e8ceee-9573-4b77-ab79-482d0d3b70cc","ios":"levelo://app?vid=f1e8ceee-9573-4b77-ab79-482d0d3b70cc"},"vehicle_type_id":"4","last_reported":1726427171,"current_range_meters":34000,"station_id":"cpo36qri1sfpv3e86is0","pricing_plan_id":"cebpf4jnsgd1na2vs0mg"},{"bike_id":"e1109701-6d35-43bb-a58b-e4a0ed786c73","system_id":"levelo_inurba_marseille","lat":43.31678,"lon":5.38903,"is_reserved":false,"is_disabled":false,"rental_uris":{"android":"levelo://app?vid=e1109701-6d35-43bb-a58b-e4a0ed786c73","ios":"levelo://app?vid=e1109701-6d35-43bb-a58b-e4a0ed786c73"},"vehicle_type_id":"4","last_reported":1726427171,"current_range_meters":6400,"station_id":"","pricing_plan_id":"cebpf4jnsgd1na2vs0mg"},{"bike_id":"f205bb19-11c0-4923-8fc8-259a19695b11","system_id":"levelo_inurba_marseille","lat":43.31343,"lon":5.36712,"is_reserved":false,"is_disabled":false,"rental_uris":{"android":"levelo://app?vid=f205bb19-11c0-4923-8fc8-259a19695b11","ios":"levelo://app?vid=f205bb19-11c0-4923-8fc8-259a19695b11"},"vehicle_type_id":"4","last_reported":1726427171,"current_range_meters":31200,"station_id":"ce4bgr92rcd13ifvqc6g","pricing_plan_id":"cebpf4jnsgd1na2vs0mg"},{"bike_id":"fcf31276-d5c0-4cfe-a44c-bb0fd63bd233","system_id":"levelo_inurba_marseille","lat":43.31483,"lon":5.37309,"is_reserved":false,"is_disabled":false,"rental_uris":{"android":"levelo://app?vid=fcf31276-d5c0-4cfe-a44c-bb0fd63bd233","ios":"levelo://app?vid=fcf31276-d5c0-4cfe-a44c-bb0fd63bd233"},"vehicle_type_id":"4","last_reported":1726427171,"current_range_meters":34000,"station_id":"ce4bgt12rcd13ifvqcd0","pricing_plan_id":"cebpf4jnsgd1na2vs0mg"},{"bike_id":"94920cbb-ca3d-46c3-ac71-68b630e7d818","system_id":"levelo_inurba_marseille","lat":43.24545,"lon":5.39525,"is_reserved":false,"is_disabled":false,"rental_uris":{"android":"levelo://app?vid=94920cbb-ca3d-46c3-ac71-68b630e7d818","ios":"levelo://app?vid=94920cbb-ca3d-46c3-ac71-68b630e7d818"},"vehicle_type_id":"4","last_reported":1726427171,"current_range_meters":37600,"station_id":"ce4bhlp2rcd13ifvqgjg","pricing_plan_id":"cebpf4jnsgd1na2vs0mg"},{"bike_id":"2d853d36-88af-4cb5-ae22-5345d1b169f3","system_id":"levelo_inurba_marseille","lat":43.322872,"lon":5.382715,"is_reserved":false,"is_disabled":false,"rental_uris":{"android":"levelo://app?vid=2d853d36-88af-4cb5-ae22-5345d1b169f3","ios":"levelo://app?vid=2d853d36-88af-4cb5-ae22-5345d1b169f3"},"vehicle_type_id":"4","last_reported":1726427171,"current_range_meters":18000,"station_id":"ce4bhr12rcd13ifvqhqg","pricing_plan_id":"cebpf4jnsgd1na2vs0mg"},{"bike_id":"14bf2a58-bc6d-43fe-8fe2-0ff8b708d7cd","system_id":"levelo_inurba_marseille","lat":43.286743,"lon":5.386593,"is_reserved":false,"is_disabled":false,"rental_uris":{"android":"levelo://app?vid=14bf2a58-bc6d-43fe-8fe2-0ff8b708d7cd","ios":"levelo://app?vid=14bf2a58-bc6d-43fe-8fe2-0ff8b708d7cd"},"vehicle_type_id":"4","last_reported":1726427171,"current_range_meters":12000,"station_id":"ce4bh492rcd13ifvqdug","pricing_plan_id":"cebpf4jnsgd1na2vs0mg"},{"bike_id":"0e5a3bf8-e7be-4e70-aca4-d97d6e03c7dd","system_id":"levelo_inurba_marseille","lat":43.33023,"lon":5.39046,"is_reserved":false,"is_disabled":false,"rental_uris":{"android":"levelo://app?vid=0e5a3bf8-e7be-4e70-aca4-d97d6e03c7dd","ios":"levelo://app?vid=0e5a3bf8-e7be-4e70-aca4-d97d6e03c7dd"},"vehicle_type_id":"4","last_reported":1726427171,"current_range_meters":23200,"station_id":"ce4bhr92rcd13ifvqhrg","pricing_plan_id":"cebpf4jnsgd1na2vs0mg"},{"bike_id":"6d714d34-4fe4-486e-9b06-dedd41a03271","system_id":"levelo_inurba_marseille","lat":43.2978,"lon":5.39336,"is_reserved":false,"is_disabled":false,"rental_uris":{"android":"levelo://app?vid=6d714d34-4fe4-486e-9b06-dedd41a03271","ios":"levelo://app?vid=6d714d34-4fe4-486e-9b06-dedd41a03271"},"vehicle_type_id":"4","last_reported":1726427171,"current_range_meters":9200,"station_id":"chh1huq6cuj3fo74tm60","pricing_plan_id":"cebpf4jnsgd1na2vs0mg"},{"bike_id":"eb3ce0b1-e5f9-4c02-97cb-86a79c6e90b6","system_id":"levelo_inurba_marseille","lat":43.30589,"lon":5.39361,"is_reserved":false,"is_disabled":false,"rental_uris":{"android":"levelo://app?vid=eb3ce0b1-e5f9-4c02-97cb-86a79c6e90b6","ios":"levelo://app?vid=eb3ce0b1-e5f9-4c02-97cb-86a79c6e90b6"},"vehicle_type_id":"4","last_reported":1726427171,"current_range_meters":25600,"station_id":"ce4bh0p2rcd13ifvqd80","pricing_plan_id":"cebpf4jnsgd1na2vs0mg"},{"bike_id":"da582019-05a3-4198-a45f-99eb5e0985da","system_id":"levelo_inurba_marseille","lat":43.2815,"lon":5.42645,"is_reserved":false,"is_disabled":false,"rental_uris":{"android":"levelo://app?vid=da582019-05a3-4198-a45f-99eb5e0985da","ios":"levelo://app?vid=da582019-05a3-4198-a45f-99eb5e0985da"},"vehicle_type_id":"4","last_reported":1726427171,"current_range_meters":19200,"station_id":"ce4bhnh2rcd13ifvqgug","pricing_plan_id":"cebpf4jnsgd1na2vs0mg"},{"bike_id":"423da0a9-2734-43da-b4ba-ddda35cb16d9","system_id":"levelo_inurba_marseille","lat":43.28632,"lon":5.37528,"is_reserved":false,"is_disabled":false,"rental_uris":{"android":"levelo://app?vid=423da0a9-2734-43da-b4ba-ddda35cb16d9","ios":"levelo://app?vid=423da0a9-2734-43da-b4ba-ddda35cb16d9"},"vehicle_type_id":"4","last_reported":1726427171,"current_range_meters":38800,"station_id":"ce4bh3p2rcd13ifvqdq0","pricing_plan_id":"cebpf4jnsgd1na2vs0mg"},{"bike_id":"9a6ef395-110e-43a6-8480-96c57727c97b","system_id":"levelo_inurba_marseille","lat":43.29867,"lon":5.3974,"is_reserved":false,"is_disabled":false,"rental_uris":{"android":"levelo://app?vid=9a6ef395-110e-43a6-8480-96c57727c97b","ios":"levelo://app?vid=9a6ef395-110e-43a6-8480-96c57727c97b"},"vehicle_type_id":"4","last_reported":1726427171,"current_range_meters":12400,"station_id":"ce4bh0h2rcd13ifvqd50","pricing_plan_id":"cebpf4jnsgd1na2vs0mg"},{"bike_id":"012525c8-d863-400b-a802-0ef1a483fc5c","system_id":"levelo_inurba_marseille","lat":43.29548,"lon":5.42285,"is_reserved":false,"is_disabled":false,"rental_uris":{"android":"levelo://app?vid=012525c8-d863-400b-a802-0ef1a483fc5c","ios":"levelo://app?vid=012525c8-d863-400b-a802-0ef1a483fc5c"},"vehicle_type_id":"4","last_reported":1726427171,"current_range_meters":10800,"station_id":"ce4bhph2rcd13ifvqhdg","pricing_plan_id":"cebpf4jnsgd1na2vs0mg"},{"bike_id":"6f387a41-1a28-4619-ac86-26875678b81b","system_id":"levelo_inurba_marseille","lat":43.29889,"lon":5.43675,"is_reserved":false,"is_disabled":false,"rental_uris":{"android":"levelo://app?vid=6f387a41-1a28-4619-ac86-26875678b81b","ios":"levelo://app?vid=6f387a41-1a28-4619-ac86-26875678b81b"},"vehicle_type_id":"4","last_reported":1726427171,"current_range_meters":30000,"station_id":"ce4bhpp2rcd13ifvqhfg","pricing_plan_id":"cebpf4jnsgd1na2vs0mg"},{"bike_id":"e2d435e6-c237-4a0a-8436-b1d492bd4038","system_id":"levelo_inurba_marseille","lat":43.30543,"lon":5.38424,"is_reserved":false,"is_disabled":false,"rental_uris":{"android":"levelo://app?vid=e2d435e6-c237-4a0a-8436-b1d492bd4038","ios":"levelo://app?vid=e2d435e6-c237-4a0a-8436-b1d492bd4038"},"vehicle_type_id":"4","last_reported":1726427171,"current_range_meters":30400,"station_id":"ce4bgg92rcd13ifvqb30","pricing_plan_id":"cebpf4jnsgd1na2vs0mg"},{"bike_id":"9b77519c-cdee-4d8d-80fd-6bda80539b52","system_id":"levelo_inurba_marseille","lat":43.30244,"lon":5.40073,"is_reserved":false,"is_disabled":false,"rental_uris":{"android":"levelo://app?vid=9b77519c-cdee-4d8d-80fd-6bda80539b52","ios":"levelo://app?vid=9b77519c-cdee-4d8d-80fd-6bda80539b52"},"vehicle_type_id":"4","last_reported":1726427171,"current_range_meters":38800,"station_id":"ce4bgvh2rcd13ifvqcs0","pricing_plan_id":"cebpf4jnsgd1na2vs0mg"},{"bike_id":"c823632c-d358-4194-b697-c37018c71fdd","system_id":"levelo_inurba_marseille","lat":43.286161,"lon":5.370555,"is_reserved":false,"is_disabled":false,"rental_uris":{"android":"levelo://app?vid=c823632c-d358-4194-b697-c37018c71fdd","ios":"levelo://app?vid=c823632c-d358-4194-b697-c37018c71fdd"},"vehicle_type_id":"4","last_reported":1726427171,"current_range_meters":35200,"station_id":"ce4bh2p2rcd13ifvqdi0","pricing_plan_id":"cebpf4jnsgd1na2vs0mg"},{"bike_id":"8db68fec-68ee-4ff1-bef8-b95a007017de","system_id":"levelo_inurba_marseille","lat":43.29569,"lon":5.39976,"is_reserved":false,"is_disabled":false,"rental_uris":{"android":"levelo://app?vid=8db68fec-68ee-4ff1-bef8-b95a007017de","ios":"levelo://app?vid=8db68fec-68ee-4ff1-bef8-b95a007017de"},"vehicle_type_id":"4","last_reported":1726427171,"current_range_meters":38800,"station_id":"ce4bh312rcd13ifvqdj0","pricing_plan_id":"cebpf4jnsgd1na2vs0mg"},{"bike_id":"c4b85335-92c2-4c49-a2f4-5818ea12860e","system_id":"levelo_inurba_marseille","lat":43.32655,"lon":5.40995,"is_reserved":false,"is_disabled":false,"rental_uris":{"android":"levelo://app?vid=c4b85335-92c2-4c49-a2f4-5818ea12860e","ios":"levelo://app?vid=c4b85335-92c2-4c49-a2f4-5818ea12860e"},"vehicle_type_id":"4","last_reported":1726427171,"current_range_meters":22400,"station_id":"ce4bhpp2rcd13ifvqhgg","pricing_plan_id":"cebpf4jnsgd1na2vs0mg"},{"bike_id":"fc090c89-94aa-4a32-83ec-0ab547a0c2c6","system_id":"levelo_inurba_marseille","lat":43.29581,"lon":5.36743,"is_reserved":false,"is_disabled":false,"rental_uris":{"android":"levelo://app?vid=fc090c89-94aa-4a32-83ec-0ab547a0c2c6","ios":"levelo://app?vid=fc090c89-94aa-4a32-83ec-0ab547a0c2c6"},"vehicle_type_id":"4","last_reported":1726427171,"current_range_meters":22400,"station_id":"ce4bgph2rcd13ifvqc2g","pricing_plan_id":"cebpf4jnsgd1na2vs0mg"},{"bike_id":"2b5b691d-84d2-4aaf-b9c0-753c2081d646","system_id":"levelo_inurba_marseille","lat":43.33605,"lon":5.41019,"is_reserved":false,"is_disabled":false,"rental_uris":{"android":"levelo://app?vid=2b5b691d-84d2-4aaf-b9c0-753c2081d646","ios":"levelo://app?vid=2b5b691d-84d2-4aaf-b9c0-753c2081d646"},"vehicle_type_id":"4","last_reported":1726427171,"current_range_meters":17600,"station_id":"ce4bhqh2rcd13ifvqhmg","pricing_plan_id":"cebpf4jnsgd1na2vs0mg"},{"bike_id":"ad22f360-3e7b-47fc-8ca9-995d3407c0c1","system_id":"levelo_inurba_marseille","lat":43.30133,"lon":5.38093,"is_reserved":false,"is_disabled":false,"rental_uris":{"android":"levelo://app?vid=ad22f360-3e7b-47fc-8ca9-995d3407c0c1","ios":"levelo://app?vid=ad22f360-3e7b-47fc-8ca9-995d3407c0c1"},"vehicle_type_id":"4","last_reported":1726427171,"current_range_meters":38800,"station_id":"ce4bgjp2rcd13ifvqbh0","pricing_plan_id":"cebpf4jnsgd1na2vs0mg"},{"bike_id":"875f7cb3-c2ab-4549-b0a3-dfa8ad492262","system_id":"levelo_inurba_marseille","lat":43.30422,"lon":5.38883,"is_reserved":false,"is_disabled":false,"rental_uris":{"android":"levelo://app?vid=875f7cb3-c2ab-4549-b0a3-dfa8ad492262","ios":"levelo://app?vid=875f7cb3-c2ab-4549-b0a3-dfa8ad492262"},"vehicle_type_id":"4","last_reported":1726427171,"current_range_meters":6800,"station_id":"ce4bgk12rcd13ifvqbi0","pricing_plan_id":"cebpf4jnsgd1na2vs0mg"},{"bike_id":"3912930e-cc3b-4458-a920-5ce57f9156d7","system_id":"levelo_inurba_marseille","lat":43.25853,"lon":5.39909,"is_reserved":false,"is_disabled":false,"rental_uris":{"android":"levelo://app?vid=3912930e-cc3b-4458-a920-5ce57f9156d7","ios":"levelo://app?vid=3912930e-cc3b-4458-a920-5ce57f9156d7"},"vehicle_type_id":"4","last_reported":1726427171,"current_range_meters":38000,"station_id":"ce4bhl92rcd13ifvqghg","pricing_plan_id":"cebpf4jnsgd1na2vs0mg"},{"bike_id":"aa95c661-1107-4bd0-b9af-c8a4ebe70138","system_id":"levelo_inurba_marseille","lat":43.32958,"lon":5.39035,"is_reserved":false,"is_disabled":false,"rental_uris":{"android":"levelo://app?vid=aa95c661-1107-4bd0-b9af-c8a4ebe70138","ios":"levelo://app?vid=aa95c661-1107-4bd0-b9af-c8a4ebe70138"},"vehicle_type_id":"4","last_reported":1726427171,"current_range_meters":35600,"station_id":"","pricing_plan_id":"cebpf4jnsgd1na2vs0mg"},{"bike_id":"e038962b-8841-4e27-aa6d-4bae96aae4a0","system_id":"levelo_inurba_marseille","lat":43.29887,"lon":5.43671,"is_reserved":false,"is_disabled":false,"rental_uris":{"android":"levelo://app?vid=e038962b-8841-4e27-aa6d-4bae96aae4a0","ios":"levelo://app?vid=e038962b-8841-4e27-aa6d-4bae96aae4a0"},"vehicle_type_id":"4","last_reported":1726427171,"current_range_meters":20400,"station_id":"ce4bhpp2rcd13ifvqhfg","pricing_plan_id":"cebpf4jnsgd1na2vs0mg"},{"bike_id":"3e5656d6-6165-44bb-ae05-5352d0dd7a46","system_id":"levelo_inurba_marseille","lat":43.2955,"lon":5.42289,"is_reserved":false,"is_disabled":false,"rental_uris":{"android":"levelo://app?vid=3e5656d6-6165-44bb-ae05-5352d0dd7a46","ios":"levelo://app?vid=3e5656d6-6165-44bb-ae05-5352d0dd7a46"},"vehicle_type_id":"4","last_reported":1726427171,"current_range_meters":12800,"station_id":"ce4bhph2rcd13ifvqhdg","pricing_plan_id":"cebpf4jnsgd1na2vs0mg"},{"bike_id":"dd5b39de-b777-4669-968f-5e653f2e10f2","system_id":"levelo_inurba_marseille","lat":43.31488,"lon":5.37311,"is_reserved":false,"is_disabled":false,"rental_uris":{"android":"levelo://app?vid=dd5b39de-b777-4669-968f-5e653f2e10f2","ios":"levelo://app?vid=dd5b39de-b777-4669-968f-5e653f2e10f2"},"vehicle_type_id":"4","last_reported":1726427171,"current_range_meters":36000,"station_id":"ce4bgt12rcd13ifvqcd0","pricing_plan_id":"cebpf4jnsgd1na2vs0mg"},{"bike_id":"4fe3b2fb-2627-4fdf-bc74-6ec78b2aa653","system_id":"levelo_inurba_marseille","lat":43.24645,"lon":5.3889,"is_reserved":false,"is_disabled":false,"rental_uris":{"android":"levelo://app?vid=4fe3b2fb-2627-4fdf-bc74-6ec78b2aa653","ios":"levelo://app?vid=4fe3b2fb-2627-4fdf-bc74-6ec78b2aa653"},"vehicle_type_id":"4","last_reported":1726427171,"current_range_meters":36800,"station_id":"ce4bhg12rcd13ifvqf60","pricing_plan_id":"cebpf4jnsgd1na2vs0mg"},{"bike_id":"227f33f7-8417-4c1b-bc1d-35884f04e18d","system_id":"levelo_inurba_marseille","lat":43.28406,"lon":5.37527,"is_reserved":false,"is_disabled":false,"rental_uris":{"android":"levelo://app?vid=227f33f7-8417-4c1b-bc1d-35884f04e18d","ios":"levelo://app?vid=227f33f7-8417-4c1b-bc1d-35884f04e18d"},"vehicle_type_id":"4","last_reported":1726427171,"current_range_meters":38800,"station_id":"ce4bh412rcd13ifvqds0","pricing_plan_id":"cebpf4jnsgd1na2vs0mg"},{"bike_id":"829cf2b1-bf98-46e6-a9ee-9faa72b7a663","system_id":"levelo_inurba_marseille","lat":43.27153,"lon":5.42832,"is_reserved":false,"is_disabled":false,"rental_uris":{"android":"levelo://app?vid=829cf2b1-bf98-46e6-a9ee-9faa72b7a663","ios":"levelo://app?vid=829cf2b1-bf98-46e6-a9ee-9faa72b7a663"},"vehicle_type_id":"4","last_reported":1726427171,"current_range_meters":39200,"station_id":"ce4bgt12rcd13ifvqce0","pricing_plan_id":"cebpf4jnsgd1na2vs0mg"},{"bike_id":"bd0f6b78-4a1b-4f18-a907-f3d34c9219c9","system_id":"levelo_inurba_marseille","lat":43.30125,"lon":5.39864,"is_reserved":false,"is_disabled":false,"rental_uris":{"android":"levelo://app?vid=bd0f6b78-4a1b-4f18-a907-f3d34c9219c9","ios":"levelo://app?vid=bd0f6b78-4a1b-4f18-a907-f3d34c9219c9"},"vehicle_type_id":"4","last_reported":1726427171,"current_range_meters":6800,"station_id":"ce4bh0h2rcd13ifvqd40","pricing_plan_id":"cebpf4jnsgd1na2vs0mg"},{"bike_id":"349d9ac4-642a-438f-a490-46173d58584f","system_id":"levelo_inurba_marseille","lat":43.23964,"lon":5.36637,"is_reserved":false,"is_disabled":false,"rental_uris":{"android":"levelo://app?vid=349d9ac4-642a-438f-a490-46173d58584f","ios":"levelo://app?vid=349d9ac4-642a-438f-a490-46173d58584f"},"vehicle_type_id":"4","last_reported":1726427171,"current_range_meters":39200,"station_id":"ce4bhi12rcd13ifvqfp0","pricing_plan_id":"cebpf4jnsgd1na2vs0mg"},{"bike_id":"93c42e33-abc3-44f8-bda5-1b5455e775b0","system_id":"levelo_inurba_marseille","lat":43.27944,"lon":5.41051,"is_reserved":false,"is_disabled":false,"rental_uris":{"android":"levelo://app?vid=93c42e33-abc3-44f8-bda5-1b5455e775b0","ios":"levelo://app?vid=93c42e33-abc3-44f8-bda5-1b5455e775b0"},"vehicle_type_id":"4","last_reported":1726427171,"current_range_meters":6800,"station_id":"ce4bhnp2rcd13ifvqh0g","pricing_plan_id":"cebpf4jnsgd1na2vs0mg"},{"bike_id":"b7fada5e-f325-4665-8b79-378b8c0fddb8","system_id":"levelo_inurba_marseille","lat":43.27956,"lon":5.38726,"is_reserved":false,"is_disabled":false,"rental_uris":{"android":"levelo://app?vid=b7fada5e-f325-4665-8b79-378b8c0fddb8","ios":"levelo://app?vid=b7fada5e-f325-4665-8b79-378b8c0fddb8"},"vehicle_type_id":"4","last_reported":1726427171,"current_range_meters":35600,"station_id":"ce4bhg12rcd13ifvqf80","pricing_plan_id":"cebpf4jnsgd1na2vs0mg"},{"bike_id":"bc7257ac-06d8-47d9-8cc8-fb05306d0b3c","system_id":"levelo_inurba_marseille","lat":43.28402,"lon":5.37522,"is_reserved":false,"is_disabled":false,"rental_uris":{"android":"levelo://app?vid=bc7257ac-06d8-47d9-8cc8-fb05306d0b3c","ios":"levelo://app?vid=bc7257ac-06d8-47d9-8cc8-fb05306d0b3c"},"vehicle_type_id":"4","last_reported":1726427171,"current_range_meters":11200,"station_id":"ce4bh412rcd13ifvqds0","pricing_plan_id":"cebpf4jnsgd1na2vs0mg"},{"bike_id":"84eb4649-104f-4c3a-a3ae-988a98438ff1","system_id":"levelo_inurba_marseille","lat":43.30137,"lon":5.38766,"is_reserved":false,"is_disabled":false,"rental_uris":{"android":"levelo://app?vid=84eb4649-104f-4c3a-a3ae-988a98438ff1","ios":"levelo://app?vid=84eb4649-104f-4c3a-a3ae-988a98438ff1"},"vehicle_type_id":"4","last_reported":1726427171,"current_range_meters":35200,"station_id":"ce4bghh2rcd13ifvqb60","pricing_plan_id":"cebpf4jnsgd1na2vs0mg"},{"bike_id":"c59178dd-d77c-42bd-ba16-4e6f4db0709c","system_id":"levelo_inurba_marseille","lat":43.24809,"lon":5.37463,"is_reserved":false,"is_disabled":false,"rental_uris":{"android":"levelo://app?vid=c59178dd-d77c-42bd-ba16-4e6f4db0709c","ios":"levelo://app?vid=c59178dd-d77c-42bd-ba16-4e6f4db0709c"},"vehicle_type_id":"4","last_reported":1726427171,"current_range_meters":27600,"station_id":"ce4bhgh2rcd13ifvqfb0","pricing_plan_id":"cebpf4jnsgd1na2vs0mg"},{"bike_id":"07afe054-ce13-45a8-bd6a-0e98bdaf6dde","system_id":"levelo_inurba_marseille","lat":43.24669,"lon":5.38166,"is_reserved":false,"is_disabled":false,"rental_uris":{"android":"levelo://app?vid=07afe054-ce13-45a8-bd6a-0e98bdaf6dde","ios":"levelo://app?vid=07afe054-ce13-45a8-bd6a-0e98bdaf6dde"},"vehicle_type_id":"4","last_reported":1726427171,"current_range_meters":20000,"station_id":"ce4bhih2rcd13ifvqfr0","pricing_plan_id":"cebpf4jnsgd1na2vs0mg"},{"bike_id":"db865793-aa7c-4f02-a065-6a457f5ad6dc","system_id":"levelo_inurba_marseille","lat":43.30085,"lon":5.36516,"is_reserved":false,"is_disabled":false,"rental_uris":{"android":"levelo://app?vid=db865793-aa7c-4f02-a065-6a457f5ad6dc","ios":"levelo://app?vid=db865793-aa7c-4f02-a065-6a457f5ad6dc"},"vehicle_type_id":"4","last_reported":1726427171,"current_range_meters":8400,"station_id":"","pricing_plan_id":"cebpf4jnsgd1na2vs0mg"},{"bike_id":"064f750f-2f56-488a-921f-7ae7e98bc089","system_id":"levelo_inurba_marseille","lat":43.28263,"lon":5.35075,"is_reserved":false,"is_disabled":false,"rental_uris":{"android":"levelo://app?vid=064f750f-2f56-488a-921f-7ae7e98bc089","ios":"levelo://app?vid=064f750f-2f56-488a-921f-7ae7e98bc089"},"vehicle_type_id":"4","last_reported":1726427171,"current_range_meters":38800,"station_id":"ce4bhbp2rcd13ifvqerg","pricing_plan_id":"cebpf4jnsgd1na2vs0mg"},{"bike_id":"55edb358-7f85-40e5-a9da-65c6a13b5621","system_id":"levelo_inurba_marseille","lat":43.31356,"lon":5.38496,"is_reserved":false,"is_disabled":false,"rental_uris":{"android":"levelo://app?vid=55edb358-7f85-40e5-a9da-65c6a13b5621","ios":"levelo://app?vid=55edb358-7f85-40e5-a9da-65c6a13b5621"},"vehicle_type_id":"4","last_reported":1726427171,"current_range_meters":7200,"station_id":"ce4bgt92rcd13ifvqcf0","pricing_plan_id":"cebpf4jnsgd1na2vs0mg"},{"bike_id":"7f0e2e6e-b7df-4f4f-a0b2-1478021fe226","system_id":"levelo_inurba_marseille","lat":43.29545,"lon":5.4229,"is_reserved":false,"is_disabled":false,"rental_uris":{"android":"levelo://app?vid=7f0e2e6e-b7df-4f4f-a0b2-1478021fe226","ios":"levelo://app?vid=7f0e2e6e-b7df-4f4f-a0b2-1478021fe226"},"vehicle_type_id":"4","last_reported":1726427171,"current_range_meters":24800,"station_id":"ce4bhph2rcd13ifvqhdg","pricing_plan_id":"cebpf4jnsgd1na2vs0mg"},{"bike_id":"91ae1ff9-ce97-4448-b643-9656f9809ceb","system_id":"levelo_inurba_marseille","lat":43.293028,"lon":5.374614,"is_reserved":false,"is_disabled":false,"rental_uris":{"android":"levelo://app?vid=91ae1ff9-ce97-4448-b643-9656f9809ceb","ios":"levelo://app?vid=91ae1ff9-ce97-4448-b643-9656f9809ceb"},"vehicle_type_id":"4","last_reported":1726427171,"current_range_meters":16400,"station_id":"","pricing_plan_id":"cebpf4jnsgd1na2vs0mg"},{"bike_id":"c97ff785-9676-4fa3-b857-bd52427ee0ae","system_id":"levelo_inurba_marseille","lat":43.28185,"lon":5.41195,"is_reserved":false,"is_disabled":false,"rental_uris":{"android":"levelo://app?vid=c97ff785-9676-4fa3-b857-bd52427ee0ae","ios":"levelo://app?vid=c97ff785-9676-4fa3-b857-bd52427ee0ae"},"vehicle_type_id":"4","last_reported":1726427171,"current_range_meters":25200,"station_id":"ce4bhqp2rcd13ifvqhog","pricing_plan_id":"cebpf4jnsgd1na2vs0mg"},{"bike_id":"b5976d29-4e9d-4138-af37-b813ab1fb183","system_id":"levelo_inurba_marseille","lat":43.24392,"lon":5.37068,"is_reserved":false,"is_disabled":false,"rental_uris":{"android":"levelo://app?vid=b5976d29-4e9d-4138-af37-b813ab1fb183","ios":"levelo://app?vid=b5976d29-4e9d-4138-af37-b813ab1fb183"},"vehicle_type_id":"4","last_reported":1726427171,"current_range_meters":25200,"station_id":"ce4bhhh2rcd13ifvqfk0","pricing_plan_id":"cebpf4jnsgd1na2vs0mg"},{"bike_id":"5426d164-55a4-4a10-825d-6f298539611d","system_id":"levelo_inurba_marseille","lat":43.23174,"lon":5.39992,"is_reserved":false,"is_disabled":false,"rental_uris":{"android":"levelo://app?vid=5426d164-55a4-4a10-825d-6f298539611d","ios":"levelo://app?vid=5426d164-55a4-4a10-825d-6f298539611d"},"vehicle_type_id":"4","last_reported":1726427171,"current_range_meters":32800,"station_id":"ce4bhn12rcd13ifvqgqg","pricing_plan_id":"cebpf4jnsgd1na2vs0mg"},{"bike_id":"cd860037-860c-4e97-ad22-b7dec4fc7998","system_id":"levelo_inurba_marseille","lat":43.31256,"lon":5.40189,"is_reserved":false,"is_disabled":false,"rental_uris":{"android":"levelo://app?vid=cd860037-860c-4e97-ad22-b7dec4fc7998","ios":"levelo://app?vid=cd860037-860c-4e97-ad22-b7dec4fc7998"},"vehicle_type_id":"4","last_reported":1726427171,"current_range_meters":19600,"station_id":"ce4bh092rcd13ifvqd30","pricing_plan_id":"cebpf4jnsgd1na2vs0mg"},{"bike_id":"ee286321-e6ce-49d7-a05b-3af5f19b59e0","system_id":"levelo_inurba_marseille","lat":43.27069,"lon":5.42282,"is_reserved":false,"is_disabled":false,"rental_uris":{"android":"levelo://app?vid=ee286321-e6ce-49d7-a05b-3af5f19b59e0","ios":"levelo://app?vid=ee286321-e6ce-49d7-a05b-3af5f19b59e0"},"vehicle_type_id":"4","last_reported":1726427171,"current_range_meters":3600,"station_id":"ce4bhk92rcd13ifvqgb0","pricing_plan_id":"cebpf4jnsgd1na2vs0mg"},{"bike_id":"b97a7743-2e7e-4c69-a003-9cc01c170b29","system_id":"levelo_inurba_marseille","lat":43.26496,"lon":5.40889,"is_reserved":false,"is_disabled":false,"rental_uris":{"android":"levelo://app?vid=b97a7743-2e7e-4c69-a003-9cc01c170b29","ios":"levelo://app?vid=b97a7743-2e7e-4c69-a003-9cc01c170b29"},"vehicle_type_id":"4","last_reported":1726427171,"current_range_meters":8000,"station_id":"","pricing_plan_id":"cebpf4jnsgd1na2vs0mg"},{"bike_id":"cbf0ddbc-489f-4d69-b124-b404d5c3d049","system_id":"levelo_inurba_marseille","lat":43.31325,"lon":5.39695,"is_reserved":false,"is_disabled":false,"rental_uris":{"android":"levelo://app?vid=cbf0ddbc-489f-4d69-b124-b404d5c3d049","ios":"levelo://app?vid=cbf0ddbc-489f-4d69-b124-b404d5c3d049"},"vehicle_type_id":"4","last_reported":1726427171,"current_range_meters":27200,"station_id":"ce4bgvp2rcd13ifvqcu0","pricing_plan_id":"cebpf4jnsgd1na2vs0mg"},{"bike_id":"b743a9c7-bff2-4e35-9357-5b891b452147","system_id":"levelo_inurba_marseille","lat":43.29899,"lon":5.43666,"is_reserved":false,"is_disabled":false,"rental_uris":{"android":"levelo://app?vid=b743a9c7-bff2-4e35-9357-5b891b452147","ios":"levelo://app?vid=b743a9c7-bff2-4e35-9357-5b891b452147"},"vehicle_type_id":"4","last_reported":1726427171,"current_range_meters":18800,"station_id":"ce4bhpp2rcd13ifvqhfg","pricing_plan_id":"cebpf4jnsgd1na2vs0mg"},{"bike_id":"72313e28-e653-49a7-972d-a06da7ffe69f","system_id":"levelo_inurba_marseille","lat":43.25109,"lon":5.40325,"is_reserved":false,"is_disabled":false,"rental_uris":{"android":"levelo://app?vid=72313e28-e653-49a7-972d-a06da7ffe69f","ios":"levelo://app?vid=72313e28-e653-49a7-972d-a06da7ffe69f"},"vehicle_type_id":"4","last_reported":1726427171,"current_range_meters":14400,"station_id":"ce4bhlh2rcd13ifvqgig","pricing_plan_id":"cebpf4jnsgd1na2vs0mg"},{"bike_id":"e1d834a1-22f5-4f1a-b921-295ddec29333","system_id":"levelo_inurba_marseille","lat":43.31686,"lon":5.40477,"is_reserved":false,"is_disabled":false,"rental_uris":{"android":"levelo://app?vid=e1d834a1-22f5-4f1a-b921-295ddec29333","ios":"levelo://app?vid=e1d834a1-22f5-4f1a-b921-295ddec29333"},"vehicle_type_id":"4","last_reported":1726427171,"current_range_meters":30400,"station_id":"ce4bh012rcd13ifvqd00","pricing_plan_id":"cebpf4jnsgd1na2vs0mg"},{"bike_id":"23a902f3-de84-482d-a332-b150f35d66ca","system_id":"levelo_inurba_marseille","lat":43.28725,"lon":5.36084,"is_reserved":false,"is_disabled":false,"rental_uris":{"android":"levelo://app?vid=23a902f3-de84-482d-a332-b150f35d66ca","ios":"levelo://app?vid=23a902f3-de84-482d-a332-b150f35d66ca"},"vehicle_type_id":"4","last_reported":1726427171,"current_range_meters":30000,"station_id":"cki0cbj6b192h4jlfktg","pricing_plan_id":"cebpf4jnsgd1na2vs0mg"},{"bike_id":"8d0d6ceb-d20c-4c82-86b9-f62a7ce678df","system_id":"levelo_inurba_marseille","lat":43.30456,"lon":5.3653,"is_reserved":false,"is_disabled":false,"rental_uris":{"android":"levelo://app?vid=8d0d6ceb-d20c-4c82-86b9-f62a7ce678df","ios":"levelo://app?vid=8d0d6ceb-d20c-4c82-86b9-f62a7ce678df"},"vehicle_type_id":"4","last_reported":1726427171,"current_range_meters":6800,"station_id":"","pricing_plan_id":"cebpf4jnsgd1na2vs0mg"},{"bike_id":"0fb2e889-e253-4466-b3d9-18b1930464d1","system_id":"levelo_inurba_marseille","lat":43.27493,"lon":5.42451,"is_reserved":false,"is_disabled":false,"rental_uris":{"android":"levelo://app?vid=0fb2e889-e253-4466-b3d9-18b1930464d1","ios":"levelo://app?vid=0fb2e889-e253-4466-b3d9-18b1930464d1"},"vehicle_type_id":"4","last_reported":1726427171,"current_range_meters":40000,"station_id":"ce4bhn92rcd13ifvqgrg","pricing_plan_id":"cebpf4jnsgd1na2vs0mg"},