{"last_updated":1749561983,"ttl":60,"version":"2.2","data":{"bikes":[{"bike_id":"24bb69fc-eff0-4394-8522-4040c1a30e8e","system_id":"levelo_inurba_marseille","lat":43.26215,"lon":5.37422,"is_reserved":false,"is_disabled":false,"rental_uris":{"android":"levelo://app?vid=24bb69fc-eff0-4394-8522-4040c1a30e8e","ios":"levelo://app?vid=24bb69fc-eff0-4394-8522-4040c1a30e8e"},"vehicle_type_id":"4","last_reported":1749561983,"current_range_meters":2800,"station_id":"ce4bhgp2rcd13ifvqfc0","pricing_plan_id":"cebpf4jnsgd1na2vs0mg"},{"bike_id":"1c83d4a3-1705-4c82-9ebf-a2da6c26ad09","system_id":"levelo_inurba_marseille","lat":43.2511,"lon":5.4032,"is_reserved":false,"is_disabled":true,"rental_uris":{"android":"levelo://app?vid=1c83d4a3-1705-4c82-9ebf-a2da6c26ad09","ios":"levelo://app?vid=1c83d4a3-1705-4c82-9ebf-a2da6c26ad09"},"vehicle_type_id":"4","last_reported":1749561983,"current_range_meters":2800,"station_id":"ce4bhlh2rcd13ifvqgig","pricing_plan_id":"cebpf4jnsgd1na2vs0mg"},{"bike_id":"f4f63684-5353-48e2-b3d0-14dda9a827e2","system_id":"levelo_inurba_marseille","lat":43.30428,"lon":5.39762,"is_reserved":false,"is_disabled":false,"rental_uris":{"android":"levelo://app?vid=f4f63684-5353-48e2-b3d0-14dda9a827e2","ios":"levelo://app?vid=f4f63684-5353-48e2-b3d0-14dda9a827e2"},"vehicle_type_id":"4","last_reported":1749561983,"current_range_meters":2800,"station_id":"ce4bh092rcd13ifvqd20","pricing_plan_id":"cebpf4jnsgd1na2vs0mg"},{"bike_id":"45d44e9e-c75b-4ba4-9ae2-994d261f05ab","system_id":"levelo_inurba_marseille","lat":43.25717,"lon":5.41129,"is_reserved":false,"is_disabled":false,"rental_uris":{"android":"levelo://app?vid=45d44e9e-c75b-4ba4-9ae2-994d261f05ab","ios":"levelo://app?vid=45d44e9e-c75b-4ba4-9ae2-994d261f05ab"},"vehicle_type_id":"4","last_reported":1749561983,"current_range_meters":2800,"station_id":"ce4bhkp2rcd13ifvqgd0","pricing_plan_id":"cebpf4jnsgd1na2vs0mg"},{"bike_id":"c9ae703d-a192-401c-8199-cc0df5c03eea","system_id":"levelo_inurba_marseille","lat":43.26931,"lon":5.38928,"is_reserved":false,"is_disabled":false,"rental_uris":{"android":"levelo://app?vid=c9ae703d-a192-401c-8199-cc0df5c03eea","ios":"levelo://app?vid=c9ae703d-a192-401c-8199-cc0df5c03eea"},"vehicle_type_id":"4","last_reported":1749561983,"current_range_meters":2800,"station_id":"ce4bhhh2rcd13ifvqfl0","pricing_plan_id":"cebpf4jnsgd1na2vs0mg"},{"bike_id":"ecce3728-f38a-400a-92bd-372c501055f0","system_id":"levelo_inurba_marseille","lat":43.31059,"lon":5.38354,"is_reserved":false,"is_disabled":false,"rental_uris":{"android":"levelo://app?vid=ecce3728-f38a-400a-92bd-372c501055f0","ios":"levelo://app?vid=ecce3728-f38a-400a-92bd-372c501055f0"},"vehicle_type_id":"4","last_reported":1749561983,"current_range_meters":2800,"station_id":"ce4bgv92rcd13ifvqcr0","pricing_plan_id":"cebpf4jnsgd1na2vs0mg"},{"bike_id":"c8738cd6-52e8-44c0-b0c1-f7ce9cd975a4","system_id":"levelo_inurba_marseille","lat":43.24553,"lon":5.39516,"is_reserved":false,"is_disabled":false,"rental_uris":{"android":"levelo://app?vid=c8738cd6-52e8-44c0-b0c1-f7ce9cd975a4","ios":"levelo://app?vid=c8738cd6-52e8-44c0-b0c1-f7ce9cd975a4"},"vehicle_type_id":"4","last_reported":1749561983,"current_range_meters":3200,"station_id":"ce4bhlp2rcd13ifvqgjg","pricing_plan_id":"cebpf4jnsgd1na2vs0mg"},{"bike_id":"f8892a4c-ca95-48c4-8578-59fbeee09f15","system_id":"levelo_inurba_marseille","lat":43.30308,"lon":5.40504,"is_reserved":false,"is_disabled":false,"rental_uris":{"android":"levelo://app?vid=f8892a4c-ca95-48c4-8578-59fbeee09f15","ios":"levelo://app?vid=f8892a4c-ca95-48c4-8578-59fbeee09f15"},"vehicle_type_id":"4","last_reported":1749561983,"current_range_meters":4000,"station_id":"","pricing_plan_id":"cebpf4jnsgd1na2vs0mg"},{"bike_id":"451c6220-d804-48cf-adb5-85b15845e202","system_id":"levelo_inurba_marseille","lat":43.31689,"lon":5.40478,"is_reserved":false,"is_disabled":false,"rental_uris":{"android":"levelo://app?vid=451c6220-d804-48cf-adb5-85b15845e202","ios":"levelo://app?vid=451c6220-d804-48cf-adb5-85b15845e202"},"vehicle_type_id":"4","last_reported":1749561983,"current_range_meters":4000,"station_id":"ce4bh012rcd13ifvqd00","pricing_plan_id":"cebpf4jnsgd1na2vs0mg"},{"bike_id":"15b696c1-54fb-44cc-9684-32e53b1bbfcb","system_id":"levelo_inurba_marseille","lat":43.31277,"lon":5.36866,"is_reserved":false,"is_disabled":false,"rental_uris":{"android":"levelo://app?vid=15b696c1-54fb-44cc-9684-32e53b1bbfcb","ios":"levelo://app?vid=15b696c1-54fb-44cc-9684-32e53b1bbfcb"},"vehicle_type_id":"4","last_reported":1749561983,"current_range_meters":4000,"station_id":"ce4bgl92rcd13ifvqbq0","pricing_plan_id":"cebpf4jnsgd1na2vs0mg"},{"bike_id":"01354226-4882-4b0f-9676-279812fd0968","system_id":"levelo_inurba_marseille","lat":43.31121,"lon":5.37752,"is_reserved":false,"is_disabled":true,"rental_uris":{"android":"levelo://app?vid=01354226-4882-4b0f-9676-279812fd0968","ios":"levelo://app?vid=01354226-4882-4b0f-9676-279812fd0968"},"vehicle_type_id":"4","last_reported":1749561983,"current_range_meters":4000,"station_id":"ce4bgt92rcd13ifvqcg0","pricing_plan_id":"cebpf4jnsgd1na2vs0mg"},{"bike_id":"d752bfe3-23c2-45a8-ad91-78ba40febeba","system_id":"levelo_inurba_marseille","lat":43.30159,"lon":5.38084,"is_reserved":false,"is_disabled":false,"rental_uris":{"android":"levelo://app?vid=d752bfe3-23c2-45a8-ad91-78ba40febeba","ios":"levelo://app?vid=d752bfe3-23c2-45a8-ad91-78ba40febeba"},"vehicle_type_id":"4","last_reported":1749561983,"current_range_meters":4000,"station_id":"ce4bgjp2rcd13ifvqbh0","pricing_plan_id":"cebpf4jnsgd1na2vs0mg"},{"bike_id":"d71d7987-1df2-4a4b-a850-700113393b2c","system_id":"levelo_inurba_marseille","lat":43.27674,"lon":5.38873,"is_reserved":false,"is_disabled":false,"rental_uris":{"android":"levelo://app?vid=d71d7987-1df2-4a4b-a850-700113393b2c","ios":"levelo://app?vid=d71d7987-1df2-4a4b-a850-700113393b2c"},"vehicle_type_id":"4","last_reported":1749561983,"current_range_meters":4000,"station_id":"ce4bhi12rcd13ifvqfo0","pricing_plan_id":"cebpf4jnsgd1na2vs0mg"},{"bike_id":"11d99533-1239-4522-b0b5-f8a3bff696e7","system_id":"levelo_inurba_marseille","lat":43.301267,"lon":5.424467,"is_reserved":false,"is_disabled":false,"rental_uris":{"android":"levelo://app?vid=11d99533-1239-4522-b0b5-f8a3bff696e7","ios":"levelo://app?vid=11d99533-1239-4522-b0b5-f8a3bff696e7"},"vehicle_type_id":"4","last_reported":1749561983,"current_range_meters":4400,"station_id":"","pricing_plan_id":"cebpf4jnsgd1na2vs0mg"},{"bike_id":"9ab5dcb2-22af-49e2-b2c1-32117ad578dc","system_id":"levelo_inurba_marseille","lat":43.29515,"lon":5.42545,"is_reserved":false,"is_disabled":false,"rental_uris":{"android":"levelo://app?vid=9ab5dcb2-22af-49e2-b2c1-32117ad578dc","ios":"levelo://app?vid=9ab5dcb2-22af-49e2-b2c1-32117ad578dc"},"vehicle_type_id":"4","last_reported":1749561983,"current_range_meters":4400,"station_id":"","pricing_plan_id":"cebpf4jnsgd1na2vs0mg"},{"bike_id":"8b4caff4-6ee7-47a5-a64f-5ccaa83c132f","system_id":"levelo_inurba_marseille","lat":43.29514,"lon":5.42526,"is_reserved":false,"is_disabled":false,"rental_uris":{"android":"levelo://app?vid=8b4caff4-6ee7-47a5-a64f-5ccaa83c132f","ios":"levelo://app?vid=8b4caff4-6ee7-47a5-a64f-5ccaa83c132f"},"vehicle_type_id":"4","last_reported":1749561983,"current_range_meters":4400,"station_id":"","pricing_plan_id":"cebpf4jnsgd1na2vs0mg"},{"bike_id":"4248fa0f-4a08-4164-9c7b-098149dada48","system_id":"levelo_inurba_marseille","lat":43.30146,"lon":5.38065,"is_reserved":false,"is_disabled":false,"rental_uris":{"android":"levelo://app?vid=4248fa0f-4a08-4164-9c7b-098149dada48","ios":"levelo://app?vid=4248fa0f-4a08-4164-9c7b-098149dada48"},"vehicle_type_id":"4","last_reported":1749561983,"current_range_meters":4400,"station_id":"ce4bgjp2rcd13ifvqbh0","pricing_plan_id":"cebpf4jnsgd1na2vs0mg"},{"bike_id":"db951ccb-7be8-418d-818a-4e1820e5862e","system_id":"levelo_inurba_marseille","lat":43.23184,"lon":5.39998,"is_reserved":false,"is_disabled":false,"rental_uris":{"android":"levelo://app?vid=db951ccb-7be8-418d-818a-4e1820e5862e","ios":"levelo://app?vid=db951ccb-7be8-418d-818a-4e1820e5862e"},"vehicle_type_id":"4","last_reported":1749561983,"current_range_meters":1600,"station_id":"ce4bhn12rcd13ifvqgqg","pricing_plan_id":"cebpf4jnsgd1na2vs0mg"},{"bike_id":"30e5f4bb-a69a-4650-8e08-bc1310455a0c","system_id":"levelo_inurba_marseille","lat":43.29584,"lon":5.36753,"is_reserved":false,"is_disabled":false,"rental_uris":{"android":"levelo://app?vid=30e5f4bb-a69a-4650-8e08-bc1310455a0c","ios":"levelo://app?vid=30e5f4bb-a69a-4650-8e08-bc1310455a0c"},"vehicle_type_id":"4","last_reported":1749561983,"current_range_meters":4800,"station_id":"ce4bgph2rcd13ifvqc2g","pricing_plan_id":"cebpf4jnsgd1na2vs0mg"},{"bike_id":"18f5c5b9-af8c-4c29-b9be-e44d9b0442ad","system_id":"levelo_inurba_marseille","lat":43.27813,"lon":5.40718,"is_reserved":false,"is_disabled":false,"rental_uris":{"android":"levelo://app?vid=18f5c5b9-af8c-4c29-b9be-e44d9b0442ad","ios":"levelo://app?vid=18f5c5b9-af8c-4c29-b9be-e44d9b0442ad"},"vehicle_type_id":"4","last_reported":1749561983,"current_range_meters":4800,"station_id":"ce4bhnh2rcd13ifvqgtg","pricing_plan_id":"cebpf4jnsgd1na2vs0mg"},{"bike_id":"50242af8-86d4-41a0-91e8-c3896106ff4e","system_id":"levelo_inurba_marseille","lat":43.273082,"lon":5.39109,"is_reserved":false,"is_disabled":false,"rental_uris":{"android":"levelo://app?vid=50242af8-86d4-41a0-91e8-c3896106ff4e","ios":"levelo://app?vid=50242af8-86d4-41a0-91e8-c3896106ff4e"},"vehicle_type_id":"4","last_reported":1749561983,"current_range_meters":4800,"station_id":"ce4bhgp2rcd13ifvqfe0","pricing_plan_id":"cebpf4jnsgd1na2vs0mg"},{"bike_id":"a8dd7a7b-8e10-426e-b28b-370a596968e8","system_id":"levelo_inurba_marseille","lat":43.31215,"lon":5.36849,"is_reserved":false,"is_disabled":false,"rental_uris":{"android":"levelo://app?vid=a8dd7a7b-8e10-426e-b28b-370a596968e8","ios":"levelo://app?vid=a8dd7a7b-8e10-426e-b28b-370a596968e8"},"vehicle_type_id":"4","last_reported":1749561983,"current_range_meters":4800,"station_id":"ce4bgl92rcd13ifvqbq0","pricing_plan_id":"cebpf4jnsgd1na2vs0mg"},{"bike_id":"4ca116cd-7f73-4558-969f-66bd5091a2e7","system_id":"levelo_inurba_marseille","lat":43.30286,"lon":5.37705,"is_reserved":false,"is_disabled":false,"rental_uris":{"android":"levelo://app?vid=4ca116cd-7f73-4558-969f-66bd5091a2e7","ios":"levelo://app?vid=4ca116cd-7f73-4558-969f-66bd5091a2e7"},"vehicle_type_id":"4","last_reported":1749561983,"current_range_meters":4800,"station_id":"ce4bguh2rcd13ifvqcj0","pricing_plan_id":"cebpf4jnsgd1na2vs0mg"},{"bike_id":"93de7823-629f-42f3-a9c1-8289ba4651bc","system_id":"levelo_inurba_marseille","lat":43.27382,"lon":5.36256,"is_reserved":false,"is_disabled":false,"rental_uris":{"android":"levelo://app?vid=93de7823-629f-42f3-a9c1-8289ba4651bc","ios":"levelo://app?vid=93de7823-629f-42f3-a9c1-8289ba4651bc"},"vehicle_type_id":"4","last_reported":1749561983,"current_range_meters":5600,"station_id":"ce4bhbh2rcd13ifvqeo0","pricing_plan_id":"cebpf4jnsgd1na2vs0mg"},{"bike_id":"d7f8d195-270a-4673-a060-f7e0ddc848a6","system_id":"levelo_inurba_marseille","lat":43.28099,"lon":5.3785,"is_reserved":false,"is_disabled":false,"rental_uris":{"android":"levelo://app?vid=d7f8d195-270a-4673-a060-f7e0ddc848a6","ios":"levelo://app?vid=d7f8d195-270a-4673-a060-f7e0ddc848a6"},"vehicle_type_id":"4","last_reported":1749561983,"current_range_meters":5600,"station_id":"ce4bha12rcd13ifvqee0","pricing_plan_id":"cebpf4jnsgd1na2vs0mg"},{"bike_id":"f4a3adfe-4e75-4fd9-b5d4-451aa5677d2f","system_id":"levelo_inurba_marseille","lat":43.231395,"lon":5.437281,"is_reserved":false,"is_disabled":false,"rental_uris":{"android":"levelo://app?vid=f4a3adfe-4e75-4fd9-b5d4-451aa5677d2f","ios":"levelo://app?vid=f4a3adfe-4e75-4fd9-b5d4-451aa5677d2f"},"vehicle_type_id":"4","last_reported":1749561983,"current_range_meters":5600,"station_id":"ce4bhmp2rcd13ifvqgog","pricing_plan_id":"cebpf4jnsgd1na2vs0mg"},{"bike_id":"c51c752a-2d09-45c8-b6b1-69d5eb0b677c","system_id":"levelo_inurba_marseille","lat":43.28427,"lon":5.34981,"is_reserved":false,"is_disabled":false,"rental_uris":{"android":"levelo://app?vid=c51c752a-2d09-45c8-b6b1-69d5eb0b677c","ios":"levelo://app?vid=c51c752a-2d09-45c8-b6b1-69d5eb0b677c"},"vehicle_type_id":"4","last_reported":1749561983,"current_range_meters":5600,"station_id":"ce4bhbh2rcd13ifvqepg","pricing_plan_id":"cebpf4jnsgd1na2vs0mg"},{"bike_id":"9f812105-16ec-4871-a02c-fc1e52881af9","system_id":"levelo_inurba_marseille","lat":43.28268,"lon":5.35071,"is_reserved":false,"is_disabled":false,"rental_uris":{"android":"levelo://app?vid=9f812105-16ec-4871-a02c-fc1e52881af9","ios":"levelo://app?vid=9f812105-16ec-4871-a02c-fc1e52881af9"},"vehicle_type_id":"4","last_reported":1749561983,"current_range_meters":6000,"station_id":"ce4bhbp2rcd13ifvqerg","pricing_plan_id":"cebpf4jnsgd1na2vs0mg"},{"bike_id":"dd67f108-95bf-4a1e-b619-4bb77e009c5b","system_id":"levelo_inurba_marseille","lat":43.29074,"lon":5.42732,"is_reserved":false,"is_disabled":false,"rental_uris":{"android":"levelo://app?vid=dd67f108-95bf-4a1e-b619-4bb77e009c5b","ios":"levelo://app?vid=dd67f108-95bf-4a1e-b619-4bb77e009c5b"},"vehicle_type_id":"4","last_reported":1749561983,"current_range_meters":6000,"station_id":"","pricing_plan_id":"cebpf4jnsgd1na2vs0mg"},{"bike_id":"9289b7b1-6347-4c88-a1fd-61c407d4e2e5","system_id":"levelo_inurba_marseille","lat":43.26199,"lon":5.37935,"is_reserved":false,"is_disabled":false,"rental_uris":{"android":"levelo://app?vid=9289b7b1-6347-4c88-a1fd-61c407d4e2e5","ios":"levelo://app?vid=9289b7b1-6347-4c88-a1fd-61c407d4e2e5"},"vehicle_type_id":"4","last_reported":1749561983,"current_range_meters":6000,"station_id":"ce4bhjp2rcd13ifvqg90","pricing_plan_id":"cebpf4jnsgd1na2vs0mg"},{"bike_id":"fc3b5cd7-9ab6-406f-8d26-5f8cadeed5e1","system_id":"levelo_inurba_marseille","lat":43.2439,"lon":5.37063,"is_reserved":false,"is_disabled":false,"rental_uris":{"android":"levelo://app?vid=fc3b5cd7-9ab6-406f-8d26-5f8cadeed5e1","ios":"levelo://app?vid=fc3b5cd7-9ab6-406f-8d26-5f8cadeed5e1"},"vehicle_type_id":"4","last_reported":1749561983,"current_range_meters":6400,"station_id":"ce4bhhh2rcd13ifvqfk0","pricing_plan_id":"cebpf4jnsgd1na2vs0mg"},{"bike_id":"f808a3ba-f0ff-4c9e-86b7-fe1dac62e2e3","system_id":"levelo_inurba_marseille","lat":43.28618,"lon":5.35106,"is_reserved":false,"is_disabled":false,"rental_uris":{"android":"levelo://app?vid=f808a3ba-f0ff-4c9e-86b7-fe1dac62e2e3","ios":"levelo://app?vid=f808a3ba-f0ff-4c9e-86b7-fe1dac62e2e3"},"vehicle_type_id":"4","last_reported":1749561983,"current_range_meters":6400,"station_id":"ce4bhch2rcd13ifvqeug","pricing_plan_id":"cebpf4jnsgd1na2vs0mg"},{"bike_id":"f511734b-78f6-466c-a632-23e9869ef2bc","system_id":"levelo_inurba_marseille","lat":43.31225,"lon":5.36846,"is_reserved":false,"is_disabled":false,"rental_uris":{"android":"levelo://app?vid=f511734b-78f6-466c-a632-23e9869ef2bc","ios":"levelo://app?vid=f511734b-78f6-466c-a632-23e9869ef2bc"},"vehicle_type_id":"4","last_reported":1749561983,"current_range_meters":6400,"station_id":"ce4bgl92rcd13ifvqbq0","pricing_plan_id":"cebpf4jnsgd1na2vs0mg"},{"bike_id":"b6545986-792d-499b-9479-f607949f96ff","system_id":"levelo_inurba_marseille","lat":43.29604,"lon":5.37739,"is_reserved":false,"is_disabled":false,"rental_uris":{"android":"levelo://app?vid=b6545986-792d-499b-9479-f607949f96ff","ios":"levelo://app?vid=b6545986-792d-499b-9479-f607949f96ff"},"vehicle_type_id":"4","last_reported":1749561983,"current_range_meters":6400,"station_id":"ce4bgi92rcd13ifvqb90","pricing_plan_id":"cebpf4jnsgd1na2vs0mg"},{"bike_id":"0f9e53d0-6793-4e97-a331-7b6bd2838122","system_id":"levelo_inurba_marseille","lat":43.29384,"lon":5.37864,"is_reserved":false,"is_disabled":false,"rental_uris":{"android":"levelo://app?vid=0f9e53d0-6793-4e97-a331-7b6bd2838122","ios":"levelo://app?vid=0f9e53d0-6793-4e97-a331-7b6bd2838122"},"vehicle_type_id":"4","last_reported":1749561983,"current_range_meters":6400,"station_id":"ce4bgjh2rcd13ifvqbf0","pricing_plan_id":"cebpf4jnsgd1na2vs0mg"},{"bike_id":"7a286b17-17df-491a-a381-1330c2f7a715","system_id":"levelo_inurba_marseille","lat":43.29899,"lon":5.43697,"is_reserved":false,"is_disabled":false,"rental_uris":{"android":"levelo://app?vid=7a286b17-17df-491a-a381-1330c2f7a715","ios":"levelo://app?vid=7a286b17-17df-491a-a381-1330c2f7a715"},"vehicle_type_id":"4","last_reported":1749561983,"current_range_meters":6800,"station_id":"ce4bhpp2rcd13ifvqhfg","pricing_plan_id":"cebpf4jnsgd1na2vs0mg"},{"bike_id":"c4b3dab4-b653-4bf0-9659-417276f5595b","system_id":"levelo_inurba_marseille","lat":43.315796,"lon":5.403864,"is_reserved":false,"is_disabled":false,"rental_uris":{"android":"levelo://app?vid=c4b3dab4-b653-4bf0-9659-417276f5595b","ios":"levelo://app?vid=c4b3dab4-b653-4bf0-9659-417276f5595b"},"vehicle_type_id":"4","last_reported":1749561983,"current_range_meters":6800,"station_id":"ce4bh092rcd13ifvqd20","pricing_plan_id":"cebpf4jnsgd1na2vs0mg"},{"bike_id":"51adc039-d635-4d5b-8175-d5a65daaab68","system_id":"levelo_inurba_marseille","lat":43.33755,"lon":5.39185,"is_reserved":false,"is_disabled":false,"rental_uris":{"android":"levelo://app?vid=51adc039-d635-4d5b-8175-d5a65daaab68","ios":"levelo://app?vid=51adc039-d635-4d5b-8175-d5a65daaab68"},"vehicle_type_id":"4","last_reported":1749561983,"current_range_meters":6800,"station_id":"ce4bhr92rcd13ifvqhsg","pricing_plan_id":"cebpf4jnsgd1na2vs0mg"},{"bike_id":"69954aa2-69e7-499c-a960-3fbfc8261e77","system_id":"levelo_inurba_marseille","lat":43.246685,"lon":5.381699,"is_reserved":false,"is_disabled":false,"rental_uris":{"android":"levelo://app?vid=69954aa2-69e7-499c-a960-3fbfc8261e77","ios":"levelo://app?vid=69954aa2-69e7-499c-a960-3fbfc8261e77"},"vehicle_type_id":"4","last_reported":1749561983,"current_range_meters":7200,"station_id":"ce4bhih2rcd13ifvqfr0","pricing_plan_id":"cebpf4jnsgd1na2vs0mg"},{"bike_id":"b3f3286f-762d-4ef1-84d2-62b2d2a42f7f","system_id":"levelo_inurba_marseille","lat":43.26541,"lon":5.3729,"is_reserved":false,"is_disabled":false,"rental_uris":{"android":"levelo://app?vid=b3f3286f-762d-4ef1-84d2-62b2d2a42f7f","ios":"levelo://app?vid=b3f3286f-762d-4ef1-84d2-62b2d2a42f7f"},"vehicle_type_id":"4","last_reported":1749561983,"current_range_meters":7200,"station_id":"ce4bhg12rcd13ifvqf70","pricing_plan_id":"cebpf4jnsgd1na2vs0mg"},{"bike_id":"a5346bff-d082-4d57-86c8-986f81558826","system_id":"levelo_inurba_marseille","lat":43.28258,"lon":5.35078,"is_reserved":false,"is_disabled":false,"rental_uris":{"android":"levelo://app?vid=a5346bff-d082-4d57-86c8-986f81558826","ios":"levelo://app?vid=a5346bff-d082-4d57-86c8-986f81558826"},"vehicle_type_id":"4","last_reported":1749561983,"current_range_meters":7200,"station_id":"ce4bhbp2rcd13ifvqerg","pricing_plan_id":"cebpf4jnsgd1na2vs0mg"},{"bike_id":"75bfce5a-1131-413a-a16c-610ae85d001b","system_id":"levelo_inurba_marseille","lat":43.28942,"lon":5.36397,"is_reserved":false,"is_disabled":false,"rental_uris":{"android":"levelo://app?vid=75bfce5a-1131-413a-a16c-610ae85d001b","ios":"levelo://app?vid=75bfce5a-1131-413a-a16c-610ae85d001b"},"vehicle_type_id":"4","last_reported":1749561983,"current_range_meters":7200,"station_id":"ce4bhc92rcd13ifvqetg","pricing_plan_id":"cebpf4jnsgd1na2vs0mg"},{"bike_id":"fe52c15f-5aec-4b7e-998e-284a85843b2f","system_id":"levelo_inurba_marseille","lat":43.32086,"lon":5.36782,"is_reserved":false,"is_disabled":false,"rental_uris":{"android":"levelo://app?vid=fe52c15f-5aec-4b7e-998e-284a85843b2f","ios":"levelo://app?vid=fe52c15f-5aec-4b7e-998e-284a85843b2f"},"vehicle_type_id":"4","last_reported":1749561983,"current_range_meters":7200,"station_id":"ce4bhrh2rcd13ifvqhug","pricing_plan_id":"cebpf4jnsgd1na2vs0mg"},{"bike_id":"d9427388-6781-4d1a-8382-34606d1abc72","system_id":"levelo_inurba_marseille","lat":43.31166,"lon":5.38723,"is_reserved":false,"is_disabled":false,"rental_uris":{"android":"levelo://app?vid=d9427388-6781-4d1a-8382-34606d1abc72","ios":"levelo://app?vid=d9427388-6781-4d1a-8382-34606d1abc72"},"vehicle_type_id":"4","last_reported":1749561983,"current_range_meters":7200,"station_id":"ce4bgv12rcd13ifvqcp0","pricing_plan_id":"cebpf4jnsgd1na2vs0mg"},{"bike_id":"484aa692-619a-45a5-b4f9-a8339b6a6c04","system_id":"levelo_inurba_marseille","lat":43.29914,"lon":5.37489,"is_reserved":false,"is_disabled":false,"rental_uris":{"android":"levelo://app?vid=484aa692-619a-45a5-b4f9-a8339b6a6c04","ios":"levelo://app?vid=484aa692-619a-45a5-b4f9-a8339b6a6c04"},"vehicle_type_id":"4","last_reported":1749561983,"current_range_meters":8000,"station_id":"ce4bgjh2rcd13ifvqbg0","pricing_plan_id":"cebpf4jnsgd1na2vs0mg"},{"bike_id":"d98bf501-db36-4ca5-be8c-403784530628","system_id":"levelo_inurba_marseille","lat":43.29575,"lon":5.37521,"is_reserved":false,"is_disabled":false,"rental_uris":{"android":"levelo://app?vid=d98bf501-db36-4ca5-be8c-403784530628","ios":"levelo://app?vid=d98bf501-db36-4ca5-be8c-403784530628"},"vehicle_type_id":"4","last_reported":1749561983,"current_range_meters":8000,"station_id":"ce4bgh92rcd13ifvqb50","pricing_plan_id":"cebpf4jnsgd1na2vs0mg"},{"bike_id":"f0782932-4f65-40fc-9cee-a635f880f137","system_id":"levelo_inurba_marseille","lat":43.32359,"lon":5.36746,"is_reserved":false,"is_disabled":false,"rental_uris":{"android":"levelo://app?vid=f0782932-4f65-40fc-9cee-a635f880f137","ios":"levelo://app?vid=f0782932-4f65-40fc-9cee-a635f880f137"},"vehicle_type_id":"4","last_reported":1749561983,"current_range_meters":8000,"station_id":"ce4bhsh2rcd13ifvqi2g","pricing_plan_id":"cebpf4jnsgd1na2vs0mg"},{"bike_id":"291ab0bc-bb52-4ad0-a840-58f1558e3677","system_id":"levelo_inurba_marseille","lat":43.337444,"lon":5.374475,"is_reserved":false,"is_disabled":false,"rental_uris":{"android":"levelo://app?vid=291ab0bc-bb52-4ad0-a840-58f1558e3677","ios":"levelo://app?vid=291ab0bc-bb52-4ad0-a840-58f1558e3677"},"vehicle_type_id":"4","last_reported":1749561983,"current_range_meters":8000,"station_id":"","pricing_plan_id":"cebpf4jnsgd1na2vs0mg"},{"bike_id":"94526246-0702-4685-a09d-68c4eeb68fe5","system_id":"levelo_inurba_marseille","lat":43.22928,"lon":5.35376,"is_reserved":false,"is_disabled":false,"rental_uris":{"android":"levelo://app?vid=94526246-0702-4685-a09d-68c4eeb68fe5","ios":"levelo://app?vid=94526246-0702-4685-a09d-68c4eeb68fe5"},"vehicle_type_id":"4","last_reported":1749561983,"current_range_meters":8000,"station_id":"cpo3532slgdg3j2ikp40","pricing_plan_id":"cebpf4jnsgd1na2vs0mg"},{"bike_id":"da14da1f-7442-42b5-98f6-365f4fbd4c56","system_id":"levelo_inurba_marseille","lat":43.32632,"lon":5.41033,"is_reserved":false,"is_disabled":false,"rental_uris":{"android":"levelo://app?vid=da14da1f-7442-42b5-98f6-365f4fbd4c56","ios":"levelo://app?vid=da14da1f-7442-42b5-98f6-365f4fbd4c56"},"vehicle_type_id":"4","last_reported":1749561983,"current_range_meters":8000,"station_id":"ce4bhpp2rcd13ifvqhgg","pricing_plan_id":"cebpf4jnsgd1na2vs0mg"},{"bike_id":"2f32b755-3ca4-4102-8e33-37fff5e1ff8d","system_id":"levelo_inurba_marseille","lat":43.27218,"lon":5.40174,"is_reserved":false,"is_disabled":false,"rental_uris":{"android":"levelo://app?vid=2f32b755-3ca4-4102-8e33-37fff5e1ff8d","ios":"levelo://app?vid=2f32b755-3ca4-4102-8e33-37fff5e1ff8d"},"vehicle_type_id":"4","last_reported":1749561983,"current_range_meters":8400,"station_id":"","pricing_plan_id":"cebpf4jnsgd1na2vs0mg"},{"bike_id":"7fa8fe03-e761-44b8-8ced-e506fdbc1a3a","system_id":"levelo_inurba_marseille","lat":43.32113,"lon":5.3678,"is_reserved":false,"is_disabled":false,"rental_uris":{"android":"levelo://app?vid=7fa8fe03-e761-44b8-8ced-e506fdbc1a3a","ios":"levelo://app?vid=7fa8fe03-e761-44b8-8ced-e506fdbc1a3a"},"vehicle_type_id":"4","last_reported":1749561983,"current_range_meters":8400,"station_id":"ce4bhrh2rcd13ifvqhug","pricing_plan_id":"cebpf4jnsgd1na2vs0mg"},{"bike_id":"4e61f7a1-3cd6-4de2-bbfe-cca1466bd0cf","system_id":"levelo_inurba_marseille","lat":43.26558,"lon":5.372842,"is_reserved":false,"is_disabled":false,"rental_uris":{"android":"levelo://app?vid=4e61f7a1-3cd6-4de2-bbfe-cca1466bd0cf","ios":"levelo://app?vid=4e61f7a1-3cd6-4de2-bbfe-cca1466bd0cf"},"vehicle_type_id":"4","last_reported":1749561983,"current_range_meters":8400,"station_id":"ce4bhg12rcd13ifvqf70","pricing_plan_id":"cebpf4jnsgd1na2vs0mg"},{"bike_id":"b18ee83f-93c3-4115-b2f8-73de03270398","system_id":"levelo_inurba_marseille","lat":43.26228,"lon":5.40453,"is_reserved":false,"is_disabled":false,"rental_uris":{"android":"levelo://app?vid=b18ee83f-93c3-4115-b2f8-73de03270398","ios":"levelo://app?vid=b18ee83f-93c3-4115-b2f8-73de03270398"},"vehicle_type_id":"4","last_reported":1749561983,"current_range_meters":8400,"station_id":"ce4bhmh2rcd13ifvqgmg","pricing_plan_id":"cebpf4jnsgd1na2vs0mg"},{"bike_id":"88113087-f0bb-4133-ab2a-bbfce1f3d99a","system_id":"levelo_inurba_marseille","lat":43.317131,"lon":5.404646,"is_reserved":false,"is_disabled":true,"rental_uris":{"android":"levelo://app?vid=88113087-f0bb-4133-ab2a-bbfce1f3d99a","ios":"levelo://app?vid=88113087-f0bb-4133-ab2a-bbfce1f3d99a"},"vehicle_type_id":"4","last_reported":1749561983,"current_range_meters":8800,"station_id":"ce4bh012rcd13ifvqd00","pricing_plan_id":"cebpf4jnsgd1na2vs0mg"},{"bike_id":"0511cb9f-7dd3-4672-945b-236e9f0238ac","system_id":"levelo_inurba_marseille","lat":43.29815,"lon":5.37721,"is_reserved":false,"is_disabled":false,"rental_uris":{"android":"levelo://app?vid=0511cb9f-7dd3-4672-945b-236e9f0238ac","ios":"levelo://app?vid=0511cb9f-7dd3-4672-945b-236e9f0238ac"},"vehicle_type_id":"4","last_reported":1749561983,"current_range_meters":8800,"station_id":"","pricing_plan_id":"cebpf4jnsgd1na2vs0mg"},{"bike_id":"05d515d4-f9a4-4d33-9344-77da9a44570b","system_id":"levelo_inurba_marseille","lat":43.27621,"lon":5.36139,"is_reserved":false,"is_disabled":false,"rental_uris":{"android":"levelo://app?vid=05d515d4-f9a4-4d33-9344-77da9a44570b","ios":"levelo://app?vid=05d515d4-f9a4-4d33-9344-77da9a44570b"},"vehicle_type_id":"4","last_reported":1749561983,"current_range_meters":8800,"station_id":"ce4bgj92rcd13ifvqbe0","pricing_plan_id":"cebpf4jnsgd1na2vs0mg"},{"bike_id":"39251524-38db-430a-8bf1-4c42d4d1b828","system_id":"levelo_inurba_marseille","lat":43.29552,"lon":5.42283,"is_reserved":false,"is_disabled":false,"rental_uris":{"android":"levelo://app?vid=39251524-38db-430a-8bf1-4c42d4d1b828","ios":"levelo://app?vid=39251524-38db-430a-8bf1-4c42d4d1b828"},"vehicle_type_id":"4","last_reported":1749561983,"current_range_meters":8800,"station_id":"ce4bhph2rcd13ifvqhdg","pricing_plan_id":"cebpf4jnsgd1na2vs0mg"},{"bike_id":"9364ea33-40bd-4a6a-888a-f0bc24b0338b","system_id":"levelo_inurba_marseille","lat":43.32104,"lon":5.36784,"is_reserved":false,"is_disabled":false,"rental_uris":{"android":"levelo://app?vid=9364ea33-40bd-4a6a-888a-f0bc24b0338b","ios":"levelo://app?vid=9364ea33-40bd-4a6a-888a-f0bc24b0338b"},"vehicle_type_id":"4","last_reported":1749561983,"current_range_meters":9200,"station_id":"ce4bhrh2rcd13ifvqhug","pricing_plan_id":"cebpf4jnsgd1na2vs0mg"},{"bike_id":"39267307-bd6e-491c-a2c8-911e68539aaf","system_id":"levelo_inurba_marseille","lat":43.26216,"lon":5.40437,"is_reserved":false,"is_disabled":false,"rental_uris":{"android":"levelo://app?vid=39267307-bd6e-491c-a2c8-911e68539aaf","ios":"levelo://app?vid=39267307-bd6e-491c-a2c8-911e68539aaf"},"vehicle_type_id":"4","last_reported":1749561983,"current_range_meters":9200,"station_id":"ce4bhmh2rcd13ifvqgmg","pricing_plan_id":"cebpf4jnsgd1na2vs0mg"},{"bike_id":"ba509714-11ea-4d63-9ff5-405d995db14c","system_id":"levelo_inurba_marseille","lat":43.21748,"lon":5.34605,"is_reserved":false,"is_disabled":false,"rental_uris":{"android":"levelo://app?vid=ba509714-11ea-4d63-9ff5-405d995db14c","ios":"levelo://app?vid=ba509714-11ea-4d63-9ff5-405d995db14c"},"vehicle_type_id":"4","last_reported":1749561983,"current_range_meters":9200,"station_id":"st_cvj6r9ubvosntc0bgbag","pricing_plan_id":"cebpf4jnsgd1na2vs0mg"},{"bike_id":"1c139f07-cc13-444a-809e-1372010b1016","system_id":"levelo_inurba_marseille","lat":43.32368,"lon":5.38885,"is_reserved":false,"is_disabled":false,"rental_uris":{"android":"levelo://app?vid=1c139f07-cc13-444a-809e-1372010b1016","ios":"levelo://app?vid=1c139f07-cc13-444a-809e-1372010b1016"},"vehicle_type_id":"4","last_reported":1749561983,"current_range_meters":9600,"station_id":"ce4bhqp2rcd13ifvqhog","pricing_plan_id":"cebpf4jnsgd1na2vs0mg"},{"bike_id":"2eada90e-c5eb-42c9-8c97-793a5a4132a6","system_id":"levelo_inurba_marseille","lat":43.28616,"lon":5.351,"is_reserved":false,"is_disabled":false,"rental_uris":{"android":"levelo://app?vid=2eada90e-c5eb-42c9-8c97-793a5a4132a6","ios":"levelo://app?vid=2eada90e-c5eb-42c9-8c97-793a5a4132a6"},"vehicle_type_id":"4","last_reported":1749561983,"current_range_meters":9600,"station_id":"ce4bhch2rcd13ifvqeug","pricing_plan_id":"cebpf4jnsgd1na2vs0mg"},{"bike_id":"c8dc451c-d532-41f3-be2b-6db2b25513c6","system_id":"levelo_inurba_marseille","lat":43.26686,"lon":5.38272,"is_reserved":false,"is_disabled":false,"rental_uris":{"android":"levelo://app?vid=c8dc451c-d532-41f3-be2b-6db2b25513c6","ios":"levelo://app?vid=c8dc451c-d532-41f3-be2b-6db2b25513c6"},"vehicle_type_id":"4","last_reported":1749561983,"current_range_meters":9600,"station_id":"ce4bhg92rcd13ifvqf90","pricing_plan_id":"cebpf4jnsgd1na2vs0mg"},{"bike_id":"24e9e948-3262-4072-8dd0-7e254b70aef4","system_id":"levelo_inurba_marseille","lat":43.30977,"lon":5.39039,"is_reserved":false,"is_disabled":false,"rental_uris":{"android":"levelo://app?vid=24e9e948-3262-4072-8dd0-7e254b70aef4","ios":"levelo://app?vid=24e9e948-3262-4072-8dd0-7e254b70aef4"},"vehicle_type_id":"4","last_reported":1749561983,"current_range_meters":9600,"station_id":"ce4bgup2rcd13ifvqco0","pricing_plan_id":"cebpf4jnsgd1na2vs0mg"},{"bike_id":"75185e39-c33c-4718-bb79-ab1717928ea4","system_id":"levelo_inurba_marseille","lat":43.30098,"lon":5.3909,"is_reserved":false,"is_disabled":false,"rental_uris":{"android":"levelo://app?vid=75185e39-c33c-4718-bb79-ab1717928ea4","ios":"levelo://app?vid=75185e39-c33c-4718-bb79-ab1717928ea4"},"vehicle_type_id":"4","last_reported":1749561983,"current_range_meters":9600,"station_id":"ce4bh192rcd13ifvqdb0","pricing_plan_id":"cebpf4jnsgd1na2vs0mg"},{"bike_id":"bb6010de-0615-40a0-97bf-0d8cd3fe0ae1","system_id":"levelo_inurba_marseille","lat":43.31205,"lon":5.36795,"is_reserved":false,"is_disabled":false,"rental_uris":{"android":"levelo://app?vid=bb6010de-0615-40a0-97bf-0d8cd3fe0ae1","ios":"levelo://app?vid=bb6010de-0615-40a0-97bf-0d8cd3fe0ae1"},"vehicle_type_id":"4","last_reported":1749561983,"current_range_meters":9600,"station_id":"","pricing_plan_id":"cebpf4jnsgd1na2vs0mg"},{"bike_id":"7c08b478-6a45-49ea-8a87-1532756a4de1","system_id":"levelo_inurba_marseille","lat":43.2961,"lon":5.37736,"is_reserved":false,"is_disabled":false,"rental_uris":{"android":"levelo://app?vid=7c08b478-6a45-49ea-8a87-1532756a4de1","ios":"levelo://app?vid=7c08b478-6a45-49ea-8a87-1532756a4de1"},"vehicle_type_id":"4","last_reported":1749561983,"current_range_meters":10000,"station_id":"ce4bgi92rcd13ifvqb90","pricing_plan_id":"cebpf4jnsgd1na2vs0mg"},{"bike_id":"00ca30c3-b636-4824-8f37-e641de8b6bdb","system_id":"levelo_inurba_marseille","lat":43.30548,"lon":5.36711,"is_reserved":false,"is_disabled":false,"rental_uris":{"android":"levelo://app?vid=00ca30c3-b636-4824-8f37-e641de8b6bdb","ios":"levelo://app?vid=00ca30c3-b636-4824-8f37-e641de8b6bdb"},"vehicle_type_id":"4","last_reported":1749561983,"current_range_meters":10000,"station_id":"ce4bgrp2rcd13ifvqc9g","pricing_plan_id":"cebpf4jnsgd1na2vs0mg"},{"bike_id":"2c58e0c2-ddb0-4085-990f-114be7523baa","system_id":"levelo_inurba_marseille","lat":43.2722,"lon":5.39062,"is_reserved":false,"is_disabled":false,"rental_uris":{"android":"levelo://app?vid=2c58e0c2-ddb0-4085-990f-114be7523baa","ios":"levelo://app?vid=2c58e0c2-ddb0-4085-990f-114be7523baa"},"vehicle_type_id":"4","last_reported":1749561983,"current_range_meters":10000,"station_id":"","pricing_plan_id":"cebpf4jnsgd1na2vs0mg"},{"bike_id":"b6285f6b-e9e7-470d-9b6d-1afe99ab71bf","system_id":"levelo_inurba_marseille","lat":43.26198,"lon":5.42069,"is_reserved":false,"is_disabled":false,"rental_uris":{"android":"levelo://app?vid=b6285f6b-e9e7-470d-9b6d-1afe99ab71bf","ios":"levelo://app?vid=b6285f6b-e9e7-470d-9b6d-1afe99ab71bf"},"vehicle_type_id":"4","last_reported":1749561983,"current_range_meters":10000,"station_id":"","pricing_plan_id":"cebpf4jnsgd1na2vs0mg"},{"bike_id":"5895779b-04dc-4487-ad54-6e1e8556a6a7","system_id":"levelo_inurba_marseille","lat":43.28078,"lon":5.39658,"is_reserved":false,"is_disabled":false,"rental_uris":{"android":"levelo://app?vid=5895779b-04dc-4487-ad54-6e1e8556a6a7","ios":"levelo://app?vid=5895779b-04dc-4487-ad54-6e1e8556a6a7"},"vehicle_type_id":"4","last_reported":1749561983,"current_range_meters":10000,"station_id":"ce4bho12rcd13ifvqh2g","pricing_plan_id":"cebpf4jnsgd1na2vs0mg"},{"bike_id":"e0308ad2-2196-43dc-ad09-b0d9e057fceb","system_id":"levelo_inurba_marseille","lat":43.29623,"lon":5.37722,"is_reserved":false,"is_disabled":false,"rental_uris":{"android":"levelo://app?vid=e0308ad2-2196-43dc-ad09-b0d9e057fceb","ios":"levelo://app?vid=e0308ad2-2196-43dc-ad09-b0d9e057fceb"},"vehicle_type_id":"4","last_reported":1749561983,"current_range_meters":10000,"station_id":"ce4bgi92rcd13ifvqb90","pricing_plan_id":"cebpf4jnsgd1na2vs0mg"},{"bike_id":"aaa4cbb8-76e1-45fc-bc46-c6ae7ae1a309","system_id":"levelo_inurba_marseille","lat":43.30131,"lon":5.39882,"is_reserved":false,"is_disabled":false,"rental_uris":{"android":"levelo://app?vid=aaa4cbb8-76e1-45fc-bc46-c6ae7ae1a309","ios":"levelo://app?vid=aaa4cbb8-76e1-45fc-bc46-c6ae7ae1a309"},"vehicle_type_id":"4","last_reported":1749561983,"current_range_meters":10000,"station_id":"ce4bh0h2rcd13ifvqd40","pricing_plan_id":"cebpf4jnsgd1na2vs0mg"},{"bike_id":"e8b55a60-db3c-4c16-bc77-fed3967a2f91","system_id":"levelo_inurba_marseille","lat":43.22952,"lon":5.35377,"is_reserved":false,"is_disabled":false,"rental_uris":{"android":"levelo://app?vid=e8b55a60-db3c-4c16-bc77-fed3967a2f91","ios":"levelo://app?vid=e8b55a60-db3c-4c16-bc77-fed3967a2f91"},"vehicle_type_id":"4","last_reported":1749561983,"current_range_meters":10800,"station_id":"cpo3532slgdg3j2ikp40","pricing_plan_id":"cebpf4jnsgd1na2vs0mg"},{"bike_id":"0c38b452-65e2-4ce3-aec2-bfd118fb48ea","system_id":"levelo_inurba_marseille","lat":43.28936,"lon":5.36388,"is_reserved":false,"is_disabled":false,"rental_uris":{"android":"levelo://app?vid=0c38b452-65e2-4ce3-aec2-bfd118fb48ea","ios":"levelo://app?vid=0c38b452-65e2-4ce3-aec2-bfd118fb48ea"},"vehicle_type_id":"4","last_reported":1749561983,"current_range_meters":10800,"station_id":"ce4bhc92rcd13ifvqetg","pricing_plan_id":"cebpf4jnsgd1na2vs0mg"},{"bike_id":"39d32260-51d5-455a-ba53-6471389bd255","system_id":"levelo_inurba_marseille","lat":43.31988,"lon":5.37621,"is_reserved":false,"is_disabled":false,"rental_uris":{"android":"levelo://app?vid=39d32260-51d5-455a-ba53-6471389bd255","ios":"levelo://app?vid=39d32260-51d5-455a-ba53-6471389bd255"},"vehicle_type_id":"4","last_reported":1749561983,"current_range_meters":10800,"station_id":"","pricing_plan_id":"cebpf4jnsgd1na2vs0mg"},{"bike_id":"94412bad-4301-48d6-b548-6b7fb7b66f22","system_id":"levelo_inurba_marseille","lat":43.31397,"lon":5.36705,"is_reserved":false,"is_disabled":false,"rental_uris":{"android":"levelo://app?vid=94412bad-4301-48d6-b548-6b7fb7b66f22","ios":"levelo://app?vid=94412bad-4301-48d6-b548-6b7fb7b66f22"},"vehicle_type_id":"4","last_reported":1749561983,"current_range_meters":10800,"station_id":"ce4bgr92rcd13ifvqc6g","pricing_plan_id":"cebpf4jnsgd1na2vs0mg"},{"bike_id":"8482a2b1-f7c6-4bfa-8e38-02da29033c05","system_id":"levelo_inurba_marseille","lat":43.24993,"lon":5.39662,"is_reserved":false,"is_disabled":false,"rental_uris":{"android":"levelo://app?vid=8482a2b1-f7c6-4bfa-8e38-02da29033c05","ios":"levelo://app?vid=8482a2b1-f7c6-4bfa-8e38-02da29033c05"},"vehicle_type_id":"4","last_reported":1749561983,"current_range_meters":11200,"station_id":"","pricing_plan_id":"cebpf4jnsgd1na2vs0mg"},{"bike_id":"d157ec7f-a874-46cb-8308-aad07e93098c","system_id":"levelo_inurba_marseille","lat":43.28625,"lon":5.35143,"is_reserved":false,"is_disabled":false,"rental_uris":{"android":"levelo://app?vid=d157ec7f-a874-46cb-8308-aad07e93098c","ios":"levelo://app?vid=d157ec7f-a874-46cb-8308-aad07e93098c"},"vehicle_type_id":"4","last_reported":1749561983,"current_range_meters":11200,"station_id":"ce4bhch2rcd13ifvqeug","pricing_plan_id":"cebpf4jnsgd1na2vs0mg"},{"bike_id":"6890b9e2-87e1-40b6-9e0f-8af99f456400","system_id":"levelo_inurba_marseille","lat":43.29598,"lon":5.38101,"is_reserved":false,"is_disabled":true,"rental_uris":{"android":"levelo://app?vid=6890b9e2-87e1-40b6-9e0f-8af99f456400","ios":"levelo://app?vid=6890b9e2-87e1-40b6-9e0f-8af99f456400"},"vehicle_type_id":"4","last_reported":1749561983,"current_range_meters":11200,"station_id":"ce4bgl12rcd13ifvqbo0","pricing_plan_id":"cebpf4jnsgd1na2vs0mg"},{"bike_id":"6aa1ca3d-3395-432d-89a1-78a7734538b2","system_id":"levelo_inurba_marseille","lat":43.2465,"lon":5.38888,"is_reserved":false,"is_disabled":false,"rental_uris":{"android":"levelo://app?vid=6aa1ca3d-3395-432d-89a1-78a7734538b2","ios":"levelo://app?vid=6aa1ca3d-3395-432d-89a1-78a7734538b2"},"vehicle_type_id":"4","last_reported":1749561983,"current_range_meters":10800,"station_id":"ce4bhg12rcd13ifvqf60","pricing_plan_id":"cebpf4jnsgd1na2vs0mg"},{"bike_id":"89f126c4-21ea-4de6-9c58-0b7a25a6d219","system_id":"levelo_inurba_marseille","lat":43.29296,"lon":5.37464,"is_reserved":false,"is_disabled":false,"rental_uris":{"android":"levelo://app?vid=89f126c4-21ea-4de6-9c58-0b7a25a6d219","ios":"levelo://app?vid=89f126c4-21ea-4de6-9c58-0b7a25a6d219"},"vehicle_type_id":"4","last_reported":1749561983,"current_range_meters":10800,"station_id":"ce4bgi12rcd13ifvqb70","pricing_plan_id":"cebpf4jnsgd1na2vs0mg"},{"bike_id":"941b1d51-e847-44e2-9a5b-ce24be132249","system_id":"levelo_inurba_marseille","lat":43.2808,"lon":5.3966,"is_reserved":false,"is_disabled":false,"rental_uris":{"android":"levelo://app?vid=941b1d51-e847-44e2-9a5b-ce24be132249","ios":"levelo://app?vid=941b1d51-e847-44e2-9a5b-ce24be132249"},"vehicle_type_id":"4","last_reported":1749561983,"current_range_meters":11600,"station_id":"ce4bho12rcd13ifvqh2g","pricing_plan_id":"cebpf4jnsgd1na2vs0mg"},{"bike_id":"5077581b-cebb-46fc-ba69-4fa8272d4810","system_id":"levelo_inurba_marseille","lat":43.21371,"lon":5.35539,"is_reserved":false,"is_disabled":false,"rental_uris":{"android":"levelo://app?vid=5077581b-cebb-46fc-ba69-4fa8272d4810","ios":"levelo://app?vid=5077581b-cebb-46fc-ba69-4fa8272d4810"},"vehicle_type_id":"4","last_reported":1749561983,"current_range_meters":11600,"station_id":"","pricing_plan_id":"cebpf4jnsgd1na2vs0mg"},{"bike_id":"32ec1162-655f-42f8-86b4-297bd9442945","system_id":"levelo_inurba_marseille","lat":43.28265,"lon":5.35068,"is_reserved":false,"is_disabled":false,"rental_uris":{"android":"levelo://app?vid=32ec1162-655f-42f8-86b4-297bd9442945","ios":"levelo://app?vid=32ec1162-655f-42f8-86b4-297bd9442945"},"vehicle_type_id":"4","last_reported":1749561983,"current_range_meters":11600,"station_id":"ce4bhbp2rcd13ifvqerg","pricing_plan_id":"cebpf4jnsgd1na2vs0mg"},{"bike_id":"8364206e-c67b-4ae1-a11d-c78d9ea2200e","system_id":"levelo_inurba_marseille","lat":43.28088,"lon":5.39658,"is_reserved":false,"is_disabled":false,"rental_uris":{"android":"levelo://app?vid=8364206e-c67b-4ae1-a11d-c78d9ea2200e","ios":"levelo://app?vid=8364206e-c67b-4ae1-a11d-c78d9ea2200e"},"vehicle_type_id":"4","last_reported":1749561983,"current_range_meters":11600,"station_id":"ce4bho12rcd13ifvqh2g","pricing_plan_id":"cebpf4jnsgd1na2vs0mg"},{"bike_id":"402b268f-51d8-4319-85da-3f411d4d5d91","system_id":"levelo_inurba_marseille","lat":43.21197,"lon":5.35079,"is_reserved":false,"is_disabled":false,"rental_uris":{"android":"levelo://app?vid=402b268f-51d8-4319-85da-3f411d4d5d91","ios":"levelo://app?vid=402b268f-51d8-4319-85da-3f411d4d5d91"},"vehicle_type_id":"4","last_reported":1749561983,"current_range_meters":11600,"station_id":"st_cvj6sg6p6f1abm77japg","pricing_plan_id":"cebpf4jnsgd1na2vs0mg"},{"bike_id":"1502ceb1-491a-4700-ac47-61a541830cd3","system_id":"levelo_inurba_marseille","lat":43.28268,"lon":5.35068,"is_reserved":false,"is_disabled":false,"rental_uris":{"android":"levelo://app?vid=1502ceb1-491a-4700-ac47-61a541830cd3","ios":"levelo://app?vid=1502ceb1-491a-4700-ac47-61a541830cd3"},"vehicle_type_id":"4","last_reported":1749561983,"current_range_meters":11600,"station_id":"ce4bhbp2rcd13ifvqerg","pricing_plan_id":"cebpf4jnsgd1na2vs0mg"},{"bike_id":"75d5aaa7-d932-4da7-9e2e-20b15e0eaeee","system_id":"levelo_inurba_marseille","lat":43.28416,"lon":5.34983,"is_reserved":false,"is_disabled":false,"rental_uris":{"android":"levelo://app?vid=75d5aaa7-d932-4da7-9e2e-20b15e0eaeee","ios":"levelo://app?vid=75d5aaa7-d932-4da7-9e2e-20b15e0eaeee"},"vehicle_type_id":"4","last_reported":1749561983,"current_range_meters":12000,"station_id":"ce4bhbh2rcd13ifvqepg","pricing_plan_id":"cebpf4jnsgd1na2vs0mg"},{"bike_id":"ef555bdb-3115-4b1f-9398-9c76776e1204","system_id":"levelo_inurba_marseille","lat":43.26061,"lon":5.37378,"is_reserved":false,"is_disabled":false,"rental_uris":{"android":"levelo://app?vid=ef555bdb-3115-4b1f-9398-9c76776e1204","ios":"levelo://app?vid=ef555bdb-3115-4b1f-9398-9c76776e1204"},"vehicle_type_id":"4","last_reported":1749561983,"current_range_meters":12000,"station_id":"","pricing_plan_id":"cebpf4jnsgd1na2vs0mg"},{"bike_id":"0762674f-1e89-4d4c-aa36-9ccaf8f24fa7","system_id":"levelo_inurba_marseille","lat":43.28419,"lon":5.34997,"is_reserved":false,"is_disabled":false,"rental_uris":{"android":"levelo://app?vid=0762674f-1e89-4d4c-aa36-9ccaf8f24fa7","ios":"levelo://app?vid=0762674f-1e89-4d4c-aa36-9ccaf8f24fa7"},"vehicle_type_id":"4","last_reported":1749561983,"current_range_meters":12000,"station_id":"ce4bhbh2rcd13ifvqepg","pricing_plan_id":"cebpf4jnsgd1na2vs0mg"},{"bike_id":"2fb82a4e-0ee1-4839-87e1-0819fb18ed3d","system_id":"levelo_inurba_marseille","lat":43.27064,"lon":5.42273,"is_reserved":false,"is_disabled":true,"rental_uris":{"android":"levelo://app?vid=2fb82a4e-0ee1-4839-87e1-0819fb18ed3d","ios":"levelo://app?vid=2fb82a4e-0ee1-4839-87e1-0819fb18ed3d"},"vehicle_type_id":"4","last_reported":1749561983,"current_range_meters":12000,"station_id":"ce4bhk92rcd13ifvqgb0","pricing_plan_id":"cebpf4jnsgd1na2vs0mg"},{"bike_id":"6928e466-519a-43b8-8ee0-554ccb89f881","system_id":"levelo_inurba_marseille","lat":43.28429,"lon":5.34979,"is_reserved":false,"is_disabled":false,"rental_uris":{"android":"levelo://app?vid=6928e466-519a-43b8-8ee0-554ccb89f881","ios":"levelo://app?vid=6928e466-519a-43b8-8ee0-554ccb89f881"},"vehicle_type_id":"4","last_reported":1749561983,"current_range_meters":12400,"station_id":"ce4bhbh2rcd13ifvqepg","pricing_plan_id":"cebpf4jnsgd1na2vs0mg"},{"bike_id":"b7651752-8eb3-4b67-91fc-0a6e006c8d1f","system_id":"levelo_inurba_marseille","lat":43.21188,"lon":5.35083,"is_reserved":false,"is_disabled":false,"rental_uris":{"android":"levelo://app?vid=b7651752-8eb3-4b67-91fc-0a6e006c8d1f","ios":"levelo://app?vid=b7651752-8eb3-4b67-91fc-0a6e006c8d1f"},"vehicle_type_id":"4","last_reported":1749561983,"current_range_meters":12400,"station_id":"st_cvj6sg6p6f1abm77japg","pricing_plan_id":"cebpf4jnsgd1na2vs0mg"},{"bike_id":"01b92f52-b586-4f02-9e33-ecdd33cb62c9","system_id":"levelo_inurba_marseille","lat":43.2986,"lon":5.36293,"is_reserved":false,"is_disabled":true,"rental_uris":{"android":"levelo://app?vid=01b92f52-b586-4f02-9e33-ecdd33cb62c9","ios":"levelo://app?vid=01b92f52-b586-4f02-9e33-ecdd33cb62c9"},"vehicle_type_id":"4","last_reported":1749561983,"current_range_meters":12400,"station_id":"ce4bgpp2rcd13ifvqc3g","pricing_plan_id":"cebpf4jnsgd1na2vs0mg"},{"bike_id":"1384cec9-c12d-4554-9d4d-7f8178ca8cd1","system_id":"levelo_inurba_marseille","lat":43.24079,"lon":5.37749,"is_reserved":false,"is_disabled":false,"rental_uris":{"android":"levelo://app?vid=1384cec9-c12d-4554-9d4d-7f8178ca8cd1","ios":"levelo://app?vid=1384cec9-c12d-4554-9d4d-7f8178ca8cd1"},"vehicle_type_id":"4","last_reported":1749561983,"current_range_meters":12400,"station_id":"ce4bhnp2rcd13ifvqgvg","pricing_plan_id":"cebpf4jnsgd1na2vs0mg"},{"bike_id":"739aa52f-5224-43de-af6c-c0bf46d7a7f9","system_id":"levelo_inurba_marseille","lat":43.25754,"lon":5.41107,"is_reserved":false,"is_disabled":false,"rental_uris":{"android":"levelo://app?vid=739aa52f-5224-43de-af6c-c0bf46d7a7f9","ios":"levelo://app?vid=739aa52f-5224-43de-af6c-c0bf46d7a7f9"},"vehicle_type_id":"4","last_reported":1749561983,"current_range_meters":12400,"station_id":"ce4bhkp2rcd13ifvqgd0","pricing_plan_id":"cebpf4jnsgd1na2vs0mg"},{"bike_id":"5bb83e35-955a-4966-b984-ea4387536afb","system_id":"levelo_inurba_marseille","lat":43.29705,"lon":5.37704,"is_reserved":false,"is_disabled":false,"rental_uris":{"android":"levelo://app?vid=5bb83e35-955a-4966-b984-ea4387536afb","ios":"levelo://app?vid=5bb83e35-955a-4966-b984-ea4387536afb"},"vehicle_type_id":"4","last_reported":1749561983,"current_range_meters":12800,"station_id":"ce4bgkh2rcd13ifvqbl0","pricing_plan_id":"cebpf4jnsgd1na2vs0mg"},{"bike_id":"ca27e12a-1f2d-4cf2-be29-12a2b9ff1547","system_id":"levelo_inurba_marseille","lat":43.31721,"lon":5.42418,"is_reserved":false,"is_disabled":false,"rental_uris":{"android":"levelo://app?vid=ca27e12a-1f2d-4cf2-be29-12a2b9ff1547","ios":"levelo://app?vid=ca27e12a-1f2d-4cf2-be29-12a2b9ff1547"},"vehicle_type_id":"4","last_reported":1749561983,"current_range_meters":12800,"station_id":"ce4bhp92rcd13ifvqhbg","pricing_plan_id":"cebpf4jnsgd1na2vs0mg"},{"bike_id":"1e11feb0-0a6e-4b0e-aa98-d035d3992658","system_id":"levelo_inurba_marseille","lat":43.32483,"lon":5.42443,"is_reserved":false,"is_disabled":false,"rental_uris":{"android":"levelo://app?vid=1e11feb0-0a6e-4b0e-aa98-d035d3992658","ios":"levelo://app?vid=1e11feb0-0a6e-4b0e-aa98-d035d3992658"},"vehicle_type_id":"4","last_reported":1749561983,"current_range_meters":12800,"station_id":"","pricing_plan_id":"cebpf4jnsgd1na2vs0mg"},{"bike_id":"43e6bdd8-fa17-4288-ae34-fd3c6f00283d","system_id":"levelo_inurba_marseille","lat":43.29006,"lon":5.35608,"is_reserved":false,"is_disabled":false,"rental_uris":{"android":"levelo://app?vid=43e6bdd8-fa17-4288-ae34-fd3c6f00283d","ios":"levelo://app?vid=43e6bdd8-fa17-4288-ae34-fd3c6f00283d"},"vehicle_type_id":"4","last_reported":1749561983,"current_range_meters":13600,"station_id":"ce4bhb92rcd13ifvqen0","pricing_plan_id":"cebpf4jnsgd1na2vs0mg"},{"bike_id":"aefad6f5-1e2d-43c1-b5bd-e6fe12a36651","system_id":"levelo_inurba_marseille","lat":43.25586,"lon":5.38232,"is_reserved":false,"is_disabled":false,"rental_uris":{"android":"levelo://app?vid=aefad6f5-1e2d-43c1-b5bd-e6fe12a36651","ios":"levelo://app?vid=aefad6f5-1e2d-43c1-b5bd-e6fe12a36651"},"vehicle_type_id":"4","last_reported":1749561983,"current_range_meters":13600,"station_id":"ce4bhih2rcd13ifvqfs0","pricing_plan_id":"cebpf4jnsgd1na2vs0mg"},{"bike_id":"e731bcd8-8502-4702-8819-ceb520200a7e","system_id":"levelo_inurba_marseille","lat":43.3171,"lon":5.43704,"is_reserved":false,"is_disabled":false,"rental_uris":{"android":"levelo://app?vid=e731bcd8-8502-4702-8819-ceb520200a7e","ios":"levelo://app?vid=e731bcd8-8502-4702-8819-ceb520200a7e"},"vehicle_type_id":"4","last_reported":1749561983,"current_range_meters":14000,"station_id":"ce4bhp92rcd13ifvqhcg","pricing_plan_id":"cebpf4jnsgd1na2vs0mg"},{"bike_id":"b7cfc3d2-8992-4ae5-bc0e-f8e3ccd246e3","system_id":"levelo_inurba_marseille","lat":43.29927,"lon":5.36535,"is_reserved":false,"is_disabled":false,"rental_uris":{"android":"levelo://app?vid=b7cfc3d2-8992-4ae5-bc0e-f8e3ccd246e3","ios":"levelo://app?vid=b7cfc3d2-8992-4ae5-bc0e-f8e3ccd246e3"},"vehicle_type_id":"4","last_reported":1749561983,"current_range_meters":14000,"station_id":"ce4bgm92rcd13ifvqbr0","pricing_plan_id":"cebpf4jnsgd1na2vs0mg"},{"bike_id":"d79f8897-fd47-4fae-bfde-e2efae5c93a1","system_id":"levelo_inurba_marseille","lat":43.29556,"lon":5.422743,"is_reserved":false,"is_disabled":false,"rental_uris":{"android":"levelo://app?vid=d79f8897-fd47-4fae-bfde-e2efae5c93a1","ios":"levelo://app?vid=d79f8897-fd47-4fae-bfde-e2efae5c93a1"},"vehicle_type_id":"4","last_reported":1749561983,"current_range_meters":14000,"station_id":"ce4bhph2rcd13ifvqhdg","pricing_plan_id":"cebpf4jnsgd1na2vs0mg"},{"bike_id":"6a2a1f4d-d747-4b12-b632-efc649b4ba02","system_id":"levelo_inurba_marseille","lat":43.28677,"lon":5.3635,"is_reserved":false,"is_disabled":false,"rental_uris":{"android":"levelo://app?vid=6a2a1f4d-d747-4b12-b632-efc649b4ba02","ios":"levelo://app?vid=6a2a1f4d-d747-4b12-b632-efc649b4ba02"},"vehicle_type_id":"4","last_reported":1749561983,"current_range_meters":14000,"station_id":"ce4bhah2rcd13ifvqej0","pricing_plan_id":"cebpf4jnsgd1na2vs0mg"},{"bike_id":"7a9e8809-8de2-4b8e-bf39-c55052174797","system_id":"levelo_inurba_marseille","lat":43.23067,"lon":5.35488,"is_reserved":false,"is_disabled":false,"rental_uris":{"android":"levelo://app?vid=7a9e8809-8de2-4b8e-bf39-c55052174797","ios":"levelo://app?vid=7a9e8809-8de2-4b8e-bf39-c55052174797"},"vehicle_type_id":"4","last_reported":1749561983,"current_range_meters":14400,"station_id":"cpo3342slgdg3j2ifvpg","pricing_plan_id":"cebpf4jnsgd1na2vs0mg"},{"bike_id":"c9375876-5227-4f49-a416-c76eb38d7bf4","system_id":"levelo_inurba_marseille","lat":43.31314,"lon":5.39657,"is_reserved":false,"is_disabled":false,"rental_uris":{"android":"levelo://app?vid=c9375876-5227-4f49-a416-c76eb38d7bf4","ios":"levelo://app?vid=c9375876-5227-4f49-a416-c76eb38d7bf4"},"vehicle_type_id":"4","last_reported":1749561983,"current_range_meters":14400,"station_id":"ce4bgvp2rcd13ifvqcu0","pricing_plan_id":"cebpf4jnsgd1na2vs0mg"},{"bike_id":"b0850e0a-f2b7-4110-9afa-05261f92da0b","system_id":"levelo_inurba_marseille","lat":43.291618,"lon":5.382971,"is_reserved":false,"is_disabled":false,"rental_uris":{"android":"levelo://app?vid=b0850e0a-f2b7-4110-9afa-05261f92da0b","ios":"levelo://app?vid=b0850e0a-f2b7-4110-9afa-05261f92da0b"},"vehicle_type_id":"4","last_reported":1749561983,"current_range_meters":14400,"station_id":"ce4bh692rcd13ifvqea0","pricing_plan_id":"cebpf4jnsgd1na2vs0mg"},{"bike_id":"4abc4b72-2d6b-4c39-a61c-466a6192d831","system_id":"levelo_inurba_marseille","lat":43.29558,"lon":5.423,"is_reserved":false,"is_disabled":false,"rental_uris":{"android":"levelo://app?vid=4abc4b72-2d6b-4c39-a61c-466a6192d831","ios":"levelo://app?vid=4abc4b72-2d6b-4c39-a61c-466a6192d831"},"vehicle_type_id":"4","last_reported":1749561983,"current_range_meters":14400,"station_id":"ce4bhph2rcd13ifvqhdg","pricing_plan_id":"cebpf4jnsgd1na2vs0mg"},{"bike_id":"57968a3a-164b-48a3-afb8-471ac1e74b7b","system_id":"levelo_inurba_marseille","lat":43.24659,"lon":5.38178,"is_reserved":false,"is_disabled":false,"rental_uris":{"android":"levelo://app?vid=57968a3a-164b-48a3-afb8-471ac1e74b7b","ios":"levelo://app?vid=57968a3a-164b-48a3-afb8-471ac1e74b7b"},"vehicle_type_id":"4","last_reported":1749561983,"current_range_meters":14400,"station_id":"ce4bhih2rcd13ifvqfr0","pricing_plan_id":"cebpf4jnsgd1na2vs0mg"},{"bike_id":"e1f0cc77-318d-45d4-b070-ee3fe505379f","system_id":"levelo_inurba_marseille","lat":43.31362,"lon":5.3672,"is_reserved":false,"is_disabled":false,"rental_uris":{"android":"levelo://app?vid=e1f0cc77-318d-45d4-b070-ee3fe505379f","ios":"levelo://app?vid=e1f0cc77-318d-45d4-b070-ee3fe505379f"},"vehicle_type_id":"4","last_reported":1749561983,"current_range_meters":14400,"station_id":"ce4bgr92rcd13ifvqc6g","pricing_plan_id":"cebpf4jnsgd1na2vs0mg"},{"bike_id":"abcd2dc9-4396-440f-85b3-9d9064401860","system_id":"levelo_inurba_marseille","lat":43.31358,"lon":5.36741,"is_reserved":false,"is_disabled":false,"rental_uris":{"android":"levelo://app?vid=abcd2dc9-4396-440f-85b3-9d9064401860","ios":"levelo://app?vid=abcd2dc9-4396-440f-85b3-9d9064401860"},"vehicle_type_id":"4","last_reported":1749561983,"current_range_meters":14400,"station_id":"ce4bgr92rcd13ifvqc6g","pricing_plan_id":"cebpf4jnsgd1na2vs0mg"},{"bike_id":"187b0a7b-e256-4c19-9794-bb250a6c5653","system_id":"levelo_inurba_marseille","lat":43.31842,"lon":5.37963,"is_reserved":false,"is_disabled":false,"rental_uris":{"android":"levelo://app?vid=187b0a7b-e256-4c19-9794-bb250a6c5653","ios":"levelo://app?vid=187b0a7b-e256-4c19-9794-bb250a6c5653"},"vehicle_type_id":"4","last_reported":1749561983,"current_range_meters":14400,"station_id":"","pricing_plan_id":"cebpf4jnsgd1na2vs0mg"},{"bike_id":"15138ce4-9850-4a09-9eb2-0da12393d0d8","system_id":"levelo_inurba_marseille","lat":43.31709,"lon":5.43691,"is_reserved":false,"is_disabled":false,"rental_uris":{"android":"levelo://app?vid=15138ce4-9850-4a09-9eb2-0da12393d0d8","ios":"levelo://app?vid=15138ce4-9850-4a09-9eb2-0da12393d0d8"},"vehicle_type_id":"4","last_reported":1749561983,"current_range_meters":14400,"station_id":"ce4bhp92rcd13ifvqhcg","pricing_plan_id":"cebpf4jnsgd1na2vs0mg"},{"bike_id":"5a55eb0f-0567-487e-a6a7-2cfcfc5473aa","system_id":"levelo_inurba_marseille","lat":43.33799,"lon":5.37428,"is_reserved":false,"is_disabled":false,"rental_uris":{"android":"levelo://app?vid=5a55eb0f-0567-487e-a6a7-2cfcfc5473aa","ios":"levelo://app?vid=5a55eb0f-0567-487e-a6a7-2cfcfc5473aa"},"vehicle_type_id":"4","last_reported":1749561983,"current_range_meters":14800,"station_id":"","pricing_plan_id":"cebpf4jnsgd1na2vs0mg"},{"bike_id":"0a454070-7316-4942-b540-020a9e8c1452","system_id":"levelo_inurba_marseille","lat":43.31702,"lon":5.43736,"is_reserved":false,"is_disabled":false,"rental_uris":{"android":"levelo://app?vid=0a454070-7316-4942-b540-020a9e8c1452","ios":"levelo://app?vid=0a454070-7316-4942-b540-020a9e8c1452"},"vehicle_type_id":"4","last_reported":1749561983,"current_range_meters":14800,"station_id":"ce4bhp92rcd13ifvqhcg","pricing_plan_id":"cebpf4jnsgd1na2vs0mg"},{"bike_id":"a7e979e5-7afa-4658-b3e7-2502946031d3","system_id":"levelo_inurba_marseille","lat":43.25513,"lon":5.42034,"is_reserved":false,"is_disabled":false,"rental_uris":{"android":"levelo://app?vid=a7e979e5-7afa-4658-b3e7-2502946031d3","ios":"levelo://app?vid=a7e979e5-7afa-4658-b3e7-2502946031d3"},"vehicle_type_id":"4","last_reported":1749561983,"current_range_meters":14800,"station_id":"","pricing_plan_id":"cebpf4jnsgd1na2vs0mg"},{"bike_id":"1e20f032-0f6a-40b2-ad29-e4d2225496fa","system_id":"levelo_inurba_marseille","lat":43.30287,"lon":5.37069,"is_reserved":false,"is_disabled":false,"rental_uris":{"android":"levelo://app?vid=1e20f032-0f6a-40b2-ad29-e4d2225496fa","ios":"levelo://app?vid=1e20f032-0f6a-40b2-ad29-e4d2225496fa"},"vehicle_type_id":"4","last_reported":1749561983,"current_range_meters":14800,"station_id":"","pricing_plan_id":"cebpf4jnsgd1na2vs0mg"},{"bike_id":"7eba4297-2093-43e0-90e4-b5a9fc361351","system_id":"levelo_inurba_marseille","lat":43.26214,"lon":5.37441,"is_reserved":false,"is_disabled":false,"rental_uris":{"android":"levelo://app?vid=7eba4297-2093-43e0-90e4-b5a9fc361351","ios":"levelo://app?vid=7eba4297-2093-43e0-90e4-b5a9fc361351"},"vehicle_type_id":"4","last_reported":1749561983,"current_range_meters":14800,"station_id":"ce4bhgp2rcd13ifvqfc0","pricing_plan_id":"cebpf4jnsgd1na2vs0mg"},{"bike_id":"0ec2e538-531d-4f29-811c-8e202a41be70","system_id":"levelo_inurba_marseille","lat":43.30079,"lon":5.39076,"is_reserved":false,"is_disabled":false,"rental_uris":{"android":"levelo://app?vid=0ec2e538-531d-4f29-811c-8e202a41be70","ios":"levelo://app?vid=0ec2e538-531d-4f29-811c-8e202a41be70"},"vehicle_type_id":"4","last_reported":1749561983,"current_range_meters":14400,"station_id":"ce4bh192rcd13ifvqdb0","pricing_plan_id":"cebpf4jnsgd1na2vs0mg"},{"bike_id":"c30dbedc-c866-492b-a092-32c1ee0c1f22","system_id":"levelo_inurba_marseille","lat":43.29537,"lon":5.38545,"is_reserved":false,"is_disabled":true,"rental_uris":{"android":"levelo://app?vid=c30dbedc-c866-492b-a092-32c1ee0c1f22","ios":"levelo://app?vid=c30dbedc-c866-492b-a092-32c1ee0c1f22"},"vehicle_type_id":"4","last_reported":1749561983,"current_range_meters":15200,"station_id":"ce4bgih2rcd13ifvqba0","pricing_plan_id":"cebpf4jnsgd1na2vs0mg"},{"bike_id":"dbc59a63-553e-4a56-9edf-63244243f263","system_id":"levelo_inurba_marseille","lat":43.28422,"lon":5.34986,"is_reserved":false,"is_disabled":false,"rental_uris":{"android":"levelo://app?vid=dbc59a63-553e-4a56-9edf-63244243f263","ios":"levelo://app?vid=dbc59a63-553e-4a56-9edf-63244243f263"},"vehicle_type_id":"4","last_reported":1749561983,"current_range_meters":15200,"station_id":"ce4bhbh2rcd13ifvqepg","pricing_plan_id":"cebpf4jnsgd1na2vs0mg"},{"bike_id":"09d9fc69-1955-49ad-9079-7391dea662bb","system_id":"levelo_inurba_marseille","lat":43.29181,"lon":5.39314,"is_reserved":false,"is_disabled":false,"rental_uris":{"android":"levelo://app?vid=09d9fc69-1955-49ad-9079-7391dea662bb","ios":"levelo://app?vid=09d9fc69-1955-49ad-9079-7391dea662bb"},"vehicle_type_id":"4","last_reported":1749561983,"current_range_meters":15200,"station_id":"ce4bh192rcd13ifvqdd0","pricing_plan_id":"cebpf4jnsgd1na2vs0mg"},{"bike_id":"16fd1a23-d1ec-4f62-be9c-f0fb5b350be2","system_id":"levelo_inurba_marseille","lat":43.23966,"lon":5.36632,"is_reserved":false,"is_disabled":false,"rental_uris":{"android":"levelo://app?vid=16fd1a23-d1ec-4f62-be9c-f0fb5b350be2","ios":"levelo://app?vid=16fd1a23-d1ec-4f62-be9c-f0fb5b350be2"},"vehicle_type_id":"4","last_reported":1749561983,"current_range_meters":15200,"station_id":"ce4bhi12rcd13ifvqfp0","pricing_plan_id":"cebpf4jnsgd1na2vs0mg"},{"bike_id":"89ca3fd4-b9d8-4e00-9d3a-1248bb657072","system_id":"levelo_inurba_marseille","lat":43.29621,"lon":5.37724,"is_reserved":false,"is_disabled":false,"rental_uris":{"android":"levelo://app?vid=89ca3fd4-b9d8-4e00-9d3a-1248bb657072","ios":"levelo://app?vid=89ca3fd4-b9d8-4e00-9d3a-1248bb657072"},"vehicle_type_id":"4","last_reported":1749561983,"current_range_meters":15200,"station_id":"","pricing_plan_id":"cebpf4jnsgd1na2vs0mg"},{"bike_id":"8e1895e8-f102-4cf2-b40e-b15e855d0379","system_id":"levelo_inurba_marseille","lat":43.27943,"lon":5.41066,"is_reserved":false,"is_disabled":false,"rental_uris":{"android":"levelo://app?vid=8e1895e8-f102-4cf2-b40e-b15e855d0379","ios":"levelo://app?vid=8e1895e8-f102-4cf2-b40e-b15e855d0379"},"vehicle_type_id":"4","last_reported":1749561983,"current_range_meters":15200,"station_id":"ce4bhnp2rcd13ifvqh0g","pricing_plan_id":"cebpf4jnsgd1na2vs0mg"},{"bike_id":"ed9448df-eed7-47bf-9214-7c96092a8502","system_id":"levelo_inurba_marseille","lat":43.262,"lon":5.37941,"is_reserved":false,"is_disabled":false,"rental_uris":{"android":"levelo://app?vid=ed9448df-eed7-47bf-9214-7c96092a8502","ios":"levelo://app?vid=ed9448df-eed7-47bf-9214-7c96092a8502"},"vehicle_type_id":"4","last_reported":1749561983,"current_range_meters":16000,"station_id":"ce4bhjp2rcd13ifvqg90","pricing_plan_id":"cebpf4jnsgd1na2vs0mg"},{"bike_id":"f2b978a2-f10e-46a1-a79d-6706dce40a24","system_id":"levelo_inurba_marseille","lat":43.26228,"lon":5.40448,"is_reserved":false,"is_disabled":false,"rental_uris":{"android":"levelo://app?vid=f2b978a2-f10e-46a1-a79d-6706dce40a24","ios":"levelo://app?vid=f2b978a2-f10e-46a1-a79d-6706dce40a24"},"vehicle_type_id":"4","last_reported":1749561983,"current_range_meters":16000,"station_id":"ce4bhmh2rcd13ifvqgmg","pricing_plan_id":"cebpf4jnsgd1na2vs0mg"},{"bike_id":"557104e5-12ad-4811-8d87-d8392375329d","system_id":"levelo_inurba_marseille","lat":43.28291,"lon":5.35042,"is_reserved":false,"is_disabled":false,"rental_uris":{"android":"levelo://app?vid=557104e5-12ad-4811-8d87-d8392375329d","ios":"levelo://app?vid=557104e5-12ad-4811-8d87-d8392375329d"},"vehicle_type_id":"4","last_reported":1749561983,"current_range_meters":16000,"station_id":"ce4bhbp2rcd13ifvqerg","pricing_plan_id":"cebpf4jnsgd1na2vs0mg"},{"bike_id":"1112870b-7d61-4c5e-867e-015df8afa9c0","system_id":"levelo_inurba_marseille","lat":43.28407,"lon":5.34999,"is_reserved":false,"is_disabled":false,"rental_uris":{"android":"levelo://app?vid=1112870b-7d61-4c5e-867e-015df8afa9c0","ios":"levelo://app?vid=1112870b-7d61-4c5e-867e-015df8afa9c0"},"vehicle_type_id":"4","last_reported":1749561983,"current_range_meters":16000,"station_id":"ce4bhbh2rcd13ifvqepg","pricing_plan_id":"cebpf4jnsgd1na2vs0mg"},{"bike_id":"2a6deab9-20dd-4dba-af0a-1f746ccc6d83","system_id":"levelo_inurba_marseille","lat":43.2979,"lon":5.381,"is_reserved":false,"is_disabled":false,"rental_uris":{"android":"levelo://app?vid=2a6deab9-20dd-4dba-af0a-1f746ccc6d83","ios":"levelo://app?vid=2a6deab9-20dd-4dba-af0a-1f746ccc6d83"},"vehicle_type_id":"4","last_reported":1749561983,"current_range_meters":16000,"station_id":"ce4bgip2rcd13ifvqbb0","pricing_plan_id":"cebpf4jnsgd1na2vs0mg"},{"bike_id":"8013c162-0e68-49ec-b514-fc5737953016","system_id":"levelo_inurba_marseille","lat":43.2606,"lon":5.39398,"is_reserved":false,"is_disabled":false,"rental_uris":{"android":"levelo://app?vid=8013c162-0e68-49ec-b514-fc5737953016","ios":"levelo://app?vid=8013c162-0e68-49ec-b514-fc5737953016"},"vehicle_type_id":"4","last_reported":1749561983,"current_range_meters":16000,"station_id":"ce4bhh92rcd13ifvqfj0","pricing_plan_id":"cebpf4jnsgd1na2vs0mg"},{"bike_id":"66a554b0-1440-4449-9b9a-dcf9e0415ba6","system_id":"levelo_inurba_marseille","lat":43.299688,"lon":5.384727,"is_reserved":false,"is_disabled":true,"rental_uris":{"android":"levelo://app?vid=66a554b0-1440-4449-9b9a-dcf9e0415ba6","ios":"levelo://app?vid=66a554b0-1440-4449-9b9a-dcf9e0415ba6"},"vehicle_type_id":"4","last_reported":1749561983,"current_range_meters":16000,"station_id":"ce4bgj92rcd13ifvqbd0","pricing_plan_id":"cebpf4jnsgd1na2vs0mg"},{"bike_id":"262903a9-22b9-4b2d-96c2-2e5dbd155090","system_id":"levelo_inurba_marseille","lat":43.3248,"lon":5.36582,"is_reserved":false,"is_disabled":false,"rental_uris":{"android":"levelo://app?vid=262903a9-22b9-4b2d-96c2-2e5dbd155090","ios":"levelo://app?vid=262903a9-22b9-4b2d-96c2-2e5dbd155090"},"vehicle_type_id":"4","last_reported":1749561983,"current_range_meters":16400,"station_id":"ce4bhs12rcd13ifvqhvg","pricing_plan_id":"cebpf4jnsgd1na2vs0mg"},{"bike_id":"e61a5abb-c900-4d6e-8217-a46fab06e9f4","system_id":"levelo_inurba_marseille","lat":43.33008,"lon":5.392713,"is_reserved":false,"is_disabled":false,"rental_uris":{"android":"levelo://app?vid=e61a5abb-c900-4d6e-8217-a46fab06e9f4","ios":"levelo://app?vid=e61a5abb-c900-4d6e-8217-a46fab06e9f4"},"vehicle_type_id":"4","last_reported":1749561983,"current_range_meters":16400,"station_id":"","pricing_plan_id":"cebpf4jnsgd1na2vs0mg"},{"bike_id":"b2b0d943-0a72-4201-acb7-681f43f5653e","system_id":"levelo_inurba_marseille","lat":43.29779,"lon":5.37104,"is_reserved":false,"is_disabled":false,"rental_uris":{"android":"levelo://app?vid=b2b0d943-0a72-4201-acb7-681f43f5653e","ios":"levelo://app?vid=b2b0d943-0a72-4201-acb7-681f43f5653e"},"vehicle_type_id":"4","last_reported":1749561983,"current_range_meters":16400,"station_id":"ce4bgop2rcd13ifvqc1g","pricing_plan_id":"cebpf4jnsgd1na2vs0mg"},{"bike_id":"1cb49127-83c2-42e5-a0c1-a209212b201e","system_id":"levelo_inurba_marseille","lat":43.2843,"lon":5.35008,"is_reserved":false,"is_disabled":false,"rental_uris":{"android":"levelo://app?vid=1cb49127-83c2-42e5-a0c1-a209212b201e","ios":"levelo://app?vid=1cb49127-83c2-42e5-a0c1-a209212b201e"},"vehicle_type_id":"4","last_reported":1749561983,"current_range_meters":16400,"station_id":"ce4bhbh2rcd13ifvqepg","pricing_plan_id":"cebpf4jnsgd1na2vs0mg"},{"bike_id":"62c72035-cd26-43e1-a90b-bfb4b07f9d56","system_id":"levelo_inurba_marseille","lat":43.22938,"lon":5.35375,"is_reserved":false,"is_disabled":false,"rental_uris":{"android":"levelo://app?vid=62c72035-cd26-43e1-a90b-bfb4b07f9d56","ios":"levelo://app?vid=62c72035-cd26-43e1-a90b-bfb4b07f9d56"},"vehicle_type_id":"4","last_reported":1749561983,"current_range_meters":16400,"station_id":"cpo3532slgdg3j2ikp40","pricing_plan_id":"cebpf4jnsgd1na2vs0mg"},{"bike_id":"84f5a926-1dd6-4535-b647-2764ce0ca103","system_id":"levelo_inurba_marseille","lat":43.32107,"lon":5.36791,"is_reserved":false,"is_disabled":false,"rental_uris":{"android":"levelo://app?vid=84f5a926-1dd6-4535-b647-2764ce0ca103","ios":"levelo://app?vid=84f5a926-1dd6-4535-b647-2764ce0ca103"},"vehicle_type_id":"4","last_reported":1749561983,"current_range_meters":16400,"station_id":"ce4bhrh2rcd13ifvqhug","pricing_plan_id":"cebpf4jnsgd1na2vs0mg"},{"bike_id":"002ad4e8-6140-4bdd-b14b-f38ee707447e","system_id":"levelo_inurba_marseille","lat":43.30987,"lon":5.38578,"is_reserved":false,"is_disabled":false,"rental_uris":{"android":"levelo://app?vid=002ad4e8-6140-4bdd-b14b-f38ee707447e","ios":"levelo://app?vid=002ad4e8-6140-4bdd-b14b-f38ee707447e"},"vehicle_type_id":"4","last_reported":1749561983,"current_range_meters":16400,"station_id":"","pricing_plan_id":"cebpf4jnsgd1na2vs0mg"},{"bike_id":"5ff56235-32c4-4cc3-a424-ab2a2e3210a3","system_id":"levelo_inurba_marseille","lat":43.29199,"lon":5.35805,"is_reserved":false,"is_disabled":false,"rental_uris":{"android":"levelo://app?vid=5ff56235-32c4-4cc3-a424-ab2a2e3210a3","ios":"levelo://app?vid=5ff56235-32c4-4cc3-a424-ab2a2e3210a3"},"vehicle_type_id":"4","last_reported":1749561983,"current_range_meters":16400,"station_id":"ce4bhb12rcd13ifvqel0","pricing_plan_id":"cebpf4jnsgd1na2vs0mg"},{"bike_id":"0d12547c-03da-42f4-b762-ca2cc3499fe0","system_id":"levelo_inurba_marseille","lat":43.28418,"lon":5.3499,"is_reserved":false,"is_disabled":false,"rental_uris":{"android":"levelo://app?vid=0d12547c-03da-42f4-b762-ca2cc3499fe0","ios":"levelo://app?vid=0d12547c-03da-42f4-b762-ca2cc3499fe0"},"vehicle_type_id":"4","last_reported":1749561983,"current_range_meters":16400,"station_id":"ce4bhbh2rcd13ifvqepg","pricing_plan_id":"cebpf4jnsgd1na2vs0mg"},{"bike_id":"0e6cad12-1c08-449b-8aad-b969f9e1e7c1","system_id":"levelo_inurba_marseille","lat":43.26035,"lon":5.37548,"is_reserved":false,"is_disabled":false,"rental_uris":{"android":"levelo://app?vid=0e6cad12-1c08-449b-8aad-b969f9e1e7c1","ios":"levelo://app?vid=0e6cad12-1c08-449b-8aad-b969f9e1e7c1"},"vehicle_type_id":"4","last_reported":1749561983,"current_range_meters":16800,"station_id":"ce4bhgh2rcd13ifvqfa0","pricing_plan_id":"cebpf4jnsgd1na2vs0mg"},{"bike_id":"a5666009-a641-4d20-b0e2-3945ce6adff7","system_id":"levelo_inurba_marseille","lat":43.295346,"lon":5.374956,"is_reserved":false,"is_disabled":false,"rental_uris":{"android":"levelo://app?vid=a5666009-a641-4d20-b0e2-3945ce6adff7","ios":"levelo://app?vid=a5666009-a641-4d20-b0e2-3945ce6adff7"},"vehicle_type_id":"4","last_reported":1749561983,"current_range_meters":16800,"station_id":"ce4bgh92rcd13ifvqb50","pricing_plan_id":"cebpf4jnsgd1na2vs0mg"},{"bike_id":"2570b8d2-8993-4a8a-bd9c-bb6b693b3851","system_id":"levelo_inurba_marseille","lat":43.28278,"lon":5.35066,"is_reserved":false,"is_disabled":false,"rental_uris":{"android":"levelo://app?vid=2570b8d2-8993-4a8a-bd9c-bb6b693b3851","ios":"levelo://app?vid=2570b8d2-8993-4a8a-bd9c-bb6b693b3851"},"vehicle_type_id":"4","last_reported":1749561983,"current_range_meters":16800,"station_id":"ce4bhbp2rcd13ifvqerg","pricing_plan_id":"cebpf4jnsgd1na2vs0mg"},{"bike_id":"72befdc9-9f00-42fe-9fa3-196160650a86","system_id":"levelo_inurba_marseille","lat":43.28633,"lon":5.35122,"is_reserved":false,"is_disabled":false,"rental_uris":{"android":"levelo://app?vid=72befdc9-9f00-42fe-9fa3-196160650a86","ios":"levelo://app?vid=72befdc9-9f00-42fe-9fa3-196160650a86"},"vehicle_type_id":"4","last_reported":1749561983,"current_range_meters":16800,"station_id":"ce4bhch2rcd13ifvqeug","pricing_plan_id":"cebpf4jnsgd1na2vs0mg"},{"bike_id":"f86c871e-5691-4061-a487-aa146b09dc41","system_id":"levelo_inurba_marseille","lat":43.28413,"lon":5.34996,"is_reserved":false,"is_disabled":false,"rental_uris":{"android":"levelo://app?vid=f86c871e-5691-4061-a487-aa146b09dc41","ios":"levelo://app?vid=f86c871e-5691-4061-a487-aa146b09dc41"},"vehicle_type_id":"4","last_reported":1749561983,"current_range_meters":16800,"station_id":"ce4bhbh2rcd13ifvqepg","pricing_plan_id":"cebpf4jnsgd1na2vs0mg"},{"bike_id":"f6c2b664-d919-4f64-8418-1a0716286061","system_id":"levelo_inurba_marseille","lat":43.28713,"lon":5.36082,"is_reserved":false,"is_disabled":false,"rental_uris":{"android":"levelo://app?vid=f6c2b664-d919-4f64-8418-1a0716286061","ios":"levelo://app?vid=f6c2b664-d919-4f64-8418-1a0716286061"},"vehicle_type_id":"4","last_reported":1749561983,"current_range_meters":16800,"station_id":"cki0cbj6b192h4jlfktg","pricing_plan_id":"cebpf4jnsgd1na2vs0mg"},{"bike_id":"03b5290d-c596-4067-adda-74fb07463890","system_id":"levelo_inurba_marseille","lat":43.28615,"lon":5.35108,"is_reserved":false,"is_disabled":false,"rental_uris":{"android":"levelo://app?vid=03b5290d-c596-4067-adda-74fb07463890","ios":"levelo://app?vid=03b5290d-c596-4067-adda-74fb07463890"},"vehicle_type_id":"4","last_reported":1749561983,"current_range_meters":16800,"station_id":"ce4bhch2rcd13ifvqeug","pricing_plan_id":"cebpf4jnsgd1na2vs0mg"},{"bike_id":"e857b26f-e98d-4e5b-a472-9489934cc3bc","system_id":"levelo_inurba_marseille","lat":43.30929,"lon":5.4017,"is_reserved":false,"is_disabled":true,"rental_uris":{"android":"levelo://app?vid=e857b26f-e98d-4e5b-a472-9489934cc3bc","ios":"levelo://app?vid=e857b26f-e98d-4e5b-a472-9489934cc3bc"},"vehicle_type_id":"4","last_reported":1749561983,"current_range_meters":16800,"station_id":"ce4bgvp2rcd13ifvqct0","pricing_plan_id":"cebpf4jnsgd1na2vs0mg"},{"bike_id":"62da34c6-5063-4c51-a094-ade7e99669e1","system_id":"levelo_inurba_marseille","lat":43.21758,"lon":5.34603,"is_reserved":false,"is_disabled":false,"rental_uris":{"android":"levelo://app?vid=62da34c6-5063-4c51-a094-ade7e99669e1","ios":"levelo://app?vid=62da34c6-5063-4c51-a094-ade7e99669e1"},"vehicle_type_id":"4","last_reported":1749561983,"current_range_meters":16800,"station_id":"st_cvj6r9ubvosntc0bgbag","pricing_plan_id":"cebpf4jnsgd1na2vs0mg"},{"bike_id":"360698b9-753d-4929-b083-8e827c7f2f61","system_id":"levelo_inurba_marseille","lat":43.31327,"lon":5.39688,"is_reserved":false,"is_disabled":false,"rental_uris":{"android":"levelo://app?vid=360698b9-753d-4929-b083-8e827c7f2f61","ios":"levelo://app?vid=360698b9-753d-4929-b083-8e827c7f2f61"},"vehicle_type_id":"4","last_reported":1749561983,"current_range_meters":16800,"station_id":"ce4bgvp2rcd13ifvqcu0","pricing_plan_id":"cebpf4jnsgd1na2vs0mg"},{"bike_id":"4b780e47-5600-4181-984d-00a4c434b562","system_id":"levelo_inurba_marseille","lat":43.2826,"lon":5.35078,"is_reserved":false,"is_disabled":false,"rental_uris":{"android":"levelo://app?vid=4b780e47-5600-4181-984d-00a4c434b562","ios":"levelo://app?vid=4b780e47-5600-4181-984d-00a4c434b562"},"vehicle_type_id":"4","last_reported":1749561983,"current_range_meters":16800,"station_id":"ce4bhbp2rcd13ifvqerg","pricing_plan_id":"cebpf4jnsgd1na2vs0mg"},{"bike_id":"d1b55bfb-6d7e-4aee-887f-b92ca3480084","system_id":"levelo_inurba_marseille","lat":43.26197,"lon":5.37447,"is_reserved":false,"is_disabled":false,"rental_uris":{"android":"levelo://app?vid=d1b55bfb-6d7e-4aee-887f-b92ca3480084","ios":"levelo://app?vid=d1b55bfb-6d7e-4aee-887f-b92ca3480084"},"vehicle_type_id":"4","last_reported":1749561983,"current_range_meters":17200,"station_id":"ce4bhgp2rcd13ifvqfc0","pricing_plan_id":"cebpf4jnsgd1na2vs0mg"},{"bike_id":"0085846c-edaa-4089-bfbd-8f526fde3f0c","system_id":"levelo_inurba_marseille","lat":43.28158,"lon":5.42645,"is_reserved":false,"is_disabled":false,"rental_uris":{"android":"levelo://app?vid=0085846c-edaa-4089-bfbd-8f526fde3f0c","ios":"levelo://app?vid=0085846c-edaa-4089-bfbd-8f526fde3f0c"},"vehicle_type_id":"4","last_reported":1749561983,"current_range_meters":17200,"station_id":"ce4bhnh2rcd13ifvqgug","pricing_plan_id":"cebpf4jnsgd1na2vs0mg"},{"bike_id":"4497bc7b-bd64-47d5-92de-a3021c6fff2f","system_id":"levelo_inurba_marseille","lat":43.32464,"lon":5.36597,"is_reserved":false,"is_disabled":false,"rental_uris":{"android":"levelo://app?vid=4497bc7b-bd64-47d5-92de-a3021c6fff2f","ios":"levelo://app?vid=4497bc7b-bd64-47d5-92de-a3021c6fff2f"},"vehicle_type_id":"4","last_reported":1749561983,"current_range_meters":17200,"station_id":"ce4bhs12rcd13ifvqhvg","pricing_plan_id":"cebpf4jnsgd1na2vs0mg"},{"bike_id":"0cdadbe5-1c71-4c8d-94b0-5b7e7d373d7b","system_id":"levelo_inurba_marseille","lat":43.23222,"lon":5.35533,"is_reserved":false,"is_disabled":false,"rental_uris":{"android":"levelo://app?vid=0cdadbe5-1c71-4c8d-94b0-5b7e7d373d7b","ios":"levelo://app?vid=0cdadbe5-1c71-4c8d-94b0-5b7e7d373d7b"},"vehicle_type_id":"4","last_reported":1749561983,"current_range_meters":17200,"station_id":"ce4bhu92rcd13ifvqi70","pricing_plan_id":"cebpf4jnsgd1na2vs0mg"},{"bike_id":"1acfb620-cad7-48c0-8901-d7a5b74a5b65","system_id":"levelo_inurba_marseille","lat":43.33751,"lon":5.37456,"is_reserved":false,"is_disabled":false,"rental_uris":{"android":"levelo://app?vid=1acfb620-cad7-48c0-8901-d7a5b74a5b65","ios":"levelo://app?vid=1acfb620-cad7-48c0-8901-d7a5b74a5b65"},"vehicle_type_id":"4","last_reported":1749561983,"current_range_meters":17200,"station_id":"","pricing_plan_id":"cebpf4jnsgd1na2vs0mg"},{"bike_id":"f53bc08c-3129-4fc3-9174-862ec7b43c8b","system_id":"levelo_inurba_marseille","lat":43.28286,"lon":5.35089,"is_reserved":false,"is_disabled":false,"rental_uris":{"android":"levelo://app?vid=f53bc08c-3129-4fc3-9174-862ec7b43c8b","ios":"levelo://app?vid=f53bc08c-3129-4fc3-9174-862ec7b43c8b"},"vehicle_type_id":"4","last_reported":1749561983,"current_range_meters":17600,"station_id":"ce4bhbp2rcd13ifvqerg","pricing_plan_id":"cebpf4jnsgd1na2vs0mg"},{"bike_id":"29f17fff-1d71-481d-9f1d-b73af86c3642","system_id":"levelo_inurba_marseille","lat":43.270717,"lon":5.422793,"is_reserved":false,"is_disabled":false,"rental_uris":{"android":"levelo://app?vid=29f17fff-1d71-481d-9f1d-b73af86c3642","ios":"levelo://app?vid=29f17fff-1d71-481d-9f1d-b73af86c3642"},"vehicle_type_id":"4","last_reported":1749561983,"current_range_meters":17600,"station_id":"ce4bhk92rcd13ifvqgb0","pricing_plan_id":"cebpf4jnsgd1na2vs0mg"},{"bike_id":"7bd87b17-a892-414c-b60f-cba6985eb651","system_id":"levelo_inurba_marseille","lat":43.288351,"lon":5.384422,"is_reserved":false,"is_disabled":false,"rental_uris":{"android":"levelo://app?vid=7bd87b17-a892-414c-b60f-cba6985eb651","ios":"levelo://app?vid=7bd87b17-a892-414c-b60f-cba6985eb651"},"vehicle_type_id":"4","last_reported":1749561983,"current_range_meters":17600,"station_id":"ce4bh612rcd13ifvqe6g","pricing_plan_id":"cebpf4jnsgd1na2vs0mg"},{"bike_id":"34719816-075c-40df-9246-9e21048b2f76","system_id":"levelo_inurba_marseille","lat":43.29571,"lon":5.422897,"is_reserved":false,"is_disabled":false,"rental_uris":{"android":"levelo://app?vid=34719816-075c-40df-9246-9e21048b2f76","ios":"levelo://app?vid=34719816-075c-40df-9246-9e21048b2f76"},"vehicle_type_id":"4","last_reported":1749561983,"current_range_meters":17600,"station_id":"ce4bhph2rcd13ifvqhdg","pricing_plan_id":"cebpf4jnsgd1na2vs0mg"},{"bike_id":"0abd7fe4-085c-4c8b-a77f-174bd23fa865","system_id":"levelo_inurba_marseille","lat":43.30957,"lon":5.39098,"is_reserved":false,"is_disabled":false,"rental_uris":{"android":"levelo://app?vid=0abd7fe4-085c-4c8b-a77f-174bd23fa865","ios":"levelo://app?vid=0abd7fe4-085c-4c8b-a77f-174bd23fa865"},"vehicle_type_id":"4","last_reported":1749561983,"current_range_meters":17600,"station_id":"","pricing_plan_id":"cebpf4jnsgd1na2vs0mg"},{"bike_id":"9416031a-d730-435a-b710-92440d1c38e1","system_id":"levelo_inurba_marseille","lat":43.28272,"lon":5.35068,"is_reserved":false,"is_disabled":false,"rental_uris":{"android":"levelo://app?vid=9416031a-d730-435a-b710-92440d1c38e1","ios":"levelo://app?vid=9416031a-d730-435a-b710-92440d1c38e1"},"vehicle_type_id":"4","last_reported":1749561983,"current_range_meters":17600,"station_id":"ce4bhbp2rcd13ifvqerg","pricing_plan_id":"cebpf4jnsgd1na2vs0mg"},{"bike_id":"40e1b2d5-490a-4f2d-a061-082daea0b87c","system_id":"levelo_inurba_marseille","lat":43.29008,"lon":5.35609,"is_reserved":false,"is_disabled":false,"rental_uris":{"android":"levelo://app?vid=40e1b2d5-490a-4f2d-a061-082daea0b87c","ios":"levelo://app?vid=40e1b2d5-490a-4f2d-a061-082daea0b87c"},"vehicle_type_id":"4","last_reported":1749561983,"current_range_meters":17600,"station_id":"ce4bhb92rcd13ifvqen0","pricing_plan_id":"cebpf4jnsgd1na2vs0mg"},{"bike_id":"4f277a40-c562-419c-82d0-1686b6d2030f","system_id":"levelo_inurba_marseille","lat":43.28398,"lon":5.34995,"is_reserved":false,"is_disabled":false,"rental_uris":{"android":"levelo://app?vid=4f277a40-c562-419c-82d0-1686b6d2030f","ios":"levelo://app?vid=4f277a40-c562-419c-82d0-1686b6d2030f"},"vehicle_type_id":"4","last_reported":1749561983,"current_range_meters":17600,"station_id":"ce4bhbh2rcd13ifvqepg","pricing_plan_id":"cebpf4jnsgd1na2vs0mg"},{"bike_id":"f6a61804-330d-4f30-8fcc-2bb88b5a7142","system_id":"levelo_inurba_marseille","lat":43.25727,"lon":5.41061,"is_reserved":false,"is_disabled":false,"rental_uris":{"android":"levelo://app?vid=f6a61804-330d-4f30-8fcc-2bb88b5a7142","ios":"levelo://app?vid=f6a61804-330d-4f30-8fcc-2bb88b5a7142"},"vehicle_type_id":"4","last_reported":1749561983,"current_range_meters":17600,"station_id":"ce4bhkp2rcd13ifvqgd0","pricing_plan_id":"cebpf4jnsgd1na2vs0mg"},{"bike_id":"02bf3f83-20f1-478b-b6a8-b5d03ea28418","system_id":"levelo_inurba_marseille","lat":43.28725,"lon":5.37948,"is_reserved":false,"is_disabled":false,"rental_uris":{"android":"levelo://app?vid=02bf3f83-20f1-478b-b6a8-b5d03ea28418","ios":"levelo://app?vid=02bf3f83-20f1-478b-b6a8-b5d03ea28418"},"vehicle_type_id":"4","last_reported":1749561983,"current_range_meters":18000,"station_id":"ce4bh9p2rcd13ifvqec0","pricing_plan_id":"cebpf4jnsgd1na2vs0mg"},{"bike_id":"7af90494-5de0-4daf-b164-814a8665524a","system_id":"levelo_inurba_marseille","lat":43.24177,"lon":5.39727,"is_reserved":false,"is_disabled":false,"rental_uris":{"android":"levelo://app?vid=7af90494-5de0-4daf-b164-814a8665524a","ios":"levelo://app?vid=7af90494-5de0-4daf-b164-814a8665524a"},"vehicle_type_id":"4","last_reported":1749561983,"current_range_meters":18000,"station_id":"ce4bhn12rcd13ifvqgpg","pricing_plan_id":"cebpf4jnsgd1na2vs0mg"},{"bike_id":"9b02af0a-e4be-400c-bac5-3800831171d4","system_id":"levelo_inurba_marseille","lat":43.29848,"lon":5.36284,"is_reserved":false,"is_disabled":false,"rental_uris":{"android":"levelo://app?vid=9b02af0a-e4be-400c-bac5-3800831171d4","ios":"levelo://app?vid=9b02af0a-e4be-400c-bac5-3800831171d4"},"vehicle_type_id":"4","last_reported":1749561983,"current_range_meters":18000,"station_id":"ce4bgpp2rcd13ifvqc3g","pricing_plan_id":"cebpf4jnsgd1na2vs0mg"},{"bike_id":"29e2b634-3f4e-43f4-b1ec-4910daf2fc2f","system_id":"levelo_inurba_marseille","lat":43.27379,"lon":5.36251,"is_reserved":false,"is_disabled":false,"rental_uris":{"android":"levelo://app?vid=29e2b634-3f4e-43f4-b1ec-4910daf2fc2f","ios":"levelo://app?vid=29e2b634-3f4e-43f4-b1ec-4910daf2fc2f"},"vehicle_type_id":"4","last_reported":1749561983,"current_range_meters":18000,"station_id":"ce4bhbh2rcd13ifvqeo0","pricing_plan_id":"cebpf4jnsgd1na2vs0mg"},{"bike_id":"59414846-5f1c-4bc8-84fe-7b55bad2dffe","system_id":"levelo_inurba_marseille","lat":43.26208,"lon":5.37928,"is_reserved":false,"is_disabled":false,"rental_uris":{"android":"levelo://app?vid=59414846-5f1c-4bc8-84fe-7b55bad2dffe","ios":"levelo://app?vid=59414846-5f1c-4bc8-84fe-7b55bad2dffe"},"vehicle_type_id":"4","last_reported":1749561983,"current_range_meters":18000,"station_id":"ce4bhjp2rcd13ifvqg90","pricing_plan_id":"cebpf4jnsgd1na2vs0mg"},{"bike_id":"70ad019b-bef1-44ea-955c-db8632c6c16d","system_id":"levelo_inurba_marseille","lat":43.24173,"lon":5.36386,"is_reserved":false,"is_disabled":false,"rental_uris":{"android":"levelo://app?vid=70ad019b-bef1-44ea-955c-db8632c6c16d","ios":"levelo://app?vid=70ad019b-bef1-44ea-955c-db8632c6c16d"},"vehicle_type_id":"4","last_reported":1749561983,"current_range_meters":18000,"station_id":"cpo36qri1sfpv3e86is0","pricing_plan_id":"cebpf4jnsgd1na2vs0mg"},{"bike_id":"3d2af6fc-f02e-43af-a645-13a64414f075","system_id":"levelo_inurba_marseille","lat":43.3119,"lon":5.38707,"is_reserved":false,"is_disabled":false,"rental_uris":{"android":"levelo://app?vid=3d2af6fc-f02e-43af-a645-13a64414f075","ios":"levelo://app?vid=3d2af6fc-f02e-43af-a645-13a64414f075"},"vehicle_type_id":"4","last_reported":1749561983,"current_range_meters":18000,"station_id":"ce4bgv12rcd13ifvqcp0","pricing_plan_id":"cebpf4jnsgd1na2vs0mg"},{"bike_id":"9fd2cdd2-bbc7-41f5-9c37-82d9c68f1dc9","system_id":"levelo_inurba_marseille","lat":43.28423,"lon":5.34993,"is_reserved":false,"is_disabled":false,"rental_uris":{"android":"levelo://app?vid=9fd2cdd2-bbc7-41f5-9c37-82d9c68f1dc9","ios":"levelo://app?vid=9fd2cdd2-bbc7-41f5-9c37-82d9c68f1dc9"},"vehicle_type_id":"4","last_reported":1749561983,"current_range_meters":18000,"station_id":"ce4bhbh2rcd13ifvqepg","pricing_plan_id":"cebpf4jnsgd1na2vs0mg"},{"bike_id":"d55737f4-78bf-40ec-b658-8bc6a43509b2","system_id":"levelo_inurba_marseille","lat":43.27058,"lon":5.40262,"is_reserved":false,"is_disabled":false,"rental_uris":{"android":"levelo://app?vid=d55737f4-78bf-40ec-b658-8bc6a43509b2","ios":"levelo://app?vid=d55737f4-78bf-40ec-b658-8bc6a43509b2"},"vehicle_type_id":"4","last_reported":1749561983,"current_range_meters":18800,"station_id":"ce4bhk92rcd13ifvqgc0","pricing_plan_id":"cebpf4jnsgd1na2vs0mg"},{"bike_id":"8c51fcb8-1000-450b-8f34-5201983c67d2","system_id":"levelo_inurba_marseille","lat":43.30946,"lon":5.40189,"is_reserved":false,"is_disabled":false,"rental_uris":{"android":"levelo://app?vid=8c51fcb8-1000-450b-8f34-5201983c67d2","ios":"levelo://app?vid=8c51fcb8-1000-450b-8f34-5201983c67d2"},"vehicle_type_id":"4","last_reported":1749561983,"current_range_meters":18800,"station_id":"ce4bgvp2rcd13ifvqct0","pricing_plan_id":"cebpf4jnsgd1na2vs0mg"},{"bike_id":"63e40138-141f-4768-876a-d09ed0ddb6e8","system_id":"levelo_inurba_marseille","lat":43.28627,"lon":5.35101,"is_reserved":false,"is_disabled":false,"rental_uris":{"android":"levelo://app?vid=63e40138-141f-4768-876a-d09ed0ddb6e8","ios":"levelo://app?vid=63e40138-141f-4768-876a-d09ed0ddb6e8"},"vehicle_type_id":"4","last_reported":1749561983,"current_range_meters":18800,"station_id":"ce4bhch2rcd13ifvqeug","pricing_plan_id":"cebpf4jnsgd1na2vs0mg"},{"bike_id":"0a61a83d-30f6-461d-afb3-c145799620b8","system_id":"levelo_inurba_marseille","lat":43.3248,"lon":5.36595,"is_reserved":false,"is_disabled":false,"rental_uris":{"android":"levelo://app?vid=0a61a83d-30f6-461d-afb3-c145799620b8","ios":"levelo://app?vid=0a61a83d-30f6-461d-afb3-c145799620b8"},"vehicle_type_id":"4","last_reported":1749561983,"current_range_meters":18800,"station_id":"ce4bhs12rcd13ifvqhvg","pricing_plan_id":"cebpf4jnsgd1na2vs0mg"},{"bike_id":"550a1098-7acf-4b38-b1ab-5a38033e2f9a","system_id":"levelo_inurba_marseille","lat":43.30305,"lon":5.36941,"is_reserved":false,"is_disabled":false,"rental_uris":{"android":"levelo://app?vid=550a1098-7acf-4b38-b1ab-5a38033e2f9a","ios":"levelo://app?vid=550a1098-7acf-4b38-b1ab-5a38033e2f9a"},"vehicle_type_id":"4","last_reported":1749561983,"current_range_meters":18800,"station_id":"ce4bgqh2rcd13ifvqc5g","pricing_plan_id":"cebpf4jnsgd1na2vs0mg"},{"bike_id":"c967a05b-91b4-483c-8cfb-c91308b2e9d7","system_id":"levelo_inurba_marseille","lat":43.29562,"lon":5.42286,"is_reserved":false,"is_disabled":false,"rental_uris":{"android":"levelo://app?vid=c967a05b-91b4-483c-8cfb-c91308b2e9d7","ios":"levelo://app?vid=c967a05b-91b4-483c-8cfb-c91308b2e9d7"},"vehicle_type_id":"4","last_reported":1749561983,"current_range_meters":18800,"station_id":"ce4bhph2rcd13ifvqhdg","pricing_plan_id":"cebpf4jnsgd1na2vs0mg"},{"bike_id":"c6d21e26-26b7-4a15-9f95-3af0bce0ea14","system_id":"levelo_inurba_marseille","lat":43.2417,"lon":5.364,"is_reserved":false,"is_disabled":false,"rental_uris":{"android":"levelo://app?vid=c6d21e26-26b7-4a15-9f95-3af0bce0ea14","ios":"levelo://app?vid=c6d21e26-26b7-4a15-9f95-3af0bce0ea14"},"vehicle_type_id":"4","last_reported":1749561983,"current_range_meters":18800,"station_id":"cpo36qri1sfpv3e86is0","pricing_plan_id":"cebpf4jnsgd1na2vs0mg"},{"bike_id":"9231f021-d06e-4dc9-b555-e59bf1d45ecd","system_id":"levelo_inurba_marseille","lat":43.32098,"lon":5.36798,"is_reserved":false,"is_disabled":false,"rental_uris":{"android":"levelo://app?vid=9231f021-d06e-4dc9-b555-e59bf1d45ecd","ios":"levelo://app?vid=9231f021-d06e-4dc9-b555-e59bf1d45ecd"},"vehicle_type_id":"4","last_reported":1749561983,"current_range_meters":18800,"station_id":"ce4bhrh2rcd13ifvqhug","pricing_plan_id":"cebpf4jnsgd1na2vs0mg"},{"bike_id":"87482a76-4b31-421e-ad48-ed975817f9e4","system_id":"levelo_inurba_marseille","lat":43.21758,"lon":5.34597,"is_reserved":false,"is_disabled":false,"rental_uris":{"android":"levelo://app?vid=87482a76-4b31-421e-ad48-ed975817f9e4","ios":"levelo://app?vid=87482a76-4b31-421e-ad48-ed975817f9e4"},"vehicle_type_id":"4","last_reported":1749561983,"current_range_meters":18800,"station_id":"st_cvj6r9ubvosntc0bgbag","pricing_plan_id":"cebpf4jnsgd1na2vs0mg"},{"bike_id":"4cb78e2c-8e63-4812-81ef-1980f9de8b37","system_id":"levelo_inurba_marseille","lat":43.32396,"lon":5.38939,"is_reserved":false,"is_disabled":false,"rental_uris":{"android":"levelo://app?vid=4cb78e2c-8e63-4812-81ef-1980f9de8b37","ios":"levelo://app?vid=4cb78e2c-8e63-4812-81ef-1980f9de8b37"},"vehicle_type_id":"4","last_reported":1749561983,"current_range_meters":18800,"station_id":"","pricing_plan_id":"cebpf4jnsgd1na2vs0mg"},{"bike_id":"ef82d3bb-77d5-4e5f-a672-159dfe609ed3","system_id":"levelo_inurba_marseille","lat":43.28275,"lon":5.35077,"is_reserved":false,"is_disabled":false,"rental_uris":{"android":"levelo://app?vid=ef82d3bb-77d5-4e5f-a672-159dfe609ed3","ios":"levelo://app?vid=ef82d3bb-77d5-4e5f-a672-159dfe609ed3"},"vehicle_type_id":"4","last_reported":1749561983,"current_range_meters":18800,"station_id":"ce4bhbp2rcd13ifvqerg","pricing_plan_id":"cebpf4jnsgd1na2vs0mg"},{"bike_id":"314bac2c-e47f-46cd-afcd-53cd84a7d142","system_id":"levelo_inurba_marseille","lat":43.27602,"lon":5.36143,"is_reserved":false,"is_disabled":true,"rental_uris":{"android":"levelo://app?vid=314bac2c-e47f-46cd-afcd-53cd84a7d142","ios":"levelo://app?vid=314bac2c-e47f-46cd-afcd-53cd84a7d142"},"vehicle_type_id":"4","last_reported":1749561983,"current_range_meters":18800,"station_id":"ce4bgj92rcd13ifvqbe0","pricing_plan_id":"cebpf4jnsgd1na2vs0mg"},{"bike_id":"e93073ab-c17c-467a-b540-f93334fc1a8a","system_id":"levelo_inurba_marseille","lat":43.21211,"lon":5.350795,"is_reserved":false,"is_disabled":false,"rental_uris":{"android":"levelo://app?vid=e93073ab-c17c-467a-b540-f93334fc1a8a","ios":"levelo://app?vid=e93073ab-c17c-467a-b540-f93334fc1a8a"},"vehicle_type_id":"4","last_reported":1749561983,"current_range_meters":18800,"station_id":"st_cvj6sg6p6f1abm77japg","pricing_plan_id":"cebpf4jnsgd1na2vs0mg"},{"bike_id":"ab6eb590-2f0d-41c7-844d-0f81cdc781a3","system_id":"levelo_inurba_marseille","lat":43.25111,"lon":5.40335,"is_reserved":false,"is_disabled":false,"rental_uris":{"android":"levelo://app?vid=ab6eb590-2f0d-41c7-844d-0f81cdc781a3","ios":"levelo://app?vid=ab6eb590-2f0d-41c7-844d-0f81cdc781a3"},"vehicle_type_id":"4","last_reported":1749561983,"current_range_meters":19200,"station_id":"ce4bhlh2rcd13ifvqgig","pricing_plan_id":"cebpf4jnsgd1na2vs0mg"},{"bike_id":"4f4e0a1c-979e-4d49-ae63-4241598b0a04","system_id":"levelo_inurba_marseille","lat":43.21754,"lon":5.346,"is_reserved":false,"is_disabled":false,"rental_uris":{"android":"levelo://app?vid=4f4e0a1c-979e-4d49-ae63-4241598b0a04","ios":"levelo://app?vid=4f4e0a1c-979e-4d49-ae63-4241598b0a04"},"vehicle_type_id":"4","last_reported":1749561983,"current_range_meters":19200,"station_id":"st_cvj6r9ubvosntc0bgbag","pricing_plan_id":"cebpf4jnsgd1na2vs0mg"},{"bike_id":"86bc70ad-1b1a-4c26-94f3-447d2e2108c8","system_id":"levelo_inurba_marseille","lat":43.32482,"lon":5.36574,"is_reserved":false,"is_disabled":false,"rental_uris":{"android":"levelo://app?vid=86bc70ad-1b1a-4c26-94f3-447d2e2108c8","ios":"levelo://app?vid=86bc70ad-1b1a-4c26-94f3-447d2e2108c8"},"vehicle_type_id":"4","last_reported":1749561983,"current_range_meters":19200,"station_id":"ce4bhs12rcd13ifvqhvg","pricing_plan_id":"cebpf4jnsgd1na2vs0mg"},{"bike_id":"25a4c875-602e-485b-a883-bfff2f4afc41","system_id":"levelo_inurba_marseille","lat":43.28408,"lon":5.34996,"is_reserved":false,"is_disabled":false,"rental_uris":{"android":"levelo://app?vid=25a4c875-602e-485b-a883-bfff2f4afc41","ios":"levelo://app?vid=25a4c875-602e-485b-a883-bfff2f4afc41"},"vehicle_type_id":"4","last_reported":1749561983,"current_range_meters":19200,"station_id":"ce4bhbh2rcd13ifvqepg","pricing_plan_id":"cebpf4jnsgd1na2vs0mg"},{"bike_id":"97410ce4-c4dd-4369-82cc-d2138c9793bc","system_id":"levelo_inurba_marseille","lat":43.28619,"lon":5.35108,"is_reserved":false,"is_disabled":false,"rental_uris":{"android":"levelo://app?vid=97410ce4-c4dd-4369-82cc-d2138c9793bc","ios":"levelo://app?vid=97410ce4-c4dd-4369-82cc-d2138c9793bc"},"vehicle_type_id":"4","last_reported":1749561983,"current_range_meters":19200,"station_id":"ce4bhch2rcd13ifvqeug","pricing_plan_id":"cebpf4jnsgd1na2vs0mg"},{"bike_id":"de7b1ebb-f406-444c-a6d4-62243773bc8b","system_id":"levelo_inurba_marseille","lat":43.2842,"lon":5.34992,"is_reserved":false,"is_disabled":false,"rental_uris":{"android":"levelo://app?vid=de7b1ebb-f406-444c-a6d4-62243773bc8b","ios":"levelo://app?vid=de7b1ebb-f406-444c-a6d4-62243773bc8b"},"vehicle_type_id":"4","last_reported":1749561983,"current_range_meters":19200,"station_id":"ce4bhbh2rcd13ifvqepg","pricing_plan_id":"cebpf4jnsgd1na2vs0mg"},{"bike_id":"0509747e-8e83-44e0-a642-c1bc88d90254","system_id":"levelo_inurba_marseille","lat":43.212065,"lon":5.350572,"is_reserved":false,"is_disabled":false,"rental_uris":{"android":"levelo://app?vid=0509747e-8e83-44e0-a642-c1bc88d90254","ios":"levelo://app?vid=0509747e-8e83-44e0-a642-c1bc88d90254"},"vehicle_type_id":"4","last_reported":1749561983,"current_range_meters":19200,"station_id":"st_cvj6sg6p6f1abm77japg","pricing_plan_id":"cebpf4jnsgd1na2vs0mg"},{"bike_id":"9caab4f7-8e70-451b-94ce-2f3a3e04dff8","system_id":"levelo_inurba_marseille","lat":43.31065,"lon":5.38361,"is_reserved":false,"is_disabled":false,"rental_uris":{"android":"levelo://app?vid=9caab4f7-8e70-451b-94ce-2f3a3e04dff8","ios":"levelo://app?vid=9caab4f7-8e70-451b-94ce-2f3a3e04dff8"},"vehicle_type_id":"4","last_reported":1749561983,"current_range_meters":19600,"station_id":"ce4bgv92rcd13ifvqcr0","pricing_plan_id":"cebpf4jnsgd1na2vs0mg"},{"bike_id":"2a5db183-6d6a-4437-a7fa-e3fac054fe84","system_id":"levelo_inurba_marseille","lat":43.28863,"lon":5.35859,"is_reserved":false,"is_disabled":false,"rental_uris":{"android":"levelo://app?vid=2a5db183-6d6a-4437-a7fa-e3fac054fe84","ios":"levelo://app?vid=2a5db183-6d6a-4437-a7fa-e3fac054fe84"},"vehicle_type_id":"4","last_reported":1749561983,"current_range_meters":19600,"station_id":"ce4bhb12rcd13ifvqem0","pricing_plan_id":"cebpf4jnsgd1na2vs0mg"},{"bike_id":"a2421370-e442-436f-a98a-844d44299694","system_id":"levelo_inurba_marseille","lat":43.32356,"lon":5.36746,"is_reserved":false,"is_disabled":false,"rental_uris":{"android":"levelo://app?vid=a2421370-e442-436f-a98a-844d44299694","ios":"levelo://app?vid=a2421370-e442-436f-a98a-844d44299694"},"vehicle_type_id":"4","last_reported":1749561983,"current_range_meters":19600,"station_id":"ce4bhsh2rcd13ifvqi2g","pricing_plan_id":"cebpf4jnsgd1na2vs0mg"},{"bike_id":"842f5a43-12da-4667-bf62-e652caef067d","system_id":"levelo_inurba_marseille","lat":43.29686,"lon":5.37278,"is_reserved":false,"is_disabled":false,"rental_uris":{"android":"levelo://app?vid=842f5a43-12da-4667-bf62-e652caef067d","ios":"levelo://app?vid=842f5a43-12da-4667-bf62-e652caef067d"},"vehicle_type_id":"4","last_reported":1749561983,"current_range_meters":19600,"station_id":"ce4bgk12rcd13ifvqbj0","pricing_plan_id":"cebpf4jnsgd1na2vs0mg"},{"bike_id":"7d8b5b33-9c65-45b3-9bbb-893d5949e141","system_id":"levelo_inurba_marseille","lat":43.2927,"lon":5.38443,"is_reserved":false,"is_disabled":false,"rental_uris":{"android":"levelo://app?vid=7d8b5b33-9c65-45b3-9bbb-893d5949e141","ios":"levelo://app?vid=7d8b5b33-9c65-45b3-9bbb-893d5949e141"},"vehicle_type_id":"4","last_reported":1749561983,"current_range_meters":20000,"station_id":"ce4bh692rcd13ifvqea0","pricing_plan_id":"cebpf4jnsgd1na2vs0mg"},{"bike_id":"af497a01-47b4-4d2c-bbc7-a3ba436dc150","system_id":"levelo_inurba_marseille","lat":43.28421,"lon":5.34979,"is_reserved":false,"is_disabled":false,"rental_uris":{"android":"levelo://app?vid=af497a01-47b4-4d2c-bbc7-a3ba436dc150","ios":"levelo://app?vid=af497a01-47b4-4d2c-bbc7-a3ba436dc150"},"vehicle_type_id":"4","last_reported":1749561983,"current_range_meters":20000,"station_id":"ce4bhbh2rcd13ifvqepg","pricing_plan_id":"cebpf4jnsgd1na2vs0mg"},{"bike_id":"1b9ccbdc-39c7-40c1-b0dd-6a58a11eafd3","system_id":"levelo_inurba_marseille","lat":43.26206,"lon":5.37918,"is_reserved":false,"is_disabled":false,"rental_uris":{"android":"levelo://app?vid=1b9ccbdc-39c7-40c1-b0dd-6a58a11eafd3","ios":"levelo://app?vid=1b9ccbdc-39c7-40c1-b0dd-6a58a11eafd3"},"vehicle_type_id":"4","last_reported":1749561983,"current_range_meters":20000,"station_id":"ce4bhjp2rcd13ifvqg90","pricing_plan_id":"cebpf4jnsgd1na2vs0mg"},{"bike_id":"f10adc7e-6a3a-4a5d-9515-dc52fefe2058","system_id":"levelo_inurba_marseille","lat":43.32378,"lon":5.3675,"is_reserved":false,"is_disabled":false,"rental_uris":{"android":"levelo://app?vid=f10adc7e-6a3a-4a5d-9515-dc52fefe2058","ios":"levelo://app?vid=f10adc7e-6a3a-4a5d-9515-dc52fefe2058"},"vehicle_type_id":"4","last_reported":1749561983,"current_range_meters":20000,"station_id":"ce4bhsh2rcd13ifvqi2g","pricing_plan_id":"cebpf4jnsgd1na2vs0mg"},{"bike_id":"1432a47a-d037-414e-96e7-00710bc362e6","system_id":"levelo_inurba_marseille","lat":43.291783,"lon":5.380352,"is_reserved":false,"is_disabled":false,"rental_uris":{"android":"levelo://app?vid=1432a47a-d037-414e-96e7-00710bc362e6","ios":"levelo://app?vid=1432a47a-d037-414e-96e7-00710bc362e6"},"vehicle_type_id":"4","last_reported":1749561983,"current_range_meters":20000,"station_id":"ce4bh512rcd13ifvqe3g","pricing_plan_id":"cebpf4jnsgd1na2vs0mg"},{"bike_id":"c9ef914e-48b8-4a9e-be7b-31f3c7f96bac","system_id":"levelo_inurba_marseille","lat":43.28271,"lon":5.35071,"is_reserved":false,"is_disabled":false,"rental_uris":{"android":"levelo://app?vid=c9ef914e-48b8-4a9e-be7b-31f3c7f96bac","ios":"levelo://app?vid=c9ef914e-48b8-4a9e-be7b-31f3c7f96bac"},"vehicle_type_id":"4","last_reported":1749561983,"current_range_meters":20400,"station_id":"ce4bhbp2rcd13ifvqerg","pricing_plan_id":"cebpf4jnsgd1na2vs0mg"},{"bike_id":"bbc8849f-8826-4242-a6b3-b04bf2c35b77","system_id":"levelo_inurba_marseille","lat":43.31391,"lon":5.36686,"is_reserved":false,"is_disabled":false,"rental_uris":{"android":"levelo://app?vid=bbc8849f-8826-4242-a6b3-b04bf2c35b77","ios":"levelo://app?vid=bbc8849f-8826-4242-a6b3-b04bf2c35b77"},"vehicle_type_id":"4","last_reported":1749561983,"current_range_meters":20400,"station_id":"","pricing_plan_id":"cebpf4jnsgd1na2vs0mg"},{"bike_id":"0e628377-f166-4e6f-a401-545be8d146a9","system_id":"levelo_inurba_marseille","lat":43.3043,"lon":5.39751,"is_reserved":false,"is_disabled":false,"rental_uris":{"android":"levelo://app?vid=0e628377-f166-4e6f-a401-545be8d146a9","ios":"levelo://app?vid=0e628377-f166-4e6f-a401-545be8d146a9"},"vehicle_type_id":"4","last_reported":1749561983,"current_range_meters":20400,"station_id":"ce4bh092rcd13ifvqd20","pricing_plan_id":"cebpf4jnsgd1na2vs0mg"},{"bike_id":"a81b7f12-9f5d-4775-aeaf-81483c500521","system_id":"levelo_inurba_marseille","lat":43.24159,"lon":5.36431,"is_reserved":false,"is_disabled":false,"rental_uris":{"android":"levelo://app?vid=a81b7f12-9f5d-4775-aeaf-81483c500521","ios":"levelo://app?vid=a81b7f12-9f5d-4775-aeaf-81483c500521"},"vehicle_type_id":"4","last_reported":1749561983,"current_range_meters":20800,"station_id":"cpo36qri1sfpv3e86is0","pricing_plan_id":"cebpf4jnsgd1na2vs0mg"},{"bike_id":"68366785-387f-48c1-9e05-64d280acf641","system_id":"levelo_inurba_marseille","lat":43.23183,"lon":5.39992,"is_reserved":false,"is_disabled":false,"rental_uris":{"android":"levelo://app?vid=68366785-387f-48c1-9e05-64d280acf641","ios":"levelo://app?vid=68366785-387f-48c1-9e05-64d280acf641"},"vehicle_type_id":"4","last_reported":1749561983,"current_range_meters":20800,"station_id":"ce4bhn12rcd13ifvqgqg","pricing_plan_id":"cebpf4jnsgd1na2vs0mg"},{"bike_id":"3db8fde5-dc25-47f9-adb5-1429f5338e31","system_id":"levelo_inurba_marseille","lat":43.317507,"lon":5.384773,"is_reserved":false,"is_disabled":false,"rental_uris":{"android":"levelo://app?vid=3db8fde5-dc25-47f9-adb5-1429f5338e31","ios":"levelo://app?vid=3db8fde5-dc25-47f9-adb5-1429f5338e31"},"vehicle_type_id":"4","last_reported":1749561983,"current_range_meters":20800,"station_id":"","pricing_plan_id":"cebpf4jnsgd1na2vs0mg"},{"bike_id":"d9b31e54-32e1-471c-9f40-55ad9305b724","system_id":"levelo_inurba_marseille","lat":43.27376,"lon":5.36247,"is_reserved":false,"is_disabled":false,"rental_uris":{"android":"levelo://app?vid=d9b31e54-32e1-471c-9f40-55ad9305b724","ios":"levelo://app?vid=d9b31e54-32e1-471c-9f40-55ad9305b724"},"vehicle_type_id":"4","last_reported":1749561983,"current_range_meters":20800,"station_id":"ce4bhbh2rcd13ifvqeo0","pricing_plan_id":"cebpf4jnsgd1na2vs0mg"},{"bike_id":"dce54001-8f68-4e82-8dc5-92952ddf67f0","system_id":"levelo_inurba_marseille","lat":43.28942,"lon":5.39641,"is_reserved":false,"is_disabled":false,"rental_uris":{"android":"levelo://app?vid=dce54001-8f68-4e82-8dc5-92952ddf67f0","ios":"levelo://app?vid=dce54001-8f68-4e82-8dc5-92952ddf67f0"},"vehicle_type_id":"4","last_reported":1749561983,"current_range_meters":20800,"station_id":"ce4bh3h2rcd13ifvqdn0","pricing_plan_id":"cebpf4jnsgd1na2vs0mg"},{"bike_id":"9c93b92c-9d47-491f-9f5b-b47314af75ab","system_id":"levelo_inurba_marseille","lat":43.26557,"lon":5.373,"is_reserved":false,"is_disabled":false,"rental_uris":{"android":"levelo://app?vid=9c93b92c-9d47-491f-9f5b-b47314af75ab","ios":"levelo://app?vid=9c93b92c-9d47-491f-9f5b-b47314af75ab"},"vehicle_type_id":"4","last_reported":1749561983,"current_range_meters":20800,"station_id":"ce4bhg12rcd13ifvqf70","pricing_plan_id":"cebpf4jnsgd1na2vs0mg"},{"bike_id":"d698ad0a-f858-4542-b36e-5c574df51dc0","system_id":"levelo_inurba_marseille","lat":43.304297,"lon":5.397543,"is_reserved":false,"is_disabled":false,"rental_uris":{"android":"levelo://app?vid=d698ad0a-f858-4542-b36e-5c574df51dc0","ios":"levelo://app?vid=d698ad0a-f858-4542-b36e-5c574df51dc0"},"vehicle_type_id":"4","last_reported":1749561983,"current_range_meters":20800,"station_id":"ce4bh092rcd13ifvqd20","pricing_plan_id":"cebpf4jnsgd1na2vs0mg"},{"bike_id":"5f195c0f-a16b-4a0b-9a7e-440a6c0a4a8b","system_id":"levelo_inurba_marseille","lat":43.29552,"lon":5.37588,"is_reserved":false,"is_disabled":false,"rental_uris":{"android":"levelo://app?vid=5f195c0f-a16b-4a0b-9a7e-440a6c0a4a8b","ios":"levelo://app?vid=5f195c0f-a16b-4a0b-9a7e-440a6c0a4a8b"},"vehicle_type_id":"4","last_reported":1749561983,"current_range_meters":21600,"station_id":"","pricing_plan_id":"cebpf4jnsgd1na2vs0mg"},{"bike_id":"e71b3e54-2035-4274-9918-7b328f4a62e5","system_id":"levelo_inurba_marseille","lat":43.28416,"lon":5.3496,"is_reserved":false,"is_disabled":false,"rental_uris":{"android":"levelo://app?vid=e71b3e54-2035-4274-9918-7b328f4a62e5","ios":"levelo://app?vid=e71b3e54-2035-4274-9918-7b328f4a62e5"},"vehicle_type_id":"4","last_reported":1749561983,"current_range_meters":21600,"station_id":"ce4bhbh2rcd13ifvqepg","pricing_plan_id":"cebpf4jnsgd1na2vs0mg"},{"bike_id":"6dc454e0-4c76-4e51-bf59-cf5ef18884b6","system_id":"levelo_inurba_marseille","lat":43.28108,"lon":5.3784,"is_reserved":false,"is_disabled":false,"rental_uris":{"android":"levelo://app?vid=6dc454e0-4c76-4e51-bf59-cf5ef18884b6","ios":"levelo://app?vid=6dc454e0-4c76-4e51-bf59-cf5ef18884b6"},"vehicle_type_id":"4","last_reported":1749561983,"current_range_meters":21600,"station_id":"ce4bha12rcd13ifvqee0","pricing_plan_id":"cebpf4jnsgd1na2vs0mg"},{"bike_id":"7f8b1d10-e3a5-4ecb-9360-79f6d3ae0c50","system_id":"levelo_inurba_marseille","lat":43.29613,"lon":5.37723,"is_reserved":false,"is_disabled":false,"rental_uris":{"android":"levelo://app?vid=7f8b1d10-e3a5-4ecb-9360-79f6d3ae0c50","ios":"levelo://app?vid=7f8b1d10-e3a5-4ecb-9360-79f6d3ae0c50"},"vehicle_type_id":"4","last_reported":1749561983,"current_range_meters":21600,"station_id":"ce4bgi92rcd13ifvqb90","pricing_plan_id":"cebpf4jnsgd1na2vs0mg"},