{"last_updated":1692911163,"ttl":30,"version":"2.2","data":{"bikes":[{"bike_id":"616a7037-277e-4b72-907b-49428e1d53db","system_id":"levelo_inurba_marseille","lat":43.313391,"lon":5.36706,"is_reserved":false,"is_disabled":false,"rental_uris":{"android":"levelo://app?vid=616a7037-277e-4b72-907b-49428e1d53db","ios":"levelo://app?vid=616a7037-277e-4b72-907b-49428e1d53db"},"vehicle_type_id":"4","last_reported":1692911163,"current_range_meters":27200,"station_id":"ce4bgr92rcd13ifvqc6g","pricing_plan_id":"free"},{"bike_id":"0a345fec-12fe-48e0-bd33-4106309596f5","system_id":"levelo_inurba_marseille","lat":43.313391,"lon":5.36706,"is_reserved":false,"is_disabled":false,"rental_uris":{"android":"levelo://app?vid=0a345fec-12fe-48e0-bd33-4106309596f5","ios":"levelo://app?vid=0a345fec-12fe-48e0-bd33-4106309596f5"},"vehicle_type_id":"4","last_reported":1692911163,"current_range_meters":10400,"station_id":"ce4bgr92rcd13ifvqc6g","pricing_plan_id":"free"},{"bike_id":"20547b0f-6049-4e70-a784-1fd34cfa76ac","system_id":"levelo_inurba_marseille","lat":43.312239,"lon":5.368562,"is_reserved":false,"is_disabled":false,"rental_uris":{"android":"levelo://app?vid=20547b0f-6049-4e70-a784-1fd34cfa76ac","ios":"levelo://app?vid=20547b0f-6049-4e70-a784-1fd34cfa76ac"},"vehicle_type_id":"4","last_reported":1692911163,"current_range_meters":1200,"station_id":"ce4bgl92rcd13ifvqbq0","pricing_plan_id":"free"},{"bike_id":"f22ca441-4e4e-4660-b824-b2f46943e54d","system_id":"levelo_inurba_marseille","lat":43.312239,"lon":5.368562,"is_reserved":false,"is_disabled":false,"rental_uris":{"android":"levelo://app?vid=f22ca441-4e4e-4660-b824-b2f46943e54d","ios":"levelo://app?vid=f22ca441-4e4e-4660-b824-b2f46943e54d"},"vehicle_type_id":"4","last_reported":1692911163,"current_range_meters":32000,"station_id":"ce4bgl92rcd13ifvqbq0","pricing_plan_id":"free"},{"bike_id":"ef8cb2a6-3b7d-4de9-aa59-575f789dbcda","system_id":"levelo_inurba_marseille","lat":43.312239,"lon":5.368562,"is_reserved":false,"is_disabled":false,"rental_uris":{"android":"levelo://app?vid=ef8cb2a6-3b7d-4de9-aa59-575f789dbcda","ios":"levelo://app?vid=ef8cb2a6-3b7d-4de9-aa59-575f789dbcda"},"vehicle_type_id":"4","last_reported":1692911163,"current_range_meters":4000,"station_id":"ce4bgl92rcd13ifvqbq0","pricing_plan_id":"free"},{"bike_id":"de790857-0c8b-4be8-bb76-674a2509c13c","system_id":"levelo_inurba_marseille","lat":43.312239,"lon":5.368562,"is_reserved":false,"is_disabled":false,"rental_uris":{"android":"levelo://app?vid=de790857-0c8b-4be8-bb76-674a2509c13c","ios":"levelo://app?vid=de790857-0c8b-4be8-bb76-674a2509c13c"},"vehicle_type_id":"4","last_reported":1692911163,"current_range_meters":12400,"station_id":"ce4bgl92rcd13ifvqbq0","pricing_plan_id":"free"},{"bike_id":"418f3a92-f6ff-4c32-9072-459bf1b3b1d1","system_id":"levelo_inurba_marseille","lat":43.312239,"lon":5.368562,"is_reserved":false,"is_disabled":false,"rental_uris":{"android":"levelo://app?vid=418f3a92-f6ff-4c32-9072-459bf1b3b1d1","ios":"levelo://app?vid=418f3a92-f6ff-4c32-9072-459bf1b3b1d1"},"vehicle_type_id":"4","last_reported":1692911163,"current_range_meters":31200,"station_id":"ce4bgl92rcd13ifvqbq0","pricing_plan_id":"free"},{"bike_id":"65674239-bfb7-4928-84de-b7277febf7c2","system_id":"levelo_inurba_marseille","lat":43.312239,"lon":5.368562,"is_reserved":false,"is_disabled":false,"rental_uris":{"android":"levelo://app?vid=65674239-bfb7-4928-84de-b7277febf7c2","ios":"levelo://app?vid=65674239-bfb7-4928-84de-b7277febf7c2"},"vehicle_type_id":"4","last_reported":1692911163,"current_range_meters":29200,"station_id":"ce4bgl92rcd13ifvqbq0","pricing_plan_id":"free"},{"bike_id":"1a0145fa-0b48-4055-b37c-95e7044caa13","system_id":"levelo_inurba_marseille","lat":43.309076,"lon":5.368465,"is_reserved":false,"is_disabled":false,"rental_uris":{"android":"levelo://app?vid=1a0145fa-0b48-4055-b37c-95e7044caa13","ios":"levelo://app?vid=1a0145fa-0b48-4055-b37c-95e7044caa13"},"vehicle_type_id":"4","last_reported":1692911163,"current_range_meters":10800,"station_id":"ce4bgn92rcd13ifvqbvg","pricing_plan_id":"free"},{"bike_id":"d2be997d-44d2-40a5-bb20-02aeaaf65fa5","system_id":"levelo_inurba_marseille","lat":43.314811,"lon":5.373103,"is_reserved":false,"is_disabled":false,"rental_uris":{"android":"levelo://app?vid=d2be997d-44d2-40a5-bb20-02aeaaf65fa5","ios":"levelo://app?vid=d2be997d-44d2-40a5-bb20-02aeaaf65fa5"},"vehicle_type_id":"4","last_reported":1692911163,"current_range_meters":30000,"station_id":"ce4bgt12rcd13ifvqcd0","pricing_plan_id":"free"},{"bike_id":"ca240035-3bc2-4d9e-8fc5-2b5db5ac1edd","system_id":"levelo_inurba_marseille","lat":43.309039,"lon":5.371797,"is_reserved":false,"is_disabled":false,"rental_uris":{"android":"levelo://app?vid=ca240035-3bc2-4d9e-8fc5-2b5db5ac1edd","ios":"levelo://app?vid=ca240035-3bc2-4d9e-8fc5-2b5db5ac1edd"},"vehicle_type_id":"4","last_reported":1692911163,"current_range_meters":19200,"station_id":"ce4bguh2rcd13ifvqckg","pricing_plan_id":"free"},{"bike_id":"ab05d256-6e2b-4cc4-995d-83adb35dfc3a","system_id":"levelo_inurba_marseille","lat":43.309039,"lon":5.371797,"is_reserved":false,"is_disabled":false,"rental_uris":{"android":"levelo://app?vid=ab05d256-6e2b-4cc4-995d-83adb35dfc3a","ios":"levelo://app?vid=ab05d256-6e2b-4cc4-995d-83adb35dfc3a"},"vehicle_type_id":"4","last_reported":1692911163,"current_range_meters":15600,"station_id":"ce4bguh2rcd13ifvqckg","pricing_plan_id":"free"},{"bike_id":"fc6ecb20-65af-4b82-8a58-c62fa100ae9d","system_id":"levelo_inurba_marseille","lat":43.305368,"lon":5.367343,"is_reserved":false,"is_disabled":false,"rental_uris":{"android":"levelo://app?vid=fc6ecb20-65af-4b82-8a58-c62fa100ae9d","ios":"levelo://app?vid=fc6ecb20-65af-4b82-8a58-c62fa100ae9d"},"vehicle_type_id":"4","last_reported":1692911163,"current_range_meters":23200,"station_id":"ce4bgrp2rcd13ifvqc9g","pricing_plan_id":"free"},{"bike_id":"10f1421b-b9a0-4f54-84d2-7d0ef3dd067c","system_id":"levelo_inurba_marseille","lat":43.305714,"lon":5.365633,"is_reserved":false,"is_disabled":false,"rental_uris":{"android":"levelo://app?vid=10f1421b-b9a0-4f54-84d2-7d0ef3dd067c","ios":"levelo://app?vid=10f1421b-b9a0-4f54-84d2-7d0ef3dd067c"},"vehicle_type_id":"4","last_reported":1692911163,"current_range_meters":800,"station_id":"ce4bgs12rcd13ifvqcag","pricing_plan_id":"free"},{"bike_id":"5dc62bd5-a2ea-43e7-8667-622fa573dec9","system_id":"levelo_inurba_marseille","lat":43.305706,"lon":5.365654,"is_reserved":false,"is_disabled":false,"rental_uris":{"android":"levelo://app?vid=5dc62bd5-a2ea-43e7-8667-622fa573dec9","ios":"levelo://app?vid=5dc62bd5-a2ea-43e7-8667-622fa573dec9"},"vehicle_type_id":"4","last_reported":1692911163,"current_range_meters":12000,"station_id":"ce4bgs12rcd13ifvqcag","pricing_plan_id":"free"},{"bike_id":"2fc16041-e408-4f86-9aff-221d75019cd2","system_id":"levelo_inurba_marseille","lat":43.305989,"lon":5.37225,"is_reserved":false,"is_disabled":false,"rental_uris":{"android":"levelo://app?vid=2fc16041-e408-4f86-9aff-221d75019cd2","ios":"levelo://app?vid=2fc16041-e408-4f86-9aff-221d75019cd2"},"vehicle_type_id":"4","last_reported":1692911163,"current_range_meters":2000,"station_id":"ce4bgqh2rcd13ifvqc4g","pricing_plan_id":"free"},{"bike_id":"f875cb66-0215-4bfb-9779-aff35b291f59","system_id":"levelo_inurba_marseille","lat":43.305989,"lon":5.37225,"is_reserved":false,"is_disabled":false,"rental_uris":{"android":"levelo://app?vid=f875cb66-0215-4bfb-9779-aff35b291f59","ios":"levelo://app?vid=f875cb66-0215-4bfb-9779-aff35b291f59"},"vehicle_type_id":"4","last_reported":1692911163,"current_range_meters":5200,"station_id":"ce4bgqh2rcd13ifvqc4g","pricing_plan_id":"free"},{"bike_id":"848b73de-6ec1-4880-a09c-d2e2eb964d8b","system_id":"levelo_inurba_marseille","lat":43.305989,"lon":5.37225,"is_reserved":false,"is_disabled":false,"rental_uris":{"android":"levelo://app?vid=848b73de-6ec1-4880-a09c-d2e2eb964d8b","ios":"levelo://app?vid=848b73de-6ec1-4880-a09c-d2e2eb964d8b"},"vehicle_type_id":"4","last_reported":1692911163,"current_range_meters":4400,"station_id":"ce4bgqh2rcd13ifvqc4g","pricing_plan_id":"free"},{"bike_id":"2832f103-4801-409e-9c9c-05a37a873abe","system_id":"levelo_inurba_marseille","lat":43.305989,"lon":5.37225,"is_reserved":false,"is_disabled":false,"rental_uris":{"android":"levelo://app?vid=2832f103-4801-409e-9c9c-05a37a873abe","ios":"levelo://app?vid=2832f103-4801-409e-9c9c-05a37a873abe"},"vehicle_type_id":"4","last_reported":1692911163,"current_range_meters":26400,"station_id":"ce4bgqh2rcd13ifvqc4g","pricing_plan_id":"free"},{"bike_id":"54f3427f-8b0d-4107-8a19-5d63c36d2a55","system_id":"levelo_inurba_marseille","lat":43.311125,"lon":5.377624,"is_reserved":false,"is_disabled":false,"rental_uris":{"android":"levelo://app?vid=54f3427f-8b0d-4107-8a19-5d63c36d2a55","ios":"levelo://app?vid=54f3427f-8b0d-4107-8a19-5d63c36d2a55"},"vehicle_type_id":"4","last_reported":1692911163,"current_range_meters":13200,"station_id":"ce4bgt92rcd13ifvqcg0","pricing_plan_id":"free"},{"bike_id":"57c0c793-7366-4c33-83fe-59aa0276d1f2","system_id":"levelo_inurba_marseille","lat":43.311125,"lon":5.377624,"is_reserved":false,"is_disabled":false,"rental_uris":{"android":"levelo://app?vid=57c0c793-7366-4c33-83fe-59aa0276d1f2","ios":"levelo://app?vid=57c0c793-7366-4c33-83fe-59aa0276d1f2"},"vehicle_type_id":"4","last_reported":1692911163,"current_range_meters":19200,"station_id":"ce4bgt92rcd13ifvqcg0","pricing_plan_id":"free"},{"bike_id":"7465b4d8-83f1-4261-b597-66060fdb7939","system_id":"levelo_inurba_marseille","lat":43.31112,"lon":5.37783,"is_reserved":false,"is_disabled":false,"rental_uris":{"android":"levelo://app?vid=7465b4d8-83f1-4261-b597-66060fdb7939","ios":"levelo://app?vid=7465b4d8-83f1-4261-b597-66060fdb7939"},"vehicle_type_id":"4","last_reported":1692911163,"current_range_meters":24000,"station_id":"","pricing_plan_id":"free"},{"bike_id":"c7e96505-c490-4739-9e45-e6bdd83377ad","system_id":"levelo_inurba_marseille","lat":43.311125,"lon":5.377624,"is_reserved":false,"is_disabled":false,"rental_uris":{"android":"levelo://app?vid=c7e96505-c490-4739-9e45-e6bdd83377ad","ios":"levelo://app?vid=c7e96505-c490-4739-9e45-e6bdd83377ad"},"vehicle_type_id":"4","last_reported":1692911163,"current_range_meters":2000,"station_id":"ce4bgt92rcd13ifvqcg0","pricing_plan_id":"free"},{"bike_id":"a177bed2-1ac6-4fca-9918-96c246c8fcd6","system_id":"levelo_inurba_marseille","lat":43.307945,"lon":5.376487,"is_reserved":false,"is_disabled":false,"rental_uris":{"android":"levelo://app?vid=a177bed2-1ac6-4fca-9918-96c246c8fcd6","ios":"levelo://app?vid=a177bed2-1ac6-4fca-9918-96c246c8fcd6"},"vehicle_type_id":"4","last_reported":1692911163,"current_range_meters":9200,"station_id":"ce4bgv92rcd13ifvqcq0","pricing_plan_id":"free"},{"bike_id":"24dd7de9-9452-4094-8089-ccd1e0b32c19","system_id":"levelo_inurba_marseille","lat":43.30305,"lon":5.36889,"is_reserved":false,"is_disabled":false,"rental_uris":{"android":"levelo://app?vid=24dd7de9-9452-4094-8089-ccd1e0b32c19","ios":"levelo://app?vid=24dd7de9-9452-4094-8089-ccd1e0b32c19"},"vehicle_type_id":"4","last_reported":1692911163,"current_range_meters":0,"station_id":"ce4bgqh2rcd13ifvqc5g","pricing_plan_id":"free"},{"bike_id":"441e2b0e-a9e0-4e61-9953-037c080d1c90","system_id":"levelo_inurba_marseille","lat":43.30304,"lon":5.368987,"is_reserved":false,"is_disabled":false,"rental_uris":{"android":"levelo://app?vid=441e2b0e-a9e0-4e61-9953-037c080d1c90","ios":"levelo://app?vid=441e2b0e-a9e0-4e61-9953-037c080d1c90"},"vehicle_type_id":"4","last_reported":1692911163,"current_range_meters":0,"station_id":"ce4bgqh2rcd13ifvqc5g","pricing_plan_id":"free"},{"bike_id":"9500b027-2cb0-4df5-a8ff-3467a31cfaa6","system_id":"levelo_inurba_marseille","lat":43.301939,"lon":5.366286,"is_reserved":false,"is_disabled":false,"rental_uris":{"android":"levelo://app?vid=9500b027-2cb0-4df5-a8ff-3467a31cfaa6","ios":"levelo://app?vid=9500b027-2cb0-4df5-a8ff-3467a31cfaa6"},"vehicle_type_id":"4","last_reported":1692911163,"current_range_meters":30000,"station_id":"ce4bgrh2rcd13ifvqc8g","pricing_plan_id":"free"},{"bike_id":"abda6bb7-5a32-4544-bd09-2f8b8b985ccb","system_id":"levelo_inurba_marseille","lat":43.30186,"lon":5.36613,"is_reserved":false,"is_disabled":false,"rental_uris":{"android":"levelo://app?vid=abda6bb7-5a32-4544-bd09-2f8b8b985ccb","ios":"levelo://app?vid=abda6bb7-5a32-4544-bd09-2f8b8b985ccb"},"vehicle_type_id":"4","last_reported":1692911163,"current_range_meters":29600,"station_id":"ce4bgrh2rcd13ifvqc8g","pricing_plan_id":"free"},{"bike_id":"77b09c81-c3c4-4d95-860f-17b8db546bc5","system_id":"levelo_inurba_marseille","lat":43.30184,"lon":5.3662,"is_reserved":false,"is_disabled":false,"rental_uris":{"android":"levelo://app?vid=77b09c81-c3c4-4d95-860f-17b8db546bc5","ios":"levelo://app?vid=77b09c81-c3c4-4d95-860f-17b8db546bc5"},"vehicle_type_id":"4","last_reported":1692911163,"current_range_meters":19200,"station_id":"ce4bgrh2rcd13ifvqc8g","pricing_plan_id":"free"},{"bike_id":"ba46b159-232a-4f12-a7bb-10f41dbb4287","system_id":"levelo_inurba_marseille","lat":43.301939,"lon":5.366286,"is_reserved":false,"is_disabled":false,"rental_uris":{"android":"levelo://app?vid=ba46b159-232a-4f12-a7bb-10f41dbb4287","ios":"levelo://app?vid=ba46b159-232a-4f12-a7bb-10f41dbb4287"},"vehicle_type_id":"4","last_reported":1692911163,"current_range_meters":22000,"station_id":"ce4bgrh2rcd13ifvqc8g","pricing_plan_id":"free"},{"bike_id":"3a253212-26f2-4208-9f41-094ac99b9a7f","system_id":"levelo_inurba_marseille","lat":43.30183,"lon":5.3662,"is_reserved":false,"is_disabled":false,"rental_uris":{"android":"levelo://app?vid=3a253212-26f2-4208-9f41-094ac99b9a7f","ios":"levelo://app?vid=3a253212-26f2-4208-9f41-094ac99b9a7f"},"vehicle_type_id":"4","last_reported":1692911163,"current_range_meters":0,"station_id":"ce4bgrh2rcd13ifvqc8g","pricing_plan_id":"free"},{"bike_id":"72db77ed-4d27-43ff-af2e-8884332682ac","system_id":"levelo_inurba_marseille","lat":43.30183,"lon":5.36613,"is_reserved":false,"is_disabled":false,"rental_uris":{"android":"levelo://app?vid=72db77ed-4d27-43ff-af2e-8884332682ac","ios":"levelo://app?vid=72db77ed-4d27-43ff-af2e-8884332682ac"},"vehicle_type_id":"4","last_reported":1692911163,"current_range_meters":14800,"station_id":"ce4bgrh2rcd13ifvqc8g","pricing_plan_id":"free"},{"bike_id":"6c081649-12b9-427d-9598-960ba949e1c1","system_id":"levelo_inurba_marseille","lat":43.30183,"lon":5.36612,"is_reserved":false,"is_disabled":false,"rental_uris":{"android":"levelo://app?vid=6c081649-12b9-427d-9598-960ba949e1c1","ios":"levelo://app?vid=6c081649-12b9-427d-9598-960ba949e1c1"},"vehicle_type_id":"4","last_reported":1692911163,"current_range_meters":25200,"station_id":"ce4bgrh2rcd13ifvqc8g","pricing_plan_id":"free"},{"bike_id":"a611c3fd-b7f0-44f3-95e1-d76b4127a266","system_id":"levelo_inurba_marseille","lat":43.308012,"lon":5.381511,"is_reserved":false,"is_disabled":false,"rental_uris":{"android":"levelo://app?vid=a611c3fd-b7f0-44f3-95e1-d76b4127a266","ios":"levelo://app?vid=a611c3fd-b7f0-44f3-95e1-d76b4127a266"},"vehicle_type_id":"4","last_reported":1692911163,"current_range_meters":31200,"station_id":"ce4bgt12rcd13ifvqce0","pricing_plan_id":"free"},{"bike_id":"9243a785-e353-40d5-ad69-1b3db16e0f1a","system_id":"levelo_inurba_marseille","lat":43.308012,"lon":5.381511,"is_reserved":false,"is_disabled":false,"rental_uris":{"android":"levelo://app?vid=9243a785-e353-40d5-ad69-1b3db16e0f1a","ios":"levelo://app?vid=9243a785-e353-40d5-ad69-1b3db16e0f1a"},"vehicle_type_id":"4","last_reported":1692911163,"current_range_meters":28000,"station_id":"ce4bgt12rcd13ifvqce0","pricing_plan_id":"free"},{"bike_id":"255ea8df-8ecf-423f-bde0-244611c0d828","system_id":"levelo_inurba_marseille","lat":43.302784,"lon":5.377158,"is_reserved":false,"is_disabled":false,"rental_uris":{"android":"levelo://app?vid=255ea8df-8ecf-423f-bde0-244611c0d828","ios":"levelo://app?vid=255ea8df-8ecf-423f-bde0-244611c0d828"},"vehicle_type_id":"4","last_reported":1692911163,"current_range_meters":20000,"station_id":"ce4bguh2rcd13ifvqcj0","pricing_plan_id":"free"},{"bike_id":"0173cb45-bff3-481d-b40a-84ba7e4b3fb4","system_id":"levelo_inurba_marseille","lat":43.302784,"lon":5.377158,"is_reserved":false,"is_disabled":false,"rental_uris":{"android":"levelo://app?vid=0173cb45-bff3-481d-b40a-84ba7e4b3fb4","ios":"levelo://app?vid=0173cb45-bff3-481d-b40a-84ba7e4b3fb4"},"vehicle_type_id":"4","last_reported":1692911163,"current_range_meters":21600,"station_id":"ce4bguh2rcd13ifvqcj0","pricing_plan_id":"free"},{"bike_id":"85ad4fb5-e7fa-4b90-a2f1-738df6a3d567","system_id":"levelo_inurba_marseille","lat":43.30141,"lon":5.3741,"is_reserved":false,"is_disabled":false,"rental_uris":{"android":"levelo://app?vid=85ad4fb5-e7fa-4b90-a2f1-738df6a3d567","ios":"levelo://app?vid=85ad4fb5-e7fa-4b90-a2f1-738df6a3d567"},"vehicle_type_id":"4","last_reported":1692911163,"current_range_meters":22400,"station_id":"ce4bgs92rcd13ifvqcc0","pricing_plan_id":"free"},{"bike_id":"6d8dac91-a7c3-444e-a382-8d8ab47feda9","system_id":"levelo_inurba_marseille","lat":43.301408,"lon":5.374151,"is_reserved":false,"is_disabled":false,"rental_uris":{"android":"levelo://app?vid=6d8dac91-a7c3-444e-a382-8d8ab47feda9","ios":"levelo://app?vid=6d8dac91-a7c3-444e-a382-8d8ab47feda9"},"vehicle_type_id":"4","last_reported":1692911163,"current_range_meters":12000,"station_id":"ce4bgs92rcd13ifvqcc0","pricing_plan_id":"free"},{"bike_id":"23456f4d-acb8-41c2-8d1a-d204cd2a91ae","system_id":"levelo_inurba_marseille","lat":43.30138,"lon":5.37435,"is_reserved":false,"is_disabled":false,"rental_uris":{"android":"levelo://app?vid=23456f4d-acb8-41c2-8d1a-d204cd2a91ae","ios":"levelo://app?vid=23456f4d-acb8-41c2-8d1a-d204cd2a91ae"},"vehicle_type_id":"4","last_reported":1692911163,"current_range_meters":24800,"station_id":"ce4bgs92rcd13ifvqcc0","pricing_plan_id":"free"},{"bike_id":"dff632a9-7816-4d1d-a9f8-c824f6d62b65","system_id":"levelo_inurba_marseille","lat":43.31995,"lon":5.38146,"is_reserved":false,"is_disabled":false,"rental_uris":{"android":"levelo://app?vid=dff632a9-7816-4d1d-a9f8-c824f6d62b65","ios":"levelo://app?vid=dff632a9-7816-4d1d-a9f8-c824f6d62b65"},"vehicle_type_id":"4","last_reported":1692911163,"current_range_meters":0,"station_id":"ce4bhr12rcd13ifvqhpg","pricing_plan_id":"free"},{"bike_id":"2b784dab-3035-4574-96b3-9bc43b6b77d1","system_id":"levelo_inurba_marseille","lat":43.31996,"lon":5.38158,"is_reserved":false,"is_disabled":false,"rental_uris":{"android":"levelo://app?vid=2b784dab-3035-4574-96b3-9bc43b6b77d1","ios":"levelo://app?vid=2b784dab-3035-4574-96b3-9bc43b6b77d1"},"vehicle_type_id":"4","last_reported":1692911163,"current_range_meters":8000,"station_id":"ce4bhr12rcd13ifvqhpg","pricing_plan_id":"free"},{"bike_id":"3c9397b6-069c-46bb-a253-bf3f395c742d","system_id":"levelo_inurba_marseille","lat":43.3199,"lon":5.38168,"is_reserved":false,"is_disabled":false,"rental_uris":{"android":"levelo://app?vid=3c9397b6-069c-46bb-a253-bf3f395c742d","ios":"levelo://app?vid=3c9397b6-069c-46bb-a253-bf3f395c742d"},"vehicle_type_id":"4","last_reported":1692911163,"current_range_meters":18400,"station_id":"ce4bhr12rcd13ifvqhpg","pricing_plan_id":"free"},{"bike_id":"e4f5eec2-e8bd-4af4-adda-810250c382c3","system_id":"levelo_inurba_marseille","lat":43.313571,"lon":5.384829,"is_reserved":false,"is_disabled":false,"rental_uris":{"android":"levelo://app?vid=e4f5eec2-e8bd-4af4-adda-810250c382c3","ios":"levelo://app?vid=e4f5eec2-e8bd-4af4-adda-810250c382c3"},"vehicle_type_id":"4","last_reported":1692911163,"current_range_meters":22400,"station_id":"ce4bgt92rcd13ifvqcf0","pricing_plan_id":"free"},{"bike_id":"7c85443d-e6f2-450d-bbef-a788bc22abe8","system_id":"levelo_inurba_marseille","lat":43.313571,"lon":5.384829,"is_reserved":false,"is_disabled":false,"rental_uris":{"android":"levelo://app?vid=7c85443d-e6f2-450d-bbef-a788bc22abe8","ios":"levelo://app?vid=7c85443d-e6f2-450d-bbef-a788bc22abe8"},"vehicle_type_id":"4","last_reported":1692911163,"current_range_meters":28800,"station_id":"ce4bgt92rcd13ifvqcf0","pricing_plan_id":"free"},{"bike_id":"c99b768f-d182-4ab0-b5f9-7d6314e80365","system_id":"levelo_inurba_marseille","lat":43.313571,"lon":5.384829,"is_reserved":false,"is_disabled":false,"rental_uris":{"android":"levelo://app?vid=c99b768f-d182-4ab0-b5f9-7d6314e80365","ios":"levelo://app?vid=c99b768f-d182-4ab0-b5f9-7d6314e80365"},"vehicle_type_id":"4","last_reported":1692911163,"current_range_meters":11200,"station_id":"ce4bgt92rcd13ifvqcf0","pricing_plan_id":"free"},{"bike_id":"1a833074-3ca2-4395-8f25-e787c2a67e67","system_id":"levelo_inurba_marseille","lat":43.2993,"lon":5.36556,"is_reserved":false,"is_disabled":false,"rental_uris":{"android":"levelo://app?vid=1a833074-3ca2-4395-8f25-e787c2a67e67","ios":"levelo://app?vid=1a833074-3ca2-4395-8f25-e787c2a67e67"},"vehicle_type_id":"4","last_reported":1692911163,"current_range_meters":2400,"station_id":"ce4bgm92rcd13ifvqbr0","pricing_plan_id":"free"},{"bike_id":"95dc9ecf-047e-4c3a-bb12-a5676cb36ad4","system_id":"levelo_inurba_marseille","lat":43.3216,"lon":5.38166,"is_reserved":false,"is_disabled":false,"rental_uris":{"android":"levelo://app?vid=95dc9ecf-047e-4c3a-bb12-a5676cb36ad4","ios":"levelo://app?vid=95dc9ecf-047e-4c3a-bb12-a5676cb36ad4"},"vehicle_type_id":"4","last_reported":1692911163,"current_range_meters":0,"station_id":"","pricing_plan_id":"free"},{"bike_id":"c838f928-d168-4ed7-9684-1b16862f588e","system_id":"levelo_inurba_marseille","lat":43.29836,"lon":5.36583,"is_reserved":false,"is_disabled":false,"rental_uris":{"android":"levelo://app?vid=c838f928-d168-4ed7-9684-1b16862f588e","ios":"levelo://app?vid=c838f928-d168-4ed7-9684-1b16862f588e"},"vehicle_type_id":"4","last_reported":1692911163,"current_range_meters":22400,"station_id":"ce4bgv92rcd13ifvqcq0","pricing_plan_id":"free"},{"bike_id":"31b8457d-a9f2-423f-85e5-35e9c3e07260","system_id":"levelo_inurba_marseille","lat":43.305364,"lon":5.384119,"is_reserved":false,"is_disabled":false,"rental_uris":{"android":"levelo://app?vid=31b8457d-a9f2-423f-85e5-35e9c3e07260","ios":"levelo://app?vid=31b8457d-a9f2-423f-85e5-35e9c3e07260"},"vehicle_type_id":"4","last_reported":1692911163,"current_range_meters":3200,"station_id":"ce4bgg92rcd13ifvqb30","pricing_plan_id":"free"},{"bike_id":"ea628102-f413-4421-a451-01c3055a1ca3","system_id":"levelo_inurba_marseille","lat":43.30531,"lon":5.38433,"is_reserved":false,"is_disabled":false,"rental_uris":{"android":"levelo://app?vid=ea628102-f413-4421-a451-01c3055a1ca3","ios":"levelo://app?vid=ea628102-f413-4421-a451-01c3055a1ca3"},"vehicle_type_id":"4","last_reported":1692911163,"current_range_meters":31200,"station_id":"ce4bgg92rcd13ifvqb30","pricing_plan_id":"free"},{"bike_id":"74b3ca95-5286-4294-9835-8f3f742ca610","system_id":"levelo_inurba_marseille","lat":43.305364,"lon":5.384119,"is_reserved":false,"is_disabled":false,"rental_uris":{"android":"levelo://app?vid=74b3ca95-5286-4294-9835-8f3f742ca610","ios":"levelo://app?vid=74b3ca95-5286-4294-9835-8f3f742ca610"},"vehicle_type_id":"4","last_reported":1692911163,"current_range_meters":31200,"station_id":"ce4bgg92rcd13ifvqb30","pricing_plan_id":"free"},{"bike_id":"2f9e2def-2173-4eb4-a460-9a385f59debe","system_id":"levelo_inurba_marseille","lat":43.299243,"lon":5.37481,"is_reserved":false,"is_disabled":false,"rental_uris":{"android":"levelo://app?vid=2f9e2def-2173-4eb4-a460-9a385f59debe","ios":"levelo://app?vid=2f9e2def-2173-4eb4-a460-9a385f59debe"},"vehicle_type_id":"4","last_reported":1692911163,"current_range_meters":31200,"station_id":"ce4bgjh2rcd13ifvqbg0","pricing_plan_id":"free"},{"bike_id":"b885f463-e8c5-42cc-902f-7152167ce1c7","system_id":"levelo_inurba_marseille","lat":43.299243,"lon":5.374807,"is_reserved":false,"is_disabled":false,"rental_uris":{"android":"levelo://app?vid=b885f463-e8c5-42cc-902f-7152167ce1c7","ios":"levelo://app?vid=b885f463-e8c5-42cc-902f-7152167ce1c7"},"vehicle_type_id":"4","last_reported":1692911163,"current_range_meters":31200,"station_id":"ce4bgjh2rcd13ifvqbg0","pricing_plan_id":"free"},{"bike_id":"35eec3a1-aa54-4990-8eb4-78e6c0dd24d0","system_id":"levelo_inurba_marseille","lat":43.29911,"lon":5.37469,"is_reserved":false,"is_disabled":false,"rental_uris":{"android":"levelo://app?vid=35eec3a1-aa54-4990-8eb4-78e6c0dd24d0","ios":"levelo://app?vid=35eec3a1-aa54-4990-8eb4-78e6c0dd24d0"},"vehicle_type_id":"4","last_reported":1692911163,"current_range_meters":26800,"station_id":"ce4bgjh2rcd13ifvqbg0","pricing_plan_id":"free"},{"bike_id":"ef7de723-1ca8-40c6-8f62-7805816db3e7","system_id":"levelo_inurba_marseille","lat":43.31164,"lon":5.3872,"is_reserved":false,"is_disabled":false,"rental_uris":{"android":"levelo://app?vid=ef7de723-1ca8-40c6-8f62-7805816db3e7","ios":"levelo://app?vid=ef7de723-1ca8-40c6-8f62-7805816db3e7"},"vehicle_type_id":"4","last_reported":1692911163,"current_range_meters":18000,"station_id":"ce4bgv12rcd13ifvqcp0","pricing_plan_id":"free"},{"bike_id":"2007ec38-b092-4645-8176-8310b5c3f75c","system_id":"levelo_inurba_marseille","lat":43.32631,"lon":5.35876,"is_reserved":false,"is_disabled":false,"rental_uris":{"android":"levelo://app?vid=2007ec38-b092-4645-8176-8310b5c3f75c","ios":"levelo://app?vid=2007ec38-b092-4645-8176-8310b5c3f75c"},"vehicle_type_id":"4","last_reported":1692911163,"current_range_meters":22800,"station_id":"","pricing_plan_id":"free"},{"bike_id":"4739e146-6732-4ba6-a21b-6e387c2e9e41","system_id":"levelo_inurba_marseille","lat":43.305364,"lon":5.384119,"is_reserved":false,"is_disabled":false,"rental_uris":{"android":"levelo://app?vid=4739e146-6732-4ba6-a21b-6e387c2e9e41","ios":"levelo://app?vid=4739e146-6732-4ba6-a21b-6e387c2e9e41"},"vehicle_type_id":"4","last_reported":1692911163,"current_range_meters":22000,"station_id":"ce4bgg92rcd13ifvqb30","pricing_plan_id":"free"},{"bike_id":"28270bb3-5e30-42c3-ac10-5893f229b643","system_id":"levelo_inurba_marseille","lat":43.322872,"lon":5.382756,"is_reserved":false,"is_disabled":false,"rental_uris":{"android":"levelo://app?vid=28270bb3-5e30-42c3-ac10-5893f229b643","ios":"levelo://app?vid=28270bb3-5e30-42c3-ac10-5893f229b643"},"vehicle_type_id":"4","last_reported":1692911163,"current_range_meters":19200,"station_id":"ce4bhr12rcd13ifvqhqg","pricing_plan_id":"free"},{"bike_id":"8a59e8ab-78e1-4e00-8471-10d3a5200fef","system_id":"levelo_inurba_marseille","lat":43.328371,"lon":5.366909,"is_reserved":false,"is_disabled":false,"rental_uris":{"android":"levelo://app?vid=8a59e8ab-78e1-4e00-8471-10d3a5200fef","ios":"levelo://app?vid=8a59e8ab-78e1-4e00-8471-10d3a5200fef"},"vehicle_type_id":"4","last_reported":1692911163,"current_range_meters":8800,"station_id":"ce4bhs92rcd13ifvqi0g","pricing_plan_id":"free"},{"bike_id":"3ea04317-345c-4b4e-941d-9c0d6e64b6b9","system_id":"levelo_inurba_marseille","lat":43.328371,"lon":5.366909,"is_reserved":false,"is_disabled":false,"rental_uris":{"android":"levelo://app?vid=3ea04317-345c-4b4e-941d-9c0d6e64b6b9","ios":"levelo://app?vid=3ea04317-345c-4b4e-941d-9c0d6e64b6b9"},"vehicle_type_id":"4","last_reported":1692911163,"current_range_meters":3200,"station_id":"ce4bhs92rcd13ifvqi0g","pricing_plan_id":"free"},{"bike_id":"cb0c9485-db38-43ad-b3eb-941ade0b8d48","system_id":"levelo_inurba_marseille","lat":43.32824,"lon":5.36684,"is_reserved":false,"is_disabled":false,"rental_uris":{"android":"levelo://app?vid=cb0c9485-db38-43ad-b3eb-941ade0b8d48","ios":"levelo://app?vid=cb0c9485-db38-43ad-b3eb-941ade0b8d48"},"vehicle_type_id":"4","last_reported":1692911163,"current_range_meters":0,"station_id":"ce4bhs92rcd13ifvqi0g","pricing_plan_id":"free"},{"bike_id":"d0f5a968-75c3-45cf-8359-a2045afc57cd","system_id":"levelo_inurba_marseille","lat":43.32826,"lon":5.36681,"is_reserved":false,"is_disabled":false,"rental_uris":{"android":"levelo://app?vid=d0f5a968-75c3-45cf-8359-a2045afc57cd","ios":"levelo://app?vid=d0f5a968-75c3-45cf-8359-a2045afc57cd"},"vehicle_type_id":"4","last_reported":1692911163,"current_range_meters":26000,"station_id":"ce4bhs92rcd13ifvqi0g","pricing_plan_id":"free"},{"bike_id":"d43e5e3e-cc4f-4407-993a-a9c5ce5ad62d","system_id":"levelo_inurba_marseille","lat":43.32829,"lon":5.36689,"is_reserved":false,"is_disabled":false,"rental_uris":{"android":"levelo://app?vid=d43e5e3e-cc4f-4407-993a-a9c5ce5ad62d","ios":"levelo://app?vid=d43e5e3e-cc4f-4407-993a-a9c5ce5ad62d"},"vehicle_type_id":"4","last_reported":1692911163,"current_range_meters":23600,"station_id":"ce4bhs92rcd13ifvqi0g","pricing_plan_id":"free"},{"bike_id":"bd0bd295-6ecc-40c4-a4d0-89f645593756","system_id":"levelo_inurba_marseille","lat":43.297163,"lon":5.365866,"is_reserved":false,"is_disabled":false,"rental_uris":{"android":"levelo://app?vid=bd0bd295-6ecc-40c4-a4d0-89f645593756","ios":"levelo://app?vid=bd0bd295-6ecc-40c4-a4d0-89f645593756"},"vehicle_type_id":"4","last_reported":1692911163,"current_range_meters":19600,"station_id":"ce4bgn12rcd13ifvqbt0","pricing_plan_id":"free"},{"bike_id":"1982984c-1826-44ed-b984-c794b80833b8","system_id":"levelo_inurba_marseille","lat":43.32833,"lon":5.36677,"is_reserved":false,"is_disabled":false,"rental_uris":{"android":"levelo://app?vid=1982984c-1826-44ed-b984-c794b80833b8","ios":"levelo://app?vid=1982984c-1826-44ed-b984-c794b80833b8"},"vehicle_type_id":"4","last_reported":1692911163,"current_range_meters":30000,"station_id":"ce4bhs92rcd13ifvqi0g","pricing_plan_id":"free"},{"bike_id":"49dd2626-769b-42da-a83b-4618a2cc293c","system_id":"levelo_inurba_marseille","lat":43.31527,"lon":5.38809,"is_reserved":false,"is_disabled":false,"rental_uris":{"android":"levelo://app?vid=49dd2626-769b-42da-a83b-4618a2cc293c","ios":"levelo://app?vid=49dd2626-769b-42da-a83b-4618a2cc293c"},"vehicle_type_id":"4","last_reported":1692911163,"current_range_meters":26400,"station_id":"","pricing_plan_id":"free"},{"bike_id":"dd789220-e7b5-42c1-b9dc-dc4243148021","system_id":"levelo_inurba_marseille","lat":43.297163,"lon":5.365866,"is_reserved":false,"is_disabled":false,"rental_uris":{"android":"levelo://app?vid=dd789220-e7b5-42c1-b9dc-dc4243148021","ios":"levelo://app?vid=dd789220-e7b5-42c1-b9dc-dc4243148021"},"vehicle_type_id":"4","last_reported":1692911163,"current_range_meters":31200,"station_id":"ce4bgn12rcd13ifvqbt0","pricing_plan_id":"free"},{"bike_id":"d3139180-8ba9-4c91-b6e4-8baae3c22113","system_id":"levelo_inurba_marseille","lat":43.296131,"lon":5.370791,"is_reserved":false,"is_disabled":false,"rental_uris":{"android":"levelo://app?vid=d3139180-8ba9-4c91-b6e4-8baae3c22113","ios":"levelo://app?vid=d3139180-8ba9-4c91-b6e4-8baae3c22113"},"vehicle_type_id":"4","last_reported":1692911163,"current_range_meters":31200,"station_id":"ce4bgnh2rcd13ifvqc0g","pricing_plan_id":"free"},{"bike_id":"14e460bc-073c-4da1-8fe8-8c4450d4ccab","system_id":"levelo_inurba_marseille","lat":43.296131,"lon":5.370773,"is_reserved":false,"is_disabled":false,"rental_uris":{"android":"levelo://app?vid=14e460bc-073c-4da1-8fe8-8c4450d4ccab","ios":"levelo://app?vid=14e460bc-073c-4da1-8fe8-8c4450d4ccab"},"vehicle_type_id":"4","last_reported":1692911163,"current_range_meters":0,"station_id":"ce4bgnh2rcd13ifvqc0g","pricing_plan_id":"free"},{"bike_id":"39bd0926-8f68-4801-b71e-affdc533e89a","system_id":"levelo_inurba_marseille","lat":43.309589,"lon":5.390258,"is_reserved":false,"is_disabled":false,"rental_uris":{"android":"levelo://app?vid=39bd0926-8f68-4801-b71e-affdc533e89a","ios":"levelo://app?vid=39bd0926-8f68-4801-b71e-affdc533e89a"},"vehicle_type_id":"4","last_reported":1692911163,"current_range_meters":24400,"station_id":"ce4bgup2rcd13ifvqco0","pricing_plan_id":"free"},{"bike_id":"2bf2d55e-1fbb-4fb5-8788-611b40c3ab1a","system_id":"levelo_inurba_marseille","lat":43.29904,"lon":5.38157,"is_reserved":false,"is_disabled":false,"rental_uris":{"android":"levelo://app?vid=2bf2d55e-1fbb-4fb5-8788-611b40c3ab1a","ios":"levelo://app?vid=2bf2d55e-1fbb-4fb5-8788-611b40c3ab1a"},"vehicle_type_id":"4","last_reported":1692911163,"current_range_meters":2400,"station_id":"ce4bgj12rcd13ifvqbc0","pricing_plan_id":"free"},{"bike_id":"bd7ed5a1-2659-459b-b821-8407e71d9000","system_id":"levelo_inurba_marseille","lat":43.317557,"lon":5.390173,"is_reserved":false,"is_disabled":false,"rental_uris":{"android":"levelo://app?vid=bd7ed5a1-2659-459b-b821-8407e71d9000","ios":"levelo://app?vid=bd7ed5a1-2659-459b-b821-8407e71d9000"},"vehicle_type_id":"4","last_reported":1692911163,"current_range_meters":21600,"station_id":"ce4bhqp2rcd13ifvqhng","pricing_plan_id":"free"},{"bike_id":"2c93ce6f-c5e1-4ec9-9941-ebb7469bb8f2","system_id":"levelo_inurba_marseille","lat":43.317557,"lon":5.390173,"is_reserved":false,"is_disabled":false,"rental_uris":{"android":"levelo://app?vid=2c93ce6f-c5e1-4ec9-9941-ebb7469bb8f2","ios":"levelo://app?vid=2c93ce6f-c5e1-4ec9-9941-ebb7469bb8f2"},"vehicle_type_id":"4","last_reported":1692911163,"current_range_meters":31600,"station_id":"ce4bhqp2rcd13ifvqhng","pricing_plan_id":"free"},{"bike_id":"e3521786-6792-4480-92ec-9af5cda0b810","system_id":"levelo_inurba_marseille","lat":43.317557,"lon":5.390173,"is_reserved":false,"is_disabled":false,"rental_uris":{"android":"levelo://app?vid=e3521786-6792-4480-92ec-9af5cda0b810","ios":"levelo://app?vid=e3521786-6792-4480-92ec-9af5cda0b810"},"vehicle_type_id":"4","last_reported":1692911163,"current_range_meters":16400,"station_id":"ce4bhqp2rcd13ifvqhng","pricing_plan_id":"free"},{"bike_id":"9b3a9002-e3aa-4dfd-92b7-7c1e2b80994d","system_id":"levelo_inurba_marseille","lat":43.317557,"lon":5.390173,"is_reserved":false,"is_disabled":false,"rental_uris":{"android":"levelo://app?vid=9b3a9002-e3aa-4dfd-92b7-7c1e2b80994d","ios":"levelo://app?vid=9b3a9002-e3aa-4dfd-92b7-7c1e2b80994d"},"vehicle_type_id":"4","last_reported":1692911163,"current_range_meters":21200,"station_id":"ce4bhqp2rcd13ifvqhng","pricing_plan_id":"free"},{"bike_id":"1ce4b758-4417-40aa-8a3a-9320613a3732","system_id":"levelo_inurba_marseille","lat":43.317557,"lon":5.390173,"is_reserved":false,"is_disabled":false,"rental_uris":{"android":"levelo://app?vid=1ce4b758-4417-40aa-8a3a-9320613a3732","ios":"levelo://app?vid=1ce4b758-4417-40aa-8a3a-9320613a3732"},"vehicle_type_id":"4","last_reported":1692911163,"current_range_meters":8400,"station_id":"ce4bhqp2rcd13ifvqhng","pricing_plan_id":"free"},{"bike_id":"6d8f3609-3a72-4964-bb63-294509618951","system_id":"levelo_inurba_marseille","lat":43.317557,"lon":5.390173,"is_reserved":false,"is_disabled":false,"rental_uris":{"android":"levelo://app?vid=6d8f3609-3a72-4964-bb63-294509618951","ios":"levelo://app?vid=6d8f3609-3a72-4964-bb63-294509618951"},"vehicle_type_id":"4","last_reported":1692911163,"current_range_meters":31600,"station_id":"ce4bhqp2rcd13ifvqhng","pricing_plan_id":"free"},{"bike_id":"e0d63d7b-fe8d-4834-98de-e8ed290dd4dd","system_id":"levelo_inurba_marseille","lat":43.317557,"lon":5.390173,"is_reserved":false,"is_disabled":false,"rental_uris":{"android":"levelo://app?vid=e0d63d7b-fe8d-4834-98de-e8ed290dd4dd","ios":"levelo://app?vid=e0d63d7b-fe8d-4834-98de-e8ed290dd4dd"},"vehicle_type_id":"4","last_reported":1692911163,"current_range_meters":11200,"station_id":"ce4bhqp2rcd13ifvqhng","pricing_plan_id":"free"},{"bike_id":"e191e4d1-9ef6-4356-b921-cf33b60eb1fb","system_id":"levelo_inurba_marseille","lat":43.317557,"lon":5.390173,"is_reserved":false,"is_disabled":false,"rental_uris":{"android":"levelo://app?vid=e191e4d1-9ef6-4356-b921-cf33b60eb1fb","ios":"levelo://app?vid=e191e4d1-9ef6-4356-b921-cf33b60eb1fb"},"vehicle_type_id":"4","last_reported":1692911163,"current_range_meters":21200,"station_id":"ce4bhqp2rcd13ifvqhng","pricing_plan_id":"free"},{"bike_id":"79d5cd8b-375e-48e8-8a0e-26414056e7a9","system_id":"levelo_inurba_marseille","lat":43.30432,"lon":5.38889,"is_reserved":false,"is_disabled":false,"rental_uris":{"android":"levelo://app?vid=79d5cd8b-375e-48e8-8a0e-26414056e7a9","ios":"levelo://app?vid=79d5cd8b-375e-48e8-8a0e-26414056e7a9"},"vehicle_type_id":"4","last_reported":1692911163,"current_range_meters":31200,"station_id":"ce4bgk12rcd13ifvqbi0","pricing_plan_id":"free"},{"bike_id":"096dc7e9-12bb-4060-ad7d-ed3922b7d744","system_id":"levelo_inurba_marseille","lat":43.304278,"lon":5.388868,"is_reserved":false,"is_disabled":false,"rental_uris":{"android":"levelo://app?vid=096dc7e9-12bb-4060-ad7d-ed3922b7d744","ios":"levelo://app?vid=096dc7e9-12bb-4060-ad7d-ed3922b7d744"},"vehicle_type_id":"4","last_reported":1692911163,"current_range_meters":8800,"station_id":"ce4bgk12rcd13ifvqbi0","pricing_plan_id":"free"},{"bike_id":"d695a409-d42b-4cad-bed8-27b90980ebe4","system_id":"levelo_inurba_marseille","lat":43.304274,"lon":5.388873,"is_reserved":false,"is_disabled":false,"rental_uris":{"android":"levelo://app?vid=d695a409-d42b-4cad-bed8-27b90980ebe4","ios":"levelo://app?vid=d695a409-d42b-4cad-bed8-27b90980ebe4"},"vehicle_type_id":"4","last_reported":1692911163,"current_range_meters":31200,"station_id":"ce4bgk12rcd13ifvqbi0","pricing_plan_id":"free"},{"bike_id":"f67ea2d6-10ef-4347-82a6-d8db3fa0ec9a","system_id":"levelo_inurba_marseille","lat":43.30438,"lon":5.38901,"is_reserved":false,"is_disabled":false,"rental_uris":{"android":"levelo://app?vid=f67ea2d6-10ef-4347-82a6-d8db3fa0ec9a","ios":"levelo://app?vid=f67ea2d6-10ef-4347-82a6-d8db3fa0ec9a"},"vehicle_type_id":"4","last_reported":1692911163,"current_range_meters":31600,"station_id":"ce4bgk12rcd13ifvqbi0","pricing_plan_id":"free"},{"bike_id":"52924a71-fe72-42ae-977a-d2e1b2ef8de2","system_id":"levelo_inurba_marseille","lat":43.296263,"lon":5.377094,"is_reserved":false,"is_disabled":false,"rental_uris":{"android":"levelo://app?vid=52924a71-fe72-42ae-977a-d2e1b2ef8de2","ios":"levelo://app?vid=52924a71-fe72-42ae-977a-d2e1b2ef8de2"},"vehicle_type_id":"4","last_reported":1692911163,"current_range_meters":27600,"station_id":"ce4bgi92rcd13ifvqb90","pricing_plan_id":"free"},{"bike_id":"88633cd0-092e-443a-a19c-7f566d24b133","system_id":"levelo_inurba_marseille","lat":43.3307,"lon":5.36283,"is_reserved":false,"is_disabled":false,"rental_uris":{"android":"levelo://app?vid=88633cd0-092e-443a-a19c-7f566d24b133","ios":"levelo://app?vid=88633cd0-092e-443a-a19c-7f566d24b133"},"vehicle_type_id":"4","last_reported":1692911163,"current_range_meters":7600,"station_id":"","pricing_plan_id":"free"},{"bike_id":"cc197ce9-78ee-4dde-98be-fd9dd821c0c6","system_id":"levelo_inurba_marseille","lat":43.296263,"lon":5.377094,"is_reserved":false,"is_disabled":false,"rental_uris":{"android":"levelo://app?vid=cc197ce9-78ee-4dde-98be-fd9dd821c0c6","ios":"levelo://app?vid=cc197ce9-78ee-4dde-98be-fd9dd821c0c6"},"vehicle_type_id":"4","last_reported":1692911163,"current_range_meters":0,"station_id":"ce4bgi92rcd13ifvqb90","pricing_plan_id":"free"},{"bike_id":"952a19e7-6602-41c3-942f-79cfb514366f","system_id":"levelo_inurba_marseille","lat":43.296277,"lon":5.377108,"is_reserved":false,"is_disabled":false,"rental_uris":{"android":"levelo://app?vid=952a19e7-6602-41c3-942f-79cfb514366f","ios":"levelo://app?vid=952a19e7-6602-41c3-942f-79cfb514366f"},"vehicle_type_id":"4","last_reported":1692911163,"current_range_meters":31200,"station_id":"ce4bgi92rcd13ifvqb90","pricing_plan_id":"free"},{"bike_id":"a21b52a1-6aa6-462b-8425-005218a4f64c","system_id":"levelo_inurba_marseille","lat":43.299707,"lon":5.384859,"is_reserved":false,"is_disabled":false,"rental_uris":{"android":"levelo://app?vid=a21b52a1-6aa6-462b-8425-005218a4f64c","ios":"levelo://app?vid=a21b52a1-6aa6-462b-8425-005218a4f64c"},"vehicle_type_id":"4","last_reported":1692911163,"current_range_meters":16000,"station_id":"ce4bgj92rcd13ifvqbd0","pricing_plan_id":"free"},{"bike_id":"d3fec633-9d5f-41aa-a397-8f863b19aa67","system_id":"levelo_inurba_marseille","lat":43.304274,"lon":5.388873,"is_reserved":false,"is_disabled":false,"rental_uris":{"android":"levelo://app?vid=d3fec633-9d5f-41aa-a397-8f863b19aa67","ios":"levelo://app?vid=d3fec633-9d5f-41aa-a397-8f863b19aa67"},"vehicle_type_id":"4","last_reported":1692911163,"current_range_meters":21600,"station_id":"ce4bgk12rcd13ifvqbi0","pricing_plan_id":"free"},{"bike_id":"924ea4fd-665b-4ee7-88f6-ad856ca6be24","system_id":"levelo_inurba_marseille","lat":43.29532,"lon":5.375,"is_reserved":false,"is_disabled":false,"rental_uris":{"android":"levelo://app?vid=924ea4fd-665b-4ee7-88f6-ad856ca6be24","ios":"levelo://app?vid=924ea4fd-665b-4ee7-88f6-ad856ca6be24"},"vehicle_type_id":"4","last_reported":1692911163,"current_range_meters":0,"station_id":"ce4bgkp2rcd13ifvqbmg","pricing_plan_id":"free"},{"bike_id":"e94aa107-bc3a-425b-8ddf-f8cbec3cda71","system_id":"levelo_inurba_marseille","lat":43.299707,"lon":5.384859,"is_reserved":false,"is_disabled":false,"rental_uris":{"android":"levelo://app?vid=e94aa107-bc3a-425b-8ddf-f8cbec3cda71","ios":"levelo://app?vid=e94aa107-bc3a-425b-8ddf-f8cbec3cda71"},"vehicle_type_id":"4","last_reported":1692911163,"current_range_meters":21200,"station_id":"ce4bgj92rcd13ifvqbd0","pricing_plan_id":"free"},{"bike_id":"41d02f8b-9da5-47db-9050-320c335a47c2","system_id":"levelo_inurba_marseille","lat":43.299707,"lon":5.384859,"is_reserved":false,"is_disabled":false,"rental_uris":{"android":"levelo://app?vid=41d02f8b-9da5-47db-9050-320c335a47c2","ios":"levelo://app?vid=41d02f8b-9da5-47db-9050-320c335a47c2"},"vehicle_type_id":"4","last_reported":1692911163,"current_range_meters":18000,"station_id":"ce4bgj92rcd13ifvqbd0","pricing_plan_id":"free"},{"bike_id":"6b4bfc21-6d51-4708-840c-19b33e5038b3","system_id":"levelo_inurba_marseille","lat":43.299707,"lon":5.384859,"is_reserved":false,"is_disabled":false,"rental_uris":{"android":"levelo://app?vid=6b4bfc21-6d51-4708-840c-19b33e5038b3","ios":"levelo://app?vid=6b4bfc21-6d51-4708-840c-19b33e5038b3"},"vehicle_type_id":"4","last_reported":1692911163,"current_range_meters":26800,"station_id":"ce4bgj92rcd13ifvqbd0","pricing_plan_id":"free"},{"bike_id":"b69ddff0-2c72-4101-a16f-8aef6410965c","system_id":"levelo_inurba_marseille","lat":43.299707,"lon":5.384859,"is_reserved":false,"is_disabled":false,"rental_uris":{"android":"levelo://app?vid=b69ddff0-2c72-4101-a16f-8aef6410965c","ios":"levelo://app?vid=b69ddff0-2c72-4101-a16f-8aef6410965c"},"vehicle_type_id":"4","last_reported":1692911163,"current_range_meters":30400,"station_id":"ce4bgj92rcd13ifvqbd0","pricing_plan_id":"free"},{"bike_id":"953f6e23-b65f-42d9-ba4b-f57d17e7b812","system_id":"levelo_inurba_marseille","lat":43.29973,"lon":5.385,"is_reserved":false,"is_disabled":false,"rental_uris":{"android":"levelo://app?vid=953f6e23-b65f-42d9-ba4b-f57d17e7b812","ios":"levelo://app?vid=953f6e23-b65f-42d9-ba4b-f57d17e7b812"},"vehicle_type_id":"4","last_reported":1692911163,"current_range_meters":31200,"station_id":"ce4bgj92rcd13ifvqbd0","pricing_plan_id":"free"},{"bike_id":"7aecbe03-ea36-4783-a295-0b92789670bd","system_id":"levelo_inurba_marseille","lat":43.299717,"lon":5.384845,"is_reserved":false,"is_disabled":false,"rental_uris":{"android":"levelo://app?vid=7aecbe03-ea36-4783-a295-0b92789670bd","ios":"levelo://app?vid=7aecbe03-ea36-4783-a295-0b92789670bd"},"vehicle_type_id":"4","last_reported":1692911163,"current_range_meters":800,"station_id":"ce4bgj92rcd13ifvqbd0","pricing_plan_id":"free"},{"bike_id":"329b52da-6179-4119-8885-76b50cbdc2a9","system_id":"levelo_inurba_marseille","lat":43.299717,"lon":5.384845,"is_reserved":false,"is_disabled":false,"rental_uris":{"android":"levelo://app?vid=329b52da-6179-4119-8885-76b50cbdc2a9","ios":"levelo://app?vid=329b52da-6179-4119-8885-76b50cbdc2a9"},"vehicle_type_id":"4","last_reported":1692911163,"current_range_meters":24400,"station_id":"ce4bgj92rcd13ifvqbd0","pricing_plan_id":"free"},{"bike_id":"42bc2901-ff51-407a-bf3d-b23a37163a4b","system_id":"levelo_inurba_marseille","lat":43.29968,"lon":5.38497,"is_reserved":false,"is_disabled":false,"rental_uris":{"android":"levelo://app?vid=42bc2901-ff51-407a-bf3d-b23a37163a4b","ios":"levelo://app?vid=42bc2901-ff51-407a-bf3d-b23a37163a4b"},"vehicle_type_id":"4","last_reported":1692911163,"current_range_meters":13600,"station_id":"ce4bgj92rcd13ifvqbd0","pricing_plan_id":"free"},{"bike_id":"154d5fc6-decb-4f25-8c57-55171dce7b08","system_id":"levelo_inurba_marseille","lat":43.2997,"lon":5.385,"is_reserved":false,"is_disabled":false,"rental_uris":{"android":"levelo://app?vid=154d5fc6-decb-4f25-8c57-55171dce7b08","ios":"levelo://app?vid=154d5fc6-decb-4f25-8c57-55171dce7b08"},"vehicle_type_id":"4","last_reported":1692911163,"current_range_meters":30800,"station_id":"ce4bgj92rcd13ifvqbd0","pricing_plan_id":"free"},{"bike_id":"36bdb55e-228a-4e74-a55a-4c06872ed447","system_id":"levelo_inurba_marseille","lat":43.29964,"lon":5.38503,"is_reserved":false,"is_disabled":false,"rental_uris":{"android":"levelo://app?vid=36bdb55e-228a-4e74-a55a-4c06872ed447","ios":"levelo://app?vid=36bdb55e-228a-4e74-a55a-4c06872ed447"},"vehicle_type_id":"4","last_reported":1692911163,"current_range_meters":13600,"station_id":"ce4bgj92rcd13ifvqbd0","pricing_plan_id":"free"},{"bike_id":"771ff10d-3b06-48e3-980c-92243221f2ee","system_id":"levelo_inurba_marseille","lat":43.299724,"lon":5.384848,"is_reserved":false,"is_disabled":false,"rental_uris":{"android":"levelo://app?vid=771ff10d-3b06-48e3-980c-92243221f2ee","ios":"levelo://app?vid=771ff10d-3b06-48e3-980c-92243221f2ee"},"vehicle_type_id":"4","last_reported":1692911163,"current_range_meters":18000,"station_id":"ce4bgj92rcd13ifvqbd0","pricing_plan_id":"free"},{"bike_id":"2ebab041-34c6-441f-bc09-68b4a40ab8e5","system_id":"levelo_inurba_marseille","lat":43.32364,"lon":5.38871,"is_reserved":false,"is_disabled":false,"rental_uris":{"android":"levelo://app?vid=2ebab041-34c6-441f-bc09-68b4a40ab8e5","ios":"levelo://app?vid=2ebab041-34c6-441f-bc09-68b4a40ab8e5"},"vehicle_type_id":"4","last_reported":1692911163,"current_range_meters":15200,"station_id":"ce4bhqp2rcd13ifvqhog","pricing_plan_id":"free"},{"bike_id":"828dede6-92f9-4c93-ad20-df1fdc8a0c35","system_id":"levelo_inurba_marseille","lat":43.32362,"lon":5.38879,"is_reserved":false,"is_disabled":false,"rental_uris":{"android":"levelo://app?vid=828dede6-92f9-4c93-ad20-df1fdc8a0c35","ios":"levelo://app?vid=828dede6-92f9-4c93-ad20-df1fdc8a0c35"},"vehicle_type_id":"4","last_reported":1692911163,"current_range_meters":11600,"station_id":"ce4bhqp2rcd13ifvqhog","pricing_plan_id":"free"},{"bike_id":"4cc6afcb-8ab3-420f-b8e1-a4bccdd2c827","system_id":"levelo_inurba_marseille","lat":43.32366,"lon":5.38877,"is_reserved":false,"is_disabled":false,"rental_uris":{"android":"levelo://app?vid=4cc6afcb-8ab3-420f-b8e1-a4bccdd2c827","ios":"levelo://app?vid=4cc6afcb-8ab3-420f-b8e1-a4bccdd2c827"},"vehicle_type_id":"4","last_reported":1692911163,"current_range_meters":31200,"station_id":"ce4bhqp2rcd13ifvqhog","pricing_plan_id":"free"},{"bike_id":"8217f98a-ef1d-4c90-bbae-5e7525ace6f5","system_id":"levelo_inurba_marseille","lat":43.32363,"lon":5.38885,"is_reserved":false,"is_disabled":false,"rental_uris":{"android":"levelo://app?vid=8217f98a-ef1d-4c90-bbae-5e7525ace6f5","ios":"levelo://app?vid=8217f98a-ef1d-4c90-bbae-5e7525ace6f5"},"vehicle_type_id":"4","last_reported":1692911163,"current_range_meters":22800,"station_id":"ce4bhqp2rcd13ifvqhog","pricing_plan_id":"free"},{"bike_id":"82d2479d-5d21-4f80-980f-b5f8eda092af","system_id":"levelo_inurba_marseille","lat":43.32367,"lon":5.38883,"is_reserved":false,"is_disabled":false,"rental_uris":{"android":"levelo://app?vid=82d2479d-5d21-4f80-980f-b5f8eda092af","ios":"levelo://app?vid=82d2479d-5d21-4f80-980f-b5f8eda092af"},"vehicle_type_id":"4","last_reported":1692911163,"current_range_meters":16400,"station_id":"ce4bhqp2rcd13ifvqhog","pricing_plan_id":"free"},{"bike_id":"ca2f0900-1f67-4d11-a14f-c33da1dd1356","system_id":"levelo_inurba_marseille","lat":43.32367,"lon":5.38885,"is_reserved":false,"is_disabled":false,"rental_uris":{"android":"levelo://app?vid=ca2f0900-1f67-4d11-a14f-c33da1dd1356","ios":"levelo://app?vid=ca2f0900-1f67-4d11-a14f-c33da1dd1356"},"vehicle_type_id":"4","last_reported":1692911163,"current_range_meters":14800,"station_id":"ce4bhqp2rcd13ifvqhog","pricing_plan_id":"free"},{"bike_id":"00883cd9-a56a-4720-bb55-237d0136a4a1","system_id":"levelo_inurba_marseille","lat":43.32371,"lon":5.38882,"is_reserved":false,"is_disabled":false,"rental_uris":{"android":"levelo://app?vid=00883cd9-a56a-4720-bb55-237d0136a4a1","ios":"levelo://app?vid=00883cd9-a56a-4720-bb55-237d0136a4a1"},"vehicle_type_id":"4","last_reported":1692911163,"current_range_meters":24000,"station_id":"ce4bhqp2rcd13ifvqhog","pricing_plan_id":"free"},{"bike_id":"63915c16-3e16-4cc3-a300-7db99f331269","system_id":"levelo_inurba_marseille","lat":43.32367,"lon":5.388836,"is_reserved":false,"is_disabled":false,"rental_uris":{"android":"levelo://app?vid=63915c16-3e16-4cc3-a300-7db99f331269","ios":"levelo://app?vid=63915c16-3e16-4cc3-a300-7db99f331269"},"vehicle_type_id":"4","last_reported":1692911163,"current_range_meters":3600,"station_id":"ce4bhqp2rcd13ifvqhog","pricing_plan_id":"free"},{"bike_id":"6cca3c80-ef6f-41b1-b9a9-d7cf83238ee5","system_id":"levelo_inurba_marseille","lat":43.32367,"lon":5.388836,"is_reserved":false,"is_disabled":false,"rental_uris":{"android":"levelo://app?vid=6cca3c80-ef6f-41b1-b9a9-d7cf83238ee5","ios":"levelo://app?vid=6cca3c80-ef6f-41b1-b9a9-d7cf83238ee5"},"vehicle_type_id":"4","last_reported":1692911163,"current_range_meters":16400,"station_id":"ce4bhqp2rcd13ifvqhog","pricing_plan_id":"free"},{"bike_id":"68d65427-02cb-4c37-9281-5618b1ad2d44","system_id":"levelo_inurba_marseille","lat":43.29596,"lon":5.38095,"is_reserved":false,"is_disabled":false,"rental_uris":{"android":"levelo://app?vid=68d65427-02cb-4c37-9281-5618b1ad2d44","ios":"levelo://app?vid=68d65427-02cb-4c37-9281-5618b1ad2d44"},"vehicle_type_id":"4","last_reported":1692911163,"current_range_meters":6400,"station_id":"ce4bgl12rcd13ifvqbo0","pricing_plan_id":"free"},{"bike_id":"e0619dc7-8b8d-4dff-9b96-88d0ab6c39cc","system_id":"levelo_inurba_marseille","lat":43.29601,"lon":5.381084,"is_reserved":false,"is_disabled":false,"rental_uris":{"android":"levelo://app?vid=e0619dc7-8b8d-4dff-9b96-88d0ab6c39cc","ios":"levelo://app?vid=e0619dc7-8b8d-4dff-9b96-88d0ab6c39cc"},"vehicle_type_id":"4","last_reported":1692911163,"current_range_meters":20400,"station_id":"ce4bgl12rcd13ifvqbo0","pricing_plan_id":"free"},{"bike_id":"3a3d78d9-941d-4770-9848-2734c3b60c0f","system_id":"levelo_inurba_marseille","lat":43.29601,"lon":5.381084,"is_reserved":false,"is_disabled":false,"rental_uris":{"android":"levelo://app?vid=3a3d78d9-941d-4770-9848-2734c3b60c0f","ios":"levelo://app?vid=3a3d78d9-941d-4770-9848-2734c3b60c0f"},"vehicle_type_id":"4","last_reported":1692911163,"current_range_meters":20400,"station_id":"ce4bgl12rcd13ifvqbo0","pricing_plan_id":"free"},{"bike_id":"b859f125-f2c2-45f4-bb1a-fc75fe9b083d","system_id":"levelo_inurba_marseille","lat":43.293,"lon":5.37174,"is_reserved":false,"is_disabled":false,"rental_uris":{"android":"levelo://app?vid=b859f125-f2c2-45f4-bb1a-fc75fe9b083d","ios":"levelo://app?vid=b859f125-f2c2-45f4-bb1a-fc75fe9b083d"},"vehicle_type_id":"4","last_reported":1692911163,"current_range_meters":21200,"station_id":"ce4bgh92rcd13ifvqb40","pricing_plan_id":"free"},{"bike_id":"d60730ea-7bfd-49bc-bc2b-ae2ed05c6765","system_id":"levelo_inurba_marseille","lat":43.30594,"lon":5.39354,"is_reserved":false,"is_disabled":false,"rental_uris":{"android":"levelo://app?vid=d60730ea-7bfd-49bc-bc2b-ae2ed05c6765","ios":"levelo://app?vid=d60730ea-7bfd-49bc-bc2b-ae2ed05c6765"},"vehicle_type_id":"4","last_reported":1692911163,"current_range_meters":31200,"station_id":"ce4bh0p2rcd13ifvqd80","pricing_plan_id":"free"},{"bike_id":"6533c646-1091-4458-9ef2-bc9d36dce22d","system_id":"levelo_inurba_marseille","lat":43.293009,"lon":5.374584,"is_reserved":false,"is_disabled":false,"rental_uris":{"android":"levelo://app?vid=6533c646-1091-4458-9ef2-bc9d36dce22d","ios":"levelo://app?vid=6533c646-1091-4458-9ef2-bc9d36dce22d"},"vehicle_type_id":"4","last_reported":1692911163,"current_range_meters":30400,"station_id":"ce4bgi12rcd13ifvqb70","pricing_plan_id":"free"},{"bike_id":"38fef587-7cc5-4800-b069-87b8f296a10a","system_id":"levelo_inurba_marseille","lat":43.293009,"lon":5.374584,"is_reserved":false,"is_disabled":false,"rental_uris":{"android":"levelo://app?vid=38fef587-7cc5-4800-b069-87b8f296a10a","ios":"levelo://app?vid=38fef587-7cc5-4800-b069-87b8f296a10a"},"vehicle_type_id":"4","last_reported":1692911163,"current_range_meters":31200,"station_id":"ce4bgi12rcd13ifvqb70","pricing_plan_id":"free"},{"bike_id":"1bb40d7c-d6f7-4965-8aa4-c57f8066b18b","system_id":"levelo_inurba_marseille","lat":43.305994,"lon":5.393687,"is_reserved":false,"is_disabled":false,"rental_uris":{"android":"levelo://app?vid=1bb40d7c-d6f7-4965-8aa4-c57f8066b18b","ios":"levelo://app?vid=1bb40d7c-d6f7-4965-8aa4-c57f8066b18b"},"vehicle_type_id":"4","last_reported":1692911163,"current_range_meters":9600,"station_id":"ce4bh0p2rcd13ifvqd80","pricing_plan_id":"free"},{"bike_id":"e6b9957e-a551-4003-81a4-b4e3c73ad2d2","system_id":"levelo_inurba_marseille","lat":43.305994,"lon":5.393687,"is_reserved":false,"is_disabled":false,"rental_uris":{"android":"levelo://app?vid=e6b9957e-a551-4003-81a4-b4e3c73ad2d2","ios":"levelo://app?vid=e6b9957e-a551-4003-81a4-b4e3c73ad2d2"},"vehicle_type_id":"4","last_reported":1692911163,"current_range_meters":10800,"station_id":"ce4bh0p2rcd13ifvqd80","pricing_plan_id":"free"},{"bike_id":"703e6b9e-c0af-4ca0-b878-6e737cb08bbc","system_id":"levelo_inurba_marseille","lat":43.305994,"lon":5.393687,"is_reserved":false,"is_disabled":false,"rental_uris":{"android":"levelo://app?vid=703e6b9e-c0af-4ca0-b878-6e737cb08bbc","ios":"levelo://app?vid=703e6b9e-c0af-4ca0-b878-6e737cb08bbc"},"vehicle_type_id":"4","last_reported":1692911163,"current_range_meters":27200,"station_id":"ce4bh0p2rcd13ifvqd80","pricing_plan_id":"free"},{"bike_id":"b33ec486-ad58-404b-b8a9-aa1ee58dc0ea","system_id":"levelo_inurba_marseille","lat":43.30591,"lon":5.39364,"is_reserved":false,"is_disabled":false,"rental_uris":{"android":"levelo://app?vid=b33ec486-ad58-404b-b8a9-aa1ee58dc0ea","ios":"levelo://app?vid=b33ec486-ad58-404b-b8a9-aa1ee58dc0ea"},"vehicle_type_id":"4","last_reported":1692911163,"current_range_meters":0,"station_id":"ce4bh0p2rcd13ifvqd80","pricing_plan_id":"free"},{"bike_id":"35cc08a5-b06c-427a-9fa8-7e2c162b0dc4","system_id":"levelo_inurba_marseille","lat":43.305994,"lon":5.393687,"is_reserved":false,"is_disabled":false,"rental_uris":{"android":"levelo://app?vid=35cc08a5-b06c-427a-9fa8-7e2c162b0dc4","ios":"levelo://app?vid=35cc08a5-b06c-427a-9fa8-7e2c162b0dc4"},"vehicle_type_id":"4","last_reported":1692911163,"current_range_meters":400,"station_id":"ce4bh0p2rcd13ifvqd80","pricing_plan_id":"free"},{"bike_id":"5311237b-af1d-49af-9d73-b154b06d72aa","system_id":"levelo_inurba_marseille","lat":43.305994,"lon":5.393687,"is_reserved":false,"is_disabled":false,"rental_uris":{"android":"levelo://app?vid=5311237b-af1d-49af-9d73-b154b06d72aa","ios":"levelo://app?vid=5311237b-af1d-49af-9d73-b154b06d72aa"},"vehicle_type_id":"4","last_reported":1692911163,"current_range_meters":17200,"station_id":"ce4bh0p2rcd13ifvqd80","pricing_plan_id":"free"},{"bike_id":"72d6c82f-5dee-42c1-be13-34fc21b90140","system_id":"levelo_inurba_marseille","lat":43.305994,"lon":5.393687,"is_reserved":false,"is_disabled":false,"rental_uris":{"android":"levelo://app?vid=72d6c82f-5dee-42c1-be13-34fc21b90140","ios":"levelo://app?vid=72d6c82f-5dee-42c1-be13-34fc21b90140"},"vehicle_type_id":"4","last_reported":1692911163,"current_range_meters":4800,"station_id":"ce4bh0p2rcd13ifvqd80","pricing_plan_id":"free"},{"bike_id":"2ff7dd56-4543-4c88-a935-9d0c66dec220","system_id":"levelo_inurba_marseille","lat":43.305994,"lon":5.393687,"is_reserved":false,"is_disabled":false,"rental_uris":{"android":"levelo://app?vid=2ff7dd56-4543-4c88-a935-9d0c66dec220","ios":"levelo://app?vid=2ff7dd56-4543-4c88-a935-9d0c66dec220"},"vehicle_type_id":"4","last_reported":1692911163,"current_range_meters":22800,"station_id":"ce4bh0p2rcd13ifvqd80","pricing_plan_id":"free"},{"bike_id":"94bf99ae-88b9-4fbf-aee1-34f727056e8b","system_id":"levelo_inurba_marseille","lat":43.305994,"lon":5.393687,"is_reserved":false,"is_disabled":false,"rental_uris":{"android":"levelo://app?vid=94bf99ae-88b9-4fbf-aee1-34f727056e8b","ios":"levelo://app?vid=94bf99ae-88b9-4fbf-aee1-34f727056e8b"},"vehicle_type_id":"4","last_reported":1692911163,"current_range_meters":11600,"station_id":"ce4bh0p2rcd13ifvqd80","pricing_plan_id":"free"},{"bike_id":"67590570-2b24-4e4b-aecc-94f51a28de76","system_id":"levelo_inurba_marseille","lat":43.30309,"lon":5.39206,"is_reserved":false,"is_disabled":false,"rental_uris":{"android":"levelo://app?vid=67590570-2b24-4e4b-aecc-94f51a28de76","ios":"levelo://app?vid=67590570-2b24-4e4b-aecc-94f51a28de76"},"vehicle_type_id":"4","last_reported":1692911163,"current_range_meters":31200,"station_id":"ce4bgkh2rcd13ifvqbk0","pricing_plan_id":"free"},{"bike_id":"8ecc40ea-293c-4105-8f06-55ac4940766a","system_id":"levelo_inurba_marseille","lat":43.30312,"lon":5.39214,"is_reserved":false,"is_disabled":false,"rental_uris":{"android":"levelo://app?vid=8ecc40ea-293c-4105-8f06-55ac4940766a","ios":"levelo://app?vid=8ecc40ea-293c-4105-8f06-55ac4940766a"},"vehicle_type_id":"4","last_reported":1692911163,"current_range_meters":31200,"station_id":"ce4bgkh2rcd13ifvqbk0","pricing_plan_id":"free"},{"bike_id":"b65083bd-b9d3-4f4b-b231-7dcc8af7b648","system_id":"levelo_inurba_marseille","lat":43.302992,"lon":5.392136,"is_reserved":false,"is_disabled":false,"rental_uris":{"android":"levelo://app?vid=b65083bd-b9d3-4f4b-b231-7dcc8af7b648","ios":"levelo://app?vid=b65083bd-b9d3-4f4b-b231-7dcc8af7b648"},"vehicle_type_id":"4","last_reported":1692911163,"current_range_meters":11600,"station_id":"ce4bgkh2rcd13ifvqbk0","pricing_plan_id":"free"},{"bike_id":"33b83aeb-5bac-4f25-abf4-15e917bffccc","system_id":"levelo_inurba_marseille","lat":43.30305,"lon":5.39214,"is_reserved":false,"is_disabled":false,"rental_uris":{"android":"levelo://app?vid=33b83aeb-5bac-4f25-abf4-15e917bffccc","ios":"levelo://app?vid=33b83aeb-5bac-4f25-abf4-15e917bffccc"},"vehicle_type_id":"4","last_reported":1692911163,"current_range_meters":0,"station_id":"ce4bgkh2rcd13ifvqbk0","pricing_plan_id":"free"},{"bike_id":"59d4a7cc-c4d8-47e1-a63f-2e26b5d209c3","system_id":"levelo_inurba_marseille","lat":43.2936,"lon":5.37835,"is_reserved":false,"is_disabled":false,"rental_uris":{"android":"levelo://app?vid=59d4a7cc-c4d8-47e1-a63f-2e26b5d209c3","ios":"levelo://app?vid=59d4a7cc-c4d8-47e1-a63f-2e26b5d209c3"},"vehicle_type_id":"4","last_reported":1692911163,"current_range_meters":29600,"station_id":"ce4bgjh2rcd13ifvqbf0","pricing_plan_id":"free"},{"bike_id":"0724f352-a262-45b7-9b71-9a09ff17d945","system_id":"levelo_inurba_marseille","lat":43.302992,"lon":5.392136,"is_reserved":false,"is_disabled":false,"rental_uris":{"android":"levelo://app?vid=0724f352-a262-45b7-9b71-9a09ff17d945","ios":"levelo://app?vid=0724f352-a262-45b7-9b71-9a09ff17d945"},"vehicle_type_id":"4","last_reported":1692911163,"current_range_meters":20800,"station_id":"ce4bgkh2rcd13ifvqbk0","pricing_plan_id":"free"},{"bike_id":"32dccbc8-f8e5-4139-acdf-b4b1b99bdddb","system_id":"levelo_inurba_marseille","lat":43.30296,"lon":5.39214,"is_reserved":false,"is_disabled":false,"rental_uris":{"android":"levelo://app?vid=32dccbc8-f8e5-4139-acdf-b4b1b99bdddb","ios":"levelo://app?vid=32dccbc8-f8e5-4139-acdf-b4b1b99bdddb"},"vehicle_type_id":"4","last_reported":1692911163,"current_range_meters":31200,"station_id":"ce4bgkh2rcd13ifvqbk0","pricing_plan_id":"free"},{"bike_id":"7ca0b325-ea42-4125-b8eb-ed1cbb375e55","system_id":"levelo_inurba_marseille","lat":43.30085,"lon":5.390856,"is_reserved":false,"is_disabled":false,"rental_uris":{"android":"levelo://app?vid=7ca0b325-ea42-4125-b8eb-ed1cbb375e55","ios":"levelo://app?vid=7ca0b325-ea42-4125-b8eb-ed1cbb375e55"},"vehicle_type_id":"4","last_reported":1692911163,"current_range_meters":14000,"station_id":"ce4bh192rcd13ifvqdb0","pricing_plan_id":"free"},{"bike_id":"a790e40d-0ef7-4fc9-aa54-a87aa91df33e","system_id":"levelo_inurba_marseille","lat":43.298764,"lon":5.388973,"is_reserved":false,"is_disabled":false,"rental_uris":{"android":"levelo://app?vid=a790e40d-0ef7-4fc9-aa54-a87aa91df33e","ios":"levelo://app?vid=a790e40d-0ef7-4fc9-aa54-a87aa91df33e"},"vehicle_type_id":"4","last_reported":1692911163,"current_range_meters":16400,"station_id":"ce4bh392rcd13ifvqdl0","pricing_plan_id":"free"},{"bike_id":"b9236b09-03cd-4895-b5c5-ee6a74d42a3e","system_id":"levelo_inurba_marseille","lat":43.313291,"lon":5.396838,"is_reserved":false,"is_disabled":false,"rental_uris":{"android":"levelo://app?vid=b9236b09-03cd-4895-b5c5-ee6a74d42a3e","ios":"levelo://app?vid=b9236b09-03cd-4895-b5c5-ee6a74d42a3e"},"vehicle_type_id":"4","last_reported":1692911163,"current_range_meters":16000,"station_id":"ce4bgvp2rcd13ifvqcu0","pricing_plan_id":"free"},{"bike_id":"e1895a60-e12d-4dbb-9a22-c2dfa0be223e","system_id":"levelo_inurba_marseille","lat":43.313291,"lon":5.396838,"is_reserved":false,"is_disabled":false,"rental_uris":{"android":"levelo://app?vid=e1895a60-e12d-4dbb-9a22-c2dfa0be223e","ios":"levelo://app?vid=e1895a60-e12d-4dbb-9a22-c2dfa0be223e"},"vehicle_type_id":"4","last_reported":1692911163,"current_range_meters":31200,"station_id":"ce4bgvp2rcd13ifvqcu0","pricing_plan_id":"free"},{"bike_id":"5511b33d-9397-464d-af36-08ca8565002c","system_id":"levelo_inurba_marseille","lat":43.31311,"lon":5.39692,"is_reserved":false,"is_disabled":false,"rental_uris":{"android":"levelo://app?vid=5511b33d-9397-464d-af36-08ca8565002c","ios":"levelo://app?vid=5511b33d-9397-464d-af36-08ca8565002c"},"vehicle_type_id":"4","last_reported":1692911163,"current_range_meters":30800,"station_id":"ce4bgvp2rcd13ifvqcu0","pricing_plan_id":"free"},{"bike_id":"e7b4d14f-8ad1-4f96-83be-a4422c722e6d","system_id":"levelo_inurba_marseille","lat":43.31329,"lon":5.39692,"is_reserved":false,"is_disabled":false,"rental_uris":{"android":"levelo://app?vid=e7b4d14f-8ad1-4f96-83be-a4422c722e6d","ios":"levelo://app?vid=e7b4d14f-8ad1-4f96-83be-a4422c722e6d"},"vehicle_type_id":"4","last_reported":1692911163,"current_range_meters":31200,"station_id":"ce4bgvp2rcd13ifvqcu0","pricing_plan_id":"free"},{"bike_id":"127741e7-71da-4469-9c7d-a7776f901127","system_id":"levelo_inurba_marseille","lat":43.31326,"lon":5.39694,"is_reserved":false,"is_disabled":false,"rental_uris":{"android":"levelo://app?vid=127741e7-71da-4469-9c7d-a7776f901127","ios":"levelo://app?vid=127741e7-71da-4469-9c7d-a7776f901127"},"vehicle_type_id":"4","last_reported":1692911163,"current_range_meters":14800,"station_id":"ce4bgvp2rcd13ifvqcu0","pricing_plan_id":"free"},{"bike_id":"a1f95357-19e9-4379-904b-62f1af33a51a","system_id":"levelo_inurba_marseille","lat":43.31328,"lon":5.39694,"is_reserved":false,"is_disabled":false,"rental_uris":{"android":"levelo://app?vid=a1f95357-19e9-4379-904b-62f1af33a51a","ios":"levelo://app?vid=a1f95357-19e9-4379-904b-62f1af33a51a"},"vehicle_type_id":"4","last_reported":1692911163,"current_range_meters":24400,"station_id":"ce4bgvp2rcd13ifvqcu0","pricing_plan_id":"free"},{"bike_id":"5bb09a49-f3b0-4fe1-903c-6bd1c39240a7","system_id":"levelo_inurba_marseille","lat":43.30881,"lon":5.39646,"is_reserved":false,"is_disabled":false,"rental_uris":{"android":"levelo://app?vid=5bb09a49-f3b0-4fe1-903c-6bd1c39240a7","ios":"levelo://app?vid=5bb09a49-f3b0-4fe1-903c-6bd1c39240a7"},"vehicle_type_id":"4","last_reported":1692911163,"current_range_meters":15600,"station_id":"ce4bh012rcd13ifvqcv0","pricing_plan_id":"free"},{"bike_id":"c601a9dc-fc8b-4e4f-94fd-8f66027cc539","system_id":"levelo_inurba_marseille","lat":43.313291,"lon":5.396838,"is_reserved":false,"is_disabled":false,"rental_uris":{"android":"levelo://app?vid=c601a9dc-fc8b-4e4f-94fd-8f66027cc539","ios":"levelo://app?vid=c601a9dc-fc8b-4e4f-94fd-8f66027cc539"},"vehicle_type_id":"4","last_reported":1692911163,"current_range_meters":31200,"station_id":"ce4bgvp2rcd13ifvqcu0","pricing_plan_id":"free"},{"bike_id":"4519a317-53fe-4994-a5e7-5c71eebde500","system_id":"levelo_inurba_marseille","lat":43.30884,"lon":5.39649,"is_reserved":false,"is_disabled":false,"rental_uris":{"android":"levelo://app?vid=4519a317-53fe-4994-a5e7-5c71eebde500","ios":"levelo://app?vid=4519a317-53fe-4994-a5e7-5c71eebde500"},"vehicle_type_id":"4","last_reported":1692911163,"current_range_meters":2800,"station_id":"ce4bh012rcd13ifvqcv0","pricing_plan_id":"free"},{"bike_id":"124dace0-0672-4247-be47-fb2578d26068","system_id":"levelo_inurba_marseille","lat":43.309038,"lon":5.396546,"is_reserved":false,"is_disabled":false,"rental_uris":{"android":"levelo://app?vid=124dace0-0672-4247-be47-fb2578d26068","ios":"levelo://app?vid=124dace0-0672-4247-be47-fb2578d26068"},"vehicle_type_id":"4","last_reported":1692911163,"current_range_meters":20400,"station_id":"ce4bh012rcd13ifvqcv0","pricing_plan_id":"free"},{"bike_id":"adcd8b3b-7e5e-43e0-b7c9-749ea2e82472","system_id":"levelo_inurba_marseille","lat":43.31326,"lon":5.39699,"is_reserved":false,"is_disabled":false,"rental_uris":{"android":"levelo://app?vid=adcd8b3b-7e5e-43e0-b7c9-749ea2e82472","ios":"levelo://app?vid=adcd8b3b-7e5e-43e0-b7c9-749ea2e82472"},"vehicle_type_id":"4","last_reported":1692911163,"current_range_meters":16000,"station_id":"ce4bgvp2rcd13ifvqcu0","pricing_plan_id":"free"},{"bike_id":"3f470567-842b-4339-8382-a1e35bace53f","system_id":"levelo_inurba_marseille","lat":43.309038,"lon":5.396546,"is_reserved":false,"is_disabled":false,"rental_uris":{"android":"levelo://app?vid=3f470567-842b-4339-8382-a1e35bace53f","ios":"levelo://app?vid=3f470567-842b-4339-8382-a1e35bace53f"},"vehicle_type_id":"4","last_reported":1692911163,"current_range_meters":31200,"station_id":"ce4bh012rcd13ifvqcv0","pricing_plan_id":"free"},{"bike_id":"cdeab0b7-fe3c-4893-b8a1-d7316a302928","system_id":"levelo_inurba_marseille","lat":43.30881,"lon":5.39654,"is_reserved":false,"is_disabled":false,"rental_uris":{"android":"levelo://app?vid=cdeab0b7-fe3c-4893-b8a1-d7316a302928","ios":"levelo://app?vid=cdeab0b7-fe3c-4893-b8a1-d7316a302928"},"vehicle_type_id":"4","last_reported":1692911163,"current_range_meters":10400,"station_id":"ce4bh012rcd13ifvqcv0","pricing_plan_id":"free"},{"bike_id":"542e6c7c-2e9d-43ef-9467-672f33b46882","system_id":"levelo_inurba_marseille","lat":43.309038,"lon":5.396546,"is_reserved":false,"is_disabled":false,"rental_uris":{"android":"levelo://app?vid=542e6c7c-2e9d-43ef-9467-672f33b46882","ios":"levelo://app?vid=542e6c7c-2e9d-43ef-9467-672f33b46882"},"vehicle_type_id":"4","last_reported":1692911163,"current_range_meters":31200,"station_id":"ce4bh012rcd13ifvqcv0","pricing_plan_id":"free"},{"bike_id":"9bb2c07b-2d39-4c40-a547-b40e572c7838","system_id":"levelo_inurba_marseille","lat":43.29177,"lon":5.35821,"is_reserved":false,"is_disabled":false,"rental_uris":{"android":"levelo://app?vid=9bb2c07b-2d39-4c40-a547-b40e572c7838","ios":"levelo://app?vid=9bb2c07b-2d39-4c40-a547-b40e572c7838"},"vehicle_type_id":"4","last_reported":1692911163,"current_range_meters":26400,"station_id":"","pricing_plan_id":"free"},{"bike_id":"9d8f1238-6e9e-4dee-9d26-1f1174e02145","system_id":"levelo_inurba_marseille","lat":43.309038,"lon":5.396546,"is_reserved":false,"is_disabled":false,"rental_uris":{"android":"levelo://app?vid=9d8f1238-6e9e-4dee-9d26-1f1174e02145","ios":"levelo://app?vid=9d8f1238-6e9e-4dee-9d26-1f1174e02145"},"vehicle_type_id":"4","last_reported":1692911163,"current_range_meters":0,"station_id":"ce4bh012rcd13ifvqcv0","pricing_plan_id":"free"},{"bike_id":"b3966679-4b05-4ac4-9a93-0ebc72a9ecc9","system_id":"levelo_inurba_marseille","lat":43.30889,"lon":5.39659,"is_reserved":false,"is_disabled":false,"rental_uris":{"android":"levelo://app?vid=b3966679-4b05-4ac4-9a93-0ebc72a9ecc9","ios":"levelo://app?vid=b3966679-4b05-4ac4-9a93-0ebc72a9ecc9"},"vehicle_type_id":"4","last_reported":1692911163,"current_range_meters":30800,"station_id":"ce4bh012rcd13ifvqcv0","pricing_plan_id":"free"},{"bike_id":"668c962f-fe17-4fcb-910c-bccc4a863168","system_id":"levelo_inurba_marseille","lat":43.309038,"lon":5.396546,"is_reserved":false,"is_disabled":false,"rental_uris":{"android":"levelo://app?vid=668c962f-fe17-4fcb-910c-bccc4a863168","ios":"levelo://app?vid=668c962f-fe17-4fcb-910c-bccc4a863168"},"vehicle_type_id":"4","last_reported":1692911163,"current_range_meters":23200,"station_id":"ce4bh012rcd13ifvqcv0","pricing_plan_id":"free"},{"bike_id":"ad3b29ad-2657-4e6f-8d3e-6abdb51c3b96","system_id":"levelo_inurba_marseille","lat":43.309038,"lon":5.396546,"is_reserved":false,"is_disabled":false,"rental_uris":{"android":"levelo://app?vid=ad3b29ad-2657-4e6f-8d3e-6abdb51c3b96","ios":"levelo://app?vid=ad3b29ad-2657-4e6f-8d3e-6abdb51c3b96"},"vehicle_type_id":"4","last_reported":1692911163,"current_range_meters":14000,"station_id":"ce4bh012rcd13ifvqcv0","pricing_plan_id":"free"},{"bike_id":"e75bf142-6250-4bbf-a08f-7345a157aa06","system_id":"levelo_inurba_marseille","lat":43.30887,"lon":5.39668,"is_reserved":false,"is_disabled":false,"rental_uris":{"android":"levelo://app?vid=e75bf142-6250-4bbf-a08f-7345a157aa06","ios":"levelo://app?vid=e75bf142-6250-4bbf-a08f-7345a157aa06"},"vehicle_type_id":"4","last_reported":1692911163,"current_range_meters":25600,"station_id":"ce4bh012rcd13ifvqcv0","pricing_plan_id":"free"},{"bike_id":"df09d9eb-c5ca-4cb3-9db1-c9afb33e96db","system_id":"levelo_inurba_marseille","lat":43.29529,"lon":5.385581,"is_reserved":false,"is_disabled":false,"rental_uris":{"android":"levelo://app?vid=df09d9eb-c5ca-4cb3-9db1-c9afb33e96db","ios":"levelo://app?vid=df09d9eb-c5ca-4cb3-9db1-c9afb33e96db"},"vehicle_type_id":"4","last_reported":1692911163,"current_range_meters":4800,"station_id":"ce4bgih2rcd13ifvqba0","pricing_plan_id":"free"},{"bike_id":"beddc439-aba3-428a-93e3-a38da3f8a5e0","system_id":"levelo_inurba_marseille","lat":43.29529,"lon":5.385581,"is_reserved":false,"is_disabled":false,"rental_uris":{"android":"levelo://app?vid=beddc439-aba3-428a-93e3-a38da3f8a5e0","ios":"levelo://app?vid=beddc439-aba3-428a-93e3-a38da3f8a5e0"},"vehicle_type_id":"4","last_reported":1692911163,"current_range_meters":14800,"station_id":"ce4bgih2rcd13ifvqba0","pricing_plan_id":"free"},{"bike_id":"3ada8292-ab00-4700-9e56-23f541103bf4","system_id":"levelo_inurba_marseille","lat":43.302008,"lon":5.394694,"is_reserved":false,"is_disabled":false,"rental_uris":{"android":"levelo://app?vid=3ada8292-ab00-4700-9e56-23f541103bf4","ios":"levelo://app?vid=3ada8292-ab00-4700-9e56-23f541103bf4"},"vehicle_type_id":"4","last_reported":1692911163,"current_range_meters":5200,"station_id":"ce4bh0p2rcd13ifvqd70","pricing_plan_id":"free"},{"bike_id":"39b5b5cf-86ef-48ea-a176-58e554756417","system_id":"levelo_inurba_marseille","lat":43.302008,"lon":5.394694,"is_reserved":false,"is_disabled":false,"rental_uris":{"android":"levelo://app?vid=39b5b5cf-86ef-48ea-a176-58e554756417","ios":"levelo://app?vid=39b5b5cf-86ef-48ea-a176-58e554756417"},"vehicle_type_id":"4","last_reported":1692911163,"current_range_meters":31200,"station_id":"ce4bh0p2rcd13ifvqd70","pricing_plan_id":"free"},{"bike_id":"15e464e4-d5e6-445d-acb4-8d58dcfd0e5d","system_id":"levelo_inurba_marseille","lat":43.302008,"lon":5.394694,"is_reserved":false,"is_disabled":false,"rental_uris":{"android":"levelo://app?vid=15e464e4-d5e6-445d-acb4-8d58dcfd0e5d","ios":"levelo://app?vid=15e464e4-d5e6-445d-acb4-8d58dcfd0e5d"},"vehicle_type_id":"4","last_reported":1692911163,"current_range_meters":24800,"station_id":"ce4bh0p2rcd13ifvqd70","pricing_plan_id":"free"},{"bike_id":"abd9713e-de62-4f56-9e38-a056053ff506","system_id":"levelo_inurba_marseille","lat":43.290631,"lon":5.359244,"is_reserved":false,"is_disabled":false,"rental_uris":{"android":"levelo://app?vid=abd9713e-de62-4f56-9e38-a056053ff506","ios":"levelo://app?vid=abd9713e-de62-4f56-9e38-a056053ff506"},"vehicle_type_id":"4","last_reported":1692911163,"current_range_meters":10400,"station_id":"ce4bha92rcd13ifvqeg0","pricing_plan_id":"free"},{"bike_id":"fcc19a1f-d5ea-4d58-aba9-61136e768f9b","system_id":"levelo_inurba_marseille","lat":43.290631,"lon":5.359244,"is_reserved":false,"is_disabled":false,"rental_uris":{"android":"levelo://app?vid=fcc19a1f-d5ea-4d58-aba9-61136e768f9b","ios":"levelo://app?vid=fcc19a1f-d5ea-4d58-aba9-61136e768f9b"},"vehicle_type_id":"4","last_reported":1692911163,"current_range_meters":14400,"station_id":"ce4bha92rcd13ifvqeg0","pricing_plan_id":"free"},{"bike_id":"35f94276-7b02-4953-a44e-cb0f4a865ac8","system_id":"levelo_inurba_marseille","lat":43.29417,"lon":5.38624,"is_reserved":false,"is_disabled":false,"rental_uris":{"android":"levelo://app?vid=35f94276-7b02-4953-a44e-cb0f4a865ac8","ios":"levelo://app?vid=35f94276-7b02-4953-a44e-cb0f4a865ac8"},"vehicle_type_id":"4","last_reported":1692911163,"current_range_meters":31200,"station_id":"ce4bh2h2rcd13ifvqdh0","pricing_plan_id":"free"},{"bike_id":"1bf832f8-edc0-4b46-9a2f-357c3eed4b1a","system_id":"levelo_inurba_marseille","lat":43.289468,"lon":5.363719,"is_reserved":false,"is_disabled":false,"rental_uris":{"android":"levelo://app?vid=1bf832f8-edc0-4b46-9a2f-357c3eed4b1a","ios":"levelo://app?vid=1bf832f8-edc0-4b46-9a2f-357c3eed4b1a"},"vehicle_type_id":"4","last_reported":1692911163,"current_range_meters":5600,"station_id":"ce4bhc92rcd13ifvqetg","pricing_plan_id":"free"},{"bike_id":"02055d6f-7adc-48ca-83e2-e229caec26c6","system_id":"levelo_inurba_marseille","lat":43.294128,"lon":5.386339,"is_reserved":false,"is_disabled":false,"rental_uris":{"android":"levelo://app?vid=02055d6f-7adc-48ca-83e2-e229caec26c6","ios":"levelo://app?vid=02055d6f-7adc-48ca-83e2-e229caec26c6"},"vehicle_type_id":"4","last_reported":1692911163,"current_range_meters":31200,"station_id":"ce4bh2h2rcd13ifvqdh0","pricing_plan_id":"free"},{"bike_id":"b708cdc0-cff4-445a-9966-4e9596280c65","system_id":"levelo_inurba_marseille","lat":43.29418,"lon":5.38646,"is_reserved":false,"is_disabled":false,"rental_uris":{"android":"levelo://app?vid=b708cdc0-cff4-445a-9966-4e9596280c65","ios":"levelo://app?vid=b708cdc0-cff4-445a-9966-4e9596280c65"},"vehicle_type_id":"4","last_reported":1692911163,"current_range_meters":31200,"station_id":"ce4bh2h2rcd13ifvqdh0","pricing_plan_id":"free"},{"bike_id":"1a623536-9fec-4f91-8acc-1cd1b97eaea2","system_id":"levelo_inurba_marseille","lat":43.29408,"lon":5.38643,"is_reserved":false,"is_disabled":false,"rental_uris":{"android":"levelo://app?vid=1a623536-9fec-4f91-8acc-1cd1b97eaea2","ios":"levelo://app?vid=1a623536-9fec-4f91-8acc-1cd1b97eaea2"},"vehicle_type_id":"4","last_reported":1692911163,"current_range_meters":30800,"station_id":"ce4bh2h2rcd13ifvqdh0","pricing_plan_id":"free"},{"bike_id":"efbed5b3-b847-4cc6-9fc7-9a79d5535672","system_id":"levelo_inurba_marseille","lat":43.2927,"lon":5.38441,"is_reserved":false,"is_disabled":false,"rental_uris":{"android":"levelo://app?vid=efbed5b3-b847-4cc6-9fc7-9a79d5535672","ios":"levelo://app?vid=efbed5b3-b847-4cc6-9fc7-9a79d5535672"},"vehicle_type_id":"4","last_reported":1692911163,"current_range_meters":31200,"station_id":"ce4bh692rcd13ifvqea0","pricing_plan_id":"free"},{"bike_id":"dcc1f321-cccc-4a54-a7d3-67ce55e80c76","system_id":"levelo_inurba_marseille","lat":43.292642,"lon":5.384254,"is_reserved":false,"is_disabled":false,"rental_uris":{"android":"levelo://app?vid=dcc1f321-cccc-4a54-a7d3-67ce55e80c76","ios":"levelo://app?vid=dcc1f321-cccc-4a54-a7d3-67ce55e80c76"},"vehicle_type_id":"4","last_reported":1692911163,"current_range_meters":31200,"station_id":"ce4bh692rcd13ifvqea0","pricing_plan_id":"free"},{"bike_id":"1c07e25f-84db-4513-bedb-11b97c6ec9b6","system_id":"levelo_inurba_marseille","lat":43.33041,"lon":5.38914,"is_reserved":false,"is_disabled":false,"rental_uris":{"android":"levelo://app?vid=1c07e25f-84db-4513-bedb-11b97c6ec9b6","ios":"levelo://app?vid=1c07e25f-84db-4513-bedb-11b97c6ec9b6"},"vehicle_type_id":"4","last_reported":1692911163,"current_range_meters":31200,"station_id":"ce4bhr92rcd13ifvqhrg","pricing_plan_id":"free"},{"bike_id":"73e30c8d-1fec-42fa-994e-db63cd20ad16","system_id":"levelo_inurba_marseille","lat":43.33039,"lon":5.38922,"is_reserved":false,"is_disabled":false,"rental_uris":{"android":"levelo://app?vid=73e30c8d-1fec-42fa-994e-db63cd20ad16","ios":"levelo://app?vid=73e30c8d-1fec-42fa-994e-db63cd20ad16"},"vehicle_type_id":"4","last_reported":1692911163,"current_range_meters":18800,"station_id":"ce4bhr92rcd13ifvqhrg","pricing_plan_id":"free"},{"bike_id":"f10717b1-2d8e-45e1-9f93-7c87584a474a","system_id":"levelo_inurba_marseille","lat":43.3304,"lon":5.38922,"is_reserved":false,"is_disabled":false,"rental_uris":{"android":"levelo://app?vid=f10717b1-2d8e-45e1-9f93-7c87584a474a","ios":"levelo://app?vid=f10717b1-2d8e-45e1-9f93-7c87584a474a"},"vehicle_type_id":"4","last_reported":1692911163,"current_range_meters":13200,"station_id":"ce4bhr92rcd13ifvqhrg","pricing_plan_id":"free"},{"bike_id":"6093d433-f9d6-48fe-897b-a1be7c29ef34","system_id":"levelo_inurba_marseille","lat":43.29007,"lon":5.35613,"is_reserved":false,"is_disabled":false,"rental_uris":{"android":"levelo://app?vid=6093d433-f9d6-48fe-897b-a1be7c29ef34","ios":"levelo://app?vid=6093d433-f9d6-48fe-897b-a1be7c29ef34"},"vehicle_type_id":"4","last_reported":1692911163,"current_range_meters":30000,"station_id":"ce4bhb92rcd13ifvqen0","pricing_plan_id":"free"},{"bike_id":"9ccc4583-c024-4005-9500-9904f6a5551f","system_id":"levelo_inurba_marseille","lat":43.33042,"lon":5.38925,"is_reserved":false,"is_disabled":false,"rental_uris":{"android":"levelo://app?vid=9ccc4583-c024-4005-9500-9904f6a5551f","ios":"levelo://app?vid=9ccc4583-c024-4005-9500-9904f6a5551f"},"vehicle_type_id":"4","last_reported":1692911163,"current_range_meters":800,"station_id":"ce4bhr92rcd13ifvqhrg","pricing_plan_id":"free"},{"bike_id":"a4df99ce-0488-49dd-a888-94686f562e88","system_id":"levelo_inurba_marseille","lat":43.29004,"lon":5.35617,"is_reserved":false,"is_disabled":false,"rental_uris":{"android":"levelo://app?vid=a4df99ce-0488-49dd-a888-94686f562e88","ios":"levelo://app?vid=a4df99ce-0488-49dd-a888-94686f562e88"},"vehicle_type_id":"4","last_reported":1692911163,"current_range_meters":29600,"station_id":"ce4bhb92rcd13ifvqen0","pricing_plan_id":"free"},{"bike_id":"bd7daa76-25f4-40b2-86bd-a216524cfea0","system_id":"levelo_inurba_marseille","lat":43.33047,"lon":5.38921,"is_reserved":false,"is_disabled":false,"rental_uris":{"android":"levelo://app?vid=bd7daa76-25f4-40b2-86bd-a216524cfea0","ios":"levelo://app?vid=bd7daa76-25f4-40b2-86bd-a216524cfea0"},"vehicle_type_id":"4","last_reported":1692911163,"current_range_meters":9200,"station_id":"ce4bhr92rcd13ifvqhrg","pricing_plan_id":"free"},{"bike_id":"1895038e-acdb-4d35-aa35-e1291f23a30a","system_id":"levelo_inurba_marseille","lat":43.29,"lon":5.35617,"is_reserved":false,"is_disabled":false,"rental_uris":{"android":"levelo://app?vid=1895038e-acdb-4d35-aa35-e1291f23a30a","ios":"levelo://app?vid=1895038e-acdb-4d35-aa35-e1291f23a30a"},"vehicle_type_id":"4","last_reported":1692911163,"current_range_meters":31200,"station_id":"ce4bhb92rcd13ifvqen0","pricing_plan_id":"free"},{"bike_id":"f62a4138-90e2-411b-b307-c40c8718af23","system_id":"levelo_inurba_marseille","lat":43.29101,"lon":5.38132,"is_reserved":false,"is_disabled":false,"rental_uris":{"android":"levelo://app?vid=f62a4138-90e2-411b-b307-c40c8718af23","ios":"levelo://app?vid=f62a4138-90e2-411b-b307-c40c8718af23"},"vehicle_type_id":"4","last_reported":1692911163,"current_range_meters":31600,"station_id":"ce4bh512rcd13ifvqe2g","pricing_plan_id":"free"},{"bike_id":"cebdd3f8-5467-41ab-8174-9ff188b1859f","system_id":"levelo_inurba_marseille","lat":43.290976,"lon":5.381382,"is_reserved":false,"is_disabled":false,"rental_uris":{"android":"levelo://app?vid=cebdd3f8-5467-41ab-8174-9ff188b1859f","ios":"levelo://app?vid=cebdd3f8-5467-41ab-8174-9ff188b1859f"},"vehicle_type_id":"4","last_reported":1692911163,"current_range_meters":31600,"station_id":"ce4bh512rcd13ifvqe2g","pricing_plan_id":"free"},{"bike_id":"099b1aa8-fab5-4093-bd2f-25aa5006a29c","system_id":"levelo_inurba_marseille","lat":43.290934,"lon":5.381288,"is_reserved":false,"is_disabled":false,"rental_uris":{"android":"levelo://app?vid=099b1aa8-fab5-4093-bd2f-25aa5006a29c","ios":"levelo://app?vid=099b1aa8-fab5-4093-bd2f-25aa5006a29c"},"vehicle_type_id":"4","last_reported":1692911163,"current_range_meters":31200,"station_id":"ce4bh512rcd13ifvqe2g","pricing_plan_id":"free"},{"bike_id":"fa75edc4-b600-48e4-8b24-2cfdd1f144d5","system_id":"levelo_inurba_marseille","lat":43.297815,"lon":5.393548,"is_reserved":false,"is_disabled":false,"rental_uris":{"android":"levelo://app?vid=fa75edc4-b600-48e4-8b24-2cfdd1f144d5","ios":"levelo://app?vid=fa75edc4-b600-48e4-8b24-2cfdd1f144d5"},"vehicle_type_id":"4","last_reported":1692911163,"current_range_meters":12400,"station_id":"chh1huq6cuj3fo74tm60","pricing_plan_id":"free"},{"bike_id":"d517aafb-1740-42ed-81bc-c18180cd56e8","system_id":"levelo_inurba_marseille","lat":43.297815,"lon":5.393548,"is_reserved":false,"is_disabled":false,"rental_uris":{"android":"levelo://app?vid=d517aafb-1740-42ed-81bc-c18180cd56e8","ios":"levelo://app?vid=d517aafb-1740-42ed-81bc-c18180cd56e8"},"vehicle_type_id":"4","last_reported":1692911163,"current_range_meters":15600,"station_id":"chh1huq6cuj3fo74tm60","pricing_plan_id":"free"},{"bike_id":"06217972-77ba-40eb-a714-29ba43188ec2","system_id":"levelo_inurba_marseille","lat":43.297815,"lon":5.393548,"is_reserved":false,"is_disabled":false,"rental_uris":{"android":"levelo://app?vid=06217972-77ba-40eb-a714-29ba43188ec2","ios":"levelo://app?vid=06217972-77ba-40eb-a714-29ba43188ec2"},"vehicle_type_id":"4","last_reported":1692911163,"current_range_meters":18000,"station_id":"chh1huq6cuj3fo74tm60","pricing_plan_id":"free"},{"bike_id":"5875249b-50bb-422c-8295-090888a53a9e","system_id":"levelo_inurba_marseille","lat":43.295169,"lon":5.390426,"is_reserved":false,"is_disabled":false,"rental_uris":{"android":"levelo://app?vid=5875249b-50bb-422c-8295-090888a53a9e","ios":"levelo://app?vid=5875249b-50bb-422c-8295-090888a53a9e"},"vehicle_type_id":"4","last_reported":1692911163,"current_range_meters":28000,"station_id":"ce4bh3p2rcd13ifvqdp0","pricing_plan_id":"free"},{"bike_id":"cdc17ee5-2039-43bc-a044-4dccf5d48410","system_id":"levelo_inurba_marseille","lat":43.28856,"lon":5.358371,"is_reserved":false,"is_disabled":false,"rental_uris":{"android":"levelo://app?vid=cdc17ee5-2039-43bc-a044-4dccf5d48410","ios":"levelo://app?vid=cdc17ee5-2039-43bc-a044-4dccf5d48410"},"vehicle_type_id":"4","last_reported":1692911163,"current_range_meters":17200,"station_id":"ce4bhb12rcd13ifvqem0","pricing_plan_id":"free"},{"bike_id":"95d57859-8784-45f9-ad3a-fe25520e09a5","system_id":"levelo_inurba_marseille","lat":43.28856,"lon":5.358371,"is_reserved":false,"is_disabled":false,"rental_uris":{"android":"levelo://app?vid=95d57859-8784-45f9-ad3a-fe25520e09a5","ios":"levelo://app?vid=95d57859-8784-45f9-ad3a-fe25520e09a5"},"vehicle_type_id":"4","last_reported":1692911163,"current_range_meters":8800,"station_id":"ce4bhb12rcd13ifvqem0","pricing_plan_id":"free"},{"bike_id":"7108c7ae-a73d-44fe-8161-57087fbf3229","system_id":"levelo_inurba_marseille","lat":43.31269,"lon":5.40169,"is_reserved":false,"is_disabled":false,"rental_uris":{"android":"levelo://app?vid=7108c7ae-a73d-44fe-8161-57087fbf3229","ios":"levelo://app?vid=7108c7ae-a73d-44fe-8161-57087fbf3229"},"vehicle_type_id":"4","last_reported":1692911163,"current_range_meters":4000,"station_id":"ce4bh092rcd13ifvqd30","pricing_plan_id":"free"},{"bike_id":"269f2dde-d8e5-4760-a6e8-7009e40760d2","system_id":"levelo_inurba_marseille","lat":43.33738,"lon":5.37479,"is_reserved":false,"is_disabled":false,"rental_uris":{"android":"levelo://app?vid=269f2dde-d8e5-4760-a6e8-7009e40760d2","ios":"levelo://app?vid=269f2dde-d8e5-4760-a6e8-7009e40760d2"},"vehicle_type_id":"4","last_reported":1692911163,"current_range_meters":30400,"station_id":"","pricing_plan_id":"free"},{"bike_id":"34e1c3d4-8e93-4596-835d-7ba083bed75c","system_id":"levelo_inurba_marseille","lat":43.30928,"lon":5.40144,"is_reserved":false,"is_disabled":false,"rental_uris":{"android":"levelo://app?vid=34e1c3d4-8e93-4596-835d-7ba083bed75c","ios":"levelo://app?vid=34e1c3d4-8e93-4596-835d-7ba083bed75c"},"vehicle_type_id":"4","last_reported":1692911163,"current_range_meters":21200,"station_id":"ce4bgvp2rcd13ifvqct0","pricing_plan_id":"free"},{"bike_id":"57d15c14-12ed-4e8d-9972-68de459680f2","system_id":"levelo_inurba_marseille","lat":43.31278,"lon":5.40177,"is_reserved":false,"is_disabled":false,"rental_uris":{"android":"levelo://app?vid=57d15c14-12ed-4e8d-9972-68de459680f2","ios":"levelo://app?vid=57d15c14-12ed-4e8d-9972-68de459680f2"},"vehicle_type_id":"4","last_reported":1692911163,"current_range_meters":0,"station_id":"ce4bh092rcd13ifvqd30","pricing_plan_id":"free"},{"bike_id":"062ae187-be4b-4e04-abe7-b0a255055b25","system_id":"levelo_inurba_marseille","lat":43.309371,"lon":5.401449,"is_reserved":false,"is_disabled":false,"rental_uris":{"android":"levelo://app?vid=062ae187-be4b-4e04-abe7-b0a255055b25","ios":"levelo://app?vid=062ae187-be4b-4e04-abe7-b0a255055b25"},"vehicle_type_id":"4","last_reported":1692911163,"current_range_meters":16800,"station_id":"ce4bgvp2rcd13ifvqct0","pricing_plan_id":"free"},{"bike_id":"e4a79a3e-84b3-4d26-be8b-1e0f44892a12","system_id":"levelo_inurba_marseille","lat":43.30922,"lon":5.40156,"is_reserved":false,"is_disabled":false,"rental_uris":{"android":"levelo://app?vid=e4a79a3e-84b3-4d26-be8b-1e0f44892a12","ios":"levelo://app?vid=e4a79a3e-84b3-4d26-be8b-1e0f44892a12"},"vehicle_type_id":"4","last_reported":1692911163,"current_range_meters":0,"station_id":"ce4bgvp2rcd13ifvqct0","pricing_plan_id":"free"},{"bike_id":"6f0b78e3-2fa7-4139-bdb1-28a466569ebe","system_id":"levelo_inurba_marseille","lat":43.30636,"lon":5.40086,"is_reserved":false,"is_disabled":false,"rental_uris":{"android":"levelo://app?vid=6f0b78e3-2fa7-4139-bdb1-28a466569ebe","ios":"levelo://app?vid=6f0b78e3-2fa7-4139-bdb1-28a466569ebe"},"vehicle_type_id":"4","last_reported":1692911163,"current_range_meters":400,"station_id":"ce4bh112rcd13ifvqda0","pricing_plan_id":"free"},{"bike_id":"81adbb6f-29c6-405c-8c82-a588b532422e","system_id":"levelo_inurba_marseille","lat":43.301117,"lon":5.398795,"is_reserved":false,"is_disabled":false,"rental_uris":{"android":"levelo://app?vid=81adbb6f-29c6-405c-8c82-a588b532422e","ios":"levelo://app?vid=81adbb6f-29c6-405c-8c82-a588b532422e"},"vehicle_type_id":"4","last_reported":1692911163,"current_range_meters":23200,"station_id":"ce4bh0h2rcd13ifvqd40","pricing_plan_id":"free"},{"bike_id":"9706fad4-0c8c-4e1e-a417-fb36acaa0d51","system_id":"levelo_inurba_marseille","lat":43.298681,"lon":5.397225,"is_reserved":false,"is_disabled":false,"rental_uris":{"android":"levelo://app?vid=9706fad4-0c8c-4e1e-a417-fb36acaa0d51","ios":"levelo://app?vid=9706fad4-0c8c-4e1e-a417-fb36acaa0d51"},"vehicle_type_id":"4","last_reported":1692911163,"current_range_meters":4000,"station_id":"ce4bh0h2rcd13ifvqd50","pricing_plan_id":"free"},{"bike_id":"73c7475e-ecd5-4b1e-a10f-745f924dad33","system_id":"levelo_inurba_marseille","lat":43.298681,"lon":5.397225,"is_reserved":false,"is_disabled":false,"rental_uris":{"android":"levelo://app?vid=73c7475e-ecd5-4b1e-a10f-745f924dad33","ios":"levelo://app?vid=73c7475e-ecd5-4b1e-a10f-745f924dad33"},"vehicle_type_id":"4","last_reported":1692911163,"current_range_meters":26800,"station_id":"ce4bh0h2rcd13ifvqd50","pricing_plan_id":"free"},{"bike_id":"6688b5d4-a976-4ecc-9e21-de6852d311ac","system_id":"levelo_inurba_marseille","lat":43.28667,"lon":5.36354,"is_reserved":false,"is_disabled":false,"rental_uris":{"android":"levelo://app?vid=6688b5d4-a976-4ecc-9e21-de6852d311ac","ios":"levelo://app?vid=6688b5d4-a976-4ecc-9e21-de6852d311ac"},"vehicle_type_id":"4","last_reported":1692911163,"current_range_meters":22000,"station_id":"ce4bhah2rcd13ifvqej0","pricing_plan_id":"free"},{"bike_id":"ce5ba9f7-4632-49aa-bb73-e6145a02e2eb","system_id":"levelo_inurba_marseille","lat":43.286591,"lon":5.363346,"is_reserved":false,"is_disabled":false,"rental_uris":{"android":"levelo://app?vid=ce5ba9f7-4632-49aa-bb73-e6145a02e2eb","ios":"levelo://app?vid=ce5ba9f7-4632-49aa-bb73-e6145a02e2eb"},"vehicle_type_id":"4","last_reported":1692911163,"current_range_meters":0,"station_id":"ce4bhah2rcd13ifvqej0","pricing_plan_id":"free"},{"bike_id":"fcb64ed8-c502-4bfb-910f-5beaf43979e8","system_id":"levelo_inurba_marseille","lat":43.28667,"lon":5.36347,"is_reserved":false,"is_disabled":false,"rental_uris":{"android":"levelo://app?vid=fcb64ed8-c502-4bfb-910f-5beaf43979e8","ios":"levelo://app?vid=fcb64ed8-c502-4bfb-910f-5beaf43979e8"},"vehicle_type_id":"4","last_reported":1692911163,"current_range_meters":20400,"station_id":"ce4bhah2rcd13ifvqej0","pricing_plan_id":"free"},{"bike_id":"75199276-b705-4ad7-b6a9-49aeaa84628a","system_id":"levelo_inurba_marseille","lat":43.286591,"lon":5.363346,"is_reserved":false,"is_disabled":false,"rental_uris":{"android":"levelo://app?vid=75199276-b705-4ad7-b6a9-49aeaa84628a","ios":"levelo://app?vid=75199276-b705-4ad7-b6a9-49aeaa84628a"},"vehicle_type_id":"4","last_reported":1692911163,"current_range_meters":30000,"station_id":"ce4bhah2rcd13ifvqej0","pricing_plan_id":"free"},{"bike_id":"189535d9-2714-445d-8d13-405f40673355","system_id":"levelo_inurba_marseille","lat":43.28705,"lon":5.37398,"is_reserved":false,"is_disabled":false,"rental_uris":{"android":"levelo://app?vid=189535d9-2714-445d-8d13-405f40673355","ios":"levelo://app?vid=189535d9-2714-445d-8d13-405f40673355"},"vehicle_type_id":"4","last_reported":1692911163,"current_range_meters":18400,"station_id":"ce4bh3p2rcd13ifvqdq0","pricing_plan_id":"free"},{"bike_id":"a85bdd4a-2f54-4045-be7b-a4bac62406d6","system_id":"levelo_inurba_marseille","lat":43.304188,"lon":5.412904,"is_reserved":false,"is_disabled":false,"rental_uris":{"android":"levelo://app?vid=a85bdd4a-2f54-4045-be7b-a4bac62406d6","ios":"levelo://app?vid=a85bdd4a-2f54-4045-be7b-a4bac62406d6"},"vehicle_type_id":"4","last_reported":1692911163,"current_range_meters":9200,"station_id":"ce4bhop2rcd13ifvqh8g","pricing_plan_id":"free"},{"bike_id":"2365150f-73ab-4507-aea4-76016e6109c8","system_id":"levelo_inurba_marseille","lat":43.2866,"lon":5.3636,"is_reserved":false,"is_disabled":false,"rental_uris":{"android":"levelo://app?vid=2365150f-73ab-4507-aea4-76016e6109c8","ios":"levelo://app?vid=2365150f-73ab-4507-aea4-76016e6109c8"},"vehicle_type_id":"4","last_reported":1692911163,"current_range_meters":31200,"station_id":"ce4bhah2rcd13ifvqej0","pricing_plan_id":"free"},{"bike_id":"b3d89e76-cbf9-4443-aa3d-4191a9c040e0","system_id":"levelo_inurba_marseille","lat":43.286961,"lon":5.373785,"is_reserved":false,"is_disabled":false,"rental_uris":{"android":"levelo://app?vid=b3d89e76-cbf9-4443-aa3d-4191a9c040e0","ios":"levelo://app?vid=b3d89e76-cbf9-4443-aa3d-4191a9c040e0"},"vehicle_type_id":"4","last_reported":1692911163,"current_range_meters":16000,"station_id":"ce4bh3p2rcd13ifvqdq0","pricing_plan_id":"free"},{"bike_id":"2753a579-1cc6-4aab-aea8-76dfa6c609dc","system_id":"levelo_inurba_marseille","lat":43.28656,"lon":5.3636,"is_reserved":false,"is_disabled":false,"rental_uris":{"android":"levelo://app?vid=2753a579-1cc6-4aab-aea8-76dfa6c609dc","ios":"levelo://app?vid=2753a579-1cc6-4aab-aea8-76dfa6c609dc"},"vehicle_type_id":"4","last_reported":1692911163,"current_range_meters":24400,"station_id":"ce4bhah2rcd13ifvqej0","pricing_plan_id":"free"},{"bike_id":"1f6e40dc-b835-4dcd-84e6-9b2c6ba75202","system_id":"levelo_inurba_marseille","lat":43.298681,"lon":5.397225,"is_reserved":false,"is_disabled":false,"rental_uris":{"android":"levelo://app?vid=1f6e40dc-b835-4dcd-84e6-9b2c6ba75202","ios":"levelo://app?vid=1f6e40dc-b835-4dcd-84e6-9b2c6ba75202"},"vehicle_type_id":"4","last_reported":1692911163,"current_range_meters":4000,"station_id":"ce4bh0h2rcd13ifvqd50","pricing_plan_id":"free"},{"bike_id":"77ea0faf-4f85-47cf-97da-afe320f4d64e","system_id":"levelo_inurba_marseille","lat":43.290336,"lon":5.386425,"is_reserved":false,"is_disabled":false,"rental_uris":{"android":"levelo://app?vid=77ea0faf-4f85-47cf-97da-afe320f4d64e","ios":"levelo://app?vid=77ea0faf-4f85-47cf-97da-afe320f4d64e"},"vehicle_type_id":"4","last_reported":1692911163,"current_range_meters":2400,"station_id":"ce4bh4p2rcd13ifvqe0g","pricing_plan_id":"free"},{"bike_id":"c6b89077-b159-45e3-8a1e-373b5efff8a2","system_id":"levelo_inurba_marseille","lat":43.29024,"lon":5.38657,"is_reserved":false,"is_disabled":false,"rental_uris":{"android":"levelo://app?vid=c6b89077-b159-45e3-8a1e-373b5efff8a2","ios":"levelo://app?vid=c6b89077-b159-45e3-8a1e-373b5efff8a2"},"vehicle_type_id":"4","last_reported":1692911163,"current_range_meters":6400,"station_id":"ce4bh4p2rcd13ifvqe0g","pricing_plan_id":"free"},{"bike_id":"2f0db7f4-0eed-4a3b-a5c5-6952fc56b75a","system_id":"levelo_inurba_marseille","lat":43.28606,"lon":5.37065,"is_reserved":false,"is_disabled":false,"rental_uris":{"android":"levelo://app?vid=2f0db7f4-0eed-4a3b-a5c5-6952fc56b75a","ios":"levelo://app?vid=2f0db7f4-0eed-4a3b-a5c5-6952fc56b75a"},"vehicle_type_id":"4","last_reported":1692911163,"current_range_meters":7200,"station_id":"ce4bht12rcd13ifvqi60","pricing_plan_id":"free"},{"bike_id":"7da9e437-1e79-4b5f-9ab0-65254ac17dd7","system_id":"levelo_inurba_marseille","lat":43.31645,"lon":5.40436,"is_reserved":false,"is_disabled":false,"rental_uris":{"android":"levelo://app?vid=7da9e437-1e79-4b5f-9ab0-65254ac17dd7","ios":"levelo://app?vid=7da9e437-1e79-4b5f-9ab0-65254ac17dd7"},"vehicle_type_id":"4","last_reported":1692911163,"current_range_meters":21200,"station_id":"ce4bh012rcd13ifvqd00","pricing_plan_id":"free"},{"bike_id":"dee8664e-b9eb-407f-9954-03bc25e0c756","system_id":"levelo_inurba_marseille","lat":43.29204,"lon":5.3933,"is_reserved":false,"is_disabled":false,"rental_uris":{"android":"levelo://app?vid=dee8664e-b9eb-407f-9954-03bc25e0c756","ios":"levelo://app?vid=dee8664e-b9eb-407f-9954-03bc25e0c756"},"vehicle_type_id":"4","last_reported":1692911163,"current_range_meters":16800,"station_id":"ce4bh192rcd13ifvqdd0","pricing_plan_id":"free"},{"bike_id":"f6a12901-d081-40e5-a768-720d36ec8c10","system_id":"levelo_inurba_marseille","lat":43.291953,"lon":5.393198,"is_reserved":false,"is_disabled":false,"rental_uris":{"android":"levelo://app?vid=f6a12901-d081-40e5-a768-720d36ec8c10","ios":"levelo://app?vid=f6a12901-d081-40e5-a768-720d36ec8c10"},"vehicle_type_id":"4","last_reported":1692911163,"current_range_meters":16000,"station_id":"ce4bh192rcd13ifvqdd0","pricing_plan_id":"free"},{"bike_id":"ff1b433d-17bc-4093-8dcd-b3f8c4b75492","system_id":"levelo_inurba_marseille","lat":43.284538,"lon":5.358657,"is_reserved":false,"is_disabled":false,"rental_uris":{"android":"levelo://app?vid=ff1b433d-17bc-4093-8dcd-b3f8c4b75492","ios":"levelo://app?vid=ff1b433d-17bc-4093-8dcd-b3f8c4b75492"},"vehicle_type_id":"4","last_reported":1692911163,"current_range_meters":12400,"station_id":"ce4bhah2rcd13ifvqei0","pricing_plan_id":"free"},{"bike_id":"7a8cd84c-e315-4904-8c05-3f409715cf8c","system_id":"levelo_inurba_marseille","lat":43.284538,"lon":5.358657,"is_reserved":false,"is_disabled":false,"rental_uris":{"android":"levelo://app?vid=7a8cd84c-e315-4904-8c05-3f409715cf8c","ios":"levelo://app?vid=7a8cd84c-e315-4904-8c05-3f409715cf8c"},"vehicle_type_id":"4","last_reported":1692911163,"current_range_meters":1200,"station_id":"ce4bhah2rcd13ifvqei0","pricing_plan_id":"free"},{"bike_id":"ba15c218-7110-4c4f-8555-1fadb2094f4c","system_id":"levelo_inurba_marseille","lat":43.285856,"lon":5.350771,"is_reserved":false,"is_disabled":false,"rental_uris":{"android":"levelo://app?vid=ba15c218-7110-4c4f-8555-1fadb2094f4c","ios":"levelo://app?vid=ba15c218-7110-4c4f-8555-1fadb2094f4c"},"vehicle_type_id":"4","last_reported":1692911163,"current_range_meters":3600,"station_id":"ce4bhch2rcd13ifvqeug","pricing_plan_id":"free"},{"bike_id":"2363d3b5-6c15-401a-a59c-ee80bd4af927","system_id":"levelo_inurba_marseille","lat":43.28415,"lon":5.37522,"is_reserved":false,"is_disabled":false,"rental_uris":{"android":"levelo://app?vid=2363d3b5-6c15-401a-a59c-ee80bd4af927","ios":"levelo://app?vid=2363d3b5-6c15-401a-a59c-ee80bd4af927"},"vehicle_type_id":"4","last_reported":1692911163,"current_range_meters":400,"station_id":"ce4bh412rcd13ifvqds0","pricing_plan_id":"free"},{"bike_id":"0724b44b-1216-4f00-b44d-ca61d0162a52","system_id":"levelo_inurba_marseille","lat":43.283998,"lon":5.375062,"is_reserved":false,"is_disabled":false,"rental_uris":{"android":"levelo://app?vid=0724b44b-1216-4f00-b44d-ca61d0162a52","ios":"levelo://app?vid=0724b44b-1216-4f00-b44d-ca61d0162a52"},"vehicle_type_id":"4","last_reported":1692911163,"current_range_meters":0,"station_id":"ce4bh412rcd13ifvqds0","pricing_plan_id":"free"},{"bike_id":"e73a8cd1-4e79-4aec-a8ea-63d0f31fc8de","system_id":"levelo_inurba_marseille","lat":43.295713,"lon":5.399639,"is_reserved":false,"is_disabled":false,"rental_uris":{"android":"levelo://app?vid=e73a8cd1-4e79-4aec-a8ea-63d0f31fc8de","ios":"levelo://app?vid=e73a8cd1-4e79-4aec-a8ea-63d0f31fc8de"},"vehicle_type_id":"4","last_reported":1692911163,"current_range_meters":26000,"station_id":"ce4bh312rcd13ifvqdj0","pricing_plan_id":"free"},{"bike_id":"57dcaadb-e3fb-4dbb-90e8-cf44093fa09f","system_id":"levelo_inurba_marseille","lat":43.286595,"lon":5.386795,"is_reserved":false,"is_disabled":false,"rental_uris":{"android":"levelo://app?vid=57dcaadb-e3fb-4dbb-90e8-cf44093fa09f","ios":"levelo://app?vid=57dcaadb-e3fb-4dbb-90e8-cf44093fa09f"},"vehicle_type_id":"4","last_reported":1692911163,"current_range_meters":31600,"station_id":"ce4bh492rcd13ifvqdug","pricing_plan_id":"free"},{"bike_id":"ce4837dd-cf63-4628-b0a7-0b0e80a3363f","system_id":"levelo_inurba_marseille","lat":43.28661,"lon":5.3867,"is_reserved":false,"is_disabled":false,"rental_uris":{"android":"levelo://app?vid=ce4837dd-cf63-4628-b0a7-0b0e80a3363f","ios":"levelo://app?vid=ce4837dd-cf63-4628-b0a7-0b0e80a3363f"},"vehicle_type_id":"4","last_reported":1692911163,"current_range_meters":3200,"station_id":"ce4bh492rcd13ifvqdug","pricing_plan_id":"free"},{"bike_id":"46d46299-77c0-46a3-b268-ac8756c7bd96","system_id":"levelo_inurba_marseille","lat":43.286595,"lon":5.386795,"is_reserved":false,"is_disabled":false,"rental_uris":{"android":"levelo://app?vid=46d46299-77c0-46a3-b268-ac8756c7bd96","ios":"levelo://app?vid=46d46299-77c0-46a3-b268-ac8756c7bd96"},"vehicle_type_id":"4","last_reported":1692911163,"current_range_meters":6800,"station_id":"ce4bh492rcd13ifvqdug","pricing_plan_id":"free"},{"bike_id":"a1c74bd3-ccef-44e3-8e2d-8c04eb68b635","system_id":"levelo_inurba_marseille","lat":43.2866,"lon":5.38672,"is_reserved":false,"is_disabled":false,"rental_uris":{"android":"levelo://app?vid=a1c74bd3-ccef-44e3-8e2d-8c04eb68b635","ios":"levelo://app?vid=a1c74bd3-ccef-44e3-8e2d-8c04eb68b635"},"vehicle_type_id":"4","last_reported":1692911163,"current_range_meters":8000,"station_id":"ce4bh492rcd13ifvqdug","pricing_plan_id":"free"},{"bike_id":"22f5ebde-00e6-4c30-b807-8619e53ee930","system_id":"levelo_inurba_marseille","lat":43.33709,"lon":5.392,"is_reserved":false,"is_disabled":false,"rental_uris":{"android":"levelo://app?vid=22f5ebde-00e6-4c30-b807-8619e53ee930","ios":"levelo://app?vid=22f5ebde-00e6-4c30-b807-8619e53ee930"},"vehicle_type_id":"4","last_reported":1692911163,"current_range_meters":30400,"station_id":"ce4bhr92rcd13ifvqhsg","pricing_plan_id":"free"},{"bike_id":"fa78aabd-8504-4fff-97d5-67819f3c7e97","system_id":"levelo_inurba_marseille","lat":43.33721,"lon":5.3918,"is_reserved":false,"is_disabled":false,"rental_uris":{"android":"levelo://app?vid=fa78aabd-8504-4fff-97d5-67819f3c7e97","ios":"levelo://app?vid=fa78aabd-8504-4fff-97d5-67819f3c7e97"},"vehicle_type_id":"4","last_reported":1692911163,"current_range_meters":31200,"station_id":"ce4bhr92rcd13ifvqhsg","pricing_plan_id":"free"},{"bike_id":"fc8ca08b-ab79-4b25-8dac-1ec0947caad6","system_id":"levelo_inurba_marseille","lat":43.323464,"lon":5.406297,"is_reserved":false,"is_disabled":false,"rental_uris":{"android":"levelo://app?vid=fc8ca08b-ab79-4b25-8dac-1ec0947caad6","ios":"levelo://app?vid=fc8ca08b-ab79-4b25-8dac-1ec0947caad6"},"vehicle_type_id":"4","last_reported":1692911163,"current_range_meters":24400,"station_id":"ce4bhq92rcd13ifvqhjg","pricing_plan_id":"free"},{"bike_id":"f59572cd-eeee-45a7-81fd-c3c75f5406c9","system_id":"levelo_inurba_marseille","lat":43.33717,"lon":5.391857,"is_reserved":false,"is_disabled":false,"rental_uris":{"android":"levelo://app?vid=f59572cd-eeee-45a7-81fd-c3c75f5406c9","ios":"levelo://app?vid=f59572cd-eeee-45a7-81fd-c3c75f5406c9"},