{"last_updated":1725124008,"ttl":30,"version":"2.2","data":{"bikes":[{"bike_id":"7ca42d08-afc7-4135-9a48-3fef113b774a","system_id":"levelo_inurba_marseille","lat":43.309076,"lon":5.368465,"is_reserved":false,"is_disabled":false,"rental_uris":{"android":"levelo://app?vid=7ca42d08-afc7-4135-9a48-3fef113b774a","ios":"levelo://app?vid=7ca42d08-afc7-4135-9a48-3fef113b774a"},"vehicle_type_id":"4","last_reported":1725124008,"current_range_meters":11600,"station_id":"ce4bgn92rcd13ifvqbvg","pricing_plan_id":"cebpf4jnsgd1na2vs0mg"},{"bike_id":"af3f277f-be10-4e2a-b1ce-2feda0cc0ddf","system_id":"levelo_inurba_marseille","lat":43.314811,"lon":5.373103,"is_reserved":false,"is_disabled":false,"rental_uris":{"android":"levelo://app?vid=af3f277f-be10-4e2a-b1ce-2feda0cc0ddf","ios":"levelo://app?vid=af3f277f-be10-4e2a-b1ce-2feda0cc0ddf"},"vehicle_type_id":"4","last_reported":1725124008,"current_range_meters":11200,"station_id":"ce4bgt12rcd13ifvqcd0","pricing_plan_id":"cebpf4jnsgd1na2vs0mg"},{"bike_id":"0c307fc9-bbb6-4041-badd-5151ea5fe374","system_id":"levelo_inurba_marseille","lat":43.31487,"lon":5.37306,"is_reserved":false,"is_disabled":false,"rental_uris":{"android":"levelo://app?vid=0c307fc9-bbb6-4041-badd-5151ea5fe374","ios":"levelo://app?vid=0c307fc9-bbb6-4041-badd-5151ea5fe374"},"vehicle_type_id":"4","last_reported":1725124008,"current_range_meters":6000,"station_id":"ce4bgt12rcd13ifvqcd0","pricing_plan_id":"cebpf4jnsgd1na2vs0mg"},{"bike_id":"919876ec-6b2c-4963-85c6-d0a8f2171150","system_id":"levelo_inurba_marseille","lat":43.30891,"lon":5.37181,"is_reserved":false,"is_disabled":false,"rental_uris":{"android":"levelo://app?vid=919876ec-6b2c-4963-85c6-d0a8f2171150","ios":"levelo://app?vid=919876ec-6b2c-4963-85c6-d0a8f2171150"},"vehicle_type_id":"4","last_reported":1725124008,"current_range_meters":7600,"station_id":"ce4bguh2rcd13ifvqckg","pricing_plan_id":"cebpf4jnsgd1na2vs0mg"},{"bike_id":"24783604-0b62-465e-a62b-80f53ee4ffc4","system_id":"levelo_inurba_marseille","lat":43.309034,"lon":5.371783,"is_reserved":false,"is_disabled":false,"rental_uris":{"android":"levelo://app?vid=24783604-0b62-465e-a62b-80f53ee4ffc4","ios":"levelo://app?vid=24783604-0b62-465e-a62b-80f53ee4ffc4"},"vehicle_type_id":"4","last_reported":1725124008,"current_range_meters":0,"station_id":"ce4bguh2rcd13ifvqckg","pricing_plan_id":"cebpf4jnsgd1na2vs0mg"},{"bike_id":"90f35bb8-00f4-4ca0-a234-c75acd4b4182","system_id":"levelo_inurba_marseille","lat":43.309034,"lon":5.371783,"is_reserved":false,"is_disabled":false,"rental_uris":{"android":"levelo://app?vid=90f35bb8-00f4-4ca0-a234-c75acd4b4182","ios":"levelo://app?vid=90f35bb8-00f4-4ca0-a234-c75acd4b4182"},"vehicle_type_id":"4","last_reported":1725124008,"current_range_meters":5200,"station_id":"ce4bguh2rcd13ifvqckg","pricing_plan_id":"cebpf4jnsgd1na2vs0mg"},{"bike_id":"7bb3c188-7c39-40f3-871c-58944d7fdc2d","system_id":"levelo_inurba_marseille","lat":43.305714,"lon":5.365633,"is_reserved":false,"is_disabled":false,"rental_uris":{"android":"levelo://app?vid=7bb3c188-7c39-40f3-871c-58944d7fdc2d","ios":"levelo://app?vid=7bb3c188-7c39-40f3-871c-58944d7fdc2d"},"vehicle_type_id":"4","last_reported":1725124008,"current_range_meters":12800,"station_id":"ce4bgs12rcd13ifvqcag","pricing_plan_id":"cebpf4jnsgd1na2vs0mg"},{"bike_id":"ac7e3079-9c52-4db3-9441-713d00bde871","system_id":"levelo_inurba_marseille","lat":43.305714,"lon":5.365633,"is_reserved":false,"is_disabled":false,"rental_uris":{"android":"levelo://app?vid=ac7e3079-9c52-4db3-9441-713d00bde871","ios":"levelo://app?vid=ac7e3079-9c52-4db3-9441-713d00bde871"},"vehicle_type_id":"4","last_reported":1725124008,"current_range_meters":19600,"station_id":"ce4bgs12rcd13ifvqcag","pricing_plan_id":"cebpf4jnsgd1na2vs0mg"},{"bike_id":"aa78b556-5f64-41f9-8ad6-e6dd36e0b218","system_id":"levelo_inurba_marseille","lat":43.30537,"lon":5.36541,"is_reserved":false,"is_disabled":false,"rental_uris":{"android":"levelo://app?vid=aa78b556-5f64-41f9-8ad6-e6dd36e0b218","ios":"levelo://app?vid=aa78b556-5f64-41f9-8ad6-e6dd36e0b218"},"vehicle_type_id":"4","last_reported":1725124008,"current_range_meters":0,"station_id":"ce4bgs12rcd13ifvqcag","pricing_plan_id":"cebpf4jnsgd1na2vs0mg"},{"bike_id":"aa038c47-f36e-4e1c-9dcb-cd3e2085bfe1","system_id":"levelo_inurba_marseille","lat":43.311842,"lon":5.377267,"is_reserved":false,"is_disabled":false,"rental_uris":{"android":"levelo://app?vid=aa038c47-f36e-4e1c-9dcb-cd3e2085bfe1","ios":"levelo://app?vid=aa038c47-f36e-4e1c-9dcb-cd3e2085bfe1"},"vehicle_type_id":"4","last_reported":1725124008,"current_range_meters":0,"station_id":"","pricing_plan_id":"cebpf4jnsgd1na2vs0mg"},{"bike_id":"d9128f21-fb38-4217-9f45-0c7efedca3e1","system_id":"levelo_inurba_marseille","lat":43.305989,"lon":5.37225,"is_reserved":false,"is_disabled":false,"rental_uris":{"android":"levelo://app?vid=d9128f21-fb38-4217-9f45-0c7efedca3e1","ios":"levelo://app?vid=d9128f21-fb38-4217-9f45-0c7efedca3e1"},"vehicle_type_id":"4","last_reported":1725124008,"current_range_meters":24800,"station_id":"ce4bgqh2rcd13ifvqc4g","pricing_plan_id":"cebpf4jnsgd1na2vs0mg"},{"bike_id":"752771b2-a633-4139-8472-3acc15c5af0e","system_id":"levelo_inurba_marseille","lat":43.305989,"lon":5.37225,"is_reserved":false,"is_disabled":false,"rental_uris":{"android":"levelo://app?vid=752771b2-a633-4139-8472-3acc15c5af0e","ios":"levelo://app?vid=752771b2-a633-4139-8472-3acc15c5af0e"},"vehicle_type_id":"4","last_reported":1725124008,"current_range_meters":28400,"station_id":"ce4bgqh2rcd13ifvqc4g","pricing_plan_id":"cebpf4jnsgd1na2vs0mg"},{"bike_id":"4534da81-6477-4495-9d73-a87bfcd83456","system_id":"levelo_inurba_marseille","lat":43.305989,"lon":5.37225,"is_reserved":false,"is_disabled":false,"rental_uris":{"android":"levelo://app?vid=4534da81-6477-4495-9d73-a87bfcd83456","ios":"levelo://app?vid=4534da81-6477-4495-9d73-a87bfcd83456"},"vehicle_type_id":"4","last_reported":1725124008,"current_range_meters":17600,"station_id":"ce4bgqh2rcd13ifvqc4g","pricing_plan_id":"cebpf4jnsgd1na2vs0mg"},{"bike_id":"aa4ab308-4fce-4159-b164-d6013a2875e4","system_id":"levelo_inurba_marseille","lat":43.311125,"lon":5.377624,"is_reserved":false,"is_disabled":false,"rental_uris":{"android":"levelo://app?vid=aa4ab308-4fce-4159-b164-d6013a2875e4","ios":"levelo://app?vid=aa4ab308-4fce-4159-b164-d6013a2875e4"},"vehicle_type_id":"4","last_reported":1725124008,"current_range_meters":6000,"station_id":"ce4bgt92rcd13ifvqcg0","pricing_plan_id":"cebpf4jnsgd1na2vs0mg"},{"bike_id":"5ec7b5fc-363e-474f-84d8-5b4e2edd64a7","system_id":"levelo_inurba_marseille","lat":43.307945,"lon":5.376487,"is_reserved":false,"is_disabled":false,"rental_uris":{"android":"levelo://app?vid=5ec7b5fc-363e-474f-84d8-5b4e2edd64a7","ios":"levelo://app?vid=5ec7b5fc-363e-474f-84d8-5b4e2edd64a7"},"vehicle_type_id":"4","last_reported":1725124008,"current_range_meters":19600,"station_id":"ce4bgv92rcd13ifvqcq0","pricing_plan_id":"cebpf4jnsgd1na2vs0mg"},{"bike_id":"4ef26142-59be-4649-9307-5819d3bdcf4c","system_id":"levelo_inurba_marseille","lat":43.303046,"lon":5.368981,"is_reserved":false,"is_disabled":false,"rental_uris":{"android":"levelo://app?vid=4ef26142-59be-4649-9307-5819d3bdcf4c","ios":"levelo://app?vid=4ef26142-59be-4649-9307-5819d3bdcf4c"},"vehicle_type_id":"4","last_reported":1725124008,"current_range_meters":31200,"station_id":"ce4bgqh2rcd13ifvqc5g","pricing_plan_id":"cebpf4jnsgd1na2vs0mg"},{"bike_id":"d7067e4c-db75-43a5-a823-b22ae18f0ea8","system_id":"levelo_inurba_marseille","lat":43.31415,"lon":5.38071,"is_reserved":false,"is_disabled":false,"rental_uris":{"android":"levelo://app?vid=d7067e4c-db75-43a5-a823-b22ae18f0ea8","ios":"levelo://app?vid=d7067e4c-db75-43a5-a823-b22ae18f0ea8"},"vehicle_type_id":"4","last_reported":1725124008,"current_range_meters":7200,"station_id":"","pricing_plan_id":"cebpf4jnsgd1na2vs0mg"},{"bike_id":"345f673b-3b24-4ead-b925-ac761cbcdb02","system_id":"levelo_inurba_marseille","lat":43.30269,"lon":5.36876,"is_reserved":false,"is_disabled":false,"rental_uris":{"android":"levelo://app?vid=345f673b-3b24-4ead-b925-ac761cbcdb02","ios":"levelo://app?vid=345f673b-3b24-4ead-b925-ac761cbcdb02"},"vehicle_type_id":"4","last_reported":1725124008,"current_range_meters":0,"station_id":"","pricing_plan_id":"cebpf4jnsgd1na2vs0mg"},{"bike_id":"8bd374ed-1372-4e5f-b619-c249bbdb84f2","system_id":"levelo_inurba_marseille","lat":43.301939,"lon":5.366286,"is_reserved":false,"is_disabled":false,"rental_uris":{"android":"levelo://app?vid=8bd374ed-1372-4e5f-b619-c249bbdb84f2","ios":"levelo://app?vid=8bd374ed-1372-4e5f-b619-c249bbdb84f2"},"vehicle_type_id":"4","last_reported":1725124008,"current_range_meters":0,"station_id":"ce4bgrh2rcd13ifvqc8g","pricing_plan_id":"cebpf4jnsgd1na2vs0mg"},{"bike_id":"fb450a11-3fcd-43d3-91cd-b6ea300390a0","system_id":"levelo_inurba_marseille","lat":43.30459,"lon":5.37897,"is_reserved":false,"is_disabled":false,"rental_uris":{"android":"levelo://app?vid=fb450a11-3fcd-43d3-91cd-b6ea300390a0","ios":"levelo://app?vid=fb450a11-3fcd-43d3-91cd-b6ea300390a0"},"vehicle_type_id":"4","last_reported":1725124008,"current_range_meters":2400,"station_id":"ce4bgup2rcd13ifvqcn0","pricing_plan_id":"cebpf4jnsgd1na2vs0mg"},{"bike_id":"4d684ea6-19f4-4bff-a418-932c1ffddba0","system_id":"levelo_inurba_marseille","lat":43.324771,"lon":5.36557,"is_reserved":false,"is_disabled":false,"rental_uris":{"android":"levelo://app?vid=4d684ea6-19f4-4bff-a418-932c1ffddba0","ios":"levelo://app?vid=4d684ea6-19f4-4bff-a418-932c1ffddba0"},"vehicle_type_id":"4","last_reported":1725124008,"current_range_meters":23600,"station_id":"ce4bhs12rcd13ifvqhvg","pricing_plan_id":"cebpf4jnsgd1na2vs0mg"},{"bike_id":"7999ac86-1e24-45aa-9d87-5ee59d9ae7b2","system_id":"levelo_inurba_marseille","lat":43.324771,"lon":5.36557,"is_reserved":false,"is_disabled":false,"rental_uris":{"android":"levelo://app?vid=7999ac86-1e24-45aa-9d87-5ee59d9ae7b2","ios":"levelo://app?vid=7999ac86-1e24-45aa-9d87-5ee59d9ae7b2"},"vehicle_type_id":"4","last_reported":1725124008,"current_range_meters":21200,"station_id":"ce4bhs12rcd13ifvqhvg","pricing_plan_id":"cebpf4jnsgd1na2vs0mg"},{"bike_id":"d20cdff8-55d0-4d2f-a182-7a6b0000141b","system_id":"levelo_inurba_marseille","lat":43.324771,"lon":5.36557,"is_reserved":false,"is_disabled":false,"rental_uris":{"android":"levelo://app?vid=d20cdff8-55d0-4d2f-a182-7a6b0000141b","ios":"levelo://app?vid=d20cdff8-55d0-4d2f-a182-7a6b0000141b"},"vehicle_type_id":"4","last_reported":1725124008,"current_range_meters":13200,"station_id":"ce4bhs12rcd13ifvqhvg","pricing_plan_id":"cebpf4jnsgd1na2vs0mg"},{"bike_id":"d0de59c2-395e-4064-a9eb-ae9d49ff8698","system_id":"levelo_inurba_marseille","lat":43.32479,"lon":5.36565,"is_reserved":false,"is_disabled":false,"rental_uris":{"android":"levelo://app?vid=d0de59c2-395e-4064-a9eb-ae9d49ff8698","ios":"levelo://app?vid=d0de59c2-395e-4064-a9eb-ae9d49ff8698"},"vehicle_type_id":"4","last_reported":1725124008,"current_range_meters":0,"station_id":"ce4bhs12rcd13ifvqhvg","pricing_plan_id":"cebpf4jnsgd1na2vs0mg"},{"bike_id":"7316d8aa-3560-46c9-aa52-4736756a88ae","system_id":"levelo_inurba_marseille","lat":43.3248,"lon":5.3657,"is_reserved":false,"is_disabled":false,"rental_uris":{"android":"levelo://app?vid=7316d8aa-3560-46c9-aa52-4736756a88ae","ios":"levelo://app?vid=7316d8aa-3560-46c9-aa52-4736756a88ae"},"vehicle_type_id":"4","last_reported":1725124008,"current_range_meters":16400,"station_id":"ce4bhs12rcd13ifvqhvg","pricing_plan_id":"cebpf4jnsgd1na2vs0mg"},{"bike_id":"8dcbdef2-7c38-444f-a4d7-d401e5d95ee5","system_id":"levelo_inurba_marseille","lat":43.324771,"lon":5.36557,"is_reserved":false,"is_disabled":false,"rental_uris":{"android":"levelo://app?vid=8dcbdef2-7c38-444f-a4d7-d401e5d95ee5","ios":"levelo://app?vid=8dcbdef2-7c38-444f-a4d7-d401e5d95ee5"},"vehicle_type_id":"4","last_reported":1725124008,"current_range_meters":22400,"station_id":"ce4bhs12rcd13ifvqhvg","pricing_plan_id":"cebpf4jnsgd1na2vs0mg"},{"bike_id":"b8150eca-b72d-414c-872c-f631a202c6c6","system_id":"levelo_inurba_marseille","lat":43.324771,"lon":5.36557,"is_reserved":false,"is_disabled":false,"rental_uris":{"android":"levelo://app?vid=b8150eca-b72d-414c-872c-f631a202c6c6","ios":"levelo://app?vid=b8150eca-b72d-414c-872c-f631a202c6c6"},"vehicle_type_id":"4","last_reported":1725124008,"current_range_meters":31600,"station_id":"ce4bhs12rcd13ifvqhvg","pricing_plan_id":"cebpf4jnsgd1na2vs0mg"},{"bike_id":"d21bc836-f56d-4258-b042-a1ad302300e1","system_id":"levelo_inurba_marseille","lat":43.32482,"lon":5.36559,"is_reserved":false,"is_disabled":false,"rental_uris":{"android":"levelo://app?vid=d21bc836-f56d-4258-b042-a1ad302300e1","ios":"levelo://app?vid=d21bc836-f56d-4258-b042-a1ad302300e1"},"vehicle_type_id":"4","last_reported":1725124008,"current_range_meters":30400,"station_id":"ce4bhs12rcd13ifvqhvg","pricing_plan_id":"cebpf4jnsgd1na2vs0mg"},{"bike_id":"2c92ba21-ba11-4933-99a3-45c5a027f2bc","system_id":"levelo_inurba_marseille","lat":43.32483,"lon":5.36565,"is_reserved":false,"is_disabled":false,"rental_uris":{"android":"levelo://app?vid=2c92ba21-ba11-4933-99a3-45c5a027f2bc","ios":"levelo://app?vid=2c92ba21-ba11-4933-99a3-45c5a027f2bc"},"vehicle_type_id":"4","last_reported":1725124008,"current_range_meters":20000,"station_id":"ce4bhs12rcd13ifvqhvg","pricing_plan_id":"cebpf4jnsgd1na2vs0mg"},{"bike_id":"57910b69-e270-45c5-93ac-f946ad251310","system_id":"levelo_inurba_marseille","lat":43.32484,"lon":5.36568,"is_reserved":false,"is_disabled":false,"rental_uris":{"android":"levelo://app?vid=57910b69-e270-45c5-93ac-f946ad251310","ios":"levelo://app?vid=57910b69-e270-45c5-93ac-f946ad251310"},"vehicle_type_id":"4","last_reported":1725124008,"current_range_meters":12000,"station_id":"ce4bhs12rcd13ifvqhvg","pricing_plan_id":"cebpf4jnsgd1na2vs0mg"},{"bike_id":"62b9804a-9905-4d0e-9b27-b7d48b145d37","system_id":"levelo_inurba_marseille","lat":43.32485,"lon":5.3656,"is_reserved":false,"is_disabled":false,"rental_uris":{"android":"levelo://app?vid=62b9804a-9905-4d0e-9b27-b7d48b145d37","ios":"levelo://app?vid=62b9804a-9905-4d0e-9b27-b7d48b145d37"},"vehicle_type_id":"4","last_reported":1725124008,"current_range_meters":800,"station_id":"ce4bhs12rcd13ifvqhvg","pricing_plan_id":"cebpf4jnsgd1na2vs0mg"},{"bike_id":"78a49b4e-6a90-4719-a2a8-5d7200793c90","system_id":"levelo_inurba_marseille","lat":43.324771,"lon":5.36557,"is_reserved":false,"is_disabled":false,"rental_uris":{"android":"levelo://app?vid=78a49b4e-6a90-4719-a2a8-5d7200793c90","ios":"levelo://app?vid=78a49b4e-6a90-4719-a2a8-5d7200793c90"},"vehicle_type_id":"4","last_reported":1725124008,"current_range_meters":10400,"station_id":"ce4bhs12rcd13ifvqhvg","pricing_plan_id":"cebpf4jnsgd1na2vs0mg"},{"bike_id":"24c50910-519d-489e-9549-82c141f0bc46","system_id":"levelo_inurba_marseille","lat":43.324771,"lon":5.36557,"is_reserved":false,"is_disabled":false,"rental_uris":{"android":"levelo://app?vid=24c50910-519d-489e-9549-82c141f0bc46","ios":"levelo://app?vid=24c50910-519d-489e-9549-82c141f0bc46"},"vehicle_type_id":"4","last_reported":1725124008,"current_range_meters":2000,"station_id":"ce4bhs12rcd13ifvqhvg","pricing_plan_id":"cebpf4jnsgd1na2vs0mg"},{"bike_id":"a2ff065d-55f9-4859-ab84-f5aacd396114","system_id":"levelo_inurba_marseille","lat":43.324869,"lon":5.365661,"is_reserved":false,"is_disabled":false,"rental_uris":{"android":"levelo://app?vid=a2ff065d-55f9-4859-ab84-f5aacd396114","ios":"levelo://app?vid=a2ff065d-55f9-4859-ab84-f5aacd396114"},"vehicle_type_id":"4","last_reported":1725124008,"current_range_meters":4400,"station_id":"ce4bhs12rcd13ifvqhvg","pricing_plan_id":"cebpf4jnsgd1na2vs0mg"},{"bike_id":"b46cb1c1-2124-4eb0-b5fc-61f447df6f7a","system_id":"levelo_inurba_marseille","lat":43.324771,"lon":5.36557,"is_reserved":false,"is_disabled":false,"rental_uris":{"android":"levelo://app?vid=b46cb1c1-2124-4eb0-b5fc-61f447df6f7a","ios":"levelo://app?vid=b46cb1c1-2124-4eb0-b5fc-61f447df6f7a"},"vehicle_type_id":"4","last_reported":1725124008,"current_range_meters":31200,"station_id":"ce4bhs12rcd13ifvqhvg","pricing_plan_id":"cebpf4jnsgd1na2vs0mg"},{"bike_id":"828bbfa5-a113-43df-b67a-eab797ff5c6c","system_id":"levelo_inurba_marseille","lat":43.302784,"lon":5.377158,"is_reserved":false,"is_disabled":false,"rental_uris":{"android":"levelo://app?vid=828bbfa5-a113-43df-b67a-eab797ff5c6c","ios":"levelo://app?vid=828bbfa5-a113-43df-b67a-eab797ff5c6c"},"vehicle_type_id":"4","last_reported":1725124008,"current_range_meters":0,"station_id":"ce4bguh2rcd13ifvqcj0","pricing_plan_id":"cebpf4jnsgd1na2vs0mg"},{"bike_id":"28cc59ad-bab4-4960-a778-d7155c35f63c","system_id":"levelo_inurba_marseille","lat":43.30143,"lon":5.37413,"is_reserved":false,"is_disabled":false,"rental_uris":{"android":"levelo://app?vid=28cc59ad-bab4-4960-a778-d7155c35f63c","ios":"levelo://app?vid=28cc59ad-bab4-4960-a778-d7155c35f63c"},"vehicle_type_id":"4","last_reported":1725124008,"current_range_meters":11200,"station_id":"ce4bgs92rcd13ifvqcc0","pricing_plan_id":"cebpf4jnsgd1na2vs0mg"},{"bike_id":"f0cdf1df-4db0-42aa-8d09-e344247db43e","system_id":"levelo_inurba_marseille","lat":43.301429,"lon":5.37413,"is_reserved":false,"is_disabled":false,"rental_uris":{"android":"levelo://app?vid=f0cdf1df-4db0-42aa-8d09-e344247db43e","ios":"levelo://app?vid=f0cdf1df-4db0-42aa-8d09-e344247db43e"},"vehicle_type_id":"4","last_reported":1725124008,"current_range_meters":16000,"station_id":"ce4bgs92rcd13ifvqcc0","pricing_plan_id":"cebpf4jnsgd1na2vs0mg"},{"bike_id":"6aa3597d-ad4e-4fcf-9a66-adfba81492cc","system_id":"levelo_inurba_marseille","lat":43.31984,"lon":5.38138,"is_reserved":false,"is_disabled":false,"rental_uris":{"android":"levelo://app?vid=6aa3597d-ad4e-4fcf-9a66-adfba81492cc","ios":"levelo://app?vid=6aa3597d-ad4e-4fcf-9a66-adfba81492cc"},"vehicle_type_id":"4","last_reported":1725124008,"current_range_meters":20400,"station_id":"ce4bhr12rcd13ifvqhpg","pricing_plan_id":"cebpf4jnsgd1na2vs0mg"},{"bike_id":"20c204af-6a2a-4f70-bf94-e11b9512266c","system_id":"levelo_inurba_marseille","lat":43.319935,"lon":5.381699,"is_reserved":false,"is_disabled":false,"rental_uris":{"android":"levelo://app?vid=20c204af-6a2a-4f70-bf94-e11b9512266c","ios":"levelo://app?vid=20c204af-6a2a-4f70-bf94-e11b9512266c"},"vehicle_type_id":"4","last_reported":1725124008,"current_range_meters":11600,"station_id":"ce4bhr12rcd13ifvqhpg","pricing_plan_id":"cebpf4jnsgd1na2vs0mg"},{"bike_id":"b7986f24-e2d9-4e3b-8dde-81b2f3450cec","system_id":"levelo_inurba_marseille","lat":43.299724,"lon":5.371829,"is_reserved":false,"is_disabled":false,"rental_uris":{"android":"levelo://app?vid=b7986f24-e2d9-4e3b-8dde-81b2f3450cec","ios":"levelo://app?vid=b7986f24-e2d9-4e3b-8dde-81b2f3450cec"},"vehicle_type_id":"4","last_reported":1725124008,"current_range_meters":29600,"station_id":"ce4bgr92rcd13ifvqc7g","pricing_plan_id":"cebpf4jnsgd1na2vs0mg"},{"bike_id":"8a47ffa7-fa9f-4c3e-9af7-7f2d2f7b3350","system_id":"levelo_inurba_marseille","lat":43.305385,"lon":5.38434,"is_reserved":false,"is_disabled":false,"rental_uris":{"android":"levelo://app?vid=8a47ffa7-fa9f-4c3e-9af7-7f2d2f7b3350","ios":"levelo://app?vid=8a47ffa7-fa9f-4c3e-9af7-7f2d2f7b3350"},"vehicle_type_id":"4","last_reported":1725124008,"current_range_meters":0,"station_id":"ce4bgg92rcd13ifvqb30","pricing_plan_id":"cebpf4jnsgd1na2vs0mg"},{"bike_id":"a9b94a00-232d-4fcd-995a-02177e339724","system_id":"levelo_inurba_marseille","lat":43.311722,"lon":5.387247,"is_reserved":false,"is_disabled":false,"rental_uris":{"android":"levelo://app?vid=a9b94a00-232d-4fcd-995a-02177e339724","ios":"levelo://app?vid=a9b94a00-232d-4fcd-995a-02177e339724"},"vehicle_type_id":"4","last_reported":1725124008,"current_range_meters":12000,"station_id":"ce4bgv12rcd13ifvqcp0","pricing_plan_id":"cebpf4jnsgd1na2vs0mg"},{"bike_id":"97ee9472-370a-4cae-a972-217428090040","system_id":"levelo_inurba_marseille","lat":43.311722,"lon":5.387247,"is_reserved":false,"is_disabled":false,"rental_uris":{"android":"levelo://app?vid=97ee9472-370a-4cae-a972-217428090040","ios":"levelo://app?vid=97ee9472-370a-4cae-a972-217428090040"},"vehicle_type_id":"4","last_reported":1725124008,"current_range_meters":400,"station_id":"ce4bgv12rcd13ifvqcp0","pricing_plan_id":"cebpf4jnsgd1na2vs0mg"},{"bike_id":"033f1f41-0ebf-41fd-8ca0-2e8bb15742d7","system_id":"levelo_inurba_marseille","lat":43.297774,"lon":5.370875,"is_reserved":false,"is_disabled":false,"rental_uris":{"android":"levelo://app?vid=033f1f41-0ebf-41fd-8ca0-2e8bb15742d7","ios":"levelo://app?vid=033f1f41-0ebf-41fd-8ca0-2e8bb15742d7"},"vehicle_type_id":"4","last_reported":1725124008,"current_range_meters":0,"station_id":"ce4bgop2rcd13ifvqc1g","pricing_plan_id":"cebpf4jnsgd1na2vs0mg"},{"bike_id":"dd9555e4-89ce-4446-85d2-3c468cfaee24","system_id":"levelo_inurba_marseille","lat":43.30148,"lon":5.38098,"is_reserved":false,"is_disabled":false,"rental_uris":{"android":"levelo://app?vid=dd9555e4-89ce-4446-85d2-3c468cfaee24","ios":"levelo://app?vid=dd9555e4-89ce-4446-85d2-3c468cfaee24"},"vehicle_type_id":"4","last_reported":1725124008,"current_range_meters":27600,"station_id":"ce4bgjp2rcd13ifvqbh0","pricing_plan_id":"cebpf4jnsgd1na2vs0mg"},{"bike_id":"60ff3900-1cd1-4527-ae10-64555afa6b11","system_id":"levelo_inurba_marseille","lat":43.32294,"lon":5.3825,"is_reserved":false,"is_disabled":false,"rental_uris":{"android":"levelo://app?vid=60ff3900-1cd1-4527-ae10-64555afa6b11","ios":"levelo://app?vid=60ff3900-1cd1-4527-ae10-64555afa6b11"},"vehicle_type_id":"4","last_reported":1725124008,"current_range_meters":19200,"station_id":"ce4bhr12rcd13ifvqhqg","pricing_plan_id":"cebpf4jnsgd1na2vs0mg"},{"bike_id":"422375fe-daf4-4463-be5e-d4b85a15952a","system_id":"levelo_inurba_marseille","lat":43.322872,"lon":5.382756,"is_reserved":false,"is_disabled":false,"rental_uris":{"android":"levelo://app?vid=422375fe-daf4-4463-be5e-d4b85a15952a","ios":"levelo://app?vid=422375fe-daf4-4463-be5e-d4b85a15952a"},"vehicle_type_id":"4","last_reported":1725124008,"current_range_meters":25600,"station_id":"ce4bhr12rcd13ifvqhqg","pricing_plan_id":"cebpf4jnsgd1na2vs0mg"},{"bike_id":"3514ab00-a0c9-44d6-b8e0-fc2b56f435df","system_id":"levelo_inurba_marseille","lat":43.297794,"lon":5.370888,"is_reserved":false,"is_disabled":false,"rental_uris":{"android":"levelo://app?vid=3514ab00-a0c9-44d6-b8e0-fc2b56f435df","ios":"levelo://app?vid=3514ab00-a0c9-44d6-b8e0-fc2b56f435df"},"vehicle_type_id":"4","last_reported":1725124008,"current_range_meters":17600,"station_id":"ce4bgop2rcd13ifvqc1g","pricing_plan_id":"cebpf4jnsgd1na2vs0mg"},{"bike_id":"662857d7-8cea-464c-95e8-4991dacc88dc","system_id":"levelo_inurba_marseille","lat":43.322872,"lon":5.382756,"is_reserved":false,"is_disabled":false,"rental_uris":{"android":"levelo://app?vid=662857d7-8cea-464c-95e8-4991dacc88dc","ios":"levelo://app?vid=662857d7-8cea-464c-95e8-4991dacc88dc"},"vehicle_type_id":"4","last_reported":1725124008,"current_range_meters":8800,"station_id":"ce4bhr12rcd13ifvqhqg","pricing_plan_id":"cebpf4jnsgd1na2vs0mg"},{"bike_id":"d6c964cf-0b5a-4d9b-b993-ee10857ed129","system_id":"levelo_inurba_marseille","lat":43.297794,"lon":5.370888,"is_reserved":false,"is_disabled":false,"rental_uris":{"android":"levelo://app?vid=d6c964cf-0b5a-4d9b-b993-ee10857ed129","ios":"levelo://app?vid=d6c964cf-0b5a-4d9b-b993-ee10857ed129"},"vehicle_type_id":"4","last_reported":1725124008,"current_range_meters":29600,"station_id":"ce4bgop2rcd13ifvqc1g","pricing_plan_id":"cebpf4jnsgd1na2vs0mg"},{"bike_id":"6f89e930-88bc-44fd-a6fc-f7e56b17e1f8","system_id":"levelo_inurba_marseille","lat":43.297774,"lon":5.370875,"is_reserved":false,"is_disabled":false,"rental_uris":{"android":"levelo://app?vid=6f89e930-88bc-44fd-a6fc-f7e56b17e1f8","ios":"levelo://app?vid=6f89e930-88bc-44fd-a6fc-f7e56b17e1f8"},"vehicle_type_id":"4","last_reported":1725124008,"current_range_meters":30000,"station_id":"ce4bgop2rcd13ifvqc1g","pricing_plan_id":"cebpf4jnsgd1na2vs0mg"},{"bike_id":"affe9a07-c79c-4218-a73e-e990c361a62a","system_id":"levelo_inurba_marseille","lat":43.297401,"lon":5.368969,"is_reserved":false,"is_disabled":false,"rental_uris":{"android":"levelo://app?vid=affe9a07-c79c-4218-a73e-e990c361a62a","ios":"levelo://app?vid=affe9a07-c79c-4218-a73e-e990c361a62a"},"vehicle_type_id":"4","last_reported":1725124008,"current_range_meters":7600,"station_id":"","pricing_plan_id":"cebpf4jnsgd1na2vs0mg"},{"bike_id":"f80cfea7-0989-463e-af6c-8edcb451d63a","system_id":"levelo_inurba_marseille","lat":43.297771,"lon":5.372146,"is_reserved":false,"is_disabled":false,"rental_uris":{"android":"levelo://app?vid=f80cfea7-0989-463e-af6c-8edcb451d63a","ios":"levelo://app?vid=f80cfea7-0989-463e-af6c-8edcb451d63a"},"vehicle_type_id":"4","last_reported":1725124008,"current_range_meters":8400,"station_id":"","pricing_plan_id":"cebpf4jnsgd1na2vs0mg"},{"bike_id":"e8836088-0150-4ce2-b8ff-11588d14fa23","system_id":"levelo_inurba_marseille","lat":43.297163,"lon":5.365866,"is_reserved":false,"is_disabled":false,"rental_uris":{"android":"levelo://app?vid=e8836088-0150-4ce2-b8ff-11588d14fa23","ios":"levelo://app?vid=e8836088-0150-4ce2-b8ff-11588d14fa23"},"vehicle_type_id":"4","last_reported":1725124008,"current_range_meters":4000,"station_id":"ce4bgn12rcd13ifvqbt0","pricing_plan_id":"cebpf4jnsgd1na2vs0mg"},{"bike_id":"796b4150-4f85-493a-8e48-36cba07cce59","system_id":"levelo_inurba_marseille","lat":43.29846,"lon":5.37664,"is_reserved":false,"is_disabled":false,"rental_uris":{"android":"levelo://app?vid=796b4150-4f85-493a-8e48-36cba07cce59","ios":"levelo://app?vid=796b4150-4f85-493a-8e48-36cba07cce59"},"vehicle_type_id":"4","last_reported":1725124008,"current_range_meters":23200,"station_id":"","pricing_plan_id":"cebpf4jnsgd1na2vs0mg"},{"bike_id":"4d5a609b-f71e-4cf7-a10c-340777b9fd7a","system_id":"levelo_inurba_marseille","lat":43.2968,"lon":5.37291,"is_reserved":false,"is_disabled":false,"rental_uris":{"android":"levelo://app?vid=4d5a609b-f71e-4cf7-a10c-340777b9fd7a","ios":"levelo://app?vid=4d5a609b-f71e-4cf7-a10c-340777b9fd7a"},"vehicle_type_id":"4","last_reported":1725124008,"current_range_meters":6400,"station_id":"ce4bgk12rcd13ifvqbj0","pricing_plan_id":"cebpf4jnsgd1na2vs0mg"},{"bike_id":"8a8887de-5c7d-4b1c-91b2-78e9c920b48d","system_id":"levelo_inurba_marseille","lat":43.29677,"lon":5.37276,"is_reserved":false,"is_disabled":false,"rental_uris":{"android":"levelo://app?vid=8a8887de-5c7d-4b1c-91b2-78e9c920b48d","ios":"levelo://app?vid=8a8887de-5c7d-4b1c-91b2-78e9c920b48d"},"vehicle_type_id":"4","last_reported":1725124008,"current_range_meters":31200,"station_id":"ce4bgk12rcd13ifvqbj0","pricing_plan_id":"cebpf4jnsgd1na2vs0mg"},{"bike_id":"71e8553a-e409-41fd-bb14-0a85ca7235f2","system_id":"levelo_inurba_marseille","lat":43.3034,"lon":5.38607,"is_reserved":false,"is_disabled":false,"rental_uris":{"android":"levelo://app?vid=71e8553a-e409-41fd-bb14-0a85ca7235f2","ios":"levelo://app?vid=71e8553a-e409-41fd-bb14-0a85ca7235f2"},"vehicle_type_id":"4","last_reported":1725124008,"current_range_meters":8800,"station_id":"","pricing_plan_id":"cebpf4jnsgd1na2vs0mg"},{"bike_id":"2f82c374-66ce-4122-b24d-3a71216c055f","system_id":"levelo_inurba_marseille","lat":43.296131,"lon":5.370773,"is_reserved":false,"is_disabled":false,"rental_uris":{"android":"levelo://app?vid=2f82c374-66ce-4122-b24d-3a71216c055f","ios":"levelo://app?vid=2f82c374-66ce-4122-b24d-3a71216c055f"},"vehicle_type_id":"4","last_reported":1725124008,"current_range_meters":29200,"station_id":"ce4bgnh2rcd13ifvqc0g","pricing_plan_id":"cebpf4jnsgd1na2vs0mg"},{"bike_id":"16f86795-df61-41d0-8ad6-3d0d649e7f8e","system_id":"levelo_inurba_marseille","lat":43.296131,"lon":5.370791,"is_reserved":false,"is_disabled":false,"rental_uris":{"android":"levelo://app?vid=16f86795-df61-41d0-8ad6-3d0d649e7f8e","ios":"levelo://app?vid=16f86795-df61-41d0-8ad6-3d0d649e7f8e"},"vehicle_type_id":"4","last_reported":1725124008,"current_range_meters":14800,"station_id":"ce4bgnh2rcd13ifvqc0g","pricing_plan_id":"cebpf4jnsgd1na2vs0mg"},{"bike_id":"c9371805-5993-49b2-a9d3-d1af2b21e1f6","system_id":"levelo_inurba_marseille","lat":43.296131,"lon":5.370773,"is_reserved":false,"is_disabled":false,"rental_uris":{"android":"levelo://app?vid=c9371805-5993-49b2-a9d3-d1af2b21e1f6","ios":"levelo://app?vid=c9371805-5993-49b2-a9d3-d1af2b21e1f6"},"vehicle_type_id":"4","last_reported":1725124008,"current_range_meters":13200,"station_id":"ce4bgnh2rcd13ifvqc0g","pricing_plan_id":"cebpf4jnsgd1na2vs0mg"},{"bike_id":"88982ff4-fe30-41a0-a4fe-0160b085eefe","system_id":"levelo_inurba_marseille","lat":43.29573,"lon":5.367355,"is_reserved":false,"is_disabled":false,"rental_uris":{"android":"levelo://app?vid=88982ff4-fe30-41a0-a4fe-0160b085eefe","ios":"levelo://app?vid=88982ff4-fe30-41a0-a4fe-0160b085eefe"},"vehicle_type_id":"4","last_reported":1725124008,"current_range_meters":20400,"station_id":"ce4bgph2rcd13ifvqc2g","pricing_plan_id":"cebpf4jnsgd1na2vs0mg"},{"bike_id":"00b18fce-788f-430b-b55b-d4988b35ecff","system_id":"levelo_inurba_marseille","lat":43.29573,"lon":5.367355,"is_reserved":false,"is_disabled":false,"rental_uris":{"android":"levelo://app?vid=00b18fce-788f-430b-b55b-d4988b35ecff","ios":"levelo://app?vid=00b18fce-788f-430b-b55b-d4988b35ecff"},"vehicle_type_id":"4","last_reported":1725124008,"current_range_meters":26800,"station_id":"ce4bgph2rcd13ifvqc2g","pricing_plan_id":"cebpf4jnsgd1na2vs0mg"},{"bike_id":"f17df4bb-cfa7-4326-81e4-fe25f908bc83","system_id":"levelo_inurba_marseille","lat":43.299028,"lon":5.381509,"is_reserved":false,"is_disabled":false,"rental_uris":{"android":"levelo://app?vid=f17df4bb-cfa7-4326-81e4-fe25f908bc83","ios":"levelo://app?vid=f17df4bb-cfa7-4326-81e4-fe25f908bc83"},"vehicle_type_id":"4","last_reported":1725124008,"current_range_meters":3200,"station_id":"ce4bgj12rcd13ifvqbc0","pricing_plan_id":"cebpf4jnsgd1na2vs0mg"},{"bike_id":"9d3946f7-8526-4fd3-86b0-221d15084098","system_id":"levelo_inurba_marseille","lat":43.309589,"lon":5.390258,"is_reserved":false,"is_disabled":false,"rental_uris":{"android":"levelo://app?vid=9d3946f7-8526-4fd3-86b0-221d15084098","ios":"levelo://app?vid=9d3946f7-8526-4fd3-86b0-221d15084098"},"vehicle_type_id":"4","last_reported":1725124008,"current_range_meters":27200,"station_id":"ce4bgup2rcd13ifvqco0","pricing_plan_id":"cebpf4jnsgd1na2vs0mg"},{"bike_id":"18af165c-d592-40c4-81c9-b7caa8b8a5c3","system_id":"levelo_inurba_marseille","lat":43.299028,"lon":5.381509,"is_reserved":false,"is_disabled":false,"rental_uris":{"android":"levelo://app?vid=18af165c-d592-40c4-81c9-b7caa8b8a5c3","ios":"levelo://app?vid=18af165c-d592-40c4-81c9-b7caa8b8a5c3"},"vehicle_type_id":"4","last_reported":1725124008,"current_range_meters":5600,"station_id":"ce4bgj12rcd13ifvqbc0","pricing_plan_id":"cebpf4jnsgd1na2vs0mg"},{"bike_id":"f85a9055-f961-4f57-ba59-8e83336b4a92","system_id":"levelo_inurba_marseille","lat":43.309589,"lon":5.390258,"is_reserved":false,"is_disabled":false,"rental_uris":{"android":"levelo://app?vid=f85a9055-f961-4f57-ba59-8e83336b4a92","ios":"levelo://app?vid=f85a9055-f961-4f57-ba59-8e83336b4a92"},"vehicle_type_id":"4","last_reported":1725124008,"current_range_meters":0,"station_id":"ce4bgup2rcd13ifvqco0","pricing_plan_id":"cebpf4jnsgd1na2vs0mg"},{"bike_id":"87174c95-2d46-4c46-a874-ef7907988e7c","system_id":"levelo_inurba_marseille","lat":43.309589,"lon":5.390258,"is_reserved":false,"is_disabled":false,"rental_uris":{"android":"levelo://app?vid=87174c95-2d46-4c46-a874-ef7907988e7c","ios":"levelo://app?vid=87174c95-2d46-4c46-a874-ef7907988e7c"},"vehicle_type_id":"4","last_reported":1725124008,"current_range_meters":0,"station_id":"ce4bgup2rcd13ifvqco0","pricing_plan_id":"cebpf4jnsgd1na2vs0mg"},{"bike_id":"2c793f8c-2e09-4149-a490-9dbdebe121f6","system_id":"levelo_inurba_marseille","lat":43.31757,"lon":5.39017,"is_reserved":false,"is_disabled":false,"rental_uris":{"android":"levelo://app?vid=2c793f8c-2e09-4149-a490-9dbdebe121f6","ios":"levelo://app?vid=2c793f8c-2e09-4149-a490-9dbdebe121f6"},"vehicle_type_id":"4","last_reported":1725124008,"current_range_meters":0,"station_id":"ce4bhqp2rcd13ifvqhng","pricing_plan_id":"cebpf4jnsgd1na2vs0mg"},{"bike_id":"3488f962-ba26-4ce9-8e96-a86c3d8bc2dc","system_id":"levelo_inurba_marseille","lat":43.295748,"lon":5.37522,"is_reserved":false,"is_disabled":false,"rental_uris":{"android":"levelo://app?vid=3488f962-ba26-4ce9-8e96-a86c3d8bc2dc","ios":"levelo://app?vid=3488f962-ba26-4ce9-8e96-a86c3d8bc2dc"},"vehicle_type_id":"4","last_reported":1725124008,"current_range_meters":2800,"station_id":"ce4bgh92rcd13ifvqb50","pricing_plan_id":"cebpf4jnsgd1na2vs0mg"},{"bike_id":"cb9d8f34-3935-4da6-9031-dbd92699ecd4","system_id":"levelo_inurba_marseille","lat":43.295748,"lon":5.37522,"is_reserved":false,"is_disabled":false,"rental_uris":{"android":"levelo://app?vid=cb9d8f34-3935-4da6-9031-dbd92699ecd4","ios":"levelo://app?vid=cb9d8f34-3935-4da6-9031-dbd92699ecd4"},"vehicle_type_id":"4","last_reported":1725124008,"current_range_meters":4000,"station_id":"ce4bgh92rcd13ifvqb50","pricing_plan_id":"cebpf4jnsgd1na2vs0mg"},{"bike_id":"0d693e32-20d6-41ef-ab4b-590ca9838367","system_id":"levelo_inurba_marseille","lat":43.304278,"lon":5.388868,"is_reserved":false,"is_disabled":false,"rental_uris":{"android":"levelo://app?vid=0d693e32-20d6-41ef-ab4b-590ca9838367","ios":"levelo://app?vid=0d693e32-20d6-41ef-ab4b-590ca9838367"},"vehicle_type_id":"4","last_reported":1725124008,"current_range_meters":19200,"station_id":"ce4bgk12rcd13ifvqbi0","pricing_plan_id":"cebpf4jnsgd1na2vs0mg"},{"bike_id":"2db0e767-3547-48c7-9db3-b1e94725360f","system_id":"levelo_inurba_marseille","lat":43.296277,"lon":5.377108,"is_reserved":false,"is_disabled":false,"rental_uris":{"android":"levelo://app?vid=2db0e767-3547-48c7-9db3-b1e94725360f","ios":"levelo://app?vid=2db0e767-3547-48c7-9db3-b1e94725360f"},"vehicle_type_id":"4","last_reported":1725124008,"current_range_meters":0,"station_id":"ce4bgi92rcd13ifvqb90","pricing_plan_id":"cebpf4jnsgd1na2vs0mg"},{"bike_id":"ab92032e-44e9-4383-add3-afc481f7ef6e","system_id":"levelo_inurba_marseille","lat":43.29572,"lon":5.37559,"is_reserved":false,"is_disabled":false,"rental_uris":{"android":"levelo://app?vid=ab92032e-44e9-4383-add3-afc481f7ef6e","ios":"levelo://app?vid=ab92032e-44e9-4383-add3-afc481f7ef6e"},"vehicle_type_id":"4","last_reported":1725124008,"current_range_meters":11200,"station_id":"","pricing_plan_id":"cebpf4jnsgd1na2vs0mg"},{"bike_id":"b773592c-6d9b-4d3e-a929-9c7938ef910f","system_id":"levelo_inurba_marseille","lat":43.296263,"lon":5.377094,"is_reserved":false,"is_disabled":false,"rental_uris":{"android":"levelo://app?vid=b773592c-6d9b-4d3e-a929-9c7938ef910f","ios":"levelo://app?vid=b773592c-6d9b-4d3e-a929-9c7938ef910f"},"vehicle_type_id":"4","last_reported":1725124008,"current_range_meters":0,"station_id":"ce4bgi92rcd13ifvqb90","pricing_plan_id":"cebpf4jnsgd1na2vs0mg"},{"bike_id":"b2581c4c-416d-431f-b7c2-a549d65dfdba","system_id":"levelo_inurba_marseille","lat":43.296263,"lon":5.377094,"is_reserved":false,"is_disabled":false,"rental_uris":{"android":"levelo://app?vid=b2581c4c-416d-431f-b7c2-a549d65dfdba","ios":"levelo://app?vid=b2581c4c-416d-431f-b7c2-a549d65dfdba"},"vehicle_type_id":"4","last_reported":1725124008,"current_range_meters":0,"station_id":"ce4bgi92rcd13ifvqb90","pricing_plan_id":"cebpf4jnsgd1na2vs0mg"},{"bike_id":"eeb9aa56-cb00-4f7a-8ec5-56ebe215e2a5","system_id":"levelo_inurba_marseille","lat":43.29737,"lon":5.3807,"is_reserved":false,"is_disabled":false,"rental_uris":{"android":"levelo://app?vid=eeb9aa56-cb00-4f7a-8ec5-56ebe215e2a5","ios":"levelo://app?vid=eeb9aa56-cb00-4f7a-8ec5-56ebe215e2a5"},"vehicle_type_id":"4","last_reported":1725124008,"current_range_meters":14000,"station_id":"","pricing_plan_id":"cebpf4jnsgd1na2vs0mg"},{"bike_id":"b387a0e3-313b-4f86-807a-3b8cb50ab914","system_id":"levelo_inurba_marseille","lat":43.295279,"lon":5.375048,"is_reserved":false,"is_disabled":false,"rental_uris":{"android":"levelo://app?vid=b387a0e3-313b-4f86-807a-3b8cb50ab914","ios":"levelo://app?vid=b387a0e3-313b-4f86-807a-3b8cb50ab914"},"vehicle_type_id":"4","last_reported":1725124008,"current_range_meters":1600,"station_id":"ce4bgkp2rcd13ifvqbmg","pricing_plan_id":"cebpf4jnsgd1na2vs0mg"},{"bike_id":"6bb7518f-28f9-476b-87e7-fce704f66895","system_id":"levelo_inurba_marseille","lat":43.299717,"lon":5.384845,"is_reserved":false,"is_disabled":false,"rental_uris":{"android":"levelo://app?vid=6bb7518f-28f9-476b-87e7-fce704f66895","ios":"levelo://app?vid=6bb7518f-28f9-476b-87e7-fce704f66895"},"vehicle_type_id":"4","last_reported":1725124008,"current_range_meters":0,"station_id":"ce4bgj92rcd13ifvqbd0","pricing_plan_id":"cebpf4jnsgd1na2vs0mg"},{"bike_id":"122131ba-2ec3-4003-9f87-636fc4bb4bc6","system_id":"levelo_inurba_marseille","lat":43.299717,"lon":5.384845,"is_reserved":false,"is_disabled":false,"rental_uris":{"android":"levelo://app?vid=122131ba-2ec3-4003-9f87-636fc4bb4bc6","ios":"levelo://app?vid=122131ba-2ec3-4003-9f87-636fc4bb4bc6"},"vehicle_type_id":"4","last_reported":1725124008,"current_range_meters":28000,"station_id":"ce4bgj92rcd13ifvqbd0","pricing_plan_id":"cebpf4jnsgd1na2vs0mg"},{"bike_id":"adddf436-1091-4da7-913a-41165f51b5a0","system_id":"levelo_inurba_marseille","lat":43.29966,"lon":5.38495,"is_reserved":false,"is_disabled":false,"rental_uris":{"android":"levelo://app?vid=adddf436-1091-4da7-913a-41165f51b5a0","ios":"levelo://app?vid=adddf436-1091-4da7-913a-41165f51b5a0"},"vehicle_type_id":"4","last_reported":1725124008,"current_range_meters":27200,"station_id":"ce4bgj92rcd13ifvqbd0","pricing_plan_id":"cebpf4jnsgd1na2vs0mg"},{"bike_id":"11853fa7-b63f-458c-85a9-d4c477719ade","system_id":"levelo_inurba_marseille","lat":43.29959,"lon":5.38504,"is_reserved":false,"is_disabled":false,"rental_uris":{"android":"levelo://app?vid=11853fa7-b63f-458c-85a9-d4c477719ade","ios":"levelo://app?vid=11853fa7-b63f-458c-85a9-d4c477719ade"},"vehicle_type_id":"4","last_reported":1725124008,"current_range_meters":0,"station_id":"ce4bgj92rcd13ifvqbd0","pricing_plan_id":"cebpf4jnsgd1na2vs0mg"},{"bike_id":"0abe9e4f-1f06-44e2-aa4d-45485da716a4","system_id":"levelo_inurba_marseille","lat":43.311741,"lon":5.393421,"is_reserved":false,"is_disabled":false,"rental_uris":{"android":"levelo://app?vid=0abe9e4f-1f06-44e2-aa4d-45485da716a4","ios":"levelo://app?vid=0abe9e4f-1f06-44e2-aa4d-45485da716a4"},"vehicle_type_id":"4","last_reported":1725124008,"current_range_meters":13600,"station_id":"","pricing_plan_id":"cebpf4jnsgd1na2vs0mg"},{"bike_id":"894c7fa0-82f6-494e-92b8-0e23ad88f954","system_id":"levelo_inurba_marseille","lat":43.32367,"lon":5.388836,"is_reserved":false,"is_disabled":false,"rental_uris":{"android":"levelo://app?vid=894c7fa0-82f6-494e-92b8-0e23ad88f954","ios":"levelo://app?vid=894c7fa0-82f6-494e-92b8-0e23ad88f954"},"vehicle_type_id":"4","last_reported":1725124008,"current_range_meters":0,"station_id":"ce4bhqp2rcd13ifvqhog","pricing_plan_id":"cebpf4jnsgd1na2vs0mg"},{"bike_id":"77846a02-7a36-4957-b745-8142b6fcbd1c","system_id":"levelo_inurba_marseille","lat":43.29294,"lon":5.36893,"is_reserved":false,"is_disabled":false,"rental_uris":{"android":"levelo://app?vid=77846a02-7a36-4957-b745-8142b6fcbd1c","ios":"levelo://app?vid=77846a02-7a36-4957-b745-8142b6fcbd1c"},"vehicle_type_id":"4","last_reported":1725124008,"current_range_meters":19600,"station_id":"","pricing_plan_id":"cebpf4jnsgd1na2vs0mg"},{"bike_id":"aa10f173-8ecb-4b4d-8d80-a0cc6e9bd59c","system_id":"levelo_inurba_marseille","lat":43.29308,"lon":5.37174,"is_reserved":false,"is_disabled":false,"rental_uris":{"android":"levelo://app?vid=aa10f173-8ecb-4b4d-8d80-a0cc6e9bd59c","ios":"levelo://app?vid=aa10f173-8ecb-4b4d-8d80-a0cc6e9bd59c"},"vehicle_type_id":"4","last_reported":1725124008,"current_range_meters":13200,"station_id":"ce4bgh92rcd13ifvqb40","pricing_plan_id":"cebpf4jnsgd1na2vs0mg"},{"bike_id":"b5521aaf-405c-41ec-a3ea-517e2b3b9bc0","system_id":"levelo_inurba_marseille","lat":43.29308,"lon":5.37175,"is_reserved":false,"is_disabled":false,"rental_uris":{"android":"levelo://app?vid=b5521aaf-405c-41ec-a3ea-517e2b3b9bc0","ios":"levelo://app?vid=b5521aaf-405c-41ec-a3ea-517e2b3b9bc0"},"vehicle_type_id":"4","last_reported":1725124008,"current_range_meters":25200,"station_id":"ce4bgh92rcd13ifvqb40","pricing_plan_id":"cebpf4jnsgd1na2vs0mg"},{"bike_id":"061cd0db-8f31-4ca0-9e6f-ed4e833e8843","system_id":"levelo_inurba_marseille","lat":43.29307,"lon":5.37178,"is_reserved":false,"is_disabled":false,"rental_uris":{"android":"levelo://app?vid=061cd0db-8f31-4ca0-9e6f-ed4e833e8843","ios":"levelo://app?vid=061cd0db-8f31-4ca0-9e6f-ed4e833e8843"},"vehicle_type_id":"4","last_reported":1725124008,"current_range_meters":10000,"station_id":"ce4bgh92rcd13ifvqb40","pricing_plan_id":"cebpf4jnsgd1na2vs0mg"},{"bike_id":"b9052f50-a0d3-41e5-b221-ccada7c56dc7","system_id":"levelo_inurba_marseille","lat":43.29306,"lon":5.37173,"is_reserved":false,"is_disabled":false,"rental_uris":{"android":"levelo://app?vid=b9052f50-a0d3-41e5-b221-ccada7c56dc7","ios":"levelo://app?vid=b9052f50-a0d3-41e5-b221-ccada7c56dc7"},"vehicle_type_id":"4","last_reported":1725124008,"current_range_meters":0,"station_id":"ce4bgh92rcd13ifvqb40","pricing_plan_id":"cebpf4jnsgd1na2vs0mg"},{"bike_id":"ceca52f0-c031-4a33-b7ed-56deb247beb7","system_id":"levelo_inurba_marseille","lat":43.29305,"lon":5.37178,"is_reserved":false,"is_disabled":false,"rental_uris":{"android":"levelo://app?vid=ceca52f0-c031-4a33-b7ed-56deb247beb7","ios":"levelo://app?vid=ceca52f0-c031-4a33-b7ed-56deb247beb7"},"vehicle_type_id":"4","last_reported":1725124008,"current_range_meters":0,"station_id":"ce4bgh92rcd13ifvqb40","pricing_plan_id":"cebpf4jnsgd1na2vs0mg"},{"bike_id":"d3e2d970-a7ac-4099-8357-85291ab81264","system_id":"levelo_inurba_marseille","lat":43.29271,"lon":5.3684,"is_reserved":false,"is_disabled":false,"rental_uris":{"android":"levelo://app?vid=d3e2d970-a7ac-4099-8357-85291ab81264","ios":"levelo://app?vid=d3e2d970-a7ac-4099-8357-85291ab81264"},"vehicle_type_id":"4","last_reported":1725124008,"current_range_meters":0,"station_id":"ce4bhbp2rcd13ifvqesg","pricing_plan_id":"cebpf4jnsgd1na2vs0mg"},{"bike_id":"cb3da654-207f-4237-8bea-0c285a51bef8","system_id":"levelo_inurba_marseille","lat":43.292749,"lon":5.368402,"is_reserved":false,"is_disabled":false,"rental_uris":{"android":"levelo://app?vid=cb3da654-207f-4237-8bea-0c285a51bef8","ios":"levelo://app?vid=cb3da654-207f-4237-8bea-0c285a51bef8"},"vehicle_type_id":"4","last_reported":1725124008,"current_range_meters":0,"station_id":"ce4bhbp2rcd13ifvqesg","pricing_plan_id":"cebpf4jnsgd1na2vs0mg"},{"bike_id":"9de37804-6f32-472b-8dcb-a7cc18152125","system_id":"levelo_inurba_marseille","lat":43.29239,"lon":5.36595,"is_reserved":false,"is_disabled":false,"rental_uris":{"android":"levelo://app?vid=9de37804-6f32-472b-8dcb-a7cc18152125","ios":"levelo://app?vid=9de37804-6f32-472b-8dcb-a7cc18152125"},"vehicle_type_id":"4","last_reported":1725124008,"current_range_meters":5600,"station_id":"","pricing_plan_id":"cebpf4jnsgd1na2vs0mg"},{"bike_id":"1ea844c3-4315-4d11-af72-cba418b6c2eb","system_id":"levelo_inurba_marseille","lat":43.305994,"lon":5.393687,"is_reserved":false,"is_disabled":false,"rental_uris":{"android":"levelo://app?vid=1ea844c3-4315-4d11-af72-cba418b6c2eb","ios":"levelo://app?vid=1ea844c3-4315-4d11-af72-cba418b6c2eb"},"vehicle_type_id":"4","last_reported":1725124008,"current_range_meters":29600,"station_id":"ce4bh0p2rcd13ifvqd80","pricing_plan_id":"cebpf4jnsgd1na2vs0mg"},{"bike_id":"a0c4950d-b2ce-4728-99d6-4814646991dc","system_id":"levelo_inurba_marseille","lat":43.29299,"lon":5.37458,"is_reserved":false,"is_disabled":false,"rental_uris":{"android":"levelo://app?vid=a0c4950d-b2ce-4728-99d6-4814646991dc","ios":"levelo://app?vid=a0c4950d-b2ce-4728-99d6-4814646991dc"},"vehicle_type_id":"4","last_reported":1725124008,"current_range_meters":0,"station_id":"ce4bgi12rcd13ifvqb70","pricing_plan_id":"cebpf4jnsgd1na2vs0mg"},{"bike_id":"2755e264-c20a-406c-9273-35a8fdb30cc8","system_id":"levelo_inurba_marseille","lat":43.293009,"lon":5.374584,"is_reserved":false,"is_disabled":false,"rental_uris":{"android":"levelo://app?vid=2755e264-c20a-406c-9273-35a8fdb30cc8","ios":"levelo://app?vid=2755e264-c20a-406c-9273-35a8fdb30cc8"},"vehicle_type_id":"4","last_reported":1725124008,"current_range_meters":12000,"station_id":"ce4bgi12rcd13ifvqb70","pricing_plan_id":"cebpf4jnsgd1na2vs0mg"},{"bike_id":"fc61d347-32fe-446f-aed6-d507751c882c","system_id":"levelo_inurba_marseille","lat":43.293009,"lon":5.374584,"is_reserved":false,"is_disabled":false,"rental_uris":{"android":"levelo://app?vid=fc61d347-32fe-446f-aed6-d507751c882c","ios":"levelo://app?vid=fc61d347-32fe-446f-aed6-d507751c882c"},"vehicle_type_id":"4","last_reported":1725124008,"current_range_meters":19600,"station_id":"ce4bgi12rcd13ifvqb70","pricing_plan_id":"cebpf4jnsgd1na2vs0mg"},{"bike_id":"2b459e60-b6c7-4127-b851-5de5e8688d4c","system_id":"levelo_inurba_marseille","lat":43.29227,"lon":5.36069,"is_reserved":false,"is_disabled":false,"rental_uris":{"android":"levelo://app?vid=2b459e60-b6c7-4127-b851-5de5e8688d4c","ios":"levelo://app?vid=2b459e60-b6c7-4127-b851-5de5e8688d4c"},"vehicle_type_id":"4","last_reported":1725124008,"current_range_meters":2400,"station_id":"ce4bhbh2rcd13ifvqeqg","pricing_plan_id":"cebpf4jnsgd1na2vs0mg"},{"bike_id":"b5bf78c8-38a5-4993-94db-f2891fefd9d3","system_id":"levelo_inurba_marseille","lat":43.29222,"lon":5.36076,"is_reserved":false,"is_disabled":false,"rental_uris":{"android":"levelo://app?vid=b5bf78c8-38a5-4993-94db-f2891fefd9d3","ios":"levelo://app?vid=b5bf78c8-38a5-4993-94db-f2891fefd9d3"},"vehicle_type_id":"4","last_reported":1725124008,"current_range_meters":0,"station_id":"ce4bhbh2rcd13ifvqeqg","pricing_plan_id":"cebpf4jnsgd1na2vs0mg"},{"bike_id":"4721d012-bfdd-40ed-aa93-11984e23c387","system_id":"levelo_inurba_marseille","lat":43.29222,"lon":5.36072,"is_reserved":false,"is_disabled":false,"rental_uris":{"android":"levelo://app?vid=4721d012-bfdd-40ed-aa93-11984e23c387","ios":"levelo://app?vid=4721d012-bfdd-40ed-aa93-11984e23c387"},"vehicle_type_id":"4","last_reported":1725124008,"current_range_meters":30800,"station_id":"ce4bhbh2rcd13ifvqeqg","pricing_plan_id":"cebpf4jnsgd1na2vs0mg"},{"bike_id":"058b2f06-77ed-4677-b4d4-6279b4224f7e","system_id":"levelo_inurba_marseille","lat":43.292311,"lon":5.360731,"is_reserved":false,"is_disabled":false,"rental_uris":{"android":"levelo://app?vid=058b2f06-77ed-4677-b4d4-6279b4224f7e","ios":"levelo://app?vid=058b2f06-77ed-4677-b4d4-6279b4224f7e"},"vehicle_type_id":"4","last_reported":1725124008,"current_range_meters":25200,"station_id":"ce4bhbh2rcd13ifvqeqg","pricing_plan_id":"cebpf4jnsgd1na2vs0mg"},{"bike_id":"eeca1f33-14e6-43fa-a7da-377e0812c60d","system_id":"levelo_inurba_marseille","lat":43.30085,"lon":5.390856,"is_reserved":false,"is_disabled":false,"rental_uris":{"android":"levelo://app?vid=eeca1f33-14e6-43fa-a7da-377e0812c60d","ios":"levelo://app?vid=eeca1f33-14e6-43fa-a7da-377e0812c60d"},"vehicle_type_id":"4","last_reported":1725124008,"current_range_meters":30000,"station_id":"ce4bh192rcd13ifvqdb0","pricing_plan_id":"cebpf4jnsgd1na2vs0mg"},{"bike_id":"30a09a1e-dad5-478f-b603-dc4640edba93","system_id":"levelo_inurba_marseille","lat":43.30085,"lon":5.390856,"is_reserved":false,"is_disabled":false,"rental_uris":{"android":"levelo://app?vid=30a09a1e-dad5-478f-b603-dc4640edba93","ios":"levelo://app?vid=30a09a1e-dad5-478f-b603-dc4640edba93"},"vehicle_type_id":"4","last_reported":1725124008,"current_range_meters":5600,"station_id":"ce4bh192rcd13ifvqdb0","pricing_plan_id":"cebpf4jnsgd1na2vs0mg"},{"bike_id":"84ec9d87-90bc-402f-94f5-878b594b4213","system_id":"levelo_inurba_marseille","lat":43.300852,"lon":5.390859,"is_reserved":false,"is_disabled":false,"rental_uris":{"android":"levelo://app?vid=84ec9d87-90bc-402f-94f5-878b594b4213","ios":"levelo://app?vid=84ec9d87-90bc-402f-94f5-878b594b4213"},"vehicle_type_id":"4","last_reported":1725124008,"current_range_meters":400,"station_id":"ce4bh192rcd13ifvqdb0","pricing_plan_id":"cebpf4jnsgd1na2vs0mg"},{"bike_id":"f2ee0828-33d4-4767-bf1c-f641bb84b265","system_id":"levelo_inurba_marseille","lat":43.292311,"lon":5.360731,"is_reserved":false,"is_disabled":false,"rental_uris":{"android":"levelo://app?vid=f2ee0828-33d4-4767-bf1c-f641bb84b265","ios":"levelo://app?vid=f2ee0828-33d4-4767-bf1c-f641bb84b265"},"vehicle_type_id":"4","last_reported":1725124008,"current_range_meters":31200,"station_id":"ce4bhbh2rcd13ifvqeqg","pricing_plan_id":"cebpf4jnsgd1na2vs0mg"},{"bike_id":"327bcd5a-9f73-4e5e-a24b-71d6a14f72f4","system_id":"levelo_inurba_marseille","lat":43.298764,"lon":5.388973,"is_reserved":false,"is_disabled":false,"rental_uris":{"android":"levelo://app?vid=327bcd5a-9f73-4e5e-a24b-71d6a14f72f4","ios":"levelo://app?vid=327bcd5a-9f73-4e5e-a24b-71d6a14f72f4"},"vehicle_type_id":"4","last_reported":1725124008,"current_range_meters":2400,"station_id":"ce4bh392rcd13ifvqdl0","pricing_plan_id":"cebpf4jnsgd1na2vs0mg"},{"bike_id":"fe00f4c2-3513-4847-ab1a-73ed0cf3e13c","system_id":"levelo_inurba_marseille","lat":43.298764,"lon":5.388973,"is_reserved":false,"is_disabled":false,"rental_uris":{"android":"levelo://app?vid=fe00f4c2-3513-4847-ab1a-73ed0cf3e13c","ios":"levelo://app?vid=fe00f4c2-3513-4847-ab1a-73ed0cf3e13c"},"vehicle_type_id":"4","last_reported":1725124008,"current_range_meters":24000,"station_id":"ce4bh392rcd13ifvqdl0","pricing_plan_id":"cebpf4jnsgd1na2vs0mg"},{"bike_id":"06fd211f-9443-4bcf-b6af-46d7cab28106","system_id":"levelo_inurba_marseille","lat":43.298764,"lon":5.388973,"is_reserved":false,"is_disabled":false,"rental_uris":{"android":"levelo://app?vid=06fd211f-9443-4bcf-b6af-46d7cab28106","ios":"levelo://app?vid=06fd211f-9443-4bcf-b6af-46d7cab28106"},"vehicle_type_id":"4","last_reported":1725124008,"current_range_meters":28800,"station_id":"ce4bh392rcd13ifvqdl0","pricing_plan_id":"cebpf4jnsgd1na2vs0mg"},{"bike_id":"332f58c0-1f77-4b5c-9efa-607538f4583b","system_id":"levelo_inurba_marseille","lat":43.298764,"lon":5.388973,"is_reserved":false,"is_disabled":false,"rental_uris":{"android":"levelo://app?vid=332f58c0-1f77-4b5c-9efa-607538f4583b","ios":"levelo://app?vid=332f58c0-1f77-4b5c-9efa-607538f4583b"},"vehicle_type_id":"4","last_reported":1725124008,"current_range_meters":25200,"station_id":"ce4bh392rcd13ifvqdl0","pricing_plan_id":"cebpf4jnsgd1na2vs0mg"},{"bike_id":"6d32495a-9737-4664-8762-ceab6d5550f1","system_id":"levelo_inurba_marseille","lat":43.313291,"lon":5.396838,"is_reserved":false,"is_disabled":false,"rental_uris":{"android":"levelo://app?vid=6d32495a-9737-4664-8762-ceab6d5550f1","ios":"levelo://app?vid=6d32495a-9737-4664-8762-ceab6d5550f1"},"vehicle_type_id":"4","last_reported":1725124008,"current_range_meters":13600,"station_id":"ce4bgvp2rcd13ifvqcu0","pricing_plan_id":"cebpf4jnsgd1na2vs0mg"},{"bike_id":"09964423-eac7-4d1f-822d-d8ed52359495","system_id":"levelo_inurba_marseille","lat":43.309038,"lon":5.396546,"is_reserved":false,"is_disabled":false,"rental_uris":{"android":"levelo://app?vid=09964423-eac7-4d1f-822d-d8ed52359495","ios":"levelo://app?vid=09964423-eac7-4d1f-822d-d8ed52359495"},"vehicle_type_id":"4","last_reported":1725124008,"current_range_meters":0,"station_id":"ce4bh012rcd13ifvqcv0","pricing_plan_id":"cebpf4jnsgd1na2vs0mg"},{"bike_id":"493d3aca-a98c-4e93-9c6d-3e48564fbce0","system_id":"levelo_inurba_marseille","lat":43.29529,"lon":5.385581,"is_reserved":false,"is_disabled":false,"rental_uris":{"android":"levelo://app?vid=493d3aca-a98c-4e93-9c6d-3e48564fbce0","ios":"levelo://app?vid=493d3aca-a98c-4e93-9c6d-3e48564fbce0"},"vehicle_type_id":"4","last_reported":1725124008,"current_range_meters":27600,"station_id":"ce4bgih2rcd13ifvqba0","pricing_plan_id":"cebpf4jnsgd1na2vs0mg"},{"bike_id":"c9a14551-8403-4397-9b00-479c3e20fbc5","system_id":"levelo_inurba_marseille","lat":43.290779,"lon":5.371482,"is_reserved":false,"is_disabled":false,"rental_uris":{"android":"levelo://app?vid=c9a14551-8403-4397-9b00-479c3e20fbc5","ios":"levelo://app?vid=c9a14551-8403-4397-9b00-479c3e20fbc5"},"vehicle_type_id":"4","last_reported":1725124008,"current_range_meters":0,"station_id":"ce4bh5p2rcd13ifvqe4g","pricing_plan_id":"cebpf4jnsgd1na2vs0mg"},{"bike_id":"899395d4-cdab-4092-aa9d-dcec60d51f61","system_id":"levelo_inurba_marseille","lat":43.29182,"lon":5.35625,"is_reserved":false,"is_disabled":false,"rental_uris":{"android":"levelo://app?vid=899395d4-cdab-4092-aa9d-dcec60d51f61","ios":"levelo://app?vid=899395d4-cdab-4092-aa9d-dcec60d51f61"},"vehicle_type_id":"4","last_reported":1725124008,"current_range_meters":30800,"station_id":"","pricing_plan_id":"cebpf4jnsgd1na2vs0mg"},{"bike_id":"ccc00b66-7648-4696-97dc-6e7c524bc25f","system_id":"levelo_inurba_marseille","lat":43.294162,"lon":5.386292,"is_reserved":false,"is_disabled":false,"rental_uris":{"android":"levelo://app?vid=ccc00b66-7648-4696-97dc-6e7c524bc25f","ios":"levelo://app?vid=ccc00b66-7648-4696-97dc-6e7c524bc25f"},"vehicle_type_id":"4","last_reported":1725124008,"current_range_meters":14800,"station_id":"ce4bh2h2rcd13ifvqdh0","pricing_plan_id":"cebpf4jnsgd1na2vs0mg"},{"bike_id":"bc46807a-7c8f-43f9-8ce1-20cdd4d1c1d8","system_id":"levelo_inurba_marseille","lat":43.290624,"lon":5.359245,"is_reserved":false,"is_disabled":false,"rental_uris":{"android":"levelo://app?vid=bc46807a-7c8f-43f9-8ce1-20cdd4d1c1d8","ios":"levelo://app?vid=bc46807a-7c8f-43f9-8ce1-20cdd4d1c1d8"},"vehicle_type_id":"4","last_reported":1725124008,"current_range_meters":23200,"station_id":"ce4bha92rcd13ifvqeg0","pricing_plan_id":"cebpf4jnsgd1na2vs0mg"},{"bike_id":"f955592d-d166-4eb5-b9eb-52585e1f643f","system_id":"levelo_inurba_marseille","lat":43.290631,"lon":5.359244,"is_reserved":false,"is_disabled":false,"rental_uris":{"android":"levelo://app?vid=f955592d-d166-4eb5-b9eb-52585e1f643f","ios":"levelo://app?vid=f955592d-d166-4eb5-b9eb-52585e1f643f"},"vehicle_type_id":"4","last_reported":1725124008,"current_range_meters":23600,"station_id":"ce4bha92rcd13ifvqeg0","pricing_plan_id":"cebpf4jnsgd1na2vs0mg"},{"bike_id":"0b44f99a-2e28-4e1d-aafe-81b8aa99272f","system_id":"levelo_inurba_marseille","lat":43.290313,"lon":5.358697,"is_reserved":false,"is_disabled":false,"rental_uris":{"android":"levelo://app?vid=0b44f99a-2e28-4e1d-aafe-81b8aa99272f","ios":"levelo://app?vid=0b44f99a-2e28-4e1d-aafe-81b8aa99272f"},"vehicle_type_id":"4","last_reported":1725124008,"current_range_meters":0,"station_id":"ce4bha92rcd13ifvqeg0","pricing_plan_id":"cebpf4jnsgd1na2vs0mg"},{"bike_id":"640c8c7f-28a1-4b6e-9992-da037fc4d304","system_id":"levelo_inurba_marseille","lat":43.294153,"lon":5.386305,"is_reserved":false,"is_disabled":false,"rental_uris":{"android":"levelo://app?vid=640c8c7f-28a1-4b6e-9992-da037fc4d304","ios":"levelo://app?vid=640c8c7f-28a1-4b6e-9992-da037fc4d304"},"vehicle_type_id":"4","last_reported":1725124008,"current_range_meters":26000,"station_id":"ce4bh2h2rcd13ifvqdh0","pricing_plan_id":"cebpf4jnsgd1na2vs0mg"},{"bike_id":"ecfc148a-342c-47cd-ae9c-f9d426a85b7e","system_id":"levelo_inurba_marseille","lat":43.29419,"lon":5.38622,"is_reserved":false,"is_disabled":false,"rental_uris":{"android":"levelo://app?vid=ecfc148a-342c-47cd-ae9c-f9d426a85b7e","ios":"levelo://app?vid=ecfc148a-342c-47cd-ae9c-f9d426a85b7e"},"vehicle_type_id":"4","last_reported":1725124008,"current_range_meters":8000,"station_id":"ce4bh2h2rcd13ifvqdh0","pricing_plan_id":"cebpf4jnsgd1na2vs0mg"},{"bike_id":"c5d5468a-b232-49b9-9236-e56220fb8240","system_id":"levelo_inurba_marseille","lat":43.29419,"lon":5.38625,"is_reserved":false,"is_disabled":false,"rental_uris":{"android":"levelo://app?vid=c5d5468a-b232-49b9-9236-e56220fb8240","ios":"levelo://app?vid=c5d5468a-b232-49b9-9236-e56220fb8240"},"vehicle_type_id":"4","last_reported":1725124008,"current_range_meters":4400,"station_id":"ce4bh2h2rcd13ifvqdh0","pricing_plan_id":"cebpf4jnsgd1na2vs0mg"},{"bike_id":"79f130df-32fd-47f6-ad90-bac54e3dde07","system_id":"levelo_inurba_marseille","lat":43.29418,"lon":5.38625,"is_reserved":false,"is_disabled":false,"rental_uris":{"android":"levelo://app?vid=79f130df-32fd-47f6-ad90-bac54e3dde07","ios":"levelo://app?vid=79f130df-32fd-47f6-ad90-bac54e3dde07"},"vehicle_type_id":"4","last_reported":1725124008,"current_range_meters":24800,"station_id":"ce4bh2h2rcd13ifvqdh0","pricing_plan_id":"cebpf4jnsgd1na2vs0mg"},{"bike_id":"6ebdc789-5863-4cb8-85a1-ada6951003a3","system_id":"levelo_inurba_marseille","lat":43.290327,"lon":5.375711,"is_reserved":false,"is_disabled":false,"rental_uris":{"android":"levelo://app?vid=6ebdc789-5863-4cb8-85a1-ada6951003a3","ios":"levelo://app?vid=6ebdc789-5863-4cb8-85a1-ada6951003a3"},"vehicle_type_id":"4","last_reported":1725124008,"current_range_meters":10400,"station_id":"ce4bh692rcd13ifvqe90","pricing_plan_id":"cebpf4jnsgd1na2vs0mg"},{"bike_id":"a5a0ddb0-9f31-4c0e-9da5-64ce861978ca","system_id":"levelo_inurba_marseille","lat":43.289184,"lon":5.366408,"is_reserved":false,"is_disabled":false,"rental_uris":{"android":"levelo://app?vid=a5a0ddb0-9f31-4c0e-9da5-64ce861978ca","ios":"levelo://app?vid=a5a0ddb0-9f31-4c0e-9da5-64ce861978ca"},"vehicle_type_id":"4","last_reported":1725124008,"current_range_meters":31200,"station_id":"ce4bhap2rcd13ifvqek0","pricing_plan_id":"cebpf4jnsgd1na2vs0mg"},{"bike_id":"c0589554-3c5d-407a-b307-979b6c29dc18","system_id":"levelo_inurba_marseille","lat":43.29416,"lon":5.38628,"is_reserved":false,"is_disabled":false,"rental_uris":{"android":"levelo://app?vid=c0589554-3c5d-407a-b307-979b6c29dc18","ios":"levelo://app?vid=c0589554-3c5d-407a-b307-979b6c29dc18"},"vehicle_type_id":"4","last_reported":1725124008,"current_range_meters":0,"station_id":"ce4bh2h2rcd13ifvqdh0","pricing_plan_id":"cebpf4jnsgd1na2vs0mg"},{"bike_id":"1411a00c-c846-46d3-85a9-7d4b05aaa697","system_id":"levelo_inurba_marseille","lat":43.294162,"lon":5.386292,"is_reserved":false,"is_disabled":false,"rental_uris":{"android":"levelo://app?vid=1411a00c-c846-46d3-85a9-7d4b05aaa697","ios":"levelo://app?vid=1411a00c-c846-46d3-85a9-7d4b05aaa697"},"vehicle_type_id":"4","last_reported":1725124008,"current_range_meters":0,"station_id":"ce4bh2h2rcd13ifvqdh0","pricing_plan_id":"cebpf4jnsgd1na2vs0mg"},{"bike_id":"7c67076c-50c0-4c6e-81b6-8a744e564cb5","system_id":"levelo_inurba_marseille","lat":43.289468,"lon":5.363719,"is_reserved":false,"is_disabled":false,"rental_uris":{"android":"levelo://app?vid=7c67076c-50c0-4c6e-81b6-8a744e564cb5","ios":"levelo://app?vid=7c67076c-50c0-4c6e-81b6-8a744e564cb5"},"vehicle_type_id":"4","last_reported":1725124008,"current_range_meters":13600,"station_id":"ce4bhc92rcd13ifvqetg","pricing_plan_id":"cebpf4jnsgd1na2vs0mg"},{"bike_id":"c111cba9-f474-4e15-8d67-7b49954216fb","system_id":"levelo_inurba_marseille","lat":43.292644,"lon":5.384257,"is_reserved":false,"is_disabled":false,"rental_uris":{"android":"levelo://app?vid=c111cba9-f474-4e15-8d67-7b49954216fb","ios":"levelo://app?vid=c111cba9-f474-4e15-8d67-7b49954216fb"},"vehicle_type_id":"4","last_reported":1725124008,"current_range_meters":0,"station_id":"ce4bh692rcd13ifvqea0","pricing_plan_id":"cebpf4jnsgd1na2vs0mg"},{"bike_id":"46840cc1-a888-461e-9ba4-938390fa80f1","system_id":"levelo_inurba_marseille","lat":43.304274,"lon":5.397513,"is_reserved":false,"is_disabled":false,"rental_uris":{"android":"levelo://app?vid=46840cc1-a888-461e-9ba4-938390fa80f1","ios":"levelo://app?vid=46840cc1-a888-461e-9ba4-938390fa80f1"},"vehicle_type_id":"4","last_reported":1725124008,"current_range_meters":6400,"station_id":"ce4bh092rcd13ifvqd20","pricing_plan_id":"cebpf4jnsgd1na2vs0mg"},{"bike_id":"411c8ecf-df4e-4c1a-858c-a1dd49075d07","system_id":"levelo_inurba_marseille","lat":43.292644,"lon":5.384257,"is_reserved":false,"is_disabled":false,"rental_uris":{"android":"levelo://app?vid=411c8ecf-df4e-4c1a-858c-a1dd49075d07","ios":"levelo://app?vid=411c8ecf-df4e-4c1a-858c-a1dd49075d07"},"vehicle_type_id":"4","last_reported":1725124008,"current_range_meters":0,"station_id":"ce4bh692rcd13ifvqea0","pricing_plan_id":"cebpf4jnsgd1na2vs0mg"},{"bike_id":"c8866165-fbab-4191-bd3e-bba266e916e8","system_id":"levelo_inurba_marseille","lat":43.292644,"lon":5.384257,"is_reserved":false,"is_disabled":false,"rental_uris":{"android":"levelo://app?vid=c8866165-fbab-4191-bd3e-bba266e916e8","ios":"levelo://app?vid=c8866165-fbab-4191-bd3e-bba266e916e8"},"vehicle_type_id":"4","last_reported":1725124008,"current_range_meters":0,"station_id":"ce4bh692rcd13ifvqea0","pricing_plan_id":"cebpf4jnsgd1na2vs0mg"},{"bike_id":"c2512aa8-e1da-4628-9bb3-943661d3df4a","system_id":"levelo_inurba_marseille","lat":43.3295,"lon":5.39037,"is_reserved":false,"is_disabled":false,"rental_uris":{"android":"levelo://app?vid=c2512aa8-e1da-4628-9bb3-943661d3df4a","ios":"levelo://app?vid=c2512aa8-e1da-4628-9bb3-943661d3df4a"},"vehicle_type_id":"4","last_reported":1725124008,"current_range_meters":20400,"station_id":"","pricing_plan_id":"cebpf4jnsgd1na2vs0mg"},{"bike_id":"8b932719-3f34-4a03-86a9-ee9bfb2d1538","system_id":"levelo_inurba_marseille","lat":43.290103,"lon":5.356114,"is_reserved":false,"is_disabled":false,"rental_uris":{"android":"levelo://app?vid=8b932719-3f34-4a03-86a9-ee9bfb2d1538","ios":"levelo://app?vid=8b932719-3f34-4a03-86a9-ee9bfb2d1538"},"vehicle_type_id":"4","last_reported":1725124008,"current_range_meters":30800,"station_id":"ce4bhb92rcd13ifvqen0","pricing_plan_id":"cebpf4jnsgd1na2vs0mg"},{"bike_id":"e55d6207-760f-4ee9-8837-685208b489c5","system_id":"levelo_inurba_marseille","lat":43.290104,"lon":5.356111,"is_reserved":false,"is_disabled":false,"rental_uris":{"android":"levelo://app?vid=e55d6207-760f-4ee9-8837-685208b489c5","ios":"levelo://app?vid=e55d6207-760f-4ee9-8837-685208b489c5"},"vehicle_type_id":"4","last_reported":1725124008,"current_range_meters":31200,"station_id":"ce4bhb92rcd13ifvqen0","pricing_plan_id":"cebpf4jnsgd1na2vs0mg"},{"bike_id":"ea0880f8-bd34-48de-8b8e-1d1e49badfae","system_id":"levelo_inurba_marseille","lat":43.29002,"lon":5.35624,"is_reserved":false,"is_disabled":false,"rental_uris":{"android":"levelo://app?vid=ea0880f8-bd34-48de-8b8e-1d1e49badfae","ios":"levelo://app?vid=ea0880f8-bd34-48de-8b8e-1d1e49badfae"},"vehicle_type_id":"4","last_reported":1725124008,"current_range_meters":21600,"station_id":"ce4bhb92rcd13ifvqen0","pricing_plan_id":"cebpf4jnsgd1na2vs0mg"},{"bike_id":"2ef33925-1683-4102-aa2f-6a206200b69a","system_id":"levelo_inurba_marseille","lat":43.29002,"lon":5.35615,"is_reserved":false,"is_disabled":false,"rental_uris":{"android":"levelo://app?vid=2ef33925-1683-4102-aa2f-6a206200b69a","ios":"levelo://app?vid=2ef33925-1683-4102-aa2f-6a206200b69a"},"vehicle_type_id":"4","last_reported":1725124008,"current_range_meters":0,"station_id":"ce4bhb92rcd13ifvqen0","pricing_plan_id":"cebpf4jnsgd1na2vs0mg"},{"bike_id":"404f258a-0a10-4222-b993-fee442497077","system_id":"levelo_inurba_marseille","lat":43.290103,"lon":5.356114,"is_reserved":false,"is_disabled":false,"rental_uris":{"android":"levelo://app?vid=404f258a-0a10-4222-b993-fee442497077","ios":"levelo://app?vid=404f258a-0a10-4222-b993-fee442497077"},"vehicle_type_id":"4","last_reported":1725124008,"current_range_meters":4800,"station_id":"ce4bhb92rcd13ifvqen0","pricing_plan_id":"cebpf4jnsgd1na2vs0mg"},{"bike_id":"b800d11a-09a6-49e1-ad87-fbeb5fb7477d","system_id":"levelo_inurba_marseille","lat":43.29,"lon":5.35611,"is_reserved":false,"is_disabled":false,"rental_uris":{"android":"levelo://app?vid=b800d11a-09a6-49e1-ad87-fbeb5fb7477d","ios":"levelo://app?vid=b800d11a-09a6-49e1-ad87-fbeb5fb7477d"},"vehicle_type_id":"4","last_reported":1725124008,"current_range_meters":31200,"station_id":"ce4bhb92rcd13ifvqen0","pricing_plan_id":"cebpf4jnsgd1na2vs0mg"},{"bike_id":"5dec586f-1003-46a7-a53b-09869ab4ed85","system_id":"levelo_inurba_marseille","lat":43.290995,"lon":5.381361,"is_reserved":false,"is_disabled":false,"rental_uris":{"android":"levelo://app?vid=5dec586f-1003-46a7-a53b-09869ab4ed85","ios":"levelo://app?vid=5dec586f-1003-46a7-a53b-09869ab4ed85"},"vehicle_type_id":"4","last_reported":1725124008,"current_range_meters":28000,"station_id":"ce4bh512rcd13ifvqe2g","pricing_plan_id":"cebpf4jnsgd1na2vs0mg"},{"bike_id":"c54bb1c4-5376-49fe-b7fb-99d2cb7c03f0","system_id":"levelo_inurba_marseille","lat":43.297815,"lon":5.393548,"is_reserved":false,"is_disabled":false,"rental_uris":{"android":"levelo://app?vid=c54bb1c4-5376-49fe-b7fb-99d2cb7c03f0","ios":"levelo://app?vid=c54bb1c4-5376-49fe-b7fb-99d2cb7c03f0"},"vehicle_type_id":"4","last_reported":1725124008,"current_range_meters":5600,"station_id":"chh1huq6cuj3fo74tm60","pricing_plan_id":"cebpf4jnsgd1na2vs0mg"},{"bike_id":"657b8085-34b1-437b-8b0e-dd93dcd9dd48","system_id":"levelo_inurba_marseille","lat":43.297815,"lon":5.393548,"is_reserved":false,"is_disabled":false,"rental_uris":{"android":"levelo://app?vid=657b8085-34b1-437b-8b0e-dd93dcd9dd48","ios":"levelo://app?vid=657b8085-34b1-437b-8b0e-dd93dcd9dd48"},"vehicle_type_id":"4","last_reported":1725124008,"current_range_meters":17600,"station_id":"chh1huq6cuj3fo74tm60","pricing_plan_id":"cebpf4jnsgd1na2vs0mg"},{"bike_id":"0897a95a-318e-49e9-93cf-e1d02592700d","system_id":"levelo_inurba_marseille","lat":43.297807,"lon":5.393533,"is_reserved":false,"is_disabled":false,"rental_uris":{"android":"levelo://app?vid=0897a95a-318e-49e9-93cf-e1d02592700d","ios":"levelo://app?vid=0897a95a-318e-49e9-93cf-e1d02592700d"},"vehicle_type_id":"4","last_reported":1725124008,"current_range_meters":13600,"station_id":"chh1huq6cuj3fo74tm60","pricing_plan_id":"cebpf4jnsgd1na2vs0mg"},{"bike_id":"422570d2-edc8-49c7-a86b-62e0f75ad2e7","system_id":"levelo_inurba_marseille","lat":43.330442,"lon":5.389148,"is_reserved":false,"is_disabled":false,"rental_uris":{"android":"levelo://app?vid=422570d2-edc8-49c7-a86b-62e0f75ad2e7","ios":"levelo://app?vid=422570d2-edc8-49c7-a86b-62e0f75ad2e7"},"vehicle_type_id":"4","last_reported":1725124008,"current_range_meters":3600,"station_id":"ce4bhr92rcd13ifvqhrg","pricing_plan_id":"cebpf4jnsgd1na2vs0mg"},{"bike_id":"5a783144-8b02-44eb-b6f0-57a04930ce11","system_id":"levelo_inurba_marseille","lat":43.330442,"lon":5.389148,"is_reserved":false,"is_disabled":false,"rental_uris":{"android":"levelo://app?vid=5a783144-8b02-44eb-b6f0-57a04930ce11","ios":"levelo://app?vid=5a783144-8b02-44eb-b6f0-57a04930ce11"},"vehicle_type_id":"4","last_reported":1725124008,"current_range_meters":31200,"station_id":"ce4bhr92rcd13ifvqhrg","pricing_plan_id":"cebpf4jnsgd1na2vs0mg"},{"bike_id":"3aeb40c6-9ab8-4cbf-9840-5b8d2fde9628","system_id":"levelo_inurba_marseille","lat":43.330442,"lon":5.389148,"is_reserved":false,"is_disabled":false,"rental_uris":{"android":"levelo://app?vid=3aeb40c6-9ab8-4cbf-9840-5b8d2fde9628","ios":"levelo://app?vid=3aeb40c6-9ab8-4cbf-9840-5b8d2fde9628"},"vehicle_type_id":"4","last_reported":1725124008,"current_range_meters":2000,"station_id":"ce4bhr92rcd13ifvqhrg","pricing_plan_id":"cebpf4jnsgd1na2vs0mg"},{"bike_id":"7595b2e9-d4a9-4a8c-8157-ec785ada6f0e","system_id":"levelo_inurba_marseille","lat":43.330442,"lon":5.389148,"is_reserved":false,"is_disabled":false,"rental_uris":{"android":"levelo://app?vid=7595b2e9-d4a9-4a8c-8157-ec785ada6f0e","ios":"levelo://app?vid=7595b2e9-d4a9-4a8c-8157-ec785ada6f0e"},"vehicle_type_id":"4","last_reported":1725124008,"current_range_meters":26400,"station_id":"ce4bhr92rcd13ifvqhrg","pricing_plan_id":"cebpf4jnsgd1na2vs0mg"},{"bike_id":"50a84a65-0271-49f9-be76-8515ea1ec470","system_id":"levelo_inurba_marseille","lat":43.330442,"lon":5.389148,"is_reserved":false,"is_disabled":false,"rental_uris":{"android":"levelo://app?vid=50a84a65-0271-49f9-be76-8515ea1ec470","ios":"levelo://app?vid=50a84a65-0271-49f9-be76-8515ea1ec470"},"vehicle_type_id":"4","last_reported":1725124008,"current_range_meters":25600,"station_id":"ce4bhr92rcd13ifvqhrg","pricing_plan_id":"cebpf4jnsgd1na2vs0mg"},{"bike_id":"dfd06b75-3fab-4341-844e-d3eff861ea22","system_id":"levelo_inurba_marseille","lat":43.330442,"lon":5.389148,"is_reserved":false,"is_disabled":false,"rental_uris":{"android":"levelo://app?vid=dfd06b75-3fab-4341-844e-d3eff861ea22","ios":"levelo://app?vid=dfd06b75-3fab-4341-844e-d3eff861ea22"},"vehicle_type_id":"4","last_reported":1725124008,"current_range_meters":29600,"station_id":"ce4bhr92rcd13ifvqhrg","pricing_plan_id":"cebpf4jnsgd1na2vs0mg"},{"bike_id":"b0f09e72-6f5d-4097-a98a-691223255649","system_id":"levelo_inurba_marseille","lat":43.330442,"lon":5.389148,"is_reserved":false,"is_disabled":false,"rental_uris":{"android":"levelo://app?vid=b0f09e72-6f5d-4097-a98a-691223255649","ios":"levelo://app?vid=b0f09e72-6f5d-4097-a98a-691223255649"},"vehicle_type_id":"4","last_reported":1725124008,"current_range_meters":9600,"station_id":"ce4bhr92rcd13ifvqhrg","pricing_plan_id":"cebpf4jnsgd1na2vs0mg"},{"bike_id":"7ac6f7eb-867f-48c9-b515-f84baa81f55b","system_id":"levelo_inurba_marseille","lat":43.330442,"lon":5.389148,"is_reserved":false,"is_disabled":false,"rental_uris":{"android":"levelo://app?vid=7ac6f7eb-867f-48c9-b515-f84baa81f55b","ios":"levelo://app?vid=7ac6f7eb-867f-48c9-b515-f84baa81f55b"},"vehicle_type_id":"4","last_reported":1725124008,"current_range_meters":32000,"station_id":"ce4bhr92rcd13ifvqhrg","pricing_plan_id":"cebpf4jnsgd1na2vs0mg"},{"bike_id":"96bb41ed-8c54-43c8-b9e3-0789ef1fb05c","system_id":"levelo_inurba_marseille","lat":43.29527,"lon":5.39041,"is_reserved":false,"is_disabled":false,"rental_uris":{"android":"levelo://app?vid=96bb41ed-8c54-43c8-b9e3-0789ef1fb05c","ios":"levelo://app?vid=96bb41ed-8c54-43c8-b9e3-0789ef1fb05c"},"vehicle_type_id":"4","last_reported":1725124008,"current_range_meters":28000,"station_id":"ce4bh3p2rcd13ifvqdp0","pricing_plan_id":"cebpf4jnsgd1na2vs0mg"},{"bike_id":"94d1e310-46c4-4452-96d6-cae20cb07332","system_id":"levelo_inurba_marseille","lat":43.330442,"lon":5.389148,"is_reserved":false,"is_disabled":false,"rental_uris":{"android":"levelo://app?vid=94d1e310-46c4-4452-96d6-cae20cb07332","ios":"levelo://app?vid=94d1e310-46c4-4452-96d6-cae20cb07332"},"vehicle_type_id":"4","last_reported":1725124008,"current_range_meters":26800,"station_id":"ce4bhr92rcd13ifvqhrg","pricing_plan_id":"cebpf4jnsgd1na2vs0mg"},{"bike_id":"f080bd13-d558-4126-9939-c5f744f65edb","system_id":"levelo_inurba_marseille","lat":43.28976,"lon":5.378407,"is_reserved":false,"is_disabled":false,"rental_uris":{"android":"levelo://app?vid=f080bd13-d558-4126-9939-c5f744f65edb","ios":"levelo://app?vid=f080bd13-d558-4126-9939-c5f744f65edb"},"vehicle_type_id":"4","last_reported":1725124008,"current_range_meters":0,"station_id":"ce4bh9p2rcd13ifvqed0","pricing_plan_id":"cebpf4jnsgd1na2vs0mg"},{"bike_id":"e4720765-a6cb-4cdd-9376-6b5284172d97","system_id":"levelo_inurba_marseille","lat":43.295169,"lon":5.390426,"is_reserved":false,"is_disabled":false,"rental_uris":{"android":"levelo://app?vid=e4720765-a6cb-4cdd-9376-6b5284172d97","ios":"levelo://app?vid=e4720765-a6cb-4cdd-9376-6b5284172d97"},"vehicle_type_id":"4","last_reported":1725124008,"current_range_meters":27200,"station_id":"ce4bh3p2rcd13ifvqdp0","pricing_plan_id":"cebpf4jnsgd1na2vs0mg"},{"bike_id":"4d0c7f7e-4a39-46d1-aa2f-2d5da49de3ad","system_id":"levelo_inurba_marseille","lat":43.330442,"lon":5.389148,"is_reserved":false,"is_disabled":false,"rental_uris":{"android":"levelo://app?vid=4d0c7f7e-4a39-46d1-aa2f-2d5da49de3ad","ios":"levelo://app?vid=4d0c7f7e-4a39-46d1-aa2f-2d5da49de3ad"},"vehicle_type_id":"4","last_reported":1725124008,"current_range_meters":20000,"station_id":"ce4bhr92rcd13ifvqhrg","pricing_plan_id":"cebpf4jnsgd1na2vs0mg"},{"bike_id":"a3441031-033a-419a-8695-f2f10fe38ba9","system_id":"levelo_inurba_marseille","lat":43.33025,"lon":5.39043,"is_reserved":false,"is_disabled":false,"rental_uris":{"android":"levelo://app?vid=a3441031-033a-419a-8695-f2f10fe38ba9","ios":"levelo://app?vid=a3441031-033a-419a-8695-f2f10fe38ba9"},"vehicle_type_id":"4","last_reported":1725124008,"current_range_meters":0,"station_id":"ce4bhr92rcd13ifvqhrg","pricing_plan_id":"cebpf4jnsgd1na2vs0mg"},{"bike_id":"653eaef0-9bc5-46d0-8e22-88467486657a","system_id":"levelo_inurba_marseille","lat":43.28972,"lon":5.37838,"is_reserved":false,"is_disabled":false,"rental_uris":{"android":"levelo://app?vid=653eaef0-9bc5-46d0-8e22-88467486657a","ios":"levelo://app?vid=653eaef0-9bc5-46d0-8e22-88467486657a"},"vehicle_type_id":"4","last_reported":1725124008,"current_range_meters":0,"station_id":"ce4bh9p2rcd13ifvqed0","pricing_plan_id":"cebpf4jnsgd1na2vs0mg"},{"bike_id":"c2282b74-7c1d-4f9a-8dd7-13ee4e4e92a9","system_id":"levelo_inurba_marseille","lat":43.2901,"lon":5.381269,"is_reserved":false,"is_disabled":false,"rental_uris":{"android":"levelo://app?vid=c2282b74-7c1d-4f9a-8dd7-13ee4e4e92a9","ios":"levelo://app?vid=c2282b74-7c1d-4f9a-8dd7-13ee4e4e92a9"},"vehicle_type_id":"4","last_reported":1725124008,"current_range_meters":0,"station_id":"ce4bh4p2rcd13ifvqe1g","pricing_plan_id":"cebpf4jnsgd1na2vs0mg"},{"bike_id":"af66287b-8833-43d8-8a74-5b1cb9993aba","system_id":"levelo_inurba_marseille","lat":43.28856,"lon":5.358371,"is_reserved":false,"is_disabled":false,"rental_uris":{"android":"levelo://app?vid=af66287b-8833-43d8-8a74-5b1cb9993aba","ios":"levelo://app?vid=af66287b-8833-43d8-8a74-5b1cb9993aba"},"vehicle_type_id":"4","last_reported":1725124008,"current_range_meters":6800,"station_id":"ce4bhb12rcd13ifvqem0","pricing_plan_id":"cebpf4jnsgd1na2vs0mg"},{"bike_id":"8b03fc40-6c00-4575-9fd6-a41a7e949c96","system_id":"levelo_inurba_marseille","lat":43.288576,"lon":5.358541,"is_reserved":false,"is_disabled":false,"rental_uris":{"android":"levelo://app?vid=8b03fc40-6c00-4575-9fd6-a41a7e949c96","ios":"levelo://app?vid=8b03fc40-6c00-4575-9fd6-a41a7e949c96"},"vehicle_type_id":"4","last_reported":1725124008,"current_range_meters":16800,"station_id":"ce4bhb12rcd13ifvqem0","pricing_plan_id":"cebpf4jnsgd1na2vs0mg"},{"bike_id":"9742f2fe-4359-4018-b293-e41fb8faa997","system_id":"levelo_inurba_marseille","lat":43.28846,"lon":5.35853,"is_reserved":false,"is_disabled":false,"rental_uris":{"android":"levelo://app?vid=9742f2fe-4359-4018-b293-e41fb8faa997","ios":"levelo://app?vid=9742f2fe-4359-4018-b293-e41fb8faa997"},"vehicle_type_id":"4","last_reported":1725124008,"current_range_meters":0,"station_id":"ce4bhb12rcd13ifvqem0","pricing_plan_id":"cebpf4jnsgd1na2vs0mg"},{"bike_id":"ef2aed3b-e13e-4b1e-a2bb-d14a6b13f850","system_id":"levelo_inurba_marseille","lat":43.312609,"lon":5.401662,"is_reserved":false,"is_disabled":false,"rental_uris":{"android":"levelo://app?vid=ef2aed3b-e13e-4b1e-a2bb-d14a6b13f850","ios":"levelo://app?vid=ef2aed3b-e13e-4b1e-a2bb-d14a6b13f850"},"vehicle_type_id":"4","last_reported":1725124008,"current_range_meters":15600,"station_id":"ce4bh092rcd13ifvqd30","pricing_plan_id":"cebpf4jnsgd1na2vs0mg"},{"bike_id":"9e3ab4fd-3806-45d6-849d-71e033c879d1","system_id":"levelo_inurba_marseille","lat":43.312609,"lon":5.401662,"is_reserved":false,"is_disabled":false,"rental_uris":{"android":"levelo://app?vid=9e3ab4fd-3806-45d6-849d-71e033c879d1","ios":"levelo://app?vid=9e3ab4fd-3806-45d6-849d-71e033c879d1"},"vehicle_type_id":"4","last_reported":1725124008,"current_range_meters":4400,"station_id":"ce4bh092rcd13ifvqd30","pricing_plan_id":"cebpf4jnsgd1na2vs0mg"},{"bike_id":"65970346-5611-4c5e-b617-5ae218813cd1","system_id":"levelo_inurba_marseille","lat":43.312609,"lon":5.401662,"is_reserved":false,"is_disabled":false,"rental_uris":{"android":"levelo://app?vid=65970346-5611-4c5e-b617-5ae218813cd1","ios":"levelo://app?vid=65970346-5611-4c5e-b617-5ae218813cd1"},"vehicle_type_id":"4","last_reported":1725124008,"current_range_meters":17600,"station_id":"ce4bh092rcd13ifvqd30","pricing_plan_id":"cebpf4jnsgd1na2vs0mg"},{"bike_id":"32fc09d0-626e-4445-9574-8901d72ac8b2","system_id":"levelo_inurba_marseille","lat":43.309371,"lon":5.401449,"is_reserved":false,"is_disabled":false,"rental_uris":{"android":"levelo://app?vid=32fc09d0-626e-4445-9574-8901d72ac8b2","ios":"levelo://app?vid=32fc09d0-626e-4445-9574-8901d72ac8b2"},"vehicle_type_id":"4","last_reported":1725124008,"current_range_meters":24800,"station_id":"ce4bgvp2rcd13ifvqct0","pricing_plan_id":"cebpf4jnsgd1na2vs0mg"},{"bike_id":"8cac9b46-db8b-4978-9ee4-b0375bb93662","system_id":"levelo_inurba_marseille","lat":43.337494,"lon":5.374672,"is_reserved":false,"is_disabled":false,"rental_uris":{"android":"levelo://app?vid=8cac9b46-db8b-4978-9ee4-b0375bb93662","ios":"levelo://app?vid=8cac9b46-db8b-4978-9ee4-b0375bb93662"},"vehicle_type_id":"4","last_reported":1725124008,"current_range_meters":24400,"station_id":"","pricing_plan_id":"cebpf4jnsgd1na2vs0mg"},{"bike_id":"2cf757ba-6687-4498-9085-10d09452f568","system_id":"levelo_inurba_marseille","lat":43.33753,"lon":5.3745,"is_reserved":false,"is_disabled":false,"rental_uris":{"android":"levelo://app?vid=2cf757ba-6687-4498-9085-10d09452f568","ios":"levelo://app?vid=2cf757ba-6687-4498-9085-10d09452f568"},"vehicle_type_id":"4","last_reported":1725124008,"current_range_meters":27200,"station_id":"","pricing_plan_id":"cebpf4jnsgd1na2vs0mg"},{"bike_id":"a8227e9b-bd18-4fc0-b815-b7e484f2391f","system_id":"levelo_inurba_marseille","lat":43.33756,"lon":5.37449,"is_reserved":false,"is_disabled":false,"rental_uris":{"android":"levelo://app?vid=a8227e9b-bd18-4fc0-b815-b7e484f2391f","ios":"levelo://app?vid=a8227e9b-bd18-4fc0-b815-b7e484f2391f"},"vehicle_type_id":"4","last_reported":1725124008,"current_range_meters":29200,"station_id":"","pricing_plan_id":"cebpf4jnsgd1na2vs0mg"},{"bike_id":"e236f262-0239-4311-8da4-3f9e9dfe68f7","system_id":"levelo_inurba_marseille","lat":43.306412,"lon":5.401035,"is_reserved":false,"is_disabled":false,"rental_uris":{"android":"levelo://app?vid=e236f262-0239-4311-8da4-3f9e9dfe68f7","ios":"levelo://app?vid=e236f262-0239-4311-8da4-3f9e9dfe68f7"},"vehicle_type_id":"4","last_reported":1725124008,"current_range_meters":8800,"station_id":"ce4bh112rcd13ifvqda0","pricing_plan_id":"cebpf4jnsgd1na2vs0mg"},{"bike_id":"a5eb5acb-1268-497b-b9f5-a573631d0c4a","system_id":"levelo_inurba_marseille","lat":43.301117,"lon":5.398795,"is_reserved":false,"is_disabled":false,"rental_uris":{"android":"levelo://app?vid=a5eb5acb-1268-497b-b9f5-a573631d0c4a","ios":"levelo://app?vid=a5eb5acb-1268-497b-b9f5-a573631d0c4a"},"vehicle_type_id":"4","last_reported":1725124008,"current_range_meters":23200,"station_id":"ce4bh0h2rcd13ifvqd40","pricing_plan_id":"cebpf4jnsgd1na2vs0mg"},{"bike_id":"392662e1-e6f9-4fab-8144-fe924c085486","system_id":"levelo_inurba_marseille","lat":43.301117,"lon":5.398795,"is_reserved":false,"is_disabled":false,"rental_uris":{"android":"levelo://app?vid=392662e1-e6f9-4fab-8144-fe924c085486","ios":"levelo://app?vid=392662e1-e6f9-4fab-8144-fe924c085486"},"vehicle_type_id":"4","last_reported":1725124008,"current_range_meters":800,"station_id":"ce4bh0h2rcd13ifvqd40","pricing_plan_id":"cebpf4jnsgd1na2vs0mg"},{"bike_id":"be265de1-9d51-4f35-a9df-d59d89de81d7","system_id":"levelo_inurba_marseille","lat":43.286961,"lon":5.373785,"is_reserved":false,"is_disabled":false,"rental_uris":{"android":"levelo://app?vid=be265de1-9d51-4f35-a9df-d59d89de81d7","ios":"levelo://app?vid=be265de1-9d51-4f35-a9df-d59d89de81d7"},"vehicle_type_id":"4","last_reported":1725124008,"current_range_meters":6000,"station_id":"ce4bh3p2rcd13ifvqdq0","pricing_plan_id":"cebpf4jnsgd1na2vs0mg"},{"bike_id":"d3e34f78-e3a5-44e3-9408-7cd9dea80192","system_id":"levelo_inurba_marseille","lat":43.286961,"lon":5.373785,"is_reserved":false,"is_disabled":false,"rental_uris":{"android":"levelo://app?vid=d3e34f78-e3a5-44e3-9408-7cd9dea80192","ios":"levelo://app?vid=d3e34f78-e3a5-44e3-9408-7cd9dea80192"},"vehicle_type_id":"4","last_reported":1725124008,"current_range_meters":0,"station_id":"ce4bh3p2rcd13ifvqdq0","pricing_plan_id":"cebpf4jnsgd1na2vs0mg"},{"bike_id":"b1c419a4-a2dd-40e0-b583-b301cd11b432","system_id":"levelo_inurba_marseille","lat":43.286593,"lon":5.363346,"is_reserved":false,"is_disabled":false,"rental_uris":{"android":"levelo://app?vid=b1c419a4-a2dd-40e0-b583-b301cd11b432","ios":"levelo://app?vid=b1c419a4-a2dd-40e0-b583-b301cd11b432"},"vehicle_type_id":"4","last_reported":1725124008,"current_range_meters":2800,"station_id":"ce4bhah2rcd13ifvqej0","pricing_plan_id":"cebpf4jnsgd1na2vs0mg"},{"bike_id":"c5b50e9a-6c2d-48c5-9ed8-7ad97f7ebbca","system_id":"levelo_inurba_marseille","lat":43.286591,"lon":5.363346,"is_reserved":false,"is_disabled":false,"rental_uris":{"android":"levelo://app?vid=c5b50e9a-6c2d-48c5-9ed8-7ad97f7ebbca","ios":"levelo://app?vid=c5b50e9a-6c2d-48c5-9ed8-7ad97f7ebbca"},"vehicle_type_id":"4","last_reported":1725124008,"current_range_meters":30000,"station_id":"ce4bhah2rcd13ifvqej0","pricing_plan_id":"cebpf4jnsgd1na2vs0mg"},{"bike_id":"e120cc05-224f-4263-896e-9082eea1a7fa","system_id":"levelo_inurba_marseille","lat":43.302759,"lon":5.400793,"is_reserved":false,"is_disabled":false,"rental_uris":{"android":"levelo://app?vid=e120cc05-224f-4263-896e-9082eea1a7fa","ios":"levelo://app?vid=e120cc05-224f-4263-896e-9082eea1a7fa"},"vehicle_type_id":"4","last_reported":1725124008,"current_range_meters":10400,"station_id":"ce4bgvh2rcd13ifvqcs0","pricing_plan_id":"cebpf4jnsgd1na2vs0mg"},{"bike_id":"b554f7bd-e3ea-40e1-a390-50d036509e31","system_id":"levelo_inurba_marseille","lat":43.289307,"lon":5.38406,"is_reserved":false,"is_disabled":false,"rental_uris":{"android":"levelo://app?vid=b554f7bd-e3ea-40e1-a390-50d036509e31","ios":"levelo://app?vid=b554f7bd-e3ea-40e1-a390-50d036509e31"},"vehicle_type_id":"4","last_reported":1725124008,"current_range_meters":25600,"station_id":"ce4bh612rcd13ifvqe6g","pricing_plan_id":"cebpf4jnsgd1na2vs0mg"},{"bike_id":"d55d6355-bd5f-44f0-90f6-2930804449fa","system_id":"levelo_inurba_marseille","lat":43.290336,"lon":5.386425,"is_reserved":false,"is_disabled":false,"rental_uris":{"android":"levelo://app?vid=d55d6355-bd5f-44f0-90f6-2930804449fa","ios":"levelo://app?vid=d55d6355-bd5f-44f0-90f6-2930804449fa"},"vehicle_type_id":"4","last_reported":1725124008,"current_range_meters":0,"station_id":"ce4bh4p2rcd13ifvqe0g","pricing_plan_id":"cebpf4jnsgd1na2vs0mg"},{"bike_id":"24fe73a5-1724-4d3d-9485-542c167e3484","system_id":"levelo_inurba_marseille","lat":43.302759,"lon":5.400793,"is_reserved":false,"is_disabled":false,"rental_uris":{"android":"levelo://app?vid=24fe73a5-1724-4d3d-9485-542c167e3484","ios":"levelo://app?vid=24fe73a5-1724-4d3d-9485-542c167e3484"},"vehicle_type_id":"4","last_reported":1725124008,"current_range_meters":0,"station_id":"ce4bgvh2rcd13ifvqcs0","pricing_plan_id":"cebpf4jnsgd1na2vs0mg"},{"bike_id":"60016cb0-9c5e-48eb-9215-e1adee359e0e","system_id":"levelo_inurba_marseille","lat":43.28734,"lon":5.37949,"is_reserved":false,"is_disabled":false,"rental_uris":{"android":"levelo://app?vid=60016cb0-9c5e-48eb-9215-e1adee359e0e","ios":"levelo://app?vid=60016cb0-9c5e-48eb-9215-e1adee359e0e"},"vehicle_type_id":"4","last_reported":1725124008,"current_range_meters":18000,"station_id":"ce4bh9p2rcd13ifvqec0","pricing_plan_id":"cebpf4jnsgd1na2vs0mg"},{"bike_id":"ea56a220-4681-4efd-94eb-79a319201bca","system_id":"levelo_inurba_marseille","lat":43.287184,"lon":5.37937,"is_reserved":false,"is_disabled":false,"rental_uris":{"android":"levelo://app?vid=ea56a220-4681-4efd-94eb-79a319201bca","ios":"levelo://app?vid=ea56a220-4681-4efd-94eb-79a319201bca"},"vehicle_type_id":"4","last_reported":1725124008,"current_range_meters":14400,"station_id":"ce4bh9p2rcd13ifvqec0","pricing_plan_id":"cebpf4jnsgd1na2vs0mg"},{"bike_id":"7ffff0ca-e271-47f6-95c8-08461fe08496","system_id":"levelo_inurba_marseille","lat":43.316821,"lon":5.404737,"is_reserved":false,"is_disabled":false,"rental_uris":{"android":"levelo://app?vid=7ffff0ca-e271-47f6-95c8-08461fe08496","ios":"levelo://app?vid=7ffff0ca-e271-47f6-95c8-08461fe08496"},"vehicle_type_id":"4","last_reported":1725124008,"current_range_meters":1200,"station_id":"ce4bh012rcd13ifvqd00","pricing_plan_id":"cebpf4jnsgd1na2vs0mg"},{"bike_id":"ccb0d224-7f5e-437f-a423-22b9b6259846","system_id":"levelo_inurba_marseille","lat":43.294314,"lon":5.397498,"is_reserved":false,"is_disabled":false,"rental_uris":{"android":"levelo://app?vid=ccb0d224-7f5e-437f-a423-22b9b6259846","ios":"levelo://app?vid=ccb0d224-7f5e-437f-a423-22b9b6259846"},"vehicle_type_id":"4","last_reported":1725124008,"current_range_meters":10400,"station_id":"ce4bh3h2rcd13ifvqdo0","pricing_plan_id":"cebpf4jnsgd1na2vs0mg"},{"bike_id":"3f1bb3d8-d6c4-4003-9e4c-7d256f71f749","system_id":"levelo_inurba_marseille","lat":43.28633,"lon":5.35112,"is_reserved":false,"is_disabled":false,"rental_uris":{"android":"levelo://app?vid=3f1bb3d8-d6c4-4003-9e4c-7d256f71f749","ios":"levelo://app?vid=3f1bb3d8-d6c4-4003-9e4c-7d256f71f749"},"vehicle_type_id":"4","last_reported":1725124008,"current_range_meters":30800,"station_id":"ce4bhch2rcd13ifvqeug","pricing_plan_id":"cebpf4jnsgd1na2vs0mg"},{"bike_id":"daa1b333-7467-4793-af89-c008d755bde2","system_id":"levelo_inurba_marseille","lat":43.294314,"lon":5.397498,"is_reserved":false,"is_disabled":false,"rental_uris":{"android":"levelo://app?vid=daa1b333-7467-4793-af89-c008d755bde2","ios":"levelo://app?vid=daa1b333-7467-4793-af89-c008d755bde2"},"vehicle_type_id":"4","last_reported":1725124008,"current_range_meters":0,"station_id":"ce4bh3h2rcd13ifvqdo0","pricing_plan_id":"cebpf4jnsgd1na2vs0mg"},{"bike_id":"23c1998f-c722-4e77-b25c-33afe801d5fe","system_id":"levelo_inurba_marseille","lat":43.28624,"lon":5.35102,"is_reserved":false,"is_disabled":false,"rental_uris":{"android":"levelo://app?vid=23c1998f-c722-4e77-b25c-33afe801d5fe","ios":"levelo://app?vid=23c1998f-c722-4e77-b25c-33afe801d5fe"},"vehicle_type_id":"4","last_reported":1725124008,"current_range_meters":21600,"station_id":"ce4bhch2rcd13ifvqeug","pricing_plan_id":"cebpf4jnsgd1na2vs0mg"},{"bike_id":"d0dd64b7-76e8-4345-8782-f7cf156188cc","system_id":"levelo_inurba_marseille","lat":43.2862,"lon":5.35102,"is_reserved":false,"is_disabled":false,"rental_uris":{"android":"levelo://app?vid=d0dd64b7-76e8-4345-8782-f7cf156188cc","ios":"levelo://app?vid=d0dd64b7-76e8-4345-8782-f7cf156188cc"},"vehicle_type_id":"4","last_reported":1725124008,"current_range_meters":29600,"station_id":"ce4bhch2rcd13ifvqeug","pricing_plan_id":"cebpf4jnsgd1na2vs0mg"},{"bike_id":"2cb697d5-ac91-4639-8733-7c143eb1d8c9","system_id":"levelo_inurba_marseille","lat":43.28618,"lon":5.35103,"is_reserved":false,"is_disabled":false,"rental_uris":{"android":"levelo://app?vid=2cb697d5-ac91-4639-8733-7c143eb1d8c9","ios":"levelo://app?vid=2cb697d5-ac91-4639-8733-7c143eb1d8c9"},"vehicle_type_id":"4","last_reported":1725124008,"current_range_meters":31200,"station_id":"ce4bhch2rcd13ifvqeug","pricing_plan_id":"cebpf4jnsgd1na2vs0mg"},{"bike_id":"dc34d470-84f1-4a5f-85b1-e95bc37979a8","system_id":"levelo_inurba_marseille","lat":43.28617,"lon":5.35104,"is_reserved":false,"is_disabled":false,"rental_uris":{"android":"levelo://app?vid=dc34d470-84f1-4a5f-85b1-e95bc37979a8","ios":"levelo://app?vid=dc34d470-84f1-4a5f-85b1-e95bc37979a8"},"vehicle_type_id":"4","last_reported":1725124008,"current_range_meters":20000,"station_id":"ce4bhch2rcd13ifvqeug","pricing_plan_id":"cebpf4jnsgd1na2vs0mg"},{"bike_id":"d5968876-61aa-45f7-bc2c-33f2a419ecbf","system_id":"levelo_inurba_marseille","lat":43.28615,"lon":5.35105,"is_reserved":false,"is_disabled":false,"rental_uris":{"android":"levelo://app?vid=d5968876-61aa-45f7-bc2c-33f2a419ecbf","ios":"levelo://app?vid=d5968876-61aa-45f7-bc2c-33f2a419ecbf"},"vehicle_type_id":"4","last_reported":1725124008,"current_range_meters":30000,"station_id":"ce4bhch2rcd13ifvqeug","pricing_plan_id":"cebpf4jnsgd1na2vs0mg"},{"bike_id":"8b9931d6-5f3b-4227-aa4d-d7838c017f6d","system_id":"levelo_inurba_marseille","lat":43.28616,"lon":5.351,"is_reserved":false,"is_disabled":false,"rental_uris":{"android":"levelo://app?vid=8b9931d6-5f3b-4227-aa4d-d7838c017f6d","ios":"levelo://app?vid=8b9931d6-5f3b-4227-aa4d-d7838c017f6d"},"vehicle_type_id":"4","last_reported":1725124008,"current_range_meters":31200,"station_id":"ce4bhch2rcd13ifvqeug","pricing_plan_id":"cebpf4jnsgd1na2vs0mg"},{"bike_id":"85d9371e-1411-4367-b1d2-1c48e4447a73","system_id":"levelo_inurba_marseille","lat":43.28614,"lon":5.35105,"is_reserved":false,"is_disabled":false,"rental_uris":{"android":"levelo://app?vid=85d9371e-1411-4367-b1d2-1c48e4447a73","ios":"levelo://app?vid=85d9371e-1411-4367-b1d2-1c48e4447a73"},"vehicle_type_id":"4","last_reported":1725124008,"current_range_meters":0,"station_id":"ce4bhch2rcd13ifvqeug","pricing_plan_id":"cebpf4jnsgd1na2vs0mg"},{"bike_id":"b4196874-35c9-4d80-8e5f-fdd1eade6544","system_id":"levelo_inurba_marseille","lat":43.28617,"lon":5.35095,"is_reserved":false,"is_disabled":false,"rental_uris":{"android":"levelo://app?vid=b4196874-35c9-4d80-8e5f-fdd1eade6544","ios":"levelo://app?vid=b4196874-35c9-4d80-8e5f-fdd1eade6544"},"vehicle_type_id":"4","last_reported":1725124008,"current_range_meters":15200,"station_id":"ce4bhch2rcd13ifvqeug","pricing_plan_id":"cebpf4jnsgd1na2vs0mg"},{"bike_id":"f78d2aae-d9ac-42a1-b97a-4e07111a8041","system_id":"levelo_inurba_marseille","lat":43.28615,"lon":5.35101,"is_reserved":false,"is_disabled":false,"rental_uris":{"android":"levelo://app?vid=f78d2aae-d9ac-42a1-b97a-4e07111a8041","ios":"levelo://app?vid=f78d2aae-d9ac-42a1-b97a-4e07111a8041"},"vehicle_type_id":"4","last_reported":1725124008,"current_range_meters":24800,"station_id":"ce4bhch2rcd13ifvqeug","pricing_plan_id":"cebpf4jnsgd1na2vs0mg"},{"bike_id":"f44a47ba-83f5-419a-b0e6-c6fe246a2f15","system_id":"levelo_inurba_marseille","lat":43.28614,"lon":5.35104,"is_reserved":false,"is_disabled":false,"rental_uris":{"android":"levelo://app?vid=f44a47ba-83f5-419a-b0e6-c6fe246a2f15","ios":"levelo://app?vid=f44a47ba-83f5-419a-b0e6-c6fe246a2f15"},"vehicle_type_id":"4","last_reported":1725124008,"current_range_meters":30400,"station_id":"ce4bhch2rcd13ifvqeug","pricing_plan_id":"cebpf4jnsgd1na2vs0mg"},{"bike_id":"31484b4f-22ba-4145-aedd-9fc5e81a2d8b","system_id":"levelo_inurba_marseille","lat":43.28614,"lon":5.35104,"is_reserved":false,"is_disabled":false,"rental_uris":{"android":"levelo://app?vid=31484b4f-22ba-4145-aedd-9fc5e81a2d8b","ios":"levelo://app?vid=31484b4f-22ba-4145-aedd-9fc5e81a2d8b"},"vehicle_type_id":"4","last_reported":1725124008,"current_range_meters":30800,"station_id":"ce4bhch2rcd13ifvqeug","pricing_plan_id":"cebpf4jnsgd1na2vs0mg"},{"bike_id":"dd79b056-fa03-4a99-b7da-4a03b57d741d","system_id":"levelo_inurba_marseille","lat":43.286155,"lon":5.350975,"is_reserved":false,"is_disabled":false,"rental_uris":{"android":"levelo://app?vid=dd79b056-fa03-4a99-b7da-4a03b57d741d","ios":"levelo://app?vid=dd79b056-fa03-4a99-b7da-4a03b57d741d"},"vehicle_type_id":"4","last_reported":1725124008,"current_range_meters":23200,"station_id":"ce4bhch2rcd13ifvqeug","pricing_plan_id":"cebpf4jnsgd1na2vs0mg"},{"bike_id":"0214c986-87ef-4f67-bd44-1cb6415ef614","system_id":"levelo_inurba_marseille","lat":43.28614,"lon":5.35102,"is_reserved":false,"is_disabled":false,"rental_uris":{"android":"levelo://app?vid=0214c986-87ef-4f67-bd44-1cb6415ef614","ios":"levelo://app?vid=0214c986-87ef-4f67-bd44-1cb6415ef614"},"vehicle_type_id":"4","last_reported":1725124008,"current_range_meters":8000,"station_id":"ce4bhch2rcd13ifvqeug","pricing_plan_id":"cebpf4jnsgd1na2vs0mg"},{"bike_id":"c67b26c8-9593-4066-b9b9-4cf6d4911a8e","system_id":"levelo_inurba_marseille","lat":43.28614,"lon":5.35102,"is_reserved":false,"is_disabled":false,"rental_uris":{"android":"levelo://app?vid=c67b26c8-9593-4066-b9b9-4cf6d4911a8e","ios":"levelo://app?vid=c67b26c8-9593-4066-b9b9-4cf6d4911a8e"},"vehicle_type_id":"4","last_reported":1725124008,"current_range_meters":26400,"station_id":"ce4bhch2rcd13ifvqeug","pricing_plan_id":"cebpf4jnsgd1na2vs0mg"},{"bike_id":"2b4bdfab-0b92-4838-a280-737a12a6233e","system_id":"levelo_inurba_marseille","lat":43.286146,"lon":5.350963,"is_reserved":false,"is_disabled":false,"rental_uris":{"android":"levelo://app?vid=2b4bdfab-0b92-4838-a280-737a12a6233e","ios":"levelo://app?vid=2b4bdfab-0b92-4838-a280-737a12a6233e"},"vehicle_type_id":"4","last_reported":1725124008,"current_range_meters":14800,"station_id":"ce4bhch2rcd13ifvqeug","pricing_plan_id":"cebpf4jnsgd1na2vs0mg"},{"bike_id":"f7739048-b688-4ed8-8596-8c43b5f52a11","system_id":"levelo_inurba_marseille","lat":43.286127,"lon":5.35099,"is_reserved":false,"is_disabled":false,"rental_uris":{"android":"levelo://app?vid=f7739048-b688-4ed8-8596-8c43b5f52a11","ios":"levelo://app?vid=f7739048-b688-4ed8-8596-8c43b5f52a11"},"vehicle_type_id":"4","last_reported":1725124008,"current_range_meters":16000,"station_id":"ce4bhch2rcd13ifvqeug","pricing_plan_id":"cebpf4jnsgd1na2vs0mg"},{"bike_id":"4bfeb955-241e-4a94-aca9-07f9e8a2ec5c","system_id":"levelo_inurba_marseille","lat":43.28611,"lon":5.35104,"is_reserved":false,"is_disabled":false,"rental_uris":{"android":"levelo://app?vid=4bfeb955-241e-4a94-aca9-07f9e8a2ec5c","ios":"levelo://app?vid=4bfeb955-241e-4a94-aca9-07f9e8a2ec5c"},"vehicle_type_id":"4","last_reported":1725124008,"current_range_meters":31200,"station_id":"ce4bhch2rcd13ifvqeug","pricing_plan_id":"cebpf4jnsgd1na2vs0mg"},{"bike_id":"d446e27c-95b6-468a-805a-3c8e86354df9","system_id":"levelo_inurba_marseille","lat":43.28615,"lon":5.35091,"is_reserved":false,"is_disabled":false,"rental_uris":{"android":"levelo://app?vid=d446e27c-95b6-468a-805a-3c8e86354df9","ios":"levelo://app?vid=d446e27c-95b6-468a-805a-3c8e86354df9"},"vehicle_type_id":"4","last_reported":1725124008,"current_range_meters":25200,"station_id":"ce4bhch2rcd13ifvqeug","pricing_plan_id":"cebpf4jnsgd1na2vs0mg"},{"bike_id":"fe76776d-ef7f-4e55-9c8d-82e650defc29","system_id":"levelo_inurba_marseille","lat":43.2861,"lon":5.35104,"is_reserved":false,"is_disabled":false,"rental_uris":{"android":"levelo://app?vid=fe76776d-ef7f-4e55-9c8d-82e650defc29","ios":"levelo://app?vid=fe76776d-ef7f-4e55-9c8d-82e650defc29"},"vehicle_type_id":"4","last_reported":1725124008,"current_range_meters":17600,"station_id":"ce4bhch2rcd13ifvqeug","pricing_plan_id":"cebpf4jnsgd1na2vs0mg"},{"bike_id":"5b899157-8493-46f6-946c-33fa90333ee2","system_id":"levelo_inurba_marseille","lat":43.28609,"lon":5.35103,"is_reserved":false,"is_disabled":false,"rental_uris":{"android":"levelo://app?vid=5b899157-8493-46f6-946c-33fa90333ee2","ios":"levelo://app?vid=5b899157-8493-46f6-946c-33fa90333ee2"},"vehicle_type_id":"4","last_reported":1725124008,"current_range_meters":12400,"station_id":"ce4bhch2rcd13ifvqeug","pricing_plan_id":"cebpf4jnsgd1na2vs0mg"},{"bike_id":"5e9d269f-2ad2-452a-8d7c-dd7fd08629fd","system_id":"levelo_inurba_marseille","lat":43.28611,"lon":5.35096,"is_reserved":false,"is_disabled":false,"rental_uris":{"android":"levelo://app?vid=5e9d269f-2ad2-452a-8d7c-dd7fd08629fd","ios":"levelo://app?vid=5e9d269f-2ad2-452a-8d7c-dd7fd08629fd"},"vehicle_type_id":"4","last_reported":1725124008,"current_range_meters":31200,"station_id":"ce4bhch2rcd13ifvqeug","pricing_plan_id":"cebpf4jnsgd1na2vs0mg"},{"bike_id":"5dfca233-a714-4524-9a66-c72f27454af3","system_id":"levelo_inurba_marseille","lat":43.295713,"lon":5.399639,"is_reserved":false,"is_disabled":false,"rental_uris":{"android":"levelo://app?vid=5dfca233-a714-4524-9a66-c72f27454af3","ios":"levelo://app?vid=5dfca233-a714-4524-9a66-c72f27454af3"},"vehicle_type_id":"4","last_reported":1725124008,"current_range_meters":9200,"station_id":"ce4bh312rcd13ifvqdj0","pricing_plan_id":"cebpf4jnsgd1na2vs0mg"},{"bike_id":"18a74486-055e-4c37-b258-f8afc3488253","system_id":"levelo_inurba_marseille","lat":43.283998,"lon":5.375062,"is_reserved":false,"is_disabled":false,"rental_uris":{"android":"levelo://app?vid=18a74486-055e-4c37-b258-f8afc3488253","ios":"levelo://app?vid=18a74486-055e-4c37-b258-f8afc3488253"},"vehicle_type_id":"4","last_reported":1725124008,"current_range_meters":5200,"station_id":"ce4bh412rcd13ifvqds0","pricing_plan_id":"cebpf4jnsgd1na2vs0mg"},{"bike_id":"99c44358-34b4-443f-b908-12a74ca712d4","system_id":"levelo_inurba_marseille","lat":43.283998,"lon":5.375062,"is_reserved":false,"is_disabled":false,"rental_uris":{"android":"levelo://app?vid=99c44358-34b4-443f-b908-12a74ca712d4","ios":"levelo://app?vid=99c44358-34b4-443f-b908-12a74ca712d4"},"vehicle_type_id":"4","last_reported":1725124008,"current_range_meters":0,"station_id":"ce4bh412rcd13ifvqds0","pricing_plan_id":"cebpf4jnsgd1na2vs0mg"},{"bike_id":"fcb5c33a-bf1c-4c12-9d9e-99b2a725175f","system_id":"levelo_inurba_marseille","lat":43.283998,"lon":5.375062,"is_reserved":false,"is_disabled":false,"rental_uris":{"android":"levelo://app?vid=fcb5c33a-bf1c-4c12-9d9e-99b2a725175f","ios":"levelo://app?vid=fcb5c33a-bf1c-4c12-9d9e-99b2a725175f"},"vehicle_type_id":"4","last_reported":1725124008,"current_range_meters":2400,"station_id":"ce4bh412rcd13ifvqds0","pricing_plan_id":"cebpf4jnsgd1na2vs0mg"},{"bike_id":"c085892e-5321-42b1-9d16-a0a3a8fcde3e","system_id":"levelo_inurba_marseille","lat":43.283998,"lon":5.375062,"is_reserved":false,"is_disabled":false,"rental_uris":{"android":"levelo://app?vid=c085892e-5321-42b1-9d16-a0a3a8fcde3e","ios":"levelo://app?vid=c085892e-5321-42b1-9d16-a0a3a8fcde3e"},"vehicle_type_id":"4","last_reported":1725124008,"current_range_meters":0,"station_id":"ce4bh412rcd13ifvqds0","pricing_plan_id":"cebpf4jnsgd1na2vs0mg"},{"bike_id":"e0b44ffa-f369-42c4-9f24-a477419fe441","system_id":"levelo_inurba_marseille","lat":43.283998,"lon":5.375062,"is_reserved":false,"is_disabled":false,"rental_uris":{"android":"levelo://app?vid=e0b44ffa-f369-42c4-9f24-a477419fe441","ios":"levelo://app?vid=e0b44ffa-f369-42c4-9f24-a477419fe441"},"vehicle_type_id":"4","last_reported":1725124008,"current_range_meters":0,"station_id":"ce4bh412rcd13ifvqds0","pricing_plan_id":"cebpf4jnsgd1na2vs0mg"},{"bike_id":"dfb4320f-689b-4835-a7e7-9dc9bcc740d7","system_id":"levelo_inurba_marseille","lat":43.295713,"lon":5.399639,"is_reserved":false,"is_disabled":false,"rental_uris":{"android":"levelo://app?vid=dfb4320f-689b-4835-a7e7-9dc9bcc740d7","ios":"levelo://app?vid=dfb4320f-689b-4835-a7e7-9dc9bcc740d7"},"vehicle_type_id":"4","last_reported":1725124008,"current_range_meters":17200,"station_id":"ce4bh312rcd13ifvqdj0","pricing_plan_id":"cebpf4jnsgd1na2vs0mg"},{"bike_id":"68588ea4-4e0e-4cf2-b84d-7fcb220c541c","system_id":"levelo_inurba_marseille","lat":43.34181,"lon":5.36026,"is_reserved":false,"is_disabled":false,"rental_uris":{"android":"levelo://app?vid=68588ea4-4e0e-4cf2-b84d-7fcb220c541c","ios":"levelo://app?vid=68588ea4-4e0e-4cf2-b84d-7fcb220c541c"},"vehicle_type_id":"4","last_reported":1725124008,"current_range_meters":0,"station_id":"","pricing_plan_id":"cebpf4jnsgd1na2vs0mg"},{"bike_id":"e900ee9d-f7b9-4a49-9f91-7da53ce318cd","system_id":"levelo_inurba_marseille","lat":43.28682,"lon":5.38656,"is_reserved":false,"is_disabled":false,"rental_uris":{"android":"levelo://app?vid=e900ee9d-f7b9-4a49-9f91-7da53ce318cd","ios":"levelo://app?vid=e900ee9d-f7b9-4a49-9f91-7da53ce318cd"},"vehicle_type_id":"4","last_reported":1725124008,"current_range_meters":0,"station_id":"ce4bh492rcd13ifvqdug","pricing_plan_id":"cebpf4jnsgd1na2vs0mg"},{"bike_id":"e25e4389-6cb6-4475-8df7-61451c80c4f8","system_id":"levelo_inurba_marseille","lat":43.323464,"lon":5.406297,"is_reserved":false,"is_disabled":false,"rental_uris":{"android":"levelo://app?vid=e25e4389-6cb6-4475-8df7-61451c80c4f8","ios":"levelo://app?vid=e25e4389-6cb6-4475-8df7-61451c80c4f8"},"vehicle_type_id":"4","last_reported":1725124008,"current_range_meters":31600,"station_id":"ce4bhq92rcd13ifvqhjg","pricing_plan_id":"cebpf4jnsgd1na2vs0mg"},{"bike_id":"f6856dc7-e7c9-41de-9616-f79c0558d53a","system_id":"levelo_inurba_marseille","lat":43.323464,"lon":5.406297,"is_reserved":false,"is_disabled":false,"rental_uris":{"android":"levelo://app?vid=f6856dc7-e7c9-41de-9616-f79c0558d53a","ios":"levelo://app?vid=f6856dc7-e7c9-41de-9616-f79c0558d53a"},"vehicle_type_id":"4","last_reported":1725124008,"current_range_meters":14800,"station_id":"ce4bhq92rcd13ifvqhjg","pricing_plan_id":"cebpf4jnsgd1na2vs0mg"},{"bike_id":"026e35c3-b175-49b2-a4eb-928a07911631","system_id":"levelo_inurba_marseille","lat":43.323464,"lon":5.406297,"is_reserved":false,"is_disabled":false,"rental_uris":{"android":"levelo://app?vid=026e35c3-b175-49b2-a4eb-928a07911631","ios":"levelo://app?vid=026e35c3-b175-49b2-a4eb-928a07911631"},"vehicle_type_id":"4","last_reported":1725124008,"current_range_meters":3600,"station_id":"ce4bhq92rcd13ifvqhjg","pricing_plan_id":"cebpf4jnsgd1na2vs0mg"},