{"last_updated":1744823326,"ttl":60,"version":"2.2","data":{"bikes":[{"bike_id":"74d270ad-d26e-46a8-899b-e8810cd3f2eb","system_id":"levelo_inurba_marseille","lat":43.3136,"lon":5.385,"is_reserved":false,"is_disabled":false,"rental_uris":{"android":"levelo://app?vid=74d270ad-d26e-46a8-899b-e8810cd3f2eb","ios":"levelo://app?vid=74d270ad-d26e-46a8-899b-e8810cd3f2eb"},"vehicle_type_id":"4","last_reported":1744823326,"current_range_meters":2000,"station_id":"ce4bgt92rcd13ifvqcf0","pricing_plan_id":"cebpf4jnsgd1na2vs0mg"},{"bike_id":"a77f9a98-ca2e-4bbb-8bf0-22c4f5e1388f","system_id":"levelo_inurba_marseille","lat":43.29177,"lon":5.37164,"is_reserved":false,"is_disabled":false,"rental_uris":{"android":"levelo://app?vid=a77f9a98-ca2e-4bbb-8bf0-22c4f5e1388f","ios":"levelo://app?vid=a77f9a98-ca2e-4bbb-8bf0-22c4f5e1388f"},"vehicle_type_id":"4","last_reported":1744823326,"current_range_meters":3600,"station_id":"ce4bha92rcd13ifvqeh0","pricing_plan_id":"cebpf4jnsgd1na2vs0mg"},{"bike_id":"c273cedc-5337-4dec-91b4-1636fd7d09ad","system_id":"levelo_inurba_marseille","lat":43.31425,"lon":5.37602,"is_reserved":false,"is_disabled":false,"rental_uris":{"android":"levelo://app?vid=c273cedc-5337-4dec-91b4-1636fd7d09ad","ios":"levelo://app?vid=c273cedc-5337-4dec-91b4-1636fd7d09ad"},"vehicle_type_id":"4","last_reported":1744823326,"current_range_meters":4800,"station_id":"","pricing_plan_id":"cebpf4jnsgd1na2vs0mg"},{"bike_id":"60c45f66-30a2-4a8c-9b1b-e164cdf3eb82","system_id":"levelo_inurba_marseille","lat":43.30132,"lon":5.38097,"is_reserved":false,"is_disabled":false,"rental_uris":{"android":"levelo://app?vid=60c45f66-30a2-4a8c-9b1b-e164cdf3eb82","ios":"levelo://app?vid=60c45f66-30a2-4a8c-9b1b-e164cdf3eb82"},"vehicle_type_id":"4","last_reported":1744823326,"current_range_meters":5600,"station_id":"ce4bgjp2rcd13ifvqbh0","pricing_plan_id":"cebpf4jnsgd1na2vs0mg"},{"bike_id":"757dd0e2-653a-4dad-84fc-3ac5cb97d302","system_id":"levelo_inurba_marseille","lat":43.28427,"lon":5.34977,"is_reserved":false,"is_disabled":false,"rental_uris":{"android":"levelo://app?vid=757dd0e2-653a-4dad-84fc-3ac5cb97d302","ios":"levelo://app?vid=757dd0e2-653a-4dad-84fc-3ac5cb97d302"},"vehicle_type_id":"4","last_reported":1744823326,"current_range_meters":6000,"station_id":"ce4bhbh2rcd13ifvqepg","pricing_plan_id":"cebpf4jnsgd1na2vs0mg"},{"bike_id":"27a55245-8dd2-4f1a-af63-95a9d7b71690","system_id":"levelo_inurba_marseille","lat":43.31083,"lon":5.37849,"is_reserved":false,"is_disabled":false,"rental_uris":{"android":"levelo://app?vid=27a55245-8dd2-4f1a-af63-95a9d7b71690","ios":"levelo://app?vid=27a55245-8dd2-4f1a-af63-95a9d7b71690"},"vehicle_type_id":"4","last_reported":1744823326,"current_range_meters":6000,"station_id":"","pricing_plan_id":"cebpf4jnsgd1na2vs0mg"},{"bike_id":"a0636e31-c89e-4ae1-aea4-880988d0da0e","system_id":"levelo_inurba_marseille","lat":43.29561,"lon":5.42286,"is_reserved":false,"is_disabled":false,"rental_uris":{"android":"levelo://app?vid=a0636e31-c89e-4ae1-aea4-880988d0da0e","ios":"levelo://app?vid=a0636e31-c89e-4ae1-aea4-880988d0da0e"},"vehicle_type_id":"4","last_reported":1744823326,"current_range_meters":6400,"station_id":"ce4bhph2rcd13ifvqhdg","pricing_plan_id":"cebpf4jnsgd1na2vs0mg"},{"bike_id":"4b7e4ae9-ad61-497d-b64c-7b8d7fc6e3a4","system_id":"levelo_inurba_marseille","lat":43.23959,"lon":5.36636,"is_reserved":false,"is_disabled":false,"rental_uris":{"android":"levelo://app?vid=4b7e4ae9-ad61-497d-b64c-7b8d7fc6e3a4","ios":"levelo://app?vid=4b7e4ae9-ad61-497d-b64c-7b8d7fc6e3a4"},"vehicle_type_id":"4","last_reported":1744823326,"current_range_meters":6800,"station_id":"ce4bhi12rcd13ifvqfp0","pricing_plan_id":"cebpf4jnsgd1na2vs0mg"},{"bike_id":"b7ab99ba-94bb-4274-aca7-e6131d0e5ab1","system_id":"levelo_inurba_marseille","lat":43.24168,"lon":5.36405,"is_reserved":false,"is_disabled":false,"rental_uris":{"android":"levelo://app?vid=b7ab99ba-94bb-4274-aca7-e6131d0e5ab1","ios":"levelo://app?vid=b7ab99ba-94bb-4274-aca7-e6131d0e5ab1"},"vehicle_type_id":"4","last_reported":1744823326,"current_range_meters":6800,"station_id":"cpo36qri1sfpv3e86is0","pricing_plan_id":"cebpf4jnsgd1na2vs0mg"},{"bike_id":"eaf6328d-11b9-490d-8905-351ca208c8af","system_id":"levelo_inurba_marseille","lat":43.28473,"lon":5.38442,"is_reserved":false,"is_disabled":false,"rental_uris":{"android":"levelo://app?vid=eaf6328d-11b9-490d-8905-351ca208c8af","ios":"levelo://app?vid=eaf6328d-11b9-490d-8905-351ca208c8af"},"vehicle_type_id":"4","last_reported":1744823326,"current_range_meters":6800,"station_id":"ce4bh512rcd13ifvqe3g","pricing_plan_id":"cebpf4jnsgd1na2vs0mg"},{"bike_id":"f539c0b1-f431-4f5b-996c-75f09fe021a5","system_id":"levelo_inurba_marseille","lat":43.29968,"lon":5.38492,"is_reserved":false,"is_disabled":false,"rental_uris":{"android":"levelo://app?vid=f539c0b1-f431-4f5b-996c-75f09fe021a5","ios":"levelo://app?vid=f539c0b1-f431-4f5b-996c-75f09fe021a5"},"vehicle_type_id":"4","last_reported":1744823326,"current_range_meters":6800,"station_id":"ce4bgj92rcd13ifvqbd0","pricing_plan_id":"cebpf4jnsgd1na2vs0mg"},{"bike_id":"bdc8e62f-9137-4205-acf5-9394d6e51b43","system_id":"levelo_inurba_marseille","lat":43.32662,"lon":5.40995,"is_reserved":false,"is_disabled":false,"rental_uris":{"android":"levelo://app?vid=bdc8e62f-9137-4205-acf5-9394d6e51b43","ios":"levelo://app?vid=bdc8e62f-9137-4205-acf5-9394d6e51b43"},"vehicle_type_id":"4","last_reported":1744823326,"current_range_meters":7200,"station_id":"ce4bhpp2rcd13ifvqhgg","pricing_plan_id":"cebpf4jnsgd1na2vs0mg"},{"bike_id":"7337bcf4-55f6-4bf9-9db3-a06eeacd108b","system_id":"levelo_inurba_marseille","lat":43.28709,"lon":5.37391,"is_reserved":false,"is_disabled":false,"rental_uris":{"android":"levelo://app?vid=7337bcf4-55f6-4bf9-9db3-a06eeacd108b","ios":"levelo://app?vid=7337bcf4-55f6-4bf9-9db3-a06eeacd108b"},"vehicle_type_id":"4","last_reported":1744823326,"current_range_meters":7200,"station_id":"ce4bh3p2rcd13ifvqdq0","pricing_plan_id":"cebpf4jnsgd1na2vs0mg"},{"bike_id":"376f754b-7bba-4962-babe-b49b1468281c","system_id":"levelo_inurba_marseille","lat":43.30925,"lon":5.40312,"is_reserved":false,"is_disabled":true,"rental_uris":{"android":"levelo://app?vid=376f754b-7bba-4962-babe-b49b1468281c","ios":"levelo://app?vid=376f754b-7bba-4962-babe-b49b1468281c"},"vehicle_type_id":"4","last_reported":1744823326,"current_range_meters":8000,"station_id":"ce4bgvp2rcd13ifvqct0","pricing_plan_id":"cebpf4jnsgd1na2vs0mg"},{"bike_id":"f443cfdb-db2e-4f4b-a88d-615075e28818","system_id":"levelo_inurba_marseille","lat":43.30597,"lon":5.36546,"is_reserved":false,"is_disabled":false,"rental_uris":{"android":"levelo://app?vid=f443cfdb-db2e-4f4b-a88d-615075e28818","ios":"levelo://app?vid=f443cfdb-db2e-4f4b-a88d-615075e28818"},"vehicle_type_id":"4","last_reported":1744823326,"current_range_meters":8400,"station_id":"ce4bgs12rcd13ifvqcag","pricing_plan_id":"cebpf4jnsgd1na2vs0mg"},{"bike_id":"5ac62bad-dbc0-41b8-84e6-1e41dc1d2778","system_id":"levelo_inurba_marseille","lat":43.31693,"lon":5.40472,"is_reserved":false,"is_disabled":false,"rental_uris":{"android":"levelo://app?vid=5ac62bad-dbc0-41b8-84e6-1e41dc1d2778","ios":"levelo://app?vid=5ac62bad-dbc0-41b8-84e6-1e41dc1d2778"},"vehicle_type_id":"4","last_reported":1744823326,"current_range_meters":8400,"station_id":"ce4bh012rcd13ifvqd00","pricing_plan_id":"cebpf4jnsgd1na2vs0mg"},{"bike_id":"105b34d5-b784-4a27-ab6b-1f24fd649f25","system_id":"levelo_inurba_marseille","lat":43.29718,"lon":5.37687,"is_reserved":false,"is_disabled":false,"rental_uris":{"android":"levelo://app?vid=105b34d5-b784-4a27-ab6b-1f24fd649f25","ios":"levelo://app?vid=105b34d5-b784-4a27-ab6b-1f24fd649f25"},"vehicle_type_id":"4","last_reported":1744823326,"current_range_meters":8400,"station_id":"ce4bgkh2rcd13ifvqbl0","pricing_plan_id":"cebpf4jnsgd1na2vs0mg"},{"bike_id":"2797dcdb-c4e1-48b2-82d6-5677d371fa39","system_id":"levelo_inurba_marseille","lat":43.24164,"lon":5.36407,"is_reserved":false,"is_disabled":false,"rental_uris":{"android":"levelo://app?vid=2797dcdb-c4e1-48b2-82d6-5677d371fa39","ios":"levelo://app?vid=2797dcdb-c4e1-48b2-82d6-5677d371fa39"},"vehicle_type_id":"4","last_reported":1744823326,"current_range_meters":8400,"station_id":"cpo36qri1sfpv3e86is0","pricing_plan_id":"cebpf4jnsgd1na2vs0mg"},{"bike_id":"f9ce9565-3c06-45a5-a09b-c93917a98f53","system_id":"levelo_inurba_marseille","lat":43.30575,"lon":5.3656,"is_reserved":false,"is_disabled":false,"rental_uris":{"android":"levelo://app?vid=f9ce9565-3c06-45a5-a09b-c93917a98f53","ios":"levelo://app?vid=f9ce9565-3c06-45a5-a09b-c93917a98f53"},"vehicle_type_id":"4","last_reported":1744823326,"current_range_meters":8400,"station_id":"ce4bgs12rcd13ifvqcag","pricing_plan_id":"cebpf4jnsgd1na2vs0mg"},{"bike_id":"27d65429-e235-4ad4-8e99-624219bf772a","system_id":"levelo_inurba_marseille","lat":43.30734,"lon":5.4243,"is_reserved":false,"is_disabled":false,"rental_uris":{"android":"levelo://app?vid=27d65429-e235-4ad4-8e99-624219bf772a","ios":"levelo://app?vid=27d65429-e235-4ad4-8e99-624219bf772a"},"vehicle_type_id":"4","last_reported":1744823326,"current_range_meters":8400,"station_id":"st_cvj6ca6bvosntc0bfgr0","pricing_plan_id":"cebpf4jnsgd1na2vs0mg"},{"bike_id":"e0358a39-a0c0-4039-8a22-c869c319b7cf","system_id":"levelo_inurba_marseille","lat":43.29622,"lon":5.37151,"is_reserved":false,"is_disabled":false,"rental_uris":{"android":"levelo://app?vid=e0358a39-a0c0-4039-8a22-c869c319b7cf","ios":"levelo://app?vid=e0358a39-a0c0-4039-8a22-c869c319b7cf"},"vehicle_type_id":"4","last_reported":1744823326,"current_range_meters":8400,"station_id":"ce4bgnh2rcd13ifvqc0g","pricing_plan_id":"cebpf4jnsgd1na2vs0mg"},{"bike_id":"7d4a7fce-596b-40a1-bf8e-35f954a39aba","system_id":"levelo_inurba_marseille","lat":43.249655,"lon":5.37467,"is_reserved":false,"is_disabled":false,"rental_uris":{"android":"levelo://app?vid=7d4a7fce-596b-40a1-bf8e-35f954a39aba","ios":"levelo://app?vid=7d4a7fce-596b-40a1-bf8e-35f954a39aba"},"vehicle_type_id":"4","last_reported":1744823326,"current_range_meters":9200,"station_id":"ce4bhgh2rcd13ifvqfb0","pricing_plan_id":"cebpf4jnsgd1na2vs0mg"},{"bike_id":"131b597f-6d95-4443-9d12-7dedd7e5fd56","system_id":"levelo_inurba_marseille","lat":43.28273,"lon":5.35067,"is_reserved":false,"is_disabled":false,"rental_uris":{"android":"levelo://app?vid=131b597f-6d95-4443-9d12-7dedd7e5fd56","ios":"levelo://app?vid=131b597f-6d95-4443-9d12-7dedd7e5fd56"},"vehicle_type_id":"4","last_reported":1744823326,"current_range_meters":9200,"station_id":"ce4bhbp2rcd13ifvqerg","pricing_plan_id":"cebpf4jnsgd1na2vs0mg"},{"bike_id":"6930d382-5da3-4277-bd7d-cd055574410a","system_id":"levelo_inurba_marseille","lat":43.29041,"lon":5.37569,"is_reserved":false,"is_disabled":false,"rental_uris":{"android":"levelo://app?vid=6930d382-5da3-4277-bd7d-cd055574410a","ios":"levelo://app?vid=6930d382-5da3-4277-bd7d-cd055574410a"},"vehicle_type_id":"4","last_reported":1744823326,"current_range_meters":9200,"station_id":"ce4bh692rcd13ifvqe90","pricing_plan_id":"cebpf4jnsgd1na2vs0mg"},{"bike_id":"1c0c17d4-38c5-4a1c-8a19-a752fa5d90ed","system_id":"levelo_inurba_marseille","lat":43.23187,"lon":5.4,"is_reserved":false,"is_disabled":false,"rental_uris":{"android":"levelo://app?vid=1c0c17d4-38c5-4a1c-8a19-a752fa5d90ed","ios":"levelo://app?vid=1c0c17d4-38c5-4a1c-8a19-a752fa5d90ed"},"vehicle_type_id":"4","last_reported":1744823326,"current_range_meters":9200,"station_id":"ce4bhn12rcd13ifvqgqg","pricing_plan_id":"cebpf4jnsgd1na2vs0mg"},{"bike_id":"13212ea6-c79f-428f-bf88-2ce269adcaff","system_id":"levelo_inurba_marseille","lat":43.24814,"lon":5.37463,"is_reserved":false,"is_disabled":false,"rental_uris":{"android":"levelo://app?vid=13212ea6-c79f-428f-bf88-2ce269adcaff","ios":"levelo://app?vid=13212ea6-c79f-428f-bf88-2ce269adcaff"},"vehicle_type_id":"4","last_reported":1744823326,"current_range_meters":9600,"station_id":"ce4bhgh2rcd13ifvqfb0","pricing_plan_id":"cebpf4jnsgd1na2vs0mg"},{"bike_id":"1c7ba8d0-8f2a-4beb-b84f-6dc2637fae09","system_id":"levelo_inurba_marseille","lat":43.30259,"lon":5.40087,"is_reserved":false,"is_disabled":false,"rental_uris":{"android":"levelo://app?vid=1c7ba8d0-8f2a-4beb-b84f-6dc2637fae09","ios":"levelo://app?vid=1c7ba8d0-8f2a-4beb-b84f-6dc2637fae09"},"vehicle_type_id":"4","last_reported":1744823326,"current_range_meters":9600,"station_id":"ce4bgvh2rcd13ifvqcs0","pricing_plan_id":"cebpf4jnsgd1na2vs0mg"},{"bike_id":"6da4e0df-82fa-406d-a9c0-3978d8c547bc","system_id":"levelo_inurba_marseille","lat":43.2926,"lon":5.38457,"is_reserved":false,"is_disabled":false,"rental_uris":{"android":"levelo://app?vid=6da4e0df-82fa-406d-a9c0-3978d8c547bc","ios":"levelo://app?vid=6da4e0df-82fa-406d-a9c0-3978d8c547bc"},"vehicle_type_id":"4","last_reported":1744823326,"current_range_meters":9600,"station_id":"ce4bh692rcd13ifvqea0","pricing_plan_id":"cebpf4jnsgd1na2vs0mg"},{"bike_id":"45c6b552-68fd-454d-84d3-cf79221aaee4","system_id":"levelo_inurba_marseille","lat":43.29879,"lon":5.40893,"is_reserved":false,"is_disabled":false,"rental_uris":{"android":"levelo://app?vid=45c6b552-68fd-454d-84d3-cf79221aaee4","ios":"levelo://app?vid=45c6b552-68fd-454d-84d3-cf79221aaee4"},"vehicle_type_id":"4","last_reported":1744823326,"current_range_meters":9600,"station_id":"","pricing_plan_id":"cebpf4jnsgd1na2vs0mg"},{"bike_id":"a4fe8958-b519-4e35-a100-60aa6b652348","system_id":"levelo_inurba_marseille","lat":43.313306,"lon":5.396932,"is_reserved":false,"is_disabled":false,"rental_uris":{"android":"levelo://app?vid=a4fe8958-b519-4e35-a100-60aa6b652348","ios":"levelo://app?vid=a4fe8958-b519-4e35-a100-60aa6b652348"},"vehicle_type_id":"4","last_reported":1744823326,"current_range_meters":10000,"station_id":"ce4bgvp2rcd13ifvqcu0","pricing_plan_id":"cebpf4jnsgd1na2vs0mg"},{"bike_id":"eeec4aa3-87e9-4496-be2e-938ceb91cf85","system_id":"levelo_inurba_marseille","lat":43.293089,"lon":5.372221,"is_reserved":false,"is_disabled":true,"rental_uris":{"android":"levelo://app?vid=eeec4aa3-87e9-4496-be2e-938ceb91cf85","ios":"levelo://app?vid=eeec4aa3-87e9-4496-be2e-938ceb91cf85"},"vehicle_type_id":"4","last_reported":1744823326,"current_range_meters":10000,"station_id":"ce4bgh92rcd13ifvqb40","pricing_plan_id":"cebpf4jnsgd1na2vs0mg"},{"bike_id":"ae669bac-ccfa-4f88-b834-b0199f708b96","system_id":"levelo_inurba_marseille","lat":43.28835,"lon":5.35849,"is_reserved":false,"is_disabled":false,"rental_uris":{"android":"levelo://app?vid=ae669bac-ccfa-4f88-b834-b0199f708b96","ios":"levelo://app?vid=ae669bac-ccfa-4f88-b834-b0199f708b96"},"vehicle_type_id":"4","last_reported":1744823326,"current_range_meters":10000,"station_id":"ce4bhb12rcd13ifvqem0","pricing_plan_id":"cebpf4jnsgd1na2vs0mg"},{"bike_id":"d8429927-bb0c-45e5-9987-a64f6d65ebc6","system_id":"levelo_inurba_marseille","lat":43.29418,"lon":5.38619,"is_reserved":false,"is_disabled":false,"rental_uris":{"android":"levelo://app?vid=d8429927-bb0c-45e5-9987-a64f6d65ebc6","ios":"levelo://app?vid=d8429927-bb0c-45e5-9987-a64f6d65ebc6"},"vehicle_type_id":"4","last_reported":1744823326,"current_range_meters":10000,"station_id":"ce4bh2h2rcd13ifvqdh0","pricing_plan_id":"cebpf4jnsgd1na2vs0mg"},{"bike_id":"e9b66b9e-cd2d-4acb-bdde-cd94ebdafb31","system_id":"levelo_inurba_marseille","lat":43.248003,"lon":5.374551,"is_reserved":false,"is_disabled":false,"rental_uris":{"android":"levelo://app?vid=e9b66b9e-cd2d-4acb-bdde-cd94ebdafb31","ios":"levelo://app?vid=e9b66b9e-cd2d-4acb-bdde-cd94ebdafb31"},"vehicle_type_id":"4","last_reported":1744823326,"current_range_meters":10000,"station_id":"ce4bhgh2rcd13ifvqfb0","pricing_plan_id":"cebpf4jnsgd1na2vs0mg"},{"bike_id":"3f3a70fb-60e3-40dd-a754-b14860ea2e80","system_id":"levelo_inurba_marseille","lat":43.23184,"lon":5.39989,"is_reserved":false,"is_disabled":false,"rental_uris":{"android":"levelo://app?vid=3f3a70fb-60e3-40dd-a754-b14860ea2e80","ios":"levelo://app?vid=3f3a70fb-60e3-40dd-a754-b14860ea2e80"},"vehicle_type_id":"4","last_reported":1744823326,"current_range_meters":10000,"station_id":"ce4bhn12rcd13ifvqgqg","pricing_plan_id":"cebpf4jnsgd1na2vs0mg"},{"bike_id":"e8412f40-a8dc-44ee-bbc2-e01b1cf2ab9a","system_id":"levelo_inurba_marseille","lat":43.27859,"lon":5.39207,"is_reserved":false,"is_disabled":false,"rental_uris":{"android":"levelo://app?vid=e8412f40-a8dc-44ee-bbc2-e01b1cf2ab9a","ios":"levelo://app?vid=e8412f40-a8dc-44ee-bbc2-e01b1cf2ab9a"},"vehicle_type_id":"4","last_reported":1744823326,"current_range_meters":10800,"station_id":"ce4bhjp2rcd13ifvqga0","pricing_plan_id":"cebpf4jnsgd1na2vs0mg"},{"bike_id":"561936ef-54e4-4d15-b2a7-dfd018b9e12e","system_id":"levelo_inurba_marseille","lat":43.298202,"lon":5.402641,"is_reserved":false,"is_disabled":false,"rental_uris":{"android":"levelo://app?vid=561936ef-54e4-4d15-b2a7-dfd018b9e12e","ios":"levelo://app?vid=561936ef-54e4-4d15-b2a7-dfd018b9e12e"},"vehicle_type_id":"4","last_reported":1744823326,"current_range_meters":10800,"station_id":"","pricing_plan_id":"cebpf4jnsgd1na2vs0mg"},{"bike_id":"325ea596-c8f5-416a-973e-14196dc3b94a","system_id":"levelo_inurba_marseille","lat":43.27951,"lon":5.41038,"is_reserved":false,"is_disabled":false,"rental_uris":{"android":"levelo://app?vid=325ea596-c8f5-416a-973e-14196dc3b94a","ios":"levelo://app?vid=325ea596-c8f5-416a-973e-14196dc3b94a"},"vehicle_type_id":"4","last_reported":1744823326,"current_range_meters":10800,"station_id":"ce4bhnp2rcd13ifvqh0g","pricing_plan_id":"cebpf4jnsgd1na2vs0mg"},{"bike_id":"27a6f127-71e5-48b2-bbd0-c438c579128d","system_id":"levelo_inurba_marseille","lat":43.25578,"lon":5.38233,"is_reserved":false,"is_disabled":false,"rental_uris":{"android":"levelo://app?vid=27a6f127-71e5-48b2-bbd0-c438c579128d","ios":"levelo://app?vid=27a6f127-71e5-48b2-bbd0-c438c579128d"},"vehicle_type_id":"4","last_reported":1744823326,"current_range_meters":10800,"station_id":"ce4bhih2rcd13ifvqfs0","pricing_plan_id":"cebpf4jnsgd1na2vs0mg"},{"bike_id":"9626b0a0-95c5-4730-86b0-a19e1e2f54de","system_id":"levelo_inurba_marseille","lat":43.30635,"lon":5.40093,"is_reserved":false,"is_disabled":false,"rental_uris":{"android":"levelo://app?vid=9626b0a0-95c5-4730-86b0-a19e1e2f54de","ios":"levelo://app?vid=9626b0a0-95c5-4730-86b0-a19e1e2f54de"},"vehicle_type_id":"4","last_reported":1744823326,"current_range_meters":11200,"station_id":"ce4bh112rcd13ifvqda0","pricing_plan_id":"cebpf4jnsgd1na2vs0mg"},{"bike_id":"7e3b8a48-718c-4b67-8589-5d842863ff1e","system_id":"levelo_inurba_marseille","lat":43.28283,"lon":5.35104,"is_reserved":false,"is_disabled":false,"rental_uris":{"android":"levelo://app?vid=7e3b8a48-718c-4b67-8589-5d842863ff1e","ios":"levelo://app?vid=7e3b8a48-718c-4b67-8589-5d842863ff1e"},"vehicle_type_id":"4","last_reported":1744823326,"current_range_meters":11600,"station_id":"ce4bhbp2rcd13ifvqerg","pricing_plan_id":"cebpf4jnsgd1na2vs0mg"},{"bike_id":"2c032a6e-a514-4c75-ac58-67d0e95dcf42","system_id":"levelo_inurba_marseille","lat":43.28633,"lon":5.35079,"is_reserved":false,"is_disabled":false,"rental_uris":{"android":"levelo://app?vid=2c032a6e-a514-4c75-ac58-67d0e95dcf42","ios":"levelo://app?vid=2c032a6e-a514-4c75-ac58-67d0e95dcf42"},"vehicle_type_id":"4","last_reported":1744823326,"current_range_meters":11600,"station_id":"ce4bhch2rcd13ifvqeug","pricing_plan_id":"cebpf4jnsgd1na2vs0mg"},{"bike_id":"d6232fae-d546-4612-a49c-e1c551588cf5","system_id":"levelo_inurba_marseille","lat":43.302616,"lon":5.400694,"is_reserved":false,"is_disabled":false,"rental_uris":{"android":"levelo://app?vid=d6232fae-d546-4612-a49c-e1c551588cf5","ios":"levelo://app?vid=d6232fae-d546-4612-a49c-e1c551588cf5"},"vehicle_type_id":"4","last_reported":1744823326,"current_range_meters":11600,"station_id":"ce4bgvh2rcd13ifvqcs0","pricing_plan_id":"cebpf4jnsgd1na2vs0mg"},{"bike_id":"36403a59-49e2-469a-bb12-26511b319796","system_id":"levelo_inurba_marseille","lat":43.3137,"lon":5.38492,"is_reserved":false,"is_disabled":false,"rental_uris":{"android":"levelo://app?vid=36403a59-49e2-469a-bb12-26511b319796","ios":"levelo://app?vid=36403a59-49e2-469a-bb12-26511b319796"},"vehicle_type_id":"4","last_reported":1744823326,"current_range_meters":12000,"station_id":"ce4bgt92rcd13ifvqcf0","pricing_plan_id":"cebpf4jnsgd1na2vs0mg"},{"bike_id":"043fbf44-7a45-4308-8e31-d456a5ed5198","system_id":"levelo_inurba_marseille","lat":43.25587,"lon":5.38234,"is_reserved":false,"is_disabled":false,"rental_uris":{"android":"levelo://app?vid=043fbf44-7a45-4308-8e31-d456a5ed5198","ios":"levelo://app?vid=043fbf44-7a45-4308-8e31-d456a5ed5198"},"vehicle_type_id":"4","last_reported":1744823326,"current_range_meters":12000,"station_id":"ce4bhih2rcd13ifvqfs0","pricing_plan_id":"cebpf4jnsgd1na2vs0mg"},{"bike_id":"834ec9e1-9d50-4bee-85ae-d1db335c55e5","system_id":"levelo_inurba_marseille","lat":43.31466,"lon":5.3679,"is_reserved":false,"is_disabled":false,"rental_uris":{"android":"levelo://app?vid=834ec9e1-9d50-4bee-85ae-d1db335c55e5","ios":"levelo://app?vid=834ec9e1-9d50-4bee-85ae-d1db335c55e5"},"vehicle_type_id":"4","last_reported":1744823326,"current_range_meters":12400,"station_id":"","pricing_plan_id":"cebpf4jnsgd1na2vs0mg"},{"bike_id":"80d9af29-ff98-4569-a09d-d4a9a14d9a42","system_id":"levelo_inurba_marseille","lat":43.30603,"lon":5.39354,"is_reserved":false,"is_disabled":false,"rental_uris":{"android":"levelo://app?vid=80d9af29-ff98-4569-a09d-d4a9a14d9a42","ios":"levelo://app?vid=80d9af29-ff98-4569-a09d-d4a9a14d9a42"},"vehicle_type_id":"4","last_reported":1744823326,"current_range_meters":12400,"station_id":"ce4bh0p2rcd13ifvqd80","pricing_plan_id":"cebpf4jnsgd1na2vs0mg"},{"bike_id":"46ff7be5-bc64-4dfe-89be-8de3b74a45c8","system_id":"levelo_inurba_marseille","lat":43.29783,"lon":5.38112,"is_reserved":false,"is_disabled":false,"rental_uris":{"android":"levelo://app?vid=46ff7be5-bc64-4dfe-89be-8de3b74a45c8","ios":"levelo://app?vid=46ff7be5-bc64-4dfe-89be-8de3b74a45c8"},"vehicle_type_id":"4","last_reported":1744823326,"current_range_meters":12400,"station_id":"ce4bgip2rcd13ifvqbb0","pricing_plan_id":"cebpf4jnsgd1na2vs0mg"},{"bike_id":"56898f5a-36ca-4510-9927-4560795dc7fe","system_id":"levelo_inurba_marseille","lat":43.27074,"lon":5.42274,"is_reserved":false,"is_disabled":false,"rental_uris":{"android":"levelo://app?vid=56898f5a-36ca-4510-9927-4560795dc7fe","ios":"levelo://app?vid=56898f5a-36ca-4510-9927-4560795dc7fe"},"vehicle_type_id":"4","last_reported":1744823326,"current_range_meters":12400,"station_id":"ce4bhk92rcd13ifvqgb0","pricing_plan_id":"cebpf4jnsgd1na2vs0mg"},{"bike_id":"73b1418f-382b-4f99-9709-e69dc5b22af6","system_id":"levelo_inurba_marseille","lat":43.28107,"lon":5.37835,"is_reserved":false,"is_disabled":false,"rental_uris":{"android":"levelo://app?vid=73b1418f-382b-4f99-9709-e69dc5b22af6","ios":"levelo://app?vid=73b1418f-382b-4f99-9709-e69dc5b22af6"},"vehicle_type_id":"4","last_reported":1744823326,"current_range_meters":12800,"station_id":"ce4bha12rcd13ifvqee0","pricing_plan_id":"cebpf4jnsgd1na2vs0mg"},{"bike_id":"6d5021b7-d7b5-4f05-aa09-3a9ea8b4e8fc","system_id":"levelo_inurba_marseille","lat":43.2904,"lon":5.37573,"is_reserved":false,"is_disabled":false,"rental_uris":{"android":"levelo://app?vid=6d5021b7-d7b5-4f05-aa09-3a9ea8b4e8fc","ios":"levelo://app?vid=6d5021b7-d7b5-4f05-aa09-3a9ea8b4e8fc"},"vehicle_type_id":"4","last_reported":1744823326,"current_range_meters":13600,"station_id":"ce4bh692rcd13ifvqe90","pricing_plan_id":"cebpf4jnsgd1na2vs0mg"},{"bike_id":"93be371e-f079-4065-9c94-f1bd2172cfd1","system_id":"levelo_inurba_marseille","lat":43.28609,"lon":5.37064,"is_reserved":false,"is_disabled":false,"rental_uris":{"android":"levelo://app?vid=93be371e-f079-4065-9c94-f1bd2172cfd1","ios":"levelo://app?vid=93be371e-f079-4065-9c94-f1bd2172cfd1"},"vehicle_type_id":"4","last_reported":1744823326,"current_range_meters":14000,"station_id":"ce4bht12rcd13ifvqi60","pricing_plan_id":"cebpf4jnsgd1na2vs0mg"},{"bike_id":"68ec9c60-1203-4695-94aa-40d8361b0d46","system_id":"levelo_inurba_marseille","lat":43.30906,"lon":5.39706,"is_reserved":false,"is_disabled":false,"rental_uris":{"android":"levelo://app?vid=68ec9c60-1203-4695-94aa-40d8361b0d46","ios":"levelo://app?vid=68ec9c60-1203-4695-94aa-40d8361b0d46"},"vehicle_type_id":"4","last_reported":1744823326,"current_range_meters":14000,"station_id":"ce4bh012rcd13ifvqcv0","pricing_plan_id":"cebpf4jnsgd1na2vs0mg"},{"bike_id":"943dbb3b-923a-4f79-a6b3-7b10f658bade","system_id":"levelo_inurba_marseille","lat":43.27905,"lon":5.38023,"is_reserved":false,"is_disabled":false,"rental_uris":{"android":"levelo://app?vid=943dbb3b-923a-4f79-a6b3-7b10f658bade","ios":"levelo://app?vid=943dbb3b-923a-4f79-a6b3-7b10f658bade"},"vehicle_type_id":"4","last_reported":1744823326,"current_range_meters":13600,"station_id":"ce4bhf92rcd13ifvqf50","pricing_plan_id":"cebpf4jnsgd1na2vs0mg"},{"bike_id":"dda27a58-e2ca-4fce-a851-41cf6185682c","system_id":"levelo_inurba_marseille","lat":43.30278,"lon":5.37709,"is_reserved":false,"is_disabled":false,"rental_uris":{"android":"levelo://app?vid=dda27a58-e2ca-4fce-a851-41cf6185682c","ios":"levelo://app?vid=dda27a58-e2ca-4fce-a851-41cf6185682c"},"vehicle_type_id":"4","last_reported":1744823326,"current_range_meters":14000,"station_id":"ce4bguh2rcd13ifvqcj0","pricing_plan_id":"cebpf4jnsgd1na2vs0mg"},{"bike_id":"de2e6eda-ab5e-426e-be76-b60175ed0ee7","system_id":"levelo_inurba_marseille","lat":43.30901,"lon":5.37185,"is_reserved":false,"is_disabled":false,"rental_uris":{"android":"levelo://app?vid=de2e6eda-ab5e-426e-be76-b60175ed0ee7","ios":"levelo://app?vid=de2e6eda-ab5e-426e-be76-b60175ed0ee7"},"vehicle_type_id":"4","last_reported":1744823326,"current_range_meters":14000,"station_id":"ce4bguh2rcd13ifvqckg","pricing_plan_id":"cebpf4jnsgd1na2vs0mg"},{"bike_id":"1c28614f-f4cf-411f-b54c-59f50abc6b1a","system_id":"levelo_inurba_marseille","lat":43.30891,"lon":5.39652,"is_reserved":false,"is_disabled":false,"rental_uris":{"android":"levelo://app?vid=1c28614f-f4cf-411f-b54c-59f50abc6b1a","ios":"levelo://app?vid=1c28614f-f4cf-411f-b54c-59f50abc6b1a"},"vehicle_type_id":"4","last_reported":1744823326,"current_range_meters":14000,"station_id":"ce4bh012rcd13ifvqcv0","pricing_plan_id":"cebpf4jnsgd1na2vs0mg"},{"bike_id":"6bf5a380-400e-4cd6-bc1e-356afac9ee45","system_id":"levelo_inurba_marseille","lat":43.24163,"lon":5.36419,"is_reserved":false,"is_disabled":false,"rental_uris":{"android":"levelo://app?vid=6bf5a380-400e-4cd6-bc1e-356afac9ee45","ios":"levelo://app?vid=6bf5a380-400e-4cd6-bc1e-356afac9ee45"},"vehicle_type_id":"4","last_reported":1744823326,"current_range_meters":14400,"station_id":"cpo36qri1sfpv3e86is0","pricing_plan_id":"cebpf4jnsgd1na2vs0mg"},{"bike_id":"2be2e8c5-ff49-4a5a-963a-4bbeabb11512","system_id":"levelo_inurba_marseille","lat":43.3072,"lon":5.42442,"is_reserved":false,"is_disabled":false,"rental_uris":{"android":"levelo://app?vid=2be2e8c5-ff49-4a5a-963a-4bbeabb11512","ios":"levelo://app?vid=2be2e8c5-ff49-4a5a-963a-4bbeabb11512"},"vehicle_type_id":"4","last_reported":1744823326,"current_range_meters":14400,"station_id":"st_cvj6ca6bvosntc0bfgr0","pricing_plan_id":"cebpf4jnsgd1na2vs0mg"},{"bike_id":"12ad2807-8d3f-46e2-9ace-bdaf6342b502","system_id":"levelo_inurba_marseille","lat":43.25585,"lon":5.38231,"is_reserved":false,"is_disabled":false,"rental_uris":{"android":"levelo://app?vid=12ad2807-8d3f-46e2-9ace-bdaf6342b502","ios":"levelo://app?vid=12ad2807-8d3f-46e2-9ace-bdaf6342b502"},"vehicle_type_id":"4","last_reported":1744823326,"current_range_meters":14000,"station_id":"ce4bhih2rcd13ifvqfs0","pricing_plan_id":"cebpf4jnsgd1na2vs0mg"},{"bike_id":"eef0f7e9-3fd3-478d-8d05-1e689878276c","system_id":"levelo_inurba_marseille","lat":43.279975,"lon":5.400161,"is_reserved":false,"is_disabled":false,"rental_uris":{"android":"levelo://app?vid=eef0f7e9-3fd3-478d-8d05-1e689878276c","ios":"levelo://app?vid=eef0f7e9-3fd3-478d-8d05-1e689878276c"},"vehicle_type_id":"4","last_reported":1744823326,"current_range_meters":14400,"station_id":"ce4bho92rcd13ifvqh4g","pricing_plan_id":"cebpf4jnsgd1na2vs0mg"},{"bike_id":"459680c4-80bb-4667-9823-d8846e17bf1d","system_id":"levelo_inurba_marseille","lat":43.28661,"lon":5.3636,"is_reserved":false,"is_disabled":false,"rental_uris":{"android":"levelo://app?vid=459680c4-80bb-4667-9823-d8846e17bf1d","ios":"levelo://app?vid=459680c4-80bb-4667-9823-d8846e17bf1d"},"vehicle_type_id":"4","last_reported":1744823326,"current_range_meters":14400,"station_id":"ce4bhah2rcd13ifvqej0","pricing_plan_id":"cebpf4jnsgd1na2vs0mg"},{"bike_id":"042827cb-15a7-4f74-bf1c-c066e88727a3","system_id":"levelo_inurba_marseille","lat":43.28937,"lon":5.38416,"is_reserved":false,"is_disabled":false,"rental_uris":{"android":"levelo://app?vid=042827cb-15a7-4f74-bf1c-c066e88727a3","ios":"levelo://app?vid=042827cb-15a7-4f74-bf1c-c066e88727a3"},"vehicle_type_id":"4","last_reported":1744823326,"current_range_meters":14400,"station_id":"ce4bh612rcd13ifvqe6g","pricing_plan_id":"cebpf4jnsgd1na2vs0mg"},{"bike_id":"4b9b1e69-af86-4122-8d46-0d52505b1cab","system_id":"levelo_inurba_marseille","lat":43.27493,"lon":5.42468,"is_reserved":false,"is_disabled":false,"rental_uris":{"android":"levelo://app?vid=4b9b1e69-af86-4122-8d46-0d52505b1cab","ios":"levelo://app?vid=4b9b1e69-af86-4122-8d46-0d52505b1cab"},"vehicle_type_id":"4","last_reported":1744823326,"current_range_meters":14400,"station_id":"ce4bhn92rcd13ifvqgrg","pricing_plan_id":"cebpf4jnsgd1na2vs0mg"},{"bike_id":"88a0cb80-a51d-46bc-8228-c9a9fb028348","system_id":"levelo_inurba_marseille","lat":43.25626,"lon":5.41943,"is_reserved":false,"is_disabled":false,"rental_uris":{"android":"levelo://app?vid=88a0cb80-a51d-46bc-8228-c9a9fb028348","ios":"levelo://app?vid=88a0cb80-a51d-46bc-8228-c9a9fb028348"},"vehicle_type_id":"4","last_reported":1744823326,"current_range_meters":14800,"station_id":"","pricing_plan_id":"cebpf4jnsgd1na2vs0mg"},{"bike_id":"4c58a7ae-f640-4be3-9eb5-89821d86dcb4","system_id":"levelo_inurba_marseille","lat":43.23151,"lon":5.43721,"is_reserved":false,"is_disabled":false,"rental_uris":{"android":"levelo://app?vid=4c58a7ae-f640-4be3-9eb5-89821d86dcb4","ios":"levelo://app?vid=4c58a7ae-f640-4be3-9eb5-89821d86dcb4"},"vehicle_type_id":"4","last_reported":1744823326,"current_range_meters":14400,"station_id":"ce4bhmp2rcd13ifvqgog","pricing_plan_id":"cebpf4jnsgd1na2vs0mg"},{"bike_id":"e54ec300-7fde-4b62-b025-ac09013c1097","system_id":"levelo_inurba_marseille","lat":43.28463,"lon":5.35895,"is_reserved":false,"is_disabled":false,"rental_uris":{"android":"levelo://app?vid=e54ec300-7fde-4b62-b025-ac09013c1097","ios":"levelo://app?vid=e54ec300-7fde-4b62-b025-ac09013c1097"},"vehicle_type_id":"4","last_reported":1744823326,"current_range_meters":14800,"station_id":"ce4bhah2rcd13ifvqei0","pricing_plan_id":"cebpf4jnsgd1na2vs0mg"},{"bike_id":"b37478c9-c9d1-4921-942f-50c7a856681e","system_id":"levelo_inurba_marseille","lat":43.27066,"lon":5.40261,"is_reserved":false,"is_disabled":true,"rental_uris":{"android":"levelo://app?vid=b37478c9-c9d1-4921-942f-50c7a856681e","ios":"levelo://app?vid=b37478c9-c9d1-4921-942f-50c7a856681e"},"vehicle_type_id":"4","last_reported":1744823326,"current_range_meters":15200,"station_id":"ce4bhk92rcd13ifvqgc0","pricing_plan_id":"cebpf4jnsgd1na2vs0mg"},{"bike_id":"876f67f9-f7cb-469a-a5a8-221a565a670e","system_id":"levelo_inurba_marseille","lat":43.29795,"lon":5.39346,"is_reserved":false,"is_disabled":false,"rental_uris":{"android":"levelo://app?vid=876f67f9-f7cb-469a-a5a8-221a565a670e","ios":"levelo://app?vid=876f67f9-f7cb-469a-a5a8-221a565a670e"},"vehicle_type_id":"4","last_reported":1744823326,"current_range_meters":15200,"station_id":"chh1huq6cuj3fo74tm60","pricing_plan_id":"cebpf4jnsgd1na2vs0mg"},{"bike_id":"4f3dfbf4-d1ae-44db-8110-b28c7d24107a","system_id":"levelo_inurba_marseille","lat":43.27083,"lon":5.40263,"is_reserved":false,"is_disabled":false,"rental_uris":{"android":"levelo://app?vid=4f3dfbf4-d1ae-44db-8110-b28c7d24107a","ios":"levelo://app?vid=4f3dfbf4-d1ae-44db-8110-b28c7d24107a"},"vehicle_type_id":"4","last_reported":1744823326,"current_range_meters":16000,"station_id":"ce4bhk92rcd13ifvqgc0","pricing_plan_id":"cebpf4jnsgd1na2vs0mg"},{"bike_id":"48ff5d81-339a-4785-8b9b-88170456b878","system_id":"levelo_inurba_marseille","lat":43.29593,"lon":5.38096,"is_reserved":false,"is_disabled":false,"rental_uris":{"android":"levelo://app?vid=48ff5d81-339a-4785-8b9b-88170456b878","ios":"levelo://app?vid=48ff5d81-339a-4785-8b9b-88170456b878"},"vehicle_type_id":"4","last_reported":1744823326,"current_range_meters":16000,"station_id":"ce4bgl12rcd13ifvqbo0","pricing_plan_id":"cebpf4jnsgd1na2vs0mg"},{"bike_id":"970a4b57-ac2b-4ad4-bc8a-239431db997e","system_id":"levelo_inurba_marseille","lat":43.26975,"lon":5.40247,"is_reserved":false,"is_disabled":false,"rental_uris":{"android":"levelo://app?vid=970a4b57-ac2b-4ad4-bc8a-239431db997e","ios":"levelo://app?vid=970a4b57-ac2b-4ad4-bc8a-239431db997e"},"vehicle_type_id":"4","last_reported":1744823326,"current_range_meters":16000,"station_id":"cjm6bp8fraef2m0cb0m0","pricing_plan_id":"cebpf4jnsgd1na2vs0mg"},{"bike_id":"93ccd809-f584-4739-8f4e-c335c63d94b9","system_id":"levelo_inurba_marseille","lat":43.32118,"lon":5.36769,"is_reserved":false,"is_disabled":false,"rental_uris":{"android":"levelo://app?vid=93ccd809-f584-4739-8f4e-c335c63d94b9","ios":"levelo://app?vid=93ccd809-f584-4739-8f4e-c335c63d94b9"},"vehicle_type_id":"4","last_reported":1744823326,"current_range_meters":16000,"station_id":"ce4bhrh2rcd13ifvqhug","pricing_plan_id":"cebpf4jnsgd1na2vs0mg"},{"bike_id":"b6b4fba7-65bd-4354-9ef8-9be346fbbc8a","system_id":"levelo_inurba_marseille","lat":43.30235,"lon":5.37827,"is_reserved":false,"is_disabled":false,"rental_uris":{"android":"levelo://app?vid=b6b4fba7-65bd-4354-9ef8-9be346fbbc8a","ios":"levelo://app?vid=b6b4fba7-65bd-4354-9ef8-9be346fbbc8a"},"vehicle_type_id":"4","last_reported":1744823326,"current_range_meters":16400,"station_id":"","pricing_plan_id":"cebpf4jnsgd1na2vs0mg"},{"bike_id":"da2251a7-2b2b-4dd1-8be8-8f047831f0e4","system_id":"levelo_inurba_marseille","lat":43.30316,"lon":5.39194,"is_reserved":false,"is_disabled":true,"rental_uris":{"android":"levelo://app?vid=da2251a7-2b2b-4dd1-8be8-8f047831f0e4","ios":"levelo://app?vid=da2251a7-2b2b-4dd1-8be8-8f047831f0e4"},"vehicle_type_id":"4","last_reported":1744823326,"current_range_meters":16400,"station_id":"ce4bgkh2rcd13ifvqbk0","pricing_plan_id":"cebpf4jnsgd1na2vs0mg"},{"bike_id":"355a64ce-d981-4012-b278-eb66799a5e11","system_id":"levelo_inurba_marseille","lat":43.300976,"lon":5.390912,"is_reserved":false,"is_disabled":false,"rental_uris":{"android":"levelo://app?vid=355a64ce-d981-4012-b278-eb66799a5e11","ios":"levelo://app?vid=355a64ce-d981-4012-b278-eb66799a5e11"},"vehicle_type_id":"4","last_reported":1744823326,"current_range_meters":16400,"station_id":"ce4bh192rcd13ifvqdb0","pricing_plan_id":"cebpf4jnsgd1na2vs0mg"},{"bike_id":"57406be6-c0b4-4691-8abf-3f6842e4ec81","system_id":"levelo_inurba_marseille","lat":43.28451,"lon":5.39217,"is_reserved":false,"is_disabled":true,"rental_uris":{"android":"levelo://app?vid=57406be6-c0b4-4691-8abf-3f6842e4ec81","ios":"levelo://app?vid=57406be6-c0b4-4691-8abf-3f6842e4ec81"},"vehicle_type_id":"4","last_reported":1744823326,"current_range_meters":16400,"station_id":"ce4bhoh2rcd13ifvqh5g","pricing_plan_id":"cebpf4jnsgd1na2vs0mg"},{"bike_id":"b1f42236-afb1-4d50-8c55-a5bd3257f481","system_id":"levelo_inurba_marseille","lat":43.29427,"lon":5.38623,"is_reserved":false,"is_disabled":false,"rental_uris":{"android":"levelo://app?vid=b1f42236-afb1-4d50-8c55-a5bd3257f481","ios":"levelo://app?vid=b1f42236-afb1-4d50-8c55-a5bd3257f481"},"vehicle_type_id":"4","last_reported":1744823326,"current_range_meters":16400,"station_id":"ce4bh2h2rcd13ifvqdh0","pricing_plan_id":"cebpf4jnsgd1na2vs0mg"},{"bike_id":"f462d1c0-a98e-4d8b-b578-9a1b5c4d74d9","system_id":"levelo_inurba_marseille","lat":43.29775,"lon":5.42596,"is_reserved":false,"is_disabled":false,"rental_uris":{"android":"levelo://app?vid=f462d1c0-a98e-4d8b-b578-9a1b5c4d74d9","ios":"levelo://app?vid=f462d1c0-a98e-4d8b-b578-9a1b5c4d74d9"},"vehicle_type_id":"4","last_reported":1744823326,"current_range_meters":16800,"station_id":"","pricing_plan_id":"cebpf4jnsgd1na2vs0mg"},{"bike_id":"5b4e8388-ccca-46df-b25f-f7efe73dd6d2","system_id":"levelo_inurba_marseille","lat":43.29246,"lon":5.38438,"is_reserved":false,"is_disabled":false,"rental_uris":{"android":"levelo://app?vid=5b4e8388-ccca-46df-b25f-f7efe73dd6d2","ios":"levelo://app?vid=5b4e8388-ccca-46df-b25f-f7efe73dd6d2"},"vehicle_type_id":"4","last_reported":1744823326,"current_range_meters":16800,"station_id":"ce4bh692rcd13ifvqea0","pricing_plan_id":"cebpf4jnsgd1na2vs0mg"},{"bike_id":"40ffd94b-fd7c-4e37-8cc7-93d73aafb065","system_id":"levelo_inurba_marseille","lat":43.29229,"lon":5.36073,"is_reserved":false,"is_disabled":false,"rental_uris":{"android":"levelo://app?vid=40ffd94b-fd7c-4e37-8cc7-93d73aafb065","ios":"levelo://app?vid=40ffd94b-fd7c-4e37-8cc7-93d73aafb065"},"vehicle_type_id":"4","last_reported":1744823326,"current_range_meters":16800,"station_id":"ce4bhbh2rcd13ifvqeqg","pricing_plan_id":"cebpf4jnsgd1na2vs0mg"},{"bike_id":"b453c917-0db1-40bd-ad8a-e14424b609f7","system_id":"levelo_inurba_marseille","lat":43.27065,"lon":5.40273,"is_reserved":false,"is_disabled":false,"rental_uris":{"android":"levelo://app?vid=b453c917-0db1-40bd-ad8a-e14424b609f7","ios":"levelo://app?vid=b453c917-0db1-40bd-ad8a-e14424b609f7"},"vehicle_type_id":"4","last_reported":1744823326,"current_range_meters":17200,"station_id":"ce4bhk92rcd13ifvqgc0","pricing_plan_id":"cebpf4jnsgd1na2vs0mg"},{"bike_id":"921ebf4a-829f-4e3e-88d6-338de1aea157","system_id":"levelo_inurba_marseille","lat":43.29188,"lon":5.35807,"is_reserved":false,"is_disabled":false,"rental_uris":{"android":"levelo://app?vid=921ebf4a-829f-4e3e-88d6-338de1aea157","ios":"levelo://app?vid=921ebf4a-829f-4e3e-88d6-338de1aea157"},"vehicle_type_id":"4","last_reported":1744823326,"current_range_meters":17200,"station_id":"ce4bhb12rcd13ifvqel0","pricing_plan_id":"cebpf4jnsgd1na2vs0mg"},{"bike_id":"b1b66325-8304-4c70-97c9-1d73ebc6ca8a","system_id":"levelo_inurba_marseille","lat":43.31369,"lon":5.38484,"is_reserved":false,"is_disabled":false,"rental_uris":{"android":"levelo://app?vid=b1b66325-8304-4c70-97c9-1d73ebc6ca8a","ios":"levelo://app?vid=b1b66325-8304-4c70-97c9-1d73ebc6ca8a"},"vehicle_type_id":"4","last_reported":1744823326,"current_range_meters":17200,"station_id":"ce4bgt92rcd13ifvqcf0","pricing_plan_id":"cebpf4jnsgd1na2vs0mg"},{"bike_id":"b652bdb7-a4d5-4927-bd0c-73ce3a2e3721","system_id":"levelo_inurba_marseille","lat":43.268,"lon":5.40267,"is_reserved":false,"is_disabled":false,"rental_uris":{"android":"levelo://app?vid=b652bdb7-a4d5-4927-bd0c-73ce3a2e3721","ios":"levelo://app?vid=b652bdb7-a4d5-4927-bd0c-73ce3a2e3721"},"vehicle_type_id":"4","last_reported":1744823326,"current_range_meters":17200,"station_id":"ce501612rcd8frsf0b60","pricing_plan_id":"cebpf4jnsgd1na2vs0mg"},{"bike_id":"3692a990-d678-4521-950a-35ae9f008bef","system_id":"levelo_inurba_marseille","lat":43.30102,"lon":5.39066,"is_reserved":false,"is_disabled":false,"rental_uris":{"android":"levelo://app?vid=3692a990-d678-4521-950a-35ae9f008bef","ios":"levelo://app?vid=3692a990-d678-4521-950a-35ae9f008bef"},"vehicle_type_id":"4","last_reported":1744823326,"current_range_meters":17200,"station_id":"ce4bh192rcd13ifvqdb0","pricing_plan_id":"cebpf4jnsgd1na2vs0mg"},{"bike_id":"da0699e6-fffb-42fd-bda2-fa249cfedfd8","system_id":"levelo_inurba_marseille","lat":43.3152,"lon":5.37288,"is_reserved":false,"is_disabled":false,"rental_uris":{"android":"levelo://app?vid=da0699e6-fffb-42fd-bda2-fa249cfedfd8","ios":"levelo://app?vid=da0699e6-fffb-42fd-bda2-fa249cfedfd8"},"vehicle_type_id":"4","last_reported":1744823326,"current_range_meters":17600,"station_id":"ce4bgt12rcd13ifvqcd0","pricing_plan_id":"cebpf4jnsgd1na2vs0mg"},{"bike_id":"219af98c-bc73-408f-8eb1-b3ab7fcdf297","system_id":"levelo_inurba_marseille","lat":43.29048,"lon":5.35915,"is_reserved":false,"is_disabled":false,"rental_uris":{"android":"levelo://app?vid=219af98c-bc73-408f-8eb1-b3ab7fcdf297","ios":"levelo://app?vid=219af98c-bc73-408f-8eb1-b3ab7fcdf297"},"vehicle_type_id":"4","last_reported":1744823326,"current_range_meters":17600,"station_id":"ce4bha92rcd13ifvqeg0","pricing_plan_id":"cebpf4jnsgd1na2vs0mg"},{"bike_id":"2d03e3c2-09e4-4978-8dbc-31228f7e9fd5","system_id":"levelo_inurba_marseille","lat":43.25572,"lon":5.38262,"is_reserved":false,"is_disabled":false,"rental_uris":{"android":"levelo://app?vid=2d03e3c2-09e4-4978-8dbc-31228f7e9fd5","ios":"levelo://app?vid=2d03e3c2-09e4-4978-8dbc-31228f7e9fd5"},"vehicle_type_id":"4","last_reported":1744823326,"current_range_meters":17600,"station_id":"ce4bhih2rcd13ifvqfs0","pricing_plan_id":"cebpf4jnsgd1na2vs0mg"},{"bike_id":"660631fc-51be-4aa7-bb7f-ab6c028609a6","system_id":"levelo_inurba_marseille","lat":43.28162,"lon":5.4264,"is_reserved":false,"is_disabled":false,"rental_uris":{"android":"levelo://app?vid=660631fc-51be-4aa7-bb7f-ab6c028609a6","ios":"levelo://app?vid=660631fc-51be-4aa7-bb7f-ab6c028609a6"},"vehicle_type_id":"4","last_reported":1744823326,"current_range_meters":17600,"station_id":"ce4bhnh2rcd13ifvqgug","pricing_plan_id":"cebpf4jnsgd1na2vs0mg"},{"bike_id":"41549404-5276-4d33-8e3b-a21fd3bd53f8","system_id":"levelo_inurba_marseille","lat":43.29867,"lon":5.36273,"is_reserved":false,"is_disabled":false,"rental_uris":{"android":"levelo://app?vid=41549404-5276-4d33-8e3b-a21fd3bd53f8","ios":"levelo://app?vid=41549404-5276-4d33-8e3b-a21fd3bd53f8"},"vehicle_type_id":"4","last_reported":1744823326,"current_range_meters":17600,"station_id":"ce4bgpp2rcd13ifvqc3g","pricing_plan_id":"cebpf4jnsgd1na2vs0mg"},{"bike_id":"0e7f3c1c-5749-4ea0-8c4b-38be5bb50b3a","system_id":"levelo_inurba_marseille","lat":43.30682,"lon":5.40059,"is_reserved":false,"is_disabled":false,"rental_uris":{"android":"levelo://app?vid=0e7f3c1c-5749-4ea0-8c4b-38be5bb50b3a","ios":"levelo://app?vid=0e7f3c1c-5749-4ea0-8c4b-38be5bb50b3a"},"vehicle_type_id":"4","last_reported":1744823326,"current_range_meters":18000,"station_id":"ce4bh112rcd13ifvqda0","pricing_plan_id":"cebpf4jnsgd1na2vs0mg"},{"bike_id":"335b9b5d-ffa9-4527-b1ec-e83efc0df680","system_id":"levelo_inurba_marseille","lat":43.25848,"lon":5.38884,"is_reserved":false,"is_disabled":false,"rental_uris":{"android":"levelo://app?vid=335b9b5d-ffa9-4527-b1ec-e83efc0df680","ios":"levelo://app?vid=335b9b5d-ffa9-4527-b1ec-e83efc0df680"},"vehicle_type_id":"4","last_reported":1744823326,"current_range_meters":18000,"station_id":"","pricing_plan_id":"cebpf4jnsgd1na2vs0mg"},{"bike_id":"9f3a5dd8-a360-4b18-82ad-d26b0a34023d","system_id":"levelo_inurba_marseille","lat":43.30556,"lon":5.36553,"is_reserved":false,"is_disabled":false,"rental_uris":{"android":"levelo://app?vid=9f3a5dd8-a360-4b18-82ad-d26b0a34023d","ios":"levelo://app?vid=9f3a5dd8-a360-4b18-82ad-d26b0a34023d"},"vehicle_type_id":"4","last_reported":1744823326,"current_range_meters":18000,"station_id":"ce4bgs12rcd13ifvqcag","pricing_plan_id":"cebpf4jnsgd1na2vs0mg"},{"bike_id":"f80e59f3-c899-4595-811c-001a073bdeb0","system_id":"levelo_inurba_marseille","lat":43.24179,"lon":5.3973,"is_reserved":false,"is_disabled":false,"rental_uris":{"android":"levelo://app?vid=f80e59f3-c899-4595-811c-001a073bdeb0","ios":"levelo://app?vid=f80e59f3-c899-4595-811c-001a073bdeb0"},"vehicle_type_id":"4","last_reported":1744823326,"current_range_meters":18000,"station_id":"ce4bhn12rcd13ifvqgpg","pricing_plan_id":"cebpf4jnsgd1na2vs0mg"},{"bike_id":"fa9fc430-3333-4def-a446-ecc08e0e8fa0","system_id":"levelo_inurba_marseille","lat":43.29305,"lon":5.37459,"is_reserved":false,"is_disabled":false,"rental_uris":{"android":"levelo://app?vid=fa9fc430-3333-4def-a446-ecc08e0e8fa0","ios":"levelo://app?vid=fa9fc430-3333-4def-a446-ecc08e0e8fa0"},"vehicle_type_id":"4","last_reported":1744823326,"current_range_meters":18000,"station_id":"ce4bgi12rcd13ifvqb70","pricing_plan_id":"cebpf4jnsgd1na2vs0mg"},{"bike_id":"752e8716-c761-4db8-baf0-a1d8e33d46f2","system_id":"levelo_inurba_marseille","lat":43.28282,"lon":5.35075,"is_reserved":false,"is_disabled":false,"rental_uris":{"android":"levelo://app?vid=752e8716-c761-4db8-baf0-a1d8e33d46f2","ios":"levelo://app?vid=752e8716-c761-4db8-baf0-a1d8e33d46f2"},"vehicle_type_id":"4","last_reported":1744823326,"current_range_meters":18000,"station_id":"ce4bhbp2rcd13ifvqerg","pricing_plan_id":"cebpf4jnsgd1na2vs0mg"},{"bike_id":"8bc01458-e04d-4e1e-9f4f-473a9ad28594","system_id":"levelo_inurba_marseille","lat":43.27918,"lon":5.39578,"is_reserved":false,"is_disabled":false,"rental_uris":{"android":"levelo://app?vid=8bc01458-e04d-4e1e-9f4f-473a9ad28594","ios":"levelo://app?vid=8bc01458-e04d-4e1e-9f4f-473a9ad28594"},"vehicle_type_id":"4","last_reported":1744823326,"current_range_meters":18800,"station_id":"ce4bhf92rcd13ifvqf40","pricing_plan_id":"cebpf4jnsgd1na2vs0mg"},{"bike_id":"9af176ea-9e7e-48a3-a748-f079e6e8e6d2","system_id":"levelo_inurba_marseille","lat":43.29523,"lon":5.39404,"is_reserved":false,"is_disabled":false,"rental_uris":{"android":"levelo://app?vid=9af176ea-9e7e-48a3-a748-f079e6e8e6d2","ios":"levelo://app?vid=9af176ea-9e7e-48a3-a748-f079e6e8e6d2"},"vehicle_type_id":"4","last_reported":1744823326,"current_range_meters":18800,"station_id":"ce4bh292rcd13ifvqdf0","pricing_plan_id":"cebpf4jnsgd1na2vs0mg"},{"bike_id":"f9294aff-5b6f-4d62-9db7-b7bdca4ffaf5","system_id":"levelo_inurba_marseille","lat":43.32533,"lon":5.41439,"is_reserved":false,"is_disabled":false,"rental_uris":{"android":"levelo://app?vid=f9294aff-5b6f-4d62-9db7-b7bdca4ffaf5","ios":"levelo://app?vid=f9294aff-5b6f-4d62-9db7-b7bdca4ffaf5"},"vehicle_type_id":"4","last_reported":1744823326,"current_range_meters":18800,"station_id":"ce4bhq12rcd13ifvqhhg","pricing_plan_id":"cebpf4jnsgd1na2vs0mg"},{"bike_id":"a9a13b2f-e2de-4f40-968c-4382de62974d","system_id":"levelo_inurba_marseille","lat":43.27952,"lon":5.41045,"is_reserved":false,"is_disabled":false,"rental_uris":{"android":"levelo://app?vid=a9a13b2f-e2de-4f40-968c-4382de62974d","ios":"levelo://app?vid=a9a13b2f-e2de-4f40-968c-4382de62974d"},"vehicle_type_id":"4","last_reported":1744823326,"current_range_meters":18800,"station_id":"ce4bhnp2rcd13ifvqh0g","pricing_plan_id":"cebpf4jnsgd1na2vs0mg"},{"bike_id":"c71570e4-0fce-44a7-bf1a-8c2a700e8cff","system_id":"levelo_inurba_marseille","lat":43.29526,"lon":5.39044,"is_reserved":false,"is_disabled":false,"rental_uris":{"android":"levelo://app?vid=c71570e4-0fce-44a7-bf1a-8c2a700e8cff","ios":"levelo://app?vid=c71570e4-0fce-44a7-bf1a-8c2a700e8cff"},"vehicle_type_id":"4","last_reported":1744823326,"current_range_meters":18800,"station_id":"ce4bh3p2rcd13ifvqdp0","pricing_plan_id":"cebpf4jnsgd1na2vs0mg"},{"bike_id":"f8ca688b-8d89-46b7-9110-baed5a9ba379","system_id":"levelo_inurba_marseille","lat":43.31151,"lon":5.3706,"is_reserved":false,"is_disabled":false,"rental_uris":{"android":"levelo://app?vid=f8ca688b-8d89-46b7-9110-baed5a9ba379","ios":"levelo://app?vid=f8ca688b-8d89-46b7-9110-baed5a9ba379"},"vehicle_type_id":"4","last_reported":1744823326,"current_range_meters":19200,"station_id":"","pricing_plan_id":"cebpf4jnsgd1na2vs0mg"},{"bike_id":"70e4bfc6-93c5-49fe-9a9f-edb08cfffd36","system_id":"levelo_inurba_marseille","lat":43.30136,"lon":5.39859,"is_reserved":false,"is_disabled":false,"rental_uris":{"android":"levelo://app?vid=70e4bfc6-93c5-49fe-9a9f-edb08cfffd36","ios":"levelo://app?vid=70e4bfc6-93c5-49fe-9a9f-edb08cfffd36"},"vehicle_type_id":"4","last_reported":1744823326,"current_range_meters":19200,"station_id":"ce4bh0h2rcd13ifvqd40","pricing_plan_id":"cebpf4jnsgd1na2vs0mg"},{"bike_id":"16fbd06a-72f5-40ab-9b66-3eb29781298a","system_id":"levelo_inurba_marseille","lat":43.286644,"lon":5.386711,"is_reserved":false,"is_disabled":false,"rental_uris":{"android":"levelo://app?vid=16fbd06a-72f5-40ab-9b66-3eb29781298a","ios":"levelo://app?vid=16fbd06a-72f5-40ab-9b66-3eb29781298a"},"vehicle_type_id":"4","last_reported":1744823326,"current_range_meters":19200,"station_id":"ce4bh492rcd13ifvqdug","pricing_plan_id":"cebpf4jnsgd1na2vs0mg"},{"bike_id":"14237dae-e660-4bfd-9886-4ea222fa240a","system_id":"levelo_inurba_marseille","lat":43.31488,"lon":5.37312,"is_reserved":false,"is_disabled":false,"rental_uris":{"android":"levelo://app?vid=14237dae-e660-4bfd-9886-4ea222fa240a","ios":"levelo://app?vid=14237dae-e660-4bfd-9886-4ea222fa240a"},"vehicle_type_id":"4","last_reported":1744823326,"current_range_meters":19200,"station_id":"ce4bgt12rcd13ifvqcd0","pricing_plan_id":"cebpf4jnsgd1na2vs0mg"},{"bike_id":"66e75ee8-ba26-484f-abcc-6ab151b40726","system_id":"levelo_inurba_marseille","lat":43.30132,"lon":5.39857,"is_reserved":false,"is_disabled":false,"rental_uris":{"android":"levelo://app?vid=66e75ee8-ba26-484f-abcc-6ab151b40726","ios":"levelo://app?vid=66e75ee8-ba26-484f-abcc-6ab151b40726"},"vehicle_type_id":"4","last_reported":1744823326,"current_range_meters":19200,"station_id":"ce4bh0h2rcd13ifvqd40","pricing_plan_id":"cebpf4jnsgd1na2vs0mg"},{"bike_id":"17c9dc6c-271d-433f-9b4c-f545e7e15d51","system_id":"levelo_inurba_marseille","lat":43.28084,"lon":5.39676,"is_reserved":false,"is_disabled":false,"rental_uris":{"android":"levelo://app?vid=17c9dc6c-271d-433f-9b4c-f545e7e15d51","ios":"levelo://app?vid=17c9dc6c-271d-433f-9b4c-f545e7e15d51"},"vehicle_type_id":"4","last_reported":1744823326,"current_range_meters":19200,"station_id":"ce4bho12rcd13ifvqh2g","pricing_plan_id":"cebpf4jnsgd1na2vs0mg"},{"bike_id":"a0ddb0a5-f7f0-4281-aa27-9e82747cc573","system_id":"levelo_inurba_marseille","lat":43.337619,"lon":5.374828,"is_reserved":false,"is_disabled":false,"rental_uris":{"android":"levelo://app?vid=a0ddb0a5-f7f0-4281-aa27-9e82747cc573","ios":"levelo://app?vid=a0ddb0a5-f7f0-4281-aa27-9e82747cc573"},"vehicle_type_id":"4","last_reported":1744823326,"current_range_meters":19200,"station_id":"","pricing_plan_id":"cebpf4jnsgd1na2vs0mg"},{"bike_id":"24fa430a-b86b-4589-8a95-2522897ffb2d","system_id":"levelo_inurba_marseille","lat":43.28715,"lon":5.37368,"is_reserved":false,"is_disabled":false,"rental_uris":{"android":"levelo://app?vid=24fa430a-b86b-4589-8a95-2522897ffb2d","ios":"levelo://app?vid=24fa430a-b86b-4589-8a95-2522897ffb2d"},"vehicle_type_id":"4","last_reported":1744823326,"current_range_meters":19600,"station_id":"ce4bh3p2rcd13ifvqdq0","pricing_plan_id":"cebpf4jnsgd1na2vs0mg"},{"bike_id":"d750596a-6ac6-4755-84cc-45acd4464f3d","system_id":"levelo_inurba_marseille","lat":43.24403,"lon":5.37131,"is_reserved":false,"is_disabled":false,"rental_uris":{"android":"levelo://app?vid=d750596a-6ac6-4755-84cc-45acd4464f3d","ios":"levelo://app?vid=d750596a-6ac6-4755-84cc-45acd4464f3d"},"vehicle_type_id":"4","last_reported":1744823326,"current_range_meters":19600,"station_id":"ce4bhhh2rcd13ifvqfk0","pricing_plan_id":"cebpf4jnsgd1na2vs0mg"},{"bike_id":"f903c897-854d-42ed-934f-18bbd95ce789","system_id":"levelo_inurba_marseille","lat":43.31232,"lon":5.36849,"is_reserved":false,"is_disabled":false,"rental_uris":{"android":"levelo://app?vid=f903c897-854d-42ed-934f-18bbd95ce789","ios":"levelo://app?vid=f903c897-854d-42ed-934f-18bbd95ce789"},"vehicle_type_id":"4","last_reported":1744823326,"current_range_meters":19600,"station_id":"ce4bgl92rcd13ifvqbq0","pricing_plan_id":"cebpf4jnsgd1na2vs0mg"},{"bike_id":"7e503a1b-3682-4e82-a0d8-f00043fe70df","system_id":"levelo_inurba_marseille","lat":43.29277,"lon":5.38441,"is_reserved":false,"is_disabled":false,"rental_uris":{"android":"levelo://app?vid=7e503a1b-3682-4e82-a0d8-f00043fe70df","ios":"levelo://app?vid=7e503a1b-3682-4e82-a0d8-f00043fe70df"},"vehicle_type_id":"4","last_reported":1744823326,"current_range_meters":19600,"station_id":"ce4bh692rcd13ifvqea0","pricing_plan_id":"cebpf4jnsgd1na2vs0mg"},{"bike_id":"1a489e9d-ed8c-4696-8857-fcf51ce1dd7a","system_id":"levelo_inurba_marseille","lat":43.31082,"lon":5.42429,"is_reserved":false,"is_disabled":false,"rental_uris":{"android":"levelo://app?vid=1a489e9d-ed8c-4696-8857-fcf51ce1dd7a","ios":"levelo://app?vid=1a489e9d-ed8c-4696-8857-fcf51ce1dd7a"},"vehicle_type_id":"4","last_reported":1744823326,"current_range_meters":19600,"station_id":"ce4bhp92rcd13ifvqhag","pricing_plan_id":"cebpf4jnsgd1na2vs0mg"},{"bike_id":"bbb1c662-cc65-4c72-8489-de78d2f0f12f","system_id":"levelo_inurba_marseille","lat":43.23073,"lon":5.35474,"is_reserved":false,"is_disabled":false,"rental_uris":{"android":"levelo://app?vid=bbb1c662-cc65-4c72-8489-de78d2f0f12f","ios":"levelo://app?vid=bbb1c662-cc65-4c72-8489-de78d2f0f12f"},"vehicle_type_id":"4","last_reported":1744823326,"current_range_meters":19600,"station_id":"cpo3342slgdg3j2ifvpg","pricing_plan_id":"cebpf4jnsgd1na2vs0mg"},{"bike_id":"fd9a8fe7-b0f1-4478-990d-e3b227efe8d9","system_id":"levelo_inurba_marseille","lat":43.30825,"lon":5.38139,"is_reserved":false,"is_disabled":false,"rental_uris":{"android":"levelo://app?vid=fd9a8fe7-b0f1-4478-990d-e3b227efe8d9","ios":"levelo://app?vid=fd9a8fe7-b0f1-4478-990d-e3b227efe8d9"},"vehicle_type_id":"4","last_reported":1744823326,"current_range_meters":19600,"station_id":"ce4bgt12rcd13ifvqce0","pricing_plan_id":"cebpf4jnsgd1na2vs0mg"},{"bike_id":"be63f8e0-665e-45da-95f3-f97a2ace84c3","system_id":"levelo_inurba_marseille","lat":43.33025,"lon":5.39042,"is_reserved":false,"is_disabled":false,"rental_uris":{"android":"levelo://app?vid=be63f8e0-665e-45da-95f3-f97a2ace84c3","ios":"levelo://app?vid=be63f8e0-665e-45da-95f3-f97a2ace84c3"},"vehicle_type_id":"4","last_reported":1744823326,"current_range_meters":20000,"station_id":"ce4bhr92rcd13ifvqhrg","pricing_plan_id":"cebpf4jnsgd1na2vs0mg"},{"bike_id":"08f4dcee-7656-4957-9022-f13783bb2667","system_id":"levelo_inurba_marseille","lat":43.29698,"lon":5.37246,"is_reserved":false,"is_disabled":false,"rental_uris":{"android":"levelo://app?vid=08f4dcee-7656-4957-9022-f13783bb2667","ios":"levelo://app?vid=08f4dcee-7656-4957-9022-f13783bb2667"},"vehicle_type_id":"4","last_reported":1744823326,"current_range_meters":20000,"station_id":"ce4bgk12rcd13ifvqbj0","pricing_plan_id":"cebpf4jnsgd1na2vs0mg"},{"bike_id":"167163f7-3cb8-4582-a946-057cadef0672","system_id":"levelo_inurba_marseille","lat":43.29261,"lon":5.40895,"is_reserved":false,"is_disabled":false,"rental_uris":{"android":"levelo://app?vid=167163f7-3cb8-4582-a946-057cadef0672","ios":"levelo://app?vid=167163f7-3cb8-4582-a946-057cadef0672"},"vehicle_type_id":"4","last_reported":1744823326,"current_range_meters":20000,"station_id":"ce4bh192rcd13ifvqdc0","pricing_plan_id":"cebpf4jnsgd1na2vs0mg"},{"bike_id":"834dc034-f78f-4feb-bd24-1cf8ebe7999d","system_id":"levelo_inurba_marseille","lat":43.27838,"lon":5.39205,"is_reserved":false,"is_disabled":false,"rental_uris":{"android":"levelo://app?vid=834dc034-f78f-4feb-bd24-1cf8ebe7999d","ios":"levelo://app?vid=834dc034-f78f-4feb-bd24-1cf8ebe7999d"},"vehicle_type_id":"4","last_reported":1744823326,"current_range_meters":19600,"station_id":"ce4bhjp2rcd13ifvqga0","pricing_plan_id":"cebpf4jnsgd1na2vs0mg"},{"bike_id":"d3428e33-32a9-4062-8547-ea84035fcdc8","system_id":"levelo_inurba_marseille","lat":43.25871,"lon":5.39894,"is_reserved":false,"is_disabled":false,"rental_uris":{"android":"levelo://app?vid=d3428e33-32a9-4062-8547-ea84035fcdc8","ios":"levelo://app?vid=d3428e33-32a9-4062-8547-ea84035fcdc8"},"vehicle_type_id":"4","last_reported":1744823326,"current_range_meters":20000,"station_id":"ce4bhl92rcd13ifvqghg","pricing_plan_id":"cebpf4jnsgd1na2vs0mg"},{"bike_id":"ccb7a8e4-757c-4e6f-90e3-f97fac7da5b7","system_id":"levelo_inurba_marseille","lat":43.29271,"lon":5.38457,"is_reserved":false,"is_disabled":false,"rental_uris":{"android":"levelo://app?vid=ccb7a8e4-757c-4e6f-90e3-f97fac7da5b7","ios":"levelo://app?vid=ccb7a8e4-757c-4e6f-90e3-f97fac7da5b7"},"vehicle_type_id":"4","last_reported":1744823326,"current_range_meters":20000,"station_id":"ce4bh692rcd13ifvqea0","pricing_plan_id":"cebpf4jnsgd1na2vs0mg"},{"bike_id":"17c24be1-2cd9-48c4-bfc2-d1fcae2cee78","system_id":"levelo_inurba_marseille","lat":43.30655,"lon":5.40064,"is_reserved":false,"is_disabled":false,"rental_uris":{"android":"levelo://app?vid=17c24be1-2cd9-48c4-bfc2-d1fcae2cee78","ios":"levelo://app?vid=17c24be1-2cd9-48c4-bfc2-d1fcae2cee78"},"vehicle_type_id":"4","last_reported":1744823326,"current_range_meters":20000,"station_id":"ce4bh112rcd13ifvqda0","pricing_plan_id":"cebpf4jnsgd1na2vs0mg"},{"bike_id":"6f2360da-5688-4f6a-8ebd-9e32ee7c678f","system_id":"levelo_inurba_marseille","lat":43.31707,"lon":5.40512,"is_reserved":false,"is_disabled":false,"rental_uris":{"android":"levelo://app?vid=6f2360da-5688-4f6a-8ebd-9e32ee7c678f","ios":"levelo://app?vid=6f2360da-5688-4f6a-8ebd-9e32ee7c678f"},"vehicle_type_id":"4","last_reported":1744823326,"current_range_meters":20000,"station_id":"ce4bh012rcd13ifvqd00","pricing_plan_id":"cebpf4jnsgd1na2vs0mg"},{"bike_id":"116f4404-8a06-4191-a52b-63148c33046d","system_id":"levelo_inurba_marseille","lat":43.28931,"lon":5.38399,"is_reserved":false,"is_disabled":false,"rental_uris":{"android":"levelo://app?vid=116f4404-8a06-4191-a52b-63148c33046d","ios":"levelo://app?vid=116f4404-8a06-4191-a52b-63148c33046d"},"vehicle_type_id":"4","last_reported":1744823326,"current_range_meters":20400,"station_id":"ce4bh612rcd13ifvqe6g","pricing_plan_id":"cebpf4jnsgd1na2vs0mg"},{"bike_id":"d39e5537-c00a-4bf8-9f22-53966b448679","system_id":"levelo_inurba_marseille","lat":43.29565,"lon":5.42276,"is_reserved":false,"is_disabled":false,"rental_uris":{"android":"levelo://app?vid=d39e5537-c00a-4bf8-9f22-53966b448679","ios":"levelo://app?vid=d39e5537-c00a-4bf8-9f22-53966b448679"},"vehicle_type_id":"4","last_reported":1744823326,"current_range_meters":20400,"station_id":"ce4bhph2rcd13ifvqhdg","pricing_plan_id":"cebpf4jnsgd1na2vs0mg"},{"bike_id":"d561f0cf-57f8-447a-8cbf-221c529a5497","system_id":"levelo_inurba_marseille","lat":43.32041,"lon":5.41553,"is_reserved":false,"is_disabled":false,"rental_uris":{"android":"levelo://app?vid=d561f0cf-57f8-447a-8cbf-221c529a5497","ios":"levelo://app?vid=d561f0cf-57f8-447a-8cbf-221c529a5497"},"vehicle_type_id":"4","last_reported":1744823326,"current_range_meters":20400,"station_id":"ce4bhq92rcd13ifvqhkg","pricing_plan_id":"cebpf4jnsgd1na2vs0mg"},{"bike_id":"2984cec8-23de-4a73-97a3-c0829eb8b5c7","system_id":"levelo_inurba_marseille","lat":43.27919,"lon":5.39581,"is_reserved":false,"is_disabled":false,"rental_uris":{"android":"levelo://app?vid=2984cec8-23de-4a73-97a3-c0829eb8b5c7","ios":"levelo://app?vid=2984cec8-23de-4a73-97a3-c0829eb8b5c7"},"vehicle_type_id":"4","last_reported":1744823326,"current_range_meters":20400,"station_id":"ce4bhf92rcd13ifvqf40","pricing_plan_id":"cebpf4jnsgd1na2vs0mg"},{"bike_id":"f71c00dd-d842-45fc-ae17-53ee25a448c3","system_id":"levelo_inurba_marseille","lat":43.29732,"lon":5.37694,"is_reserved":false,"is_disabled":false,"rental_uris":{"android":"levelo://app?vid=f71c00dd-d842-45fc-ae17-53ee25a448c3","ios":"levelo://app?vid=f71c00dd-d842-45fc-ae17-53ee25a448c3"},"vehicle_type_id":"4","last_reported":1744823326,"current_range_meters":20400,"station_id":"ce4bgkh2rcd13ifvqbl0","pricing_plan_id":"cebpf4jnsgd1na2vs0mg"},{"bike_id":"43bf9250-5f81-403b-b2f2-341a8561032d","system_id":"levelo_inurba_marseille","lat":43.31686,"lon":5.40446,"is_reserved":false,"is_disabled":false,"rental_uris":{"android":"levelo://app?vid=43bf9250-5f81-403b-b2f2-341a8561032d","ios":"levelo://app?vid=43bf9250-5f81-403b-b2f2-341a8561032d"},"vehicle_type_id":"4","last_reported":1744823326,"current_range_meters":20400,"station_id":"ce4bh012rcd13ifvqd00","pricing_plan_id":"cebpf4jnsgd1na2vs0mg"},{"bike_id":"c9288a2f-8f21-4bc2-a4ca-a43481e439bc","system_id":"levelo_inurba_marseille","lat":43.28616,"lon":5.35103,"is_reserved":false,"is_disabled":false,"rental_uris":{"android":"levelo://app?vid=c9288a2f-8f21-4bc2-a4ca-a43481e439bc","ios":"levelo://app?vid=c9288a2f-8f21-4bc2-a4ca-a43481e439bc"},"vehicle_type_id":"4","last_reported":1744823326,"current_range_meters":20800,"station_id":"ce4bhch2rcd13ifvqeug","pricing_plan_id":"cebpf4jnsgd1na2vs0mg"},{"bike_id":"935d17b3-9c9b-444a-9545-20f784e1180f","system_id":"levelo_inurba_marseille","lat":43.29966,"lon":5.38489,"is_reserved":false,"is_disabled":false,"rental_uris":{"android":"levelo://app?vid=935d17b3-9c9b-444a-9545-20f784e1180f","ios":"levelo://app?vid=935d17b3-9c9b-444a-9545-20f784e1180f"},"vehicle_type_id":"4","last_reported":1744823326,"current_range_meters":20800,"station_id":"ce4bgj92rcd13ifvqbd0","pricing_plan_id":"cebpf4jnsgd1na2vs0mg"},{"bike_id":"5485b00f-8274-4b5a-85cc-cc53ef3a6ca7","system_id":"levelo_inurba_marseille","lat":43.26203,"lon":5.37934,"is_reserved":false,"is_disabled":false,"rental_uris":{"android":"levelo://app?vid=5485b00f-8274-4b5a-85cc-cc53ef3a6ca7","ios":"levelo://app?vid=5485b00f-8274-4b5a-85cc-cc53ef3a6ca7"},"vehicle_type_id":"4","last_reported":1744823326,"current_range_meters":20800,"station_id":"ce4bhjp2rcd13ifvqg90","pricing_plan_id":"cebpf4jnsgd1na2vs0mg"},{"bike_id":"cacad557-44dd-45fd-bf40-ccf696351134","system_id":"levelo_inurba_marseille","lat":43.29264,"lon":5.38433,"is_reserved":false,"is_disabled":false,"rental_uris":{"android":"levelo://app?vid=cacad557-44dd-45fd-bf40-ccf696351134","ios":"levelo://app?vid=cacad557-44dd-45fd-bf40-ccf696351134"},"vehicle_type_id":"4","last_reported":1744823326,"current_range_meters":21600,"station_id":"ce4bh692rcd13ifvqea0","pricing_plan_id":"cebpf4jnsgd1na2vs0mg"},{"bike_id":"41fb0398-f2fe-4abb-ae37-a38f47615ea9","system_id":"levelo_inurba_marseille","lat":43.32355,"lon":5.36783,"is_reserved":false,"is_disabled":false,"rental_uris":{"android":"levelo://app?vid=41fb0398-f2fe-4abb-ae37-a38f47615ea9","ios":"levelo://app?vid=41fb0398-f2fe-4abb-ae37-a38f47615ea9"},"vehicle_type_id":"4","last_reported":1744823326,"current_range_meters":21600,"station_id":"ce4bhsh2rcd13ifvqi2g","pricing_plan_id":"cebpf4jnsgd1na2vs0mg"},{"bike_id":"7ed16cf0-d146-49cd-8d01-0a847b62d6b2","system_id":"levelo_inurba_marseille","lat":43.28069,"lon":5.39628,"is_reserved":false,"is_disabled":false,"rental_uris":{"android":"levelo://app?vid=7ed16cf0-d146-49cd-8d01-0a847b62d6b2","ios":"levelo://app?vid=7ed16cf0-d146-49cd-8d01-0a847b62d6b2"},"vehicle_type_id":"4","last_reported":1744823326,"current_range_meters":21600,"station_id":"ce4bho12rcd13ifvqh2g","pricing_plan_id":"cebpf4jnsgd1na2vs0mg"},{"bike_id":"88bfa4d6-b033-456c-a8d9-b51526e39406","system_id":"levelo_inurba_marseille","lat":43.29895,"lon":5.43665,"is_reserved":false,"is_disabled":false,"rental_uris":{"android":"levelo://app?vid=88bfa4d6-b033-456c-a8d9-b51526e39406","ios":"levelo://app?vid=88bfa4d6-b033-456c-a8d9-b51526e39406"},"vehicle_type_id":"4","last_reported":1744823326,"current_range_meters":21600,"station_id":"ce4bhpp2rcd13ifvqhfg","pricing_plan_id":"cebpf4jnsgd1na2vs0mg"},{"bike_id":"04fb422e-0aec-4205-8e11-f392462c55c3","system_id":"levelo_inurba_marseille","lat":43.26825,"lon":5.40253,"is_reserved":false,"is_disabled":false,"rental_uris":{"android":"levelo://app?vid=04fb422e-0aec-4205-8e11-f392462c55c3","ios":"levelo://app?vid=04fb422e-0aec-4205-8e11-f392462c55c3"},"vehicle_type_id":"4","last_reported":1744823326,"current_range_meters":21600,"station_id":"ce501612rcd8frsf0b60","pricing_plan_id":"cebpf4jnsgd1na2vs0mg"},{"bike_id":"8fd2cdd0-07d7-4c01-add2-10309aca4136","system_id":"levelo_inurba_marseille","lat":43.267169,"lon":5.394645,"is_reserved":false,"is_disabled":true,"rental_uris":{"android":"levelo://app?vid=8fd2cdd0-07d7-4c01-add2-10309aca4136","ios":"levelo://app?vid=8fd2cdd0-07d7-4c01-add2-10309aca4136"},"vehicle_type_id":"4","last_reported":1744823326,"current_range_meters":21600,"station_id":"","pricing_plan_id":"cebpf4jnsgd1na2vs0mg"},{"bike_id":"cc3a5b52-e9ff-4e62-9b0e-7a322eb479ed","system_id":"levelo_inurba_marseille","lat":43.30142,"lon":5.38781,"is_reserved":false,"is_disabled":false,"rental_uris":{"android":"levelo://app?vid=cc3a5b52-e9ff-4e62-9b0e-7a322eb479ed","ios":"levelo://app?vid=cc3a5b52-e9ff-4e62-9b0e-7a322eb479ed"},"vehicle_type_id":"4","last_reported":1744823326,"current_range_meters":21600,"station_id":"ce4bghh2rcd13ifvqb60","pricing_plan_id":"cebpf4jnsgd1na2vs0mg"},{"bike_id":"579f53f8-371c-4abe-b1cc-714d1c249930","system_id":"levelo_inurba_marseille","lat":43.27837,"lon":5.39204,"is_reserved":false,"is_disabled":false,"rental_uris":{"android":"levelo://app?vid=579f53f8-371c-4abe-b1cc-714d1c249930","ios":"levelo://app?vid=579f53f8-371c-4abe-b1cc-714d1c249930"},"vehicle_type_id":"4","last_reported":1744823326,"current_range_meters":21600,"station_id":"ce4bhjp2rcd13ifvqga0","pricing_plan_id":"cebpf4jnsgd1na2vs0mg"},{"bike_id":"20e13665-04b2-4e44-8830-962eacafddd2","system_id":"levelo_inurba_marseille","lat":43.26222,"lon":5.37444,"is_reserved":false,"is_disabled":false,"rental_uris":{"android":"levelo://app?vid=20e13665-04b2-4e44-8830-962eacafddd2","ios":"levelo://app?vid=20e13665-04b2-4e44-8830-962eacafddd2"},"vehicle_type_id":"4","last_reported":1744823326,"current_range_meters":22000,"station_id":"ce4bhgp2rcd13ifvqfc0","pricing_plan_id":"cebpf4jnsgd1na2vs0mg"},{"bike_id":"000adb7c-17c6-4b11-adb2-70f218e934be","system_id":"levelo_inurba_marseille","lat":43.29928,"lon":5.38152,"is_reserved":false,"is_disabled":false,"rental_uris":{"android":"levelo://app?vid=000adb7c-17c6-4b11-adb2-70f218e934be","ios":"levelo://app?vid=000adb7c-17c6-4b11-adb2-70f218e934be"},"vehicle_type_id":"4","last_reported":1744823326,"current_range_meters":22000,"station_id":"ce4bgj12rcd13ifvqbc0","pricing_plan_id":"cebpf4jnsgd1na2vs0mg"},{"bike_id":"e87bddf1-d196-4a84-89fa-da3897b97027","system_id":"levelo_inurba_marseille","lat":43.29259,"lon":5.38433,"is_reserved":false,"is_disabled":false,"rental_uris":{"android":"levelo://app?vid=e87bddf1-d196-4a84-89fa-da3897b97027","ios":"levelo://app?vid=e87bddf1-d196-4a84-89fa-da3897b97027"},"vehicle_type_id":"4","last_reported":1744823326,"current_range_meters":22000,"station_id":"ce4bh692rcd13ifvqea0","pricing_plan_id":"cebpf4jnsgd1na2vs0mg"},{"bike_id":"6d368a62-95d1-4133-beb8-b021a12ed054","system_id":"levelo_inurba_marseille","lat":43.28485,"lon":5.38414,"is_reserved":false,"is_disabled":false,"rental_uris":{"android":"levelo://app?vid=6d368a62-95d1-4133-beb8-b021a12ed054","ios":"levelo://app?vid=6d368a62-95d1-4133-beb8-b021a12ed054"},"vehicle_type_id":"4","last_reported":1744823326,"current_range_meters":22000,"station_id":"ce4bh512rcd13ifvqe3g","pricing_plan_id":"cebpf4jnsgd1na2vs0mg"},{"bike_id":"2e6e86bd-5498-4b28-89e2-bb01dc91e2c1","system_id":"levelo_inurba_marseille","lat":43.31233,"lon":5.3687,"is_reserved":false,"is_disabled":false,"rental_uris":{"android":"levelo://app?vid=2e6e86bd-5498-4b28-89e2-bb01dc91e2c1","ios":"levelo://app?vid=2e6e86bd-5498-4b28-89e2-bb01dc91e2c1"},"vehicle_type_id":"4","last_reported":1744823326,"current_range_meters":22000,"station_id":"ce4bgl92rcd13ifvqbq0","pricing_plan_id":"cebpf4jnsgd1na2vs0mg"},{"bike_id":"80bd91be-803b-4795-b641-8604f76e1c8c","system_id":"levelo_inurba_marseille","lat":43.28938,"lon":5.384,"is_reserved":false,"is_disabled":false,"rental_uris":{"android":"levelo://app?vid=80bd91be-803b-4795-b641-8604f76e1c8c","ios":"levelo://app?vid=80bd91be-803b-4795-b641-8604f76e1c8c"},"vehicle_type_id":"4","last_reported":1744823326,"current_range_meters":21600,"station_id":"ce4bh612rcd13ifvqe6g","pricing_plan_id":"cebpf4jnsgd1na2vs0mg"},{"bike_id":"baf2a52d-8b5c-4cdc-aa82-19d01568233d","system_id":"levelo_inurba_marseille","lat":43.28361,"lon":5.38093,"is_reserved":false,"is_disabled":false,"rental_uris":{"android":"levelo://app?vid=baf2a52d-8b5c-4cdc-aa82-19d01568233d","ios":"levelo://app?vid=baf2a52d-8b5c-4cdc-aa82-19d01568233d"},"vehicle_type_id":"4","last_reported":1744823326,"current_range_meters":22000,"station_id":"ce4bh412rcd13ifvqdr0","pricing_plan_id":"cebpf4jnsgd1na2vs0mg"},{"bike_id":"242ccc60-2083-4dc0-935e-912047aa9bb0","system_id":"levelo_inurba_marseille","lat":43.29276,"lon":5.38439,"is_reserved":false,"is_disabled":false,"rental_uris":{"android":"levelo://app?vid=242ccc60-2083-4dc0-935e-912047aa9bb0","ios":"levelo://app?vid=242ccc60-2083-4dc0-935e-912047aa9bb0"},"vehicle_type_id":"4","last_reported":1744823326,"current_range_meters":22000,"station_id":"ce4bh692rcd13ifvqea0","pricing_plan_id":"cebpf4jnsgd1na2vs0mg"},{"bike_id":"c785a930-e2fc-4a2c-95ab-2c04b1df45b5","system_id":"levelo_inurba_marseille","lat":43.2925,"lon":5.37634,"is_reserved":false,"is_disabled":false,"rental_uris":{"android":"levelo://app?vid=c785a930-e2fc-4a2c-95ab-2c04b1df45b5","ios":"levelo://app?vid=c785a930-e2fc-4a2c-95ab-2c04b1df45b5"},"vehicle_type_id":"4","last_reported":1744823326,"current_range_meters":22000,"station_id":"ce4bgi12rcd13ifvqb80","pricing_plan_id":"cebpf4jnsgd1na2vs0mg"},{"bike_id":"1d404777-1d4a-4dbf-93c6-54c02829e18b","system_id":"levelo_inurba_marseille","lat":43.27324,"lon":5.39084,"is_reserved":false,"is_disabled":false,"rental_uris":{"android":"levelo://app?vid=1d404777-1d4a-4dbf-93c6-54c02829e18b","ios":"levelo://app?vid=1d404777-1d4a-4dbf-93c6-54c02829e18b"},"vehicle_type_id":"4","last_reported":1744823326,"current_range_meters":22400,"station_id":"ce4bhgp2rcd13ifvqfe0","pricing_plan_id":"cebpf4jnsgd1na2vs0mg"},{"bike_id":"cb41ef88-4467-4768-9d48-51a16a2632ea","system_id":"levelo_inurba_marseille","lat":43.27324,"lon":5.39076,"is_reserved":false,"is_disabled":false,"rental_uris":{"android":"levelo://app?vid=cb41ef88-4467-4768-9d48-51a16a2632ea","ios":"levelo://app?vid=cb41ef88-4467-4768-9d48-51a16a2632ea"},"vehicle_type_id":"4","last_reported":1744823326,"current_range_meters":22400,"station_id":"ce4bhgp2rcd13ifvqfe0","pricing_plan_id":"cebpf4jnsgd1na2vs0mg"},{"bike_id":"f41f4457-befb-4705-80eb-3a5f47cb1758","system_id":"levelo_inurba_marseille","lat":43.28631,"lon":5.35095,"is_reserved":false,"is_disabled":false,"rental_uris":{"android":"levelo://app?vid=f41f4457-befb-4705-80eb-3a5f47cb1758","ios":"levelo://app?vid=f41f4457-befb-4705-80eb-3a5f47cb1758"},"vehicle_type_id":"4","last_reported":1744823326,"current_range_meters":22400,"station_id":"ce4bhch2rcd13ifvqeug","pricing_plan_id":"cebpf4jnsgd1na2vs0mg"},{"bike_id":"2e47be96-a7b1-4cf4-923a-c7711800fdaa","system_id":"levelo_inurba_marseille","lat":43.2927,"lon":5.36837,"is_reserved":false,"is_disabled":false,"rental_uris":{"android":"levelo://app?vid=2e47be96-a7b1-4cf4-923a-c7711800fdaa","ios":"levelo://app?vid=2e47be96-a7b1-4cf4-923a-c7711800fdaa"},"vehicle_type_id":"4","last_reported":1744823326,"current_range_meters":22400,"station_id":"ce4bhbp2rcd13ifvqesg","pricing_plan_id":"cebpf4jnsgd1na2vs0mg"},{"bike_id":"8934c9ff-b955-4903-b5d2-c595dc711b7c","system_id":"levelo_inurba_marseille","lat":43.29569,"lon":5.39974,"is_reserved":false,"is_disabled":true,"rental_uris":{"android":"levelo://app?vid=8934c9ff-b955-4903-b5d2-c595dc711b7c","ios":"levelo://app?vid=8934c9ff-b955-4903-b5d2-c595dc711b7c"},"vehicle_type_id":"4","last_reported":1744823326,"current_range_meters":22400,"station_id":"ce4bh312rcd13ifvqdj0","pricing_plan_id":"cebpf4jnsgd1na2vs0mg"},{"bike_id":"bf719354-3a0f-4a08-a3dc-ea01891f96a8","system_id":"levelo_inurba_marseille","lat":43.29271,"lon":5.38439,"is_reserved":false,"is_disabled":true,"rental_uris":{"android":"levelo://app?vid=bf719354-3a0f-4a08-a3dc-ea01891f96a8","ios":"levelo://app?vid=bf719354-3a0f-4a08-a3dc-ea01891f96a8"},"vehicle_type_id":"4","last_reported":1744823326,"current_range_meters":22400,"station_id":"ce4bh692rcd13ifvqea0","pricing_plan_id":"cebpf4jnsgd1na2vs0mg"},{"bike_id":"9b32d9b0-b425-4d34-812f-0c610ee31565","system_id":"levelo_inurba_marseille","lat":43.3024,"lon":5.39481,"is_reserved":false,"is_disabled":true,"rental_uris":{"android":"levelo://app?vid=9b32d9b0-b425-4d34-812f-0c610ee31565","ios":"levelo://app?vid=9b32d9b0-b425-4d34-812f-0c610ee31565"},"vehicle_type_id":"4","last_reported":1744823326,"current_range_meters":22800,"station_id":"ce4bh0p2rcd13ifvqd70","pricing_plan_id":"cebpf4jnsgd1na2vs0mg"},{"bike_id":"96b0ee13-4242-40f6-ab89-563fac05b70c","system_id":"levelo_inurba_marseille","lat":43.30933,"lon":5.40145,"is_reserved":false,"is_disabled":false,"rental_uris":{"android":"levelo://app?vid=96b0ee13-4242-40f6-ab89-563fac05b70c","ios":"levelo://app?vid=96b0ee13-4242-40f6-ab89-563fac05b70c"},"vehicle_type_id":"4","last_reported":1744823326,"current_range_meters":22800,"station_id":"ce4bgvp2rcd13ifvqct0","pricing_plan_id":"cebpf4jnsgd1na2vs0mg"},{"bike_id":"afb3b035-09d7-4af9-acb4-e96be7855397","system_id":"levelo_inurba_marseille","lat":43.27074,"lon":5.42278,"is_reserved":false,"is_disabled":false,"rental_uris":{"android":"levelo://app?vid=afb3b035-09d7-4af9-acb4-e96be7855397","ios":"levelo://app?vid=afb3b035-09d7-4af9-acb4-e96be7855397"},"vehicle_type_id":"4","last_reported":1744823326,"current_range_meters":22800,"station_id":"ce4bhk92rcd13ifvqgb0","pricing_plan_id":"cebpf4jnsgd1na2vs0mg"},{"bike_id":"5c9c0bb7-1ad4-4457-b88d-83abed81f559","system_id":"levelo_inurba_marseille","lat":43.29906,"lon":5.38145,"is_reserved":false,"is_disabled":false,"rental_uris":{"android":"levelo://app?vid=5c9c0bb7-1ad4-4457-b88d-83abed81f559","ios":"levelo://app?vid=5c9c0bb7-1ad4-4457-b88d-83abed81f559"},"vehicle_type_id":"4","last_reported":1744823326,"current_range_meters":22800,"station_id":"ce4bgj12rcd13ifvqbc0","pricing_plan_id":"cebpf4jnsgd1na2vs0mg"},{"bike_id":"c511c7da-d08e-4753-831d-2ab4b79c9ba9","system_id":"levelo_inurba_marseille","lat":43.31757,"lon":5.39019,"is_reserved":false,"is_disabled":false,"rental_uris":{"android":"levelo://app?vid=c511c7da-d08e-4753-831d-2ab4b79c9ba9","ios":"levelo://app?vid=c511c7da-d08e-4753-831d-2ab4b79c9ba9"},"vehicle_type_id":"4","last_reported":1744823326,"current_range_meters":22800,"station_id":"ce4bhqp2rcd13ifvqhng","pricing_plan_id":"cebpf4jnsgd1na2vs0mg"},{"bike_id":"b0b21eda-28c9-44b9-9cd1-635197a25de4","system_id":"levelo_inurba_marseille","lat":43.28856,"lon":5.35844,"is_reserved":false,"is_disabled":false,"rental_uris":{"android":"levelo://app?vid=b0b21eda-28c9-44b9-9cd1-635197a25de4","ios":"levelo://app?vid=b0b21eda-28c9-44b9-9cd1-635197a25de4"},"vehicle_type_id":"4","last_reported":1744823326,"current_range_meters":22800,"station_id":"ce4bhb12rcd13ifvqem0","pricing_plan_id":"cebpf4jnsgd1na2vs0mg"},{"bike_id":"7eb8853e-3665-40f5-8308-1299f0674652","system_id":"levelo_inurba_marseille","lat":43.3038,"lon":5.42486,"is_reserved":false,"is_disabled":false,"rental_uris":{"android":"levelo://app?vid=7eb8853e-3665-40f5-8308-1299f0674652","ios":"levelo://app?vid=7eb8853e-3665-40f5-8308-1299f0674652"},"vehicle_type_id":"4","last_reported":1744823326,"current_range_meters":22800,"station_id":"ce4bhoh2rcd13ifvqh6g","pricing_plan_id":"cebpf4jnsgd1na2vs0mg"},{"bike_id":"4e2d9ba0-afe0-447b-b865-6aa304bf1e08","system_id":"levelo_inurba_marseille","lat":43.30553,"lon":5.36573,"is_reserved":false,"is_disabled":false,"rental_uris":{"android":"levelo://app?vid=4e2d9ba0-afe0-447b-b865-6aa304bf1e08","ios":"levelo://app?vid=4e2d9ba0-afe0-447b-b865-6aa304bf1e08"},"vehicle_type_id":"4","last_reported":1744823326,"current_range_meters":21600,"station_id":"ce4bgs12rcd13ifvqcag","pricing_plan_id":"cebpf4jnsgd1na2vs0mg"},{"bike_id":"fd5dc895-50c2-43a4-b1dc-3925a12f58f8","system_id":"levelo_inurba_marseille","lat":43.292662,"lon":5.384318,"is_reserved":false,"is_disabled":false,"rental_uris":{"android":"levelo://app?vid=fd5dc895-50c2-43a4-b1dc-3925a12f58f8","ios":"levelo://app?vid=fd5dc895-50c2-43a4-b1dc-3925a12f58f8"},"vehicle_type_id":"4","last_reported":1744823326,"current_range_meters":22800,"station_id":"ce4bh692rcd13ifvqea0","pricing_plan_id":"cebpf4jnsgd1na2vs0mg"},{"bike_id":"f666d0ab-23d1-4a22-8af2-3e01078165a1","system_id":"levelo_inurba_marseille","lat":43.29259,"lon":5.38432,"is_reserved":false,"is_disabled":false,"rental_uris":{"android":"levelo://app?vid=f666d0ab-23d1-4a22-8af2-3e01078165a1","ios":"levelo://app?vid=f666d0ab-23d1-4a22-8af2-3e01078165a1"},"vehicle_type_id":"4","last_reported":1744823326,"current_range_meters":22800,"station_id":"ce4bh692rcd13ifvqea0","pricing_plan_id":"cebpf4jnsgd1na2vs0mg"},{"bike_id":"fd6bc4e8-b29f-42f3-91cd-67a1d91128b7","system_id":"levelo_inurba_marseille","lat":43.29267,"lon":5.38434,"is_reserved":false,"is_disabled":false,"rental_uris":{"android":"levelo://app?vid=fd6bc4e8-b29f-42f3-91cd-67a1d91128b7","ios":"levelo://app?vid=fd6bc4e8-b29f-42f3-91cd-67a1d91128b7"},"vehicle_type_id":"4","last_reported":1744823326,"current_range_meters":22800,"station_id":"ce4bh692rcd13ifvqea0","pricing_plan_id":"cebpf4jnsgd1na2vs0mg"},{"bike_id":"1c942854-14db-4279-b065-e661b548e85d","system_id":"levelo_inurba_marseille","lat":43.29911,"lon":5.38155,"is_reserved":false,"is_disabled":false,"rental_uris":{"android":"levelo://app?vid=1c942854-14db-4279-b065-e661b548e85d","ios":"levelo://app?vid=1c942854-14db-4279-b065-e661b548e85d"},"vehicle_type_id":"4","last_reported":1744823326,"current_range_meters":22800,"station_id":"ce4bgj12rcd13ifvqbc0","pricing_plan_id":"cebpf4jnsgd1na2vs0mg"},{"bike_id":"20338809-6e1c-46fd-ae64-bd59b7d6f491","system_id":"levelo_inurba_marseille","lat":43.31692,"lon":5.40472,"is_reserved":false,"is_disabled":false,"rental_uris":{"android":"levelo://app?vid=20338809-6e1c-46fd-ae64-bd59b7d6f491","ios":"levelo://app?vid=20338809-6e1c-46fd-ae64-bd59b7d6f491"},"vehicle_type_id":"4","last_reported":1744823326,"current_range_meters":23200,"station_id":"ce4bh012rcd13ifvqd00","pricing_plan_id":"cebpf4jnsgd1na2vs0mg"},{"bike_id":"f76c5c23-62c8-428c-b91f-a866b0e82568","system_id":"levelo_inurba_marseille","lat":43.29213,"lon":5.39337,"is_reserved":false,"is_disabled":false,"rental_uris":{"android":"levelo://app?vid=f76c5c23-62c8-428c-b91f-a866b0e82568","ios":"levelo://app?vid=f76c5c23-62c8-428c-b91f-a866b0e82568"},"vehicle_type_id":"4","last_reported":1744823326,"current_range_meters":23200,"station_id":"ce4bh192rcd13ifvqdd0","pricing_plan_id":"cebpf4jnsgd1na2vs0mg"},{"bike_id":"789c3822-56ca-4769-bcd4-8845bdea2fda","system_id":"levelo_inurba_marseille","lat":43.2416,"lon":5.36406,"is_reserved":false,"is_disabled":false,"rental_uris":{"android":"levelo://app?vid=789c3822-56ca-4769-bcd4-8845bdea2fda","ios":"levelo://app?vid=789c3822-56ca-4769-bcd4-8845bdea2fda"},"vehicle_type_id":"4","last_reported":1744823326,"current_range_meters":23200,"station_id":"cpo36qri1sfpv3e86is0","pricing_plan_id":"cebpf4jnsgd1na2vs0mg"},{"bike_id":"fed3ff9e-d2de-4c72-9189-0e67e0da2529","system_id":"levelo_inurba_marseille","lat":43.30437,"lon":5.38895,"is_reserved":false,"is_disabled":false,"rental_uris":{"android":"levelo://app?vid=fed3ff9e-d2de-4c72-9189-0e67e0da2529","ios":"levelo://app?vid=fed3ff9e-d2de-4c72-9189-0e67e0da2529"},"vehicle_type_id":"4","last_reported":1744823326,"current_range_meters":22800,"station_id":"ce4bgk12rcd13ifvqbi0","pricing_plan_id":"cebpf4jnsgd1na2vs0mg"},{"bike_id":"7ed91d22-3d5b-4254-83bf-64eb2a7d5481","system_id":"levelo_inurba_marseille","lat":43.22501,"lon":5.34777,"is_reserved":false,"is_disabled":false,"rental_uris":{"android":"levelo://app?vid=7ed91d22-3d5b-4254-83bf-64eb2a7d5481","ios":"levelo://app?vid=7ed91d22-3d5b-4254-83bf-64eb2a7d5481"},"vehicle_type_id":"4","last_reported":1744823326,"current_range_meters":23200,"station_id":"","pricing_plan_id":"cebpf4jnsgd1na2vs0mg"},{"bike_id":"5c50ae30-5f77-4243-86fb-00e2d7606f9b","system_id":"levelo_inurba_marseille","lat":43.29803,"lon":5.38079,"is_reserved":false,"is_disabled":false,"rental_uris":{"android":"levelo://app?vid=5c50ae30-5f77-4243-86fb-00e2d7606f9b","ios":"levelo://app?vid=5c50ae30-5f77-4243-86fb-00e2d7606f9b"},"vehicle_type_id":"4","last_reported":1744823326,"current_range_meters":23200,"station_id":"ce4bgip2rcd13ifvqbb0","pricing_plan_id":"cebpf4jnsgd1na2vs0mg"},{"bike_id":"ac4bd751-fdf1-4d1d-a43e-c60244704b49","system_id":"levelo_inurba_marseille","lat":43.29422,"lon":5.38632,"is_reserved":false,"is_disabled":false,"rental_uris":{"android":"levelo://app?vid=ac4bd751-fdf1-4d1d-a43e-c60244704b49","ios":"levelo://app?vid=ac4bd751-fdf1-4d1d-a43e-c60244704b49"},"vehicle_type_id":"4","last_reported":1744823326,"current_range_meters":23200,"station_id":"ce4bh2h2rcd13ifvqdh0","pricing_plan_id":"cebpf4jnsgd1na2vs0mg"},{"bike_id":"a69204e3-78d4-4eb8-847f-8272c27e7f2c","system_id":"levelo_inurba_marseille","lat":43.29205,"lon":5.39329,"is_reserved":false,"is_disabled":false,"rental_uris":{"android":"levelo://app?vid=a69204e3-78d4-4eb8-847f-8272c27e7f2c","ios":"levelo://app?vid=a69204e3-78d4-4eb8-847f-8272c27e7f2c"},"vehicle_type_id":"4","last_reported":1744823326,"current_range_meters":23200,"station_id":"ce4bh192rcd13ifvqdd0","pricing_plan_id":"cebpf4jnsgd1na2vs0mg"},{"bike_id":"12caff9b-a6cd-4335-93e5-14b5825095d6","system_id":"levelo_inurba_marseille","lat":43.29734,"lon":5.37704,"is_reserved":false,"is_disabled":false,"rental_uris":{"android":"levelo://app?vid=12caff9b-a6cd-4335-93e5-14b5825095d6","ios":"levelo://app?vid=12caff9b-a6cd-4335-93e5-14b5825095d6"},"vehicle_type_id":"4","last_reported":1744823326,"current_range_meters":23200,"station_id":"ce4bgkh2rcd13ifvqbl0","pricing_plan_id":"cebpf4jnsgd1na2vs0mg"},{"bike_id":"2d94ed43-5644-4e24-a254-01c8094a35f0","system_id":"levelo_inurba_marseille","lat":43.2707,"lon":5.40267,"is_reserved":false,"is_disabled":false,"rental_uris":{"android":"levelo://app?vid=2d94ed43-5644-4e24-a254-01c8094a35f0","ios":"levelo://app?vid=2d94ed43-5644-4e24-a254-01c8094a35f0"},"vehicle_type_id":"4","last_reported":1744823326,"current_range_meters":23200,"station_id":"ce4bhk92rcd13ifvqgc0","pricing_plan_id":"cebpf4jnsgd1na2vs0mg"},{"bike_id":"bc140d56-5426-4329-8de2-925ded4c3ae5","system_id":"levelo_inurba_marseille","lat":43.30553,"lon":5.36726,"is_reserved":false,"is_disabled":false,"rental_uris":{"android":"levelo://app?vid=bc140d56-5426-4329-8de2-925ded4c3ae5","ios":"levelo://app?vid=bc140d56-5426-4329-8de2-925ded4c3ae5"},"vehicle_type_id":"4","last_reported":1744823326,"current_range_meters":23200,"station_id":"ce4bgrp2rcd13ifvqc9g","pricing_plan_id":"cebpf4jnsgd1na2vs0mg"},{"bike_id":"5e6be620-a3d0-49c3-9ff0-b85332cde817","system_id":"levelo_inurba_marseille","lat":43.23193,"lon":5.35554,"is_reserved":false,"is_disabled":false,"rental_uris":{"android":"levelo://app?vid=5e6be620-a3d0-49c3-9ff0-b85332cde817","ios":"levelo://app?vid=5e6be620-a3d0-49c3-9ff0-b85332cde817"},"vehicle_type_id":"4","last_reported":1744823326,"current_range_meters":23200,"station_id":"ce4bhu92rcd13ifvqi70","pricing_plan_id":"cebpf4jnsgd1na2vs0mg"},{"bike_id":"9673157a-e936-4e10-963a-7cbad0ff0bc2","system_id":"levelo_inurba_marseille","lat":43.295285,"lon":5.385326,"is_reserved":false,"is_disabled":false,"rental_uris":{"android":"levelo://app?vid=9673157a-e936-4e10-963a-7cbad0ff0bc2","ios":"levelo://app?vid=9673157a-e936-4e10-963a-7cbad0ff0bc2"},"vehicle_type_id":"4","last_reported":1744823326,"current_range_meters":23200,"station_id":"ce4bgih2rcd13ifvqba0","pricing_plan_id":"cebpf4jnsgd1na2vs0mg"},{"bike_id":"9486fc35-ca1d-423a-b858-c313c805f32b","system_id":"levelo_inurba_marseille","lat":43.30557,"lon":5.36563,"is_reserved":false,"is_disabled":false,"rental_uris":{"android":"levelo://app?vid=9486fc35-ca1d-423a-b858-c313c805f32b","ios":"levelo://app?vid=9486fc35-ca1d-423a-b858-c313c805f32b"},"vehicle_type_id":"4","last_reported":1744823326,"current_range_meters":24000,"station_id":"ce4bgs12rcd13ifvqcag","pricing_plan_id":"cebpf4jnsgd1na2vs0mg"},{"bike_id":"2a3df68e-728a-4b9c-bbc2-4259a4448e26","system_id":"levelo_inurba_marseille","lat":43.27993,"lon":5.40032,"is_reserved":false,"is_disabled":false,"rental_uris":{"android":"levelo://app?vid=2a3df68e-728a-4b9c-bbc2-4259a4448e26","ios":"levelo://app?vid=2a3df68e-728a-4b9c-bbc2-4259a4448e26"},"vehicle_type_id":"4","last_reported":1744823326,"current_range_meters":24000,"station_id":"ce4bho92rcd13ifvqh4g","pricing_plan_id":"cebpf4jnsgd1na2vs0mg"},{"bike_id":"efa8f913-87c0-496c-8c40-335b871b79e6","system_id":"levelo_inurba_marseille","lat":43.28105,"lon":5.37839,"is_reserved":false,"is_disabled":false,"rental_uris":{"android":"levelo://app?vid=efa8f913-87c0-496c-8c40-335b871b79e6","ios":"levelo://app?vid=efa8f913-87c0-496c-8c40-335b871b79e6"},"vehicle_type_id":"4","last_reported":1744823326,"current_range_meters":24000,"station_id":"ce4bha12rcd13ifvqee0","pricing_plan_id":"cebpf4jnsgd1na2vs0mg"},{"bike_id":"2e0f26c9-6ce5-4905-91b6-6012bfd33d9f","system_id":"levelo_inurba_marseille","lat":43.31084,"lon":5.42432,"is_reserved":false,"is_disabled":false,"rental_uris":{"android":"levelo://app?vid=2e0f26c9-6ce5-4905-91b6-6012bfd33d9f","ios":"levelo://app?vid=2e0f26c9-6ce5-4905-91b6-6012bfd33d9f"},"vehicle_type_id":"4","last_reported":1744823326,"current_range_meters":24000,"station_id":"ce4bhp92rcd13ifvqhag","pricing_plan_id":"cebpf4jnsgd1na2vs0mg"},{"bike_id":"33efbe4e-e642-4271-be29-4926b421ca5b","system_id":"levelo_inurba_marseille","lat":43.24157,"lon":5.36426,"is_reserved":false,"is_disabled":false,"rental_uris":{"android":"levelo://app?vid=33efbe4e-e642-4271-be29-4926b421ca5b","ios":"levelo://app?vid=33efbe4e-e642-4271-be29-4926b421ca5b"},"vehicle_type_id":"4","last_reported":1744823326,"current_range_meters":24000,"station_id":"cpo36qri1sfpv3e86is0","pricing_plan_id":"cebpf4jnsgd1na2vs0mg"},{"bike_id":"fcfd2dd5-2dfa-4678-ad0b-8dc6307601c9","system_id":"levelo_inurba_marseille","lat":43.29378,"lon":5.37846,"is_reserved":false,"is_disabled":true,"rental_uris":{"android":"levelo://app?vid=fcfd2dd5-2dfa-4678-ad0b-8dc6307601c9","ios":"levelo://app?vid=fcfd2dd5-2dfa-4678-ad0b-8dc6307601c9"},"vehicle_type_id":"4","last_reported":1744823326,"current_range_meters":24000,"station_id":"ce4bgjh2rcd13ifvqbf0","pricing_plan_id":"cebpf4jnsgd1na2vs0mg"},{"bike_id":"5a48a4e0-4064-4d0d-96b9-37f5e410310b","system_id":"levelo_inurba_marseille","lat":43.29109,"lon":5.38138,"is_reserved":false,"is_disabled":false,"rental_uris":{"android":"levelo://app?vid=5a48a4e0-4064-4d0d-96b9-37f5e410310b","ios":"levelo://app?vid=5a48a4e0-4064-4d0d-96b9-37f5e410310b"},"vehicle_type_id":"4","last_reported":1744823326,"current_range_meters":23200,"station_id":"ce4bh512rcd13ifvqe2g","pricing_plan_id":"cebpf4jnsgd1na2vs0mg"},{"bike_id":"2682c3b8-4b49-4ab2-aea7-9d8e5993522b","system_id":"levelo_inurba_marseille","lat":43.30133,"lon":5.38083,"is_reserved":false,"is_disabled":false,"rental_uris":{"android":"levelo://app?vid=2682c3b8-4b49-4ab2-aea7-9d8e5993522b","ios":"levelo://app?vid=2682c3b8-4b49-4ab2-aea7-9d8e5993522b"},"vehicle_type_id":"4","last_reported":1744823326,"current_range_meters":24400,"station_id":"ce4bgjp2rcd13ifvqbh0","pricing_plan_id":"cebpf4jnsgd1na2vs0mg"},{"bike_id":"68342d9f-f0b6-47e7-b690-b27078e67a77","system_id":"levelo_inurba_marseille","lat":43.24162,"lon":5.364,"is_reserved":false,"is_disabled":false,"rental_uris":{"android":"levelo://app?vid=68342d9f-f0b6-47e7-b690-b27078e67a77","ios":"levelo://app?vid=68342d9f-f0b6-47e7-b690-b27078e67a77"},"vehicle_type_id":"4","last_reported":1744823326,"current_range_meters":24400,"station_id":"cpo36qri1sfpv3e86is0","pricing_plan_id":"cebpf4jnsgd1na2vs0mg"},{"bike_id":"9ccedd7e-2f05-4abe-9bc6-628dbfc7be77","system_id":"levelo_inurba_marseille","lat":43.3015,"lon":5.38083,"is_reserved":false,"is_disabled":false,"rental_uris":{"android":"levelo://app?vid=9ccedd7e-2f05-4abe-9bc6-628dbfc7be77","ios":"levelo://app?vid=9ccedd7e-2f05-4abe-9bc6-628dbfc7be77"},"vehicle_type_id":"4","last_reported":1744823326,"current_range_meters":24400,"station_id":"ce4bgjp2rcd13ifvqbh0","pricing_plan_id":"cebpf4jnsgd1na2vs0mg"},{"bike_id":"3d03a228-5dff-430f-942d-e5ceaa114072","system_id":"levelo_inurba_marseille","lat":43.29277,"lon":5.37602,"is_reserved":false,"is_disabled":false,"rental_uris":{"android":"levelo://app?vid=3d03a228-5dff-430f-942d-e5ceaa114072","ios":"levelo://app?vid=3d03a228-5dff-430f-942d-e5ceaa114072"},"vehicle_type_id":"4","last_reported":1744823326,"current_range_meters":24800,"station_id":"ce4bgi12rcd13ifvqb80","pricing_plan_id":"cebpf4jnsgd1na2vs0mg"},{"bike_id":"3ce8605f-a050-4179-897c-61a30a70bc43","system_id":"levelo_inurba_marseille","lat":43.29606,"lon":5.38105,"is_reserved":false,"is_disabled":false,"rental_uris":{"android":"levelo://app?vid=3ce8605f-a050-4179-897c-61a30a70bc43","ios":"levelo://app?vid=3ce8605f-a050-4179-897c-61a30a70bc43"},"vehicle_type_id":"4","last_reported":1744823326,"current_range_meters":24400,"station_id":"ce4bgl12rcd13ifvqbo0","pricing_plan_id":"cebpf4jnsgd1na2vs0mg"},{"bike_id":"854eae57-edfd-4862-9471-1a9859ab528d","system_id":"levelo_inurba_marseille","lat":43.309112,"lon":5.400449,"is_reserved":false,"is_disabled":false,"rental_uris":{"android":"levelo://app?vid=854eae57-edfd-4862-9471-1a9859ab528d","ios":"levelo://app?vid=854eae57-edfd-4862-9471-1a9859ab528d"},"vehicle_type_id":"4","last_reported":1744823326,"current_range_meters":24400,"station_id":"ce4bh012rcd13ifvqd00","pricing_plan_id":"cebpf4jnsgd1na2vs0mg"},{"bike_id":"873bcab6-b973-48ed-b129-34762c209441","system_id":"levelo_inurba_marseille","lat":43.31511,"lon":5.37281,"is_reserved":false,"is_disabled":false,"rental_uris":{"android":"levelo://app?vid=873bcab6-b973-48ed-b129-34762c209441","ios":"levelo://app?vid=873bcab6-b973-48ed-b129-34762c209441"},"vehicle_type_id":"4","last_reported":1744823326,"current_range_meters":24400,"station_id":"ce4bgt12rcd13ifvqcd0","pricing_plan_id":"cebpf4jnsgd1na2vs0mg"},{"bike_id":"151b2081-6686-4190-a633-1dc028c15bf6","system_id":"levelo_inurba_marseille","lat":43.293042,"lon":5.371774,"is_reserved":false,"is_disabled":false,"rental_uris":{"android":"levelo://app?vid=151b2081-6686-4190-a633-1dc028c15bf6","ios":"levelo://app?vid=151b2081-6686-4190-a633-1dc028c15bf6"},"vehicle_type_id":"4","last_reported":1744823326,"current_range_meters":24400,"station_id":"ce4bho12rcd13ifvqh1g","pricing_plan_id":"cebpf4jnsgd1na2vs0mg"},{"bike_id":"8c0be09f-1a08-4f03-adf3-9ab53d05b7e1","system_id":"levelo_inurba_marseille","lat":43.304116,"lon":5.412791,"is_reserved":false,"is_disabled":true,"rental_uris":{"android":"levelo://app?vid=8c0be09f-1a08-4f03-adf3-9ab53d05b7e1","ios":"levelo://app?vid=8c0be09f-1a08-4f03-adf3-9ab53d05b7e1"},"vehicle_type_id":"4","last_reported":1744823326,"current_range_meters":24400,"station_id":"ce4bhop2rcd13ifvqh8g","pricing_plan_id":"cebpf4jnsgd1na2vs0mg"},{"bike_id":"cbc9cc0d-f00d-480c-a6b0-c1503f3c8c15","system_id":"levelo_inurba_marseille","lat":43.300493,"lon":5.38955,"is_reserved":false,"is_disabled":false,"rental_uris":{"android":"levelo://app?vid=cbc9cc0d-f00d-480c-a6b0-c1503f3c8c15","ios":"levelo://app?vid=cbc9cc0d-f00d-480c-a6b0-c1503f3c8c15"},"vehicle_type_id":"4","last_reported":1744823326,"current_range_meters":24400,"station_id":"ce4bh192rcd13ifvqdb0","pricing_plan_id":"cebpf4jnsgd1na2vs0mg"},{"bike_id":"dee943ce-8513-4baa-a717-968e7a224e9c","system_id":"levelo_inurba_marseille","lat":43.24808,"lon":5.3745,"is_reserved":false,"is_disabled":false,"rental_uris":{"android":"levelo://app?vid=dee943ce-8513-4baa-a717-968e7a224e9c","ios":"levelo://app?vid=dee943ce-8513-4baa-a717-968e7a224e9c"},"vehicle_type_id":"4","last_reported":1744823326,"current_range_meters":24000,"station_id":"ce4bhgh2rcd13ifvqfb0","pricing_plan_id":"cebpf4jnsgd1na2vs0mg"},{"bike_id":"266c6ffb-5e94-42e1-bfc6-77545d0ec82d","system_id":"levelo_inurba_marseille","lat":43.304089,"lon":5.424672,"is_reserved":false,"is_disabled":false,"rental_uris":{"android":"levelo://app?vid=266c6ffb-5e94-42e1-bfc6-77545d0ec82d","ios":"levelo://app?vid=266c6ffb-5e94-42e1-bfc6-77545d0ec82d"},"vehicle_type_id":"4","last_reported":1744823326,"current_range_meters":24400,"station_id":"ce4bh0p2rcd13ifvqd70","pricing_plan_id":"cebpf4jnsgd1na2vs0mg"},{"bike_id":"f47d0f94-8da3-44a8-aa47-8e9634ca35cd","system_id":"levelo_inurba_marseille","lat":43.29231,"lon":5.3608,"is_reserved":false,"is_disabled":false,"rental_uris":{"android":"levelo://app?vid=f47d0f94-8da3-44a8-aa47-8e9634ca35cd","ios":"levelo://app?vid=f47d0f94-8da3-44a8-aa47-8e9634ca35cd"},"vehicle_type_id":"4","last_reported":1744823326,"current_range_meters":24400,"station_id":"ce4bhbh2rcd13ifvqeqg","pricing_plan_id":"cebpf4jnsgd1na2vs0mg"},{"bike_id":"f9d3fbe6-73e5-424e-af02-f446d5b07152","system_id":"levelo_inurba_marseille","lat":43.21744,"lon":5.3466,"is_reserved":false,"is_disabled":false,"rental_uris":{"android":"levelo://app?vid=f9d3fbe6-73e5-424e-af02-f446d5b07152","ios":"levelo://app?vid=f9d3fbe6-73e5-424e-af02-f446d5b07152"},"vehicle_type_id":"4","last_reported":1744823326,"current_range_meters":24400,"station_id":"st_cvj6r9ubvosntc0bgbag","pricing_plan_id":"cebpf4jnsgd1na2vs0mg"},{"bike_id":"de362534-bd92-41f6-8837-962988be971e","system_id":"levelo_inurba_marseille","lat":43.28459,"lon":5.35893,"is_reserved":false,"is_disabled":false,"rental_uris":{"android":"levelo://app?vid=de362534-bd92-41f6-8837-962988be971e","ios":"levelo://app?vid=de362534-bd92-41f6-8837-962988be971e"},"vehicle_type_id":"4","last_reported":1744823326,"current_range_meters":24000,"station_id":"ce4bhah2rcd13ifvqei0","pricing_plan_id":"cebpf4jnsgd1na2vs0mg"},{"bike_id":"8a471a09-cb94-47c3-bf04-fe1261d57177","system_id":"levelo_inurba_marseille","lat":43.243899,"lon":5.370605,"is_reserved":false,"is_disabled":false,"rental_uris":{"android":"levelo://app?vid=8a471a09-cb94-47c3-bf04-fe1261d57177","ios":"levelo://app?vid=8a471a09-cb94-47c3-bf04-fe1261d57177"},"vehicle_type_id":"4","last_reported":1744823326,"current_range_meters":24400,"station_id":"ce4bh3p2rcd13ifvqdq0","pricing_plan_id":"cebpf4jnsgd1na2vs0mg"},{"bike_id":"9afdfb11-cf85-4180-aec0-edfd0280deeb","system_id":"levelo_inurba_marseille","lat":43.29053,"lon":5.35892,"is_reserved":false,"is_disabled":false,"rental_uris":{"android":"levelo://app?vid=9afdfb11-cf85-4180-aec0-edfd0280deeb","ios":"levelo://app?vid=9afdfb11-cf85-4180-aec0-edfd0280deeb"},"vehicle_type_id":"4","last_reported":1744823326,"current_range_meters":24400,"station_id":"ce4bha92rcd13ifvqeg0","pricing_plan_id":"cebpf4jnsgd1na2vs0mg"},{"bike_id":"9ff5a7ef-d1e0-4ae6-9224-c69447f908f9","system_id":"levelo_inurba_marseille","lat":43.29859,"lon":5.36275,"is_reserved":false,"is_disabled":false,"rental_uris":{"android":"levelo://app?vid=9ff5a7ef-d1e0-4ae6-9224-c69447f908f9","ios":"levelo://app?vid=9ff5a7ef-d1e0-4ae6-9224-c69447f908f9"},"vehicle_type_id":"4","last_reported":1744823326,"current_range_meters":24800,"station_id":"ce4bgpp2rcd13ifvqc3g","pricing_plan_id":"cebpf4jnsgd1na2vs0mg"},{"bike_id":"111a9116-5ac2-4b6d-93d2-b92f401f8e89","system_id":"levelo_inurba_marseille","lat":43.318613,"lon":5.374738,"is_reserved":false,"is_disabled":false,"rental_uris":{"android":"levelo://app?vid=111a9116-5ac2-4b6d-93d2-b92f401f8e89","ios":"levelo://app?vid=111a9116-5ac2-4b6d-93d2-b92f401f8e89"},"vehicle_type_id":"4","last_reported":1744823326,"current_range_meters":24400,"station_id":"","pricing_plan_id":"cebpf4jnsgd1na2vs0mg"},{"bike_id":"f66cce61-fc12-44c0-bcf0-2fa0029a01d5","system_id":"levelo_inurba_marseille","lat":43.3015,"lon":5.39854,"is_reserved":false,"is_disabled":false,"rental_uris":{"android":"levelo://app?vid=f66cce61-fc12-44c0-bcf0-2fa0029a01d5","ios":"levelo://app?vid=f66cce61-fc12-44c0-bcf0-2fa0029a01d5"},"vehicle_type_id":"4","last_reported":1744823326,"current_range_meters":24800,"station_id":"ce4bh0h2rcd13ifvqd40","pricing_plan_id":"cebpf4jnsgd1na2vs0mg"},{"bike_id":"04cd718a-739b-4f09-8fdf-74e445452766","system_id":"levelo_inurba_marseille","lat":43.31533,"lon":5.37285,"is_reserved":false,"is_disabled":false,"rental_uris":{"android":"levelo://app?vid=04cd718a-739b-4f09-8fdf-74e445452766","ios":"levelo://app?vid=04cd718a-739b-4f09-8fdf-74e445452766"},"vehicle_type_id":"4","last_reported":1744823326,"current_range_meters":24800,"station_id":"","pricing_plan_id":"cebpf4jnsgd1na2vs0mg"},{"bike_id":"81144f16-f84d-4da1-89f2-8c0441c10b0d","system_id":"levelo_inurba_marseille","lat":43.27318,"lon":5.39081,"is_reserved":false,"is_disabled":false,"rental_uris":{"android":"levelo://app?vid=81144f16-f84d-4da1-89f2-8c0441c10b0d","ios":"levelo://app?vid=81144f16-f84d-4da1-89f2-8c0441c10b0d"},"vehicle_type_id":"4","last_reported":1744823326,"current_range_meters":24800,"station_id":"ce4bhgp2rcd13ifvqfe0","pricing_plan_id":"cebpf4jnsgd1na2vs0mg"},{"bike_id":"748ce7be-303b-4e02-8a76-47e344a3d081","system_id":"levelo_inurba_marseille","lat":43.30168,"lon":5.38098,"is_reserved":false,"is_disabled":false,"rental_uris":{"android":"levelo://app?vid=748ce7be-303b-4e02-8a76-47e344a3d081","ios":"levelo://app?vid=748ce7be-303b-4e02-8a76-47e344a3d081"},"vehicle_type_id":"4","last_reported":1744823326,"current_range_meters":24800,"station_id":"ce4bgjp2rcd13ifvqbh0","pricing_plan_id":"cebpf4jnsgd1na2vs0mg"},{"bike_id":"b0487ad7-b525-4c48-a103-705afe5b3c0f","system_id":"levelo_inurba_marseille","lat":43.30175,"lon":5.38088,"is_reserved":false,"is_disabled":false,"rental_uris":{"android":"levelo://app?vid=b0487ad7-b525-4c48-a103-705afe5b3c0f","ios":"levelo://app?vid=b0487ad7-b525-4c48-a103-705afe5b3c0f"},"vehicle_type_id":"4","last_reported":1744823326,"current_range_meters":24800,"station_id":"ce4bgjp2rcd13ifvqbh0","pricing_plan_id":"cebpf4jnsgd1na2vs0mg"},{"bike_id":"4b997f7a-36da-47a0-b609-c2add0e7c137","system_id":"levelo_inurba_marseille","lat":43.28613,"lon":5.37065,"is_reserved":false,"is_disabled":false,"rental_uris":{"android":"levelo://app?vid=4b997f7a-36da-47a0-b609-c2add0e7c137","ios":"levelo://app?vid=4b997f7a-36da-47a0-b609-c2add0e7c137"},"vehicle_type_id":"4","last_reported":1744823326,"current_range_meters":24800,"station_id":"ce4bht12rcd13ifvqi60","pricing_plan_id":"cebpf4jnsgd1na2vs0mg"},{"bike_id":"f39e8801-b1d2-4820-9ade-b95971c07d29","system_id":"levelo_inurba_marseille","lat":43.25002,"lon":5.38921,"is_reserved":false,"is_disabled":false,"rental_uris":{"android":"levelo://app?vid=f39e8801-b1d2-4820-9ade-b95971c07d29","ios":"levelo://app?vid=f39e8801-b1d2-4820-9ade-b95971c07d29"},"vehicle_type_id":"4","last_reported":1744823326,"current_range_meters":24800,"station_id":"ce4bhgp2rcd13ifvqfd0","pricing_plan_id":"cebpf4jnsgd1na2vs0mg"},{"bike_id":"531322eb-dd7b-4bc7-9c60-0ccc3f735ea2","system_id":"levelo_inurba_marseille","lat":43.28041,"lon":5.36939,"is_reserved":false,"is_disabled":false,"rental_uris":{"android":"levelo://app?vid=531322eb-dd7b-4bc7-9c60-0ccc3f735ea2","ios":"levelo://app?vid=531322eb-dd7b-4bc7-9c60-0ccc3f735ea2"},"vehicle_type_id":"4","last_reported":1744823326,"current_range_meters":24400,"station_id":"ce4bha12rcd13ifvqef0","pricing_plan_id":"cebpf4jnsgd1na2vs0mg"},{"bike_id":"87b1b1fc-50a0-4b02-981e-9227c04589a1","system_id":"levelo_inurba_marseille","lat":43.30603,"lon":5.37253,"is_reserved":false,"is_disabled":false,"rental_uris":{"android":"levelo://app?vid=87b1b1fc-50a0-4b02-981e-9227c04589a1","ios":"levelo://app?vid=87b1b1fc-50a0-4b02-981e-9227c04589a1"},"vehicle_type_id":"4","last_reported":1744823326,"current_range_meters":24800,"station_id":"ce4bgqh2rcd13ifvqc4g","pricing_plan_id":"cebpf4jnsgd1na2vs0mg"},{"bike_id":"39cdcda5-1688-4ef8-a8ba-562ba29d65b6","system_id":"levelo_inurba_marseille","lat":43.279171,"lon":5.395781,"is_reserved":false,"is_disabled":false,"rental_uris":{"android":"levelo://app?vid=39cdcda5-1688-4ef8-a8ba-562ba29d65b6","ios":"levelo://app?vid=39cdcda5-1688-4ef8-a8ba-562ba29d65b6"},"vehicle_type_id":"4","last_reported":1744823326,"current_range_meters":24800,"station_id":"ce4bhf92rcd13ifvqf40","pricing_plan_id":"cebpf4jnsgd1na2vs0mg"},{"bike_id":"c305c827-8b59-4e6c-91de-4d8a3fcbcac2","system_id":"levelo_inurba_marseille","lat":43.24169,"lon":5.36421,"is_reserved":false,"is_disabled":false,"rental_uris":{"android":"levelo://app?vid=c305c827-8b59-4e6c-91de-4d8a3fcbcac2","ios":"levelo://app?vid=c305c827-8b59-4e6c-91de-4d8a3fcbcac2"},"vehicle_type_id":"4","last_reported":1744823326,"current_range_meters":24800,"station_id":"cpo36qri1sfpv3e86is0","pricing_plan_id":"cebpf4jnsgd1na2vs0mg"},{"bike_id":"ae125fbf-4545-4a40-8ac8-169455adb334","system_id":"levelo_inurba_marseille","lat":43.30103,"lon":5.3908,"is_reserved":false,"is_disabled":false,"rental_uris":{"android":"levelo://app?vid=ae125fbf-4545-4a40-8ac8-169455adb334","ios":"levelo://app?vid=ae125fbf-4545-4a40-8ac8-169455adb334"},"vehicle_type_id":"4","last_reported":1744823326,"current_range_meters":25200,"station_id":"ce4bh192rcd13ifvqdb0","pricing_plan_id":"cebpf4jnsgd1na2vs0mg"},