{"last_updated":1692745577,"ttl":30,"version":"2.2","data":{"bikes":[{"bike_id":"f22ca441-4e4e-4660-b824-b2f46943e54d","system_id":"levelo_inurba_marseille","lat":43.312239,"lon":5.368562,"is_reserved":false,"is_disabled":false,"rental_uris":{"android":"levelo://app?vid=f22ca441-4e4e-4660-b824-b2f46943e54d","ios":"levelo://app?vid=f22ca441-4e4e-4660-b824-b2f46943e54d"},"vehicle_type_id":"4","last_reported":1692745578,"current_range_meters":31200,"station_id":"ce4bgl92rcd13ifvqbq0","pricing_plan_id":"free"},{"bike_id":"f1e546cb-c1c0-42e7-b88b-5b759f779df9","system_id":"levelo_inurba_marseille","lat":43.309076,"lon":5.368465,"is_reserved":false,"is_disabled":false,"rental_uris":{"android":"levelo://app?vid=f1e546cb-c1c0-42e7-b88b-5b759f779df9","ios":"levelo://app?vid=f1e546cb-c1c0-42e7-b88b-5b759f779df9"},"vehicle_type_id":"4","last_reported":1692745578,"current_range_meters":4400,"station_id":"ce4bgn92rcd13ifvqbvg","pricing_plan_id":"free"},{"bike_id":"d2be997d-44d2-40a5-bb20-02aeaaf65fa5","system_id":"levelo_inurba_marseille","lat":43.314811,"lon":5.373103,"is_reserved":false,"is_disabled":false,"rental_uris":{"android":"levelo://app?vid=d2be997d-44d2-40a5-bb20-02aeaaf65fa5","ios":"levelo://app?vid=d2be997d-44d2-40a5-bb20-02aeaaf65fa5"},"vehicle_type_id":"4","last_reported":1692745578,"current_range_meters":31200,"station_id":"ce4bgt12rcd13ifvqcd0","pricing_plan_id":"free"},{"bike_id":"2548ee4e-383a-4e3e-ad9e-5cc2796765fe","system_id":"levelo_inurba_marseille","lat":43.314811,"lon":5.373104,"is_reserved":false,"is_disabled":false,"rental_uris":{"android":"levelo://app?vid=2548ee4e-383a-4e3e-ad9e-5cc2796765fe","ios":"levelo://app?vid=2548ee4e-383a-4e3e-ad9e-5cc2796765fe"},"vehicle_type_id":"4","last_reported":1692745578,"current_range_meters":24800,"station_id":"ce4bgt12rcd13ifvqcd0","pricing_plan_id":"free"},{"bike_id":"e7b82ff3-4dfa-4e5d-b956-b86a9da5ea54","system_id":"levelo_inurba_marseille","lat":43.309039,"lon":5.371797,"is_reserved":false,"is_disabled":false,"rental_uris":{"android":"levelo://app?vid=e7b82ff3-4dfa-4e5d-b956-b86a9da5ea54","ios":"levelo://app?vid=e7b82ff3-4dfa-4e5d-b956-b86a9da5ea54"},"vehicle_type_id":"4","last_reported":1692745578,"current_range_meters":14000,"station_id":"ce4bguh2rcd13ifvqckg","pricing_plan_id":"free"},{"bike_id":"a26b1fa3-8f21-4734-994e-14fd2eb930f9","system_id":"levelo_inurba_marseille","lat":43.30537,"lon":5.367345,"is_reserved":false,"is_disabled":false,"rental_uris":{"android":"levelo://app?vid=a26b1fa3-8f21-4734-994e-14fd2eb930f9","ios":"levelo://app?vid=a26b1fa3-8f21-4734-994e-14fd2eb930f9"},"vehicle_type_id":"4","last_reported":1692745578,"current_range_meters":26000,"station_id":"ce4bgrp2rcd13ifvqc9g","pricing_plan_id":"free"},{"bike_id":"9fbe6e18-d192-44c2-98b5-cafb68b41aa4","system_id":"levelo_inurba_marseille","lat":43.30542,"lon":5.36539,"is_reserved":false,"is_disabled":false,"rental_uris":{"android":"levelo://app?vid=9fbe6e18-d192-44c2-98b5-cafb68b41aa4","ios":"levelo://app?vid=9fbe6e18-d192-44c2-98b5-cafb68b41aa4"},"vehicle_type_id":"4","last_reported":1692745578,"current_range_meters":25200,"station_id":"ce4bgs12rcd13ifvqcag","pricing_plan_id":"free"},{"bike_id":"2c6b53cd-ac9f-47fb-9d71-d569c56b7fc7","system_id":"levelo_inurba_marseille","lat":43.305989,"lon":5.37225,"is_reserved":false,"is_disabled":false,"rental_uris":{"android":"levelo://app?vid=2c6b53cd-ac9f-47fb-9d71-d569c56b7fc7","ios":"levelo://app?vid=2c6b53cd-ac9f-47fb-9d71-d569c56b7fc7"},"vehicle_type_id":"4","last_reported":1692745578,"current_range_meters":8400,"station_id":"ce4bgqh2rcd13ifvqc4g","pricing_plan_id":"free"},{"bike_id":"fee46877-5f58-4220-b46a-d9c7069c0763","system_id":"levelo_inurba_marseille","lat":43.305989,"lon":5.37225,"is_reserved":false,"is_disabled":false,"rental_uris":{"android":"levelo://app?vid=fee46877-5f58-4220-b46a-d9c7069c0763","ios":"levelo://app?vid=fee46877-5f58-4220-b46a-d9c7069c0763"},"vehicle_type_id":"4","last_reported":1692745578,"current_range_meters":31200,"station_id":"ce4bgqh2rcd13ifvqc4g","pricing_plan_id":"free"},{"bike_id":"4084b96f-2523-4923-bf8b-24f25009d853","system_id":"levelo_inurba_marseille","lat":43.305989,"lon":5.37225,"is_reserved":false,"is_disabled":false,"rental_uris":{"android":"levelo://app?vid=4084b96f-2523-4923-bf8b-24f25009d853","ios":"levelo://app?vid=4084b96f-2523-4923-bf8b-24f25009d853"},"vehicle_type_id":"4","last_reported":1692745578,"current_range_meters":21200,"station_id":"ce4bgqh2rcd13ifvqc4g","pricing_plan_id":"free"},{"bike_id":"cd0c8bb2-fc70-44ec-8645-3cafe502746d","system_id":"levelo_inurba_marseille","lat":43.311125,"lon":5.377624,"is_reserved":false,"is_disabled":false,"rental_uris":{"android":"levelo://app?vid=cd0c8bb2-fc70-44ec-8645-3cafe502746d","ios":"levelo://app?vid=cd0c8bb2-fc70-44ec-8645-3cafe502746d"},"vehicle_type_id":"4","last_reported":1692745578,"current_range_meters":31600,"station_id":"ce4bgt92rcd13ifvqcg0","pricing_plan_id":"free"},{"bike_id":"7bedafb7-4016-43d3-bf1a-c54addc51f5c","system_id":"levelo_inurba_marseille","lat":43.311125,"lon":5.377624,"is_reserved":false,"is_disabled":false,"rental_uris":{"android":"levelo://app?vid=7bedafb7-4016-43d3-bf1a-c54addc51f5c","ios":"levelo://app?vid=7bedafb7-4016-43d3-bf1a-c54addc51f5c"},"vehicle_type_id":"4","last_reported":1692745578,"current_range_meters":20400,"station_id":"ce4bgt92rcd13ifvqcg0","pricing_plan_id":"free"},{"bike_id":"bb3275a7-e344-4aa4-b1ce-336f5edf57bb","system_id":"levelo_inurba_marseille","lat":43.31113,"lon":5.37779,"is_reserved":false,"is_disabled":false,"rental_uris":{"android":"levelo://app?vid=bb3275a7-e344-4aa4-b1ce-336f5edf57bb","ios":"levelo://app?vid=bb3275a7-e344-4aa4-b1ce-336f5edf57bb"},"vehicle_type_id":"4","last_reported":1692745578,"current_range_meters":19200,"station_id":"ce4bgt92rcd13ifvqcg0","pricing_plan_id":"free"},{"bike_id":"996dd5ae-8b47-43a7-88b2-57c0ab5f7df6","system_id":"levelo_inurba_marseille","lat":43.30787,"lon":5.37643,"is_reserved":false,"is_disabled":false,"rental_uris":{"android":"levelo://app?vid=996dd5ae-8b47-43a7-88b2-57c0ab5f7df6","ios":"levelo://app?vid=996dd5ae-8b47-43a7-88b2-57c0ab5f7df6"},"vehicle_type_id":"4","last_reported":1692745578,"current_range_meters":6800,"station_id":"ce4bgv92rcd13ifvqcq0","pricing_plan_id":"free"},{"bike_id":"3978a688-5b6e-4d2e-9b40-18cfd99f71e0","system_id":"levelo_inurba_marseille","lat":43.30781,"lon":5.37651,"is_reserved":false,"is_disabled":false,"rental_uris":{"android":"levelo://app?vid=3978a688-5b6e-4d2e-9b40-18cfd99f71e0","ios":"levelo://app?vid=3978a688-5b6e-4d2e-9b40-18cfd99f71e0"},"vehicle_type_id":"4","last_reported":1692745578,"current_range_meters":30400,"station_id":"ce4bgv92rcd13ifvqcq0","pricing_plan_id":"free"},{"bike_id":"be2a9b7c-9aab-47e1-b081-5a1369cbd6a5","system_id":"levelo_inurba_marseille","lat":43.3078,"lon":5.37651,"is_reserved":false,"is_disabled":false,"rental_uris":{"android":"levelo://app?vid=be2a9b7c-9aab-47e1-b081-5a1369cbd6a5","ios":"levelo://app?vid=be2a9b7c-9aab-47e1-b081-5a1369cbd6a5"},"vehicle_type_id":"4","last_reported":1692745578,"current_range_meters":31200,"station_id":"ce4bgv92rcd13ifvqcq0","pricing_plan_id":"free"},{"bike_id":"fe625659-517c-4e4e-b858-fa37794f542a","system_id":"levelo_inurba_marseille","lat":43.307945,"lon":5.376487,"is_reserved":false,"is_disabled":false,"rental_uris":{"android":"levelo://app?vid=fe625659-517c-4e4e-b858-fa37794f542a","ios":"levelo://app?vid=fe625659-517c-4e4e-b858-fa37794f542a"},"vehicle_type_id":"4","last_reported":1692745578,"current_range_meters":30400,"station_id":"ce4bgv92rcd13ifvqcq0","pricing_plan_id":"free"},{"bike_id":"910ee35a-1fed-435f-962e-c877be4df733","system_id":"levelo_inurba_marseille","lat":43.307945,"lon":5.376487,"is_reserved":false,"is_disabled":false,"rental_uris":{"android":"levelo://app?vid=910ee35a-1fed-435f-962e-c877be4df733","ios":"levelo://app?vid=910ee35a-1fed-435f-962e-c877be4df733"},"vehicle_type_id":"4","last_reported":1692745578,"current_range_meters":22400,"station_id":"ce4bgv92rcd13ifvqcq0","pricing_plan_id":"free"},{"bike_id":"874e34a8-80c1-4d79-8e18-aa1bd38adad4","system_id":"levelo_inurba_marseille","lat":43.317065,"lon":5.377313,"is_reserved":false,"is_disabled":false,"rental_uris":{"android":"levelo://app?vid=874e34a8-80c1-4d79-8e18-aa1bd38adad4","ios":"levelo://app?vid=874e34a8-80c1-4d79-8e18-aa1bd38adad4"},"vehicle_type_id":"4","last_reported":1692745578,"current_range_meters":0,"station_id":"ce4bgth2rcd13ifvqch0","pricing_plan_id":"free"},{"bike_id":"0294293d-b10f-4997-b853-1b9a9e26a654","system_id":"levelo_inurba_marseille","lat":43.303046,"lon":5.368981,"is_reserved":false,"is_disabled":false,"rental_uris":{"android":"levelo://app?vid=0294293d-b10f-4997-b853-1b9a9e26a654","ios":"levelo://app?vid=0294293d-b10f-4997-b853-1b9a9e26a654"},"vehicle_type_id":"4","last_reported":1692745578,"current_range_meters":30000,"station_id":"ce4bgqh2rcd13ifvqc5g","pricing_plan_id":"free"},{"bike_id":"8c1589ba-b171-4f9b-9199-86b2eb1deeb8","system_id":"levelo_inurba_marseille","lat":43.31538,"lon":5.3803,"is_reserved":false,"is_disabled":false,"rental_uris":{"android":"levelo://app?vid=8c1589ba-b171-4f9b-9199-86b2eb1deeb8","ios":"levelo://app?vid=8c1589ba-b171-4f9b-9199-86b2eb1deeb8"},"vehicle_type_id":"4","last_reported":1692745578,"current_range_meters":10000,"station_id":"ce4bhsp2rcd13ifvqi50","pricing_plan_id":"free"},{"bike_id":"2a3d5432-0108-4eb9-882d-694bea8753ec","system_id":"levelo_inurba_marseille","lat":43.31537,"lon":5.3804,"is_reserved":false,"is_disabled":false,"rental_uris":{"android":"levelo://app?vid=2a3d5432-0108-4eb9-882d-694bea8753ec","ios":"levelo://app?vid=2a3d5432-0108-4eb9-882d-694bea8753ec"},"vehicle_type_id":"4","last_reported":1692745578,"current_range_meters":4000,"station_id":"ce4bhsp2rcd13ifvqi50","pricing_plan_id":"free"},{"bike_id":"521037ea-040d-4f14-9410-e72ea91b03ab","system_id":"levelo_inurba_marseille","lat":43.301939,"lon":5.366286,"is_reserved":false,"is_disabled":false,"rental_uris":{"android":"levelo://app?vid=521037ea-040d-4f14-9410-e72ea91b03ab","ios":"levelo://app?vid=521037ea-040d-4f14-9410-e72ea91b03ab"},"vehicle_type_id":"4","last_reported":1692745578,"current_range_meters":24400,"station_id":"ce4bgrh2rcd13ifvqc8g","pricing_plan_id":"free"},{"bike_id":"c95f5cf0-4843-45f4-b6fb-78676cba7594","system_id":"levelo_inurba_marseille","lat":43.30824,"lon":5.38141,"is_reserved":false,"is_disabled":false,"rental_uris":{"android":"levelo://app?vid=c95f5cf0-4843-45f4-b6fb-78676cba7594","ios":"levelo://app?vid=c95f5cf0-4843-45f4-b6fb-78676cba7594"},"vehicle_type_id":"4","last_reported":1692745578,"current_range_meters":0,"station_id":"ce4bgt12rcd13ifvqce0","pricing_plan_id":"free"},{"bike_id":"1e8bece9-faa2-4dbc-b542-65ce696c1bf2","system_id":"levelo_inurba_marseille","lat":43.30812,"lon":5.38144,"is_reserved":false,"is_disabled":false,"rental_uris":{"android":"levelo://app?vid=1e8bece9-faa2-4dbc-b542-65ce696c1bf2","ios":"levelo://app?vid=1e8bece9-faa2-4dbc-b542-65ce696c1bf2"},"vehicle_type_id":"4","last_reported":1692745578,"current_range_meters":31200,"station_id":"ce4bgt12rcd13ifvqce0","pricing_plan_id":"free"},{"bike_id":"55dd39b8-8849-4a1e-b14c-c56980b0cd30","system_id":"levelo_inurba_marseille","lat":43.30809,"lon":5.38147,"is_reserved":false,"is_disabled":false,"rental_uris":{"android":"levelo://app?vid=55dd39b8-8849-4a1e-b14c-c56980b0cd30","ios":"levelo://app?vid=55dd39b8-8849-4a1e-b14c-c56980b0cd30"},"vehicle_type_id":"4","last_reported":1692745578,"current_range_meters":31200,"station_id":"ce4bgt12rcd13ifvqce0","pricing_plan_id":"free"},{"bike_id":"6a9668e5-c46f-45d4-80f3-a65da87ab564","system_id":"levelo_inurba_marseille","lat":43.30798,"lon":5.38149,"is_reserved":false,"is_disabled":false,"rental_uris":{"android":"levelo://app?vid=6a9668e5-c46f-45d4-80f3-a65da87ab564","ios":"levelo://app?vid=6a9668e5-c46f-45d4-80f3-a65da87ab564"},"vehicle_type_id":"4","last_reported":1692745578,"current_range_meters":31200,"station_id":"ce4bgt12rcd13ifvqce0","pricing_plan_id":"free"},{"bike_id":"10895a55-4a10-4e2d-90fe-1ddcd62e8ece","system_id":"levelo_inurba_marseille","lat":43.30803,"lon":5.38154,"is_reserved":false,"is_disabled":false,"rental_uris":{"android":"levelo://app?vid=10895a55-4a10-4e2d-90fe-1ddcd62e8ece","ios":"levelo://app?vid=10895a55-4a10-4e2d-90fe-1ddcd62e8ece"},"vehicle_type_id":"4","last_reported":1692745578,"current_range_meters":28400,"station_id":"ce4bgt12rcd13ifvqce0","pricing_plan_id":"free"},{"bike_id":"e71beaa7-a27d-4066-b0ac-684d1c380ad2","system_id":"levelo_inurba_marseille","lat":43.308012,"lon":5.381511,"is_reserved":false,"is_disabled":false,"rental_uris":{"android":"levelo://app?vid=e71beaa7-a27d-4066-b0ac-684d1c380ad2","ios":"levelo://app?vid=e71beaa7-a27d-4066-b0ac-684d1c380ad2"},"vehicle_type_id":"4","last_reported":1692745578,"current_range_meters":6800,"station_id":"ce4bgt12rcd13ifvqce0","pricing_plan_id":"free"},{"bike_id":"2a29d56c-1649-4a1b-84c7-348b67e8552e","system_id":"levelo_inurba_marseille","lat":43.30808,"lon":5.38161,"is_reserved":false,"is_disabled":false,"rental_uris":{"android":"levelo://app?vid=2a29d56c-1649-4a1b-84c7-348b67e8552e","ios":"levelo://app?vid=2a29d56c-1649-4a1b-84c7-348b67e8552e"},"vehicle_type_id":"4","last_reported":1692745578,"current_range_meters":800,"station_id":"ce4bgt12rcd13ifvqce0","pricing_plan_id":"free"},{"bike_id":"60321b27-c081-4bb5-bf73-7b2d2349ac95","system_id":"levelo_inurba_marseille","lat":43.308012,"lon":5.381511,"is_reserved":false,"is_disabled":false,"rental_uris":{"android":"levelo://app?vid=60321b27-c081-4bb5-bf73-7b2d2349ac95","ios":"levelo://app?vid=60321b27-c081-4bb5-bf73-7b2d2349ac95"},"vehicle_type_id":"4","last_reported":1692745578,"current_range_meters":28400,"station_id":"ce4bgt12rcd13ifvqce0","pricing_plan_id":"free"},{"bike_id":"9062a103-21f6-4d91-9990-2982b9cb20cd","system_id":"levelo_inurba_marseille","lat":43.30802,"lon":5.38158,"is_reserved":false,"is_disabled":false,"rental_uris":{"android":"levelo://app?vid=9062a103-21f6-4d91-9990-2982b9cb20cd","ios":"levelo://app?vid=9062a103-21f6-4d91-9990-2982b9cb20cd"},"vehicle_type_id":"4","last_reported":1692745578,"current_range_meters":2000,"station_id":"ce4bgt12rcd13ifvqce0","pricing_plan_id":"free"},{"bike_id":"89876102-86ed-4e5e-b54c-858223e3594f","system_id":"levelo_inurba_marseille","lat":43.3081,"lon":5.38164,"is_reserved":false,"is_disabled":false,"rental_uris":{"android":"levelo://app?vid=89876102-86ed-4e5e-b54c-858223e3594f","ios":"levelo://app?vid=89876102-86ed-4e5e-b54c-858223e3594f"},"vehicle_type_id":"4","last_reported":1692745578,"current_range_meters":22800,"station_id":"ce4bgt12rcd13ifvqce0","pricing_plan_id":"free"},{"bike_id":"56814416-3d1c-4fb3-bc6a-ee70b5481a70","system_id":"levelo_inurba_marseille","lat":43.30801,"lon":5.3816,"is_reserved":false,"is_disabled":false,"rental_uris":{"android":"levelo://app?vid=56814416-3d1c-4fb3-bc6a-ee70b5481a70","ios":"levelo://app?vid=56814416-3d1c-4fb3-bc6a-ee70b5481a70"},"vehicle_type_id":"4","last_reported":1692745578,"current_range_meters":10000,"station_id":"ce4bgt12rcd13ifvqce0","pricing_plan_id":"free"},{"bike_id":"237c1187-0b1e-4a6a-83f3-89fcb0ea5cea","system_id":"levelo_inurba_marseille","lat":43.308056,"lon":5.381642,"is_reserved":false,"is_disabled":false,"rental_uris":{"android":"levelo://app?vid=237c1187-0b1e-4a6a-83f3-89fcb0ea5cea","ios":"levelo://app?vid=237c1187-0b1e-4a6a-83f3-89fcb0ea5cea"},"vehicle_type_id":"4","last_reported":1692745578,"current_range_meters":0,"station_id":"ce4bgt92rcd13ifvqcg0","pricing_plan_id":"free"},{"bike_id":"0f2a0b09-9db7-4ffc-8762-0630fd2498a7","system_id":"levelo_inurba_marseille","lat":43.3078,"lon":5.3815,"is_reserved":false,"is_disabled":false,"rental_uris":{"android":"levelo://app?vid=0f2a0b09-9db7-4ffc-8762-0630fd2498a7","ios":"levelo://app?vid=0f2a0b09-9db7-4ffc-8762-0630fd2498a7"},"vehicle_type_id":"4","last_reported":1692745578,"current_range_meters":19200,"station_id":"ce4bgt12rcd13ifvqce0","pricing_plan_id":"free"},{"bike_id":"af970a6f-a0eb-46ae-af0e-a890ba80d546","system_id":"levelo_inurba_marseille","lat":43.302784,"lon":5.377158,"is_reserved":false,"is_disabled":false,"rental_uris":{"android":"levelo://app?vid=af970a6f-a0eb-46ae-af0e-a890ba80d546","ios":"levelo://app?vid=af970a6f-a0eb-46ae-af0e-a890ba80d546"},"vehicle_type_id":"4","last_reported":1692745578,"current_range_meters":21200,"station_id":"ce4bguh2rcd13ifvqcj0","pricing_plan_id":"free"},{"bike_id":"6549e90b-0831-4d65-99fb-20cb2db02487","system_id":"levelo_inurba_marseille","lat":43.301355,"lon":5.374165,"is_reserved":false,"is_disabled":false,"rental_uris":{"android":"levelo://app?vid=6549e90b-0831-4d65-99fb-20cb2db02487","ios":"levelo://app?vid=6549e90b-0831-4d65-99fb-20cb2db02487"},"vehicle_type_id":"4","last_reported":1692745578,"current_range_meters":24400,"station_id":"ce4bgs92rcd13ifvqcc0","pricing_plan_id":"free"},{"bike_id":"4f9f514d-ef2d-4452-965c-8fb7227b3659","system_id":"levelo_inurba_marseille","lat":43.32003,"lon":5.3814,"is_reserved":false,"is_disabled":false,"rental_uris":{"android":"levelo://app?vid=4f9f514d-ef2d-4452-965c-8fb7227b3659","ios":"levelo://app?vid=4f9f514d-ef2d-4452-965c-8fb7227b3659"},"vehicle_type_id":"4","last_reported":1692745578,"current_range_meters":12000,"station_id":"ce4bhr12rcd13ifvqhpg","pricing_plan_id":"free"},{"bike_id":"d86d50f3-96d0-4f82-b515-e64529fd9838","system_id":"levelo_inurba_marseille","lat":43.319935,"lon":5.381699,"is_reserved":false,"is_disabled":false,"rental_uris":{"android":"levelo://app?vid=d86d50f3-96d0-4f82-b515-e64529fd9838","ios":"levelo://app?vid=d86d50f3-96d0-4f82-b515-e64529fd9838"},"vehicle_type_id":"4","last_reported":1692745578,"current_range_meters":15600,"station_id":"ce4bhr12rcd13ifvqhpg","pricing_plan_id":"free"},{"bike_id":"faba66ed-21e4-4e75-b4bd-377437cb70a7","system_id":"levelo_inurba_marseille","lat":43.313571,"lon":5.384829,"is_reserved":false,"is_disabled":false,"rental_uris":{"android":"levelo://app?vid=faba66ed-21e4-4e75-b4bd-377437cb70a7","ios":"levelo://app?vid=faba66ed-21e4-4e75-b4bd-377437cb70a7"},"vehicle_type_id":"4","last_reported":1692745578,"current_range_meters":24800,"station_id":"ce4bgt92rcd13ifvqcf0","pricing_plan_id":"free"},{"bike_id":"6735e2a7-1256-4276-b4eb-f4db24e4f996","system_id":"levelo_inurba_marseille","lat":43.29934,"lon":5.36549,"is_reserved":false,"is_disabled":false,"rental_uris":{"android":"levelo://app?vid=6735e2a7-1256-4276-b4eb-f4db24e4f996","ios":"levelo://app?vid=6735e2a7-1256-4276-b4eb-f4db24e4f996"},"vehicle_type_id":"4","last_reported":1692745578,"current_range_meters":22800,"station_id":"ce4bgm92rcd13ifvqbr0","pricing_plan_id":"free"},{"bike_id":"d00eec29-3ca3-4a93-a026-0d3365541e48","system_id":"levelo_inurba_marseille","lat":43.299724,"lon":5.371829,"is_reserved":false,"is_disabled":false,"rental_uris":{"android":"levelo://app?vid=d00eec29-3ca3-4a93-a026-0d3365541e48","ios":"levelo://app?vid=d00eec29-3ca3-4a93-a026-0d3365541e48"},"vehicle_type_id":"4","last_reported":1692745578,"current_range_meters":6800,"station_id":"ce4bgr92rcd13ifvqc7g","pricing_plan_id":"free"},{"bike_id":"95dc9ecf-047e-4c3a-bb12-a5676cb36ad4","system_id":"levelo_inurba_marseille","lat":43.3216,"lon":5.38166,"is_reserved":false,"is_disabled":false,"rental_uris":{"android":"levelo://app?vid=95dc9ecf-047e-4c3a-bb12-a5676cb36ad4","ios":"levelo://app?vid=95dc9ecf-047e-4c3a-bb12-a5676cb36ad4"},"vehicle_type_id":"4","last_reported":1692745578,"current_range_meters":5600,"station_id":"","pricing_plan_id":"free"},{"bike_id":"e1603366-d7e6-4d5a-a030-239c7d027234","system_id":"levelo_inurba_marseille","lat":43.311722,"lon":5.387247,"is_reserved":false,"is_disabled":false,"rental_uris":{"android":"levelo://app?vid=e1603366-d7e6-4d5a-a030-239c7d027234","ios":"levelo://app?vid=e1603366-d7e6-4d5a-a030-239c7d027234"},"vehicle_type_id":"4","last_reported":1692745578,"current_range_meters":10800,"station_id":"ce4bgv12rcd13ifvqcp0","pricing_plan_id":"free"},{"bike_id":"fb987123-6f24-4ed4-a4e7-478d38f36975","system_id":"levelo_inurba_marseille","lat":43.311722,"lon":5.387247,"is_reserved":false,"is_disabled":false,"rental_uris":{"android":"levelo://app?vid=fb987123-6f24-4ed4-a4e7-478d38f36975","ios":"levelo://app?vid=fb987123-6f24-4ed4-a4e7-478d38f36975"},"vehicle_type_id":"4","last_reported":1692745578,"current_range_meters":26000,"station_id":"ce4bgv12rcd13ifvqcp0","pricing_plan_id":"free"},{"bike_id":"6672f5d2-c435-4743-b098-f7c92b60e622","system_id":"levelo_inurba_marseille","lat":43.30546,"lon":5.38429,"is_reserved":false,"is_disabled":false,"rental_uris":{"android":"levelo://app?vid=6672f5d2-c435-4743-b098-f7c92b60e622","ios":"levelo://app?vid=6672f5d2-c435-4743-b098-f7c92b60e622"},"vehicle_type_id":"4","last_reported":1692745578,"current_range_meters":14400,"station_id":"ce4bgg92rcd13ifvqb30","pricing_plan_id":"free"},{"bike_id":"31cd58a0-046a-428f-ac3e-3629efb51bc7","system_id":"levelo_inurba_marseille","lat":43.30552,"lon":5.38434,"is_reserved":false,"is_disabled":false,"rental_uris":{"android":"levelo://app?vid=31cd58a0-046a-428f-ac3e-3629efb51bc7","ios":"levelo://app?vid=31cd58a0-046a-428f-ac3e-3629efb51bc7"},"vehicle_type_id":"4","last_reported":1692745578,"current_range_meters":31200,"station_id":"ce4bgg92rcd13ifvqb30","pricing_plan_id":"free"},{"bike_id":"b03434fa-8da4-411e-b384-f6cf9198d104","system_id":"levelo_inurba_marseille","lat":43.30541,"lon":5.38427,"is_reserved":false,"is_disabled":false,"rental_uris":{"android":"levelo://app?vid=b03434fa-8da4-411e-b384-f6cf9198d104","ios":"levelo://app?vid=b03434fa-8da4-411e-b384-f6cf9198d104"},"vehicle_type_id":"4","last_reported":1692745578,"current_range_meters":12800,"station_id":"ce4bgg92rcd13ifvqb30","pricing_plan_id":"free"},{"bike_id":"02d8270b-8a7d-473c-b33d-e53aaf509093","system_id":"levelo_inurba_marseille","lat":43.30542,"lon":5.38429,"is_reserved":false,"is_disabled":false,"rental_uris":{"android":"levelo://app?vid=02d8270b-8a7d-473c-b33d-e53aaf509093","ios":"levelo://app?vid=02d8270b-8a7d-473c-b33d-e53aaf509093"},"vehicle_type_id":"4","last_reported":1692745578,"current_range_meters":31200,"station_id":"ce4bgg92rcd13ifvqb30","pricing_plan_id":"free"},{"bike_id":"1446be71-a9f8-4476-aecf-669d3278c1a9","system_id":"levelo_inurba_marseille","lat":43.305364,"lon":5.384119,"is_reserved":false,"is_disabled":false,"rental_uris":{"android":"levelo://app?vid=1446be71-a9f8-4476-aecf-669d3278c1a9","ios":"levelo://app?vid=1446be71-a9f8-4476-aecf-669d3278c1a9"},"vehicle_type_id":"4","last_reported":1692745578,"current_range_meters":0,"station_id":"ce4bgg92rcd13ifvqb30","pricing_plan_id":"free"},{"bike_id":"2f9e2def-2173-4eb4-a460-9a385f59debe","system_id":"levelo_inurba_marseille","lat":43.299243,"lon":5.374807,"is_reserved":false,"is_disabled":false,"rental_uris":{"android":"levelo://app?vid=2f9e2def-2173-4eb4-a460-9a385f59debe","ios":"levelo://app?vid=2f9e2def-2173-4eb4-a460-9a385f59debe"},"vehicle_type_id":"4","last_reported":1692745578,"current_range_meters":31200,"station_id":"ce4bgjh2rcd13ifvqbg0","pricing_plan_id":"free"},{"bike_id":"e97b3ac0-d4ce-4b67-b858-527de5362003","system_id":"levelo_inurba_marseille","lat":43.305364,"lon":5.384119,"is_reserved":false,"is_disabled":false,"rental_uris":{"android":"levelo://app?vid=e97b3ac0-d4ce-4b67-b858-527de5362003","ios":"levelo://app?vid=e97b3ac0-d4ce-4b67-b858-527de5362003"},"vehicle_type_id":"4","last_reported":1692745578,"current_range_meters":23200,"station_id":"ce4bgg92rcd13ifvqb30","pricing_plan_id":"free"},{"bike_id":"b885f463-e8c5-42cc-902f-7152167ce1c7","system_id":"levelo_inurba_marseille","lat":43.299243,"lon":5.37481,"is_reserved":false,"is_disabled":false,"rental_uris":{"android":"levelo://app?vid=b885f463-e8c5-42cc-902f-7152167ce1c7","ios":"levelo://app?vid=b885f463-e8c5-42cc-902f-7152167ce1c7"},"vehicle_type_id":"4","last_reported":1692745578,"current_range_meters":31200,"station_id":"ce4bgjh2rcd13ifvqbg0","pricing_plan_id":"free"},{"bike_id":"4ca13a31-b30f-4ea7-866b-379a1ecfc2bc","system_id":"levelo_inurba_marseille","lat":43.311722,"lon":5.387247,"is_reserved":false,"is_disabled":false,"rental_uris":{"android":"levelo://app?vid=4ca13a31-b30f-4ea7-866b-379a1ecfc2bc","ios":"levelo://app?vid=4ca13a31-b30f-4ea7-866b-379a1ecfc2bc"},"vehicle_type_id":"4","last_reported":1692745578,"current_range_meters":13200,"station_id":"ce4bgv12rcd13ifvqcp0","pricing_plan_id":"free"},{"bike_id":"d46224e8-a548-40a2-80a3-efad09c840e9","system_id":"levelo_inurba_marseille","lat":43.311722,"lon":5.387247,"is_reserved":false,"is_disabled":false,"rental_uris":{"android":"levelo://app?vid=d46224e8-a548-40a2-80a3-efad09c840e9","ios":"levelo://app?vid=d46224e8-a548-40a2-80a3-efad09c840e9"},"vehicle_type_id":"4","last_reported":1692745578,"current_range_meters":6000,"station_id":"ce4bgv12rcd13ifvqcp0","pricing_plan_id":"free"},{"bike_id":"f5d9bc9c-d318-468d-9d76-142041bb3750","system_id":"levelo_inurba_marseille","lat":43.311722,"lon":5.387247,"is_reserved":false,"is_disabled":false,"rental_uris":{"android":"levelo://app?vid=f5d9bc9c-d318-468d-9d76-142041bb3750","ios":"levelo://app?vid=f5d9bc9c-d318-468d-9d76-142041bb3750"},"vehicle_type_id":"4","last_reported":1692745578,"current_range_meters":28000,"station_id":"ce4bgv12rcd13ifvqcp0","pricing_plan_id":"free"},{"bike_id":"8dc74b15-16e8-458d-b318-829df7df5e5e","system_id":"levelo_inurba_marseille","lat":43.311722,"lon":5.387247,"is_reserved":false,"is_disabled":false,"rental_uris":{"android":"levelo://app?vid=8dc74b15-16e8-458d-b318-829df7df5e5e","ios":"levelo://app?vid=8dc74b15-16e8-458d-b318-829df7df5e5e"},"vehicle_type_id":"4","last_reported":1692745578,"current_range_meters":31200,"station_id":"ce4bgv12rcd13ifvqcp0","pricing_plan_id":"free"},{"bike_id":"fa539643-016e-45b7-bda5-46ee7315bbef","system_id":"levelo_inurba_marseille","lat":43.311722,"lon":5.387247,"is_reserved":false,"is_disabled":false,"rental_uris":{"android":"levelo://app?vid=fa539643-016e-45b7-bda5-46ee7315bbef","ios":"levelo://app?vid=fa539643-016e-45b7-bda5-46ee7315bbef"},"vehicle_type_id":"4","last_reported":1692745578,"current_range_meters":20400,"station_id":"ce4bgv12rcd13ifvqcp0","pricing_plan_id":"free"},{"bike_id":"48773837-8a01-4137-95bb-600dc54ff51e","system_id":"levelo_inurba_marseille","lat":43.32298,"lon":5.38244,"is_reserved":false,"is_disabled":false,"rental_uris":{"android":"levelo://app?vid=48773837-8a01-4137-95bb-600dc54ff51e","ios":"levelo://app?vid=48773837-8a01-4137-95bb-600dc54ff51e"},"vehicle_type_id":"4","last_reported":1692745578,"current_range_meters":26400,"station_id":"ce4bhr12rcd13ifvqhqg","pricing_plan_id":"free"},{"bike_id":"56b87030-d1dd-4d50-87dc-de3f2313ab1a","system_id":"levelo_inurba_marseille","lat":43.32835,"lon":5.36688,"is_reserved":false,"is_disabled":false,"rental_uris":{"android":"levelo://app?vid=56b87030-d1dd-4d50-87dc-de3f2313ab1a","ios":"levelo://app?vid=56b87030-d1dd-4d50-87dc-de3f2313ab1a"},"vehicle_type_id":"4","last_reported":1692745578,"current_range_meters":10400,"station_id":"ce4bhs92rcd13ifvqi0g","pricing_plan_id":"free"},{"bike_id":"dd789220-e7b5-42c1-b9dc-dc4243148021","system_id":"levelo_inurba_marseille","lat":43.29708,"lon":5.36596,"is_reserved":false,"is_disabled":false,"rental_uris":{"android":"levelo://app?vid=dd789220-e7b5-42c1-b9dc-dc4243148021","ios":"levelo://app?vid=dd789220-e7b5-42c1-b9dc-dc4243148021"},"vehicle_type_id":"4","last_reported":1692745578,"current_range_meters":31200,"station_id":"ce4bgn12rcd13ifvqbt0","pricing_plan_id":"free"},{"bike_id":"d3139180-8ba9-4c91-b6e4-8baae3c22113","system_id":"levelo_inurba_marseille","lat":43.296131,"lon":5.370791,"is_reserved":false,"is_disabled":false,"rental_uris":{"android":"levelo://app?vid=d3139180-8ba9-4c91-b6e4-8baae3c22113","ios":"levelo://app?vid=d3139180-8ba9-4c91-b6e4-8baae3c22113"},"vehicle_type_id":"4","last_reported":1692745578,"current_range_meters":29600,"station_id":"ce4bgnh2rcd13ifvqc0g","pricing_plan_id":"free"},{"bike_id":"bb155e93-116e-494a-9911-2df351c7dae8","system_id":"levelo_inurba_marseille","lat":43.29625,"lon":5.37187,"is_reserved":false,"is_disabled":false,"rental_uris":{"android":"levelo://app?vid=bb155e93-116e-494a-9911-2df351c7dae8","ios":"levelo://app?vid=bb155e93-116e-494a-9911-2df351c7dae8"},"vehicle_type_id":"4","last_reported":1692745578,"current_range_meters":27600,"station_id":"","pricing_plan_id":"free"},{"bike_id":"707edd10-347e-4e17-bb1b-089f6322bb14","system_id":"levelo_inurba_marseille","lat":43.309589,"lon":5.390258,"is_reserved":false,"is_disabled":false,"rental_uris":{"android":"levelo://app?vid=707edd10-347e-4e17-bb1b-089f6322bb14","ios":"levelo://app?vid=707edd10-347e-4e17-bb1b-089f6322bb14"},"vehicle_type_id":"4","last_reported":1692745578,"current_range_meters":0,"station_id":"ce4bgup2rcd13ifvqco0","pricing_plan_id":"free"},{"bike_id":"4819b304-aebb-4c4a-9788-608658a5ce9d","system_id":"levelo_inurba_marseille","lat":43.309589,"lon":5.390258,"is_reserved":false,"is_disabled":false,"rental_uris":{"android":"levelo://app?vid=4819b304-aebb-4c4a-9788-608658a5ce9d","ios":"levelo://app?vid=4819b304-aebb-4c4a-9788-608658a5ce9d"},"vehicle_type_id":"4","last_reported":1692745578,"current_range_meters":25200,"station_id":"ce4bgup2rcd13ifvqco0","pricing_plan_id":"free"},{"bike_id":"ad26bbde-f654-47e3-aec6-64a066a0edc1","system_id":"levelo_inurba_marseille","lat":43.30969,"lon":5.39049,"is_reserved":false,"is_disabled":false,"rental_uris":{"android":"levelo://app?vid=ad26bbde-f654-47e3-aec6-64a066a0edc1","ios":"levelo://app?vid=ad26bbde-f654-47e3-aec6-64a066a0edc1"},"vehicle_type_id":"4","last_reported":1692745578,"current_range_meters":31200,"station_id":"ce4bgup2rcd13ifvqco0","pricing_plan_id":"free"},{"bike_id":"c4e5f08a-eab4-4da5-ae5a-4bcea97c5917","system_id":"levelo_inurba_marseille","lat":43.30967,"lon":5.39049,"is_reserved":false,"is_disabled":false,"rental_uris":{"android":"levelo://app?vid=c4e5f08a-eab4-4da5-ae5a-4bcea97c5917","ios":"levelo://app?vid=c4e5f08a-eab4-4da5-ae5a-4bcea97c5917"},"vehicle_type_id":"4","last_reported":1692745578,"current_range_meters":3600,"station_id":"","pricing_plan_id":"free"},{"bike_id":"ac022322-aa3e-4d52-996e-260a03fff618","system_id":"levelo_inurba_marseille","lat":43.30954,"lon":5.39048,"is_reserved":false,"is_disabled":false,"rental_uris":{"android":"levelo://app?vid=ac022322-aa3e-4d52-996e-260a03fff618","ios":"levelo://app?vid=ac022322-aa3e-4d52-996e-260a03fff618"},"vehicle_type_id":"4","last_reported":1692745578,"current_range_meters":31200,"station_id":"ce4bgup2rcd13ifvqco0","pricing_plan_id":"free"},{"bike_id":"2c93ce6f-c5e1-4ec9-9941-ebb7469bb8f2","system_id":"levelo_inurba_marseille","lat":43.31755,"lon":5.39001,"is_reserved":false,"is_disabled":false,"rental_uris":{"android":"levelo://app?vid=2c93ce6f-c5e1-4ec9-9941-ebb7469bb8f2","ios":"levelo://app?vid=2c93ce6f-c5e1-4ec9-9941-ebb7469bb8f2"},"vehicle_type_id":"4","last_reported":1692745578,"current_range_meters":25600,"station_id":"ce4bhqp2rcd13ifvqhng","pricing_plan_id":"free"},{"bike_id":"fb8a8a85-1c76-4ded-abfd-51837d8fe13b","system_id":"levelo_inurba_marseille","lat":43.317557,"lon":5.390173,"is_reserved":false,"is_disabled":false,"rental_uris":{"android":"levelo://app?vid=fb8a8a85-1c76-4ded-abfd-51837d8fe13b","ios":"levelo://app?vid=fb8a8a85-1c76-4ded-abfd-51837d8fe13b"},"vehicle_type_id":"4","last_reported":1692745578,"current_range_meters":24800,"station_id":"ce4bhqp2rcd13ifvqhng","pricing_plan_id":"free"},{"bike_id":"12e79109-ed1d-45c9-98d1-5a2f67814544","system_id":"levelo_inurba_marseille","lat":43.317557,"lon":5.390173,"is_reserved":false,"is_disabled":false,"rental_uris":{"android":"levelo://app?vid=12e79109-ed1d-45c9-98d1-5a2f67814544","ios":"levelo://app?vid=12e79109-ed1d-45c9-98d1-5a2f67814544"},"vehicle_type_id":"4","last_reported":1692745578,"current_range_meters":30400,"station_id":"ce4bhqp2rcd13ifvqhng","pricing_plan_id":"free"},{"bike_id":"336b98ab-3a7f-4327-9a17-19c995c0e93b","system_id":"levelo_inurba_marseille","lat":43.317557,"lon":5.390173,"is_reserved":false,"is_disabled":false,"rental_uris":{"android":"levelo://app?vid=336b98ab-3a7f-4327-9a17-19c995c0e93b","ios":"levelo://app?vid=336b98ab-3a7f-4327-9a17-19c995c0e93b"},"vehicle_type_id":"4","last_reported":1692745578,"current_range_meters":9200,"station_id":"ce4bhqp2rcd13ifvqhng","pricing_plan_id":"free"},{"bike_id":"952a19e7-6602-41c3-942f-79cfb514366f","system_id":"levelo_inurba_marseille","lat":43.2982,"lon":5.38082,"is_reserved":false,"is_disabled":false,"rental_uris":{"android":"levelo://app?vid=952a19e7-6602-41c3-942f-79cfb514366f","ios":"levelo://app?vid=952a19e7-6602-41c3-942f-79cfb514366f"},"vehicle_type_id":"4","last_reported":1692745578,"current_range_meters":31200,"station_id":"ce4bgip2rcd13ifvqbb0","pricing_plan_id":"free"},{"bike_id":"1c149285-50e0-40b0-9218-3f9ff442866d","system_id":"levelo_inurba_marseille","lat":43.29799,"lon":5.38117,"is_reserved":false,"is_disabled":false,"rental_uris":{"android":"levelo://app?vid=1c149285-50e0-40b0-9218-3f9ff442866d","ios":"levelo://app?vid=1c149285-50e0-40b0-9218-3f9ff442866d"},"vehicle_type_id":"4","last_reported":1692745578,"current_range_meters":29600,"station_id":"ce4bgip2rcd13ifvqbb0","pricing_plan_id":"free"},{"bike_id":"a4df99ce-0488-49dd-a888-94686f562e88","system_id":"levelo_inurba_marseille","lat":43.295748,"lon":5.37522,"is_reserved":false,"is_disabled":false,"rental_uris":{"android":"levelo://app?vid=a4df99ce-0488-49dd-a888-94686f562e88","ios":"levelo://app?vid=a4df99ce-0488-49dd-a888-94686f562e88"},"vehicle_type_id":"4","last_reported":1692745578,"current_range_meters":30000,"station_id":"ce4bgh92rcd13ifvqb50","pricing_plan_id":"free"},{"bike_id":"aa1c6e31-3035-4e62-9f2a-0069ec2ff808","system_id":"levelo_inurba_marseille","lat":43.304278,"lon":5.388868,"is_reserved":false,"is_disabled":false,"rental_uris":{"android":"levelo://app?vid=aa1c6e31-3035-4e62-9f2a-0069ec2ff808","ios":"levelo://app?vid=aa1c6e31-3035-4e62-9f2a-0069ec2ff808"},"vehicle_type_id":"4","last_reported":1692745578,"current_range_meters":20000,"station_id":"ce4bgk12rcd13ifvqbi0","pricing_plan_id":"free"},{"bike_id":"8930fa1f-e279-486c-91e5-4812d2df85f5","system_id":"levelo_inurba_marseille","lat":43.30427,"lon":5.38889,"is_reserved":false,"is_disabled":false,"rental_uris":{"android":"levelo://app?vid=8930fa1f-e279-486c-91e5-4812d2df85f5","ios":"levelo://app?vid=8930fa1f-e279-486c-91e5-4812d2df85f5"},"vehicle_type_id":"4","last_reported":1692745578,"current_range_meters":30800,"station_id":"ce4bgk12rcd13ifvqbi0","pricing_plan_id":"free"},{"bike_id":"27331605-e927-4b93-8580-eaef48acc79a","system_id":"levelo_inurba_marseille","lat":43.30435,"lon":5.38896,"is_reserved":false,"is_disabled":false,"rental_uris":{"android":"levelo://app?vid=27331605-e927-4b93-8580-eaef48acc79a","ios":"levelo://app?vid=27331605-e927-4b93-8580-eaef48acc79a"},"vehicle_type_id":"4","last_reported":1692745578,"current_range_meters":31200,"station_id":"ce4bgk12rcd13ifvqbi0","pricing_plan_id":"free"},{"bike_id":"40c8a71a-105b-41c9-ac35-1303e4866c8f","system_id":"levelo_inurba_marseille","lat":43.30436,"lon":5.38897,"is_reserved":false,"is_disabled":false,"rental_uris":{"android":"levelo://app?vid=40c8a71a-105b-41c9-ac35-1303e4866c8f","ios":"levelo://app?vid=40c8a71a-105b-41c9-ac35-1303e4866c8f"},"vehicle_type_id":"4","last_reported":1692745578,"current_range_meters":31200,"station_id":"ce4bgk12rcd13ifvqbi0","pricing_plan_id":"free"},{"bike_id":"dc4bff5a-5cf3-4b5f-a179-002d07f115b0","system_id":"levelo_inurba_marseille","lat":43.30422,"lon":5.38893,"is_reserved":false,"is_disabled":false,"rental_uris":{"android":"levelo://app?vid=dc4bff5a-5cf3-4b5f-a179-002d07f115b0","ios":"levelo://app?vid=dc4bff5a-5cf3-4b5f-a179-002d07f115b0"},"vehicle_type_id":"4","last_reported":1692745578,"current_range_meters":0,"station_id":"ce4bgk12rcd13ifvqbi0","pricing_plan_id":"free"},{"bike_id":"5b3fcd30-fde1-4d3f-b3ac-fe2432b64388","system_id":"levelo_inurba_marseille","lat":43.29648,"lon":5.38055,"is_reserved":false,"is_disabled":false,"rental_uris":{"android":"levelo://app?vid=5b3fcd30-fde1-4d3f-b3ac-fe2432b64388","ios":"levelo://app?vid=5b3fcd30-fde1-4d3f-b3ac-fe2432b64388"},"vehicle_type_id":"4","last_reported":1692745578,"current_range_meters":4000,"station_id":"","pricing_plan_id":"free"},{"bike_id":"def7da8b-1757-45a3-8dea-cb955d378ab0","system_id":"levelo_inurba_marseille","lat":43.30098,"lon":5.38756,"is_reserved":false,"is_disabled":false,"rental_uris":{"android":"levelo://app?vid=def7da8b-1757-45a3-8dea-cb955d378ab0","ios":"levelo://app?vid=def7da8b-1757-45a3-8dea-cb955d378ab0"},"vehicle_type_id":"4","last_reported":1692745578,"current_range_meters":11600,"station_id":"","pricing_plan_id":"free"},{"bike_id":"27a50d23-376e-4614-8f33-7c6a033807d7","system_id":"levelo_inurba_marseille","lat":43.32367,"lon":5.388836,"is_reserved":false,"is_disabled":false,"rental_uris":{"android":"levelo://app?vid=27a50d23-376e-4614-8f33-7c6a033807d7","ios":"levelo://app?vid=27a50d23-376e-4614-8f33-7c6a033807d7"},"vehicle_type_id":"4","last_reported":1692745578,"current_range_meters":31200,"station_id":"ce4bhqp2rcd13ifvqhog","pricing_plan_id":"free"},{"bike_id":"00883cd9-a56a-4720-bb55-237d0136a4a1","system_id":"levelo_inurba_marseille","lat":43.32365,"lon":5.38882,"is_reserved":false,"is_disabled":false,"rental_uris":{"android":"levelo://app?vid=00883cd9-a56a-4720-bb55-237d0136a4a1","ios":"levelo://app?vid=00883cd9-a56a-4720-bb55-237d0136a4a1"},"vehicle_type_id":"4","last_reported":1692745578,"current_range_meters":31200,"station_id":"ce4bhqp2rcd13ifvqhog","pricing_plan_id":"free"},{"bike_id":"7d8c3923-f0a3-4e44-8291-49f4210a308a","system_id":"levelo_inurba_marseille","lat":43.32367,"lon":5.388836,"is_reserved":false,"is_disabled":false,"rental_uris":{"android":"levelo://app?vid=7d8c3923-f0a3-4e44-8291-49f4210a308a","ios":"levelo://app?vid=7d8c3923-f0a3-4e44-8291-49f4210a308a"},"vehicle_type_id":"4","last_reported":1692745578,"current_range_meters":31200,"station_id":"ce4bhqp2rcd13ifvqhog","pricing_plan_id":"free"},{"bike_id":"3ee6736d-0a2a-429b-8608-53e06375372f","system_id":"levelo_inurba_marseille","lat":43.32367,"lon":5.388836,"is_reserved":false,"is_disabled":false,"rental_uris":{"android":"levelo://app?vid=3ee6736d-0a2a-429b-8608-53e06375372f","ios":"levelo://app?vid=3ee6736d-0a2a-429b-8608-53e06375372f"},"vehicle_type_id":"4","last_reported":1692745578,"current_range_meters":31200,"station_id":"ce4bhqp2rcd13ifvqhog","pricing_plan_id":"free"},{"bike_id":"babee972-06a5-4dde-8c00-9b289c685c3a","system_id":"levelo_inurba_marseille","lat":43.32372,"lon":5.38889,"is_reserved":false,"is_disabled":false,"rental_uris":{"android":"levelo://app?vid=babee972-06a5-4dde-8c00-9b289c685c3a","ios":"levelo://app?vid=babee972-06a5-4dde-8c00-9b289c685c3a"},"vehicle_type_id":"4","last_reported":1692745578,"current_range_meters":27200,"station_id":"ce4bhqp2rcd13ifvqhog","pricing_plan_id":"free"},{"bike_id":"224ca804-b6a6-49e9-ba47-cdfe2bbd055b","system_id":"levelo_inurba_marseille","lat":43.292749,"lon":5.368398,"is_reserved":false,"is_disabled":false,"rental_uris":{"android":"levelo://app?vid=224ca804-b6a6-49e9-ba47-cdfe2bbd055b","ios":"levelo://app?vid=224ca804-b6a6-49e9-ba47-cdfe2bbd055b"},"vehicle_type_id":"4","last_reported":1692745578,"current_range_meters":21200,"station_id":"ce4bhbp2rcd13ifvqesg","pricing_plan_id":"free"},{"bike_id":"42e27105-9318-45dd-9536-3647180baba0","system_id":"levelo_inurba_marseille","lat":43.292749,"lon":5.368402,"is_reserved":false,"is_disabled":false,"rental_uris":{"android":"levelo://app?vid=42e27105-9318-45dd-9536-3647180baba0","ios":"levelo://app?vid=42e27105-9318-45dd-9536-3647180baba0"},"vehicle_type_id":"4","last_reported":1692745578,"current_range_meters":29600,"station_id":"ce4bhbp2rcd13ifvqesg","pricing_plan_id":"free"},{"bike_id":"fb316c9d-c7c4-4172-92c7-3dde07d83d5d","system_id":"levelo_inurba_marseille","lat":43.29308,"lon":5.37179,"is_reserved":false,"is_disabled":false,"rental_uris":{"android":"levelo://app?vid=fb316c9d-c7c4-4172-92c7-3dde07d83d5d","ios":"levelo://app?vid=fb316c9d-c7c4-4172-92c7-3dde07d83d5d"},"vehicle_type_id":"4","last_reported":1692745578,"current_range_meters":0,"station_id":"ce4bgh92rcd13ifvqb40","pricing_plan_id":"free"},{"bike_id":"1564aeaa-a5c6-41dc-b5dc-8be722ba4b8b","system_id":"levelo_inurba_marseille","lat":43.292749,"lon":5.368402,"is_reserved":false,"is_disabled":false,"rental_uris":{"android":"levelo://app?vid=1564aeaa-a5c6-41dc-b5dc-8be722ba4b8b","ios":"levelo://app?vid=1564aeaa-a5c6-41dc-b5dc-8be722ba4b8b"},"vehicle_type_id":"4","last_reported":1692745578,"current_range_meters":27200,"station_id":"ce4bhbp2rcd13ifvqesg","pricing_plan_id":"free"},{"bike_id":"61875794-9d5d-447c-a6a8-319b7e14b400","system_id":"levelo_inurba_marseille","lat":43.30596,"lon":5.39351,"is_reserved":false,"is_disabled":false,"rental_uris":{"android":"levelo://app?vid=61875794-9d5d-447c-a6a8-319b7e14b400","ios":"levelo://app?vid=61875794-9d5d-447c-a6a8-319b7e14b400"},"vehicle_type_id":"4","last_reported":1692745578,"current_range_meters":31200,"station_id":"ce4bh0p2rcd13ifvqd80","pricing_plan_id":"free"},{"bike_id":"581e312e-fe10-462a-bce4-2828b1e2fdc8","system_id":"levelo_inurba_marseille","lat":43.30594,"lon":5.39354,"is_reserved":false,"is_disabled":false,"rental_uris":{"android":"levelo://app?vid=581e312e-fe10-462a-bce4-2828b1e2fdc8","ios":"levelo://app?vid=581e312e-fe10-462a-bce4-2828b1e2fdc8"},"vehicle_type_id":"4","last_reported":1692745578,"current_range_meters":400,"station_id":"ce4bh0p2rcd13ifvqd80","pricing_plan_id":"free"},{"bike_id":"11f162e0-1884-45e2-b243-3e3564bfcd39","system_id":"levelo_inurba_marseille","lat":43.305994,"lon":5.393687,"is_reserved":false,"is_disabled":false,"rental_uris":{"android":"levelo://app?vid=11f162e0-1884-45e2-b243-3e3564bfcd39","ios":"levelo://app?vid=11f162e0-1884-45e2-b243-3e3564bfcd39"},"vehicle_type_id":"4","last_reported":1692745578,"current_range_meters":31600,"station_id":"ce4bh0p2rcd13ifvqd80","pricing_plan_id":"free"},{"bike_id":"caa8992a-3f63-4997-ac44-be2b5b86ec4a","system_id":"levelo_inurba_marseille","lat":43.30601,"lon":5.39364,"is_reserved":false,"is_disabled":false,"rental_uris":{"android":"levelo://app?vid=caa8992a-3f63-4997-ac44-be2b5b86ec4a","ios":"levelo://app?vid=caa8992a-3f63-4997-ac44-be2b5b86ec4a"},"vehicle_type_id":"4","last_reported":1692745578,"current_range_meters":15200,"station_id":"ce4bh0p2rcd13ifvqd80","pricing_plan_id":"free"},{"bike_id":"9ad614f3-ed10-4863-a4fd-05e1167da560","system_id":"levelo_inurba_marseille","lat":43.305994,"lon":5.393687,"is_reserved":false,"is_disabled":false,"rental_uris":{"android":"levelo://app?vid=9ad614f3-ed10-4863-a4fd-05e1167da560","ios":"levelo://app?vid=9ad614f3-ed10-4863-a4fd-05e1167da560"},"vehicle_type_id":"4","last_reported":1692745578,"current_range_meters":31200,"station_id":"ce4bh0p2rcd13ifvqd80","pricing_plan_id":"free"},{"bike_id":"5d01ced4-b272-434c-b269-e759c25afefc","system_id":"levelo_inurba_marseille","lat":43.305994,"lon":5.393687,"is_reserved":false,"is_disabled":false,"rental_uris":{"android":"levelo://app?vid=5d01ced4-b272-434c-b269-e759c25afefc","ios":"levelo://app?vid=5d01ced4-b272-434c-b269-e759c25afefc"},"vehicle_type_id":"4","last_reported":1692745578,"current_range_meters":24800,"station_id":"ce4bh0p2rcd13ifvqd80","pricing_plan_id":"free"},{"bike_id":"e062d0b6-34a8-4713-bd64-44e170e841ed","system_id":"levelo_inurba_marseille","lat":43.30321,"lon":5.392,"is_reserved":false,"is_disabled":false,"rental_uris":{"android":"levelo://app?vid=e062d0b6-34a8-4713-bd64-44e170e841ed","ios":"levelo://app?vid=e062d0b6-34a8-4713-bd64-44e170e841ed"},"vehicle_type_id":"4","last_reported":1692745578,"current_range_meters":31200,"station_id":"ce4bgkh2rcd13ifvqbk0","pricing_plan_id":"free"},{"bike_id":"7770833b-54ec-453c-a4fc-8d96e65f6298","system_id":"levelo_inurba_marseille","lat":43.29382,"lon":5.37812,"is_reserved":false,"is_disabled":false,"rental_uris":{"android":"levelo://app?vid=7770833b-54ec-453c-a4fc-8d96e65f6298","ios":"levelo://app?vid=7770833b-54ec-453c-a4fc-8d96e65f6298"},"vehicle_type_id":"4","last_reported":1692745578,"current_range_meters":25200,"station_id":"ce4bgjh2rcd13ifvqbf0","pricing_plan_id":"free"},{"bike_id":"d7b29ef9-a477-4364-92f2-91792825ad91","system_id":"levelo_inurba_marseille","lat":43.30606,"lon":5.39371,"is_reserved":false,"is_disabled":false,"rental_uris":{"android":"levelo://app?vid=d7b29ef9-a477-4364-92f2-91792825ad91","ios":"levelo://app?vid=d7b29ef9-a477-4364-92f2-91792825ad91"},"vehicle_type_id":"4","last_reported":1692745578,"current_range_meters":21600,"station_id":"ce4bh0p2rcd13ifvqd80","pricing_plan_id":"free"},{"bike_id":"38fef587-7cc5-4800-b069-87b8f296a10a","system_id":"levelo_inurba_marseille","lat":43.29293,"lon":5.37476,"is_reserved":false,"is_disabled":false,"rental_uris":{"android":"levelo://app?vid=38fef587-7cc5-4800-b069-87b8f296a10a","ios":"levelo://app?vid=38fef587-7cc5-4800-b069-87b8f296a10a"},"vehicle_type_id":"4","last_reported":1692745578,"current_range_meters":31200,"station_id":"ce4bgi12rcd13ifvqb70","pricing_plan_id":"free"},{"bike_id":"3286b16b-4a57-4b17-9473-4f56852bf549","system_id":"levelo_inurba_marseille","lat":43.30306,"lon":5.39207,"is_reserved":false,"is_disabled":false,"rental_uris":{"android":"levelo://app?vid=3286b16b-4a57-4b17-9473-4f56852bf549","ios":"levelo://app?vid=3286b16b-4a57-4b17-9473-4f56852bf549"},"vehicle_type_id":"4","last_reported":1692745578,"current_range_meters":31200,"station_id":"ce4bgkh2rcd13ifvqbk0","pricing_plan_id":"free"},{"bike_id":"0724f352-a262-45b7-9b71-9a09ff17d945","system_id":"levelo_inurba_marseille","lat":43.303002,"lon":5.392142,"is_reserved":false,"is_disabled":false,"rental_uris":{"android":"levelo://app?vid=0724f352-a262-45b7-9b71-9a09ff17d945","ios":"levelo://app?vid=0724f352-a262-45b7-9b71-9a09ff17d945"},"vehicle_type_id":"4","last_reported":1692745578,"current_range_meters":30000,"station_id":"ce4bgkh2rcd13ifvqbk0","pricing_plan_id":"free"},{"bike_id":"597100a3-9794-4ead-b7d5-29f3922b10e3","system_id":"levelo_inurba_marseille","lat":43.303002,"lon":5.392142,"is_reserved":false,"is_disabled":false,"rental_uris":{"android":"levelo://app?vid=597100a3-9794-4ead-b7d5-29f3922b10e3","ios":"levelo://app?vid=597100a3-9794-4ead-b7d5-29f3922b10e3"},"vehicle_type_id":"4","last_reported":1692745578,"current_range_meters":25600,"station_id":"ce4bgkh2rcd13ifvqbk0","pricing_plan_id":"free"},{"bike_id":"2086f2db-9f1d-4694-90e5-3bdc415fd974","system_id":"levelo_inurba_marseille","lat":43.300852,"lon":5.390859,"is_reserved":false,"is_disabled":false,"rental_uris":{"android":"levelo://app?vid=2086f2db-9f1d-4694-90e5-3bdc415fd974","ios":"levelo://app?vid=2086f2db-9f1d-4694-90e5-3bdc415fd974"},"vehicle_type_id":"4","last_reported":1692745578,"current_range_meters":12000,"station_id":"ce4bh192rcd13ifvqdb0","pricing_plan_id":"free"},{"bike_id":"e484e7e3-02ec-436d-b418-8f2459ccbd9b","system_id":"levelo_inurba_marseille","lat":43.300852,"lon":5.390859,"is_reserved":false,"is_disabled":false,"rental_uris":{"android":"levelo://app?vid=e484e7e3-02ec-436d-b418-8f2459ccbd9b","ios":"levelo://app?vid=e484e7e3-02ec-436d-b418-8f2459ccbd9b"},"vehicle_type_id":"4","last_reported":1692745578,"current_range_meters":12800,"station_id":"ce4bh192rcd13ifvqdb0","pricing_plan_id":"free"},{"bike_id":"85571c9d-67b7-4c45-8665-edc783336cd2","system_id":"levelo_inurba_marseille","lat":43.300852,"lon":5.390859,"is_reserved":false,"is_disabled":false,"rental_uris":{"android":"levelo://app?vid=85571c9d-67b7-4c45-8665-edc783336cd2","ios":"levelo://app?vid=85571c9d-67b7-4c45-8665-edc783336cd2"},"vehicle_type_id":"4","last_reported":1692745578,"current_range_meters":26800,"station_id":"ce4bh192rcd13ifvqdb0","pricing_plan_id":"free"},{"bike_id":"377c4ffe-8240-4961-907d-7845662e3bdc","system_id":"levelo_inurba_marseille","lat":43.30085,"lon":5.390856,"is_reserved":false,"is_disabled":false,"rental_uris":{"android":"levelo://app?vid=377c4ffe-8240-4961-907d-7845662e3bdc","ios":"levelo://app?vid=377c4ffe-8240-4961-907d-7845662e3bdc"},"vehicle_type_id":"4","last_reported":1692745578,"current_range_meters":31200,"station_id":"ce4bh192rcd13ifvqdb0","pricing_plan_id":"free"},{"bike_id":"bfece5f6-c22e-4e46-b635-33aaa9cc6b94","system_id":"levelo_inurba_marseille","lat":43.29896,"lon":5.38904,"is_reserved":false,"is_disabled":false,"rental_uris":{"android":"levelo://app?vid=bfece5f6-c22e-4e46-b635-33aaa9cc6b94","ios":"levelo://app?vid=bfece5f6-c22e-4e46-b635-33aaa9cc6b94"},"vehicle_type_id":"4","last_reported":1692745578,"current_range_meters":3200,"station_id":"ce4bh392rcd13ifvqdl0","pricing_plan_id":"free"},{"bike_id":"4c679eb9-cbdf-4fa9-bd42-f25f8aaf42be","system_id":"levelo_inurba_marseille","lat":43.300852,"lon":5.390859,"is_reserved":false,"is_disabled":false,"rental_uris":{"android":"levelo://app?vid=4c679eb9-cbdf-4fa9-bd42-f25f8aaf42be","ios":"levelo://app?vid=4c679eb9-cbdf-4fa9-bd42-f25f8aaf42be"},"vehicle_type_id":"4","last_reported":1692745578,"current_range_meters":18400,"station_id":"ce4bh192rcd13ifvqdb0","pricing_plan_id":"free"},{"bike_id":"986f5add-e52e-4d3d-a0c5-2041c693c75e","system_id":"levelo_inurba_marseille","lat":43.291671,"lon":5.371575,"is_reserved":false,"is_disabled":false,"rental_uris":{"android":"levelo://app?vid=986f5add-e52e-4d3d-a0c5-2041c693c75e","ios":"levelo://app?vid=986f5add-e52e-4d3d-a0c5-2041c693c75e"},"vehicle_type_id":"4","last_reported":1692745578,"current_range_meters":13200,"station_id":"ce4bha92rcd13ifvqeh0","pricing_plan_id":"free"},{"bike_id":"5ce8524a-680b-4457-a806-2829e96dc0d5","system_id":"levelo_inurba_marseille","lat":43.30906,"lon":5.39644,"is_reserved":false,"is_disabled":false,"rental_uris":{"android":"levelo://app?vid=5ce8524a-680b-4457-a806-2829e96dc0d5","ios":"levelo://app?vid=5ce8524a-680b-4457-a806-2829e96dc0d5"},"vehicle_type_id":"4","last_reported":1692745578,"current_range_meters":31200,"station_id":"ce4bh012rcd13ifvqcv0","pricing_plan_id":"free"},{"bike_id":"637f1d0b-7d22-452f-b31c-2ae320b69447","system_id":"levelo_inurba_marseille","lat":43.30899,"lon":5.39643,"is_reserved":false,"is_disabled":false,"rental_uris":{"android":"levelo://app?vid=637f1d0b-7d22-452f-b31c-2ae320b69447","ios":"levelo://app?vid=637f1d0b-7d22-452f-b31c-2ae320b69447"},"vehicle_type_id":"4","last_reported":1692745578,"current_range_meters":9200,"station_id":"ce4bh012rcd13ifvqcv0","pricing_plan_id":"free"},{"bike_id":"40da6681-1664-4e1e-8a9b-83af51d64bf1","system_id":"levelo_inurba_marseille","lat":43.313291,"lon":5.396838,"is_reserved":false,"is_disabled":false,"rental_uris":{"android":"levelo://app?vid=40da6681-1664-4e1e-8a9b-83af51d64bf1","ios":"levelo://app?vid=40da6681-1664-4e1e-8a9b-83af51d64bf1"},"vehicle_type_id":"4","last_reported":1692745578,"current_range_meters":20400,"station_id":"ce4bgvp2rcd13ifvqcu0","pricing_plan_id":"free"},{"bike_id":"9945b6ab-4c8b-4ca8-aed1-4e038f4908a0","system_id":"levelo_inurba_marseille","lat":43.31324,"lon":5.39691,"is_reserved":false,"is_disabled":false,"rental_uris":{"android":"levelo://app?vid=9945b6ab-4c8b-4ca8-aed1-4e038f4908a0","ios":"levelo://app?vid=9945b6ab-4c8b-4ca8-aed1-4e038f4908a0"},"vehicle_type_id":"4","last_reported":1692745578,"current_range_meters":19200,"station_id":"ce4bgvp2rcd13ifvqcu0","pricing_plan_id":"free"},{"bike_id":"4f0fcf9d-7d89-4d10-b62c-d2d476533fd2","system_id":"levelo_inurba_marseille","lat":43.31331,"lon":5.39692,"is_reserved":false,"is_disabled":false,"rental_uris":{"android":"levelo://app?vid=4f0fcf9d-7d89-4d10-b62c-d2d476533fd2","ios":"levelo://app?vid=4f0fcf9d-7d89-4d10-b62c-d2d476533fd2"},"vehicle_type_id":"4","last_reported":1692745578,"current_range_meters":0,"station_id":"ce4bgvp2rcd13ifvqcu0","pricing_plan_id":"free"},{"bike_id":"d4e0a5d5-3f14-452e-891e-21b0d1381652","system_id":"levelo_inurba_marseille","lat":43.309038,"lon":5.396546,"is_reserved":false,"is_disabled":false,"rental_uris":{"android":"levelo://app?vid=d4e0a5d5-3f14-452e-891e-21b0d1381652","ios":"levelo://app?vid=d4e0a5d5-3f14-452e-891e-21b0d1381652"},"vehicle_type_id":"4","last_reported":1692745578,"current_range_meters":29600,"station_id":"ce4bh012rcd13ifvqcv0","pricing_plan_id":"free"},{"bike_id":"19159392-6066-4894-90c8-06644d670005","system_id":"levelo_inurba_marseille","lat":43.31332,"lon":5.39693,"is_reserved":false,"is_disabled":false,"rental_uris":{"android":"levelo://app?vid=19159392-6066-4894-90c8-06644d670005","ios":"levelo://app?vid=19159392-6066-4894-90c8-06644d670005"},"vehicle_type_id":"4","last_reported":1692745578,"current_range_meters":2800,"station_id":"ce4bgvp2rcd13ifvqcu0","pricing_plan_id":"free"},{"bike_id":"3ac3e844-16cd-4c49-a6c3-e105890ab95b","system_id":"levelo_inurba_marseille","lat":43.309038,"lon":5.396546,"is_reserved":false,"is_disabled":false,"rental_uris":{"android":"levelo://app?vid=3ac3e844-16cd-4c49-a6c3-e105890ab95b","ios":"levelo://app?vid=3ac3e844-16cd-4c49-a6c3-e105890ab95b"},"vehicle_type_id":"4","last_reported":1692745578,"current_range_meters":31200,"station_id":"ce4bh012rcd13ifvqcv0","pricing_plan_id":"free"},{"bike_id":"55733591-4bf6-4b3a-87c6-bf57e1d72414","system_id":"levelo_inurba_marseille","lat":43.31337,"lon":5.39699,"is_reserved":false,"is_disabled":false,"rental_uris":{"android":"levelo://app?vid=55733591-4bf6-4b3a-87c6-bf57e1d72414","ios":"levelo://app?vid=55733591-4bf6-4b3a-87c6-bf57e1d72414"},"vehicle_type_id":"4","last_reported":1692745578,"current_range_meters":30800,"station_id":"ce4bgvp2rcd13ifvqcu0","pricing_plan_id":"free"},{"bike_id":"d77d08b1-f23e-4527-adb1-cc354f8e41e9","system_id":"levelo_inurba_marseille","lat":43.30884,"lon":5.39652,"is_reserved":false,"is_disabled":false,"rental_uris":{"android":"levelo://app?vid=d77d08b1-f23e-4527-adb1-cc354f8e41e9","ios":"levelo://app?vid=d77d08b1-f23e-4527-adb1-cc354f8e41e9"},"vehicle_type_id":"4","last_reported":1692745578,"current_range_meters":24000,"station_id":"ce4bh012rcd13ifvqcv0","pricing_plan_id":"free"},{"bike_id":"4b343901-2891-4575-a3d8-99fe06a06e44","system_id":"levelo_inurba_marseille","lat":43.31323,"lon":5.397,"is_reserved":false,"is_disabled":false,"rental_uris":{"android":"levelo://app?vid=4b343901-2891-4575-a3d8-99fe06a06e44","ios":"levelo://app?vid=4b343901-2891-4575-a3d8-99fe06a06e44"},"vehicle_type_id":"4","last_reported":1692745578,"current_range_meters":31200,"station_id":"ce4bgvp2rcd13ifvqcu0","pricing_plan_id":"free"},{"bike_id":"804fa21c-ec99-4ac0-b9eb-b90627304221","system_id":"levelo_inurba_marseille","lat":43.31331,"lon":5.39701,"is_reserved":false,"is_disabled":false,"rental_uris":{"android":"levelo://app?vid=804fa21c-ec99-4ac0-b9eb-b90627304221","ios":"levelo://app?vid=804fa21c-ec99-4ac0-b9eb-b90627304221"},"vehicle_type_id":"4","last_reported":1692745578,"current_range_meters":31200,"station_id":"ce4bgvp2rcd13ifvqcu0","pricing_plan_id":"free"},{"bike_id":"f07fdadc-813f-4f5a-ba0f-271c35540855","system_id":"levelo_inurba_marseille","lat":43.309038,"lon":5.396546,"is_reserved":false,"is_disabled":false,"rental_uris":{"android":"levelo://app?vid=f07fdadc-813f-4f5a-ba0f-271c35540855","ios":"levelo://app?vid=f07fdadc-813f-4f5a-ba0f-271c35540855"},"vehicle_type_id":"4","last_reported":1692745578,"current_range_meters":28000,"station_id":"ce4bh012rcd13ifvqcv0","pricing_plan_id":"free"},{"bike_id":"22ee558b-ae08-4772-9c62-74ca61d2c480","system_id":"levelo_inurba_marseille","lat":43.30889,"lon":5.39656,"is_reserved":false,"is_disabled":false,"rental_uris":{"android":"levelo://app?vid=22ee558b-ae08-4772-9c62-74ca61d2c480","ios":"levelo://app?vid=22ee558b-ae08-4772-9c62-74ca61d2c480"},"vehicle_type_id":"4","last_reported":1692745578,"current_range_meters":22800,"station_id":"ce4bh012rcd13ifvqcv0","pricing_plan_id":"free"},{"bike_id":"9a4dcef5-ad32-4c9e-a0cf-fba39460f59c","system_id":"levelo_inurba_marseille","lat":43.3088,"lon":5.39654,"is_reserved":false,"is_disabled":false,"rental_uris":{"android":"levelo://app?vid=9a4dcef5-ad32-4c9e-a0cf-fba39460f59c","ios":"levelo://app?vid=9a4dcef5-ad32-4c9e-a0cf-fba39460f59c"},"vehicle_type_id":"4","last_reported":1692745578,"current_range_meters":16000,"station_id":"ce4bh012rcd13ifvqcv0","pricing_plan_id":"free"},{"bike_id":"9f78b5d2-7c1b-45a7-a1af-23e727ba0133","system_id":"levelo_inurba_marseille","lat":43.31323,"lon":5.39703,"is_reserved":false,"is_disabled":false,"rental_uris":{"android":"levelo://app?vid=9f78b5d2-7c1b-45a7-a1af-23e727ba0133","ios":"levelo://app?vid=9f78b5d2-7c1b-45a7-a1af-23e727ba0133"},"vehicle_type_id":"4","last_reported":1692745578,"current_range_meters":31200,"station_id":"ce4bgvp2rcd13ifvqcu0","pricing_plan_id":"free"},{"bike_id":"86d20f0d-74e1-4fe5-b51a-e082ab2c8172","system_id":"levelo_inurba_marseille","lat":43.30884,"lon":5.39657,"is_reserved":false,"is_disabled":false,"rental_uris":{"android":"levelo://app?vid=86d20f0d-74e1-4fe5-b51a-e082ab2c8172","ios":"levelo://app?vid=86d20f0d-74e1-4fe5-b51a-e082ab2c8172"},"vehicle_type_id":"4","last_reported":1692745578,"current_range_meters":29600,"station_id":"ce4bh012rcd13ifvqcv0","pricing_plan_id":"free"},{"bike_id":"2bd07cc6-10cc-49e1-9b20-09141cac8d3c","system_id":"levelo_inurba_marseille","lat":43.313291,"lon":5.396838,"is_reserved":false,"is_disabled":false,"rental_uris":{"android":"levelo://app?vid=2bd07cc6-10cc-49e1-9b20-09141cac8d3c","ios":"levelo://app?vid=2bd07cc6-10cc-49e1-9b20-09141cac8d3c"},"vehicle_type_id":"4","last_reported":1692745578,"current_range_meters":30000,"station_id":"ce4bgvp2rcd13ifvqcu0","pricing_plan_id":"free"},{"bike_id":"8a2f8717-cffa-4935-8641-f277be3434f6","system_id":"levelo_inurba_marseille","lat":43.31322,"lon":5.39707,"is_reserved":false,"is_disabled":false,"rental_uris":{"android":"levelo://app?vid=8a2f8717-cffa-4935-8641-f277be3434f6","ios":"levelo://app?vid=8a2f8717-cffa-4935-8641-f277be3434f6"},"vehicle_type_id":"4","last_reported":1692745578,"current_range_meters":12000,"station_id":"ce4bgvp2rcd13ifvqcu0","pricing_plan_id":"free"},{"bike_id":"7ef37ac9-eabc-4a63-9778-b1f2ba4a71b8","system_id":"levelo_inurba_marseille","lat":43.3088,"lon":5.3966,"is_reserved":false,"is_disabled":false,"rental_uris":{"android":"levelo://app?vid=7ef37ac9-eabc-4a63-9778-b1f2ba4a71b8","ios":"levelo://app?vid=7ef37ac9-eabc-4a63-9778-b1f2ba4a71b8"},"vehicle_type_id":"4","last_reported":1692745578,"current_range_meters":6400,"station_id":"ce4bh012rcd13ifvqcv0","pricing_plan_id":"free"},{"bike_id":"3000639e-d072-48c9-982a-59d7fa47b4ce","system_id":"levelo_inurba_marseille","lat":43.309038,"lon":5.396546,"is_reserved":false,"is_disabled":false,"rental_uris":{"android":"levelo://app?vid=3000639e-d072-48c9-982a-59d7fa47b4ce","ios":"levelo://app?vid=3000639e-d072-48c9-982a-59d7fa47b4ce"},"vehicle_type_id":"4","last_reported":1692745578,"current_range_meters":22400,"station_id":"ce4bh012rcd13ifvqcv0","pricing_plan_id":"free"},{"bike_id":"ab85f1d5-5f91-41e8-afde-b1e133280333","system_id":"levelo_inurba_marseille","lat":43.290779,"lon":5.371482,"is_reserved":false,"is_disabled":false,"rental_uris":{"android":"levelo://app?vid=ab85f1d5-5f91-41e8-afde-b1e133280333","ios":"levelo://app?vid=ab85f1d5-5f91-41e8-afde-b1e133280333"},"vehicle_type_id":"4","last_reported":1692745578,"current_range_meters":15600,"station_id":"ce4bh5p2rcd13ifvqe4g","pricing_plan_id":"free"},{"bike_id":"39b5b5cf-86ef-48ea-a176-58e554756417","system_id":"levelo_inurba_marseille","lat":43.302008,"lon":5.394694,"is_reserved":false,"is_disabled":false,"rental_uris":{"android":"levelo://app?vid=39b5b5cf-86ef-48ea-a176-58e554756417","ios":"levelo://app?vid=39b5b5cf-86ef-48ea-a176-58e554756417"},"vehicle_type_id":"4","last_reported":1692745578,"current_range_meters":31600,"station_id":"ce4bh0p2rcd13ifvqd70","pricing_plan_id":"free"},{"bike_id":"eab15fbc-9e22-4158-8371-f100575bc0fa","system_id":"levelo_inurba_marseille","lat":43.302008,"lon":5.394694,"is_reserved":false,"is_disabled":false,"rental_uris":{"android":"levelo://app?vid=eab15fbc-9e22-4158-8371-f100575bc0fa","ios":"levelo://app?vid=eab15fbc-9e22-4158-8371-f100575bc0fa"},"vehicle_type_id":"4","last_reported":1692745578,"current_range_meters":16400,"station_id":"ce4bh0p2rcd13ifvqd70","pricing_plan_id":"free"},{"bike_id":"9836dd02-45ca-4104-adba-46f0b286f4ad","system_id":"levelo_inurba_marseille","lat":43.302008,"lon":5.394694,"is_reserved":false,"is_disabled":false,"rental_uris":{"android":"levelo://app?vid=9836dd02-45ca-4104-adba-46f0b286f4ad","ios":"levelo://app?vid=9836dd02-45ca-4104-adba-46f0b286f4ad"},"vehicle_type_id":"4","last_reported":1692745578,"current_range_meters":9600,"station_id":"ce4bh0p2rcd13ifvqd70","pricing_plan_id":"free"},{"bike_id":"d2a2a396-9b1d-4534-b523-3a474d343bc6","system_id":"levelo_inurba_marseille","lat":43.30213,"lon":5.39468,"is_reserved":false,"is_disabled":false,"rental_uris":{"android":"levelo://app?vid=d2a2a396-9b1d-4534-b523-3a474d343bc6","ios":"levelo://app?vid=d2a2a396-9b1d-4534-b523-3a474d343bc6"},"vehicle_type_id":"4","last_reported":1692745578,"current_range_meters":0,"station_id":"","pricing_plan_id":"free"},{"bike_id":"b854f55a-3948-4d63-acf3-0113692446da","system_id":"levelo_inurba_marseille","lat":43.302008,"lon":5.394694,"is_reserved":false,"is_disabled":false,"rental_uris":{"android":"levelo://app?vid=b854f55a-3948-4d63-acf3-0113692446da","ios":"levelo://app?vid=b854f55a-3948-4d63-acf3-0113692446da"},"vehicle_type_id":"4","last_reported":1692745578,"current_range_meters":20000,"station_id":"ce4bh0p2rcd13ifvqd70","pricing_plan_id":"free"},{"bike_id":"8c8c2b11-231b-46cf-bb87-598e614504b3","system_id":"levelo_inurba_marseille","lat":43.302008,"lon":5.394694,"is_reserved":false,"is_disabled":false,"rental_uris":{"android":"levelo://app?vid=8c8c2b11-231b-46cf-bb87-598e614504b3","ios":"levelo://app?vid=8c8c2b11-231b-46cf-bb87-598e614504b3"},"vehicle_type_id":"4","last_reported":1692745578,"current_range_meters":28800,"station_id":"ce4bh0p2rcd13ifvqd70","pricing_plan_id":"free"},{"bike_id":"ee1865c2-b3d4-4fca-b2f4-2a1ba9636e31","system_id":"levelo_inurba_marseille","lat":43.290631,"lon":5.359244,"is_reserved":false,"is_disabled":false,"rental_uris":{"android":"levelo://app?vid=ee1865c2-b3d4-4fca-b2f4-2a1ba9636e31","ios":"levelo://app?vid=ee1865c2-b3d4-4fca-b2f4-2a1ba9636e31"},"vehicle_type_id":"4","last_reported":1692745578,"current_range_meters":23200,"station_id":"ce4bha92rcd13ifvqeg0","pricing_plan_id":"free"},{"bike_id":"1f267138-f8a3-457f-b64e-0fbd83719fc0","system_id":"levelo_inurba_marseille","lat":43.302008,"lon":5.394694,"is_reserved":false,"is_disabled":false,"rental_uris":{"android":"levelo://app?vid=1f267138-f8a3-457f-b64e-0fbd83719fc0","ios":"levelo://app?vid=1f267138-f8a3-457f-b64e-0fbd83719fc0"},"vehicle_type_id":"4","last_reported":1692745578,"current_range_meters":22400,"station_id":"ce4bh0p2rcd13ifvqd70","pricing_plan_id":"free"},{"bike_id":"c652d6fe-1561-449c-b5ed-0140ebb032d3","system_id":"levelo_inurba_marseille","lat":43.289184,"lon":5.366408,"is_reserved":false,"is_disabled":false,"rental_uris":{"android":"levelo://app?vid=c652d6fe-1561-449c-b5ed-0140ebb032d3","ios":"levelo://app?vid=c652d6fe-1561-449c-b5ed-0140ebb032d3"},"vehicle_type_id":"4","last_reported":1692745578,"current_range_meters":0,"station_id":"ce4bhap2rcd13ifvqek0","pricing_plan_id":"free"},{"bike_id":"5006c6b7-3461-4e23-9fa3-8b3f19dd3b07","system_id":"levelo_inurba_marseille","lat":43.289184,"lon":5.366408,"is_reserved":false,"is_disabled":false,"rental_uris":{"android":"levelo://app?vid=5006c6b7-3461-4e23-9fa3-8b3f19dd3b07","ios":"levelo://app?vid=5006c6b7-3461-4e23-9fa3-8b3f19dd3b07"},"vehicle_type_id":"4","last_reported":1692745578,"current_range_meters":11200,"station_id":"ce4bhap2rcd13ifvqek0","pricing_plan_id":"free"},{"bike_id":"a763157d-a959-4eef-afd0-df46784ed980","system_id":"levelo_inurba_marseille","lat":43.289184,"lon":5.366408,"is_reserved":false,"is_disabled":false,"rental_uris":{"android":"levelo://app?vid=a763157d-a959-4eef-afd0-df46784ed980","ios":"levelo://app?vid=a763157d-a959-4eef-afd0-df46784ed980"},"vehicle_type_id":"4","last_reported":1692745578,"current_range_meters":30400,"station_id":"ce4bhap2rcd13ifvqek0","pricing_plan_id":"free"},{"bike_id":"eab8fb98-e2ae-4aa7-8b04-d13561730ff5","system_id":"levelo_inurba_marseille","lat":43.289468,"lon":5.363719,"is_reserved":false,"is_disabled":false,"rental_uris":{"android":"levelo://app?vid=eab8fb98-e2ae-4aa7-8b04-d13561730ff5","ios":"levelo://app?vid=eab8fb98-e2ae-4aa7-8b04-d13561730ff5"},"vehicle_type_id":"4","last_reported":1692745578,"current_range_meters":4400,"station_id":"ce4bhc92rcd13ifvqetg","pricing_plan_id":"free"},{"bike_id":"54a4bee8-e37d-4714-b05c-6f6f6f63c03e","system_id":"levelo_inurba_marseille","lat":43.33046,"lon":5.38919,"is_reserved":false,"is_disabled":false,"rental_uris":{"android":"levelo://app?vid=54a4bee8-e37d-4714-b05c-6f6f6f63c03e","ios":"levelo://app?vid=54a4bee8-e37d-4714-b05c-6f6f6f63c03e"},"vehicle_type_id":"4","last_reported":1692745578,"current_range_meters":4800,"station_id":"ce4bhr92rcd13ifvqhrg","pricing_plan_id":"free"},{"bike_id":"b7485f8e-79cf-49fb-9b64-8bef91ab5902","system_id":"levelo_inurba_marseille","lat":43.33045,"lon":5.38921,"is_reserved":false,"is_disabled":false,"rental_uris":{"android":"levelo://app?vid=b7485f8e-79cf-49fb-9b64-8bef91ab5902","ios":"levelo://app?vid=b7485f8e-79cf-49fb-9b64-8bef91ab5902"},"vehicle_type_id":"4","last_reported":1692745578,"current_range_meters":20000,"station_id":"ce4bhr92rcd13ifvqhrg","pricing_plan_id":"free"},{"bike_id":"4bef911f-f277-4de3-86d5-0f9c7aaa1d5e","system_id":"levelo_inurba_marseille","lat":43.33044,"lon":5.38923,"is_reserved":false,"is_disabled":false,"rental_uris":{"android":"levelo://app?vid=4bef911f-f277-4de3-86d5-0f9c7aaa1d5e","ios":"levelo://app?vid=4bef911f-f277-4de3-86d5-0f9c7aaa1d5e"},"vehicle_type_id":"4","last_reported":1692745578,"current_range_meters":14400,"station_id":"ce4bhr92rcd13ifvqhrg","pricing_plan_id":"free"},{"bike_id":"7691d65d-d321-467f-86e8-b26ac6013c5b","system_id":"levelo_inurba_marseille","lat":43.33046,"lon":5.38921,"is_reserved":false,"is_disabled":false,"rental_uris":{"android":"levelo://app?vid=7691d65d-d321-467f-86e8-b26ac6013c5b","ios":"levelo://app?vid=7691d65d-d321-467f-86e8-b26ac6013c5b"},"vehicle_type_id":"4","last_reported":1692745578,"current_range_meters":27200,"station_id":"ce4bhr92rcd13ifvqhrg","pricing_plan_id":"free"},{"bike_id":"3edec34c-b5e0-4c51-b916-cb7b6255aa81","system_id":"levelo_inurba_marseille","lat":43.33048,"lon":5.38918,"is_reserved":false,"is_disabled":false,"rental_uris":{"android":"levelo://app?vid=3edec34c-b5e0-4c51-b916-cb7b6255aa81","ios":"levelo://app?vid=3edec34c-b5e0-4c51-b916-cb7b6255aa81"},"vehicle_type_id":"4","last_reported":1692745578,"current_range_meters":11600,"station_id":"ce4bhr92rcd13ifvqhrg","pricing_plan_id":"free"},{"bike_id":"8a3cca1e-f8c9-4d3c-810d-3147c2872ca7","system_id":"levelo_inurba_marseille","lat":43.33051,"lon":5.38914,"is_reserved":false,"is_disabled":false,"rental_uris":{"android":"levelo://app?vid=8a3cca1e-f8c9-4d3c-810d-3147c2872ca7","ios":"levelo://app?vid=8a3cca1e-f8c9-4d3c-810d-3147c2872ca7"},"vehicle_type_id":"4","last_reported":1692745578,"current_range_meters":25200,"station_id":"ce4bhr92rcd13ifvqhrg","pricing_plan_id":"free"},{"bike_id":"ea2c072a-c599-4cb1-a67c-c82011d9d932","system_id":"levelo_inurba_marseille","lat":43.33044,"lon":5.38925,"is_reserved":false,"is_disabled":false,"rental_uris":{"android":"levelo://app?vid=ea2c072a-c599-4cb1-a67c-c82011d9d932","ios":"levelo://app?vid=ea2c072a-c599-4cb1-a67c-c82011d9d932"},"vehicle_type_id":"4","last_reported":1692745578,"current_range_meters":19600,"station_id":"ce4bhr92rcd13ifvqhrg","pricing_plan_id":"free"},{"bike_id":"416832a5-c1d4-423b-90c0-e0470dfb3aa6","system_id":"levelo_inurba_marseille","lat":43.33049,"lon":5.38918,"is_reserved":false,"is_disabled":false,"rental_uris":{"android":"levelo://app?vid=416832a5-c1d4-423b-90c0-e0470dfb3aa6","ios":"levelo://app?vid=416832a5-c1d4-423b-90c0-e0470dfb3aa6"},"vehicle_type_id":"4","last_reported":1692745578,"current_range_meters":22800,"station_id":"ce4bhr92rcd13ifvqhrg","pricing_plan_id":"free"},{"bike_id":"0f060318-14ff-4bbb-b1bd-d3bad0d20b4a","system_id":"levelo_inurba_marseille","lat":43.33048,"lon":5.38921,"is_reserved":false,"is_disabled":false,"rental_uris":{"android":"levelo://app?vid=0f060318-14ff-4bbb-b1bd-d3bad0d20b4a","ios":"levelo://app?vid=0f060318-14ff-4bbb-b1bd-d3bad0d20b4a"},"vehicle_type_id":"4","last_reported":1692745578,"current_range_meters":13600,"station_id":"ce4bhr92rcd13ifvqhrg","pricing_plan_id":"free"},{"bike_id":"96668834-887c-47ff-824d-411005844e8e","system_id":"levelo_inurba_marseille","lat":43.297815,"lon":5.393548,"is_reserved":false,"is_disabled":false,"rental_uris":{"android":"levelo://app?vid=96668834-887c-47ff-824d-411005844e8e","ios":"levelo://app?vid=96668834-887c-47ff-824d-411005844e8e"},"vehicle_type_id":"4","last_reported":1692745578,"current_range_meters":7200,"station_id":"chh1huq6cuj3fo74tm60","pricing_plan_id":"free"},{"bike_id":"576d3bad-175c-4783-998b-db2c153e30f1","system_id":"levelo_inurba_marseille","lat":43.31272,"lon":5.40169,"is_reserved":false,"is_disabled":false,"rental_uris":{"android":"levelo://app?vid=576d3bad-175c-4783-998b-db2c153e30f1","ios":"levelo://app?vid=576d3bad-175c-4783-998b-db2c153e30f1"},"vehicle_type_id":"4","last_reported":1692745578,"current_range_meters":27600,"station_id":"ce4bh092rcd13ifvqd30","pricing_plan_id":"free"},{"bike_id":"596540bc-f67a-4618-8fe6-dbf2cbc13bc1","system_id":"levelo_inurba_marseille","lat":43.3128,"lon":5.40169,"is_reserved":false,"is_disabled":false,"rental_uris":{"android":"levelo://app?vid=596540bc-f67a-4618-8fe6-dbf2cbc13bc1","ios":"levelo://app?vid=596540bc-f67a-4618-8fe6-dbf2cbc13bc1"},"vehicle_type_id":"4","last_reported":1692745578,"current_range_meters":4000,"station_id":"ce4bh092rcd13ifvqd30","pricing_plan_id":"free"},{"bike_id":"30506e39-e3ee-4e77-b2e3-e1cc84965730","system_id":"levelo_inurba_marseille","lat":43.31273,"lon":5.40177,"is_reserved":false,"is_disabled":false,"rental_uris":{"android":"levelo://app?vid=30506e39-e3ee-4e77-b2e3-e1cc84965730","ios":"levelo://app?vid=30506e39-e3ee-4e77-b2e3-e1cc84965730"},"vehicle_type_id":"4","last_reported":1692745578,"current_range_meters":16800,"station_id":"ce4bh092rcd13ifvqd30","pricing_plan_id":"free"},{"bike_id":"d782fefe-81b8-40fd-88be-f3602f28fd22","system_id":"levelo_inurba_marseille","lat":43.30929,"lon":5.40148,"is_reserved":false,"is_disabled":false,"rental_uris":{"android":"levelo://app?vid=d782fefe-81b8-40fd-88be-f3602f28fd22","ios":"levelo://app?vid=d782fefe-81b8-40fd-88be-f3602f28fd22"},"vehicle_type_id":"4","last_reported":1692745578,"current_range_meters":19600,"station_id":"ce4bgvp2rcd13ifvqct0","pricing_plan_id":"free"},{"bike_id":"a81e39ed-7dab-4523-98de-c18858013fcd","system_id":"levelo_inurba_marseille","lat":43.30642,"lon":5.401031,"is_reserved":false,"is_disabled":false,"rental_uris":{"android":"levelo://app?vid=a81e39ed-7dab-4523-98de-c18858013fcd","ios":"levelo://app?vid=a81e39ed-7dab-4523-98de-c18858013fcd"},"vehicle_type_id":"4","last_reported":1692745578,"current_range_meters":17200,"station_id":"ce4bh112rcd13ifvqda0","pricing_plan_id":"free"},{"bike_id":"c059301b-1f27-4e66-8fa0-99eedfca1e13","system_id":"levelo_inurba_marseille","lat":43.30642,"lon":5.401031,"is_reserved":false,"is_disabled":false,"rental_uris":{"android":"levelo://app?vid=c059301b-1f27-4e66-8fa0-99eedfca1e13","ios":"levelo://app?vid=c059301b-1f27-4e66-8fa0-99eedfca1e13"},"vehicle_type_id":"4","last_reported":1692745578,"current_range_meters":12400,"station_id":"ce4bh112rcd13ifvqda0","pricing_plan_id":"free"},{"bike_id":"f363d0f0-4285-4729-986d-50c40bbdd839","system_id":"levelo_inurba_marseille","lat":43.30642,"lon":5.401031,"is_reserved":false,"is_disabled":false,"rental_uris":{"android":"levelo://app?vid=f363d0f0-4285-4729-986d-50c40bbdd839","ios":"levelo://app?vid=f363d0f0-4285-4729-986d-50c40bbdd839"},"vehicle_type_id":"4","last_reported":1692745578,"current_range_meters":8400,"station_id":"ce4bh112rcd13ifvqda0","pricing_plan_id":"free"},{"bike_id":"b4a49f94-f734-4599-9935-3e3298dc6ddb","system_id":"levelo_inurba_marseille","lat":43.30149,"lon":5.39858,"is_reserved":false,"is_disabled":false,"rental_uris":{"android":"levelo://app?vid=b4a49f94-f734-4599-9935-3e3298dc6ddb","ios":"levelo://app?vid=b4a49f94-f734-4599-9935-3e3298dc6ddb"},"vehicle_type_id":"4","last_reported":1692745578,"current_range_meters":18800,"station_id":"ce4bh0h2rcd13ifvqd40","pricing_plan_id":"free"},{"bike_id":"89db0702-14da-4ce5-ba07-6b86f7414f31","system_id":"levelo_inurba_marseille","lat":43.30149,"lon":5.39858,"is_reserved":false,"is_disabled":false,"rental_uris":{"android":"levelo://app?vid=89db0702-14da-4ce5-ba07-6b86f7414f31","ios":"levelo://app?vid=89db0702-14da-4ce5-ba07-6b86f7414f31"},"vehicle_type_id":"4","last_reported":1692745578,"current_range_meters":21200,"station_id":"ce4bh0h2rcd13ifvqd40","pricing_plan_id":"free"},{"bike_id":"37570153-df0e-46c1-a754-7b6a899b293e","system_id":"levelo_inurba_marseille","lat":43.30147,"lon":5.39859,"is_reserved":false,"is_disabled":false,"rental_uris":{"android":"levelo://app?vid=37570153-df0e-46c1-a754-7b6a899b293e","ios":"levelo://app?vid=37570153-df0e-46c1-a754-7b6a899b293e"},"vehicle_type_id":"4","last_reported":1692745578,"current_range_meters":31200,"station_id":"ce4bh0h2rcd13ifvqd40","pricing_plan_id":"free"},{"bike_id":"6327e5ae-36a1-44a0-b04d-691e4f9ae8eb","system_id":"levelo_inurba_marseille","lat":43.33772,"lon":5.37495,"is_reserved":false,"is_disabled":false,"rental_uris":{"android":"levelo://app?vid=6327e5ae-36a1-44a0-b04d-691e4f9ae8eb","ios":"levelo://app?vid=6327e5ae-36a1-44a0-b04d-691e4f9ae8eb"},"vehicle_type_id":"4","last_reported":1692745578,"current_range_meters":800,"station_id":"","pricing_plan_id":"free"},{"bike_id":"e591c88a-f788-4926-bf1f-0e0b2d585f2e","system_id":"levelo_inurba_marseille","lat":43.28723,"lon":5.37387,"is_reserved":false,"is_disabled":false,"rental_uris":{"android":"levelo://app?vid=e591c88a-f788-4926-bf1f-0e0b2d585f2e","ios":"levelo://app?vid=e591c88a-f788-4926-bf1f-0e0b2d585f2e"},"vehicle_type_id":"4","last_reported":1692745578,"current_range_meters":4800,"station_id":"ce4bh3p2rcd13ifvqdq0","pricing_plan_id":"free"},{"bike_id":"ee0a193b-c91c-4ee1-ab16-2325221e2857","system_id":"levelo_inurba_marseille","lat":43.298681,"lon":5.397225,"is_reserved":false,"is_disabled":false,"rental_uris":{"android":"levelo://app?vid=ee0a193b-c91c-4ee1-ab16-2325221e2857","ios":"levelo://app?vid=ee0a193b-c91c-4ee1-ab16-2325221e2857"},"vehicle_type_id":"4","last_reported":1692745578,"current_range_meters":31200,"station_id":"ce4bh0h2rcd13ifvqd50","pricing_plan_id":"free"},{"bike_id":"2c76bd88-53e6-4d93-86e1-e43846ccf86f","system_id":"levelo_inurba_marseille","lat":43.298681,"lon":5.397225,"is_reserved":false,"is_disabled":false,"rental_uris":{"android":"levelo://app?vid=2c76bd88-53e6-4d93-86e1-e43846ccf86f","ios":"levelo://app?vid=2c76bd88-53e6-4d93-86e1-e43846ccf86f"},"vehicle_type_id":"4","last_reported":1692745578,"current_range_meters":28400,"station_id":"ce4bh0h2rcd13ifvqd50","pricing_plan_id":"free"},{"bike_id":"019c15c6-0437-4c1a-a6d6-022556fa0ead","system_id":"levelo_inurba_marseille","lat":43.28714,"lon":5.37372,"is_reserved":false,"is_disabled":false,"rental_uris":{"android":"levelo://app?vid=019c15c6-0437-4c1a-a6d6-022556fa0ead","ios":"levelo://app?vid=019c15c6-0437-4c1a-a6d6-022556fa0ead"},"vehicle_type_id":"4","last_reported":1692745578,"current_range_meters":20000,"station_id":"ce4bh3p2rcd13ifvqdq0","pricing_plan_id":"free"},{"bike_id":"75199276-b705-4ad7-b6a9-49aeaa84628a","system_id":"levelo_inurba_marseille","lat":43.286591,"lon":5.363346,"is_reserved":false,"is_disabled":false,"rental_uris":{"android":"levelo://app?vid=75199276-b705-4ad7-b6a9-49aeaa84628a","ios":"levelo://app?vid=75199276-b705-4ad7-b6a9-49aeaa84628a"},"vehicle_type_id":"4","last_reported":1692745578,"current_range_meters":31200,"station_id":"ce4bhah2rcd13ifvqej0","pricing_plan_id":"free"},{"bike_id":"05bc30d4-2a2b-43c5-8b46-98ca90fc775b","system_id":"levelo_inurba_marseille","lat":43.28714,"lon":5.37388,"is_reserved":false,"is_disabled":false,"rental_uris":{"android":"levelo://app?vid=05bc30d4-2a2b-43c5-8b46-98ca90fc775b","ios":"levelo://app?vid=05bc30d4-2a2b-43c5-8b46-98ca90fc775b"},"vehicle_type_id":"4","last_reported":1692745578,"current_range_meters":19200,"station_id":"ce4bh3p2rcd13ifvqdq0","pricing_plan_id":"free"},{"bike_id":"52453775-1575-4f76-8fe9-e6ddee9dfff7","system_id":"levelo_inurba_marseille","lat":43.298681,"lon":5.397225,"is_reserved":false,"is_disabled":false,"rental_uris":{"android":"levelo://app?vid=52453775-1575-4f76-8fe9-e6ddee9dfff7","ios":"levelo://app?vid=52453775-1575-4f76-8fe9-e6ddee9dfff7"},"vehicle_type_id":"4","last_reported":1692745578,"current_range_meters":17200,"station_id":"ce4bh0h2rcd13ifvqd50","pricing_plan_id":"free"},{"bike_id":"d0f0c80c-faa9-45d8-b5da-c75e7c69a7ab","system_id":"levelo_inurba_marseille","lat":43.298681,"lon":5.397225,"is_reserved":false,"is_disabled":false,"rental_uris":{"android":"levelo://app?vid=d0f0c80c-faa9-45d8-b5da-c75e7c69a7ab","ios":"levelo://app?vid=d0f0c80c-faa9-45d8-b5da-c75e7c69a7ab"},"vehicle_type_id":"4","last_reported":1692745578,"current_range_meters":22400,"station_id":"ce4bh0h2rcd13ifvqd50","pricing_plan_id":"free"},{"bike_id":"350be7fb-9313-4f11-911f-4f38ed1ee082","system_id":"levelo_inurba_marseille","lat":43.28673,"lon":5.36353,"is_reserved":false,"is_disabled":false,"rental_uris":{"android":"levelo://app?vid=350be7fb-9313-4f11-911f-4f38ed1ee082","ios":"levelo://app?vid=350be7fb-9313-4f11-911f-4f38ed1ee082"},"vehicle_type_id":"4","last_reported":1692745578,"current_range_meters":0,"station_id":"ce4bhah2rcd13ifvqej0","pricing_plan_id":"free"},{"bike_id":"f93f8fe3-a9be-44fc-9e69-4396fa77c3bd","system_id":"levelo_inurba_marseille","lat":43.298681,"lon":5.397225,"is_reserved":false,"is_disabled":false,"rental_uris":{"android":"levelo://app?vid=f93f8fe3-a9be-44fc-9e69-4396fa77c3bd","ios":"levelo://app?vid=f93f8fe3-a9be-44fc-9e69-4396fa77c3bd"},"vehicle_type_id":"4","last_reported":1692745578,"current_range_meters":22400,"station_id":"ce4bh0h2rcd13ifvqd50","pricing_plan_id":"free"},{"bike_id":"629d237e-22c9-4e86-905e-86c944c4566e","system_id":"levelo_inurba_marseille","lat":43.286591,"lon":5.363346,"is_reserved":false,"is_disabled":false,"rental_uris":{"android":"levelo://app?vid=629d237e-22c9-4e86-905e-86c944c4566e","ios":"levelo://app?vid=629d237e-22c9-4e86-905e-86c944c4566e"},"vehicle_type_id":"4","last_reported":1692745578,"current_range_meters":24800,"station_id":"ce4bhah2rcd13ifvqej0","pricing_plan_id":"free"},{"bike_id":"7d59e6c4-d6a9-4092-98ae-1c5107709156","system_id":"levelo_inurba_marseille","lat":43.28709,"lon":5.3739,"is_reserved":false,"is_disabled":false,"rental_uris":{"android":"levelo://app?vid=7d59e6c4-d6a9-4092-98ae-1c5107709156","ios":"levelo://app?vid=7d59e6c4-d6a9-4092-98ae-1c5107709156"},"vehicle_type_id":"4","last_reported":1692745578,"current_range_meters":27200,"station_id":"ce4bh3p2rcd13ifvqdq0","pricing_plan_id":"free"},{"bike_id":"447affa7-6856-46f8-8f32-f564970404e9","system_id":"levelo_inurba_marseille","lat":43.298681,"lon":5.397225,"is_reserved":false,"is_disabled":false,"rental_uris":{"android":"levelo://app?vid=447affa7-6856-46f8-8f32-f564970404e9","ios":"levelo://app?vid=447affa7-6856-46f8-8f32-f564970404e9"},"vehicle_type_id":"4","last_reported":1692745578,"current_range_meters":6800,"station_id":"ce4bh0h2rcd13ifvqd50","pricing_plan_id":"free"},{"bike_id":"4b955c1d-3c84-4884-a56d-bcbbac8e4638","system_id":"levelo_inurba_marseille","lat":43.298681,"lon":5.397225,"is_reserved":false,"is_disabled":false,"rental_uris":{"android":"levelo://app?vid=4b955c1d-3c84-4884-a56d-bcbbac8e4638","ios":"levelo://app?vid=4b955c1d-3c84-4884-a56d-bcbbac8e4638"},"vehicle_type_id":"4","last_reported":1692745578,"current_range_meters":19600,"station_id":"ce4bh0h2rcd13ifvqd50","pricing_plan_id":"free"},{"bike_id":"f0f93b79-e2d9-4793-ad89-f5d35dc985a2","system_id":"levelo_inurba_marseille","lat":43.28668,"lon":5.3635,"is_reserved":false,"is_disabled":false,"rental_uris":{"android":"levelo://app?vid=f0f93b79-e2d9-4793-ad89-f5d35dc985a2","ios":"levelo://app?vid=f0f93b79-e2d9-4793-ad89-f5d35dc985a2"},"vehicle_type_id":"4","last_reported":1692745578,"current_range_meters":3600,"station_id":"ce4bhah2rcd13ifvqej0","pricing_plan_id":"free"},{"bike_id":"d2670e98-f161-4228-9746-13334fa112be","system_id":"levelo_inurba_marseille","lat":43.298681,"lon":5.397225,"is_reserved":false,"is_disabled":false,"rental_uris":{"android":"levelo://app?vid=d2670e98-f161-4228-9746-13334fa112be","ios":"levelo://app?vid=d2670e98-f161-4228-9746-13334fa112be"},"vehicle_type_id":"4","last_reported":1692745578,"current_range_meters":18800,"station_id":"ce4bh0h2rcd13ifvqd50","pricing_plan_id":"free"},{"bike_id":"ca19cc7f-4a55-4bcf-99b1-e0949be37b28","system_id":"levelo_inurba_marseille","lat":43.298681,"lon":5.397225,"is_reserved":false,"is_disabled":false,"rental_uris":{"android":"levelo://app?vid=ca19cc7f-4a55-4bcf-99b1-e0949be37b28","ios":"levelo://app?vid=ca19cc7f-4a55-4bcf-99b1-e0949be37b28"},"vehicle_type_id":"4","last_reported":1692745578,"current_range_meters":24400,"station_id":"ce4bh0h2rcd13ifvqd50","pricing_plan_id":"free"},{"bike_id":"399ee26a-d976-406f-a97c-2e55c7d703b4","system_id":"levelo_inurba_marseille","lat":43.298681,"lon":5.397225,"is_reserved":false,"is_disabled":false,"rental_uris":{"android":"levelo://app?vid=399ee26a-d976-406f-a97c-2e55c7d703b4","ios":"levelo://app?vid=399ee26a-d976-406f-a97c-2e55c7d703b4"},"vehicle_type_id":"4","last_reported":1692745578,"current_range_meters":31200,"station_id":"ce4bh0h2rcd13ifvqd50","pricing_plan_id":"free"},{"bike_id":"2f2d285e-80c3-4284-b049-f7f0636acf85","system_id":"levelo_inurba_marseille","lat":43.298681,"lon":5.397225,"is_reserved":false,"is_disabled":false,"rental_uris":{"android":"levelo://app?vid=2f2d285e-80c3-4284-b049-f7f0636acf85","ios":"levelo://app?vid=2f2d285e-80c3-4284-b049-f7f0636acf85"},"vehicle_type_id":"4","last_reported":1692745578,"current_range_meters":32000,"station_id":"ce4bh0h2rcd13ifvqd50","pricing_plan_id":"free"},{"bike_id":"c75d85fe-d68a-452d-bd82-127de08d9463","system_id":"levelo_inurba_marseille","lat":43.28702,"lon":5.37389,"is_reserved":false,"is_disabled":false,"rental_uris":{"android":"levelo://app?vid=c75d85fe-d68a-452d-bd82-127de08d9463","ios":"levelo://app?vid=c75d85fe-d68a-452d-bd82-127de08d9463"},"vehicle_type_id":"4","last_reported":1692745578,"current_range_meters":31200,"station_id":"ce4bh3p2rcd13ifvqdq0","pricing_plan_id":"free"},{"bike_id":"309d57f9-9606-48e9-a108-ecb6e87e42b7","system_id":"levelo_inurba_marseille","lat":43.28701,"lon":5.37392,"is_reserved":false,"is_disabled":false,"rental_uris":{"android":"levelo://app?vid=309d57f9-9606-48e9-a108-ecb6e87e42b7","ios":"levelo://app?vid=309d57f9-9606-48e9-a108-ecb6e87e42b7"},"vehicle_type_id":"4","last_reported":1692745578,"current_range_meters":10800,"station_id":"ce4bh3p2rcd13ifvqdq0","pricing_plan_id":"free"},{"bike_id":"472f88e7-9b62-459e-a1d5-19c8b27e38d1","system_id":"levelo_inurba_marseille","lat":43.298681,"lon":5.397225,"is_reserved":false,"is_disabled":false,"rental_uris":{"android":"levelo://app?vid=472f88e7-9b62-459e-a1d5-19c8b27e38d1","ios":"levelo://app?vid=472f88e7-9b62-459e-a1d5-19c8b27e38d1"},"vehicle_type_id":"4","last_reported":1692745578,"current_range_meters":18400,"station_id":"ce4bh0h2rcd13ifvqd50","pricing_plan_id":"free"},{"bike_id":"9d1afcbd-229e-4e36-a248-1ed27bfb2843","system_id":"levelo_inurba_marseille","lat":43.298681,"lon":5.397225,"is_reserved":false,"is_disabled":false,"rental_uris":{"android":"levelo://app?vid=9d1afcbd-229e-4e36-a248-1ed27bfb2843","ios":"levelo://app?vid=9d1afcbd-229e-4e36-a248-1ed27bfb2843"},"vehicle_type_id":"4","last_reported":1692745578,"current_range_meters":31200,"station_id":"ce4bh0h2rcd13ifvqd50","pricing_plan_id":"free"},{"bike_id":"52a0d2dd-6ad3-4421-b684-3e504a3ea0be","system_id":"levelo_inurba_marseille","lat":43.28699,"lon":5.37401,"is_reserved":false,"is_disabled":false,"rental_uris":{"android":"levelo://app?vid=52a0d2dd-6ad3-4421-b684-3e504a3ea0be","ios":"levelo://app?vid=52a0d2dd-6ad3-4421-b684-3e504a3ea0be"},"vehicle_type_id":"4","last_reported":1692745578,"current_range_meters":14800,"station_id":"ce4bh3p2rcd13ifvqdq0","pricing_plan_id":"free"},{"bike_id":"4ad60e11-7b6a-4a3b-a20f-096241780652","system_id":"levelo_inurba_marseille","lat":43.28697,"lon":5.37388,"is_reserved":false,"is_disabled":false,"rental_uris":{"android":"levelo://app?vid=4ad60e11-7b6a-4a3b-a20f-096241780652","ios":"levelo://app?vid=4ad60e11-7b6a-4a3b-a20f-096241780652"},"vehicle_type_id":"4","last_reported":1692745578,"current_range_meters":18800,"station_id":"ce4bh3p2rcd13ifvqdq0","pricing_plan_id":"free"},{"bike_id":"3bfb968a-cdd9-4f69-82cb-1a3f469da5e1","system_id":"levelo_inurba_marseille","lat":43.295196,"lon":5.39397,"is_reserved":false,"is_disabled":false,"rental_uris":{"android":"levelo://app?vid=3bfb968a-cdd9-4f69-82cb-1a3f469da5e1","ios":"levelo://app?vid=3bfb968a-cdd9-4f69-82cb-1a3f469da5e1"},"vehicle_type_id":"4","last_reported":1692745578,"current_range_meters":31200,"station_id":"ce4bh292rcd13ifvqdf0","pricing_plan_id":"free"},{"bike_id":"ff106936-ee32-4631-8ba2-fbd4e32f7a1e","system_id":"levelo_inurba_marseille","lat":43.295196,"lon":5.39397,"is_reserved":false,"is_disabled":false,"rental_uris":{"android":"levelo://app?vid=ff106936-ee32-4631-8ba2-fbd4e32f7a1e","ios":"levelo://app?vid=ff106936-ee32-4631-8ba2-fbd4e32f7a1e"},"vehicle_type_id":"4","last_reported":1692745578,"current_range_meters":31200,"station_id":"ce4bh292rcd13ifvqdf0","pricing_plan_id":"free"},{"bike_id":"0c138b89-34cf-4024-b260-70003968fa99","system_id":"levelo_inurba_marseille","lat":43.29035,"lon":5.38638,"is_reserved":false,"is_disabled":false,"rental_uris":{"android":"levelo://app?vid=0c138b89-34cf-4024-b260-70003968fa99","ios":"levelo://app?vid=0c138b89-34cf-4024-b260-70003968fa99"},"vehicle_type_id":"4","last_reported":1692745578,"current_range_meters":31200,"station_id":"ce4bh4p2rcd13ifvqe0g","pricing_plan_id":"free"},{"bike_id":"cfdd8d35-240d-4950-8a10-615e85702af0","system_id":"levelo_inurba_marseille","lat":43.290345,"lon":5.38646,"is_reserved":false,"is_disabled":false,"rental_uris":{"android":"levelo://app?vid=cfdd8d35-240d-4950-8a10-615e85702af0","ios":"levelo://app?vid=cfdd8d35-240d-4950-8a10-615e85702af0"},"vehicle_type_id":"4","last_reported":1692745578,"current_range_meters":13600,"station_id":"ce4bh4p2rcd13ifvqe0g","pricing_plan_id":"free"},{"bike_id":"8e2ed3cb-021a-4a25-a871-32cdf893a48b","system_id":"levelo_inurba_marseille","lat":43.302759,"lon":5.400793,"is_reserved":false,"is_disabled":false,"rental_uris":{"android":"levelo://app?vid=8e2ed3cb-021a-4a25-a871-32cdf893a48b","ios":"levelo://app?vid=8e2ed3cb-021a-4a25-a871-32cdf893a48b"},"vehicle_type_id":"4","last_reported":1692745578,"current_range_meters":25600,"station_id":"ce4bgvh2rcd13ifvqcs0","pricing_plan_id":"free"},{"bike_id":"1e72b6ee-0c4e-4493-bae1-fd459d08d5c4","system_id":"levelo_inurba_marseille","lat":43.302759,"lon":5.400793,"is_reserved":false,"is_disabled":false,"rental_uris":{"android":"levelo://app?vid=1e72b6ee-0c4e-4493-bae1-fd459d08d5c4","ios":"levelo://app?vid=1e72b6ee-0c4e-4493-bae1-fd459d08d5c4"},"vehicle_type_id":"4","last_reported":1692745578,"current_range_meters":15600,"station_id":"ce4bgvh2rcd13ifvqcs0","pricing_plan_id":"free"},{"bike_id":"8a7f3226-e9f9-43f2-af1e-2e48de7f6ea3","system_id":"levelo_inurba_marseille","lat":43.302759,"lon":5.400793,"is_reserved":false,"is_disabled":false,"rental_uris":{"android":"levelo://app?vid=8a7f3226-e9f9-43f2-af1e-2e48de7f6ea3","ios":"levelo://app?vid=8a7f3226-e9f9-43f2-af1e-2e48de7f6ea3"},"vehicle_type_id":"4","last_reported":1692745578,"current_range_meters":20800,"station_id":"ce4bgvh2rcd13ifvqcs0","pricing_plan_id":"free"},{"bike_id":"099883d4-8345-480c-96bf-5e28e919ce78","system_id":"levelo_inurba_marseille","lat":43.28625,"lon":5.3603,"is_reserved":false,"is_disabled":false,"rental_uris":{"android":"levelo://app?vid=099883d4-8345-480c-96bf-5e28e919ce78","ios":"levelo://app?vid=099883d4-8345-480c-96bf-5e28e919ce78"},"vehicle_type_id":"4","last_reported":1692745578,"current_range_meters":26800,"station_id":"","pricing_plan_id":"free"},{"bike_id":"e477cffb-0eea-4dfe-ba76-73fd839c961e","system_id":"levelo_inurba_marseille","lat":43.287184,"lon":5.37937,"is_reserved":false,"is_disabled":false,"rental_uris":{"android":"levelo://app?vid=e477cffb-0eea-4dfe-ba76-73fd839c961e","ios":"levelo://app?vid=e477cffb-0eea-4dfe-ba76-73fd839c961e"},"vehicle_type_id":"4","last_reported":1692745578,"current_range_meters":4800,"station_id":"ce4bh9p2rcd13ifvqec0","pricing_plan_id":"free"},{"bike_id":"088d794c-cb74-4056-8bbf-a6b0698e36ff","system_id":"levelo_inurba_marseille","lat":43.287185,"lon":5.379373,"is_reserved":false,"is_disabled":false,"rental_uris":{"android":"levelo://app?vid=088d794c-cb74-4056-8bbf-a6b0698e36ff","ios":"levelo://app?vid=088d794c-cb74-4056-8bbf-a6b0698e36ff"},"vehicle_type_id":"4","last_reported":1692745578,"current_range_meters":3600,"station_id":"ce4bh9p2rcd13ifvqec0","pricing_plan_id":"free"},{"bike_id":"79ec9393-380d-4e79-80fb-4a9a5ec453b6","system_id":"levelo_inurba_marseille","lat":43.287184,"lon":5.37937,"is_reserved":false,"is_disabled":false,"rental_uris":{"android":"levelo://app?vid=79ec9393-380d-4e79-80fb-4a9a5ec453b6","ios":"levelo://app?vid=79ec9393-380d-4e79-80fb-4a9a5ec453b6"},"vehicle_type_id":"4","last_reported":1692745578,"current_range_meters":29200,"station_id":"ce4bh9p2rcd13ifvqec0","pricing_plan_id":"free"},{"bike_id":"0ac9b356-f8ed-49f1-9fef-9d51a62bc174","system_id":"levelo_inurba_marseille","lat":43.287185,"lon":5.379373,"is_reserved":false,"is_disabled":false,"rental_uris":{"android":"levelo://app?vid=0ac9b356-f8ed-49f1-9fef-9d51a62bc174","ios":"levelo://app?vid=0ac9b356-f8ed-49f1-9fef-9d51a62bc174"},"vehicle_type_id":"4","last_reported":1692745578,"current_range_meters":1200,"station_id":"ce4bh9p2rcd13ifvqec0","pricing_plan_id":"free"},{"bike_id":"7049156c-9978-42e6-918e-6cc133bfbb66","system_id":"levelo_inurba_marseille","lat":43.31653,"lon":5.40431,"is_reserved":false,"is_disabled":false,"rental_uris":{"android":"levelo://app?vid=7049156c-9978-42e6-918e-6cc133bfbb66","ios":"levelo://app?vid=7049156c-9978-42e6-918e-6cc133bfbb66"},"vehicle_type_id":"4","last_reported":1692745578,"current_range_meters":30800,"station_id":"ce4bh012rcd13ifvqd00","pricing_plan_id":"free"},{"bike_id":"e17d359d-53b1-47ed-afa4-4becc3e27188","system_id":"levelo_inurba_marseille","lat":43.316487,"lon":5.404337,"is_reserved":false,"is_disabled":false,"rental_uris":{"android":"levelo://app?vid=e17d359d-53b1-47ed-afa4-4becc3e27188","ios":"levelo://app?vid=e17d359d-53b1-47ed-afa4-4becc3e27188"},"vehicle_type_id":"4","last_reported":1692745578,"current_range_meters":24400,"station_id":"ce4bh012rcd13ifvqd00","pricing_plan_id":"free"},{"bike_id":"b62c084e-cebe-421d-b6eb-59a7083f4c4a","system_id":"levelo_inurba_marseille","lat":43.316485,"lon":5.404361,"is_reserved":false,"is_disabled":false,"rental_uris":{"android":"levelo://app?vid=b62c084e-cebe-421d-b6eb-59a7083f4c4a","ios":"levelo://app?vid=b62c084e-cebe-421d-b6eb-59a7083f4c4a"},"vehicle_type_id":"4","last_reported":1692745578,"current_range_meters":31200,"station_id":"ce4bh012rcd13ifvqd00","pricing_plan_id":"free"},{"bike_id":"7da9e437-1e79-4b5f-9ab0-65254ac17dd7","system_id":"levelo_inurba_marseille","lat":43.31647,"lon":5.4044,"is_reserved":false,"is_disabled":false,"rental_uris":{"android":"levelo://app?vid=7da9e437-1e79-4b5f-9ab0-65254ac17dd7","ios":"levelo://app?vid=7da9e437-1e79-4b5f-9ab0-65254ac17dd7"},"vehicle_type_id":"4","last_reported":1692745578,"current_range_meters":30000,"station_id":"ce4bh012rcd13ifvqd00","pricing_plan_id":"free"},{"bike_id":"01b66144-7187-4625-ac53-9d48e1aa8d4e","system_id":"levelo_inurba_marseille","lat":43.291994,"lon":5.392907,"is_reserved":false,"is_disabled":false,"rental_uris":{"android":"levelo://app?vid=01b66144-7187-4625-ac53-9d48e1aa8d4e","ios":"levelo://app?vid=01b66144-7187-4625-ac53-9d48e1aa8d4e"},"vehicle_type_id":"4","last_reported":1692745578,"current_range_meters":18800,"station_id":"ce4bh192rcd13ifvqdd0","pricing_plan_id":"free"},{"bike_id":"3d66ec41-28b7-42b3-a9c7-ca7a6886f78f","system_id":"levelo_inurba_marseille","lat":43.2921,"lon":5.39328,"is_reserved":false,"is_disabled":false,"rental_uris":{"android":"levelo://app?vid=3d66ec41-28b7-42b3-a9c7-ca7a6886f78f","ios":"levelo://app?vid=3d66ec41-28b7-42b3-a9c7-ca7a6886f78f"},"vehicle_type_id":"4","last_reported":1692745578,"current_range_meters":23200,"station_id":"ce4bh192rcd13ifvqdd0","pricing_plan_id":"free"},{"bike_id":"8a806012-e46f-4b56-b883-aaaa8d6d2d5c","system_id":"levelo_inurba_marseille","lat":43.291994,"lon":5.392907,"is_reserved":false,"is_disabled":false,"rental_uris":{"android":"levelo://app?vid=8a806012-e46f-4b56-b883-aaaa8d6d2d5c","ios":"levelo://app?vid=8a806012-e46f-4b56-b883-aaaa8d6d2d5c"},"vehicle_type_id":"4","last_reported":1692745578,"current_range_meters":21200,"station_id":"ce4bh192rcd13ifvqdd0","pricing_plan_id":"free"},{"bike_id":"d986246f-f5b5-46ff-9b88-5967a1896a36","system_id":"levelo_inurba_marseille","lat":43.291994,"lon":5.392907,"is_reserved":false,"is_disabled":false,"rental_uris":{"android":"levelo://app?vid=d986246f-f5b5-46ff-9b88-5967a1896a36","ios":"levelo://app?vid=d986246f-f5b5-46ff-9b88-5967a1896a36"},"vehicle_type_id":"4","last_reported":1692745578,"current_range_meters":12400,"station_id":"ce4bh192rcd13ifvqdd0","pricing_plan_id":"free"},{"bike_id":"feee1c25-f72b-480b-bf63-1ff7525c34d2","system_id":"levelo_inurba_marseille","lat":43.291994,"lon":5.392907,"is_reserved":false,"is_disabled":false,"rental_uris":{"android":"levelo://app?vid=feee1c25-f72b-480b-bf63-1ff7525c34d2","ios":"levelo://app?vid=feee1c25-f72b-480b-bf63-1ff7525c34d2"},"vehicle_type_id":"4","last_reported":1692745578,"current_range_meters":11200,"station_id":"ce4bh192rcd13ifvqdd0","pricing_plan_id":"free"},{"bike_id":"d3e2dd9e-6eef-4ec1-9d4a-e335465bed20","system_id":"levelo_inurba_marseille","lat":43.291994,"lon":5.392907,"is_reserved":false,"is_disabled":false,"rental_uris":{"android":"levelo://app?vid=d3e2dd9e-6eef-4ec1-9d4a-e335465bed20","ios":"levelo://app?vid=d3e2dd9e-6eef-4ec1-9d4a-e335465bed20"},"vehicle_type_id":"4","last_reported":1692745578,"current_range_meters":26000,"station_id":"ce4bh192rcd13ifvqdd0","pricing_plan_id":"free"},{"bike_id":"d60c2259-6a7e-413c-bbd4-f3e207914b61","system_id":"levelo_inurba_marseille","lat":43.28479,"lon":5.35883,"is_reserved":false,"is_disabled":false,"rental_uris":{"android":"levelo://app?vid=d60c2259-6a7e-413c-bbd4-f3e207914b61","ios":"levelo://app?vid=d60c2259-6a7e-413c-bbd4-f3e207914b61"},"vehicle_type_id":"4","last_reported":1692745578,"current_range_meters":28000,"station_id":"ce4bhah2rcd13ifvqei0","pricing_plan_id":"free"},{"bike_id":"b798add5-4b7d-4fc7-93c9-6d3af4af8a25","system_id":"levelo_inurba_marseille","lat":43.28474,"lon":5.35887,"is_reserved":false,"is_disabled":false,"rental_uris":{"android":"levelo://app?vid=b798add5-4b7d-4fc7-93c9-6d3af4af8a25","ios":"levelo://app?vid=b798add5-4b7d-4fc7-93c9-6d3af4af8a25"},"vehicle_type_id":"4","last_reported":1692745578,"current_range_meters":24800,"station_id":"ce4bhah2rcd13ifvqei0","pricing_plan_id":"free"},{"bike_id":"87884279-8250-4045-b23e-d8c3b5c08a61","system_id":"levelo_inurba_marseille","lat":43.28473,"lon":5.35891,"is_reserved":false,"is_disabled":false,"rental_uris":{"android":"levelo://app?vid=87884279-8250-4045-b23e-d8c3b5c08a61","ios":"levelo://app?vid=87884279-8250-4045-b23e-d8c3b5c08a61"},"vehicle_type_id":"4","last_reported":1692745578,"current_range_meters":10800,"station_id":"ce4bhah2rcd13ifvqei0","pricing_plan_id":"free"},{"bike_id":"4725f596-aeee-4695-bdae-9248c124375d","system_id":"levelo_inurba_marseille","lat":43.28474,"lon":5.35879,"is_reserved":false,"is_disabled":false,"rental_uris":{"android":"levelo://app?vid=4725f596-aeee-4695-bdae-9248c124375d","ios":"levelo://app?vid=4725f596-aeee-4695-bdae-9248c124375d"},"vehicle_type_id":"4","last_reported":1692745578,"current_range_meters":20400,"station_id":"ce4bhah2rcd13ifvqei0","pricing_plan_id":"free"},{"bike_id":"8222ed51-72c2-4c38-9639-e4dcf99287d2","system_id":"levelo_inurba_marseille","lat":43.28467,"lon":5.359,"is_reserved":false,"is_disabled":false,"rental_uris":{"android":"levelo://app?vid=8222ed51-72c2-4c38-9639-e4dcf99287d2","ios":"levelo://app?vid=8222ed51-72c2-4c38-9639-e4dcf99287d2"},"vehicle_type_id":"4","last_reported":1692745578,"current_range_meters":0,"station_id":"ce4bhah2rcd13ifvqei0","pricing_plan_id":"free"},{"bike_id":"e21155bd-4ab7-4af7-a707-04ecc8792e84","system_id":"levelo_inurba_marseille","lat":43.28465,"lon":5.35896,"is_reserved":false,"is_disabled":false,"rental_uris":{"android":"levelo://app?vid=e21155bd-4ab7-4af7-a707-04ecc8792e84","ios":"levelo://app?vid=e21155bd-4ab7-4af7-a707-04ecc8792e84"},"vehicle_type_id":"4","last_reported":1692745578,"current_range_meters":1600,"station_id":"ce4bhah2rcd13ifvqei0","pricing_plan_id":"free"},{"bike_id":"5cada237-7a44-42f8-9352-281a07fee3c5","system_id":"levelo_inurba_marseille","lat":43.28466,"lon":5.35889,"is_reserved":false,"is_disabled":false,"rental_uris":{"android":"levelo://app?vid=5cada237-7a44-42f8-9352-281a07fee3c5","ios":"levelo://app?vid=5cada237-7a44-42f8-9352-281a07fee3c5"},"vehicle_type_id":"4","last_reported":1692745578,"current_range_meters":5200,"station_id":"ce4bhah2rcd13ifvqei0","pricing_plan_id":"free"},{"bike_id":"867f1c4f-2b47-4f88-b67b-0c1e580b1fcd","system_id":"levelo_inurba_marseille","lat":43.294314,"lon":5.397498,"is_reserved":false,"is_disabled":false,"rental_uris":{"android":"levelo://app?vid=867f1c4f-2b47-4f88-b67b-0c1e580b1fcd","ios":"levelo://app?vid=867f1c4f-2b47-4f88-b67b-0c1e580b1fcd"},"vehicle_type_id":"4","last_reported":1692745578,"current_range_meters":2000,"station_id":"ce4bh3h2rcd13ifvqdo0","pricing_plan_id":"free"},{"bike_id":"ea3f588b-1f2b-4b01-a28e-c51d7d3c100e","system_id":"levelo_inurba_marseille","lat":43.294314,"lon":5.397498,"is_reserved":false,"is_disabled":false,"rental_uris":{"android":"levelo://app?vid=ea3f588b-1f2b-4b01-a28e-c51d7d3c100e","ios":"levelo://app?vid=ea3f588b-1f2b-4b01-a28e-c51d7d3c100e"},"vehicle_type_id":"4","last_reported":1692745578,"current_range_meters":15200,"station_id":"ce4bh3h2rcd13ifvqdo0","pricing_plan_id":"free"},{"bike_id":"35eec3a1-aa54-4990-8eb4-78e6c0dd24d0","system_id":"levelo_inurba_marseille","lat":43.2862,"lon":5.35102,"is_reserved":false,"is_disabled":false,"rental_uris":{"android":"levelo://app?vid=35eec3a1-aa54-4990-8eb4-78e6c0dd24d0","ios":"levelo://app?vid=35eec3a1-aa54-4990-8eb4-78e6c0dd24d0"},"vehicle_type_id":"4","last_reported":1692745578,"current_range_meters":16800,"station_id":"ce4bhch2rcd13ifvqeug","pricing_plan_id":"free"},{"bike_id":"4b5f6add-3906-416f-bf9d-ba476d2a5920","system_id":"levelo_inurba_marseille","lat":43.2842,"lon":5.37522,"is_reserved":false,"is_disabled":false,"rental_uris":{"android":"levelo://app?vid=4b5f6add-3906-416f-bf9d-ba476d2a5920","ios":"levelo://app?vid=4b5f6add-3906-416f-bf9d-ba476d2a5920"},"vehicle_type_id":"4","last_reported":1692745578,"current_range_meters":31200,"station_id":"ce4bh412rcd13ifvqds0","pricing_plan_id":"free"},{"bike_id":"2363d3b5-6c15-401a-a59c-ee80bd4af927","system_id":"levelo_inurba_marseille","lat":43.28415,"lon":5.37522,"is_reserved":false,"is_disabled":false,"rental_uris":{"android":"levelo://app?vid=2363d3b5-6c15-401a-a59c-ee80bd4af927","ios":"levelo://app?vid=2363d3b5-6c15-401a-a59c-ee80bd4af927"},"vehicle_type_id":"4","last_reported":1692745578,"current_range_meters":7600,"station_id":"ce4bh412rcd13ifvqds0","pricing_plan_id":"free"},{"bike_id":"62f80035-25ef-4602-a911-8df5a4432a1a","system_id":"levelo_inurba_marseille","lat":43.283998,"lon":5.375062,"is_reserved":false,"is_disabled":false,"rental_uris":{"android":"levelo://app?vid=62f80035-25ef-4602-a911-8df5a4432a1a","ios":"levelo://app?vid=62f80035-25ef-4602-a911-8df5a4432a1a"},