{"last_updated":1757765862,"ttl":60,"version":"2.2","data":{"bikes":[{"bike_id":"2f90fbdf-e2db-444f-928b-42e117670f18","system_id":"levelo_inurba_marseille","lat":43.337608,"lon":5.374358,"is_reserved":false,"is_disabled":false,"rental_uris":{"android":"levelo://app?vid=2f90fbdf-e2db-444f-928b-42e117670f18","ios":"levelo://app?vid=2f90fbdf-e2db-444f-928b-42e117670f18"},"vehicle_type_id":"4","last_reported":1757765862,"current_range_meters":2800,"station_id":"","pricing_plan_id":"cebpf4jnsgd1na2vs0mg"},{"bike_id":"6627b7c8-d245-498c-97ae-1bca49ecd6d9","system_id":"levelo_inurba_marseille","lat":43.32078,"lon":5.44776,"is_reserved":false,"is_disabled":false,"rental_uris":{"android":"levelo://app?vid=6627b7c8-d245-498c-97ae-1bca49ecd6d9","ios":"levelo://app?vid=6627b7c8-d245-498c-97ae-1bca49ecd6d9"},"vehicle_type_id":"4","last_reported":1757765862,"current_range_meters":2800,"station_id":"","pricing_plan_id":"cebpf4jnsgd1na2vs0mg"},{"bike_id":"97514a44-1f4d-4ae1-a270-04ca7b75c621","system_id":"levelo_inurba_marseille","lat":43.28857,"lon":5.42518,"is_reserved":false,"is_disabled":false,"rental_uris":{"android":"levelo://app?vid=97514a44-1f4d-4ae1-a270-04ca7b75c621","ios":"levelo://app?vid=97514a44-1f4d-4ae1-a270-04ca7b75c621"},"vehicle_type_id":"4","last_reported":1757765862,"current_range_meters":2800,"station_id":"","pricing_plan_id":"cebpf4jnsgd1na2vs0mg"},{"bike_id":"f8dd03ff-8a9c-4848-aefb-810ef143bea5","system_id":"levelo_inurba_marseille","lat":43.31991,"lon":5.38155,"is_reserved":false,"is_disabled":false,"rental_uris":{"android":"levelo://app?vid=f8dd03ff-8a9c-4848-aefb-810ef143bea5","ios":"levelo://app?vid=f8dd03ff-8a9c-4848-aefb-810ef143bea5"},"vehicle_type_id":"4","last_reported":1757765862,"current_range_meters":2800,"station_id":"ce4bhr12rcd13ifvqhpg","pricing_plan_id":"cebpf4jnsgd1na2vs0mg"},{"bike_id":"1c9a75b2-28c8-41ac-9da0-2b37d5b36dc2","system_id":"levelo_inurba_marseille","lat":43.30377,"lon":5.42483,"is_reserved":false,"is_disabled":false,"rental_uris":{"android":"levelo://app?vid=1c9a75b2-28c8-41ac-9da0-2b37d5b36dc2","ios":"levelo://app?vid=1c9a75b2-28c8-41ac-9da0-2b37d5b36dc2"},"vehicle_type_id":"4","last_reported":1757765862,"current_range_meters":3200,"station_id":"ce4bhoh2rcd13ifvqh6g","pricing_plan_id":"cebpf4jnsgd1na2vs0mg"},{"bike_id":"cd0b99f5-db14-4cd4-98df-f69aa48f9920","system_id":"levelo_inurba_marseille","lat":43.317,"lon":5.3775,"is_reserved":false,"is_disabled":false,"rental_uris":{"android":"levelo://app?vid=cd0b99f5-db14-4cd4-98df-f69aa48f9920","ios":"levelo://app?vid=cd0b99f5-db14-4cd4-98df-f69aa48f9920"},"vehicle_type_id":"4","last_reported":1757765862,"current_range_meters":2800,"station_id":"ce4bgth2rcd13ifvqch0","pricing_plan_id":"cebpf4jnsgd1na2vs0mg"},{"bike_id":"9ef26e0c-6f01-4b10-90fe-cec11146e852","system_id":"levelo_inurba_marseille","lat":43.31039,"lon":5.3729,"is_reserved":false,"is_disabled":false,"rental_uris":{"android":"levelo://app?vid=9ef26e0c-6f01-4b10-90fe-cec11146e852","ios":"levelo://app?vid=9ef26e0c-6f01-4b10-90fe-cec11146e852"},"vehicle_type_id":"4","last_reported":1757765862,"current_range_meters":3600,"station_id":"","pricing_plan_id":"cebpf4jnsgd1na2vs0mg"},{"bike_id":"37f838a9-21b1-443a-897e-fb0d51235f3b","system_id":"levelo_inurba_marseille","lat":43.27071,"lon":5.42276,"is_reserved":false,"is_disabled":false,"rental_uris":{"android":"levelo://app?vid=37f838a9-21b1-443a-897e-fb0d51235f3b","ios":"levelo://app?vid=37f838a9-21b1-443a-897e-fb0d51235f3b"},"vehicle_type_id":"4","last_reported":1757765862,"current_range_meters":3600,"station_id":"ce4bhk92rcd13ifvqgb0","pricing_plan_id":"cebpf4jnsgd1na2vs0mg"},{"bike_id":"738a1141-4bff-4bed-ab58-9f74036b33ab","system_id":"levelo_inurba_marseille","lat":43.29288,"lon":5.38744,"is_reserved":false,"is_disabled":false,"rental_uris":{"android":"levelo://app?vid=738a1141-4bff-4bed-ab58-9f74036b33ab","ios":"levelo://app?vid=738a1141-4bff-4bed-ab58-9f74036b33ab"},"vehicle_type_id":"4","last_reported":1757765862,"current_range_meters":4000,"station_id":"","pricing_plan_id":"cebpf4jnsgd1na2vs0mg"},{"bike_id":"f54274c6-0ecd-4812-8a10-f08e5e6a9621","system_id":"levelo_inurba_marseille","lat":43.288701,"lon":5.425309,"is_reserved":false,"is_disabled":false,"rental_uris":{"android":"levelo://app?vid=f54274c6-0ecd-4812-8a10-f08e5e6a9621","ios":"levelo://app?vid=f54274c6-0ecd-4812-8a10-f08e5e6a9621"},"vehicle_type_id":"4","last_reported":1757765862,"current_range_meters":4000,"station_id":"","pricing_plan_id":"cebpf4jnsgd1na2vs0mg"},{"bike_id":"54868907-63ea-40a5-8f3a-4ac6edb4c05c","system_id":"levelo_inurba_marseille","lat":43.291962,"lon":5.377762,"is_reserved":false,"is_disabled":false,"rental_uris":{"android":"levelo://app?vid=54868907-63ea-40a5-8f3a-4ac6edb4c05c","ios":"levelo://app?vid=54868907-63ea-40a5-8f3a-4ac6edb4c05c"},"vehicle_type_id":"4","last_reported":1757765862,"current_range_meters":4400,"station_id":"","pricing_plan_id":"cebpf4jnsgd1na2vs0mg"},{"bike_id":"79b01579-5b5c-4979-bd3f-994e72d50548","system_id":"levelo_inurba_marseille","lat":43.31341,"lon":5.36633,"is_reserved":false,"is_disabled":false,"rental_uris":{"android":"levelo://app?vid=79b01579-5b5c-4979-bd3f-994e72d50548","ios":"levelo://app?vid=79b01579-5b5c-4979-bd3f-994e72d50548"},"vehicle_type_id":"4","last_reported":1757765862,"current_range_meters":4800,"station_id":"","pricing_plan_id":"cebpf4jnsgd1na2vs0mg"},{"bike_id":"0c4186a8-f9cb-455d-aef2-e801dee3e9c4","system_id":"levelo_inurba_marseille","lat":43.28071,"lon":5.39644,"is_reserved":false,"is_disabled":false,"rental_uris":{"android":"levelo://app?vid=0c4186a8-f9cb-455d-aef2-e801dee3e9c4","ios":"levelo://app?vid=0c4186a8-f9cb-455d-aef2-e801dee3e9c4"},"vehicle_type_id":"4","last_reported":1757765862,"current_range_meters":5600,"station_id":"ce4bho12rcd13ifvqh2g","pricing_plan_id":"cebpf4jnsgd1na2vs0mg"},{"bike_id":"8e823669-a05c-4f14-a05f-6373bb94f16b","system_id":"levelo_inurba_marseille","lat":43.307288,"lon":5.372792,"is_reserved":false,"is_disabled":false,"rental_uris":{"android":"levelo://app?vid=8e823669-a05c-4f14-a05f-6373bb94f16b","ios":"levelo://app?vid=8e823669-a05c-4f14-a05f-6373bb94f16b"},"vehicle_type_id":"4","last_reported":1757765862,"current_range_meters":5600,"station_id":"","pricing_plan_id":"cebpf4jnsgd1na2vs0mg"},{"bike_id":"fe8d88d6-81c3-42a8-85bb-3d0aa4841db3","system_id":"levelo_inurba_marseille","lat":43.337444,"lon":5.374475,"is_reserved":false,"is_disabled":false,"rental_uris":{"android":"levelo://app?vid=fe8d88d6-81c3-42a8-85bb-3d0aa4841db3","ios":"levelo://app?vid=fe8d88d6-81c3-42a8-85bb-3d0aa4841db3"},"vehicle_type_id":"4","last_reported":1757765862,"current_range_meters":5600,"station_id":"","pricing_plan_id":"cebpf4jnsgd1na2vs0mg"},{"bike_id":"d1de2b7d-3583-4df3-8bfa-43eda5116068","system_id":"levelo_inurba_marseille","lat":43.3374,"lon":5.37468,"is_reserved":false,"is_disabled":false,"rental_uris":{"android":"levelo://app?vid=d1de2b7d-3583-4df3-8bfa-43eda5116068","ios":"levelo://app?vid=d1de2b7d-3583-4df3-8bfa-43eda5116068"},"vehicle_type_id":"4","last_reported":1757765862,"current_range_meters":5600,"station_id":"","pricing_plan_id":"cebpf4jnsgd1na2vs0mg"},{"bike_id":"d1208639-5703-4ac3-a303-6e72a5788218","system_id":"levelo_inurba_marseille","lat":43.33753,"lon":5.37475,"is_reserved":false,"is_disabled":false,"rental_uris":{"android":"levelo://app?vid=d1208639-5703-4ac3-a303-6e72a5788218","ios":"levelo://app?vid=d1208639-5703-4ac3-a303-6e72a5788218"},"vehicle_type_id":"4","last_reported":1757765862,"current_range_meters":5600,"station_id":"","pricing_plan_id":"cebpf4jnsgd1na2vs0mg"},{"bike_id":"999df056-799c-417e-807e-52608d0b797e","system_id":"levelo_inurba_marseille","lat":43.297101,"lon":5.377007,"is_reserved":false,"is_disabled":false,"rental_uris":{"android":"levelo://app?vid=999df056-799c-417e-807e-52608d0b797e","ios":"levelo://app?vid=999df056-799c-417e-807e-52608d0b797e"},"vehicle_type_id":"4","last_reported":1757765862,"current_range_meters":6000,"station_id":"","pricing_plan_id":"cebpf4jnsgd1na2vs0mg"},{"bike_id":"f7a1be25-520a-4d91-aef2-3c85377c16d2","system_id":"levelo_inurba_marseille","lat":43.29859,"lon":5.36254,"is_reserved":false,"is_disabled":false,"rental_uris":{"android":"levelo://app?vid=f7a1be25-520a-4d91-aef2-3c85377c16d2","ios":"levelo://app?vid=f7a1be25-520a-4d91-aef2-3c85377c16d2"},"vehicle_type_id":"4","last_reported":1757765862,"current_range_meters":6000,"station_id":"ce4bgpp2rcd13ifvqc3g","pricing_plan_id":"cebpf4jnsgd1na2vs0mg"},{"bike_id":"135c00b1-e08d-44a8-8656-2058689caf15","system_id":"levelo_inurba_marseille","lat":43.30422,"lon":5.39734,"is_reserved":false,"is_disabled":false,"rental_uris":{"android":"levelo://app?vid=135c00b1-e08d-44a8-8656-2058689caf15","ios":"levelo://app?vid=135c00b1-e08d-44a8-8656-2058689caf15"},"vehicle_type_id":"4","last_reported":1757765862,"current_range_meters":6000,"station_id":"ce4bh092rcd13ifvqd20","pricing_plan_id":"cebpf4jnsgd1na2vs0mg"},{"bike_id":"aba50297-38d4-4a44-a076-0d98b35b3110","system_id":"levelo_inurba_marseille","lat":43.2534,"lon":5.42176,"is_reserved":false,"is_disabled":false,"rental_uris":{"android":"levelo://app?vid=aba50297-38d4-4a44-a076-0d98b35b3110","ios":"levelo://app?vid=aba50297-38d4-4a44-a076-0d98b35b3110"},"vehicle_type_id":"4","last_reported":1757765862,"current_range_meters":6400,"station_id":"st_d2m65c5bi1j21697t3ng","pricing_plan_id":"cebpf4jnsgd1na2vs0mg"},{"bike_id":"38416aa0-c90c-427b-adec-ef79847b3abf","system_id":"levelo_inurba_marseille","lat":43.28409,"lon":5.3751,"is_reserved":false,"is_disabled":false,"rental_uris":{"android":"levelo://app?vid=38416aa0-c90c-427b-adec-ef79847b3abf","ios":"levelo://app?vid=38416aa0-c90c-427b-adec-ef79847b3abf"},"vehicle_type_id":"4","last_reported":1757765862,"current_range_meters":6400,"station_id":"ce4bh412rcd13ifvqds0","pricing_plan_id":"cebpf4jnsgd1na2vs0mg"},{"bike_id":"40c09f86-bf36-4377-9314-ae8b412e80ab","system_id":"levelo_inurba_marseille","lat":43.29534,"lon":5.3854,"is_reserved":false,"is_disabled":false,"rental_uris":{"android":"levelo://app?vid=40c09f86-bf36-4377-9314-ae8b412e80ab","ios":"levelo://app?vid=40c09f86-bf36-4377-9314-ae8b412e80ab"},"vehicle_type_id":"4","last_reported":1757765862,"current_range_meters":6400,"station_id":"ce4bgih2rcd13ifvqba0","pricing_plan_id":"cebpf4jnsgd1na2vs0mg"},{"bike_id":"966fccfb-edf5-45b0-8efd-ce67125d4a08","system_id":"levelo_inurba_marseille","lat":43.30038,"lon":5.37834,"is_reserved":false,"is_disabled":false,"rental_uris":{"android":"levelo://app?vid=966fccfb-edf5-45b0-8efd-ce67125d4a08","ios":"levelo://app?vid=966fccfb-edf5-45b0-8efd-ce67125d4a08"},"vehicle_type_id":"4","last_reported":1757765862,"current_range_meters":6800,"station_id":"","pricing_plan_id":"cebpf4jnsgd1na2vs0mg"},{"bike_id":"3970e572-099d-45ee-bf41-4fc242e0f0e4","system_id":"levelo_inurba_marseille","lat":43.30429,"lon":5.41271,"is_reserved":false,"is_disabled":false,"rental_uris":{"android":"levelo://app?vid=3970e572-099d-45ee-bf41-4fc242e0f0e4","ios":"levelo://app?vid=3970e572-099d-45ee-bf41-4fc242e0f0e4"},"vehicle_type_id":"4","last_reported":1757765862,"current_range_meters":6800,"station_id":"ce4bhop2rcd13ifvqh8g","pricing_plan_id":"cebpf4jnsgd1na2vs0mg"},{"bike_id":"7db384a7-4267-4cd8-b9e7-7ca132b3d121","system_id":"levelo_inurba_marseille","lat":43.33885,"lon":5.3555,"is_reserved":false,"is_disabled":false,"rental_uris":{"android":"levelo://app?vid=7db384a7-4267-4cd8-b9e7-7ca132b3d121","ios":"levelo://app?vid=7db384a7-4267-4cd8-b9e7-7ca132b3d121"},"vehicle_type_id":"4","last_reported":1757765862,"current_range_meters":6800,"station_id":"","pricing_plan_id":"cebpf4jnsgd1na2vs0mg"},{"bike_id":"6ae06066-efb9-403e-a9fd-31ac23689760","system_id":"levelo_inurba_marseille","lat":43.29977,"lon":5.38494,"is_reserved":false,"is_disabled":false,"rental_uris":{"android":"levelo://app?vid=6ae06066-efb9-403e-a9fd-31ac23689760","ios":"levelo://app?vid=6ae06066-efb9-403e-a9fd-31ac23689760"},"vehicle_type_id":"4","last_reported":1757765862,"current_range_meters":7200,"station_id":"ce4bgj92rcd13ifvqbd0","pricing_plan_id":"cebpf4jnsgd1na2vs0mg"},{"bike_id":"ac568d9b-aa32-4551-90e7-9697d0dfd168","system_id":"levelo_inurba_marseille","lat":43.32362,"lon":5.36763,"is_reserved":false,"is_disabled":false,"rental_uris":{"android":"levelo://app?vid=ac568d9b-aa32-4551-90e7-9697d0dfd168","ios":"levelo://app?vid=ac568d9b-aa32-4551-90e7-9697d0dfd168"},"vehicle_type_id":"4","last_reported":1757765862,"current_range_meters":7200,"station_id":"ce4bhsh2rcd13ifvqi2g","pricing_plan_id":"cebpf4jnsgd1na2vs0mg"},{"bike_id":"76804725-d5fe-43f4-98b3-d808659e4857","system_id":"levelo_inurba_marseille","lat":43.29592,"lon":5.37742,"is_reserved":false,"is_disabled":false,"rental_uris":{"android":"levelo://app?vid=76804725-d5fe-43f4-98b3-d808659e4857","ios":"levelo://app?vid=76804725-d5fe-43f4-98b3-d808659e4857"},"vehicle_type_id":"4","last_reported":1757765862,"current_range_meters":7200,"station_id":"ce4bgi92rcd13ifvqb90","pricing_plan_id":"cebpf4jnsgd1na2vs0mg"},{"bike_id":"af936fc5-9129-4ff8-b9ba-743f3624d738","system_id":"levelo_inurba_marseille","lat":43.26557,"lon":5.37282,"is_reserved":false,"is_disabled":false,"rental_uris":{"android":"levelo://app?vid=af936fc5-9129-4ff8-b9ba-743f3624d738","ios":"levelo://app?vid=af936fc5-9129-4ff8-b9ba-743f3624d738"},"vehicle_type_id":"4","last_reported":1757765862,"current_range_meters":7200,"station_id":"ce4bhg12rcd13ifvqf70","pricing_plan_id":"cebpf4jnsgd1na2vs0mg"},{"bike_id":"799195ec-b884-46fa-8e8e-94f3a290a369","system_id":"levelo_inurba_marseille","lat":43.30891,"lon":5.39616,"is_reserved":false,"is_disabled":false,"rental_uris":{"android":"levelo://app?vid=799195ec-b884-46fa-8e8e-94f3a290a369","ios":"levelo://app?vid=799195ec-b884-46fa-8e8e-94f3a290a369"},"vehicle_type_id":"4","last_reported":1757765862,"current_range_meters":8000,"station_id":"ce4bh012rcd13ifvqcv0","pricing_plan_id":"cebpf4jnsgd1na2vs0mg"},{"bike_id":"3c9565d8-5227-4327-8d3a-6c7423bf6fb9","system_id":"levelo_inurba_marseille","lat":43.28419,"lon":5.37511,"is_reserved":false,"is_disabled":false,"rental_uris":{"android":"levelo://app?vid=3c9565d8-5227-4327-8d3a-6c7423bf6fb9","ios":"levelo://app?vid=3c9565d8-5227-4327-8d3a-6c7423bf6fb9"},"vehicle_type_id":"4","last_reported":1757765862,"current_range_meters":8000,"station_id":"ce4bh412rcd13ifvqds0","pricing_plan_id":"cebpf4jnsgd1na2vs0mg"},{"bike_id":"50d72327-2fc4-4a76-a019-e713cb1730b2","system_id":"levelo_inurba_marseille","lat":43.28462,"lon":5.35882,"is_reserved":false,"is_disabled":false,"rental_uris":{"android":"levelo://app?vid=50d72327-2fc4-4a76-a019-e713cb1730b2","ios":"levelo://app?vid=50d72327-2fc4-4a76-a019-e713cb1730b2"},"vehicle_type_id":"4","last_reported":1757765862,"current_range_meters":8400,"station_id":"ce4bhah2rcd13ifvqei0","pricing_plan_id":"cebpf4jnsgd1na2vs0mg"},{"bike_id":"68422fda-945c-402d-b886-a4fecef0c346","system_id":"levelo_inurba_marseille","lat":43.291716,"lon":5.37143,"is_reserved":false,"is_disabled":true,"rental_uris":{"android":"levelo://app?vid=68422fda-945c-402d-b886-a4fecef0c346","ios":"levelo://app?vid=68422fda-945c-402d-b886-a4fecef0c346"},"vehicle_type_id":"4","last_reported":1757765862,"current_range_meters":8400,"station_id":"ce4bha92rcd13ifvqeh0","pricing_plan_id":"cebpf4jnsgd1na2vs0mg"},{"bike_id":"7fa34ec0-a293-418f-bfd5-6e8a3d326e13","system_id":"levelo_inurba_marseille","lat":43.31019,"lon":5.37528,"is_reserved":false,"is_disabled":false,"rental_uris":{"android":"levelo://app?vid=7fa34ec0-a293-418f-bfd5-6e8a3d326e13","ios":"levelo://app?vid=7fa34ec0-a293-418f-bfd5-6e8a3d326e13"},"vehicle_type_id":"4","last_reported":1757765862,"current_range_meters":8400,"station_id":"","pricing_plan_id":"cebpf4jnsgd1na2vs0mg"},{"bike_id":"3bd595b7-af3b-43b1-8697-1bcb2a61af6f","system_id":"levelo_inurba_marseille","lat":43.2797,"lon":5.40043,"is_reserved":false,"is_disabled":true,"rental_uris":{"android":"levelo://app?vid=3bd595b7-af3b-43b1-8697-1bcb2a61af6f","ios":"levelo://app?vid=3bd595b7-af3b-43b1-8697-1bcb2a61af6f"},"vehicle_type_id":"4","last_reported":1757765862,"current_range_meters":8800,"station_id":"ce4bho92rcd13ifvqh4g","pricing_plan_id":"cebpf4jnsgd1na2vs0mg"},{"bike_id":"8d156254-22bc-4e70-b344-be1b38d6ced7","system_id":"levelo_inurba_marseille","lat":43.313256,"lon":5.397102,"is_reserved":false,"is_disabled":false,"rental_uris":{"android":"levelo://app?vid=8d156254-22bc-4e70-b344-be1b38d6ced7","ios":"levelo://app?vid=8d156254-22bc-4e70-b344-be1b38d6ced7"},"vehicle_type_id":"4","last_reported":1757765862,"current_range_meters":8800,"station_id":"ce4bgvp2rcd13ifvqcu0","pricing_plan_id":"cebpf4jnsgd1na2vs0mg"},{"bike_id":"0e0c8dec-1a42-46dd-bb35-7088192ded70","system_id":"levelo_inurba_marseille","lat":43.29746,"lon":5.37166,"is_reserved":false,"is_disabled":false,"rental_uris":{"android":"levelo://app?vid=0e0c8dec-1a42-46dd-bb35-7088192ded70","ios":"levelo://app?vid=0e0c8dec-1a42-46dd-bb35-7088192ded70"},"vehicle_type_id":"4","last_reported":1757765862,"current_range_meters":9200,"station_id":"","pricing_plan_id":"cebpf4jnsgd1na2vs0mg"},{"bike_id":"cb67bf6a-4a4c-4e18-962f-d3d3775352e4","system_id":"levelo_inurba_marseille","lat":43.23178,"lon":5.39989,"is_reserved":false,"is_disabled":false,"rental_uris":{"android":"levelo://app?vid=cb67bf6a-4a4c-4e18-962f-d3d3775352e4","ios":"levelo://app?vid=cb67bf6a-4a4c-4e18-962f-d3d3775352e4"},"vehicle_type_id":"4","last_reported":1757765862,"current_range_meters":9200,"station_id":"ce4bhn12rcd13ifvqgqg","pricing_plan_id":"cebpf4jnsgd1na2vs0mg"},{"bike_id":"feac4389-0369-4490-b333-e8de02c0ef54","system_id":"levelo_inurba_marseille","lat":43.26685,"lon":5.38276,"is_reserved":false,"is_disabled":true,"rental_uris":{"android":"levelo://app?vid=feac4389-0369-4490-b333-e8de02c0ef54","ios":"levelo://app?vid=feac4389-0369-4490-b333-e8de02c0ef54"},"vehicle_type_id":"4","last_reported":1757765862,"current_range_meters":9200,"station_id":"ce4bhg92rcd13ifvqf90","pricing_plan_id":"cebpf4jnsgd1na2vs0mg"},{"bike_id":"972b4c5f-3a00-4bb2-9116-b81f2cecc9f2","system_id":"levelo_inurba_marseille","lat":43.33764,"lon":5.37483,"is_reserved":false,"is_disabled":false,"rental_uris":{"android":"levelo://app?vid=972b4c5f-3a00-4bb2-9116-b81f2cecc9f2","ios":"levelo://app?vid=972b4c5f-3a00-4bb2-9116-b81f2cecc9f2"},"vehicle_type_id":"4","last_reported":1757765862,"current_range_meters":9200,"station_id":"","pricing_plan_id":"cebpf4jnsgd1na2vs0mg"},{"bike_id":"0f646e1b-1523-4646-9814-cb68b8738000","system_id":"levelo_inurba_marseille","lat":43.29,"lon":5.3561,"is_reserved":false,"is_disabled":false,"rental_uris":{"android":"levelo://app?vid=0f646e1b-1523-4646-9814-cb68b8738000","ios":"levelo://app?vid=0f646e1b-1523-4646-9814-cb68b8738000"},"vehicle_type_id":"4","last_reported":1757765862,"current_range_meters":9600,"station_id":"ce4bhb92rcd13ifvqen0","pricing_plan_id":"cebpf4jnsgd1na2vs0mg"},{"bike_id":"9f42d920-70ef-40f5-8a56-79f71c89e389","system_id":"levelo_inurba_marseille","lat":43.30417,"lon":5.4128,"is_reserved":false,"is_disabled":false,"rental_uris":{"android":"levelo://app?vid=9f42d920-70ef-40f5-8a56-79f71c89e389","ios":"levelo://app?vid=9f42d920-70ef-40f5-8a56-79f71c89e389"},"vehicle_type_id":"4","last_reported":1757765862,"current_range_meters":9600,"station_id":"ce4bhop2rcd13ifvqh8g","pricing_plan_id":"cebpf4jnsgd1na2vs0mg"},{"bike_id":"e313b345-ef08-4d16-85af-9ecb95c2b843","system_id":"levelo_inurba_marseille","lat":43.30595,"lon":5.37113,"is_reserved":false,"is_disabled":false,"rental_uris":{"android":"levelo://app?vid=e313b345-ef08-4d16-85af-9ecb95c2b843","ios":"levelo://app?vid=e313b345-ef08-4d16-85af-9ecb95c2b843"},"vehicle_type_id":"4","last_reported":1757765862,"current_range_meters":9600,"station_id":"","pricing_plan_id":"cebpf4jnsgd1na2vs0mg"},{"bike_id":"77b57dc5-f794-46f4-9c91-8e8ab46ed954","system_id":"levelo_inurba_marseille","lat":43.26782,"lon":5.394339,"is_reserved":false,"is_disabled":false,"rental_uris":{"android":"levelo://app?vid=77b57dc5-f794-46f4-9c91-8e8ab46ed954","ios":"levelo://app?vid=77b57dc5-f794-46f4-9c91-8e8ab46ed954"},"vehicle_type_id":"4","last_reported":1757765862,"current_range_meters":9600,"station_id":"ce4bhh12rcd13ifvqfg0","pricing_plan_id":"cebpf4jnsgd1na2vs0mg"},{"bike_id":"fccd9a7f-533f-48df-9541-16d8c118310a","system_id":"levelo_inurba_marseille","lat":43.306401,"lon":5.400993,"is_reserved":false,"is_disabled":false,"rental_uris":{"android":"levelo://app?vid=fccd9a7f-533f-48df-9541-16d8c118310a","ios":"levelo://app?vid=fccd9a7f-533f-48df-9541-16d8c118310a"},"vehicle_type_id":"4","last_reported":1757765862,"current_range_meters":10000,"station_id":"ce4bh112rcd13ifvqda0","pricing_plan_id":"cebpf4jnsgd1na2vs0mg"},{"bike_id":"ca3ba902-6508-4d36-afba-d374691aee07","system_id":"levelo_inurba_marseille","lat":43.29562,"lon":5.37513,"is_reserved":false,"is_disabled":false,"rental_uris":{"android":"levelo://app?vid=ca3ba902-6508-4d36-afba-d374691aee07","ios":"levelo://app?vid=ca3ba902-6508-4d36-afba-d374691aee07"},"vehicle_type_id":"4","last_reported":1757765862,"current_range_meters":10000,"station_id":"ce4bgh92rcd13ifvqb50","pricing_plan_id":"cebpf4jnsgd1na2vs0mg"},{"bike_id":"6039a43d-3821-4ee5-9466-3cf29e5b6bdf","system_id":"levelo_inurba_marseille","lat":43.30631,"lon":5.40084,"is_reserved":false,"is_disabled":false,"rental_uris":{"android":"levelo://app?vid=6039a43d-3821-4ee5-9466-3cf29e5b6bdf","ios":"levelo://app?vid=6039a43d-3821-4ee5-9466-3cf29e5b6bdf"},"vehicle_type_id":"4","last_reported":1757765862,"current_range_meters":10000,"station_id":"ce4bh112rcd13ifvqda0","pricing_plan_id":"cebpf4jnsgd1na2vs0mg"},{"bike_id":"6a0d6c93-e641-4f2e-badf-3cf3fdf9781a","system_id":"levelo_inurba_marseille","lat":43.28616,"lon":5.35094,"is_reserved":false,"is_disabled":false,"rental_uris":{"android":"levelo://app?vid=6a0d6c93-e641-4f2e-badf-3cf3fdf9781a","ios":"levelo://app?vid=6a0d6c93-e641-4f2e-badf-3cf3fdf9781a"},"vehicle_type_id":"4","last_reported":1757765862,"current_range_meters":10800,"station_id":"ce4bhch2rcd13ifvqeug","pricing_plan_id":"cebpf4jnsgd1na2vs0mg"},{"bike_id":"775af279-8ac9-4585-9121-809be9b13265","system_id":"levelo_inurba_marseille","lat":43.337775,"lon":5.374412,"is_reserved":false,"is_disabled":false,"rental_uris":{"android":"levelo://app?vid=775af279-8ac9-4585-9121-809be9b13265","ios":"levelo://app?vid=775af279-8ac9-4585-9121-809be9b13265"},"vehicle_type_id":"4","last_reported":1757765862,"current_range_meters":10800,"station_id":"","pricing_plan_id":"cebpf4jnsgd1na2vs0mg"},{"bike_id":"f24cd637-2a13-4120-b81f-882de2ef79b6","system_id":"levelo_inurba_marseille","lat":43.30928,"lon":5.40142,"is_reserved":false,"is_disabled":false,"rental_uris":{"android":"levelo://app?vid=f24cd637-2a13-4120-b81f-882de2ef79b6","ios":"levelo://app?vid=f24cd637-2a13-4120-b81f-882de2ef79b6"},"vehicle_type_id":"4","last_reported":1757765862,"current_range_meters":10800,"station_id":"ce4bgvp2rcd13ifvqct0","pricing_plan_id":"cebpf4jnsgd1na2vs0mg"},{"bike_id":"4266b374-d4bf-4fd2-bb94-51b2d7d40946","system_id":"levelo_inurba_marseille","lat":43.225678,"lon":5.416258,"is_reserved":false,"is_disabled":false,"rental_uris":{"android":"levelo://app?vid=4266b374-d4bf-4fd2-bb94-51b2d7d40946","ios":"levelo://app?vid=4266b374-d4bf-4fd2-bb94-51b2d7d40946"},"vehicle_type_id":"4","last_reported":1757765862,"current_range_meters":10800,"station_id":"st_d2o4gvlbi1j2169b742g","pricing_plan_id":"cebpf4jnsgd1na2vs0mg"},{"bike_id":"1f5337e1-0da6-4170-9317-908b45981a29","system_id":"levelo_inurba_marseille","lat":43.23106,"lon":5.40484,"is_reserved":false,"is_disabled":false,"rental_uris":{"android":"levelo://app?vid=1f5337e1-0da6-4170-9317-908b45981a29","ios":"levelo://app?vid=1f5337e1-0da6-4170-9317-908b45981a29"},"vehicle_type_id":"4","last_reported":1757765862,"current_range_meters":10800,"station_id":"","pricing_plan_id":"cebpf4jnsgd1na2vs0mg"},{"bike_id":"89724e0f-d6a6-4e81-9dc8-40ed9db09b04","system_id":"levelo_inurba_marseille","lat":43.28608,"lon":5.37073,"is_reserved":false,"is_disabled":false,"rental_uris":{"android":"levelo://app?vid=89724e0f-d6a6-4e81-9dc8-40ed9db09b04","ios":"levelo://app?vid=89724e0f-d6a6-4e81-9dc8-40ed9db09b04"},"vehicle_type_id":"4","last_reported":1757765862,"current_range_meters":10800,"station_id":"ce4bht12rcd13ifvqi60","pricing_plan_id":"cebpf4jnsgd1na2vs0mg"},{"bike_id":"a24c4696-920b-4645-847f-87e0b46915a6","system_id":"levelo_inurba_marseille","lat":43.324295,"lon":5.424898,"is_reserved":false,"is_disabled":false,"rental_uris":{"android":"levelo://app?vid=a24c4696-920b-4645-847f-87e0b46915a6","ios":"levelo://app?vid=a24c4696-920b-4645-847f-87e0b46915a6"},"vehicle_type_id":"4","last_reported":1757765862,"current_range_meters":11600,"station_id":"","pricing_plan_id":"cebpf4jnsgd1na2vs0mg"},{"bike_id":"be07ffe5-57f9-4949-a93d-285025a94daf","system_id":"levelo_inurba_marseille","lat":43.30714,"lon":5.42447,"is_reserved":false,"is_disabled":false,"rental_uris":{"android":"levelo://app?vid=be07ffe5-57f9-4949-a93d-285025a94daf","ios":"levelo://app?vid=be07ffe5-57f9-4949-a93d-285025a94daf"},"vehicle_type_id":"4","last_reported":1757765862,"current_range_meters":11600,"station_id":"st_cvj6ca6bvosntc0bfgr0","pricing_plan_id":"cebpf4jnsgd1na2vs0mg"},{"bike_id":"6515536f-56de-4109-b7a1-24c742aed225","system_id":"levelo_inurba_marseille","lat":43.32014,"lon":5.37227,"is_reserved":false,"is_disabled":false,"rental_uris":{"android":"levelo://app?vid=6515536f-56de-4109-b7a1-24c742aed225","ios":"levelo://app?vid=6515536f-56de-4109-b7a1-24c742aed225"},"vehicle_type_id":"4","last_reported":1757765862,"current_range_meters":11600,"station_id":"","pricing_plan_id":"cebpf4jnsgd1na2vs0mg"},{"bike_id":"468b29b7-c0e4-4fb5-98d3-7139e8424f60","system_id":"levelo_inurba_marseille","lat":43.3211,"lon":5.36762,"is_reserved":false,"is_disabled":false,"rental_uris":{"android":"levelo://app?vid=468b29b7-c0e4-4fb5-98d3-7139e8424f60","ios":"levelo://app?vid=468b29b7-c0e4-4fb5-98d3-7139e8424f60"},"vehicle_type_id":"4","last_reported":1757765862,"current_range_meters":11600,"station_id":"ce4bhrh2rcd13ifvqhug","pricing_plan_id":"cebpf4jnsgd1na2vs0mg"},{"bike_id":"9fdce098-492a-40f9-ae29-95caf53fef79","system_id":"levelo_inurba_marseille","lat":43.32696,"lon":5.39162,"is_reserved":false,"is_disabled":false,"rental_uris":{"android":"levelo://app?vid=9fdce098-492a-40f9-ae29-95caf53fef79","ios":"levelo://app?vid=9fdce098-492a-40f9-ae29-95caf53fef79"},"vehicle_type_id":"4","last_reported":1757765862,"current_range_meters":11600,"station_id":"","pricing_plan_id":"cebpf4jnsgd1na2vs0mg"},{"bike_id":"8c341a59-9341-4902-8748-fc2da2fa88eb","system_id":"levelo_inurba_marseille","lat":43.28488,"lon":5.38408,"is_reserved":false,"is_disabled":false,"rental_uris":{"android":"levelo://app?vid=8c341a59-9341-4902-8748-fc2da2fa88eb","ios":"levelo://app?vid=8c341a59-9341-4902-8748-fc2da2fa88eb"},"vehicle_type_id":"4","last_reported":1757765862,"current_range_meters":11600,"station_id":"ce4bh512rcd13ifvqe3g","pricing_plan_id":"cebpf4jnsgd1na2vs0mg"},{"bike_id":"afa5b270-1b82-4b90-8fe4-7ae439ce006b","system_id":"levelo_inurba_marseille","lat":43.27982,"lon":5.41648,"is_reserved":false,"is_disabled":false,"rental_uris":{"android":"levelo://app?vid=afa5b270-1b82-4b90-8fe4-7ae439ce006b","ios":"levelo://app?vid=afa5b270-1b82-4b90-8fe4-7ae439ce006b"},"vehicle_type_id":"4","last_reported":1757765862,"current_range_meters":11600,"station_id":"ce4bho12rcd13ifvqh1g","pricing_plan_id":"cebpf4jnsgd1na2vs0mg"},{"bike_id":"7f696ba1-833f-412e-8b5d-d4d815a574fc","system_id":"levelo_inurba_marseille","lat":43.298329,"lon":5.371519,"is_reserved":false,"is_disabled":false,"rental_uris":{"android":"levelo://app?vid=7f696ba1-833f-412e-8b5d-d4d815a574fc","ios":"levelo://app?vid=7f696ba1-833f-412e-8b5d-d4d815a574fc"},"vehicle_type_id":"4","last_reported":1757765862,"current_range_meters":11600,"station_id":"","pricing_plan_id":"cebpf4jnsgd1na2vs0mg"},{"bike_id":"cd046c66-10dd-47ca-b6ca-fdeb63c8d266","system_id":"levelo_inurba_marseille","lat":43.24073,"lon":5.37758,"is_reserved":false,"is_disabled":false,"rental_uris":{"android":"levelo://app?vid=cd046c66-10dd-47ca-b6ca-fdeb63c8d266","ios":"levelo://app?vid=cd046c66-10dd-47ca-b6ca-fdeb63c8d266"},"vehicle_type_id":"4","last_reported":1757765862,"current_range_meters":11600,"station_id":"ce4bhnp2rcd13ifvqgvg","pricing_plan_id":"cebpf4jnsgd1na2vs0mg"},{"bike_id":"a8200689-d7b2-4d2e-b5a2-52cc95231e31","system_id":"levelo_inurba_marseille","lat":43.24173,"lon":5.36383,"is_reserved":false,"is_disabled":false,"rental_uris":{"android":"levelo://app?vid=a8200689-d7b2-4d2e-b5a2-52cc95231e31","ios":"levelo://app?vid=a8200689-d7b2-4d2e-b5a2-52cc95231e31"},"vehicle_type_id":"4","last_reported":1757765862,"current_range_meters":12000,"station_id":"cpo36qri1sfpv3e86is0","pricing_plan_id":"cebpf4jnsgd1na2vs0mg"},{"bike_id":"7068895e-81c5-46c1-85a7-fdbb8280530f","system_id":"levelo_inurba_marseille","lat":43.23963,"lon":5.36634,"is_reserved":false,"is_disabled":false,"rental_uris":{"android":"levelo://app?vid=7068895e-81c5-46c1-85a7-fdbb8280530f","ios":"levelo://app?vid=7068895e-81c5-46c1-85a7-fdbb8280530f"},"vehicle_type_id":"4","last_reported":1757765862,"current_range_meters":12000,"station_id":"ce4bhi12rcd13ifvqfp0","pricing_plan_id":"cebpf4jnsgd1na2vs0mg"},{"bike_id":"0c78ed8a-2af8-4f2c-895d-0de884f1c9f2","system_id":"levelo_inurba_marseille","lat":43.29905,"lon":5.4368,"is_reserved":false,"is_disabled":false,"rental_uris":{"android":"levelo://app?vid=0c78ed8a-2af8-4f2c-895d-0de884f1c9f2","ios":"levelo://app?vid=0c78ed8a-2af8-4f2c-895d-0de884f1c9f2"},"vehicle_type_id":"4","last_reported":1757765862,"current_range_meters":12000,"station_id":"ce4bhpp2rcd13ifvqhfg","pricing_plan_id":"cebpf4jnsgd1na2vs0mg"},{"bike_id":"091601b3-3c5a-42ff-866e-cde10b59b3c0","system_id":"levelo_inurba_marseille","lat":43.30748,"lon":5.37438,"is_reserved":false,"is_disabled":false,"rental_uris":{"android":"levelo://app?vid=091601b3-3c5a-42ff-866e-cde10b59b3c0","ios":"levelo://app?vid=091601b3-3c5a-42ff-866e-cde10b59b3c0"},"vehicle_type_id":"4","last_reported":1757765862,"current_range_meters":12000,"station_id":"","pricing_plan_id":"cebpf4jnsgd1na2vs0mg"},{"bike_id":"10dfb71d-b4fe-4c66-9e42-a774a54e4626","system_id":"levelo_inurba_marseille","lat":43.25113,"lon":5.40344,"is_reserved":false,"is_disabled":false,"rental_uris":{"android":"levelo://app?vid=10dfb71d-b4fe-4c66-9e42-a774a54e4626","ios":"levelo://app?vid=10dfb71d-b4fe-4c66-9e42-a774a54e4626"},"vehicle_type_id":"4","last_reported":1757765862,"current_range_meters":12000,"station_id":"ce4bhlh2rcd13ifvqgig","pricing_plan_id":"cebpf4jnsgd1na2vs0mg"},{"bike_id":"e43fdc27-4283-4e61-97ff-9c2689a8903a","system_id":"levelo_inurba_marseille","lat":43.246598,"lon":5.381612,"is_reserved":false,"is_disabled":false,"rental_uris":{"android":"levelo://app?vid=e43fdc27-4283-4e61-97ff-9c2689a8903a","ios":"levelo://app?vid=e43fdc27-4283-4e61-97ff-9c2689a8903a"},"vehicle_type_id":"4","last_reported":1757765862,"current_range_meters":12400,"station_id":"ce4bhih2rcd13ifvqfr0","pricing_plan_id":"cebpf4jnsgd1na2vs0mg"},{"bike_id":"d987f56d-76e3-4f7b-9b84-5022d38036d0","system_id":"levelo_inurba_marseille","lat":43.25347,"lon":5.42176,"is_reserved":false,"is_disabled":false,"rental_uris":{"android":"levelo://app?vid=d987f56d-76e3-4f7b-9b84-5022d38036d0","ios":"levelo://app?vid=d987f56d-76e3-4f7b-9b84-5022d38036d0"},"vehicle_type_id":"4","last_reported":1757765862,"current_range_meters":12400,"station_id":"st_d2m65c5bi1j21697t3ng","pricing_plan_id":"cebpf4jnsgd1na2vs0mg"},{"bike_id":"140f33b8-1102-4f7e-b0ef-d83c5cd8bb96","system_id":"levelo_inurba_marseille","lat":43.23213,"lon":5.35577,"is_reserved":false,"is_disabled":false,"rental_uris":{"android":"levelo://app?vid=140f33b8-1102-4f7e-b0ef-d83c5cd8bb96","ios":"levelo://app?vid=140f33b8-1102-4f7e-b0ef-d83c5cd8bb96"},"vehicle_type_id":"4","last_reported":1757765862,"current_range_meters":12400,"station_id":"ce4bhu92rcd13ifvqi70","pricing_plan_id":"cebpf4jnsgd1na2vs0mg"},{"bike_id":"8a4d2a94-6dcc-48a7-bce6-1f6f98746be6","system_id":"levelo_inurba_marseille","lat":43.275022,"lon":5.424371,"is_reserved":false,"is_disabled":false,"rental_uris":{"android":"levelo://app?vid=8a4d2a94-6dcc-48a7-bce6-1f6f98746be6","ios":"levelo://app?vid=8a4d2a94-6dcc-48a7-bce6-1f6f98746be6"},"vehicle_type_id":"4","last_reported":1757765862,"current_range_meters":12400,"station_id":"ce4bhn92rcd13ifvqgrg","pricing_plan_id":"cebpf4jnsgd1na2vs0mg"},{"bike_id":"5d2d49c3-df0a-4e43-a031-b4854d84eee8","system_id":"levelo_inurba_marseille","lat":43.23962,"lon":5.36626,"is_reserved":false,"is_disabled":false,"rental_uris":{"android":"levelo://app?vid=5d2d49c3-df0a-4e43-a031-b4854d84eee8","ios":"levelo://app?vid=5d2d49c3-df0a-4e43-a031-b4854d84eee8"},"vehicle_type_id":"4","last_reported":1757765862,"current_range_meters":12800,"station_id":"ce4bhi12rcd13ifvqfp0","pricing_plan_id":"cebpf4jnsgd1na2vs0mg"},{"bike_id":"3bef69fe-5b53-4b5c-bb48-170285c21d79","system_id":"levelo_inurba_marseille","lat":43.25822,"lon":5.3942,"is_reserved":false,"is_disabled":false,"rental_uris":{"android":"levelo://app?vid=3bef69fe-5b53-4b5c-bb48-170285c21d79","ios":"levelo://app?vid=3bef69fe-5b53-4b5c-bb48-170285c21d79"},"vehicle_type_id":"4","last_reported":1757765862,"current_range_meters":12800,"station_id":"ce4bhip2rcd13ifvqft0","pricing_plan_id":"cebpf4jnsgd1na2vs0mg"},{"bike_id":"d5c98035-fc72-4062-a3ec-13203f68e8ed","system_id":"levelo_inurba_marseille","lat":43.28874,"lon":5.42519,"is_reserved":false,"is_disabled":false,"rental_uris":{"android":"levelo://app?vid=d5c98035-fc72-4062-a3ec-13203f68e8ed","ios":"levelo://app?vid=d5c98035-fc72-4062-a3ec-13203f68e8ed"},"vehicle_type_id":"4","last_reported":1757765862,"current_range_meters":12800,"station_id":"","pricing_plan_id":"cebpf4jnsgd1na2vs0mg"},{"bike_id":"4094a727-741d-4ca2-9ee0-4c3189b19f0f","system_id":"levelo_inurba_marseille","lat":43.30131,"lon":5.39836,"is_reserved":false,"is_disabled":false,"rental_uris":{"android":"levelo://app?vid=4094a727-741d-4ca2-9ee0-4c3189b19f0f","ios":"levelo://app?vid=4094a727-741d-4ca2-9ee0-4c3189b19f0f"},"vehicle_type_id":"4","last_reported":1757765862,"current_range_meters":12800,"station_id":"ce4bh0h2rcd13ifvqd40","pricing_plan_id":"cebpf4jnsgd1na2vs0mg"},{"bike_id":"dcae514d-9200-43c1-9267-dee91427cf46","system_id":"levelo_inurba_marseille","lat":43.25088,"lon":5.3952,"is_reserved":false,"is_disabled":false,"rental_uris":{"android":"levelo://app?vid=dcae514d-9200-43c1-9267-dee91427cf46","ios":"levelo://app?vid=dcae514d-9200-43c1-9267-dee91427cf46"},"vehicle_type_id":"4","last_reported":1757765862,"current_range_meters":12800,"station_id":"ce4bhm12rcd13ifvqgkg","pricing_plan_id":"cebpf4jnsgd1na2vs0mg"},{"bike_id":"4512c2c7-f6ea-48a6-8a48-abb3bc17e447","system_id":"levelo_inurba_marseille","lat":43.25571,"lon":5.38229,"is_reserved":false,"is_disabled":false,"rental_uris":{"android":"levelo://app?vid=4512c2c7-f6ea-48a6-8a48-abb3bc17e447","ios":"levelo://app?vid=4512c2c7-f6ea-48a6-8a48-abb3bc17e447"},"vehicle_type_id":"4","last_reported":1757765862,"current_range_meters":12800,"station_id":"ce4bhih2rcd13ifvqfs0","pricing_plan_id":"cebpf4jnsgd1na2vs0mg"},{"bike_id":"0ee82101-f96a-4e88-ae04-61382f196f89","system_id":"levelo_inurba_marseille","lat":43.28464,"lon":5.35878,"is_reserved":false,"is_disabled":false,"rental_uris":{"android":"levelo://app?vid=0ee82101-f96a-4e88-ae04-61382f196f89","ios":"levelo://app?vid=0ee82101-f96a-4e88-ae04-61382f196f89"},"vehicle_type_id":"4","last_reported":1757765862,"current_range_meters":12800,"station_id":"ce4bhah2rcd13ifvqei0","pricing_plan_id":"cebpf4jnsgd1na2vs0mg"},{"bike_id":"e213f39e-a4d8-4608-9f3f-d29cabced392","system_id":"levelo_inurba_marseille","lat":43.30254,"lon":5.40057,"is_reserved":false,"is_disabled":false,"rental_uris":{"android":"levelo://app?vid=e213f39e-a4d8-4608-9f3f-d29cabced392","ios":"levelo://app?vid=e213f39e-a4d8-4608-9f3f-d29cabced392"},"vehicle_type_id":"4","last_reported":1757765862,"current_range_meters":13600,"station_id":"ce4bgvh2rcd13ifvqcs0","pricing_plan_id":"cebpf4jnsgd1na2vs0mg"},{"bike_id":"1f361235-877f-4750-ae21-f35369fb4a6c","system_id":"levelo_inurba_marseille","lat":43.30929,"lon":5.40133,"is_reserved":false,"is_disabled":false,"rental_uris":{"android":"levelo://app?vid=1f361235-877f-4750-ae21-f35369fb4a6c","ios":"levelo://app?vid=1f361235-877f-4750-ae21-f35369fb4a6c"},"vehicle_type_id":"4","last_reported":1757765862,"current_range_meters":13600,"station_id":"ce4bgvp2rcd13ifvqct0","pricing_plan_id":"cebpf4jnsgd1na2vs0mg"},{"bike_id":"84be000e-b186-4e60-8aaa-b7a0f42a7175","system_id":"levelo_inurba_marseille","lat":43.337616,"lon":5.374353,"is_reserved":false,"is_disabled":false,"rental_uris":{"android":"levelo://app?vid=84be000e-b186-4e60-8aaa-b7a0f42a7175","ios":"levelo://app?vid=84be000e-b186-4e60-8aaa-b7a0f42a7175"},"vehicle_type_id":"4","last_reported":1757765862,"current_range_meters":13600,"station_id":"","pricing_plan_id":"cebpf4jnsgd1na2vs0mg"},{"bike_id":"7dc00165-e583-4bd0-bbf8-f77743c96ba8","system_id":"levelo_inurba_marseille","lat":43.32368,"lon":5.36787,"is_reserved":false,"is_disabled":false,"rental_uris":{"android":"levelo://app?vid=7dc00165-e583-4bd0-bbf8-f77743c96ba8","ios":"levelo://app?vid=7dc00165-e583-4bd0-bbf8-f77743c96ba8"},"vehicle_type_id":"4","last_reported":1757765862,"current_range_meters":13600,"station_id":"ce4bhsh2rcd13ifvqi2g","pricing_plan_id":"cebpf4jnsgd1na2vs0mg"},{"bike_id":"6227a315-3436-4b35-be59-ce30ee280b83","system_id":"levelo_inurba_marseille","lat":43.2922,"lon":5.36044,"is_reserved":false,"is_disabled":false,"rental_uris":{"android":"levelo://app?vid=6227a315-3436-4b35-be59-ce30ee280b83","ios":"levelo://app?vid=6227a315-3436-4b35-be59-ce30ee280b83"},"vehicle_type_id":"4","last_reported":1757765862,"current_range_meters":13600,"station_id":"ce4bhbh2rcd13ifvqeqg","pricing_plan_id":"cebpf4jnsgd1na2vs0mg"},{"bike_id":"8cf2c6bd-0181-4b51-8b8b-30216bf09179","system_id":"levelo_inurba_marseille","lat":43.30554,"lon":5.36543,"is_reserved":false,"is_disabled":false,"rental_uris":{"android":"levelo://app?vid=8cf2c6bd-0181-4b51-8b8b-30216bf09179","ios":"levelo://app?vid=8cf2c6bd-0181-4b51-8b8b-30216bf09179"},"vehicle_type_id":"4","last_reported":1757765862,"current_range_meters":14000,"station_id":"ce4bgs12rcd13ifvqcag","pricing_plan_id":"cebpf4jnsgd1na2vs0mg"},{"bike_id":"d5fe8587-d577-4927-9f03-bf5f1fa338f3","system_id":"levelo_inurba_marseille","lat":43.32655,"lon":5.37516,"is_reserved":false,"is_disabled":false,"rental_uris":{"android":"levelo://app?vid=d5fe8587-d577-4927-9f03-bf5f1fa338f3","ios":"levelo://app?vid=d5fe8587-d577-4927-9f03-bf5f1fa338f3"},"vehicle_type_id":"4","last_reported":1757765862,"current_range_meters":14000,"station_id":"","pricing_plan_id":"cebpf4jnsgd1na2vs0mg"},{"bike_id":"ba130961-8fba-495b-b802-0f3495419d49","system_id":"levelo_inurba_marseille","lat":43.30906,"lon":5.40172,"is_reserved":false,"is_disabled":false,"rental_uris":{"android":"levelo://app?vid=ba130961-8fba-495b-b802-0f3495419d49","ios":"levelo://app?vid=ba130961-8fba-495b-b802-0f3495419d49"},"vehicle_type_id":"4","last_reported":1757765862,"current_range_meters":14000,"station_id":"ce4bgvp2rcd13ifvqct0","pricing_plan_id":"cebpf4jnsgd1na2vs0mg"},{"bike_id":"22056c1f-5a5a-4970-84ab-9172106e8c1b","system_id":"levelo_inurba_marseille","lat":43.26234,"lon":5.39792,"is_reserved":false,"is_disabled":false,"rental_uris":{"android":"levelo://app?vid=22056c1f-5a5a-4970-84ab-9172106e8c1b","ios":"levelo://app?vid=22056c1f-5a5a-4970-84ab-9172106e8c1b"},"vehicle_type_id":"4","last_reported":1757765862,"current_range_meters":14000,"station_id":"","pricing_plan_id":"cebpf4jnsgd1na2vs0mg"},{"bike_id":"68489bd7-5f5c-4661-bada-ef101f8e01b1","system_id":"levelo_inurba_marseille","lat":43.32363,"lon":5.3887,"is_reserved":false,"is_disabled":false,"rental_uris":{"android":"levelo://app?vid=68489bd7-5f5c-4661-bada-ef101f8e01b1","ios":"levelo://app?vid=68489bd7-5f5c-4661-bada-ef101f8e01b1"},"vehicle_type_id":"4","last_reported":1757765862,"current_range_meters":14000,"station_id":"ce4bhqp2rcd13ifvqhog","pricing_plan_id":"cebpf4jnsgd1na2vs0mg"},{"bike_id":"02dbb44c-70e3-4a7a-b86e-6159cc35ba47","system_id":"levelo_inurba_marseille","lat":43.29587,"lon":5.38689,"is_reserved":false,"is_disabled":false,"rental_uris":{"android":"levelo://app?vid=02dbb44c-70e3-4a7a-b86e-6159cc35ba47","ios":"levelo://app?vid=02dbb44c-70e3-4a7a-b86e-6159cc35ba47"},"vehicle_type_id":"4","last_reported":1757765862,"current_range_meters":14000,"station_id":"ce4bgih2rcd13ifvqba0","pricing_plan_id":"cebpf4jnsgd1na2vs0mg"},{"bike_id":"09dbf187-d9e1-4569-8a90-4cf34bc995dc","system_id":"levelo_inurba_marseille","lat":43.2962,"lon":5.37706,"is_reserved":false,"is_disabled":false,"rental_uris":{"android":"levelo://app?vid=09dbf187-d9e1-4569-8a90-4cf34bc995dc","ios":"levelo://app?vid=09dbf187-d9e1-4569-8a90-4cf34bc995dc"},"vehicle_type_id":"4","last_reported":1757765862,"current_range_meters":14400,"station_id":"ce4bgi92rcd13ifvqb90","pricing_plan_id":"cebpf4jnsgd1na2vs0mg"},{"bike_id":"beb6189c-c21e-4836-b631-6b5c31a632d8","system_id":"levelo_inurba_marseille","lat":43.22574,"lon":5.41608,"is_reserved":false,"is_disabled":false,"rental_uris":{"android":"levelo://app?vid=beb6189c-c21e-4836-b631-6b5c31a632d8","ios":"levelo://app?vid=beb6189c-c21e-4836-b631-6b5c31a632d8"},"vehicle_type_id":"4","last_reported":1757765862,"current_range_meters":14400,"station_id":"st_d2o4gvlbi1j2169b742g","pricing_plan_id":"cebpf4jnsgd1na2vs0mg"},{"bike_id":"55d59e02-f5a5-4e1a-9360-556e842fa2a4","system_id":"levelo_inurba_marseille","lat":43.33764,"lon":5.37496,"is_reserved":false,"is_disabled":false,"rental_uris":{"android":"levelo://app?vid=55d59e02-f5a5-4e1a-9360-556e842fa2a4","ios":"levelo://app?vid=55d59e02-f5a5-4e1a-9360-556e842fa2a4"},"vehicle_type_id":"4","last_reported":1757765862,"current_range_meters":14400,"station_id":"","pricing_plan_id":"cebpf4jnsgd1na2vs0mg"},{"bike_id":"644215af-bfbd-41ce-a696-bc50492c481a","system_id":"levelo_inurba_marseille","lat":43.30888,"lon":5.39657,"is_reserved":false,"is_disabled":false,"rental_uris":{"android":"levelo://app?vid=644215af-bfbd-41ce-a696-bc50492c481a","ios":"levelo://app?vid=644215af-bfbd-41ce-a696-bc50492c481a"},"vehicle_type_id":"4","last_reported":1757765862,"current_range_meters":14400,"station_id":"ce4bh012rcd13ifvqcv0","pricing_plan_id":"cebpf4jnsgd1na2vs0mg"},{"bike_id":"b232df85-9851-4828-ae14-e497240fd97f","system_id":"levelo_inurba_marseille","lat":43.29807,"lon":5.38094,"is_reserved":false,"is_disabled":false,"rental_uris":{"android":"levelo://app?vid=b232df85-9851-4828-ae14-e497240fd97f","ios":"levelo://app?vid=b232df85-9851-4828-ae14-e497240fd97f"},"vehicle_type_id":"4","last_reported":1757765862,"current_range_meters":14800,"station_id":"ce4bgip2rcd13ifvqbb0","pricing_plan_id":"cebpf4jnsgd1na2vs0mg"},{"bike_id":"f8ffd399-b74b-428b-b8c5-652d37f4b22c","system_id":"levelo_inurba_marseille","lat":43.24978,"lon":5.40491,"is_reserved":false,"is_disabled":false,"rental_uris":{"android":"levelo://app?vid=f8ffd399-b74b-428b-b8c5-652d37f4b22c","ios":"levelo://app?vid=f8ffd399-b74b-428b-b8c5-652d37f4b22c"},"vehicle_type_id":"4","last_reported":1757765862,"current_range_meters":14800,"station_id":"st_d2ngiaodas8pm72gd1h0","pricing_plan_id":"cebpf4jnsgd1na2vs0mg"},{"bike_id":"d9c66413-fc0c-4d58-b9df-c55859e73212","system_id":"levelo_inurba_marseille","lat":43.28462,"lon":5.35889,"is_reserved":false,"is_disabled":true,"rental_uris":{"android":"levelo://app?vid=d9c66413-fc0c-4d58-b9df-c55859e73212","ios":"levelo://app?vid=d9c66413-fc0c-4d58-b9df-c55859e73212"},"vehicle_type_id":"4","last_reported":1757765862,"current_range_meters":14800,"station_id":"ce4bhah2rcd13ifvqei0","pricing_plan_id":"cebpf4jnsgd1na2vs0mg"},{"bike_id":"71256f8f-9c24-475f-8b40-70467fb356a3","system_id":"levelo_inurba_marseille","lat":43.29243,"lon":5.40033,"is_reserved":false,"is_disabled":false,"rental_uris":{"android":"levelo://app?vid=71256f8f-9c24-475f-8b40-70467fb356a3","ios":"levelo://app?vid=71256f8f-9c24-475f-8b40-70467fb356a3"},"vehicle_type_id":"4","last_reported":1757765862,"current_range_meters":14800,"station_id":"","pricing_plan_id":"cebpf4jnsgd1na2vs0mg"},{"bike_id":"d9c11a94-d122-4240-b95b-24fdee8810ac","system_id":"levelo_inurba_marseille","lat":43.282825,"lon":5.39909,"is_reserved":false,"is_disabled":false,"rental_uris":{"android":"levelo://app?vid=d9c11a94-d122-4240-b95b-24fdee8810ac","ios":"levelo://app?vid=d9c11a94-d122-4240-b95b-24fdee8810ac"},"vehicle_type_id":"4","last_reported":1757765862,"current_range_meters":14800,"station_id":"","pricing_plan_id":"cebpf4jnsgd1na2vs0mg"},{"bike_id":"f07d1a34-6972-4c1d-8ed8-100dd0fc1e78","system_id":"levelo_inurba_marseille","lat":43.33028,"lon":5.39037,"is_reserved":false,"is_disabled":false,"rental_uris":{"android":"levelo://app?vid=f07d1a34-6972-4c1d-8ed8-100dd0fc1e78","ios":"levelo://app?vid=f07d1a34-6972-4c1d-8ed8-100dd0fc1e78"},"vehicle_type_id":"4","last_reported":1757765862,"current_range_meters":14800,"station_id":"ce4bhr92rcd13ifvqhrg","pricing_plan_id":"cebpf4jnsgd1na2vs0mg"},{"bike_id":"566adcbc-3de0-4c34-b4ef-2bd21e4f861d","system_id":"levelo_inurba_marseille","lat":43.29803,"lon":5.38093,"is_reserved":false,"is_disabled":false,"rental_uris":{"android":"levelo://app?vid=566adcbc-3de0-4c34-b4ef-2bd21e4f861d","ios":"levelo://app?vid=566adcbc-3de0-4c34-b4ef-2bd21e4f861d"},"vehicle_type_id":"4","last_reported":1757765862,"current_range_meters":15200,"station_id":"ce4bgip2rcd13ifvqbb0","pricing_plan_id":"cebpf4jnsgd1na2vs0mg"},{"bike_id":"5dd30423-f1d2-4b52-98a9-0dc77a7dc0eb","system_id":"levelo_inurba_marseille","lat":43.28271,"lon":5.35066,"is_reserved":false,"is_disabled":false,"rental_uris":{"android":"levelo://app?vid=5dd30423-f1d2-4b52-98a9-0dc77a7dc0eb","ios":"levelo://app?vid=5dd30423-f1d2-4b52-98a9-0dc77a7dc0eb"},"vehicle_type_id":"4","last_reported":1757765862,"current_range_meters":15200,"station_id":"ce4bhbp2rcd13ifvqerg","pricing_plan_id":"cebpf4jnsgd1na2vs0mg"},{"bike_id":"e7a329bd-ed66-4ac7-aaba-63f2810ddd86","system_id":"levelo_inurba_marseille","lat":43.31912,"lon":5.37167,"is_reserved":false,"is_disabled":false,"rental_uris":{"android":"levelo://app?vid=e7a329bd-ed66-4ac7-aaba-63f2810ddd86","ios":"levelo://app?vid=e7a329bd-ed66-4ac7-aaba-63f2810ddd86"},"vehicle_type_id":"4","last_reported":1757765862,"current_range_meters":15200,"station_id":"","pricing_plan_id":"cebpf4jnsgd1na2vs0mg"},{"bike_id":"3aa6b014-f4ba-4dff-920a-c15ad7e23770","system_id":"levelo_inurba_marseille","lat":43.27984,"lon":5.38735,"is_reserved":false,"is_disabled":false,"rental_uris":{"android":"levelo://app?vid=3aa6b014-f4ba-4dff-920a-c15ad7e23770","ios":"levelo://app?vid=3aa6b014-f4ba-4dff-920a-c15ad7e23770"},"vehicle_type_id":"4","last_reported":1757765862,"current_range_meters":14800,"station_id":"ce4bhg12rcd13ifvqf80","pricing_plan_id":"cebpf4jnsgd1na2vs0mg"},{"bike_id":"b81ac566-30ab-45f4-a917-e0cb422aff7d","system_id":"levelo_inurba_marseille","lat":43.25123,"lon":5.40323,"is_reserved":false,"is_disabled":false,"rental_uris":{"android":"levelo://app?vid=b81ac566-30ab-45f4-a917-e0cb422aff7d","ios":"levelo://app?vid=b81ac566-30ab-45f4-a917-e0cb422aff7d"},"vehicle_type_id":"4","last_reported":1757765862,"current_range_meters":16000,"station_id":"ce4bhlh2rcd13ifvqgig","pricing_plan_id":"cebpf4jnsgd1na2vs0mg"},{"bike_id":"c7237af1-fd65-41a7-8ae9-294ff1539f0b","system_id":"levelo_inurba_marseille","lat":43.25334,"lon":5.42163,"is_reserved":false,"is_disabled":false,"rental_uris":{"android":"levelo://app?vid=c7237af1-fd65-41a7-8ae9-294ff1539f0b","ios":"levelo://app?vid=c7237af1-fd65-41a7-8ae9-294ff1539f0b"},"vehicle_type_id":"4","last_reported":1757765862,"current_range_meters":15200,"station_id":"st_d2m65c5bi1j21697t3ng","pricing_plan_id":"cebpf4jnsgd1na2vs0mg"},{"bike_id":"df186302-ca9c-41b4-966f-b3f529c1b1f5","system_id":"levelo_inurba_marseille","lat":43.25093,"lon":5.39521,"is_reserved":false,"is_disabled":false,"rental_uris":{"android":"levelo://app?vid=df186302-ca9c-41b4-966f-b3f529c1b1f5","ios":"levelo://app?vid=df186302-ca9c-41b4-966f-b3f529c1b1f5"},"vehicle_type_id":"4","last_reported":1757765862,"current_range_meters":15200,"station_id":"ce4bhm12rcd13ifvqgkg","pricing_plan_id":"cebpf4jnsgd1na2vs0mg"},{"bike_id":"31195751-bbc1-4ea5-8068-c21d8881b649","system_id":"levelo_inurba_marseille","lat":43.240906,"lon":5.377441,"is_reserved":false,"is_disabled":false,"rental_uris":{"android":"levelo://app?vid=31195751-bbc1-4ea5-8068-c21d8881b649","ios":"levelo://app?vid=31195751-bbc1-4ea5-8068-c21d8881b649"},"vehicle_type_id":"4","last_reported":1757765862,"current_range_meters":16000,"station_id":"ce4bhnp2rcd13ifvqgvg","pricing_plan_id":"cebpf4jnsgd1na2vs0mg"},{"bike_id":"cd104b68-7370-4e88-ba9c-1edeee0f6c77","system_id":"levelo_inurba_marseille","lat":43.2521,"lon":5.42512,"is_reserved":false,"is_disabled":false,"rental_uris":{"android":"levelo://app?vid=cd104b68-7370-4e88-ba9c-1edeee0f6c77","ios":"levelo://app?vid=cd104b68-7370-4e88-ba9c-1edeee0f6c77"},"vehicle_type_id":"4","last_reported":1757765862,"current_range_meters":16000,"station_id":"","pricing_plan_id":"cebpf4jnsgd1na2vs0mg"},{"bike_id":"0f00d22a-2cab-460c-8b98-08b1faf3815e","system_id":"levelo_inurba_marseille","lat":43.29966,"lon":5.38495,"is_reserved":false,"is_disabled":false,"rental_uris":{"android":"levelo://app?vid=0f00d22a-2cab-460c-8b98-08b1faf3815e","ios":"levelo://app?vid=0f00d22a-2cab-460c-8b98-08b1faf3815e"},"vehicle_type_id":"4","last_reported":1757765862,"current_range_meters":16000,"station_id":"ce4bgj92rcd13ifvqbd0","pricing_plan_id":"cebpf4jnsgd1na2vs0mg"},{"bike_id":"42fd3939-4a62-4fce-8f20-590fb17bfea2","system_id":"levelo_inurba_marseille","lat":43.26788,"lon":5.3941,"is_reserved":false,"is_disabled":false,"rental_uris":{"android":"levelo://app?vid=42fd3939-4a62-4fce-8f20-590fb17bfea2","ios":"levelo://app?vid=42fd3939-4a62-4fce-8f20-590fb17bfea2"},"vehicle_type_id":"4","last_reported":1757765862,"current_range_meters":16000,"station_id":"ce4bhh12rcd13ifvqfg0","pricing_plan_id":"cebpf4jnsgd1na2vs0mg"},{"bike_id":"1eaf7d24-f23e-4e79-b6f5-17176bccc028","system_id":"levelo_inurba_marseille","lat":43.279548,"lon":5.38739,"is_reserved":false,"is_disabled":true,"rental_uris":{"android":"levelo://app?vid=1eaf7d24-f23e-4e79-b6f5-17176bccc028","ios":"levelo://app?vid=1eaf7d24-f23e-4e79-b6f5-17176bccc028"},"vehicle_type_id":"4","last_reported":1757765862,"current_range_meters":16000,"station_id":"ce4bhg12rcd13ifvqf80","pricing_plan_id":"cebpf4jnsgd1na2vs0mg"},{"bike_id":"ee42c31a-b74b-4b2d-917a-cd50dc10c6ce","system_id":"levelo_inurba_marseille","lat":43.33065,"lon":5.38995,"is_reserved":false,"is_disabled":false,"rental_uris":{"android":"levelo://app?vid=ee42c31a-b74b-4b2d-917a-cd50dc10c6ce","ios":"levelo://app?vid=ee42c31a-b74b-4b2d-917a-cd50dc10c6ce"},"vehicle_type_id":"4","last_reported":1757765862,"current_range_meters":16000,"station_id":"","pricing_plan_id":"cebpf4jnsgd1na2vs0mg"},{"bike_id":"c5cba6d7-e282-4417-a818-5fc0802dcb08","system_id":"levelo_inurba_marseille","lat":43.33761,"lon":5.3745,"is_reserved":false,"is_disabled":false,"rental_uris":{"android":"levelo://app?vid=c5cba6d7-e282-4417-a818-5fc0802dcb08","ios":"levelo://app?vid=c5cba6d7-e282-4417-a818-5fc0802dcb08"},"vehicle_type_id":"4","last_reported":1757765862,"current_range_meters":16000,"station_id":"","pricing_plan_id":"cebpf4jnsgd1na2vs0mg"},{"bike_id":"40207740-3997-48f7-a3a9-b19ccf0a0c3b","system_id":"levelo_inurba_marseille","lat":43.30413,"lon":5.41279,"is_reserved":false,"is_disabled":false,"rental_uris":{"android":"levelo://app?vid=40207740-3997-48f7-a3a9-b19ccf0a0c3b","ios":"levelo://app?vid=40207740-3997-48f7-a3a9-b19ccf0a0c3b"},"vehicle_type_id":"4","last_reported":1757765862,"current_range_meters":16000,"station_id":"ce4bhop2rcd13ifvqh8g","pricing_plan_id":"cebpf4jnsgd1na2vs0mg"},{"bike_id":"c682ef70-00bc-4415-9b10-9a35bd5ddcc1","system_id":"levelo_inurba_marseille","lat":43.27495,"lon":5.42452,"is_reserved":false,"is_disabled":false,"rental_uris":{"android":"levelo://app?vid=c682ef70-00bc-4415-9b10-9a35bd5ddcc1","ios":"levelo://app?vid=c682ef70-00bc-4415-9b10-9a35bd5ddcc1"},"vehicle_type_id":"4","last_reported":1757765862,"current_range_meters":16400,"station_id":"ce4bhn92rcd13ifvqgrg","pricing_plan_id":"cebpf4jnsgd1na2vs0mg"},{"bike_id":"7f3327a2-114b-44a9-b064-b2a89b4e6c39","system_id":"levelo_inurba_marseille","lat":43.24183,"lon":5.39724,"is_reserved":false,"is_disabled":false,"rental_uris":{"android":"levelo://app?vid=7f3327a2-114b-44a9-b064-b2a89b4e6c39","ios":"levelo://app?vid=7f3327a2-114b-44a9-b064-b2a89b4e6c39"},"vehicle_type_id":"4","last_reported":1757765862,"current_range_meters":16400,"station_id":"ce4bhn12rcd13ifvqgpg","pricing_plan_id":"cebpf4jnsgd1na2vs0mg"},{"bike_id":"66082305-d118-4993-8e3a-44c15b5ea67d","system_id":"levelo_inurba_marseille","lat":43.29985,"lon":5.38834,"is_reserved":false,"is_disabled":false,"rental_uris":{"android":"levelo://app?vid=66082305-d118-4993-8e3a-44c15b5ea67d","ios":"levelo://app?vid=66082305-d118-4993-8e3a-44c15b5ea67d"},"vehicle_type_id":"4","last_reported":1757765862,"current_range_meters":16000,"station_id":"ce4bh192rcd13ifvqdb0","pricing_plan_id":"cebpf4jnsgd1na2vs0mg"},{"bike_id":"9df52c70-6127-40c8-b57a-28a090e0499a","system_id":"levelo_inurba_marseille","lat":43.31269,"lon":5.40162,"is_reserved":false,"is_disabled":false,"rental_uris":{"android":"levelo://app?vid=9df52c70-6127-40c8-b57a-28a090e0499a","ios":"levelo://app?vid=9df52c70-6127-40c8-b57a-28a090e0499a"},"vehicle_type_id":"4","last_reported":1757765862,"current_range_meters":16400,"station_id":"ce4bh092rcd13ifvqd30","pricing_plan_id":"cebpf4jnsgd1na2vs0mg"},{"bike_id":"986f11d8-1003-4830-932e-a59ca28f5df3","system_id":"levelo_inurba_marseille","lat":43.229191,"lon":5.353619,"is_reserved":false,"is_disabled":false,"rental_uris":{"android":"levelo://app?vid=986f11d8-1003-4830-932e-a59ca28f5df3","ios":"levelo://app?vid=986f11d8-1003-4830-932e-a59ca28f5df3"},"vehicle_type_id":"4","last_reported":1757765862,"current_range_meters":16400,"station_id":"cpo3532slgdg3j2ikp40","pricing_plan_id":"cebpf4jnsgd1na2vs0mg"},{"bike_id":"57eed3f4-593b-490c-b8d3-e0c4351f0ad2","system_id":"levelo_inurba_marseille","lat":43.30908,"lon":5.36831,"is_reserved":false,"is_disabled":false,"rental_uris":{"android":"levelo://app?vid=57eed3f4-593b-490c-b8d3-e0c4351f0ad2","ios":"levelo://app?vid=57eed3f4-593b-490c-b8d3-e0c4351f0ad2"},"vehicle_type_id":"4","last_reported":1757765862,"current_range_meters":16400,"station_id":"ce4bgn92rcd13ifvqbvg","pricing_plan_id":"cebpf4jnsgd1na2vs0mg"},{"bike_id":"12b9c958-ee1d-4a7e-b063-6648532a7910","system_id":"levelo_inurba_marseille","lat":43.30406,"lon":5.41272,"is_reserved":false,"is_disabled":false,"rental_uris":{"android":"levelo://app?vid=12b9c958-ee1d-4a7e-b063-6648532a7910","ios":"levelo://app?vid=12b9c958-ee1d-4a7e-b063-6648532a7910"},"vehicle_type_id":"4","last_reported":1757765862,"current_range_meters":16400,"station_id":"ce4bhop2rcd13ifvqh8g","pricing_plan_id":"cebpf4jnsgd1na2vs0mg"},{"bike_id":"18227603-2872-4675-b36d-99369924551d","system_id":"levelo_inurba_marseille","lat":43.26782,"lon":5.39416,"is_reserved":false,"is_disabled":false,"rental_uris":{"android":"levelo://app?vid=18227603-2872-4675-b36d-99369924551d","ios":"levelo://app?vid=18227603-2872-4675-b36d-99369924551d"},"vehicle_type_id":"4","last_reported":1757765862,"current_range_meters":16800,"station_id":"ce4bhh12rcd13ifvqfg0","pricing_plan_id":"cebpf4jnsgd1na2vs0mg"},{"bike_id":"0418ed23-d4c6-49db-b310-d4f985bd3bc3","system_id":"levelo_inurba_marseille","lat":43.321118,"lon":5.367875,"is_reserved":false,"is_disabled":false,"rental_uris":{"android":"levelo://app?vid=0418ed23-d4c6-49db-b310-d4f985bd3bc3","ios":"levelo://app?vid=0418ed23-d4c6-49db-b310-d4f985bd3bc3"},"vehicle_type_id":"4","last_reported":1757765862,"current_range_meters":16800,"station_id":"ce4bhrh2rcd13ifvqhug","pricing_plan_id":"cebpf4jnsgd1na2vs0mg"},{"bike_id":"3edab8b5-08ab-4bd7-a8e3-46e14fec2b69","system_id":"levelo_inurba_marseille","lat":43.22576,"lon":5.41614,"is_reserved":false,"is_disabled":false,"rental_uris":{"android":"levelo://app?vid=3edab8b5-08ab-4bd7-a8e3-46e14fec2b69","ios":"levelo://app?vid=3edab8b5-08ab-4bd7-a8e3-46e14fec2b69"},"vehicle_type_id":"4","last_reported":1757765862,"current_range_meters":16800,"station_id":"st_d2o4gvlbi1j2169b742g","pricing_plan_id":"cebpf4jnsgd1na2vs0mg"},{"bike_id":"9613ee4d-bd84-40ec-a183-9abb4af6a1b6","system_id":"levelo_inurba_marseille","lat":43.32365,"lon":5.36763,"is_reserved":false,"is_disabled":false,"rental_uris":{"android":"levelo://app?vid=9613ee4d-bd84-40ec-a183-9abb4af6a1b6","ios":"levelo://app?vid=9613ee4d-bd84-40ec-a183-9abb4af6a1b6"},"vehicle_type_id":"4","last_reported":1757765862,"current_range_meters":16800,"station_id":"ce4bhsh2rcd13ifvqi2g","pricing_plan_id":"cebpf4jnsgd1na2vs0mg"},{"bike_id":"3bc338fd-b3c5-4caa-b6e6-3c70a52689ba","system_id":"levelo_inurba_marseille","lat":43.31585,"lon":5.3891,"is_reserved":false,"is_disabled":false,"rental_uris":{"android":"levelo://app?vid=3bc338fd-b3c5-4caa-b6e6-3c70a52689ba","ios":"levelo://app?vid=3bc338fd-b3c5-4caa-b6e6-3c70a52689ba"},"vehicle_type_id":"4","last_reported":1757765862,"current_range_meters":16800,"station_id":"","pricing_plan_id":"cebpf4jnsgd1na2vs0mg"},{"bike_id":"396b24c9-1600-4b00-a631-82511b7205fd","system_id":"levelo_inurba_marseille","lat":43.29912,"lon":5.38149,"is_reserved":false,"is_disabled":false,"rental_uris":{"android":"levelo://app?vid=396b24c9-1600-4b00-a631-82511b7205fd","ios":"levelo://app?vid=396b24c9-1600-4b00-a631-82511b7205fd"},"vehicle_type_id":"4","last_reported":1757765862,"current_range_meters":16800,"station_id":"ce4bgj12rcd13ifvqbc0","pricing_plan_id":"cebpf4jnsgd1na2vs0mg"},{"bike_id":"bf63aad8-dedf-479f-beb1-66de6615be39","system_id":"levelo_inurba_marseille","lat":43.27932,"lon":5.41034,"is_reserved":false,"is_disabled":false,"rental_uris":{"android":"levelo://app?vid=bf63aad8-dedf-479f-beb1-66de6615be39","ios":"levelo://app?vid=bf63aad8-dedf-479f-beb1-66de6615be39"},"vehicle_type_id":"4","last_reported":1757765862,"current_range_meters":17200,"station_id":"ce4bhnp2rcd13ifvqh0g","pricing_plan_id":"cebpf4jnsgd1na2vs0mg"},{"bike_id":"78d8646b-13df-4b6e-af58-e98aa9694030","system_id":"levelo_inurba_marseille","lat":43.30147,"lon":5.38091,"is_reserved":false,"is_disabled":false,"rental_uris":{"android":"levelo://app?vid=78d8646b-13df-4b6e-af58-e98aa9694030","ios":"levelo://app?vid=78d8646b-13df-4b6e-af58-e98aa9694030"},"vehicle_type_id":"4","last_reported":1757765862,"current_range_meters":17200,"station_id":"ce4bgjp2rcd13ifvqbh0","pricing_plan_id":"cebpf4jnsgd1na2vs0mg"},{"bike_id":"099dc754-cf09-4145-b6fa-59b333ab25e3","system_id":"levelo_inurba_marseille","lat":43.24627,"lon":5.43154,"is_reserved":false,"is_disabled":false,"rental_uris":{"android":"levelo://app?vid=099dc754-cf09-4145-b6fa-59b333ab25e3","ios":"levelo://app?vid=099dc754-cf09-4145-b6fa-59b333ab25e3"},"vehicle_type_id":"4","last_reported":1757765862,"current_range_meters":17200,"station_id":"st_d2m6c4gdas8pm72e190g","pricing_plan_id":"cebpf4jnsgd1na2vs0mg"},{"bike_id":"4d6e6605-7f16-44fa-a19a-c138ee7cb360","system_id":"levelo_inurba_marseille","lat":43.337425,"lon":5.374667,"is_reserved":false,"is_disabled":false,"rental_uris":{"android":"levelo://app?vid=4d6e6605-7f16-44fa-a19a-c138ee7cb360","ios":"levelo://app?vid=4d6e6605-7f16-44fa-a19a-c138ee7cb360"},"vehicle_type_id":"4","last_reported":1757765862,"current_range_meters":17200,"station_id":"","pricing_plan_id":"cebpf4jnsgd1na2vs0mg"},{"bike_id":"a0a31f33-610c-43d5-afe9-44350564eeca","system_id":"levelo_inurba_marseille","lat":43.26795,"lon":5.39407,"is_reserved":false,"is_disabled":false,"rental_uris":{"android":"levelo://app?vid=a0a31f33-610c-43d5-afe9-44350564eeca","ios":"levelo://app?vid=a0a31f33-610c-43d5-afe9-44350564eeca"},"vehicle_type_id":"4","last_reported":1757765862,"current_range_meters":17200,"station_id":"ce4bhh12rcd13ifvqfg0","pricing_plan_id":"cebpf4jnsgd1na2vs0mg"},{"bike_id":"fdb3faf2-01ed-4cc4-bd1a-8fee5457b9b6","system_id":"levelo_inurba_marseille","lat":43.294521,"lon":5.378868,"is_reserved":false,"is_disabled":false,"rental_uris":{"android":"levelo://app?vid=fdb3faf2-01ed-4cc4-bd1a-8fee5457b9b6","ios":"levelo://app?vid=fdb3faf2-01ed-4cc4-bd1a-8fee5457b9b6"},"vehicle_type_id":"4","last_reported":1757765862,"current_range_meters":17200,"station_id":"ce4bgkh2rcd13ifvqbl0","pricing_plan_id":"cebpf4jnsgd1na2vs0mg"},{"bike_id":"695bc73c-02f9-4c78-a8d4-70d9461761ac","system_id":"levelo_inurba_marseille","lat":43.28163,"lon":5.42658,"is_reserved":false,"is_disabled":false,"rental_uris":{"android":"levelo://app?vid=695bc73c-02f9-4c78-a8d4-70d9461761ac","ios":"levelo://app?vid=695bc73c-02f9-4c78-a8d4-70d9461761ac"},"vehicle_type_id":"4","last_reported":1757765862,"current_range_meters":17600,"station_id":"ce4bhnh2rcd13ifvqgug","pricing_plan_id":"cebpf4jnsgd1na2vs0mg"},{"bike_id":"cb612bf1-232d-427f-a7c5-ad1c79970661","system_id":"levelo_inurba_marseille","lat":43.28992,"lon":5.40044,"is_reserved":false,"is_disabled":false,"rental_uris":{"android":"levelo://app?vid=cb612bf1-232d-427f-a7c5-ad1c79970661","ios":"levelo://app?vid=cb612bf1-232d-427f-a7c5-ad1c79970661"},"vehicle_type_id":"4","last_reported":1757765862,"current_range_meters":17600,"station_id":"ce4bh392rcd13ifvqdm0","pricing_plan_id":"cebpf4jnsgd1na2vs0mg"},{"bike_id":"a32f1e86-58ce-4fda-9547-2bc3fb9f2c9a","system_id":"levelo_inurba_marseille","lat":43.27913,"lon":5.39614,"is_reserved":false,"is_disabled":false,"rental_uris":{"android":"levelo://app?vid=a32f1e86-58ce-4fda-9547-2bc3fb9f2c9a","ios":"levelo://app?vid=a32f1e86-58ce-4fda-9547-2bc3fb9f2c9a"},"vehicle_type_id":"4","last_reported":1757765862,"current_range_meters":17600,"station_id":"ce4bhf92rcd13ifvqf40","pricing_plan_id":"cebpf4jnsgd1na2vs0mg"},{"bike_id":"a6ce2e6b-5ca9-483b-9b84-41c9b83b41a6","system_id":"levelo_inurba_marseille","lat":43.2843,"lon":5.34983,"is_reserved":false,"is_disabled":false,"rental_uris":{"android":"levelo://app?vid=a6ce2e6b-5ca9-483b-9b84-41c9b83b41a6","ios":"levelo://app?vid=a6ce2e6b-5ca9-483b-9b84-41c9b83b41a6"},"vehicle_type_id":"4","last_reported":1757765862,"current_range_meters":17600,"station_id":"ce4bhbh2rcd13ifvqepg","pricing_plan_id":"cebpf4jnsgd1na2vs0mg"},{"bike_id":"c75bfa20-483b-42f7-8a25-5f10e08a57b0","system_id":"levelo_inurba_marseille","lat":43.321082,"lon":5.367783,"is_reserved":false,"is_disabled":false,"rental_uris":{"android":"levelo://app?vid=c75bfa20-483b-42f7-8a25-5f10e08a57b0","ios":"levelo://app?vid=c75bfa20-483b-42f7-8a25-5f10e08a57b0"},"vehicle_type_id":"4","last_reported":1757765862,"current_range_meters":17600,"station_id":"ce4bhrh2rcd13ifvqhug","pricing_plan_id":"cebpf4jnsgd1na2vs0mg"},{"bike_id":"5944082e-96d4-4ba0-ade5-ae4856888307","system_id":"levelo_inurba_marseille","lat":43.2768,"lon":5.38873,"is_reserved":false,"is_disabled":false,"rental_uris":{"android":"levelo://app?vid=5944082e-96d4-4ba0-ade5-ae4856888307","ios":"levelo://app?vid=5944082e-96d4-4ba0-ade5-ae4856888307"},"vehicle_type_id":"4","last_reported":1757765862,"current_range_meters":17600,"station_id":"ce4bhi12rcd13ifvqfo0","pricing_plan_id":"cebpf4jnsgd1na2vs0mg"},{"bike_id":"1fa9cf8a-cbc2-4f66-a5af-49139eedcffa","system_id":"levelo_inurba_marseille","lat":43.3168,"lon":5.40482,"is_reserved":false,"is_disabled":false,"rental_uris":{"android":"levelo://app?vid=1fa9cf8a-cbc2-4f66-a5af-49139eedcffa","ios":"levelo://app?vid=1fa9cf8a-cbc2-4f66-a5af-49139eedcffa"},"vehicle_type_id":"4","last_reported":1757765862,"current_range_meters":18000,"station_id":"ce4bh012rcd13ifvqd00","pricing_plan_id":"cebpf4jnsgd1na2vs0mg"},{"bike_id":"085d1fc3-832e-4bb8-9dab-596c869e48fd","system_id":"levelo_inurba_marseille","lat":43.282142,"lon":5.390462,"is_reserved":false,"is_disabled":true,"rental_uris":{"android":"levelo://app?vid=085d1fc3-832e-4bb8-9dab-596c869e48fd","ios":"levelo://app?vid=085d1fc3-832e-4bb8-9dab-596c869e48fd"},"vehicle_type_id":"4","last_reported":1757765862,"current_range_meters":18000,"station_id":"ce4bhn92rcd13ifvqgsg","pricing_plan_id":"cebpf4jnsgd1na2vs0mg"},{"bike_id":"5476d906-b0c2-4d37-81e0-6fc56d7abe48","system_id":"levelo_inurba_marseille","lat":43.317003,"lon":5.376626,"is_reserved":false,"is_disabled":false,"rental_uris":{"android":"levelo://app?vid=5476d906-b0c2-4d37-81e0-6fc56d7abe48","ios":"levelo://app?vid=5476d906-b0c2-4d37-81e0-6fc56d7abe48"},"vehicle_type_id":"4","last_reported":1757765862,"current_range_meters":18000,"station_id":"","pricing_plan_id":"cebpf4jnsgd1na2vs0mg"},{"bike_id":"b07aa0c5-a394-4147-825d-d46f5f93430a","system_id":"levelo_inurba_marseille","lat":43.26551,"lon":5.37305,"is_reserved":false,"is_disabled":false,"rental_uris":{"android":"levelo://app?vid=b07aa0c5-a394-4147-825d-d46f5f93430a","ios":"levelo://app?vid=b07aa0c5-a394-4147-825d-d46f5f93430a"},"vehicle_type_id":"4","last_reported":1757765862,"current_range_meters":18000,"station_id":"ce4bhg12rcd13ifvqf70","pricing_plan_id":"cebpf4jnsgd1na2vs0mg"},{"bike_id":"142f3050-ff7a-4fa8-827e-5e94424ef743","system_id":"levelo_inurba_marseille","lat":43.283723,"lon":5.385259,"is_reserved":false,"is_disabled":false,"rental_uris":{"android":"levelo://app?vid=142f3050-ff7a-4fa8-827e-5e94424ef743","ios":"levelo://app?vid=142f3050-ff7a-4fa8-827e-5e94424ef743"},"vehicle_type_id":"4","last_reported":1757765862,"current_range_meters":18000,"station_id":"ce4bh412rcd13ifvqds0","pricing_plan_id":"cebpf4jnsgd1na2vs0mg"},{"bike_id":"fd023a40-d69c-4361-9109-4126162693f0","system_id":"levelo_inurba_marseille","lat":43.2778,"lon":5.37831,"is_reserved":false,"is_disabled":false,"rental_uris":{"android":"levelo://app?vid=fd023a40-d69c-4361-9109-4126162693f0","ios":"levelo://app?vid=fd023a40-d69c-4361-9109-4126162693f0"},"vehicle_type_id":"4","last_reported":1757765862,"current_range_meters":18800,"station_id":"","pricing_plan_id":"cebpf4jnsgd1na2vs0mg"},{"bike_id":"8531afdb-32d4-4c53-8b7d-1730982d0eec","system_id":"levelo_inurba_marseille","lat":43.21755,"lon":5.34601,"is_reserved":false,"is_disabled":false,"rental_uris":{"android":"levelo://app?vid=8531afdb-32d4-4c53-8b7d-1730982d0eec","ios":"levelo://app?vid=8531afdb-32d4-4c53-8b7d-1730982d0eec"},"vehicle_type_id":"4","last_reported":1757765862,"current_range_meters":18800,"station_id":"","pricing_plan_id":"cebpf4jnsgd1na2vs0mg"},{"bike_id":"a214e50e-5287-4c9c-8ef0-07c2e66199d9","system_id":"levelo_inurba_marseille","lat":43.29251,"lon":5.37626,"is_reserved":false,"is_disabled":false,"rental_uris":{"android":"levelo://app?vid=a214e50e-5287-4c9c-8ef0-07c2e66199d9","ios":"levelo://app?vid=a214e50e-5287-4c9c-8ef0-07c2e66199d9"},"vehicle_type_id":"4","last_reported":1757765862,"current_range_meters":18800,"station_id":"ce4bgi12rcd13ifvqb80","pricing_plan_id":"cebpf4jnsgd1na2vs0mg"},{"bike_id":"5d66df86-a3b7-4823-89ca-7b28b24b8f9a","system_id":"levelo_inurba_marseille","lat":43.24076,"lon":5.37747,"is_reserved":false,"is_disabled":false,"rental_uris":{"android":"levelo://app?vid=5d66df86-a3b7-4823-89ca-7b28b24b8f9a","ios":"levelo://app?vid=5d66df86-a3b7-4823-89ca-7b28b24b8f9a"},"vehicle_type_id":"4","last_reported":1757765862,"current_range_meters":18800,"station_id":"ce4bhnp2rcd13ifvqgvg","pricing_plan_id":"cebpf4jnsgd1na2vs0mg"},{"bike_id":"14e2496b-54f5-4a71-8a7b-f668d23f2674","system_id":"levelo_inurba_marseille","lat":43.25724,"lon":5.4111,"is_reserved":false,"is_disabled":false,"rental_uris":{"android":"levelo://app?vid=14e2496b-54f5-4a71-8a7b-f668d23f2674","ios":"levelo://app?vid=14e2496b-54f5-4a71-8a7b-f668d23f2674"},"vehicle_type_id":"4","last_reported":1757765862,"current_range_meters":18800,"station_id":"ce4bhkp2rcd13ifvqgd0","pricing_plan_id":"cebpf4jnsgd1na2vs0mg"},{"bike_id":"5ffa11ef-9270-4a19-8f5d-ef90e10559b5","system_id":"levelo_inurba_marseille","lat":43.30882,"lon":5.39624,"is_reserved":false,"is_disabled":false,"rental_uris":{"android":"levelo://app?vid=5ffa11ef-9270-4a19-8f5d-ef90e10559b5","ios":"levelo://app?vid=5ffa11ef-9270-4a19-8f5d-ef90e10559b5"},"vehicle_type_id":"4","last_reported":1757765862,"current_range_meters":18800,"station_id":"ce4bh012rcd13ifvqcv0","pricing_plan_id":"cebpf4jnsgd1na2vs0mg"},{"bike_id":"8ab60a89-bd14-40d7-b359-020ea126cfef","system_id":"levelo_inurba_marseille","lat":43.32363,"lon":5.36758,"is_reserved":false,"is_disabled":false,"rental_uris":{"android":"levelo://app?vid=8ab60a89-bd14-40d7-b359-020ea126cfef","ios":"levelo://app?vid=8ab60a89-bd14-40d7-b359-020ea126cfef"},"vehicle_type_id":"4","last_reported":1757765862,"current_range_meters":18800,"station_id":"ce4bhsh2rcd13ifvqi2g","pricing_plan_id":"cebpf4jnsgd1na2vs0mg"},{"bike_id":"344751dd-0a55-4d10-992b-5c8fe2ec449c","system_id":"levelo_inurba_marseille","lat":43.28874,"lon":5.42536,"is_reserved":false,"is_disabled":false,"rental_uris":{"android":"levelo://app?vid=344751dd-0a55-4d10-992b-5c8fe2ec449c","ios":"levelo://app?vid=344751dd-0a55-4d10-992b-5c8fe2ec449c"},"vehicle_type_id":"4","last_reported":1757765862,"current_range_meters":18800,"station_id":"","pricing_plan_id":"cebpf4jnsgd1na2vs0mg"},{"bike_id":"ff744283-21ef-4c65-9de5-27f50be3b9b0","system_id":"levelo_inurba_marseille","lat":43.29052,"lon":5.39933,"is_reserved":false,"is_disabled":false,"rental_uris":{"android":"levelo://app?vid=ff744283-21ef-4c65-9de5-27f50be3b9b0","ios":"levelo://app?vid=ff744283-21ef-4c65-9de5-27f50be3b9b0"},"vehicle_type_id":"4","last_reported":1757765862,"current_range_meters":18800,"station_id":"ce4bh392rcd13ifvqdm0","pricing_plan_id":"cebpf4jnsgd1na2vs0mg"},{"bike_id":"b8ddeddb-2627-4731-9fbe-f1a8bc5b258c","system_id":"levelo_inurba_marseille","lat":43.3136,"lon":5.36701,"is_reserved":false,"is_disabled":false,"rental_uris":{"android":"levelo://app?vid=b8ddeddb-2627-4731-9fbe-f1a8bc5b258c","ios":"levelo://app?vid=b8ddeddb-2627-4731-9fbe-f1a8bc5b258c"},"vehicle_type_id":"4","last_reported":1757765862,"current_range_meters":18800,"station_id":"ce4bgr92rcd13ifvqc6g","pricing_plan_id":"cebpf4jnsgd1na2vs0mg"},{"bike_id":"b9d62d59-bc5a-4a79-a8ac-df065a1013f9","system_id":"levelo_inurba_marseille","lat":43.31355,"lon":5.36705,"is_reserved":false,"is_disabled":false,"rental_uris":{"android":"levelo://app?vid=b9d62d59-bc5a-4a79-a8ac-df065a1013f9","ios":"levelo://app?vid=b9d62d59-bc5a-4a79-a8ac-df065a1013f9"},"vehicle_type_id":"4","last_reported":1757765862,"current_range_meters":19200,"station_id":"ce4bgr92rcd13ifvqc6g","pricing_plan_id":"cebpf4jnsgd1na2vs0mg"},{"bike_id":"d9c4202c-de13-4428-8c40-40d90faf1618","system_id":"levelo_inurba_marseille","lat":43.31356,"lon":5.3707,"is_reserved":false,"is_disabled":false,"rental_uris":{"android":"levelo://app?vid=d9c4202c-de13-4428-8c40-40d90faf1618","ios":"levelo://app?vid=d9c4202c-de13-4428-8c40-40d90faf1618"},"vehicle_type_id":"4","last_reported":1757765862,"current_range_meters":19200,"station_id":"","pricing_plan_id":"cebpf4jnsgd1na2vs0mg"},{"bike_id":"20d08a36-fa04-454f-b381-5c66030c764a","system_id":"levelo_inurba_marseille","lat":43.31486,"lon":5.37304,"is_reserved":false,"is_disabled":false,"rental_uris":{"android":"levelo://app?vid=20d08a36-fa04-454f-b381-5c66030c764a","ios":"levelo://app?vid=20d08a36-fa04-454f-b381-5c66030c764a"},"vehicle_type_id":"4","last_reported":1757765862,"current_range_meters":19200,"station_id":"ce4bgt12rcd13ifvqcd0","pricing_plan_id":"cebpf4jnsgd1na2vs0mg"},{"bike_id":"ef94e107-b5fd-44f7-a023-fb0854a2be56","system_id":"levelo_inurba_marseille","lat":43.28614,"lon":5.35099,"is_reserved":false,"is_disabled":false,"rental_uris":{"android":"levelo://app?vid=ef94e107-b5fd-44f7-a023-fb0854a2be56","ios":"levelo://app?vid=ef94e107-b5fd-44f7-a023-fb0854a2be56"},"vehicle_type_id":"4","last_reported":1757765862,"current_range_meters":19200,"station_id":"ce4bhch2rcd13ifvqeug","pricing_plan_id":"cebpf4jnsgd1na2vs0mg"},{"bike_id":"38fb07ef-d51a-4a81-a159-85cbf3466ec5","system_id":"levelo_inurba_marseille","lat":43.29623,"lon":5.37726,"is_reserved":false,"is_disabled":false,"rental_uris":{"android":"levelo://app?vid=38fb07ef-d51a-4a81-a159-85cbf3466ec5","ios":"levelo://app?vid=38fb07ef-d51a-4a81-a159-85cbf3466ec5"},"vehicle_type_id":"4","last_reported":1757765862,"current_range_meters":19200,"station_id":"ce4bgi92rcd13ifvqb90","pricing_plan_id":"cebpf4jnsgd1na2vs0mg"},{"bike_id":"d9e0c818-cda2-40f3-9d69-4d79eefe1a97","system_id":"levelo_inurba_marseille","lat":43.24955,"lon":5.40486,"is_reserved":false,"is_disabled":false,"rental_uris":{"android":"levelo://app?vid=d9e0c818-cda2-40f3-9d69-4d79eefe1a97","ios":"levelo://app?vid=d9e0c818-cda2-40f3-9d69-4d79eefe1a97"},"vehicle_type_id":"4","last_reported":1757765862,"current_range_meters":19200,"station_id":"st_d2ngiaodas8pm72gd1h0","pricing_plan_id":"cebpf4jnsgd1na2vs0mg"},{"bike_id":"fb135702-3497-4a53-8709-882e75f58370","system_id":"levelo_inurba_marseille","lat":43.26276,"lon":5.38783,"is_reserved":false,"is_disabled":false,"rental_uris":{"android":"levelo://app?vid=fb135702-3497-4a53-8709-882e75f58370","ios":"levelo://app?vid=fb135702-3497-4a53-8709-882e75f58370"},"vehicle_type_id":"4","last_reported":1757765862,"current_range_meters":19600,"station_id":"","pricing_plan_id":"cebpf4jnsgd1na2vs0mg"},{"bike_id":"1a4b03c8-c846-43eb-8943-ea26b2df1874","system_id":"levelo_inurba_marseille","lat":43.298544,"lon":5.362968,"is_reserved":false,"is_disabled":false,"rental_uris":{"android":"levelo://app?vid=1a4b03c8-c846-43eb-8943-ea26b2df1874","ios":"levelo://app?vid=1a4b03c8-c846-43eb-8943-ea26b2df1874"},"vehicle_type_id":"4","last_reported":1757765862,"current_range_meters":19600,"station_id":"ce4bgpp2rcd13ifvqc3g","pricing_plan_id":"cebpf4jnsgd1na2vs0mg"},{"bike_id":"33bce734-02db-41bd-9e99-56f09bba3360","system_id":"levelo_inurba_marseille","lat":43.31349,"lon":5.36705,"is_reserved":false,"is_disabled":false,"rental_uris":{"android":"levelo://app?vid=33bce734-02db-41bd-9e99-56f09bba3360","ios":"levelo://app?vid=33bce734-02db-41bd-9e99-56f09bba3360"},"vehicle_type_id":"4","last_reported":1757765862,"current_range_meters":19600,"station_id":"ce4bgr92rcd13ifvqc6g","pricing_plan_id":"cebpf4jnsgd1na2vs0mg"},{"bike_id":"df245398-14b8-41c8-8bef-7baca96fae71","system_id":"levelo_inurba_marseille","lat":43.28276,"lon":5.35053,"is_reserved":false,"is_disabled":false,"rental_uris":{"android":"levelo://app?vid=df245398-14b8-41c8-8bef-7baca96fae71","ios":"levelo://app?vid=df245398-14b8-41c8-8bef-7baca96fae71"},"vehicle_type_id":"4","last_reported":1757765862,"current_range_meters":19200,"station_id":"ce4bhbp2rcd13ifvqerg","pricing_plan_id":"cebpf4jnsgd1na2vs0mg"},{"bike_id":"5251f1ab-5e79-4e33-b727-a0f198dd9b61","system_id":"levelo_inurba_marseille","lat":43.31684,"lon":5.40469,"is_reserved":false,"is_disabled":false,"rental_uris":{"android":"levelo://app?vid=5251f1ab-5e79-4e33-b727-a0f198dd9b61","ios":"levelo://app?vid=5251f1ab-5e79-4e33-b727-a0f198dd9b61"},"vehicle_type_id":"4","last_reported":1757765862,"current_range_meters":19600,"station_id":"ce4bh012rcd13ifvqd00","pricing_plan_id":"cebpf4jnsgd1na2vs0mg"},{"bike_id":"e06d2e94-3ae2-4b4b-9d7e-05d3f806365a","system_id":"levelo_inurba_marseille","lat":43.25835,"lon":5.39422,"is_reserved":false,"is_disabled":false,"rental_uris":{"android":"levelo://app?vid=e06d2e94-3ae2-4b4b-9d7e-05d3f806365a","ios":"levelo://app?vid=e06d2e94-3ae2-4b4b-9d7e-05d3f806365a"},"vehicle_type_id":"4","last_reported":1757765862,"current_range_meters":19600,"station_id":"ce4bhip2rcd13ifvqft0","pricing_plan_id":"cebpf4jnsgd1na2vs0mg"},{"bike_id":"a5c9522b-5261-4155-a4e2-94e2dce45723","system_id":"levelo_inurba_marseille","lat":43.2496,"lon":5.4048,"is_reserved":false,"is_disabled":false,"rental_uris":{"android":"levelo://app?vid=a5c9522b-5261-4155-a4e2-94e2dce45723","ios":"levelo://app?vid=a5c9522b-5261-4155-a4e2-94e2dce45723"},"vehicle_type_id":"4","last_reported":1757765862,"current_range_meters":19600,"station_id":"st_d2ngiaodas8pm72gd1h0","pricing_plan_id":"cebpf4jnsgd1na2vs0mg"},{"bike_id":"aa363d9e-9000-4f98-9e6d-adf7642d1e59","system_id":"levelo_inurba_marseille","lat":43.270701,"lon":5.422656,"is_reserved":false,"is_disabled":false,"rental_uris":{"android":"levelo://app?vid=aa363d9e-9000-4f98-9e6d-adf7642d1e59","ios":"levelo://app?vid=aa363d9e-9000-4f98-9e6d-adf7642d1e59"},"vehicle_type_id":"4","last_reported":1757765862,"current_range_meters":19600,"station_id":"ce4bhk92rcd13ifvqgb0","pricing_plan_id":"cebpf4jnsgd1na2vs0mg"},{"bike_id":"7dce95e7-921a-4ee3-8714-b4efc9e00513","system_id":"levelo_inurba_marseille","lat":43.29297,"lon":5.3744,"is_reserved":false,"is_disabled":false,"rental_uris":{"android":"levelo://app?vid=7dce95e7-921a-4ee3-8714-b4efc9e00513","ios":"levelo://app?vid=7dce95e7-921a-4ee3-8714-b4efc9e00513"},"vehicle_type_id":"4","last_reported":1757765862,"current_range_meters":19600,"station_id":"ce4bgi12rcd13ifvqb70","pricing_plan_id":"cebpf4jnsgd1na2vs0mg"},{"bike_id":"569c36b4-32d5-4d3d-be1d-56996fb4973d","system_id":"levelo_inurba_marseille","lat":43.2903,"lon":5.39982,"is_reserved":false,"is_disabled":false,"rental_uris":{"android":"levelo://app?vid=569c36b4-32d5-4d3d-be1d-56996fb4973d","ios":"levelo://app?vid=569c36b4-32d5-4d3d-be1d-56996fb4973d"},"vehicle_type_id":"4","last_reported":1757765862,"current_range_meters":20000,"station_id":"ce4bh392rcd13ifvqdm0","pricing_plan_id":"cebpf4jnsgd1na2vs0mg"},{"bike_id":"6ef85a29-21e6-45a0-b00b-81097449082d","system_id":"levelo_inurba_marseille","lat":43.29278,"lon":5.36836,"is_reserved":false,"is_disabled":false,"rental_uris":{"android":"levelo://app?vid=6ef85a29-21e6-45a0-b00b-81097449082d","ios":"levelo://app?vid=6ef85a29-21e6-45a0-b00b-81097449082d"},"vehicle_type_id":"4","last_reported":1757765862,"current_range_meters":20000,"station_id":"ce4bhbp2rcd13ifvqesg","pricing_plan_id":"cebpf4jnsgd1na2vs0mg"},{"bike_id":"72cbeeb6-1912-48c4-b0c4-4718bceff655","system_id":"levelo_inurba_marseille","lat":43.21204,"lon":5.35057,"is_reserved":false,"is_disabled":false,"rental_uris":{"android":"levelo://app?vid=72cbeeb6-1912-48c4-b0c4-4718bceff655","ios":"levelo://app?vid=72cbeeb6-1912-48c4-b0c4-4718bceff655"},"vehicle_type_id":"4","last_reported":1757765862,"current_range_meters":20000,"station_id":"st_cvj6sg6p6f1abm77japg","pricing_plan_id":"cebpf4jnsgd1na2vs0mg"},{"bike_id":"3283b7c7-ca97-44fb-913e-ab5791ec7c6a","system_id":"levelo_inurba_marseille","lat":43.3038,"lon":5.42483,"is_reserved":false,"is_disabled":false,"rental_uris":{"android":"levelo://app?vid=3283b7c7-ca97-44fb-913e-ab5791ec7c6a","ios":"levelo://app?vid=3283b7c7-ca97-44fb-913e-ab5791ec7c6a"},"vehicle_type_id":"4","last_reported":1757765862,"current_range_meters":20000,"station_id":"ce4bhoh2rcd13ifvqh6g","pricing_plan_id":"cebpf4jnsgd1na2vs0mg"},{"bike_id":"d0b51c92-8919-40a8-81c9-9ab53ac118e3","system_id":"levelo_inurba_marseille","lat":43.330436,"lon":5.39044,"is_reserved":false,"is_disabled":false,"rental_uris":{"android":"levelo://app?vid=d0b51c92-8919-40a8-81c9-9ab53ac118e3","ios":"levelo://app?vid=d0b51c92-8919-40a8-81c9-9ab53ac118e3"},"vehicle_type_id":"4","last_reported":1757765862,"current_range_meters":20000,"station_id":"ce4bhr92rcd13ifvqhrg","pricing_plan_id":"cebpf4jnsgd1na2vs0mg"},{"bike_id":"69154674-8aaa-4d29-bdba-2ea7e7c4c005","system_id":"levelo_inurba_marseille","lat":43.31079,"lon":5.42433,"is_reserved":false,"is_disabled":false,"rental_uris":{"android":"levelo://app?vid=69154674-8aaa-4d29-bdba-2ea7e7c4c005","ios":"levelo://app?vid=69154674-8aaa-4d29-bdba-2ea7e7c4c005"},"vehicle_type_id":"4","last_reported":1757765862,"current_range_meters":20000,"station_id":"ce4bhp92rcd13ifvqhag","pricing_plan_id":"cebpf4jnsgd1na2vs0mg"},{"bike_id":"570cfd23-52f5-4ba4-aaa8-0b6543ad2327","system_id":"levelo_inurba_marseille","lat":43.28664,"lon":5.38667,"is_reserved":false,"is_disabled":false,"rental_uris":{"android":"levelo://app?vid=570cfd23-52f5-4ba4-aaa8-0b6543ad2327","ios":"levelo://app?vid=570cfd23-52f5-4ba4-aaa8-0b6543ad2327"},"vehicle_type_id":"4","last_reported":1757765862,"current_range_meters":20000,"station_id":"ce4bh492rcd13ifvqdug","pricing_plan_id":"cebpf4jnsgd1na2vs0mg"},{"bike_id":"3e6ac919-49a6-488e-837f-4a6e3ad4307e","system_id":"levelo_inurba_marseille","lat":43.33727,"lon":5.39178,"is_reserved":false,"is_disabled":false,"rental_uris":{"android":"levelo://app?vid=3e6ac919-49a6-488e-837f-4a6e3ad4307e","ios":"levelo://app?vid=3e6ac919-49a6-488e-837f-4a6e3ad4307e"},"vehicle_type_id":"4","last_reported":1757765862,"current_range_meters":20400,"station_id":"ce4bhr92rcd13ifvqhsg","pricing_plan_id":"cebpf4jnsgd1na2vs0mg"},{"bike_id":"7dd08d74-12fd-4d88-ad3b-d200553dbabe","system_id":"levelo_inurba_marseille","lat":43.29028,"lon":5.39966,"is_reserved":false,"is_disabled":false,"rental_uris":{"android":"levelo://app?vid=7dd08d74-12fd-4d88-ad3b-d200553dbabe","ios":"levelo://app?vid=7dd08d74-12fd-4d88-ad3b-d200553dbabe"},"vehicle_type_id":"4","last_reported":1757765862,"current_range_meters":20400,"station_id":"ce4bh392rcd13ifvqdm0","pricing_plan_id":"cebpf4jnsgd1na2vs0mg"},{"bike_id":"c79f98a5-b132-4d8b-b050-5e48074dc6fe","system_id":"levelo_inurba_marseille","lat":43.31695,"lon":5.404387,"is_reserved":false,"is_disabled":false,"rental_uris":{"android":"levelo://app?vid=c79f98a5-b132-4d8b-b050-5e48074dc6fe","ios":"levelo://app?vid=c79f98a5-b132-4d8b-b050-5e48074dc6fe"},"vehicle_type_id":"4","last_reported":1757765862,"current_range_meters":20400,"station_id":"ce4bh012rcd13ifvqd00","pricing_plan_id":"cebpf4jnsgd1na2vs0mg"},{"bike_id":"85e4c8e5-691c-4752-b064-9910c1b749fd","system_id":"levelo_inurba_marseille","lat":43.29299,"lon":5.37443,"is_reserved":false,"is_disabled":false,"rental_uris":{"android":"levelo://app?vid=85e4c8e5-691c-4752-b064-9910c1b749fd","ios":"levelo://app?vid=85e4c8e5-691c-4752-b064-9910c1b749fd"},"vehicle_type_id":"4","last_reported":1757765862,"current_range_meters":20800,"station_id":"ce4bgi12rcd13ifvqb70","pricing_plan_id":"cebpf4jnsgd1na2vs0mg"},{"bike_id":"22f29fde-4cf5-4a9b-994a-0e2fd1967670","system_id":"levelo_inurba_marseille","lat":43.24172,"lon":5.3639,"is_reserved":false,"is_disabled":false,"rental_uris":{"android":"levelo://app?vid=22f29fde-4cf5-4a9b-994a-0e2fd1967670","ios":"levelo://app?vid=22f29fde-4cf5-4a9b-994a-0e2fd1967670"},"vehicle_type_id":"4","last_reported":1757765862,"current_range_meters":20400,"station_id":"cpo36qri1sfpv3e86is0","pricing_plan_id":"cebpf4jnsgd1na2vs0mg"},{"bike_id":"4abcfd1f-d5ba-40bf-8216-a47803a52e59","system_id":"levelo_inurba_marseille","lat":43.24639,"lon":5.43131,"is_reserved":false,"is_disabled":false,"rental_uris":{"android":"levelo://app?vid=4abcfd1f-d5ba-40bf-8216-a47803a52e59","ios":"levelo://app?vid=4abcfd1f-d5ba-40bf-8216-a47803a52e59"},"vehicle_type_id":"4","last_reported":1757765862,"current_range_meters":20400,"station_id":"st_d2m6c4gdas8pm72e190g","pricing_plan_id":"cebpf4jnsgd1na2vs0mg"},{"bike_id":"654df5a8-46fd-4bb1-a78c-219e858dd01e","system_id":"levelo_inurba_marseille","lat":43.28872,"lon":5.366796,"is_reserved":false,"is_disabled":false,"rental_uris":{"android":"levelo://app?vid=654df5a8-46fd-4bb1-a78c-219e858dd01e","ios":"levelo://app?vid=654df5a8-46fd-4bb1-a78c-219e858dd01e"},"vehicle_type_id":"4","last_reported":1757765862,"current_range_meters":20800,"station_id":"","pricing_plan_id":"cebpf4jnsgd1na2vs0mg"},{"bike_id":"84a5505b-1c70-4fbd-8713-1aeafa411c7d","system_id":"levelo_inurba_marseille","lat":43.23196,"lon":5.35547,"is_reserved":false,"is_disabled":false,"rental_uris":{"android":"levelo://app?vid=84a5505b-1c70-4fbd-8713-1aeafa411c7d","ios":"levelo://app?vid=84a5505b-1c70-4fbd-8713-1aeafa411c7d"},"vehicle_type_id":"4","last_reported":1757765862,"current_range_meters":20800,"station_id":"ce4bhu92rcd13ifvqi70","pricing_plan_id":"cebpf4jnsgd1na2vs0mg"},{"bike_id":"e54a1e7f-72fe-4f72-999a-0b938621ab02","system_id":"levelo_inurba_marseille","lat":43.23146,"lon":5.43674,"is_reserved":false,"is_disabled":false,"rental_uris":{"android":"levelo://app?vid=e54a1e7f-72fe-4f72-999a-0b938621ab02","ios":"levelo://app?vid=e54a1e7f-72fe-4f72-999a-0b938621ab02"},"vehicle_type_id":"4","last_reported":1757765862,"current_range_meters":20800,"station_id":"ce4bhmp2rcd13ifvqgog","pricing_plan_id":"cebpf4jnsgd1na2vs0mg"},{"bike_id":"baeac19a-ea02-4814-84a7-e6f70f241cbd","system_id":"levelo_inurba_marseille","lat":43.30598,"lon":5.39357,"is_reserved":false,"is_disabled":true,"rental_uris":{"android":"levelo://app?vid=baeac19a-ea02-4814-84a7-e6f70f241cbd","ios":"levelo://app?vid=baeac19a-ea02-4814-84a7-e6f70f241cbd"},"vehicle_type_id":"4","last_reported":1757765862,"current_range_meters":21600,"station_id":"ce4bh0p2rcd13ifvqd80","pricing_plan_id":"cebpf4jnsgd1na2vs0mg"},{"bike_id":"b6953673-0d9e-407c-b600-8f199ad84117","system_id":"levelo_inurba_marseille","lat":43.25352,"lon":5.42188,"is_reserved":false,"is_disabled":false,"rental_uris":{"android":"levelo://app?vid=b6953673-0d9e-407c-b600-8f199ad84117","ios":"levelo://app?vid=b6953673-0d9e-407c-b600-8f199ad84117"},"vehicle_type_id":"4","last_reported":1757765862,"current_range_meters":21600,"station_id":"st_d2m65c5bi1j21697t3ng","pricing_plan_id":"cebpf4jnsgd1na2vs0mg"},{"bike_id":"b205361c-f9c9-4d5e-a27a-169f107dad29","system_id":"levelo_inurba_marseille","lat":43.28851,"lon":5.35851,"is_reserved":false,"is_disabled":false,"rental_uris":{"android":"levelo://app?vid=b205361c-f9c9-4d5e-a27a-169f107dad29","ios":"levelo://app?vid=b205361c-f9c9-4d5e-a27a-169f107dad29"},"vehicle_type_id":"4","last_reported":1757765862,"current_range_meters":21600,"station_id":"ce4bhb12rcd13ifvqem0","pricing_plan_id":"cebpf4jnsgd1na2vs0mg"},{"bike_id":"07c46609-354b-450e-973d-d60dfc568978","system_id":"levelo_inurba_marseille","lat":43.28941,"lon":5.36636,"is_reserved":false,"is_disabled":false,"rental_uris":{"android":"levelo://app?vid=07c46609-354b-450e-973d-d60dfc568978","ios":"levelo://app?vid=07c46609-354b-450e-973d-d60dfc568978"},"vehicle_type_id":"4","last_reported":1757765862,"current_range_meters":21600,"station_id":"ce4bhap2rcd13ifvqek0","pricing_plan_id":"cebpf4jnsgd1na2vs0mg"},{"bike_id":"ad544647-5134-449d-92da-b8f9e88c737e","system_id":"levelo_inurba_marseille","lat":43.30601,"lon":5.40091,"is_reserved":false,"is_disabled":false,"rental_uris":{"android":"levelo://app?vid=ad544647-5134-449d-92da-b8f9e88c737e","ios":"levelo://app?vid=ad544647-5134-449d-92da-b8f9e88c737e"},"vehicle_type_id":"4","last_reported":1757765862,"current_range_meters":21600,"station_id":"ce4bh112rcd13ifvqda0","pricing_plan_id":"cebpf4jnsgd1na2vs0mg"},{"bike_id":"627e861f-f545-4be9-b102-65ef3a42b43a","system_id":"levelo_inurba_marseille","lat":43.30935,"lon":5.40156,"is_reserved":false,"is_disabled":false,"rental_uris":{"android":"levelo://app?vid=627e861f-f545-4be9-b102-65ef3a42b43a","ios":"levelo://app?vid=627e861f-f545-4be9-b102-65ef3a42b43a"},"vehicle_type_id":"4","last_reported":1757765862,"current_range_meters":21600,"station_id":"ce4bgvp2rcd13ifvqct0","pricing_plan_id":"cebpf4jnsgd1na2vs0mg"},{"bike_id":"b5751d4f-fdc4-4968-81b3-33eb95c2c675","system_id":"levelo_inurba_marseille","lat":43.3064,"lon":5.40095,"is_reserved":false,"is_disabled":false,"rental_uris":{"android":"levelo://app?vid=b5751d4f-fdc4-4968-81b3-33eb95c2c675","ios":"levelo://app?vid=b5751d4f-fdc4-4968-81b3-33eb95c2c675"},"vehicle_type_id":"4","last_reported":1757765862,"current_range_meters":22000,"station_id":"ce4bh112rcd13ifvqda0","pricing_plan_id":"cebpf4jnsgd1na2vs0mg"},{"bike_id":"ff781d72-0933-4e94-b6be-931983874e6c","system_id":"levelo_inurba_marseille","lat":43.33028,"lon":5.3907,"is_reserved":false,"is_disabled":false,"rental_uris":{"android":"levelo://app?vid=ff781d72-0933-4e94-b6be-931983874e6c","ios":"levelo://app?vid=ff781d72-0933-4e94-b6be-931983874e6c"},"vehicle_type_id":"4","last_reported":1757765862,"current_range_meters":22000,"station_id":"ce4bhr92rcd13ifvqhrg","pricing_plan_id":"cebpf4jnsgd1na2vs0mg"},{"bike_id":"eac55901-0179-4882-b7d8-302291de329b","system_id":"levelo_inurba_marseille","lat":43.2407,"lon":5.3775,"is_reserved":false,"is_disabled":false,"rental_uris":{"android":"levelo://app?vid=eac55901-0179-4882-b7d8-302291de329b","ios":"levelo://app?vid=eac55901-0179-4882-b7d8-302291de329b"},"vehicle_type_id":"4","last_reported":1757765862,"current_range_meters":22000,"station_id":"ce4bhnp2rcd13ifvqgvg","pricing_plan_id":"cebpf4jnsgd1na2vs0mg"},{"bike_id":"0b14ee4e-5f7b-49c6-bcf6-cc567a807302","system_id":"levelo_inurba_marseille","lat":43.284776,"lon":5.384189,"is_reserved":false,"is_disabled":false,"rental_uris":{"android":"levelo://app?vid=0b14ee4e-5f7b-49c6-bcf6-cc567a807302","ios":"levelo://app?vid=0b14ee4e-5f7b-49c6-bcf6-cc567a807302"},"vehicle_type_id":"4","last_reported":1757765862,"current_range_meters":22000,"station_id":"","pricing_plan_id":"cebpf4jnsgd1na2vs0mg"},{"bike_id":"d218c5c8-561a-4a42-b2aa-19b6c9da74fb","system_id":"levelo_inurba_marseille","lat":43.316917,"lon":5.404584,"is_reserved":false,"is_disabled":false,"rental_uris":{"android":"levelo://app?vid=d218c5c8-561a-4a42-b2aa-19b6c9da74fb","ios":"levelo://app?vid=d218c5c8-561a-4a42-b2aa-19b6c9da74fb"},"vehicle_type_id":"4","last_reported":1757765862,"current_range_meters":22000,"station_id":"ce4bh012rcd13ifvqd00","pricing_plan_id":"cebpf4jnsgd1na2vs0mg"},{"bike_id":"bd0dc0b3-ab3b-4eb1-8904-ded4c5b1d4d0","system_id":"levelo_inurba_marseille","lat":43.251144,"lon":5.403432,"is_reserved":false,"is_disabled":false,"rental_uris":{"android":"levelo://app?vid=bd0dc0b3-ab3b-4eb1-8904-ded4c5b1d4d0","ios":"levelo://app?vid=bd0dc0b3-ab3b-4eb1-8904-ded4c5b1d4d0"},"vehicle_type_id":"4","last_reported":1757765862,"current_range_meters":22000,"station_id":"ce4bhlh2rcd13ifvqgig","pricing_plan_id":"cebpf4jnsgd1na2vs0mg"},{"bike_id":"9904c001-78e8-4236-bd42-1976fab37afc","system_id":"levelo_inurba_marseille","lat":43.29848,"lon":5.36252,"is_reserved":false,"is_disabled":false,"rental_uris":{"android":"levelo://app?vid=9904c001-78e8-4236-bd42-1976fab37afc","ios":"levelo://app?vid=9904c001-78e8-4236-bd42-1976fab37afc"},"vehicle_type_id":"4","last_reported":1757765862,"current_range_meters":22000,"station_id":"ce4bgpp2rcd13ifvqc3g","pricing_plan_id":"cebpf4jnsgd1na2vs0mg"},{"bike_id":"cd06ad8a-f829-4f2f-aca7-fd822eb60a57","system_id":"levelo_inurba_marseille","lat":43.301151,"lon":5.391645,"is_reserved":false,"is_disabled":false,"rental_uris":{"android":"levelo://app?vid=cd06ad8a-f829-4f2f-aca7-fd822eb60a57","ios":"levelo://app?vid=cd06ad8a-f829-4f2f-aca7-fd822eb60a57"},"vehicle_type_id":"4","last_reported":1757765862,"current_range_meters":22400,"station_id":"ce4bgih2rcd13ifvqba0","pricing_plan_id":"cebpf4jnsgd1na2vs0mg"},{"bike_id":"465f26b9-42e4-4310-afe2-2a4f1b89ac71","system_id":"levelo_inurba_marseille","lat":43.29223,"lon":5.36006,"is_reserved":false,"is_disabled":false,"rental_uris":{"android":"levelo://app?vid=465f26b9-42e4-4310-afe2-2a4f1b89ac71","ios":"levelo://app?vid=465f26b9-42e4-4310-afe2-2a4f1b89ac71"},"vehicle_type_id":"4","last_reported":1757765862,"current_range_meters":22400,"station_id":"","pricing_plan_id":"cebpf4jnsgd1na2vs0mg"},{"bike_id":"322c1f5a-85db-4ef6-bcd4-1b5c417c8ee0","system_id":"levelo_inurba_marseille","lat":43.3377,"lon":5.37488,"is_reserved":false,"is_disabled":false,"rental_uris":{"android":"levelo://app?vid=322c1f5a-85db-4ef6-bcd4-1b5c417c8ee0","ios":"levelo://app?vid=322c1f5a-85db-4ef6-bcd4-1b5c417c8ee0"},"vehicle_type_id":"4","last_reported":1757765862,"current_range_meters":22400,"station_id":"","pricing_plan_id":"cebpf4jnsgd1na2vs0mg"},{"bike_id":"f23b3176-d668-4572-be72-845cea1deea4","system_id":"levelo_inurba_marseille","lat":43.292596,"lon":5.38418,"is_reserved":false,"is_disabled":false,"rental_uris":{"android":"levelo://app?vid=f23b3176-d668-4572-be72-845cea1deea4","ios":"levelo://app?vid=f23b3176-d668-4572-be72-845cea1deea4"},"vehicle_type_id":"4","last_reported":1757765862,"current_range_meters":22400,"station_id":"ce4bh692rcd13ifvqea0","pricing_plan_id":"cebpf4jnsgd1na2vs0mg"},{"bike_id":"2b1bb623-26b8-4b03-bdde-97c0d5f84323","system_id":"levelo_inurba_marseille","lat":43.279486,"lon":5.410402,"is_reserved":false,"is_disabled":false,"rental_uris":{"android":"levelo://app?vid=2b1bb623-26b8-4b03-bdde-97c0d5f84323","ios":"levelo://app?vid=2b1bb623-26b8-4b03-bdde-97c0d5f84323"},"vehicle_type_id":"4","last_reported":1757765862,"current_range_meters":22400,"station_id":"ce4bhnp2rcd13ifvqh0g","pricing_plan_id":"cebpf4jnsgd1na2vs0mg"},{"bike_id":"a105295b-ff3b-4cad-8c23-e4f77eab1c15","system_id":"levelo_inurba_marseille","lat":43.250996,"lon":5.395106,"is_reserved":false,"is_disabled":false,"rental_uris":{"android":"levelo://app?vid=a105295b-ff3b-4cad-8c23-e4f77eab1c15","ios":"levelo://app?vid=a105295b-ff3b-4cad-8c23-e4f77eab1c15"},"vehicle_type_id":"4","last_reported":1757765862,"current_range_meters":22400,"station_id":"ce4bhm12rcd13ifvqgkg","pricing_plan_id":"cebpf4jnsgd1na2vs0mg"},{"bike_id":"cea02105-383c-4c72-9af2-c9d929dbe890","system_id":"levelo_inurba_marseille","lat":43.29229,"lon":5.36057,"is_reserved":false,"is_disabled":false,"rental_uris":{"android":"levelo://app?vid=cea02105-383c-4c72-9af2-c9d929dbe890","ios":"levelo://app?vid=cea02105-383c-4c72-9af2-c9d929dbe890"},"vehicle_type_id":"4","last_reported":1757765862,"current_range_meters":22400,"station_id":"ce4bhbh2rcd13ifvqeqg","pricing_plan_id":"cebpf4jnsgd1na2vs0mg"},{"bike_id":"06aeaaae-7862-4a90-ba92-2ab4e4825708","system_id":"levelo_inurba_marseille","lat":43.30941,"lon":5.40143,"is_reserved":false,"is_disabled":false,"rental_uris":{"android":"levelo://app?vid=06aeaaae-7862-4a90-ba92-2ab4e4825708","ios":"levelo://app?vid=06aeaaae-7862-4a90-ba92-2ab4e4825708"},"vehicle_type_id":"4","last_reported":1757765862,"current_range_meters":22800,"station_id":"ce4bgvp2rcd13ifvqct0","pricing_plan_id":"cebpf4jnsgd1na2vs0mg"},{"bike_id":"254dfbce-8d46-4f4b-8c18-95b9b379b809","system_id":"levelo_inurba_marseille","lat":43.24653,"lon":5.38168,"is_reserved":false,"is_disabled":false,"rental_uris":{"android":"levelo://app?vid=254dfbce-8d46-4f4b-8c18-95b9b379b809","ios":"levelo://app?vid=254dfbce-8d46-4f4b-8c18-95b9b379b809"},"vehicle_type_id":"4","last_reported":1757765862,"current_range_meters":22800,"station_id":"ce4bhih2rcd13ifvqfr0","pricing_plan_id":"cebpf4jnsgd1na2vs0mg"},{"bike_id":"de7596f8-77b6-4f82-9ecb-3a8809739d41","system_id":"levelo_inurba_marseille","lat":43.29534,"lon":5.38541,"is_reserved":false,"is_disabled":false,"rental_uris":{"android":"levelo://app?vid=de7596f8-77b6-4f82-9ecb-3a8809739d41","ios":"levelo://app?vid=de7596f8-77b6-4f82-9ecb-3a8809739d41"},"vehicle_type_id":"4","last_reported":1757765862,"current_range_meters":22800,"station_id":"ce4bgih2rcd13ifvqba0","pricing_plan_id":"cebpf4jnsgd1na2vs0mg"},{"bike_id":"e6de3bdc-2fd7-4161-b5a7-a76223fd2040","system_id":"levelo_inurba_marseille","lat":43.27938,"lon":5.4103,"is_reserved":false,"is_disabled":false,"rental_uris":{"android":"levelo://app?vid=e6de3bdc-2fd7-4161-b5a7-a76223fd2040","ios":"levelo://app?vid=e6de3bdc-2fd7-4161-b5a7-a76223fd2040"},"vehicle_type_id":"4","last_reported":1757765862,"current_range_meters":22800,"station_id":"ce4bhnp2rcd13ifvqh0g","pricing_plan_id":"cebpf4jnsgd1na2vs0mg"},{"bike_id":"0bba1876-97de-4136-a6fe-cc9547e6fe55","system_id":"levelo_inurba_marseille","lat":43.29027,"lon":5.39969,"is_reserved":false,"is_disabled":true,"rental_uris":{"android":"levelo://app?vid=0bba1876-97de-4136-a6fe-cc9547e6fe55","ios":"levelo://app?vid=0bba1876-97de-4136-a6fe-cc9547e6fe55"},"vehicle_type_id":"4","last_reported":1757765862,"current_range_meters":22800,"station_id":"ce4bh392rcd13ifvqdm0","pricing_plan_id":"cebpf4jnsgd1na2vs0mg"},{"bike_id":"1077012b-aacf-4f63-9a21-9ae964d1def4","system_id":"levelo_inurba_marseille","lat":43.29588,"lon":5.37752,"is_reserved":false,"is_disabled":false,"rental_uris":{"android":"levelo://app?vid=1077012b-aacf-4f63-9a21-9ae964d1def4","ios":"levelo://app?vid=1077012b-aacf-4f63-9a21-9ae964d1def4"},"vehicle_type_id":"4","last_reported":1757765862,"current_range_meters":22800,"station_id":"","pricing_plan_id":"cebpf4jnsgd1na2vs0mg"},{"bike_id":"2cdf20cc-8a8b-45f2-8af7-ef80d2db2f34","system_id":"levelo_inurba_marseille","lat":43.29012,"lon":5.35598,"is_reserved":false,"is_disabled":false,"rental_uris":{"android":"levelo://app?vid=2cdf20cc-8a8b-45f2-8af7-ef80d2db2f34","ios":"levelo://app?vid=2cdf20cc-8a8b-45f2-8af7-ef80d2db2f34"},"vehicle_type_id":"4","last_reported":1757765862,"current_range_meters":22800,"station_id":"ce4bhb92rcd13ifvqen0","pricing_plan_id":"cebpf4jnsgd1na2vs0mg"},{"bike_id":"d27a3574-c668-415b-ad3b-c0a1e10e6cf4","system_id":"levelo_inurba_marseille","lat":43.337444,"lon":5.374475,"is_reserved":false,"is_disabled":false,"rental_uris":{"android":"levelo://app?vid=d27a3574-c668-415b-ad3b-c0a1e10e6cf4","ios":"levelo://app?vid=d27a3574-c668-415b-ad3b-c0a1e10e6cf4"},"vehicle_type_id":"4","last_reported":1757765862,"current_range_meters":22800,"station_id":"","pricing_plan_id":"cebpf4jnsgd1na2vs0mg"},{"bike_id":"6934ce14-8044-42db-8e2f-3f47da3c5374","system_id":"levelo_inurba_marseille","lat":43.29033,"lon":5.39967,"is_reserved":false,"is_disabled":false,"rental_uris":{"android":"levelo://app?vid=6934ce14-8044-42db-8e2f-3f47da3c5374","ios":"levelo://app?vid=6934ce14-8044-42db-8e2f-3f47da3c5374"},"vehicle_type_id":"4","last_reported":1757765862,"current_range_meters":23200,"station_id":"ce4bh392rcd13ifvqdm0","pricing_plan_id":"cebpf4jnsgd1na2vs0mg"},{"bike_id":"d426ba23-61d9-4d1a-a048-d1b0109368f5","system_id":"levelo_inurba_marseille","lat":43.29844,"lon":5.36285,"is_reserved":false,"is_disabled":false,"rental_uris":{"android":"levelo://app?vid=d426ba23-61d9-4d1a-a048-d1b0109368f5","ios":"levelo://app?vid=d426ba23-61d9-4d1a-a048-d1b0109368f5"},"vehicle_type_id":"4","last_reported":1757765862,"current_range_meters":23200,"station_id":"ce4bgpp2rcd13ifvqc3g","pricing_plan_id":"cebpf4jnsgd1na2vs0mg"},{"bike_id":"d293788c-880a-4618-a572-420a6780f2c1","system_id":"levelo_inurba_marseille","lat":43.28011,"lon":5.41647,"is_reserved":false,"is_disabled":false,"rental_uris":{"android":"levelo://app?vid=d293788c-880a-4618-a572-420a6780f2c1","ios":"levelo://app?vid=d293788c-880a-4618-a572-420a6780f2c1"},"vehicle_type_id":"4","last_reported":1757765862,"current_range_meters":23200,"station_id":"ce4bho12rcd13ifvqh1g","pricing_plan_id":"cebpf4jnsgd1na2vs0mg"},{"bike_id":"bbc136e4-ae92-46a3-aa30-9e7d78bf3ad6","system_id":"levelo_inurba_marseille","lat":43.27971,"lon":5.38738,"is_reserved":false,"is_disabled":false,"rental_uris":{"android":"levelo://app?vid=bbc136e4-ae92-46a3-aa30-9e7d78bf3ad6","ios":"levelo://app?vid=bbc136e4-ae92-46a3-aa30-9e7d78bf3ad6"},"vehicle_type_id":"4","last_reported":1757765862,"current_range_meters":22800,"station_id":"ce4bhg12rcd13ifvqf80","pricing_plan_id":"cebpf4jnsgd1na2vs0mg"},{"bike_id":"526a9a07-bd55-46f3-b58d-225313b5c865","system_id":"levelo_inurba_marseille","lat":43.31168,"lon":5.38719,"is_reserved":false,"is_disabled":false,"rental_uris":{"android":"levelo://app?vid=526a9a07-bd55-46f3-b58d-225313b5c865","ios":"levelo://app?vid=526a9a07-bd55-46f3-b58d-225313b5c865"},"vehicle_type_id":"4","last_reported":1757765862,"current_range_meters":22800,"station_id":"ce4bgv12rcd13ifvqcp0","pricing_plan_id":"cebpf4jnsgd1na2vs0mg"},{"bike_id":"0c02bf4e-2ff2-4957-90bd-592b9ffd60b4","system_id":"levelo_inurba_marseille","lat":43.30419,"lon":5.41294,"is_reserved":false,"is_disabled":false,"rental_uris":{"android":"levelo://app?vid=0c02bf4e-2ff2-4957-90bd-592b9ffd60b4","ios":"levelo://app?vid=0c02bf4e-2ff2-4957-90bd-592b9ffd60b4"},"vehicle_type_id":"4","last_reported":1757765862,"current_range_meters":22800,"station_id":"ce4bhop2rcd13ifvqh8g","pricing_plan_id":"cebpf4jnsgd1na2vs0mg"},{"bike_id":"d9a7c4bd-53f2-4cde-a7f4-552208dff846","system_id":"levelo_inurba_marseille","lat":43.25097,"lon":5.395,"is_reserved":false,"is_disabled":false,"rental_uris":{"android":"levelo://app?vid=d9a7c4bd-53f2-4cde-a7f4-552208dff846","ios":"levelo://app?vid=d9a7c4bd-53f2-4cde-a7f4-552208dff846"},