{"last_updated":1767694390,"ttl":60,"version":"2.2","data":{"bikes":[{"bike_id":"187e996b-de3c-4934-a3da-316b84bcdbd7","system_id":"levelo_inurba_marseille","lat":43.29783,"lon":5.38102,"is_reserved":false,"is_disabled":false,"rental_uris":{"android":"levelo://app?vid=187e996b-de3c-4934-a3da-316b84bcdbd7","ios":"levelo://app?vid=187e996b-de3c-4934-a3da-316b84bcdbd7"},"vehicle_type_id":"4","last_reported":1767694390,"current_range_meters":400,"station_id":"ce4bgip2rcd13ifvqbb0","pricing_plan_id":"cebpf4jnsgd1na2vs0mg"},{"bike_id":"0a23cc5b-f297-4524-83b2-db7684366b12","system_id":"levelo_inurba_marseille","lat":43.31166,"lon":5.39601,"is_reserved":false,"is_disabled":false,"rental_uris":{"android":"levelo://app?vid=0a23cc5b-f297-4524-83b2-db7684366b12","ios":"levelo://app?vid=0a23cc5b-f297-4524-83b2-db7684366b12"},"vehicle_type_id":"4","last_reported":1767694390,"current_range_meters":400,"station_id":"","pricing_plan_id":"cebpf4jnsgd1na2vs0mg"},{"bike_id":"af83c65e-0614-46b4-af72-98754f2d2308","system_id":"levelo_inurba_marseille","lat":43.29354,"lon":5.37876,"is_reserved":false,"is_disabled":false,"rental_uris":{"android":"levelo://app?vid=af83c65e-0614-46b4-af72-98754f2d2308","ios":"levelo://app?vid=af83c65e-0614-46b4-af72-98754f2d2308"},"vehicle_type_id":"4","last_reported":1767694390,"current_range_meters":400,"station_id":"ce4bgjh2rcd13ifvqbf0","pricing_plan_id":"cebpf4jnsgd1na2vs0mg"},{"bike_id":"6aaa4fdf-e1b0-482d-a32a-bc5964a1ee3b","system_id":"levelo_inurba_marseille","lat":43.30906,"lon":5.36866,"is_reserved":false,"is_disabled":false,"rental_uris":{"android":"levelo://app?vid=6aaa4fdf-e1b0-482d-a32a-bc5964a1ee3b","ios":"levelo://app?vid=6aaa4fdf-e1b0-482d-a32a-bc5964a1ee3b"},"vehicle_type_id":"4","last_reported":1767694390,"current_range_meters":400,"station_id":"ce4bgn92rcd13ifvqbvg","pricing_plan_id":"cebpf4jnsgd1na2vs0mg"},{"bike_id":"c13be725-5387-4ef7-b7f8-d2ca20b178ee","system_id":"levelo_inurba_marseille","lat":43.30563,"lon":5.37606,"is_reserved":false,"is_disabled":false,"rental_uris":{"android":"levelo://app?vid=c13be725-5387-4ef7-b7f8-d2ca20b178ee","ios":"levelo://app?vid=c13be725-5387-4ef7-b7f8-d2ca20b178ee"},"vehicle_type_id":"4","last_reported":1767694390,"current_range_meters":400,"station_id":"","pricing_plan_id":"cebpf4jnsgd1na2vs0mg"},{"bike_id":"b9954c88-975c-4a0e-8000-50f9183594b2","system_id":"levelo_inurba_marseille","lat":43.2551,"lon":5.37673,"is_reserved":false,"is_disabled":false,"rental_uris":{"android":"levelo://app?vid=b9954c88-975c-4a0e-8000-50f9183594b2","ios":"levelo://app?vid=b9954c88-975c-4a0e-8000-50f9183594b2"},"vehicle_type_id":"4","last_reported":1767694390,"current_range_meters":400,"station_id":"ce4bhh12rcd13ifvqff0","pricing_plan_id":"cebpf4jnsgd1na2vs0mg"},{"bike_id":"68d3355d-e56c-487a-99e3-37b4d7332565","system_id":"levelo_inurba_marseille","lat":43.30276,"lon":5.3729,"is_reserved":false,"is_disabled":false,"rental_uris":{"android":"levelo://app?vid=68d3355d-e56c-487a-99e3-37b4d7332565","ios":"levelo://app?vid=68d3355d-e56c-487a-99e3-37b4d7332565"},"vehicle_type_id":"4","last_reported":1767694390,"current_range_meters":400,"station_id":"","pricing_plan_id":"cebpf4jnsgd1na2vs0mg"},{"bike_id":"d8c0eeb4-fc0a-45dc-ac74-09ed3dea353f","system_id":"levelo_inurba_marseille","lat":43.297806,"lon":5.372011,"is_reserved":false,"is_disabled":false,"rental_uris":{"android":"levelo://app?vid=d8c0eeb4-fc0a-45dc-ac74-09ed3dea353f","ios":"levelo://app?vid=d8c0eeb4-fc0a-45dc-ac74-09ed3dea353f"},"vehicle_type_id":"4","last_reported":1767694390,"current_range_meters":400,"station_id":"ce4bgop2rcd13ifvqc1g","pricing_plan_id":"cebpf4jnsgd1na2vs0mg"},{"bike_id":"2bfe542a-e193-49d1-936d-fe38dea37f20","system_id":"levelo_inurba_marseille","lat":43.29862,"lon":5.37672,"is_reserved":false,"is_disabled":false,"rental_uris":{"android":"levelo://app?vid=2bfe542a-e193-49d1-936d-fe38dea37f20","ios":"levelo://app?vid=2bfe542a-e193-49d1-936d-fe38dea37f20"},"vehicle_type_id":"4","last_reported":1767694390,"current_range_meters":800,"station_id":"ce4bhr92rcd13ifvqhrg","pricing_plan_id":"cebpf4jnsgd1na2vs0mg"},{"bike_id":"6a66461d-7800-4fa0-a04f-7d76866aa62d","system_id":"levelo_inurba_marseille","lat":43.32622,"lon":5.41931,"is_reserved":false,"is_disabled":false,"rental_uris":{"android":"levelo://app?vid=6a66461d-7800-4fa0-a04f-7d76866aa62d","ios":"levelo://app?vid=6a66461d-7800-4fa0-a04f-7d76866aa62d"},"vehicle_type_id":"4","last_reported":1767694390,"current_range_meters":1200,"station_id":"","pricing_plan_id":"cebpf4jnsgd1na2vs0mg"},{"bike_id":"9f0593b2-7d3c-4d65-afe4-34e0989fc653","system_id":"levelo_inurba_marseille","lat":43.27817,"lon":5.40735,"is_reserved":false,"is_disabled":false,"rental_uris":{"android":"levelo://app?vid=9f0593b2-7d3c-4d65-afe4-34e0989fc653","ios":"levelo://app?vid=9f0593b2-7d3c-4d65-afe4-34e0989fc653"},"vehicle_type_id":"4","last_reported":1767694390,"current_range_meters":1200,"station_id":"ce4bhnh2rcd13ifvqgtg","pricing_plan_id":"cebpf4jnsgd1na2vs0mg"},{"bike_id":"073846b3-05ad-4cd1-b323-f1a405b8e200","system_id":"levelo_inurba_marseille","lat":43.273731,"lon":5.36265,"is_reserved":false,"is_disabled":false,"rental_uris":{"android":"levelo://app?vid=073846b3-05ad-4cd1-b323-f1a405b8e200","ios":"levelo://app?vid=073846b3-05ad-4cd1-b323-f1a405b8e200"},"vehicle_type_id":"4","last_reported":1767694390,"current_range_meters":1200,"station_id":"ce4bhbh2rcd13ifvqepg","pricing_plan_id":"cebpf4jnsgd1na2vs0mg"},{"bike_id":"7e3ddff2-c59f-4c70-8f30-29111877ca8a","system_id":"levelo_inurba_marseille","lat":43.27067,"lon":5.40267,"is_reserved":false,"is_disabled":false,"rental_uris":{"android":"levelo://app?vid=7e3ddff2-c59f-4c70-8f30-29111877ca8a","ios":"levelo://app?vid=7e3ddff2-c59f-4c70-8f30-29111877ca8a"},"vehicle_type_id":"4","last_reported":1767694390,"current_range_meters":1200,"station_id":"ce4bhk92rcd13ifvqgc0","pricing_plan_id":"cebpf4jnsgd1na2vs0mg"},{"bike_id":"cbf24140-12d0-457c-bb31-206b9579ffe9","system_id":"levelo_inurba_marseille","lat":43.27643,"lon":5.38893,"is_reserved":false,"is_disabled":false,"rental_uris":{"android":"levelo://app?vid=cbf24140-12d0-457c-bb31-206b9579ffe9","ios":"levelo://app?vid=cbf24140-12d0-457c-bb31-206b9579ffe9"},"vehicle_type_id":"4","last_reported":1767694390,"current_range_meters":1200,"station_id":"ce4bhi12rcd13ifvqfo0","pricing_plan_id":"cebpf4jnsgd1na2vs0mg"},{"bike_id":"a3b257a7-cca0-4257-9661-b8f6fe594f7d","system_id":"levelo_inurba_marseille","lat":43.27438,"lon":5.41873,"is_reserved":false,"is_disabled":false,"rental_uris":{"android":"levelo://app?vid=a3b257a7-cca0-4257-9661-b8f6fe594f7d","ios":"levelo://app?vid=a3b257a7-cca0-4257-9661-b8f6fe594f7d"},"vehicle_type_id":"4","last_reported":1767694390,"current_range_meters":1200,"station_id":"","pricing_plan_id":"cebpf4jnsgd1na2vs0mg"},{"bike_id":"670437d8-d53c-4ae3-92d5-bed0172f794b","system_id":"levelo_inurba_marseille","lat":43.33343,"lon":5.41145,"is_reserved":false,"is_disabled":false,"rental_uris":{"android":"levelo://app?vid=670437d8-d53c-4ae3-92d5-bed0172f794b","ios":"levelo://app?vid=670437d8-d53c-4ae3-92d5-bed0172f794b"},"vehicle_type_id":"4","last_reported":1767694390,"current_range_meters":1200,"station_id":"","pricing_plan_id":"cebpf4jnsgd1na2vs0mg"},{"bike_id":"543f1729-5183-49ac-9be8-30092efdd974","system_id":"levelo_inurba_marseille","lat":43.24072,"lon":5.37747,"is_reserved":false,"is_disabled":false,"rental_uris":{"android":"levelo://app?vid=543f1729-5183-49ac-9be8-30092efdd974","ios":"levelo://app?vid=543f1729-5183-49ac-9be8-30092efdd974"},"vehicle_type_id":"4","last_reported":1767694390,"current_range_meters":1200,"station_id":"ce4bhnp2rcd13ifvqgvg","pricing_plan_id":"cebpf4jnsgd1na2vs0mg"},{"bike_id":"5a83e1b9-e210-4feb-b240-844cf4ac85cf","system_id":"levelo_inurba_marseille","lat":43.31346,"lon":5.37612,"is_reserved":false,"is_disabled":false,"rental_uris":{"android":"levelo://app?vid=5a83e1b9-e210-4feb-b240-844cf4ac85cf","ios":"levelo://app?vid=5a83e1b9-e210-4feb-b240-844cf4ac85cf"},"vehicle_type_id":"4","last_reported":1767694390,"current_range_meters":1200,"station_id":"","pricing_plan_id":"cebpf4jnsgd1na2vs0mg"},{"bike_id":"37139af6-eb76-4690-9f83-0dcba1b92ae2","system_id":"levelo_inurba_marseille","lat":43.225317,"lon":5.348337,"is_reserved":false,"is_disabled":false,"rental_uris":{"android":"levelo://app?vid=37139af6-eb76-4690-9f83-0dcba1b92ae2","ios":"levelo://app?vid=37139af6-eb76-4690-9f83-0dcba1b92ae2"},"vehicle_type_id":"4","last_reported":1767694390,"current_range_meters":1600,"station_id":"st_cvj5dfep6f1abm77gieg","pricing_plan_id":"cebpf4jnsgd1na2vs0mg"},{"bike_id":"40dc87f6-9488-49a8-b5e5-70cc3f6b6f36","system_id":"levelo_inurba_marseille","lat":43.24398,"lon":5.37065,"is_reserved":false,"is_disabled":false,"rental_uris":{"android":"levelo://app?vid=40dc87f6-9488-49a8-b5e5-70cc3f6b6f36","ios":"levelo://app?vid=40dc87f6-9488-49a8-b5e5-70cc3f6b6f36"},"vehicle_type_id":"4","last_reported":1767694390,"current_range_meters":1600,"station_id":"ce4bhhh2rcd13ifvqfk0","pricing_plan_id":"cebpf4jnsgd1na2vs0mg"},{"bike_id":"1e4ec461-8928-45c1-a196-7429e818c11b","system_id":"levelo_inurba_marseille","lat":43.29442,"lon":5.39784,"is_reserved":false,"is_disabled":true,"rental_uris":{"android":"levelo://app?vid=1e4ec461-8928-45c1-a196-7429e818c11b","ios":"levelo://app?vid=1e4ec461-8928-45c1-a196-7429e818c11b"},"vehicle_type_id":"4","last_reported":1767694390,"current_range_meters":1600,"station_id":"ce4bh3h2rcd13ifvqdo0","pricing_plan_id":"cebpf4jnsgd1na2vs0mg"},{"bike_id":"d2b37f0a-89f0-4684-a200-6fa47b87190f","system_id":"levelo_inurba_marseille","lat":43.25855,"lon":5.3989,"is_reserved":false,"is_disabled":false,"rental_uris":{"android":"levelo://app?vid=d2b37f0a-89f0-4684-a200-6fa47b87190f","ios":"levelo://app?vid=d2b37f0a-89f0-4684-a200-6fa47b87190f"},"vehicle_type_id":"4","last_reported":1767694390,"current_range_meters":1600,"station_id":"ce4bhl92rcd13ifvqghg","pricing_plan_id":"cebpf4jnsgd1na2vs0mg"},{"bike_id":"de9ef7d2-f2c9-4dd3-ad5b-8961764f026b","system_id":"levelo_inurba_marseille","lat":43.246653,"lon":5.38165,"is_reserved":false,"is_disabled":false,"rental_uris":{"android":"levelo://app?vid=de9ef7d2-f2c9-4dd3-ad5b-8961764f026b","ios":"levelo://app?vid=de9ef7d2-f2c9-4dd3-ad5b-8961764f026b"},"vehicle_type_id":"4","last_reported":1767694390,"current_range_meters":1600,"station_id":"ce4bhih2rcd13ifvqfr0","pricing_plan_id":"cebpf4jnsgd1na2vs0mg"},{"bike_id":"a56d6e5d-7168-4394-86b8-8d343ef4acb5","system_id":"levelo_inurba_marseille","lat":43.26221,"lon":5.40446,"is_reserved":false,"is_disabled":false,"rental_uris":{"android":"levelo://app?vid=a56d6e5d-7168-4394-86b8-8d343ef4acb5","ios":"levelo://app?vid=a56d6e5d-7168-4394-86b8-8d343ef4acb5"},"vehicle_type_id":"4","last_reported":1767694390,"current_range_meters":1600,"station_id":"ce4bhmh2rcd13ifvqgmg","pricing_plan_id":"cebpf4jnsgd1na2vs0mg"},{"bike_id":"8692272f-5363-4f88-892b-30a38db185a4","system_id":"levelo_inurba_marseille","lat":43.26209,"lon":5.37442,"is_reserved":false,"is_disabled":false,"rental_uris":{"android":"levelo://app?vid=8692272f-5363-4f88-892b-30a38db185a4","ios":"levelo://app?vid=8692272f-5363-4f88-892b-30a38db185a4"},"vehicle_type_id":"4","last_reported":1767694390,"current_range_meters":1600,"station_id":"ce4bhgp2rcd13ifvqfc0","pricing_plan_id":"cebpf4jnsgd1na2vs0mg"},{"bike_id":"fbf15afc-bff3-4637-8827-dc29bd3acee2","system_id":"levelo_inurba_marseille","lat":43.27987,"lon":5.40019,"is_reserved":false,"is_disabled":false,"rental_uris":{"android":"levelo://app?vid=fbf15afc-bff3-4637-8827-dc29bd3acee2","ios":"levelo://app?vid=fbf15afc-bff3-4637-8827-dc29bd3acee2"},"vehicle_type_id":"4","last_reported":1767694390,"current_range_meters":1600,"station_id":"ce4bho92rcd13ifvqh4g","pricing_plan_id":"cebpf4jnsgd1na2vs0mg"},{"bike_id":"658b4a07-e6cc-4a3e-b561-534997c3e87e","system_id":"levelo_inurba_marseille","lat":43.29911,"lon":5.37562,"is_reserved":false,"is_disabled":false,"rental_uris":{"android":"levelo://app?vid=658b4a07-e6cc-4a3e-b561-534997c3e87e","ios":"levelo://app?vid=658b4a07-e6cc-4a3e-b561-534997c3e87e"},"vehicle_type_id":"4","last_reported":1767694390,"current_range_meters":1600,"station_id":"","pricing_plan_id":"cebpf4jnsgd1na2vs0mg"},{"bike_id":"4409fcc9-7e82-43ea-be54-8f17595cd2a6","system_id":"levelo_inurba_marseille","lat":43.293738,"lon":5.37856,"is_reserved":false,"is_disabled":false,"rental_uris":{"android":"levelo://app?vid=4409fcc9-7e82-43ea-be54-8f17595cd2a6","ios":"levelo://app?vid=4409fcc9-7e82-43ea-be54-8f17595cd2a6"},"vehicle_type_id":"4","last_reported":1767694390,"current_range_meters":2000,"station_id":"ce4bgjh2rcd13ifvqbf0","pricing_plan_id":"cebpf4jnsgd1na2vs0mg"},{"bike_id":"de624d0c-0de2-4d3f-ae61-5fa2c370a4e6","system_id":"levelo_inurba_marseille","lat":43.2852,"lon":5.48363,"is_reserved":false,"is_disabled":false,"rental_uris":{"android":"levelo://app?vid=de624d0c-0de2-4d3f-ae61-5fa2c370a4e6","ios":"levelo://app?vid=de624d0c-0de2-4d3f-ae61-5fa2c370a4e6"},"vehicle_type_id":"4","last_reported":1767694390,"current_range_meters":2000,"station_id":"","pricing_plan_id":"cebpf4jnsgd1na2vs0mg"},{"bike_id":"31154bd0-b5c3-49f4-8e33-1bcc3a253286","system_id":"levelo_inurba_marseille","lat":43.31604,"lon":5.3841,"is_reserved":false,"is_disabled":false,"rental_uris":{"android":"levelo://app?vid=31154bd0-b5c3-49f4-8e33-1bcc3a253286","ios":"levelo://app?vid=31154bd0-b5c3-49f4-8e33-1bcc3a253286"},"vehicle_type_id":"4","last_reported":1767694390,"current_range_meters":2000,"station_id":"","pricing_plan_id":"cebpf4jnsgd1na2vs0mg"},{"bike_id":"58da0769-7e26-4b16-a0a5-d487be77ba6d","system_id":"levelo_inurba_marseille","lat":43.30537,"lon":5.36708,"is_reserved":false,"is_disabled":false,"rental_uris":{"android":"levelo://app?vid=58da0769-7e26-4b16-a0a5-d487be77ba6d","ios":"levelo://app?vid=58da0769-7e26-4b16-a0a5-d487be77ba6d"},"vehicle_type_id":"4","last_reported":1767694390,"current_range_meters":2800,"station_id":"ce4bgrp2rcd13ifvqc9g","pricing_plan_id":"cebpf4jnsgd1na2vs0mg"},{"bike_id":"0b4697e6-27c1-44ba-887e-c7c21768c929","system_id":"levelo_inurba_marseille","lat":43.237746,"lon":5.366269,"is_reserved":false,"is_disabled":false,"rental_uris":{"android":"levelo://app?vid=0b4697e6-27c1-44ba-887e-c7c21768c929","ios":"levelo://app?vid=0b4697e6-27c1-44ba-887e-c7c21768c929"},"vehicle_type_id":"4","last_reported":1767694390,"current_range_meters":2800,"station_id":"st_d3nk18o9ro0c73en2l3g","pricing_plan_id":"cebpf4jnsgd1na2vs0mg"},{"bike_id":"693f676c-2105-40ee-8ffc-b1b80aa7f1fe","system_id":"levelo_inurba_marseille","lat":43.26548,"lon":5.37311,"is_reserved":false,"is_disabled":false,"rental_uris":{"android":"levelo://app?vid=693f676c-2105-40ee-8ffc-b1b80aa7f1fe","ios":"levelo://app?vid=693f676c-2105-40ee-8ffc-b1b80aa7f1fe"},"vehicle_type_id":"4","last_reported":1767694390,"current_range_meters":2800,"station_id":"ce4bhg12rcd13ifvqf70","pricing_plan_id":"cebpf4jnsgd1na2vs0mg"},{"bike_id":"0d0cbc0b-545e-4b96-abb7-b069fe3bcdad","system_id":"levelo_inurba_marseille","lat":43.29731,"lon":5.37681,"is_reserved":false,"is_disabled":false,"rental_uris":{"android":"levelo://app?vid=0d0cbc0b-545e-4b96-abb7-b069fe3bcdad","ios":"levelo://app?vid=0d0cbc0b-545e-4b96-abb7-b069fe3bcdad"},"vehicle_type_id":"4","last_reported":1767694390,"current_range_meters":2800,"station_id":"ce4bgkh2rcd13ifvqbl0","pricing_plan_id":"cebpf4jnsgd1na2vs0mg"},{"bike_id":"564d023c-395b-4d65-9cf3-4d50b7a34a7c","system_id":"levelo_inurba_marseille","lat":43.31377,"lon":5.38062,"is_reserved":false,"is_disabled":false,"rental_uris":{"android":"levelo://app?vid=564d023c-395b-4d65-9cf3-4d50b7a34a7c","ios":"levelo://app?vid=564d023c-395b-4d65-9cf3-4d50b7a34a7c"},"vehicle_type_id":"4","last_reported":1767694390,"current_range_meters":2800,"station_id":"","pricing_plan_id":"cebpf4jnsgd1na2vs0mg"},{"bike_id":"67cdef28-3078-498f-a48d-fa2e959e65f5","system_id":"levelo_inurba_marseille","lat":43.296218,"lon":5.377217,"is_reserved":false,"is_disabled":false,"rental_uris":{"android":"levelo://app?vid=67cdef28-3078-498f-a48d-fa2e959e65f5","ios":"levelo://app?vid=67cdef28-3078-498f-a48d-fa2e959e65f5"},"vehicle_type_id":"4","last_reported":1767694390,"current_range_meters":2800,"station_id":"ce4bgi92rcd13ifvqb90","pricing_plan_id":"cebpf4jnsgd1na2vs0mg"},{"bike_id":"29716140-a9f2-464a-9a75-21d8a6e2e19b","system_id":"levelo_inurba_marseille","lat":43.304788,"lon":5.367206,"is_reserved":false,"is_disabled":false,"rental_uris":{"android":"levelo://app?vid=29716140-a9f2-464a-9a75-21d8a6e2e19b","ios":"levelo://app?vid=29716140-a9f2-464a-9a75-21d8a6e2e19b"},"vehicle_type_id":"4","last_reported":1767694390,"current_range_meters":2800,"station_id":"ce4bgrp2rcd13ifvqc9g","pricing_plan_id":"cebpf4jnsgd1na2vs0mg"},{"bike_id":"ac64fd9f-5871-434b-9f2e-5532fcd29eb4","system_id":"levelo_inurba_marseille","lat":43.31074,"lon":5.37463,"is_reserved":false,"is_disabled":false,"rental_uris":{"android":"levelo://app?vid=ac64fd9f-5871-434b-9f2e-5532fcd29eb4","ios":"levelo://app?vid=ac64fd9f-5871-434b-9f2e-5532fcd29eb4"},"vehicle_type_id":"4","last_reported":1767694390,"current_range_meters":2800,"station_id":"","pricing_plan_id":"cebpf4jnsgd1na2vs0mg"},{"bike_id":"b803863f-5ac3-4c63-b045-8d317025a1bf","system_id":"levelo_inurba_marseille","lat":43.299,"lon":5.38004,"is_reserved":false,"is_disabled":false,"rental_uris":{"android":"levelo://app?vid=b803863f-5ac3-4c63-b045-8d317025a1bf","ios":"levelo://app?vid=b803863f-5ac3-4c63-b045-8d317025a1bf"},"vehicle_type_id":"4","last_reported":1767694390,"current_range_meters":2800,"station_id":"","pricing_plan_id":"cebpf4jnsgd1na2vs0mg"},{"bike_id":"cb63b374-913e-4cf9-9faa-648ef16eb486","system_id":"levelo_inurba_marseille","lat":43.3137,"lon":5.37938,"is_reserved":false,"is_disabled":false,"rental_uris":{"android":"levelo://app?vid=cb63b374-913e-4cf9-9faa-648ef16eb486","ios":"levelo://app?vid=cb63b374-913e-4cf9-9faa-648ef16eb486"},"vehicle_type_id":"4","last_reported":1767694390,"current_range_meters":2800,"station_id":"","pricing_plan_id":"cebpf4jnsgd1na2vs0mg"},{"bike_id":"6ac734ba-dc65-453f-9608-b05b8a5a29c9","system_id":"levelo_inurba_marseille","lat":43.26948,"lon":5.3864,"is_reserved":false,"is_disabled":false,"rental_uris":{"android":"levelo://app?vid=6ac734ba-dc65-453f-9608-b05b8a5a29c9","ios":"levelo://app?vid=6ac734ba-dc65-453f-9608-b05b8a5a29c9"},"vehicle_type_id":"4","last_reported":1767694390,"current_range_meters":2800,"station_id":"","pricing_plan_id":"cebpf4jnsgd1na2vs0mg"},{"bike_id":"80008fef-fe40-469e-93be-5d5ada2888aa","system_id":"levelo_inurba_marseille","lat":43.27373,"lon":5.36259,"is_reserved":false,"is_disabled":false,"rental_uris":{"android":"levelo://app?vid=80008fef-fe40-469e-93be-5d5ada2888aa","ios":"levelo://app?vid=80008fef-fe40-469e-93be-5d5ada2888aa"},"vehicle_type_id":"4","last_reported":1767694390,"current_range_meters":2800,"station_id":"","pricing_plan_id":"cebpf4jnsgd1na2vs0mg"},{"bike_id":"70e5be28-5861-4341-810b-d15405a5fef8","system_id":"levelo_inurba_marseille","lat":43.25919,"lon":5.40925,"is_reserved":false,"is_disabled":false,"rental_uris":{"android":"levelo://app?vid=70e5be28-5861-4341-810b-d15405a5fef8","ios":"levelo://app?vid=70e5be28-5861-4341-810b-d15405a5fef8"},"vehicle_type_id":"4","last_reported":1767694390,"current_range_meters":2800,"station_id":"ce4bhm92rcd13ifvqglg","pricing_plan_id":"cebpf4jnsgd1na2vs0mg"},{"bike_id":"e600f5e1-15cd-43f0-9cd0-de54ecd25135","system_id":"levelo_inurba_marseille","lat":43.30024,"lon":5.38336,"is_reserved":false,"is_disabled":false,"rental_uris":{"android":"levelo://app?vid=e600f5e1-15cd-43f0-9cd0-de54ecd25135","ios":"levelo://app?vid=e600f5e1-15cd-43f0-9cd0-de54ecd25135"},"vehicle_type_id":"4","last_reported":1767694390,"current_range_meters":3200,"station_id":"","pricing_plan_id":"cebpf4jnsgd1na2vs0mg"},{"bike_id":"9dce53d8-141c-4882-b902-9f437f317c94","system_id":"levelo_inurba_marseille","lat":43.26565,"lon":5.40342,"is_reserved":false,"is_disabled":false,"rental_uris":{"android":"levelo://app?vid=9dce53d8-141c-4882-b902-9f437f317c94","ios":"levelo://app?vid=9dce53d8-141c-4882-b902-9f437f317c94"},"vehicle_type_id":"4","last_reported":1767694390,"current_range_meters":3200,"station_id":"ce4bhmp2rcd13ifvqgng","pricing_plan_id":"cebpf4jnsgd1na2vs0mg"},{"bike_id":"972bd070-c735-4135-b8b0-fabca324ac27","system_id":"levelo_inurba_marseille","lat":43.26936,"lon":5.40233,"is_reserved":false,"is_disabled":false,"rental_uris":{"android":"levelo://app?vid=972bd070-c735-4135-b8b0-fabca324ac27","ios":"levelo://app?vid=972bd070-c735-4135-b8b0-fabca324ac27"},"vehicle_type_id":"4","last_reported":1767694390,"current_range_meters":3200,"station_id":"cjm6bp8fraef2m0cb0m0","pricing_plan_id":"cebpf4jnsgd1na2vs0mg"},{"bike_id":"a0e8d739-6fac-4b9d-a985-d21edc98266e","system_id":"levelo_inurba_marseille","lat":43.31612,"lon":5.38464,"is_reserved":false,"is_disabled":false,"rental_uris":{"android":"levelo://app?vid=a0e8d739-6fac-4b9d-a985-d21edc98266e","ios":"levelo://app?vid=a0e8d739-6fac-4b9d-a985-d21edc98266e"},"vehicle_type_id":"4","last_reported":1767694390,"current_range_meters":3200,"station_id":"","pricing_plan_id":"cebpf4jnsgd1na2vs0mg"},{"bike_id":"7b955b3d-6743-4688-9268-a00334508f3e","system_id":"levelo_inurba_marseille","lat":43.29486,"lon":5.37953,"is_reserved":false,"is_disabled":false,"rental_uris":{"android":"levelo://app?vid=7b955b3d-6743-4688-9268-a00334508f3e","ios":"levelo://app?vid=7b955b3d-6743-4688-9268-a00334508f3e"},"vehicle_type_id":"4","last_reported":1767694390,"current_range_meters":3200,"station_id":"","pricing_plan_id":"cebpf4jnsgd1na2vs0mg"},{"bike_id":"007f452b-7b2a-4f50-8af8-f2c79f483fa9","system_id":"levelo_inurba_marseille","lat":43.24069,"lon":5.37711,"is_reserved":false,"is_disabled":false,"rental_uris":{"android":"levelo://app?vid=007f452b-7b2a-4f50-8af8-f2c79f483fa9","ios":"levelo://app?vid=007f452b-7b2a-4f50-8af8-f2c79f483fa9"},"vehicle_type_id":"4","last_reported":1767694390,"current_range_meters":3200,"station_id":"ce4bhnp2rcd13ifvqgvg","pricing_plan_id":"cebpf4jnsgd1na2vs0mg"},{"bike_id":"9635bea0-f844-4d25-9ad9-4fdbf1fc89e1","system_id":"levelo_inurba_marseille","lat":43.30147,"lon":5.38114,"is_reserved":false,"is_disabled":false,"rental_uris":{"android":"levelo://app?vid=9635bea0-f844-4d25-9ad9-4fdbf1fc89e1","ios":"levelo://app?vid=9635bea0-f844-4d25-9ad9-4fdbf1fc89e1"},"vehicle_type_id":"4","last_reported":1767694390,"current_range_meters":3200,"station_id":"ce4bgjp2rcd13ifvqbh0","pricing_plan_id":"cebpf4jnsgd1na2vs0mg"},{"bike_id":"807e5dfc-5355-42d4-a53d-563b6687bcd6","system_id":"levelo_inurba_marseille","lat":43.25949,"lon":5.40901,"is_reserved":false,"is_disabled":false,"rental_uris":{"android":"levelo://app?vid=807e5dfc-5355-42d4-a53d-563b6687bcd6","ios":"levelo://app?vid=807e5dfc-5355-42d4-a53d-563b6687bcd6"},"vehicle_type_id":"4","last_reported":1767694390,"current_range_meters":3200,"station_id":"ce4bhm92rcd13ifvqglg","pricing_plan_id":"cebpf4jnsgd1na2vs0mg"},{"bike_id":"1ed18920-86c3-43b1-b9f4-96beaa73ad5a","system_id":"levelo_inurba_marseille","lat":43.30194,"lon":5.36608,"is_reserved":false,"is_disabled":false,"rental_uris":{"android":"levelo://app?vid=1ed18920-86c3-43b1-b9f4-96beaa73ad5a","ios":"levelo://app?vid=1ed18920-86c3-43b1-b9f4-96beaa73ad5a"},"vehicle_type_id":"4","last_reported":1767694390,"current_range_meters":3600,"station_id":"ce4bgrh2rcd13ifvqc8g","pricing_plan_id":"cebpf4jnsgd1na2vs0mg"},{"bike_id":"2e528fe6-fabc-4702-b8bb-1f0c51127554","system_id":"levelo_inurba_marseille","lat":43.28162,"lon":5.42636,"is_reserved":false,"is_disabled":false,"rental_uris":{"android":"levelo://app?vid=2e528fe6-fabc-4702-b8bb-1f0c51127554","ios":"levelo://app?vid=2e528fe6-fabc-4702-b8bb-1f0c51127554"},"vehicle_type_id":"4","last_reported":1767694390,"current_range_meters":3600,"station_id":"ce4bhnh2rcd13ifvqgug","pricing_plan_id":"cebpf4jnsgd1na2vs0mg"},{"bike_id":"bf9ac294-030a-4b24-9371-6fae52f905ee","system_id":"levelo_inurba_marseille","lat":43.28814,"lon":5.36411,"is_reserved":false,"is_disabled":false,"rental_uris":{"android":"levelo://app?vid=bf9ac294-030a-4b24-9371-6fae52f905ee","ios":"levelo://app?vid=bf9ac294-030a-4b24-9371-6fae52f905ee"},"vehicle_type_id":"4","last_reported":1767694390,"current_range_meters":3600,"station_id":"","pricing_plan_id":"cebpf4jnsgd1na2vs0mg"},{"bike_id":"6ceaaa75-61b0-4608-8a27-a2461ea5d497","system_id":"levelo_inurba_marseille","lat":43.26387,"lon":5.410551,"is_reserved":false,"is_disabled":false,"rental_uris":{"android":"levelo://app?vid=6ceaaa75-61b0-4608-8a27-a2461ea5d497","ios":"levelo://app?vid=6ceaaa75-61b0-4608-8a27-a2461ea5d497"},"vehicle_type_id":"4","last_reported":1767694390,"current_range_meters":3600,"station_id":"","pricing_plan_id":"cebpf4jnsgd1na2vs0mg"},{"bike_id":"2e8e84f6-e40c-4841-aa42-1159f089db20","system_id":"levelo_inurba_marseille","lat":43.28486,"lon":5.38529,"is_reserved":false,"is_disabled":false,"rental_uris":{"android":"levelo://app?vid=2e8e84f6-e40c-4841-aa42-1159f089db20","ios":"levelo://app?vid=2e8e84f6-e40c-4841-aa42-1159f089db20"},"vehicle_type_id":"4","last_reported":1767694390,"current_range_meters":3600,"station_id":"ce4bh8p2rcd13ifvqeb0","pricing_plan_id":"cebpf4jnsgd1na2vs0mg"},{"bike_id":"5b32e82b-506a-48f0-89b1-457762ead484","system_id":"levelo_inurba_marseille","lat":43.29364,"lon":5.37872,"is_reserved":false,"is_disabled":false,"rental_uris":{"android":"levelo://app?vid=5b32e82b-506a-48f0-89b1-457762ead484","ios":"levelo://app?vid=5b32e82b-506a-48f0-89b1-457762ead484"},"vehicle_type_id":"4","last_reported":1767694390,"current_range_meters":3600,"station_id":"ce4bgjh2rcd13ifvqbf0","pricing_plan_id":"cebpf4jnsgd1na2vs0mg"},{"bike_id":"98738c70-885f-4f56-97b9-49a71c197f9a","system_id":"levelo_inurba_marseille","lat":43.2417,"lon":5.36412,"is_reserved":false,"is_disabled":false,"rental_uris":{"android":"levelo://app?vid=98738c70-885f-4f56-97b9-49a71c197f9a","ios":"levelo://app?vid=98738c70-885f-4f56-97b9-49a71c197f9a"},"vehicle_type_id":"4","last_reported":1767694390,"current_range_meters":3600,"station_id":"cpo36qri1sfpv3e86is0","pricing_plan_id":"cebpf4jnsgd1na2vs0mg"},{"bike_id":"00a438d1-2ca2-4b2f-8c1b-6564f55c1efd","system_id":"levelo_inurba_marseille","lat":43.30362,"lon":5.43064,"is_reserved":false,"is_disabled":false,"rental_uris":{"android":"levelo://app?vid=00a438d1-2ca2-4b2f-8c1b-6564f55c1efd","ios":"levelo://app?vid=00a438d1-2ca2-4b2f-8c1b-6564f55c1efd"},"vehicle_type_id":"4","last_reported":1767694390,"current_range_meters":3600,"station_id":"","pricing_plan_id":"cebpf4jnsgd1na2vs0mg"},{"bike_id":"e9610580-3979-4024-b702-0412abaec69b","system_id":"levelo_inurba_marseille","lat":43.3125,"lon":5.38125,"is_reserved":false,"is_disabled":false,"rental_uris":{"android":"levelo://app?vid=e9610580-3979-4024-b702-0412abaec69b","ios":"levelo://app?vid=e9610580-3979-4024-b702-0412abaec69b"},"vehicle_type_id":"4","last_reported":1767694390,"current_range_meters":3600,"station_id":"","pricing_plan_id":"cebpf4jnsgd1na2vs0mg"},{"bike_id":"23b82204-86a0-4d21-bf57-3cdf3cfaa1c8","system_id":"levelo_inurba_marseille","lat":43.24392,"lon":5.370418,"is_reserved":false,"is_disabled":false,"rental_uris":{"android":"levelo://app?vid=23b82204-86a0-4d21-bf57-3cdf3cfaa1c8","ios":"levelo://app?vid=23b82204-86a0-4d21-bf57-3cdf3cfaa1c8"},"vehicle_type_id":"4","last_reported":1767694390,"current_range_meters":3600,"station_id":"ce4bhhh2rcd13ifvqfk0","pricing_plan_id":"cebpf4jnsgd1na2vs0mg"},{"bike_id":"f8cc116c-8a47-476a-84ed-1ae454f8faff","system_id":"levelo_inurba_marseille","lat":43.29232,"lon":5.36087,"is_reserved":false,"is_disabled":false,"rental_uris":{"android":"levelo://app?vid=f8cc116c-8a47-476a-84ed-1ae454f8faff","ios":"levelo://app?vid=f8cc116c-8a47-476a-84ed-1ae454f8faff"},"vehicle_type_id":"4","last_reported":1767694390,"current_range_meters":3600,"station_id":"ce4bhbh2rcd13ifvqeqg","pricing_plan_id":"cebpf4jnsgd1na2vs0mg"},{"bike_id":"9e5bf912-30dd-4012-b29f-90761821c97d","system_id":"levelo_inurba_marseille","lat":43.287382,"lon":5.365174,"is_reserved":false,"is_disabled":false,"rental_uris":{"android":"levelo://app?vid=9e5bf912-30dd-4012-b29f-90761821c97d","ios":"levelo://app?vid=9e5bf912-30dd-4012-b29f-90761821c97d"},"vehicle_type_id":"4","last_reported":1767694390,"current_range_meters":3600,"station_id":"ce4bhah2rcd13ifvqej0","pricing_plan_id":"cebpf4jnsgd1na2vs0mg"},{"bike_id":"931bf855-058d-4d1a-b24b-4b90b45762fb","system_id":"levelo_inurba_marseille","lat":43.2395,"lon":5.3663,"is_reserved":false,"is_disabled":false,"rental_uris":{"android":"levelo://app?vid=931bf855-058d-4d1a-b24b-4b90b45762fb","ios":"levelo://app?vid=931bf855-058d-4d1a-b24b-4b90b45762fb"},"vehicle_type_id":"4","last_reported":1767694390,"current_range_meters":4000,"station_id":"ce4bhi12rcd13ifvqfp0","pricing_plan_id":"cebpf4jnsgd1na2vs0mg"},{"bike_id":"d0003519-04f9-48de-a1fe-b9fff156684f","system_id":"levelo_inurba_marseille","lat":43.3015,"lon":5.38098,"is_reserved":false,"is_disabled":false,"rental_uris":{"android":"levelo://app?vid=d0003519-04f9-48de-a1fe-b9fff156684f","ios":"levelo://app?vid=d0003519-04f9-48de-a1fe-b9fff156684f"},"vehicle_type_id":"4","last_reported":1767694390,"current_range_meters":4000,"station_id":"ce4bgjp2rcd13ifvqbh0","pricing_plan_id":"cebpf4jnsgd1na2vs0mg"},{"bike_id":"e7cf03a5-1f5f-4868-8ad1-f5e215d0106a","system_id":"levelo_inurba_marseille","lat":43.28479,"lon":5.38562,"is_reserved":false,"is_disabled":false,"rental_uris":{"android":"levelo://app?vid=e7cf03a5-1f5f-4868-8ad1-f5e215d0106a","ios":"levelo://app?vid=e7cf03a5-1f5f-4868-8ad1-f5e215d0106a"},"vehicle_type_id":"4","last_reported":1767694390,"current_range_meters":4000,"station_id":"ce4bh8p2rcd13ifvqeb0","pricing_plan_id":"cebpf4jnsgd1na2vs0mg"},{"bike_id":"976b55e5-eae5-4482-ad40-44c33a136491","system_id":"levelo_inurba_marseille","lat":43.27822,"lon":5.40733,"is_reserved":false,"is_disabled":false,"rental_uris":{"android":"levelo://app?vid=976b55e5-eae5-4482-ad40-44c33a136491","ios":"levelo://app?vid=976b55e5-eae5-4482-ad40-44c33a136491"},"vehicle_type_id":"4","last_reported":1767694390,"current_range_meters":4000,"station_id":"ce4bhnh2rcd13ifvqgtg","pricing_plan_id":"cebpf4jnsgd1na2vs0mg"},{"bike_id":"ab879403-7aaa-4924-8e9e-09193a082159","system_id":"levelo_inurba_marseille","lat":43.28469,"lon":5.48401,"is_reserved":false,"is_disabled":false,"rental_uris":{"android":"levelo://app?vid=ab879403-7aaa-4924-8e9e-09193a082159","ios":"levelo://app?vid=ab879403-7aaa-4924-8e9e-09193a082159"},"vehicle_type_id":"4","last_reported":1767694390,"current_range_meters":4000,"station_id":"","pricing_plan_id":"cebpf4jnsgd1na2vs0mg"},{"bike_id":"ed6b2dd3-9819-4f1b-94df-a7a8812750ca","system_id":"levelo_inurba_marseille","lat":43.24182,"lon":5.39722,"is_reserved":false,"is_disabled":false,"rental_uris":{"android":"levelo://app?vid=ed6b2dd3-9819-4f1b-94df-a7a8812750ca","ios":"levelo://app?vid=ed6b2dd3-9819-4f1b-94df-a7a8812750ca"},"vehicle_type_id":"4","last_reported":1767694390,"current_range_meters":4400,"station_id":"ce4bhn12rcd13ifvqgpg","pricing_plan_id":"cebpf4jnsgd1na2vs0mg"},{"bike_id":"2299f6f8-489b-427e-9484-81efc5a9abcb","system_id":"levelo_inurba_marseille","lat":43.23155,"lon":5.43694,"is_reserved":false,"is_disabled":false,"rental_uris":{"android":"levelo://app?vid=2299f6f8-489b-427e-9484-81efc5a9abcb","ios":"levelo://app?vid=2299f6f8-489b-427e-9484-81efc5a9abcb"},"vehicle_type_id":"4","last_reported":1767694390,"current_range_meters":4400,"station_id":"ce4bhmp2rcd13ifvqgog","pricing_plan_id":"cebpf4jnsgd1na2vs0mg"},{"bike_id":"1faa2c1c-623d-4c7b-b6d0-30570519c684","system_id":"levelo_inurba_marseille","lat":43.30532,"lon":5.36706,"is_reserved":false,"is_disabled":false,"rental_uris":{"android":"levelo://app?vid=1faa2c1c-623d-4c7b-b6d0-30570519c684","ios":"levelo://app?vid=1faa2c1c-623d-4c7b-b6d0-30570519c684"},"vehicle_type_id":"4","last_reported":1767694390,"current_range_meters":4400,"station_id":"ce4bgrp2rcd13ifvqc9g","pricing_plan_id":"cebpf4jnsgd1na2vs0mg"},{"bike_id":"a9d496c8-5506-4b4f-a998-1de06b457e15","system_id":"levelo_inurba_marseille","lat":43.31335,"lon":5.36745,"is_reserved":false,"is_disabled":false,"rental_uris":{"android":"levelo://app?vid=a9d496c8-5506-4b4f-a998-1de06b457e15","ios":"levelo://app?vid=a9d496c8-5506-4b4f-a998-1de06b457e15"},"vehicle_type_id":"4","last_reported":1767694390,"current_range_meters":4400,"station_id":"ce4bgr92rcd13ifvqc6g","pricing_plan_id":"cebpf4jnsgd1na2vs0mg"},{"bike_id":"f26ff975-07a0-4c80-ba97-925c8b28de6d","system_id":"levelo_inurba_marseille","lat":43.25924,"lon":5.40866,"is_reserved":false,"is_disabled":true,"rental_uris":{"android":"levelo://app?vid=f26ff975-07a0-4c80-ba97-925c8b28de6d","ios":"levelo://app?vid=f26ff975-07a0-4c80-ba97-925c8b28de6d"},"vehicle_type_id":"4","last_reported":1767694390,"current_range_meters":4400,"station_id":"ce4bhm92rcd13ifvqglg","pricing_plan_id":"cebpf4jnsgd1na2vs0mg"},{"bike_id":"269faeda-f958-4c96-a603-702591889c06","system_id":"levelo_inurba_marseille","lat":43.27067,"lon":5.42283,"is_reserved":false,"is_disabled":false,"rental_uris":{"android":"levelo://app?vid=269faeda-f958-4c96-a603-702591889c06","ios":"levelo://app?vid=269faeda-f958-4c96-a603-702591889c06"},"vehicle_type_id":"4","last_reported":1767694390,"current_range_meters":4400,"station_id":"ce4bhk92rcd13ifvqgb0","pricing_plan_id":"cebpf4jnsgd1na2vs0mg"},{"bike_id":"17bc629f-7332-48d3-a7ec-087f06179642","system_id":"levelo_inurba_marseille","lat":43.24088,"lon":5.37762,"is_reserved":false,"is_disabled":false,"rental_uris":{"android":"levelo://app?vid=17bc629f-7332-48d3-a7ec-087f06179642","ios":"levelo://app?vid=17bc629f-7332-48d3-a7ec-087f06179642"},"vehicle_type_id":"4","last_reported":1767694390,"current_range_meters":4400,"station_id":"ce4bhnp2rcd13ifvqgvg","pricing_plan_id":"cebpf4jnsgd1na2vs0mg"},{"bike_id":"3f4936a1-51a0-4cc0-905d-15676dda0b53","system_id":"levelo_inurba_marseille","lat":43.28856,"lon":5.42524,"is_reserved":false,"is_disabled":false,"rental_uris":{"android":"levelo://app?vid=3f4936a1-51a0-4cc0-905d-15676dda0b53","ios":"levelo://app?vid=3f4936a1-51a0-4cc0-905d-15676dda0b53"},"vehicle_type_id":"4","last_reported":1767694390,"current_range_meters":4800,"station_id":"st_d3b462108ojc7389ooeg","pricing_plan_id":"cebpf4jnsgd1na2vs0mg"},{"bike_id":"445c0dfb-3931-4cf1-b184-a3eca62d01a2","system_id":"levelo_inurba_marseille","lat":43.29624,"lon":5.37739,"is_reserved":false,"is_disabled":false,"rental_uris":{"android":"levelo://app?vid=445c0dfb-3931-4cf1-b184-a3eca62d01a2","ios":"levelo://app?vid=445c0dfb-3931-4cf1-b184-a3eca62d01a2"},"vehicle_type_id":"4","last_reported":1767694390,"current_range_meters":4800,"station_id":"ce4bgi92rcd13ifvqb90","pricing_plan_id":"cebpf4jnsgd1na2vs0mg"},{"bike_id":"9d382bc4-297f-4c54-a692-f954c87dbd6b","system_id":"levelo_inurba_marseille","lat":43.27833,"lon":5.40731,"is_reserved":false,"is_disabled":false,"rental_uris":{"android":"levelo://app?vid=9d382bc4-297f-4c54-a692-f954c87dbd6b","ios":"levelo://app?vid=9d382bc4-297f-4c54-a692-f954c87dbd6b"},"vehicle_type_id":"4","last_reported":1767694390,"current_range_meters":4800,"station_id":"ce4bhnh2rcd13ifvqgtg","pricing_plan_id":"cebpf4jnsgd1na2vs0mg"},{"bike_id":"40707d19-1578-4bca-9a90-567e6b76cbbc","system_id":"levelo_inurba_marseille","lat":43.28071,"lon":5.3964,"is_reserved":false,"is_disabled":false,"rental_uris":{"android":"levelo://app?vid=40707d19-1578-4bca-9a90-567e6b76cbbc","ios":"levelo://app?vid=40707d19-1578-4bca-9a90-567e6b76cbbc"},"vehicle_type_id":"4","last_reported":1767694390,"current_range_meters":4800,"station_id":"ce4bho12rcd13ifvqh2g","pricing_plan_id":"cebpf4jnsgd1na2vs0mg"},{"bike_id":"ebb75531-7719-4351-9c5e-1ff8c7592cb4","system_id":"levelo_inurba_marseille","lat":43.29217,"lon":5.36076,"is_reserved":false,"is_disabled":false,"rental_uris":{"android":"levelo://app?vid=ebb75531-7719-4351-9c5e-1ff8c7592cb4","ios":"levelo://app?vid=ebb75531-7719-4351-9c5e-1ff8c7592cb4"},"vehicle_type_id":"4","last_reported":1767694390,"current_range_meters":4800,"station_id":"ce4bhbh2rcd13ifvqeqg","pricing_plan_id":"cebpf4jnsgd1na2vs0mg"},{"bike_id":"d6ccf16b-4ef4-4a54-926d-ad2dbfc1dc2c","system_id":"levelo_inurba_marseille","lat":43.2847,"lon":5.48396,"is_reserved":false,"is_disabled":false,"rental_uris":{"android":"levelo://app?vid=d6ccf16b-4ef4-4a54-926d-ad2dbfc1dc2c","ios":"levelo://app?vid=d6ccf16b-4ef4-4a54-926d-ad2dbfc1dc2c"},"vehicle_type_id":"4","last_reported":1767694390,"current_range_meters":4800,"station_id":"","pricing_plan_id":"cebpf4jnsgd1na2vs0mg"},{"bike_id":"353e7cf9-caeb-4f66-a929-6ba9791edb43","system_id":"levelo_inurba_marseille","lat":43.32105,"lon":5.3679,"is_reserved":false,"is_disabled":false,"rental_uris":{"android":"levelo://app?vid=353e7cf9-caeb-4f66-a929-6ba9791edb43","ios":"levelo://app?vid=353e7cf9-caeb-4f66-a929-6ba9791edb43"},"vehicle_type_id":"4","last_reported":1767694390,"current_range_meters":4800,"station_id":"ce4bhrh2rcd13ifvqhug","pricing_plan_id":"cebpf4jnsgd1na2vs0mg"},{"bike_id":"4b0eb6bf-8d2a-46a3-875c-0677ddbf0536","system_id":"levelo_inurba_marseille","lat":43.22564,"lon":5.41646,"is_reserved":false,"is_disabled":false,"rental_uris":{"android":"levelo://app?vid=4b0eb6bf-8d2a-46a3-875c-0677ddbf0536","ios":"levelo://app?vid=4b0eb6bf-8d2a-46a3-875c-0677ddbf0536"},"vehicle_type_id":"4","last_reported":1767694390,"current_range_meters":4800,"station_id":"st_d2o4gvlbi1j2169b742g","pricing_plan_id":"cebpf4jnsgd1na2vs0mg"},{"bike_id":"4f878b80-dd0e-49a1-af04-3b2255d509d8","system_id":"levelo_inurba_marseille","lat":43.27041,"lon":5.38317,"is_reserved":false,"is_disabled":false,"rental_uris":{"android":"levelo://app?vid=4f878b80-dd0e-49a1-af04-3b2255d509d8","ios":"levelo://app?vid=4f878b80-dd0e-49a1-af04-3b2255d509d8"},"vehicle_type_id":"4","last_reported":1767694390,"current_range_meters":5600,"station_id":"st_d3n2fo6cfp8s73cte1j0","pricing_plan_id":"cebpf4jnsgd1na2vs0mg"},{"bike_id":"ab47307a-57ce-410d-8cd9-abde76818236","system_id":"levelo_inurba_marseille","lat":43.30466,"lon":5.36676,"is_reserved":false,"is_disabled":false,"rental_uris":{"android":"levelo://app?vid=ab47307a-57ce-410d-8cd9-abde76818236","ios":"levelo://app?vid=ab47307a-57ce-410d-8cd9-abde76818236"},"vehicle_type_id":"4","last_reported":1767694390,"current_range_meters":5600,"station_id":"","pricing_plan_id":"cebpf4jnsgd1na2vs0mg"},{"bike_id":"868f69bf-a7b0-45d1-8bcf-5a8d8ec63388","system_id":"levelo_inurba_marseille","lat":43.296142,"lon":5.377252,"is_reserved":false,"is_disabled":false,"rental_uris":{"android":"levelo://app?vid=868f69bf-a7b0-45d1-8bcf-5a8d8ec63388","ios":"levelo://app?vid=868f69bf-a7b0-45d1-8bcf-5a8d8ec63388"},"vehicle_type_id":"4","last_reported":1767694390,"current_range_meters":5600,"station_id":"ce4bgi92rcd13ifvqb90","pricing_plan_id":"cebpf4jnsgd1na2vs0mg"},{"bike_id":"238d648a-e098-4396-88de-0b43e9b9c05f","system_id":"levelo_inurba_marseille","lat":43.267059,"lon":5.402175,"is_reserved":false,"is_disabled":false,"rental_uris":{"android":"levelo://app?vid=238d648a-e098-4396-88de-0b43e9b9c05f","ios":"levelo://app?vid=238d648a-e098-4396-88de-0b43e9b9c05f"},"vehicle_type_id":"4","last_reported":1767694390,"current_range_meters":5600,"station_id":"","pricing_plan_id":"cebpf4jnsgd1na2vs0mg"},{"bike_id":"cd2a84dd-2416-4ab2-bb23-917dca3d06c0","system_id":"levelo_inurba_marseille","lat":43.25341,"lon":5.421639,"is_reserved":false,"is_disabled":false,"rental_uris":{"android":"levelo://app?vid=cd2a84dd-2416-4ab2-bb23-917dca3d06c0","ios":"levelo://app?vid=cd2a84dd-2416-4ab2-bb23-917dca3d06c0"},"vehicle_type_id":"4","last_reported":1767694390,"current_range_meters":5600,"station_id":"st_d2m65c5bi1j21697t3ng","pricing_plan_id":"cebpf4jnsgd1na2vs0mg"},{"bike_id":"6470287d-a8df-45ef-a85f-2e447246a04d","system_id":"levelo_inurba_marseille","lat":43.316862,"lon":5.400016,"is_reserved":false,"is_disabled":false,"rental_uris":{"android":"levelo://app?vid=6470287d-a8df-45ef-a85f-2e447246a04d","ios":"levelo://app?vid=6470287d-a8df-45ef-a85f-2e447246a04d"},"vehicle_type_id":"4","last_reported":1767694390,"current_range_meters":5600,"station_id":"","pricing_plan_id":"cebpf4jnsgd1na2vs0mg"},{"bike_id":"78e2864f-f734-48a5-a69c-1ba0ebe24f90","system_id":"levelo_inurba_marseille","lat":43.29761,"lon":5.37782,"is_reserved":false,"is_disabled":false,"rental_uris":{"android":"levelo://app?vid=78e2864f-f734-48a5-a69c-1ba0ebe24f90","ios":"levelo://app?vid=78e2864f-f734-48a5-a69c-1ba0ebe24f90"},"vehicle_type_id":"4","last_reported":1767694390,"current_range_meters":5600,"station_id":"","pricing_plan_id":"cebpf4jnsgd1na2vs0mg"},{"bike_id":"6d88e72f-ecd0-4a68-afe9-f6353f3b5c24","system_id":"levelo_inurba_marseille","lat":43.29073,"lon":5.37161,"is_reserved":false,"is_disabled":false,"rental_uris":{"android":"levelo://app?vid=6d88e72f-ecd0-4a68-afe9-f6353f3b5c24","ios":"levelo://app?vid=6d88e72f-ecd0-4a68-afe9-f6353f3b5c24"},"vehicle_type_id":"4","last_reported":1767694390,"current_range_meters":5600,"station_id":"ce4bh5p2rcd13ifvqe4g","pricing_plan_id":"cebpf4jnsgd1na2vs0mg"},{"bike_id":"c579c5ce-7a15-4dc8-a202-6ec7ea4354cc","system_id":"levelo_inurba_marseille","lat":43.31047,"lon":5.39377,"is_reserved":false,"is_disabled":false,"rental_uris":{"android":"levelo://app?vid=c579c5ce-7a15-4dc8-a202-6ec7ea4354cc","ios":"levelo://app?vid=c579c5ce-7a15-4dc8-a202-6ec7ea4354cc"},"vehicle_type_id":"4","last_reported":1767694390,"current_range_meters":5600,"station_id":"","pricing_plan_id":"cebpf4jnsgd1na2vs0mg"},{"bike_id":"524a9ad4-beef-4328-987a-ed7969e656d2","system_id":"levelo_inurba_marseille","lat":43.25921,"lon":5.40907,"is_reserved":false,"is_disabled":false,"rental_uris":{"android":"levelo://app?vid=524a9ad4-beef-4328-987a-ed7969e656d2","ios":"levelo://app?vid=524a9ad4-beef-4328-987a-ed7969e656d2"},"vehicle_type_id":"4","last_reported":1767694390,"current_range_meters":5600,"station_id":"ce4bhm92rcd13ifvqglg","pricing_plan_id":"cebpf4jnsgd1na2vs0mg"},{"bike_id":"44324209-cab0-40f1-9b14-b6d55fb3fe7b","system_id":"levelo_inurba_marseille","lat":43.30087,"lon":5.39096,"is_reserved":false,"is_disabled":true,"rental_uris":{"android":"levelo://app?vid=44324209-cab0-40f1-9b14-b6d55fb3fe7b","ios":"levelo://app?vid=44324209-cab0-40f1-9b14-b6d55fb3fe7b"},"vehicle_type_id":"4","last_reported":1767694390,"current_range_meters":6000,"station_id":"ce4bh192rcd13ifvqdb0","pricing_plan_id":"cebpf4jnsgd1na2vs0mg"},{"bike_id":"44e7a6b0-32f7-43dc-9ef2-3f4cc856431d","system_id":"levelo_inurba_marseille","lat":43.239634,"lon":5.366265,"is_reserved":false,"is_disabled":false,"rental_uris":{"android":"levelo://app?vid=44e7a6b0-32f7-43dc-9ef2-3f4cc856431d","ios":"levelo://app?vid=44e7a6b0-32f7-43dc-9ef2-3f4cc856431d"},"vehicle_type_id":"4","last_reported":1767694390,"current_range_meters":6000,"station_id":"ce4bhi12rcd13ifvqfp0","pricing_plan_id":"cebpf4jnsgd1na2vs0mg"},{"bike_id":"1c4f6686-eca2-4f70-9941-1d212e16a461","system_id":"levelo_inurba_marseille","lat":43.27828,"lon":5.39212,"is_reserved":false,"is_disabled":false,"rental_uris":{"android":"levelo://app?vid=1c4f6686-eca2-4f70-9941-1d212e16a461","ios":"levelo://app?vid=1c4f6686-eca2-4f70-9941-1d212e16a461"},"vehicle_type_id":"4","last_reported":1767694390,"current_range_meters":6000,"station_id":"ce4bhjp2rcd13ifvqga0","pricing_plan_id":"cebpf4jnsgd1na2vs0mg"},{"bike_id":"4e05c9c0-c734-43d7-ad7b-b030d3d8f6d3","system_id":"levelo_inurba_marseille","lat":43.29269,"lon":5.36845,"is_reserved":false,"is_disabled":false,"rental_uris":{"android":"levelo://app?vid=4e05c9c0-c734-43d7-ad7b-b030d3d8f6d3","ios":"levelo://app?vid=4e05c9c0-c734-43d7-ad7b-b030d3d8f6d3"},"vehicle_type_id":"4","last_reported":1767694390,"current_range_meters":6000,"station_id":"ce4bhbp2rcd13ifvqesg","pricing_plan_id":"cebpf4jnsgd1na2vs0mg"},{"bike_id":"4a6d27b9-264b-47d4-b9c4-5f651d4ccd29","system_id":"levelo_inurba_marseille","lat":43.28397,"lon":5.35,"is_reserved":false,"is_disabled":false,"rental_uris":{"android":"levelo://app?vid=4a6d27b9-264b-47d4-b9c4-5f651d4ccd29","ios":"levelo://app?vid=4a6d27b9-264b-47d4-b9c4-5f651d4ccd29"},"vehicle_type_id":"4","last_reported":1767694390,"current_range_meters":6000,"station_id":"ce4bhbh2rcd13ifvqepg","pricing_plan_id":"cebpf4jnsgd1na2vs0mg"},{"bike_id":"70daa543-1773-4fc8-a39b-865bf2d12adc","system_id":"levelo_inurba_marseille","lat":43.29451,"lon":5.37934,"is_reserved":false,"is_disabled":true,"rental_uris":{"android":"levelo://app?vid=70daa543-1773-4fc8-a39b-865bf2d12adc","ios":"levelo://app?vid=70daa543-1773-4fc8-a39b-865bf2d12adc"},"vehicle_type_id":"4","last_reported":1767694390,"current_range_meters":6000,"station_id":"","pricing_plan_id":"cebpf4jnsgd1na2vs0mg"},{"bike_id":"9cb6f7b6-d231-4e4c-b752-c02687b48f97","system_id":"levelo_inurba_marseille","lat":43.28858,"lon":5.42531,"is_reserved":false,"is_disabled":false,"rental_uris":{"android":"levelo://app?vid=9cb6f7b6-d231-4e4c-b752-c02687b48f97","ios":"levelo://app?vid=9cb6f7b6-d231-4e4c-b752-c02687b48f97"},"vehicle_type_id":"4","last_reported":1767694390,"current_range_meters":6000,"station_id":"st_d3b462108ojc7389ooeg","pricing_plan_id":"cebpf4jnsgd1na2vs0mg"},{"bike_id":"1d0c1f6a-afc9-438e-b122-35ddf4fabdc4","system_id":"levelo_inurba_marseille","lat":43.29596,"lon":5.37703,"is_reserved":false,"is_disabled":false,"rental_uris":{"android":"levelo://app?vid=1d0c1f6a-afc9-438e-b122-35ddf4fabdc4","ios":"levelo://app?vid=1d0c1f6a-afc9-438e-b122-35ddf4fabdc4"},"vehicle_type_id":"4","last_reported":1767694390,"current_range_meters":6000,"station_id":"ce4bgi92rcd13ifvqb90","pricing_plan_id":"cebpf4jnsgd1na2vs0mg"},{"bike_id":"64cf0efb-83a2-48da-adf6-516927c39a91","system_id":"levelo_inurba_marseille","lat":43.23144,"lon":5.43711,"is_reserved":false,"is_disabled":false,"rental_uris":{"android":"levelo://app?vid=64cf0efb-83a2-48da-adf6-516927c39a91","ios":"levelo://app?vid=64cf0efb-83a2-48da-adf6-516927c39a91"},"vehicle_type_id":"4","last_reported":1767694390,"current_range_meters":6000,"station_id":"ce4bhmp2rcd13ifvqgog","pricing_plan_id":"cebpf4jnsgd1na2vs0mg"},{"bike_id":"69304a06-c31d-4f90-bee5-5152895d3519","system_id":"levelo_inurba_marseille","lat":43.27186,"lon":5.40982,"is_reserved":false,"is_disabled":true,"rental_uris":{"android":"levelo://app?vid=69304a06-c31d-4f90-bee5-5152895d3519","ios":"levelo://app?vid=69304a06-c31d-4f90-bee5-5152895d3519"},"vehicle_type_id":"4","last_reported":1767694390,"current_range_meters":6000,"station_id":"ce4bhl12rcd13ifvqgf0","pricing_plan_id":"cebpf4jnsgd1na2vs0mg"},{"bike_id":"9e75e4df-3863-4065-b371-91603a64bae0","system_id":"levelo_inurba_marseille","lat":43.23152,"lon":5.43709,"is_reserved":false,"is_disabled":false,"rental_uris":{"android":"levelo://app?vid=9e75e4df-3863-4065-b371-91603a64bae0","ios":"levelo://app?vid=9e75e4df-3863-4065-b371-91603a64bae0"},"vehicle_type_id":"4","last_reported":1767694390,"current_range_meters":6000,"station_id":"ce4bhmp2rcd13ifvqgog","pricing_plan_id":"cebpf4jnsgd1na2vs0mg"},{"bike_id":"ab9c8640-540b-416a-a58e-06d1055a4d4b","system_id":"levelo_inurba_marseille","lat":43.30557,"lon":5.36671,"is_reserved":false,"is_disabled":false,"rental_uris":{"android":"levelo://app?vid=ab9c8640-540b-416a-a58e-06d1055a4d4b","ios":"levelo://app?vid=ab9c8640-540b-416a-a58e-06d1055a4d4b"},"vehicle_type_id":"4","last_reported":1767694390,"current_range_meters":6000,"station_id":"ce4bgrp2rcd13ifvqc9g","pricing_plan_id":"cebpf4jnsgd1na2vs0mg"},{"bike_id":"6c6c2beb-34e7-41f4-806d-300db39ef2db","system_id":"levelo_inurba_marseille","lat":43.24394,"lon":5.37062,"is_reserved":false,"is_disabled":false,"rental_uris":{"android":"levelo://app?vid=6c6c2beb-34e7-41f4-806d-300db39ef2db","ios":"levelo://app?vid=6c6c2beb-34e7-41f4-806d-300db39ef2db"},"vehicle_type_id":"4","last_reported":1767694390,"current_range_meters":6000,"station_id":"ce4bhhh2rcd13ifvqfk0","pricing_plan_id":"cebpf4jnsgd1na2vs0mg"},{"bike_id":"da35753b-543a-44dc-8c12-dc7288bb953e","system_id":"levelo_inurba_marseille","lat":43.31299,"lon":5.3674,"is_reserved":false,"is_disabled":false,"rental_uris":{"android":"levelo://app?vid=da35753b-543a-44dc-8c12-dc7288bb953e","ios":"levelo://app?vid=da35753b-543a-44dc-8c12-dc7288bb953e"},"vehicle_type_id":"4","last_reported":1767694390,"current_range_meters":6000,"station_id":"","pricing_plan_id":"cebpf4jnsgd1na2vs0mg"},{"bike_id":"083b93d2-b3c9-427c-b766-b080ed5faf54","system_id":"levelo_inurba_marseille","lat":43.291914,"lon":5.357886,"is_reserved":false,"is_disabled":false,"rental_uris":{"android":"levelo://app?vid=083b93d2-b3c9-427c-b766-b080ed5faf54","ios":"levelo://app?vid=083b93d2-b3c9-427c-b766-b080ed5faf54"},"vehicle_type_id":"4","last_reported":1767694390,"current_range_meters":6000,"station_id":"ce4bhb12rcd13ifvqel0","pricing_plan_id":"cebpf4jnsgd1na2vs0mg"},{"bike_id":"3c8cd6af-4397-4a6a-a9f4-c097068fb96d","system_id":"levelo_inurba_marseille","lat":43.26275,"lon":5.39801,"is_reserved":false,"is_disabled":false,"rental_uris":{"android":"levelo://app?vid=3c8cd6af-4397-4a6a-a9f4-c097068fb96d","ios":"levelo://app?vid=3c8cd6af-4397-4a6a-a9f4-c097068fb96d"},"vehicle_type_id":"4","last_reported":1767694390,"current_range_meters":6000,"station_id":"","pricing_plan_id":"cebpf4jnsgd1na2vs0mg"},{"bike_id":"6ab5dc12-676b-4308-ad4a-bc536aac0b39","system_id":"levelo_inurba_marseille","lat":43.312683,"lon":5.373926,"is_reserved":false,"is_disabled":false,"rental_uris":{"android":"levelo://app?vid=6ab5dc12-676b-4308-ad4a-bc536aac0b39","ios":"levelo://app?vid=6ab5dc12-676b-4308-ad4a-bc536aac0b39"},"vehicle_type_id":"4","last_reported":1767694390,"current_range_meters":6400,"station_id":"","pricing_plan_id":"cebpf4jnsgd1na2vs0mg"},{"bike_id":"1d1aa57c-101c-4cf2-9f41-6e829b5c2500","system_id":"levelo_inurba_marseille","lat":43.30298,"lon":5.36893,"is_reserved":false,"is_disabled":false,"rental_uris":{"android":"levelo://app?vid=1d1aa57c-101c-4cf2-9f41-6e829b5c2500","ios":"levelo://app?vid=1d1aa57c-101c-4cf2-9f41-6e829b5c2500"},"vehicle_type_id":"4","last_reported":1767694390,"current_range_meters":6400,"station_id":"ce4bgqh2rcd13ifvqc5g","pricing_plan_id":"cebpf4jnsgd1na2vs0mg"},{"bike_id":"0f293502-121a-4187-becd-00c74b272d97","system_id":"levelo_inurba_marseille","lat":43.21195,"lon":5.35112,"is_reserved":false,"is_disabled":false,"rental_uris":{"android":"levelo://app?vid=0f293502-121a-4187-becd-00c74b272d97","ios":"levelo://app?vid=0f293502-121a-4187-becd-00c74b272d97"},"vehicle_type_id":"4","last_reported":1767694390,"current_range_meters":6400,"station_id":"st_cvj6sg6p6f1abm77japg","pricing_plan_id":"cebpf4jnsgd1na2vs0mg"},{"bike_id":"df7337f7-a443-485f-946c-e99819254d4e","system_id":"levelo_inurba_marseille","lat":43.31058,"lon":5.40088,"is_reserved":false,"is_disabled":false,"rental_uris":{"android":"levelo://app?vid=df7337f7-a443-485f-946c-e99819254d4e","ios":"levelo://app?vid=df7337f7-a443-485f-946c-e99819254d4e"},"vehicle_type_id":"4","last_reported":1767694390,"current_range_meters":6400,"station_id":"","pricing_plan_id":"cebpf4jnsgd1na2vs0mg"},{"bike_id":"73e9e8b7-ea38-471e-aac5-09e52178c686","system_id":"levelo_inurba_marseille","lat":43.26684,"lon":5.38276,"is_reserved":false,"is_disabled":false,"rental_uris":{"android":"levelo://app?vid=73e9e8b7-ea38-471e-aac5-09e52178c686","ios":"levelo://app?vid=73e9e8b7-ea38-471e-aac5-09e52178c686"},"vehicle_type_id":"4","last_reported":1767694390,"current_range_meters":6400,"station_id":"ce4bhg92rcd13ifvqf90","pricing_plan_id":"cebpf4jnsgd1na2vs0mg"},{"bike_id":"c4cc965a-9ed8-4a3d-af56-95d7d44f8672","system_id":"levelo_inurba_marseille","lat":43.30542,"lon":5.36539,"is_reserved":false,"is_disabled":false,"rental_uris":{"android":"levelo://app?vid=c4cc965a-9ed8-4a3d-af56-95d7d44f8672","ios":"levelo://app?vid=c4cc965a-9ed8-4a3d-af56-95d7d44f8672"},"vehicle_type_id":"4","last_reported":1767694390,"current_range_meters":6400,"station_id":"ce4bgs12rcd13ifvqcag","pricing_plan_id":"cebpf4jnsgd1na2vs0mg"},{"bike_id":"42899aad-1738-4b45-912f-612630fcfdd9","system_id":"levelo_inurba_marseille","lat":43.30912,"lon":5.3685,"is_reserved":false,"is_disabled":false,"rental_uris":{"android":"levelo://app?vid=42899aad-1738-4b45-912f-612630fcfdd9","ios":"levelo://app?vid=42899aad-1738-4b45-912f-612630fcfdd9"},"vehicle_type_id":"4","last_reported":1767694390,"current_range_meters":6400,"station_id":"ce4bgn92rcd13ifvqbvg","pricing_plan_id":"cebpf4jnsgd1na2vs0mg"},{"bike_id":"c9b87726-8bf1-4969-9d96-4aed66906683","system_id":"levelo_inurba_marseille","lat":43.25519,"lon":5.376522,"is_reserved":false,"is_disabled":false,"rental_uris":{"android":"levelo://app?vid=c9b87726-8bf1-4969-9d96-4aed66906683","ios":"levelo://app?vid=c9b87726-8bf1-4969-9d96-4aed66906683"},"vehicle_type_id":"4","last_reported":1767694390,"current_range_meters":6400,"station_id":"ce4bhh12rcd13ifvqff0","pricing_plan_id":"cebpf4jnsgd1na2vs0mg"},{"bike_id":"802fe12d-f14a-45a9-ab39-7a7c51870c15","system_id":"levelo_inurba_marseille","lat":43.31697,"lon":5.398549,"is_reserved":false,"is_disabled":false,"rental_uris":{"android":"levelo://app?vid=802fe12d-f14a-45a9-ab39-7a7c51870c15","ios":"levelo://app?vid=802fe12d-f14a-45a9-ab39-7a7c51870c15"},"vehicle_type_id":"4","last_reported":1767694390,"current_range_meters":6400,"station_id":"","pricing_plan_id":"cebpf4jnsgd1na2vs0mg"},{"bike_id":"41f54ea5-6f88-45f1-a241-b51bcaf483a2","system_id":"levelo_inurba_marseille","lat":43.22919,"lon":5.35402,"is_reserved":false,"is_disabled":false,"rental_uris":{"android":"levelo://app?vid=41f54ea5-6f88-45f1-a241-b51bcaf483a2","ios":"levelo://app?vid=41f54ea5-6f88-45f1-a241-b51bcaf483a2"},"vehicle_type_id":"4","last_reported":1767694390,"current_range_meters":6400,"station_id":"cpo3532slgdg3j2ikp40","pricing_plan_id":"cebpf4jnsgd1na2vs0mg"},{"bike_id":"40ef5c73-5486-43cb-8929-d818e25dffa6","system_id":"levelo_inurba_marseille","lat":43.32652,"lon":5.41944,"is_reserved":false,"is_disabled":false,"rental_uris":{"android":"levelo://app?vid=40ef5c73-5486-43cb-8929-d818e25dffa6","ios":"levelo://app?vid=40ef5c73-5486-43cb-8929-d818e25dffa6"},"vehicle_type_id":"4","last_reported":1767694390,"current_range_meters":6400,"station_id":"","pricing_plan_id":"cebpf4jnsgd1na2vs0mg"},{"bike_id":"da31b777-8dd4-4252-95a4-f633d3930cdf","system_id":"levelo_inurba_marseille","lat":43.28001,"lon":5.41662,"is_reserved":false,"is_disabled":false,"rental_uris":{"android":"levelo://app?vid=da31b777-8dd4-4252-95a4-f633d3930cdf","ios":"levelo://app?vid=da31b777-8dd4-4252-95a4-f633d3930cdf"},"vehicle_type_id":"4","last_reported":1767694390,"current_range_meters":6400,"station_id":"ce4bho12rcd13ifvqh1g","pricing_plan_id":"cebpf4jnsgd1na2vs0mg"},{"bike_id":"671729d8-1472-46e6-9234-dc84c6097a13","system_id":"levelo_inurba_marseille","lat":43.24016,"lon":5.40709,"is_reserved":false,"is_disabled":false,"rental_uris":{"android":"levelo://app?vid=671729d8-1472-46e6-9234-dc84c6097a13","ios":"levelo://app?vid=671729d8-1472-46e6-9234-dc84c6097a13"},"vehicle_type_id":"4","last_reported":1767694390,"current_range_meters":6400,"station_id":"","pricing_plan_id":"cebpf4jnsgd1na2vs0mg"},{"bike_id":"416460ab-6200-4cce-9ab7-18b63e82a4df","system_id":"levelo_inurba_marseille","lat":43.30762,"lon":5.38138,"is_reserved":false,"is_disabled":false,"rental_uris":{"android":"levelo://app?vid=416460ab-6200-4cce-9ab7-18b63e82a4df","ios":"levelo://app?vid=416460ab-6200-4cce-9ab7-18b63e82a4df"},"vehicle_type_id":"4","last_reported":1767694390,"current_range_meters":6400,"station_id":"ce4bgt12rcd13ifvqce0","pricing_plan_id":"cebpf4jnsgd1na2vs0mg"},{"bike_id":"27eca67a-b806-440f-bd22-a09d5fd2249a","system_id":"levelo_inurba_marseille","lat":43.27947,"lon":5.41047,"is_reserved":false,"is_disabled":false,"rental_uris":{"android":"levelo://app?vid=27eca67a-b806-440f-bd22-a09d5fd2249a","ios":"levelo://app?vid=27eca67a-b806-440f-bd22-a09d5fd2249a"},"vehicle_type_id":"4","last_reported":1767694390,"current_range_meters":6400,"station_id":"ce4bhnp2rcd13ifvqh0g","pricing_plan_id":"cebpf4jnsgd1na2vs0mg"},{"bike_id":"b293846c-6512-4ab5-bcc0-365d91f63879","system_id":"levelo_inurba_marseille","lat":43.23127,"lon":5.43675,"is_reserved":false,"is_disabled":false,"rental_uris":{"android":"levelo://app?vid=b293846c-6512-4ab5-bcc0-365d91f63879","ios":"levelo://app?vid=b293846c-6512-4ab5-bcc0-365d91f63879"},"vehicle_type_id":"4","last_reported":1767694390,"current_range_meters":6400,"station_id":"ce4bhmp2rcd13ifvqgog","pricing_plan_id":"cebpf4jnsgd1na2vs0mg"},{"bike_id":"2c2b33f7-80d5-4af6-8066-8ea96f1838f0","system_id":"levelo_inurba_marseille","lat":43.2921,"lon":5.38012,"is_reserved":false,"is_disabled":false,"rental_uris":{"android":"levelo://app?vid=2c2b33f7-80d5-4af6-8066-8ea96f1838f0","ios":"levelo://app?vid=2c2b33f7-80d5-4af6-8066-8ea96f1838f0"},"vehicle_type_id":"4","last_reported":1767694390,"current_range_meters":6400,"station_id":"","pricing_plan_id":"cebpf4jnsgd1na2vs0mg"},{"bike_id":"271c615f-87fe-471a-99e2-6b2fe9139a63","system_id":"levelo_inurba_marseille","lat":43.25114,"lon":5.40322,"is_reserved":false,"is_disabled":false,"rental_uris":{"android":"levelo://app?vid=271c615f-87fe-471a-99e2-6b2fe9139a63","ios":"levelo://app?vid=271c615f-87fe-471a-99e2-6b2fe9139a63"},"vehicle_type_id":"4","last_reported":1767694390,"current_range_meters":6400,"station_id":"ce4bhlh2rcd13ifvqgig","pricing_plan_id":"cebpf4jnsgd1na2vs0mg"},{"bike_id":"d8fa9719-fb01-4fe9-8222-a88ed0a6f267","system_id":"levelo_inurba_marseille","lat":43.24952,"lon":5.40502,"is_reserved":false,"is_disabled":false,"rental_uris":{"android":"levelo://app?vid=d8fa9719-fb01-4fe9-8222-a88ed0a6f267","ios":"levelo://app?vid=d8fa9719-fb01-4fe9-8222-a88ed0a6f267"},"vehicle_type_id":"4","last_reported":1767694390,"current_range_meters":6400,"station_id":"st_d2ngiaodas8pm72gd1h0","pricing_plan_id":"cebpf4jnsgd1na2vs0mg"},{"bike_id":"c41cbc53-5ba4-43ab-bd54-1d33e831d692","system_id":"levelo_inurba_marseille","lat":43.27495,"lon":5.42464,"is_reserved":false,"is_disabled":false,"rental_uris":{"android":"levelo://app?vid=c41cbc53-5ba4-43ab-bd54-1d33e831d692","ios":"levelo://app?vid=c41cbc53-5ba4-43ab-bd54-1d33e831d692"},"vehicle_type_id":"4","last_reported":1767694390,"current_range_meters":6400,"station_id":"ce4bhn92rcd13ifvqgrg","pricing_plan_id":"cebpf4jnsgd1na2vs0mg"},{"bike_id":"6b3ab980-aec9-4be4-ad2c-966c5543bc77","system_id":"levelo_inurba_marseille","lat":43.30594,"lon":5.37243,"is_reserved":false,"is_disabled":false,"rental_uris":{"android":"levelo://app?vid=6b3ab980-aec9-4be4-ad2c-966c5543bc77","ios":"levelo://app?vid=6b3ab980-aec9-4be4-ad2c-966c5543bc77"},"vehicle_type_id":"4","last_reported":1767694390,"current_range_meters":6400,"station_id":"","pricing_plan_id":"cebpf4jnsgd1na2vs0mg"},{"bike_id":"b9f7b50d-4eff-4b3c-b608-f2267a320ec1","system_id":"levelo_inurba_marseille","lat":43.28848,"lon":5.42523,"is_reserved":false,"is_disabled":false,"rental_uris":{"android":"levelo://app?vid=b9f7b50d-4eff-4b3c-b608-f2267a320ec1","ios":"levelo://app?vid=b9f7b50d-4eff-4b3c-b608-f2267a320ec1"},"vehicle_type_id":"4","last_reported":1767694390,"current_range_meters":6400,"station_id":"st_d3b462108ojc7389ooeg","pricing_plan_id":"cebpf4jnsgd1na2vs0mg"},{"bike_id":"8babce8a-0f0c-4fc4-9185-bdc4222228d8","system_id":"levelo_inurba_marseille","lat":43.24064,"lon":5.37757,"is_reserved":false,"is_disabled":false,"rental_uris":{"android":"levelo://app?vid=8babce8a-0f0c-4fc4-9185-bdc4222228d8","ios":"levelo://app?vid=8babce8a-0f0c-4fc4-9185-bdc4222228d8"},"vehicle_type_id":"4","last_reported":1767694390,"current_range_meters":6400,"station_id":"ce4bhnp2rcd13ifvqgvg","pricing_plan_id":"cebpf4jnsgd1na2vs0mg"},{"bike_id":"77c6e077-c5cf-4e32-a75b-b4333f5b5292","system_id":"levelo_inurba_marseille","lat":43.31051,"lon":5.37169,"is_reserved":false,"is_disabled":false,"rental_uris":{"android":"levelo://app?vid=77c6e077-c5cf-4e32-a75b-b4333f5b5292","ios":"levelo://app?vid=77c6e077-c5cf-4e32-a75b-b4333f5b5292"},"vehicle_type_id":"4","last_reported":1767694390,"current_range_meters":6400,"station_id":"st_d4kl2rp97mjs73e7tdfg","pricing_plan_id":"cebpf4jnsgd1na2vs0mg"},{"bike_id":"662d6bf2-cebb-4666-972d-1dec2318e01b","system_id":"levelo_inurba_marseille","lat":43.271828,"lon":5.409933,"is_reserved":false,"is_disabled":false,"rental_uris":{"android":"levelo://app?vid=662d6bf2-cebb-4666-972d-1dec2318e01b","ios":"levelo://app?vid=662d6bf2-cebb-4666-972d-1dec2318e01b"},"vehicle_type_id":"4","last_reported":1767694390,"current_range_meters":6800,"station_id":"ce4bhl12rcd13ifvqgf0","pricing_plan_id":"cebpf4jnsgd1na2vs0mg"},{"bike_id":"207d484c-8461-4dd2-bcd8-adfebe5bfd4e","system_id":"levelo_inurba_marseille","lat":43.25929,"lon":5.40908,"is_reserved":false,"is_disabled":false,"rental_uris":{"android":"levelo://app?vid=207d484c-8461-4dd2-bcd8-adfebe5bfd4e","ios":"levelo://app?vid=207d484c-8461-4dd2-bcd8-adfebe5bfd4e"},"vehicle_type_id":"4","last_reported":1767694390,"current_range_meters":6800,"station_id":"ce4bhm92rcd13ifvqglg","pricing_plan_id":"cebpf4jnsgd1na2vs0mg"},{"bike_id":"12c3c7a7-f460-4f98-8ff5-5de83296a8f5","system_id":"levelo_inurba_marseille","lat":43.278357,"lon":5.392202,"is_reserved":false,"is_disabled":false,"rental_uris":{"android":"levelo://app?vid=12c3c7a7-f460-4f98-8ff5-5de83296a8f5","ios":"levelo://app?vid=12c3c7a7-f460-4f98-8ff5-5de83296a8f5"},"vehicle_type_id":"4","last_reported":1767694390,"current_range_meters":6800,"station_id":"ce4bhjp2rcd13ifvqga0","pricing_plan_id":"cebpf4jnsgd1na2vs0mg"},{"bike_id":"c41f20a0-b195-412e-8f5d-43649edaec90","system_id":"levelo_inurba_marseille","lat":43.2798,"lon":5.38723,"is_reserved":false,"is_disabled":false,"rental_uris":{"android":"levelo://app?vid=c41f20a0-b195-412e-8f5d-43649edaec90","ios":"levelo://app?vid=c41f20a0-b195-412e-8f5d-43649edaec90"},"vehicle_type_id":"4","last_reported":1767694390,"current_range_meters":6800,"station_id":"ce4bhg12rcd13ifvqf80","pricing_plan_id":"cebpf4jnsgd1na2vs0mg"},{"bike_id":"9f9b4746-71c5-448b-9590-8fd8371c1599","system_id":"levelo_inurba_marseille","lat":43.22551,"lon":5.41635,"is_reserved":false,"is_disabled":false,"rental_uris":{"android":"levelo://app?vid=9f9b4746-71c5-448b-9590-8fd8371c1599","ios":"levelo://app?vid=9f9b4746-71c5-448b-9590-8fd8371c1599"},"vehicle_type_id":"4","last_reported":1767694390,"current_range_meters":6800,"station_id":"st_d2o4gvlbi1j2169b742g","pricing_plan_id":"cebpf4jnsgd1na2vs0mg"},{"bike_id":"d25c1254-5ba5-4cef-9983-c90b3ec9b80a","system_id":"levelo_inurba_marseille","lat":43.30475,"lon":5.4106,"is_reserved":false,"is_disabled":false,"rental_uris":{"android":"levelo://app?vid=d25c1254-5ba5-4cef-9983-c90b3ec9b80a","ios":"levelo://app?vid=d25c1254-5ba5-4cef-9983-c90b3ec9b80a"},"vehicle_type_id":"4","last_reported":1767694390,"current_range_meters":6800,"station_id":"","pricing_plan_id":"cebpf4jnsgd1na2vs0mg"},{"bike_id":"864fabb7-31bf-4fd2-9b55-77d1ba804f26","system_id":"levelo_inurba_marseille","lat":43.24468,"lon":5.42544,"is_reserved":false,"is_disabled":false,"rental_uris":{"android":"levelo://app?vid=864fabb7-31bf-4fd2-9b55-77d1ba804f26","ios":"levelo://app?vid=864fabb7-31bf-4fd2-9b55-77d1ba804f26"},"vehicle_type_id":"4","last_reported":1767694390,"current_range_meters":6800,"station_id":"st_d4a3vfp97mjs738cd8kg","pricing_plan_id":"cebpf4jnsgd1na2vs0mg"},{"bike_id":"78399c66-07bf-4f4a-b2dc-de9b40e72c5f","system_id":"levelo_inurba_marseille","lat":43.239576,"lon":5.366246,"is_reserved":false,"is_disabled":false,"rental_uris":{"android":"levelo://app?vid=78399c66-07bf-4f4a-b2dc-de9b40e72c5f","ios":"levelo://app?vid=78399c66-07bf-4f4a-b2dc-de9b40e72c5f"},"vehicle_type_id":"4","last_reported":1767694390,"current_range_meters":6800,"station_id":"ce4bhi12rcd13ifvqfp0","pricing_plan_id":"cebpf4jnsgd1na2vs0mg"},{"bike_id":"514e1808-4a8d-4ba3-b58c-6864ca606c71","system_id":"levelo_inurba_marseille","lat":43.30533,"lon":5.36522,"is_reserved":false,"is_disabled":false,"rental_uris":{"android":"levelo://app?vid=514e1808-4a8d-4ba3-b58c-6864ca606c71","ios":"levelo://app?vid=514e1808-4a8d-4ba3-b58c-6864ca606c71"},"vehicle_type_id":"4","last_reported":1767694390,"current_range_meters":6800,"station_id":"ce4bgs12rcd13ifvqcag","pricing_plan_id":"cebpf4jnsgd1na2vs0mg"},{"bike_id":"0b8f034a-f1c9-4e45-944d-b6dc5686a77e","system_id":"levelo_inurba_marseille","lat":43.31365,"lon":5.36695,"is_reserved":false,"is_disabled":false,"rental_uris":{"android":"levelo://app?vid=0b8f034a-f1c9-4e45-944d-b6dc5686a77e","ios":"levelo://app?vid=0b8f034a-f1c9-4e45-944d-b6dc5686a77e"},"vehicle_type_id":"4","last_reported":1767694390,"current_range_meters":6800,"station_id":"ce4bgr92rcd13ifvqc6g","pricing_plan_id":"cebpf4jnsgd1na2vs0mg"},{"bike_id":"eda26c9e-1de5-46d8-8133-e4e92339d527","system_id":"levelo_inurba_marseille","lat":43.24387,"lon":5.37065,"is_reserved":false,"is_disabled":false,"rental_uris":{"android":"levelo://app?vid=eda26c9e-1de5-46d8-8133-e4e92339d527","ios":"levelo://app?vid=eda26c9e-1de5-46d8-8133-e4e92339d527"},"vehicle_type_id":"4","last_reported":1767694390,"current_range_meters":6800,"station_id":"ce4bhhh2rcd13ifvqfk0","pricing_plan_id":"cebpf4jnsgd1na2vs0mg"},{"bike_id":"d8c06048-428c-4885-a31f-55edb4b42195","system_id":"levelo_inurba_marseille","lat":43.26217,"lon":5.38847,"is_reserved":false,"is_disabled":false,"rental_uris":{"android":"levelo://app?vid=d8c06048-428c-4885-a31f-55edb4b42195","ios":"levelo://app?vid=d8c06048-428c-4885-a31f-55edb4b42195"},"vehicle_type_id":"4","last_reported":1767694390,"current_range_meters":6800,"station_id":"","pricing_plan_id":"cebpf4jnsgd1na2vs0mg"},{"bike_id":"83f5c9b2-f37e-4635-817a-992d595185c8","system_id":"levelo_inurba_marseille","lat":43.30531,"lon":5.36713,"is_reserved":false,"is_disabled":false,"rental_uris":{"android":"levelo://app?vid=83f5c9b2-f37e-4635-817a-992d595185c8","ios":"levelo://app?vid=83f5c9b2-f37e-4635-817a-992d595185c8"},"vehicle_type_id":"4","last_reported":1767694390,"current_range_meters":6800,"station_id":"ce4bgrp2rcd13ifvqc9g","pricing_plan_id":"cebpf4jnsgd1na2vs0mg"},{"bike_id":"ab9868fa-bd50-4843-b9cf-8d256fc0aa24","system_id":"levelo_inurba_marseille","lat":43.25925,"lon":5.40891,"is_reserved":false,"is_disabled":false,"rental_uris":{"android":"levelo://app?vid=ab9868fa-bd50-4843-b9cf-8d256fc0aa24","ios":"levelo://app?vid=ab9868fa-bd50-4843-b9cf-8d256fc0aa24"},"vehicle_type_id":"4","last_reported":1767694390,"current_range_meters":6800,"station_id":"ce4bhm92rcd13ifvqglg","pricing_plan_id":"cebpf4jnsgd1na2vs0mg"},{"bike_id":"1e73728e-4392-47e2-968e-c94992b57df0","system_id":"levelo_inurba_marseille","lat":43.23191,"lon":5.35568,"is_reserved":false,"is_disabled":false,"rental_uris":{"android":"levelo://app?vid=1e73728e-4392-47e2-968e-c94992b57df0","ios":"levelo://app?vid=1e73728e-4392-47e2-968e-c94992b57df0"},"vehicle_type_id":"4","last_reported":1767694390,"current_range_meters":6800,"station_id":"ce4bhu92rcd13ifvqi70","pricing_plan_id":"cebpf4jnsgd1na2vs0mg"},{"bike_id":"a56d0349-7b3d-4364-8207-77bec6eb100d","system_id":"levelo_inurba_marseille","lat":43.31498,"lon":5.37282,"is_reserved":false,"is_disabled":false,"rental_uris":{"android":"levelo://app?vid=a56d0349-7b3d-4364-8207-77bec6eb100d","ios":"levelo://app?vid=a56d0349-7b3d-4364-8207-77bec6eb100d"},"vehicle_type_id":"4","last_reported":1767694390,"current_range_meters":6800,"station_id":"ce4bgt12rcd13ifvqcd0","pricing_plan_id":"cebpf4jnsgd1na2vs0mg"},{"bike_id":"3615ff67-b2c5-4685-9055-a9d1eecd040b","system_id":"levelo_inurba_marseille","lat":43.26559,"lon":5.39052,"is_reserved":false,"is_disabled":false,"rental_uris":{"android":"levelo://app?vid=3615ff67-b2c5-4685-9055-a9d1eecd040b","ios":"levelo://app?vid=3615ff67-b2c5-4685-9055-a9d1eecd040b"},"vehicle_type_id":"4","last_reported":1767694390,"current_range_meters":6800,"station_id":"ce4bhe12rcd13ifvqf30","pricing_plan_id":"cebpf4jnsgd1na2vs0mg"},{"bike_id":"bcba726c-86cc-4920-9b66-bf7117212d7c","system_id":"levelo_inurba_marseille","lat":43.29762,"lon":5.37782,"is_reserved":false,"is_disabled":false,"rental_uris":{"android":"levelo://app?vid=bcba726c-86cc-4920-9b66-bf7117212d7c","ios":"levelo://app?vid=bcba726c-86cc-4920-9b66-bf7117212d7c"},"vehicle_type_id":"4","last_reported":1767694390,"current_range_meters":6800,"station_id":"","pricing_plan_id":"cebpf4jnsgd1na2vs0mg"},{"bike_id":"341fa175-b404-4e99-a30d-b02f1e1adee4","system_id":"levelo_inurba_marseille","lat":43.24391,"lon":5.37077,"is_reserved":false,"is_disabled":false,"rental_uris":{"android":"levelo://app?vid=341fa175-b404-4e99-a30d-b02f1e1adee4","ios":"levelo://app?vid=341fa175-b404-4e99-a30d-b02f1e1adee4"},"vehicle_type_id":"4","last_reported":1767694390,"current_range_meters":6800,"station_id":"","pricing_plan_id":"cebpf4jnsgd1na2vs0mg"},{"bike_id":"87e8b266-b373-4616-baea-2d580c40657d","system_id":"levelo_inurba_marseille","lat":43.31667,"lon":5.3744,"is_reserved":false,"is_disabled":false,"rental_uris":{"android":"levelo://app?vid=87e8b266-b373-4616-baea-2d580c40657d","ios":"levelo://app?vid=87e8b266-b373-4616-baea-2d580c40657d"},"vehicle_type_id":"4","last_reported":1767694390,"current_range_meters":6800,"station_id":"","pricing_plan_id":"cebpf4jnsgd1na2vs0mg"},{"bike_id":"27fd1dae-9b5f-4946-91a5-7e16675cd4af","system_id":"levelo_inurba_marseille","lat":43.25582,"lon":5.38234,"is_reserved":false,"is_disabled":false,"rental_uris":{"android":"levelo://app?vid=27fd1dae-9b5f-4946-91a5-7e16675cd4af","ios":"levelo://app?vid=27fd1dae-9b5f-4946-91a5-7e16675cd4af"},"vehicle_type_id":"4","last_reported":1767694390,"current_range_meters":6800,"station_id":"ce4bhih2rcd13ifvqfs0","pricing_plan_id":"cebpf4jnsgd1na2vs0mg"},{"bike_id":"492a18bb-c0c2-4c07-bb99-93d407f95daa","system_id":"levelo_inurba_marseille","lat":43.28539,"lon":5.44092,"is_reserved":false,"is_disabled":false,"rental_uris":{"android":"levelo://app?vid=492a18bb-c0c2-4c07-bb99-93d407f95daa","ios":"levelo://app?vid=492a18bb-c0c2-4c07-bb99-93d407f95daa"},"vehicle_type_id":"4","last_reported":1767694390,"current_range_meters":6800,"station_id":"st_d3j3df2ikq2c7380ej80","pricing_plan_id":"cebpf4jnsgd1na2vs0mg"},{"bike_id":"8f1dcf1e-ec47-4cfd-9ca8-b695074a8473","system_id":"levelo_inurba_marseille","lat":43.239645,"lon":5.366258,"is_reserved":false,"is_disabled":false,"rental_uris":{"android":"levelo://app?vid=8f1dcf1e-ec47-4cfd-9ca8-b695074a8473","ios":"levelo://app?vid=8f1dcf1e-ec47-4cfd-9ca8-b695074a8473"},"vehicle_type_id":"4","last_reported":1767694390,"current_range_meters":6800,"station_id":"ce4bhi12rcd13ifvqfp0","pricing_plan_id":"cebpf4jnsgd1na2vs0mg"},{"bike_id":"b3d46066-d9af-4077-b1da-7d7459dbf7a5","system_id":"levelo_inurba_marseille","lat":43.29697,"lon":5.37909,"is_reserved":false,"is_disabled":false,"rental_uris":{"android":"levelo://app?vid=b3d46066-d9af-4077-b1da-7d7459dbf7a5","ios":"levelo://app?vid=b3d46066-d9af-4077-b1da-7d7459dbf7a5"},"vehicle_type_id":"4","last_reported":1767694390,"current_range_meters":7200,"station_id":"","pricing_plan_id":"cebpf4jnsgd1na2vs0mg"},{"bike_id":"21a4785c-a50b-450b-ab37-b6189ff99ee6","system_id":"levelo_inurba_marseille","lat":43.28931,"lon":5.3644,"is_reserved":false,"is_disabled":false,"rental_uris":{"android":"levelo://app?vid=21a4785c-a50b-450b-ab37-b6189ff99ee6","ios":"levelo://app?vid=21a4785c-a50b-450b-ab37-b6189ff99ee6"},"vehicle_type_id":"4","last_reported":1767694390,"current_range_meters":7200,"station_id":"","pricing_plan_id":"cebpf4jnsgd1na2vs0mg"},{"bike_id":"aeaceaee-d425-4cd1-8a1f-fe9063bf8aca","system_id":"levelo_inurba_marseille","lat":43.30161,"lon":5.38082,"is_reserved":false,"is_disabled":false,"rental_uris":{"android":"levelo://app?vid=aeaceaee-d425-4cd1-8a1f-fe9063bf8aca","ios":"levelo://app?vid=aeaceaee-d425-4cd1-8a1f-fe9063bf8aca"},"vehicle_type_id":"4","last_reported":1767694390,"current_range_meters":7200,"station_id":"ce4bgjp2rcd13ifvqbh0","pricing_plan_id":"cebpf4jnsgd1na2vs0mg"},{"bike_id":"5708ece5-55a8-46d7-b581-87436581528b","system_id":"levelo_inurba_marseille","lat":43.27073,"lon":5.42284,"is_reserved":false,"is_disabled":false,"rental_uris":{"android":"levelo://app?vid=5708ece5-55a8-46d7-b581-87436581528b","ios":"levelo://app?vid=5708ece5-55a8-46d7-b581-87436581528b"},"vehicle_type_id":"4","last_reported":1767694390,"current_range_meters":7200,"station_id":"ce4bhk92rcd13ifvqgb0","pricing_plan_id":"cebpf4jnsgd1na2vs0mg"},{"bike_id":"e86c54c0-f671-46b3-9822-d8e47a8f4357","system_id":"levelo_inurba_marseille","lat":43.28881,"lon":5.42447,"is_reserved":false,"is_disabled":false,"rental_uris":{"android":"levelo://app?vid=e86c54c0-f671-46b3-9822-d8e47a8f4357","ios":"levelo://app?vid=e86c54c0-f671-46b3-9822-d8e47a8f4357"},"vehicle_type_id":"4","last_reported":1767694390,"current_range_meters":7200,"station_id":"st_d3b462108ojc7389ooeg","pricing_plan_id":"cebpf4jnsgd1na2vs0mg"},{"bike_id":"49e7e4bf-d14c-455f-a285-224ffc1f66f2","system_id":"levelo_inurba_marseille","lat":43.24617,"lon":5.43157,"is_reserved":false,"is_disabled":false,"rental_uris":{"android":"levelo://app?vid=49e7e4bf-d14c-455f-a285-224ffc1f66f2","ios":"levelo://app?vid=49e7e4bf-d14c-455f-a285-224ffc1f66f2"},"vehicle_type_id":"4","last_reported":1767694390,"current_range_meters":7200,"station_id":"st_d2m6c4gdas8pm72e190g","pricing_plan_id":"cebpf4jnsgd1na2vs0mg"},{"bike_id":"5c78052d-8b4f-4e51-8ddb-87be6fb225ca","system_id":"levelo_inurba_marseille","lat":43.23184,"lon":5.35559,"is_reserved":false,"is_disabled":false,"rental_uris":{"android":"levelo://app?vid=5c78052d-8b4f-4e51-8ddb-87be6fb225ca","ios":"levelo://app?vid=5c78052d-8b4f-4e51-8ddb-87be6fb225ca"},"vehicle_type_id":"4","last_reported":1767694390,"current_range_meters":7200,"station_id":"ce4bhu92rcd13ifvqi70","pricing_plan_id":"cebpf4jnsgd1na2vs0mg"},{"bike_id":"438b5b87-2ead-4a56-9315-220edfc8d6d2","system_id":"levelo_inurba_marseille","lat":43.3117,"lon":5.3685,"is_reserved":false,"is_disabled":false,"rental_uris":{"android":"levelo://app?vid=438b5b87-2ead-4a56-9315-220edfc8d6d2","ios":"levelo://app?vid=438b5b87-2ead-4a56-9315-220edfc8d6d2"},"vehicle_type_id":"4","last_reported":1767694390,"current_range_meters":7200,"station_id":"","pricing_plan_id":"cebpf4jnsgd1na2vs0mg"},{"bike_id":"8028e0cc-e765-41ec-b4f3-082e3918dbd5","system_id":"levelo_inurba_marseille","lat":43.27946,"lon":5.41039,"is_reserved":false,"is_disabled":false,"rental_uris":{"android":"levelo://app?vid=8028e0cc-e765-41ec-b4f3-082e3918dbd5","ios":"levelo://app?vid=8028e0cc-e765-41ec-b4f3-082e3918dbd5"},"vehicle_type_id":"4","last_reported":1767694390,"current_range_meters":7200,"station_id":"ce4bhnp2rcd13ifvqh0g","pricing_plan_id":"cebpf4jnsgd1na2vs0mg"},{"bike_id":"59c30222-41ab-40da-979f-08c128e275a9","system_id":"levelo_inurba_marseille","lat":43.246261,"lon":5.431403,"is_reserved":false,"is_disabled":false,"rental_uris":{"android":"levelo://app?vid=59c30222-41ab-40da-979f-08c128e275a9","ios":"levelo://app?vid=59c30222-41ab-40da-979f-08c128e275a9"},"vehicle_type_id":"4","last_reported":1767694390,"current_range_meters":7200,"station_id":"st_d2m6c4gdas8pm72e190g","pricing_plan_id":"cebpf4jnsgd1na2vs0mg"},{"bike_id":"14494bec-dc0c-470c-b701-ec21574c7266","system_id":"levelo_inurba_marseille","lat":43.2929,"lon":5.37185,"is_reserved":false,"is_disabled":false,"rental_uris":{"android":"levelo://app?vid=14494bec-dc0c-470c-b701-ec21574c7266","ios":"levelo://app?vid=14494bec-dc0c-470c-b701-ec21574c7266"},"vehicle_type_id":"4","last_reported":1767694390,"current_range_meters":7200,"station_id":"ce4bgh92rcd13ifvqb40","pricing_plan_id":"cebpf4jnsgd1na2vs0mg"},{"bike_id":"28710909-6836-4051-8df5-ac7ea21a74d1","system_id":"levelo_inurba_marseille","lat":43.31498,"lon":5.38633,"is_reserved":false,"is_disabled":false,"rental_uris":{"android":"levelo://app?vid=28710909-6836-4051-8df5-ac7ea21a74d1","ios":"levelo://app?vid=28710909-6836-4051-8df5-ac7ea21a74d1"},"vehicle_type_id":"4","last_reported":1767694390,"current_range_meters":7200,"station_id":"","pricing_plan_id":"cebpf4jnsgd1na2vs0mg"},{"bike_id":"48bd195f-e255-4287-ab8c-d4db56b26ae3","system_id":"levelo_inurba_marseille","lat":43.3117,"lon":5.38721,"is_reserved":false,"is_disabled":false,"rental_uris":{"android":"levelo://app?vid=48bd195f-e255-4287-ab8c-d4db56b26ae3","ios":"levelo://app?vid=48bd195f-e255-4287-ab8c-d4db56b26ae3"},"vehicle_type_id":"4","last_reported":1767694390,"current_range_meters":7200,"station_id":"ce4bgv12rcd13ifvqcp0","pricing_plan_id":"cebpf4jnsgd1na2vs0mg"},{"bike_id":"11a9d746-21f2-472e-a773-79943d206c1e","system_id":"levelo_inurba_marseille","lat":43.29609,"lon":5.37713,"is_reserved":false,"is_disabled":false,"rental_uris":{"android":"levelo://app?vid=11a9d746-21f2-472e-a773-79943d206c1e","ios":"levelo://app?vid=11a9d746-21f2-472e-a773-79943d206c1e"},"vehicle_type_id":"4","last_reported":1767694390,"current_range_meters":7200,"station_id":"ce4bgi92rcd13ifvqb90","pricing_plan_id":"cebpf4jnsgd1na2vs0mg"},{"bike_id":"fb1a0b48-368d-4184-8906-a0902490ada4","system_id":"levelo_inurba_marseille","lat":43.26998,"lon":5.38763,"is_reserved":false,"is_disabled":false,"rental_uris":{"android":"levelo://app?vid=fb1a0b48-368d-4184-8906-a0902490ada4","ios":"levelo://app?vid=fb1a0b48-368d-4184-8906-a0902490ada4"},"vehicle_type_id":"4","last_reported":1767694390,"current_range_meters":7200,"station_id":"","pricing_plan_id":"cebpf4jnsgd1na2vs0mg"},{"bike_id":"a184e25a-1604-4e63-9035-4f507c575ca1","system_id":"levelo_inurba_marseille","lat":43.31406,"lon":5.37141,"is_reserved":false,"is_disabled":false,"rental_uris":{"android":"levelo://app?vid=a184e25a-1604-4e63-9035-4f507c575ca1","ios":"levelo://app?vid=a184e25a-1604-4e63-9035-4f507c575ca1"},"vehicle_type_id":"4","last_reported":1767694390,"current_range_meters":7200,"station_id":"","pricing_plan_id":"cebpf4jnsgd1na2vs0mg"},{"bike_id":"f8fa6138-13d6-49d0-bc3f-4e0461ffcbc5","system_id":"levelo_inurba_marseille","lat":43.29933,"lon":5.38603,"is_reserved":false,"is_disabled":false,"rental_uris":{"android":"levelo://app?vid=f8fa6138-13d6-49d0-bc3f-4e0461ffcbc5","ios":"levelo://app?vid=f8fa6138-13d6-49d0-bc3f-4e0461ffcbc5"},"vehicle_type_id":"4","last_reported":1767694390,"current_range_meters":7200,"station_id":"","pricing_plan_id":"cebpf4jnsgd1na2vs0mg"},{"bike_id":"72c63b8a-a250-46dd-a4ea-3a9e5b90bd07","system_id":"levelo_inurba_marseille","lat":43.29553,"lon":5.37506,"is_reserved":false,"is_disabled":false,"rental_uris":{"android":"levelo://app?vid=72c63b8a-a250-46dd-a4ea-3a9e5b90bd07","ios":"levelo://app?vid=72c63b8a-a250-46dd-a4ea-3a9e5b90bd07"},"vehicle_type_id":"4","last_reported":1767694390,"current_range_meters":7200,"station_id":"ce4bgh92rcd13ifvqb50","pricing_plan_id":"cebpf4jnsgd1na2vs0mg"},{"bike_id":"0b51251b-9805-4326-8779-f19c1e8a8afd","system_id":"levelo_inurba_marseille","lat":43.26195,"lon":5.3745,"is_reserved":false,"is_disabled":false,"rental_uris":{"android":"levelo://app?vid=0b51251b-9805-4326-8779-f19c1e8a8afd","ios":"levelo://app?vid=0b51251b-9805-4326-8779-f19c1e8a8afd"},"vehicle_type_id":"4","last_reported":1767694390,"current_range_meters":7200,"station_id":"ce4bhgp2rcd13ifvqfc0","pricing_plan_id":"cebpf4jnsgd1na2vs0mg"},{"bike_id":"6a1f68a8-4c0d-48e4-8253-89c4ff19b6ce","system_id":"levelo_inurba_marseille","lat":43.284762,"lon":5.484006,"is_reserved":false,"is_disabled":false,"rental_uris":{"android":"levelo://app?vid=6a1f68a8-4c0d-48e4-8253-89c4ff19b6ce","ios":"levelo://app?vid=6a1f68a8-4c0d-48e4-8253-89c4ff19b6ce"},"vehicle_type_id":"4","last_reported":1767694390,"current_range_meters":7200,"station_id":"","pricing_plan_id":"cebpf4jnsgd1na2vs0mg"},{"bike_id":"deaec06d-ff8e-4b73-a462-82647dc6fff3","system_id":"levelo_inurba_marseille","lat":43.26361,"lon":5.41047,"is_reserved":false,"is_disabled":false,"rental_uris":{"android":"levelo://app?vid=deaec06d-ff8e-4b73-a462-82647dc6fff3","ios":"levelo://app?vid=deaec06d-ff8e-4b73-a462-82647dc6fff3"},"vehicle_type_id":"4","last_reported":1767694390,"current_range_meters":7200,"station_id":"st_d4e5ca6na9uc73bfl5fg","pricing_plan_id":"cebpf4jnsgd1na2vs0mg"},{"bike_id":"7a5278f5-f061-488d-b2a2-8df4e443d682","system_id":"levelo_inurba_marseille","lat":43.26954,"lon":5.40298,"is_reserved":false,"is_disabled":false,"rental_uris":{"android":"levelo://app?vid=7a5278f5-f061-488d-b2a2-8df4e443d682","ios":"levelo://app?vid=7a5278f5-f061-488d-b2a2-8df4e443d682"},"vehicle_type_id":"4","last_reported":1767694390,"current_range_meters":7200,"station_id":"cjm6bp8fraef2m0cb0m0","pricing_plan_id":"cebpf4jnsgd1na2vs0mg"},{"bike_id":"dcd17e5a-74df-42d5-bc07-aacf87e896f6","system_id":"levelo_inurba_marseille","lat":43.24065,"lon":5.37721,"is_reserved":false,"is_disabled":false,"rental_uris":{"android":"levelo://app?vid=dcd17e5a-74df-42d5-bc07-aacf87e896f6","ios":"levelo://app?vid=dcd17e5a-74df-42d5-bc07-aacf87e896f6"},"vehicle_type_id":"4","last_reported":1767694390,"current_range_meters":7200,"station_id":"ce4bhnp2rcd13ifvqgvg","pricing_plan_id":"cebpf4jnsgd1na2vs0mg"},{"bike_id":"ad9c57a4-d8a7-41c0-8bf9-21a179390ca8","system_id":"levelo_inurba_marseille","lat":43.28538,"lon":5.44093,"is_reserved":false,"is_disabled":false,"rental_uris":{"android":"levelo://app?vid=ad9c57a4-d8a7-41c0-8bf9-21a179390ca8","ios":"levelo://app?vid=ad9c57a4-d8a7-41c0-8bf9-21a179390ca8"},"vehicle_type_id":"4","last_reported":1767694390,"current_range_meters":7200,"station_id":"st_d3j3df2ikq2c7380ej80","pricing_plan_id":"cebpf4jnsgd1na2vs0mg"},{"bike_id":"a56df372-151e-4fe2-8949-dd650d263775","system_id":"levelo_inurba_marseille","lat":43.28309,"lon":5.38929,"is_reserved":false,"is_disabled":false,"rental_uris":{"android":"levelo://app?vid=a56df372-151e-4fe2-8949-dd650d263775","ios":"levelo://app?vid=a56df372-151e-4fe2-8949-dd650d263775"},"vehicle_type_id":"4","last_reported":1767694390,"current_range_meters":7200,"station_id":"","pricing_plan_id":"cebpf4jnsgd1na2vs0mg"},{"bike_id":"307a64ca-f552-49b9-80b0-a69f761f5934","system_id":"levelo_inurba_marseille","lat":43.26376,"lon":5.41081,"is_reserved":false,"is_disabled":false,"rental_uris":{"android":"levelo://app?vid=307a64ca-f552-49b9-80b0-a69f761f5934","ios":"levelo://app?vid=307a64ca-f552-49b9-80b0-a69f761f5934"},"vehicle_type_id":"4","last_reported":1767694390,"current_range_meters":7200,"station_id":"st_d4e5ca6na9uc73bfl5fg","pricing_plan_id":"cebpf4jnsgd1na2vs0mg"},{"bike_id":"5bd4b4ff-708b-4f5f-8049-5009ef7974cd","system_id":"levelo_inurba_marseille","lat":43.295838,"lon":5.367475,"is_reserved":false,"is_disabled":true,"rental_uris":{"android":"levelo://app?vid=5bd4b4ff-708b-4f5f-8049-5009ef7974cd","ios":"levelo://app?vid=5bd4b4ff-708b-4f5f-8049-5009ef7974cd"},"vehicle_type_id":"4","last_reported":1767694390,"current_range_meters":8000,"station_id":"ce4bgph2rcd13ifvqc2g","pricing_plan_id":"cebpf4jnsgd1na2vs0mg"},{"bike_id":"0af53ae4-3548-4b7a-b3f3-8c7d15acdad3","system_id":"levelo_inurba_marseille","lat":43.26567,"lon":5.39009,"is_reserved":false,"is_disabled":false,"rental_uris":{"android":"levelo://app?vid=0af53ae4-3548-4b7a-b3f3-8c7d15acdad3","ios":"levelo://app?vid=0af53ae4-3548-4b7a-b3f3-8c7d15acdad3"},"vehicle_type_id":"4","last_reported":1767694390,"current_range_meters":8000,"station_id":"ce4bhe12rcd13ifvqf30","pricing_plan_id":"cebpf4jnsgd1na2vs0mg"},{"bike_id":"2b1bae36-193a-499b-bb7e-403bbcf0b6b5","system_id":"levelo_inurba_marseille","lat":43.27797,"lon":5.40752,"is_reserved":false,"is_disabled":false,"rental_uris":{"android":"levelo://app?vid=2b1bae36-193a-499b-bb7e-403bbcf0b6b5","ios":"levelo://app?vid=2b1bae36-193a-499b-bb7e-403bbcf0b6b5"},"vehicle_type_id":"4","last_reported":1767694390,"current_range_meters":8000,"station_id":"ce4bhnh2rcd13ifvqgtg","pricing_plan_id":"cebpf4jnsgd1na2vs0mg"},{"bike_id":"7e9901e5-0ecb-4064-a195-f0e8bbeeaa5c","system_id":"levelo_inurba_marseille","lat":43.28475,"lon":5.38604,"is_reserved":false,"is_disabled":false,"rental_uris":{"android":"levelo://app?vid=7e9901e5-0ecb-4064-a195-f0e8bbeeaa5c","ios":"levelo://app?vid=7e9901e5-0ecb-4064-a195-f0e8bbeeaa5c"},"vehicle_type_id":"4","last_reported":1767694390,"current_range_meters":8000,"station_id":"ce4bh8p2rcd13ifvqeb0","pricing_plan_id":"cebpf4jnsgd1na2vs0mg"},{"bike_id":"15bf6c3d-bc89-4e44-bfe7-ef27538e093c","system_id":"levelo_inurba_marseille","lat":43.246306,"lon":5.431485,"is_reserved":false,"is_disabled":false,"rental_uris":{"android":"levelo://app?vid=15bf6c3d-bc89-4e44-bfe7-ef27538e093c","ios":"levelo://app?vid=15bf6c3d-bc89-4e44-bfe7-ef27538e093c"},"vehicle_type_id":"4","last_reported":1767694390,"current_range_meters":8000,"station_id":"st_d2m6c4gdas8pm72e190g","pricing_plan_id":"cebpf4jnsgd1na2vs0mg"},{"bike_id":"565f99b7-e9e2-4b44-8331-6450d9ae6732","system_id":"levelo_inurba_marseille","lat":43.32087,"lon":5.36759,"is_reserved":false,"is_disabled":false,"rental_uris":{"android":"levelo://app?vid=565f99b7-e9e2-4b44-8331-6450d9ae6732","ios":"levelo://app?vid=565f99b7-e9e2-4b44-8331-6450d9ae6732"},"vehicle_type_id":"4","last_reported":1767694390,"current_range_meters":8000,"station_id":"ce4bhrh2rcd13ifvqhug","pricing_plan_id":"cebpf4jnsgd1na2vs0mg"},{"bike_id":"af55f621-bfef-4f73-803d-87bce07d8470","system_id":"levelo_inurba_marseille","lat":43.29935,"lon":5.3655,"is_reserved":false,"is_disabled":false,"rental_uris":{"android":"levelo://app?vid=af55f621-bfef-4f73-803d-87bce07d8470","ios":"levelo://app?vid=af55f621-bfef-4f73-803d-87bce07d8470"},"vehicle_type_id":"4","last_reported":1767694390,"current_range_meters":8000,"station_id":"ce4bgm92rcd13ifvqbr0","pricing_plan_id":"cebpf4jnsgd1na2vs0mg"},{"bike_id":"e35627f3-e8ef-4d4a-9cf6-75aababa9398","system_id":"levelo_inurba_marseille","lat":43.2439,"lon":5.37075,"is_reserved":false,"is_disabled":false,"rental_uris":{"android":"levelo://app?vid=e35627f3-e8ef-4d4a-9cf6-75aababa9398","ios":"levelo://app?vid=e35627f3-e8ef-4d4a-9cf6-75aababa9398"},"vehicle_type_id":"4","last_reported":1767694390,"current_range_meters":8000,"station_id":"ce4bhhh2rcd13ifvqfk0","pricing_plan_id":"cebpf4jnsgd1na2vs0mg"},{"bike_id":"79050b2d-51dd-4422-b5f7-33cfc5837f53","system_id":"levelo_inurba_marseille","lat":43.31266,"lon":5.3775,"is_reserved":false,"is_disabled":false,"rental_uris":{"android":"levelo://app?vid=79050b2d-51dd-4422-b5f7-33cfc5837f53","ios":"levelo://app?vid=79050b2d-51dd-4422-b5f7-33cfc5837f53"},"vehicle_type_id":"4","last_reported":1767694390,"current_range_meters":8000,"station_id":"","pricing_plan_id":"cebpf4jnsgd1na2vs0mg"},{"bike_id":"46e9ff29-49e0-4240-b2d3-9dae95342edb","system_id":"levelo_inurba_marseille","lat":43.25691,"lon":5.40985,"is_reserved":false,"is_disabled":false,"rental_uris":{"android":"levelo://app?vid=46e9ff29-49e0-4240-b2d3-9dae95342edb","ios":"levelo://app?vid=46e9ff29-49e0-4240-b2d3-9dae95342edb"},"vehicle_type_id":"4","last_reported":1767694390,"current_range_meters":8000,"station_id":"","pricing_plan_id":"cebpf4jnsgd1na2vs0mg"},{"bike_id":"8015c7a3-ca99-4bed-b795-854d89867176","system_id":"levelo_inurba_marseille","lat":43.300345,"lon":5.373509,"is_reserved":false,"is_disabled":false,"rental_uris":{"android":"levelo://app?vid=8015c7a3-ca99-4bed-b795-854d89867176","ios":"levelo://app?vid=8015c7a3-ca99-4bed-b795-854d89867176"},"vehicle_type_id":"4","last_reported":1767694390,"current_range_meters":8000,"station_id":"","pricing_plan_id":"cebpf4jnsgd1na2vs0mg"},{"bike_id":"999e74f3-d4b2-444d-89bc-239d909db7d5","system_id":"levelo_inurba_marseille","lat":43.30091,"lon":5.36956,"is_reserved":false,"is_disabled":false,"rental_uris":{"android":"levelo://app?vid=999e74f3-d4b2-444d-89bc-239d909db7d5","ios":"levelo://app?vid=999e74f3-d4b2-444d-89bc-239d909db7d5"},"vehicle_type_id":"4","last_reported":1767694390,"current_range_meters":8000,"station_id":"","pricing_plan_id":"cebpf4jnsgd1na2vs0mg"},{"bike_id":"9265da08-af6b-41f8-a564-a7a5e4a8d66e","system_id":"levelo_inurba_marseille","lat":43.28474,"lon":5.48392,"is_reserved":false,"is_disabled":false,"rental_uris":{"android":"levelo://app?vid=9265da08-af6b-41f8-a564-a7a5e4a8d66e","ios":"levelo://app?vid=9265da08-af6b-41f8-a564-a7a5e4a8d66e"},"vehicle_type_id":"4","last_reported":1767694390,"current_range_meters":8000,"station_id":"","pricing_plan_id":"cebpf4jnsgd1na2vs0mg"},{"bike_id":"268164f1-8ea3-47fe-88a6-4a50f2c34a8f","system_id":"levelo_inurba_marseille","lat":43.29286,"lon":5.36821,"is_reserved":false,"is_disabled":false,"rental_uris":{"android":"levelo://app?vid=268164f1-8ea3-47fe-88a6-4a50f2c34a8f","ios":"levelo://app?vid=268164f1-8ea3-47fe-88a6-4a50f2c34a8f"},"vehicle_type_id":"4","last_reported":1767694390,"current_range_meters":8000,"station_id":"ce4bhbp2rcd13ifvqesg","pricing_plan_id":"cebpf4jnsgd1na2vs0mg"},{"bike_id":"27d9b984-914c-44c6-abe9-2fee68ccfc43","system_id":"levelo_inurba_marseille","lat":43.3316,"lon":5.37706,"is_reserved":false,"is_disabled":false,"rental_uris":{"android":"levelo://app?vid=27d9b984-914c-44c6-abe9-2fee68ccfc43","ios":"levelo://app?vid=27d9b984-914c-44c6-abe9-2fee68ccfc43"},"vehicle_type_id":"4","last_reported":1767694390,"current_range_meters":8000,"station_id":"st_d46cu089ee8s73dldbu0","pricing_plan_id":"cebpf4jnsgd1na2vs0mg"},{"bike_id":"1c443ae8-c486-4898-ba52-b5c1dcdc3e04","system_id":"levelo_inurba_marseille","lat":43.27151,"lon":5.41007,"is_reserved":false,"is_disabled":false,"rental_uris":{"android":"levelo://app?vid=1c443ae8-c486-4898-ba52-b5c1dcdc3e04","ios":"levelo://app?vid=1c443ae8-c486-4898-ba52-b5c1dcdc3e04"},"vehicle_type_id":"4","last_reported":1767694390,"current_range_meters":8000,"station_id":"ce4bhl12rcd13ifvqgf0","pricing_plan_id":"cebpf4jnsgd1na2vs0mg"},{"bike_id":"49d4c477-d82c-4845-ae00-302004d2baeb","system_id":"levelo_inurba_marseille","lat":43.25335,"lon":5.4216,"is_reserved":false,"is_disabled":false,"rental_uris":{"android":"levelo://app?vid=49d4c477-d82c-4845-ae00-302004d2baeb","ios":"levelo://app?vid=49d4c477-d82c-4845-ae00-302004d2baeb"},"vehicle_type_id":"4","last_reported":1767694390,"current_range_meters":8000,"station_id":"st_d2m65c5bi1j21697t3ng","pricing_plan_id":"cebpf4jnsgd1na2vs0mg"},{"bike_id":"bb60c7a5-e430-4723-8336-043666a2360d","system_id":"levelo_inurba_marseille","lat":43.27329,"lon":5.39113,"is_reserved":false,"is_disabled":false,"rental_uris":{"android":"levelo://app?vid=bb60c7a5-e430-4723-8336-043666a2360d","ios":"levelo://app?vid=bb60c7a5-e430-4723-8336-043666a2360d"},"vehicle_type_id":"4","last_reported":1767694390,"current_range_meters":8000,"station_id":"ce4bhgp2rcd13ifvqfe0","pricing_plan_id":"cebpf4jnsgd1na2vs0mg"},{"bike_id":"0597b508-1261-4db8-9e17-c13a262518a7","system_id":"levelo_inurba_marseille","lat":43.29,"lon":5.35607,"is_reserved":false,"is_disabled":false,"rental_uris":{"android":"levelo://app?vid=0597b508-1261-4db8-9e17-c13a262518a7","ios":"levelo://app?vid=0597b508-1261-4db8-9e17-c13a262518a7"},"vehicle_type_id":"4","last_reported":1767694390,"current_range_meters":8000,"station_id":"ce4bhb92rcd13ifvqen0","pricing_plan_id":"cebpf4jnsgd1na2vs0mg"},{"bike_id":"a484f544-5931-4cd5-921e-d002c4c50283","system_id":"levelo_inurba_marseille","lat":43.29042,"lon":5.39992,"is_reserved":false,"is_disabled":false,"rental_uris":{"android":"levelo://app?vid=a484f544-5931-4cd5-921e-d002c4c50283","ios":"levelo://app?vid=a484f544-5931-4cd5-921e-d002c4c50283"},"vehicle_type_id":"4","last_reported":1767694390,"current_range_meters":8000,"station_id":"ce4bh392rcd13ifvqdm0","pricing_plan_id":"cebpf4jnsgd1na2vs0mg"},{"bike_id":"f7266f96-97df-4d00-8894-b574c422868e","system_id":"levelo_inurba_marseille","lat":43.2871,"lon":5.36113,"is_reserved":false,"is_disabled":false,"rental_uris":{"android":"levelo://app?vid=f7266f96-97df-4d00-8894-b574c422868e","ios":"levelo://app?vid=f7266f96-97df-4d00-8894-b574c422868e"},"vehicle_type_id":"4","last_reported":1767694390,"current_range_meters":8400,"station_id":"cki0cbj6b192h4jlfktg","pricing_plan_id":"cebpf4jnsgd1na2vs0mg"},{"bike_id":"e10d2e97-3324-4923-8226-ed68a3a3ab41","system_id":"levelo_inurba_marseille","lat":43.298596,"lon":5.362835,"is_reserved":false,"is_disabled":false,"rental_uris":{"android":"levelo://app?vid=e10d2e97-3324-4923-8226-ed68a3a3ab41","ios":"levelo://app?vid=e10d2e97-3324-4923-8226-ed68a3a3ab41"},"vehicle_type_id":"4","last_reported":1767694390,"current_range_meters":8400,"station_id":"ce4bgpp2rcd13ifvqc3g","pricing_plan_id":"cebpf4jnsgd1na2vs0mg"},{"bike_id":"d599e143-3cfd-4dd2-ba0d-054f2e412eda","system_id":"levelo_inurba_marseille","lat":43.28268,"lon":5.35076,"is_reserved":false,"is_disabled":false,"rental_uris":{"android":"levelo://app?vid=d599e143-3cfd-4dd2-ba0d-054f2e412eda","ios":"levelo://app?vid=d599e143-3cfd-4dd2-ba0d-054f2e412eda"},"vehicle_type_id":"4","last_reported":1767694390,"current_range_meters":8400,"station_id":"ce4bhbp2rcd13ifvqerg","pricing_plan_id":"cebpf4jnsgd1na2vs0mg"},{"bike_id":"f75b0410-7374-4824-96ab-6b516b680266","system_id":"levelo_inurba_marseille","lat":43.26496,"lon":5.39578,"is_reserved":false,"is_disabled":false,"rental_uris":{"android":"levelo://app?vid=f75b0410-7374-4824-96ab-6b516b680266","ios":"levelo://app?vid=f75b0410-7374-4824-96ab-6b516b680266"},"vehicle_type_id":"4","last_reported":1767694390,"current_range_meters":8400,"station_id":"ce4bhi12rcd13ifvqfq0","pricing_plan_id":"cebpf4jnsgd1na2vs0mg"},{"bike_id":"be75706c-d84a-4279-b5a3-376dba45c6a6","system_id":"levelo_inurba_marseille","lat":43.24765,"lon":5.37467,"is_reserved":false,"is_disabled":false,"rental_uris":{"android":"levelo://app?vid=be75706c-d84a-4279-b5a3-376dba45c6a6","ios":"levelo://app?vid=be75706c-d84a-4279-b5a3-376dba45c6a6"},"vehicle_type_id":"4","last_reported":1767694390,"current_range_meters":8400,"station_id":"ce4bhgh2rcd13ifvqfb0","pricing_plan_id":"cebpf4jnsgd1na2vs0mg"},{"bike_id":"9429cadb-a739-4f5f-8c2b-cc91a27439eb","system_id":"levelo_inurba_marseille","lat":43.27696,"lon":5.42069,"is_reserved":false,"is_disabled":false,"rental_uris":{"android":"levelo://app?vid=9429cadb-a739-4f5f-8c2b-cc91a27439eb","ios":"levelo://app?vid=9429cadb-a739-4f5f-8c2b-cc91a27439eb"},"vehicle_type_id":"4","last_reported":1767694390,"current_range_meters":8400,"station_id":"","pricing_plan_id":"cebpf4jnsgd1na2vs0mg"},{"bike_id":"f3cb6086-5e80-4c80-9631-a61f6105ed91","system_id":"levelo_inurba_marseille","lat":43.31343,"lon":5.36742,"is_reserved":false,"is_disabled":false,"rental_uris":{"android":"levelo://app?vid=f3cb6086-5e80-4c80-9631-a61f6105ed91","ios":"levelo://app?vid=f3cb6086-5e80-4c80-9631-a61f6105ed91"},"vehicle_type_id":"4","last_reported":1767694390,"current_range_meters":8400,"station_id":"ce4bgr92rcd13ifvqc6g","pricing_plan_id":"cebpf4jnsgd1na2vs0mg"},{"bike_id":"59469bc6-78d7-4a40-a4a6-2fea1bf98f70","system_id":"levelo_inurba_marseille","lat":43.27817,"lon":5.4072,"is_reserved":false,"is_disabled":true,"rental_uris":{"android":"levelo://app?vid=59469bc6-78d7-4a40-a4a6-2fea1bf98f70","ios":"levelo://app?vid=59469bc6-78d7-4a40-a4a6-2fea1bf98f70"},"vehicle_type_id":"4","last_reported":1767694390,"current_range_meters":8400,"station_id":"ce4bhnh2rcd13ifvqgtg","pricing_plan_id":"cebpf4jnsgd1na2vs0mg"},{"bike_id":"e9ebb3e3-66e8-49c5-9725-2d758f1b330e","system_id":"levelo_inurba_marseille","lat":43.29545,"lon":5.37522,"is_reserved":false,"is_disabled":false,"rental_uris":{"android":"levelo://app?vid=e9ebb3e3-66e8-49c5-9725-2d758f1b330e","ios":"levelo://app?vid=e9ebb3e3-66e8-49c5-9725-2d758f1b330e"},"vehicle_type_id":"4","last_reported":1767694390,"current_range_meters":8400,"station_id":"ce4bgkp2rcd13ifvqbmg","pricing_plan_id":"cebpf4jnsgd1na2vs0mg"},{"bike_id":"9543aad1-f2c5-4f3f-ab6a-e1b8918ce8ce","system_id":"levelo_inurba_marseille","lat":43.29899,"lon":5.38499,"is_reserved":false,"is_disabled":false,"rental_uris":{"android":"levelo://app?vid=9543aad1-f2c5-4f3f-ab6a-e1b8918ce8ce","ios":"levelo://app?vid=9543aad1-f2c5-4f3f-ab6a-e1b8918ce8ce"},"vehicle_type_id":"4","last_reported":1767694390,"current_range_meters":8400,"station_id":"","pricing_plan_id":"cebpf4jnsgd1na2vs0mg"},{"bike_id":"bbfa127a-c4cd-452d-b148-18597fd04b45","system_id":"levelo_inurba_marseille","lat":43.25571,"lon":5.38242,"is_reserved":false,"is_disabled":false,"rental_uris":{"android":"levelo://app?vid=bbfa127a-c4cd-452d-b148-18597fd04b45","ios":"levelo://app?vid=bbfa127a-c4cd-452d-b148-18597fd04b45"},"vehicle_type_id":"4","last_reported":1767694390,"current_range_meters":8400,"station_id":"ce4bhih2rcd13ifvqfs0","pricing_plan_id":"cebpf4jnsgd1na2vs0mg"},{"bike_id":"c12ea4a3-bcf0-4ab0-a612-03910cec9930","system_id":"levelo_inurba_marseille","lat":43.28075,"lon":5.39655,"is_reserved":false,"is_disabled":false,"rental_uris":{"android":"levelo://app?vid=c12ea4a3-bcf0-4ab0-a612-03910cec9930","ios":"levelo://app?vid=c12ea4a3-bcf0-4ab0-a612-03910cec9930"},"vehicle_type_id":"4","last_reported":1767694390,"current_range_meters":8400,"station_id":"ce4bho12rcd13ifvqh2g","pricing_plan_id":"cebpf4jnsgd1na2vs0mg"},{"bike_id":"969b1719-3fa2-4d7b-b48c-3f3c994a3da7","system_id":"levelo_inurba_marseille","lat":43.292124,"lon":5.395582,"is_reserved":false,"is_disabled":false,"rental_uris":{"android":"levelo://app?vid=969b1719-3fa2-4d7b-b48c-3f3c994a3da7","ios":"levelo://app?vid=969b1719-3fa2-4d7b-b48c-3f3c994a3da7"},"vehicle_type_id":"4","last_reported":1767694390,"current_range_meters":8400,"station_id":"","pricing_plan_id":"cebpf4jnsgd1na2vs0mg"},{"bike_id":"1cc14a4e-8f2c-4bea-9c25-f855a4eff001","system_id":"levelo_inurba_marseille","lat":43.28606,"lon":5.351,"is_reserved":false,"is_disabled":false,"rental_uris":{"android":"levelo://app?vid=1cc14a4e-8f2c-4bea-9c25-f855a4eff001","ios":"levelo://app?vid=1cc14a4e-8f2c-4bea-9c25-f855a4eff001"},"vehicle_type_id":"4","last_reported":1767694390,"current_range_meters":8400,"station_id":"ce4bhch2rcd13ifvqeug","pricing_plan_id":"cebpf4jnsgd1na2vs0mg"},{"bike_id":"c773f61c-a83f-41d9-bdd4-df8791dcab70","system_id":"levelo_inurba_marseille","lat":43.29794,"lon":5.37762,"is_reserved":false,"is_disabled":false,"rental_uris":{"android":"levelo://app?vid=c773f61c-a83f-41d9-bdd4-df8791dcab70","ios":"levelo://app?vid=c773f61c-a83f-41d9-bdd4-df8791dcab70"},"vehicle_type_id":"4","last_reported":1767694390,"current_range_meters":8400,"station_id":"","pricing_plan_id":"cebpf4jnsgd1na2vs0mg"},{"bike_id":"bf0a0489-ec91-406d-a7a0-4b4e36bfc3bb","system_id":"levelo_inurba_marseille","lat":43.229333,"lon":5.353798,"is_reserved":false,"is_disabled":false,"rental_uris":{"android":"levelo://app?vid=bf0a0489-ec91-406d-a7a0-4b4e36bfc3bb","ios":"levelo://app?vid=bf0a0489-ec91-406d-a7a0-4b4e36bfc3bb"},"vehicle_type_id":"4","last_reported":1767694390,"current_range_meters":8400,"station_id":"cpo3532slgdg3j2ikp40","pricing_plan_id":"cebpf4jnsgd1na2vs0mg"},{"bike_id":"59f38118-6a4d-4e62-8844-f6df1659fc07","system_id":"levelo_inurba_marseille","lat":43.29896,"lon":5.43667,"is_reserved":false,"is_disabled":false,"rental_uris":{"android":"levelo://app?vid=59f38118-6a4d-4e62-8844-f6df1659fc07","ios":"levelo://app?vid=59f38118-6a4d-4e62-8844-f6df1659fc07"},"vehicle_type_id":"4","last_reported":1767694390,"current_range_meters":8400,"station_id":"ce4bhpp2rcd13ifvqhfg","pricing_plan_id":"cebpf4jnsgd1na2vs0mg"},{"bike_id":"b317fec0-bb47-4cc0-932a-12d8650393aa","system_id":"levelo_inurba_marseille","lat":43.33594,"lon":5.41038,"is_reserved":false,"is_disabled":false,"rental_uris":{"android":"levelo://app?vid=b317fec0-bb47-4cc0-932a-12d8650393aa","ios":"levelo://app?vid=b317fec0-bb47-4cc0-932a-12d8650393aa"},"vehicle_type_id":"4","last_reported":1767694390,"current_range_meters":8400,"station_id":"ce4bhqh2rcd13ifvqhmg","pricing_plan_id":"cebpf4jnsgd1na2vs0mg"},{"bike_id":"174e0a88-28ce-484e-8861-adcbe3a929da","system_id":"levelo_inurba_marseille","lat":43.28482,"lon":5.483879,"is_reserved":false,"is_disabled":false,"rental_uris":{"android":"levelo://app?vid=174e0a88-28ce-484e-8861-adcbe3a929da","ios":"levelo://app?vid=174e0a88-28ce-484e-8861-adcbe3a929da"},"vehicle_type_id":"4","last_reported":1767694390,"current_range_meters":8400,"station_id":"st_d3svhcjqgbts73a3dn0g","pricing_plan_id":"cebpf4jnsgd1na2vs0mg"},{"bike_id":"a64de1f7-3574-4633-a39c-4e77af724a95","system_id":"levelo_inurba_marseille","lat":43.27184,"lon":5.40999,"is_reserved":false,"is_disabled":false,"rental_uris":{"android":"levelo://app?vid=a64de1f7-3574-4633-a39c-4e77af724a95","ios":"levelo://app?vid=a64de1f7-3574-4633-a39c-4e77af724a95"},