{"last_updated":1700766338,"ttl":30,"version":"2.2","data":{"bikes":[{"bike_id":"cd51247a-5d7d-4cc4-9936-79d449bcf3f9","system_id":"levelo_inurba_marseille","lat":43.309076,"lon":5.368465,"is_reserved":false,"is_disabled":false,"rental_uris":{"android":"levelo://app?vid=cd51247a-5d7d-4cc4-9936-79d449bcf3f9","ios":"levelo://app?vid=cd51247a-5d7d-4cc4-9936-79d449bcf3f9"},"vehicle_type_id":"4","last_reported":1700766339,"current_range_meters":4400,"station_id":"ce4bgn92rcd13ifvqbvg","pricing_plan_id":"free"},{"bike_id":"823d0c67-9592-4c17-884a-a970f6650ff8","system_id":"levelo_inurba_marseille","lat":43.314811,"lon":5.373103,"is_reserved":false,"is_disabled":false,"rental_uris":{"android":"levelo://app?vid=823d0c67-9592-4c17-884a-a970f6650ff8","ios":"levelo://app?vid=823d0c67-9592-4c17-884a-a970f6650ff8"},"vehicle_type_id":"4","last_reported":1700766339,"current_range_meters":0,"station_id":"ce4bgt12rcd13ifvqcd0","pricing_plan_id":"free"},{"bike_id":"d1ed4479-d852-4380-a0a3-06c7325a3801","system_id":"levelo_inurba_marseille","lat":43.314811,"lon":5.373104,"is_reserved":false,"is_disabled":false,"rental_uris":{"android":"levelo://app?vid=d1ed4479-d852-4380-a0a3-06c7325a3801","ios":"levelo://app?vid=d1ed4479-d852-4380-a0a3-06c7325a3801"},"vehicle_type_id":"4","last_reported":1700766339,"current_range_meters":19600,"station_id":"ce4bgt12rcd13ifvqcd0","pricing_plan_id":"free"},{"bike_id":"acf2e61c-da7a-4535-afce-6dae5cd5d176","system_id":"levelo_inurba_marseille","lat":43.3082,"lon":5.37647,"is_reserved":false,"is_disabled":false,"rental_uris":{"android":"levelo://app?vid=acf2e61c-da7a-4535-afce-6dae5cd5d176","ios":"levelo://app?vid=acf2e61c-da7a-4535-afce-6dae5cd5d176"},"vehicle_type_id":"4","last_reported":1700766339,"current_range_meters":6800,"station_id":"ce4bgv92rcd13ifvqcq0","pricing_plan_id":"free"},{"bike_id":"cb831096-b78a-4b81-9642-df22882295e9","system_id":"levelo_inurba_marseille","lat":43.308192,"lon":5.376502,"is_reserved":false,"is_disabled":false,"rental_uris":{"android":"levelo://app?vid=cb831096-b78a-4b81-9642-df22882295e9","ios":"levelo://app?vid=cb831096-b78a-4b81-9642-df22882295e9"},"vehicle_type_id":"4","last_reported":1700766339,"current_range_meters":20000,"station_id":"ce4bgv92rcd13ifvqcq0","pricing_plan_id":"free"},{"bike_id":"6688d18a-76b3-4d1f-a5d7-ff5674d61b67","system_id":"levelo_inurba_marseille","lat":43.303195,"lon":5.366405,"is_reserved":false,"is_disabled":false,"rental_uris":{"android":"levelo://app?vid=6688d18a-76b3-4d1f-a5d7-ff5674d61b67","ios":"levelo://app?vid=6688d18a-76b3-4d1f-a5d7-ff5674d61b67"},"vehicle_type_id":"4","last_reported":1700766339,"current_range_meters":0,"station_id":"","pricing_plan_id":"free"},{"bike_id":"e8f0168e-982a-4785-97c5-f62995241d3f","system_id":"levelo_inurba_marseille","lat":43.301939,"lon":5.366286,"is_reserved":false,"is_disabled":false,"rental_uris":{"android":"levelo://app?vid=e8f0168e-982a-4785-97c5-f62995241d3f","ios":"levelo://app?vid=e8f0168e-982a-4785-97c5-f62995241d3f"},"vehicle_type_id":"4","last_reported":1700766339,"current_range_meters":19600,"station_id":"ce4bgrh2rcd13ifvqc8g","pricing_plan_id":"free"},{"bike_id":"4a19c8ee-0bc2-4fde-8918-7a92fe9893af","system_id":"levelo_inurba_marseille","lat":43.301939,"lon":5.366286,"is_reserved":false,"is_disabled":false,"rental_uris":{"android":"levelo://app?vid=4a19c8ee-0bc2-4fde-8918-7a92fe9893af","ios":"levelo://app?vid=4a19c8ee-0bc2-4fde-8918-7a92fe9893af"},"vehicle_type_id":"4","last_reported":1700766339,"current_range_meters":21200,"station_id":"ce4bgrh2rcd13ifvqc8g","pricing_plan_id":"free"},{"bike_id":"dfb03d08-efc7-4001-9446-de22e8cc0831","system_id":"levelo_inurba_marseille","lat":43.301939,"lon":5.366286,"is_reserved":false,"is_disabled":false,"rental_uris":{"android":"levelo://app?vid=dfb03d08-efc7-4001-9446-de22e8cc0831","ios":"levelo://app?vid=dfb03d08-efc7-4001-9446-de22e8cc0831"},"vehicle_type_id":"4","last_reported":1700766339,"current_range_meters":800,"station_id":"ce4bgrh2rcd13ifvqc8g","pricing_plan_id":"free"},{"bike_id":"0327687b-f51e-4077-bf49-2ec73a6de092","system_id":"levelo_inurba_marseille","lat":43.322262,"lon":5.375599,"is_reserved":false,"is_disabled":false,"rental_uris":{"android":"levelo://app?vid=0327687b-f51e-4077-bf49-2ec73a6de092","ios":"levelo://app?vid=0327687b-f51e-4077-bf49-2ec73a6de092"},"vehicle_type_id":"4","last_reported":1700766339,"current_range_meters":10400,"station_id":"","pricing_plan_id":"free"},{"bike_id":"1b65acc1-04a6-422e-ab10-6310ded216bd","system_id":"levelo_inurba_marseille","lat":43.304606,"lon":5.379026,"is_reserved":false,"is_disabled":false,"rental_uris":{"android":"levelo://app?vid=1b65acc1-04a6-422e-ab10-6310ded216bd","ios":"levelo://app?vid=1b65acc1-04a6-422e-ab10-6310ded216bd"},"vehicle_type_id":"4","last_reported":1700766339,"current_range_meters":0,"station_id":"ce4bgup2rcd13ifvqcn0","pricing_plan_id":"free"},{"bike_id":"e646bcb1-79a7-4ebe-a422-497b426895f3","system_id":"levelo_inurba_marseille","lat":43.3136,"lon":5.38489,"is_reserved":false,"is_disabled":false,"rental_uris":{"android":"levelo://app?vid=e646bcb1-79a7-4ebe-a422-497b426895f3","ios":"levelo://app?vid=e646bcb1-79a7-4ebe-a422-497b426895f3"},"vehicle_type_id":"4","last_reported":1700766339,"current_range_meters":16000,"station_id":"ce4bgt92rcd13ifvqcf0","pricing_plan_id":"free"},{"bike_id":"6f60b340-f25e-4c85-b805-fd004e1857d9","system_id":"levelo_inurba_marseille","lat":43.313571,"lon":5.384829,"is_reserved":false,"is_disabled":false,"rental_uris":{"android":"levelo://app?vid=6f60b340-f25e-4c85-b805-fd004e1857d9","ios":"levelo://app?vid=6f60b340-f25e-4c85-b805-fd004e1857d9"},"vehicle_type_id":"4","last_reported":1700766339,"current_range_meters":24400,"station_id":"ce4bgt92rcd13ifvqcf0","pricing_plan_id":"free"},{"bike_id":"dc98a893-1530-44bf-9b0d-7f2c5936d40f","system_id":"levelo_inurba_marseille","lat":43.299724,"lon":5.371829,"is_reserved":false,"is_disabled":false,"rental_uris":{"android":"levelo://app?vid=dc98a893-1530-44bf-9b0d-7f2c5936d40f","ios":"levelo://app?vid=dc98a893-1530-44bf-9b0d-7f2c5936d40f"},"vehicle_type_id":"4","last_reported":1700766339,"current_range_meters":1600,"station_id":"ce4bgr92rcd13ifvqc7g","pricing_plan_id":"free"},{"bike_id":"8ec54fc4-e768-4c19-8c33-70a8454123da","system_id":"levelo_inurba_marseille","lat":43.299222,"lon":5.365554,"is_reserved":false,"is_disabled":false,"rental_uris":{"android":"levelo://app?vid=8ec54fc4-e768-4c19-8c33-70a8454123da","ios":"levelo://app?vid=8ec54fc4-e768-4c19-8c33-70a8454123da"},"vehicle_type_id":"4","last_reported":1700766339,"current_range_meters":24800,"station_id":"ce4bgm92rcd13ifvqbr0","pricing_plan_id":"free"},{"bike_id":"45dbdaae-bdab-466d-8452-ae565e6e4c89","system_id":"levelo_inurba_marseille","lat":43.313571,"lon":5.384829,"is_reserved":false,"is_disabled":false,"rental_uris":{"android":"levelo://app?vid=45dbdaae-bdab-466d-8452-ae565e6e4c89","ios":"levelo://app?vid=45dbdaae-bdab-466d-8452-ae565e6e4c89"},"vehicle_type_id":"4","last_reported":1700766339,"current_range_meters":18000,"station_id":"ce4bgt92rcd13ifvqcf0","pricing_plan_id":"free"},{"bike_id":"943d74b8-e291-4f29-acf7-d4a17963816a","system_id":"levelo_inurba_marseille","lat":43.297794,"lon":5.370888,"is_reserved":false,"is_disabled":false,"rental_uris":{"android":"levelo://app?vid=943d74b8-e291-4f29-acf7-d4a17963816a","ios":"levelo://app?vid=943d74b8-e291-4f29-acf7-d4a17963816a"},"vehicle_type_id":"4","last_reported":1700766339,"current_range_meters":27200,"station_id":"ce4bgop2rcd13ifvqc1g","pricing_plan_id":"free"},{"bike_id":"5a877054-2cf2-41cb-b572-968f14afeb92","system_id":"levelo_inurba_marseille","lat":43.322872,"lon":5.382756,"is_reserved":false,"is_disabled":false,"rental_uris":{"android":"levelo://app?vid=5a877054-2cf2-41cb-b572-968f14afeb92","ios":"levelo://app?vid=5a877054-2cf2-41cb-b572-968f14afeb92"},"vehicle_type_id":"4","last_reported":1700766339,"current_range_meters":23200,"station_id":"ce4bhr12rcd13ifvqhqg","pricing_plan_id":"free"},{"bike_id":"3f546eb6-91fa-4b9c-afab-d808c7a8f54c","system_id":"levelo_inurba_marseille","lat":43.32823,"lon":5.36688,"is_reserved":false,"is_disabled":false,"rental_uris":{"android":"levelo://app?vid=3f546eb6-91fa-4b9c-afab-d808c7a8f54c","ios":"levelo://app?vid=3f546eb6-91fa-4b9c-afab-d808c7a8f54c"},"vehicle_type_id":"4","last_reported":1700766339,"current_range_meters":7200,"station_id":"ce4bhs92rcd13ifvqi0g","pricing_plan_id":"free"},{"bike_id":"ddd3fff7-fc57-48f9-825f-f47d18d1dbee","system_id":"levelo_inurba_marseille","lat":43.328371,"lon":5.366909,"is_reserved":false,"is_disabled":false,"rental_uris":{"android":"levelo://app?vid=ddd3fff7-fc57-48f9-825f-f47d18d1dbee","ios":"levelo://app?vid=ddd3fff7-fc57-48f9-825f-f47d18d1dbee"},"vehicle_type_id":"4","last_reported":1700766339,"current_range_meters":3600,"station_id":"ce4bhs92rcd13ifvqi0g","pricing_plan_id":"free"},{"bike_id":"4d7509f5-9559-42ca-a60d-bef9e80f0981","system_id":"levelo_inurba_marseille","lat":43.299587,"lon":5.379161,"is_reserved":false,"is_disabled":false,"rental_uris":{"android":"levelo://app?vid=4d7509f5-9559-42ca-a60d-bef9e80f0981","ios":"levelo://app?vid=4d7509f5-9559-42ca-a60d-bef9e80f0981"},"vehicle_type_id":"4","last_reported":1700766339,"current_range_meters":0,"station_id":"","pricing_plan_id":"free"},{"bike_id":"9b08bd7e-5fb3-4e1b-9ddf-51fe2542d627","system_id":"levelo_inurba_marseille","lat":43.29598,"lon":5.367998,"is_reserved":false,"is_disabled":false,"rental_uris":{"android":"levelo://app?vid=9b08bd7e-5fb3-4e1b-9ddf-51fe2542d627","ios":"levelo://app?vid=9b08bd7e-5fb3-4e1b-9ddf-51fe2542d627"},"vehicle_type_id":"4","last_reported":1700766339,"current_range_meters":23200,"station_id":"ce4bgph2rcd13ifvqc2g","pricing_plan_id":"free"},{"bike_id":"a1bdb89d-3c72-4b37-88bf-c040491b8d68","system_id":"levelo_inurba_marseille","lat":43.317557,"lon":5.390173,"is_reserved":false,"is_disabled":false,"rental_uris":{"android":"levelo://app?vid=a1bdb89d-3c72-4b37-88bf-c040491b8d68","ios":"levelo://app?vid=a1bdb89d-3c72-4b37-88bf-c040491b8d68"},"vehicle_type_id":"4","last_reported":1700766339,"current_range_meters":13600,"station_id":"ce4bhqp2rcd13ifvqhng","pricing_plan_id":"free"},{"bike_id":"e870a805-2fbd-40ae-aeb8-108dc772ed5d","system_id":"levelo_inurba_marseille","lat":43.31751,"lon":5.3902,"is_reserved":false,"is_disabled":false,"rental_uris":{"android":"levelo://app?vid=e870a805-2fbd-40ae-aeb8-108dc772ed5d","ios":"levelo://app?vid=e870a805-2fbd-40ae-aeb8-108dc772ed5d"},"vehicle_type_id":"4","last_reported":1700766339,"current_range_meters":2800,"station_id":"ce4bhqp2rcd13ifvqhng","pricing_plan_id":"free"},{"bike_id":"ae94bbbe-038d-4e63-a8d7-ffddf7978aaf","system_id":"levelo_inurba_marseille","lat":43.317557,"lon":5.390173,"is_reserved":false,"is_disabled":false,"rental_uris":{"android":"levelo://app?vid=ae94bbbe-038d-4e63-a8d7-ffddf7978aaf","ios":"levelo://app?vid=ae94bbbe-038d-4e63-a8d7-ffddf7978aaf"},"vehicle_type_id":"4","last_reported":1700766339,"current_range_meters":9600,"station_id":"ce4bhqp2rcd13ifvqhng","pricing_plan_id":"free"},{"bike_id":"6b621983-5e9e-42f7-990d-ad5a093820d2","system_id":"levelo_inurba_marseille","lat":43.293801,"lon":5.363066,"is_reserved":false,"is_disabled":false,"rental_uris":{"android":"levelo://app?vid=6b621983-5e9e-42f7-990d-ad5a093820d2","ios":"levelo://app?vid=6b621983-5e9e-42f7-990d-ad5a093820d2"},"vehicle_type_id":"4","last_reported":1700766339,"current_range_meters":7600,"station_id":"","pricing_plan_id":"free"},{"bike_id":"59398d6a-1eaf-4e92-b0ad-03db71680ea9","system_id":"levelo_inurba_marseille","lat":43.32367,"lon":5.388836,"is_reserved":false,"is_disabled":false,"rental_uris":{"android":"levelo://app?vid=59398d6a-1eaf-4e92-b0ad-03db71680ea9","ios":"levelo://app?vid=59398d6a-1eaf-4e92-b0ad-03db71680ea9"},"vehicle_type_id":"4","last_reported":1700766339,"current_range_meters":7200,"station_id":"ce4bhqp2rcd13ifvqhog","pricing_plan_id":"free"},{"bike_id":"2a6b5e14-2793-44df-9399-3c51ec2675e8","system_id":"levelo_inurba_marseille","lat":43.30597,"lon":5.39356,"is_reserved":false,"is_disabled":false,"rental_uris":{"android":"levelo://app?vid=2a6b5e14-2793-44df-9399-3c51ec2675e8","ios":"levelo://app?vid=2a6b5e14-2793-44df-9399-3c51ec2675e8"},"vehicle_type_id":"4","last_reported":1700766339,"current_range_meters":0,"station_id":"ce4bh0p2rcd13ifvqd80","pricing_plan_id":"free"},{"bike_id":"b664086b-eac2-4b9a-8068-eaed9265637d","system_id":"levelo_inurba_marseille","lat":43.29388,"lon":5.3787,"is_reserved":false,"is_disabled":false,"rental_uris":{"android":"levelo://app?vid=b664086b-eac2-4b9a-8068-eaed9265637d","ios":"levelo://app?vid=b664086b-eac2-4b9a-8068-eaed9265637d"},"vehicle_type_id":"4","last_reported":1700766339,"current_range_meters":4400,"station_id":"","pricing_plan_id":"free"},{"bike_id":"9cfb2c5f-d932-4221-be0b-525aa5926a03","system_id":"levelo_inurba_marseille","lat":43.2936,"lon":5.37835,"is_reserved":false,"is_disabled":false,"rental_uris":{"android":"levelo://app?vid=9cfb2c5f-d932-4221-be0b-525aa5926a03","ios":"levelo://app?vid=9cfb2c5f-d932-4221-be0b-525aa5926a03"},"vehicle_type_id":"4","last_reported":1700766339,"current_range_meters":16400,"station_id":"ce4bgjh2rcd13ifvqbf0","pricing_plan_id":"free"},{"bike_id":"5ab2718f-4e3b-42fa-b63e-78fd34bbde4f","system_id":"levelo_inurba_marseille","lat":43.2936,"lon":5.37835,"is_reserved":false,"is_disabled":false,"rental_uris":{"android":"levelo://app?vid=5ab2718f-4e3b-42fa-b63e-78fd34bbde4f","ios":"levelo://app?vid=5ab2718f-4e3b-42fa-b63e-78fd34bbde4f"},"vehicle_type_id":"4","last_reported":1700766339,"current_range_meters":2000,"station_id":"ce4bgjh2rcd13ifvqbf0","pricing_plan_id":"free"},{"bike_id":"58407cf9-2909-4b40-bc42-26337b167d96","system_id":"levelo_inurba_marseille","lat":43.292663,"lon":5.376389,"is_reserved":false,"is_disabled":false,"rental_uris":{"android":"levelo://app?vid=58407cf9-2909-4b40-bc42-26337b167d96","ios":"levelo://app?vid=58407cf9-2909-4b40-bc42-26337b167d96"},"vehicle_type_id":"4","last_reported":1700766339,"current_range_meters":5600,"station_id":"ce4bgi12rcd13ifvqb80","pricing_plan_id":"free"},{"bike_id":"897799e3-d052-411e-a3d2-b3955e246700","system_id":"levelo_inurba_marseille","lat":43.308813,"lon":5.396227,"is_reserved":false,"is_disabled":false,"rental_uris":{"android":"levelo://app?vid=897799e3-d052-411e-a3d2-b3955e246700","ios":"levelo://app?vid=897799e3-d052-411e-a3d2-b3955e246700"},"vehicle_type_id":"4","last_reported":1700766339,"current_range_meters":13600,"station_id":"ce4bh012rcd13ifvqcv0","pricing_plan_id":"free"},{"bike_id":"9fc6f411-db28-443a-a839-94131d931a30","system_id":"levelo_inurba_marseille","lat":43.308937,"lon":5.396307,"is_reserved":false,"is_disabled":false,"rental_uris":{"android":"levelo://app?vid=9fc6f411-db28-443a-a839-94131d931a30","ios":"levelo://app?vid=9fc6f411-db28-443a-a839-94131d931a30"},"vehicle_type_id":"4","last_reported":1700766339,"current_range_meters":0,"station_id":"ce4bh012rcd13ifvqcv0","pricing_plan_id":"free"},{"bike_id":"ace733c1-dd64-42e0-aa6d-15abe732c982","system_id":"levelo_inurba_marseille","lat":43.309047,"lon":5.396551,"is_reserved":false,"is_disabled":false,"rental_uris":{"android":"levelo://app?vid=ace733c1-dd64-42e0-aa6d-15abe732c982","ios":"levelo://app?vid=ace733c1-dd64-42e0-aa6d-15abe732c982"},"vehicle_type_id":"4","last_reported":1700766339,"current_range_meters":30400,"station_id":"ce4bh012rcd13ifvqcv0","pricing_plan_id":"free"},{"bike_id":"2f1bfd2d-9692-47f4-b7ed-6a818948afc3","system_id":"levelo_inurba_marseille","lat":43.29194,"lon":5.35801,"is_reserved":false,"is_disabled":false,"rental_uris":{"android":"levelo://app?vid=2f1bfd2d-9692-47f4-b7ed-6a818948afc3","ios":"levelo://app?vid=2f1bfd2d-9692-47f4-b7ed-6a818948afc3"},"vehicle_type_id":"4","last_reported":1700766339,"current_range_meters":400,"station_id":"ce4bhb12rcd13ifvqel0","pricing_plan_id":"free"},{"bike_id":"bfeda098-ec27-4ff7-ba82-cc314a7b5c10","system_id":"levelo_inurba_marseille","lat":43.31331,"lon":5.39694,"is_reserved":false,"is_disabled":false,"rental_uris":{"android":"levelo://app?vid=bfeda098-ec27-4ff7-ba82-cc314a7b5c10","ios":"levelo://app?vid=bfeda098-ec27-4ff7-ba82-cc314a7b5c10"},"vehicle_type_id":"4","last_reported":1700766339,"current_range_meters":18400,"station_id":"ce4bgvp2rcd13ifvqcu0","pricing_plan_id":"free"},{"bike_id":"83c04015-6ec3-4198-b911-e1bca1f24d29","system_id":"levelo_inurba_marseille","lat":43.309038,"lon":5.396546,"is_reserved":false,"is_disabled":false,"rental_uris":{"android":"levelo://app?vid=83c04015-6ec3-4198-b911-e1bca1f24d29","ios":"levelo://app?vid=83c04015-6ec3-4198-b911-e1bca1f24d29"},"vehicle_type_id":"4","last_reported":1700766339,"current_range_meters":28800,"station_id":"ce4bh012rcd13ifvqcv0","pricing_plan_id":"free"},{"bike_id":"d449de61-9601-45a0-b3f8-eda74045c90b","system_id":"levelo_inurba_marseille","lat":43.31329,"lon":5.39695,"is_reserved":false,"is_disabled":false,"rental_uris":{"android":"levelo://app?vid=d449de61-9601-45a0-b3f8-eda74045c90b","ios":"levelo://app?vid=d449de61-9601-45a0-b3f8-eda74045c90b"},"vehicle_type_id":"4","last_reported":1700766339,"current_range_meters":31200,"station_id":"ce4bgvp2rcd13ifvqcu0","pricing_plan_id":"free"},{"bike_id":"26e807fd-59c1-46e5-ab9a-d4bbb6af95d0","system_id":"levelo_inurba_marseille","lat":43.31328,"lon":5.39697,"is_reserved":false,"is_disabled":false,"rental_uris":{"android":"levelo://app?vid=26e807fd-59c1-46e5-ab9a-d4bbb6af95d0","ios":"levelo://app?vid=26e807fd-59c1-46e5-ab9a-d4bbb6af95d0"},"vehicle_type_id":"4","last_reported":1700766339,"current_range_meters":30800,"station_id":"ce4bgvp2rcd13ifvqcu0","pricing_plan_id":"free"},{"bike_id":"70331c2c-fa66-4c04-953a-9a9db3ae8af9","system_id":"levelo_inurba_marseille","lat":43.31332,"lon":5.39699,"is_reserved":false,"is_disabled":false,"rental_uris":{"android":"levelo://app?vid=70331c2c-fa66-4c04-953a-9a9db3ae8af9","ios":"levelo://app?vid=70331c2c-fa66-4c04-953a-9a9db3ae8af9"},"vehicle_type_id":"4","last_reported":1700766339,"current_range_meters":30000,"station_id":"ce4bgvp2rcd13ifvqcu0","pricing_plan_id":"free"},{"bike_id":"1bdcaded-3978-48b5-a6fd-185085628a7b","system_id":"levelo_inurba_marseille","lat":43.29184,"lon":5.35794,"is_reserved":false,"is_disabled":false,"rental_uris":{"android":"levelo://app?vid=1bdcaded-3978-48b5-a6fd-185085628a7b","ios":"levelo://app?vid=1bdcaded-3978-48b5-a6fd-185085628a7b"},"vehicle_type_id":"4","last_reported":1700766339,"current_range_meters":0,"station_id":"ce4bhb12rcd13ifvqel0","pricing_plan_id":"free"},{"bike_id":"1d10a1b1-d55f-4279-928a-9c6858f32ca9","system_id":"levelo_inurba_marseille","lat":43.33211,"lon":5.38112,"is_reserved":false,"is_disabled":false,"rental_uris":{"android":"levelo://app?vid=1d10a1b1-d55f-4279-928a-9c6858f32ca9","ios":"levelo://app?vid=1d10a1b1-d55f-4279-928a-9c6858f32ca9"},"vehicle_type_id":"4","last_reported":1700766339,"current_range_meters":0,"station_id":"","pricing_plan_id":"free"},{"bike_id":"31c1e1c2-82b6-4c90-8694-42a6a6b7d7b6","system_id":"levelo_inurba_marseille","lat":43.290631,"lon":5.359244,"is_reserved":false,"is_disabled":false,"rental_uris":{"android":"levelo://app?vid=31c1e1c2-82b6-4c90-8694-42a6a6b7d7b6","ios":"levelo://app?vid=31c1e1c2-82b6-4c90-8694-42a6a6b7d7b6"},"vehicle_type_id":"4","last_reported":1700766339,"current_range_meters":400,"station_id":"ce4bha92rcd13ifvqeg0","pricing_plan_id":"free"},{"bike_id":"bdb737d7-5af2-4317-bcf9-23adb62357ff","system_id":"levelo_inurba_marseille","lat":43.294153,"lon":5.386305,"is_reserved":false,"is_disabled":false,"rental_uris":{"android":"levelo://app?vid=bdb737d7-5af2-4317-bcf9-23adb62357ff","ios":"levelo://app?vid=bdb737d7-5af2-4317-bcf9-23adb62357ff"},"vehicle_type_id":"4","last_reported":1700766339,"current_range_meters":4400,"station_id":"ce4bh2h2rcd13ifvqdh0","pricing_plan_id":"free"},{"bike_id":"1ca9cff5-158d-46e6-bddd-df1d3078d27c","system_id":"levelo_inurba_marseille","lat":43.294162,"lon":5.386292,"is_reserved":false,"is_disabled":false,"rental_uris":{"android":"levelo://app?vid=1ca9cff5-158d-46e6-bddd-df1d3078d27c","ios":"levelo://app?vid=1ca9cff5-158d-46e6-bddd-df1d3078d27c"},"vehicle_type_id":"4","last_reported":1700766339,"current_range_meters":0,"station_id":"ce4bh2h2rcd13ifvqdh0","pricing_plan_id":"free"},{"bike_id":"2d877d74-f017-4001-bf69-fdf5492529e5","system_id":"levelo_inurba_marseille","lat":43.294162,"lon":5.386292,"is_reserved":false,"is_disabled":false,"rental_uris":{"android":"levelo://app?vid=2d877d74-f017-4001-bf69-fdf5492529e5","ios":"levelo://app?vid=2d877d74-f017-4001-bf69-fdf5492529e5"},"vehicle_type_id":"4","last_reported":1700766339,"current_range_meters":24400,"station_id":"ce4bh2h2rcd13ifvqdh0","pricing_plan_id":"free"},{"bike_id":"0c890745-f484-4286-ac62-ce7af5c7ad22","system_id":"levelo_inurba_marseille","lat":43.294162,"lon":5.386292,"is_reserved":false,"is_disabled":false,"rental_uris":{"android":"levelo://app?vid=0c890745-f484-4286-ac62-ce7af5c7ad22","ios":"levelo://app?vid=0c890745-f484-4286-ac62-ce7af5c7ad22"},"vehicle_type_id":"4","last_reported":1700766339,"current_range_meters":4000,"station_id":"ce4bh2h2rcd13ifvqdh0","pricing_plan_id":"free"},{"bike_id":"1161415b-1d76-4e28-8ca7-766aae4db6b4","system_id":"levelo_inurba_marseille","lat":43.294162,"lon":5.386292,"is_reserved":false,"is_disabled":false,"rental_uris":{"android":"levelo://app?vid=1161415b-1d76-4e28-8ca7-766aae4db6b4","ios":"levelo://app?vid=1161415b-1d76-4e28-8ca7-766aae4db6b4"},"vehicle_type_id":"4","last_reported":1700766339,"current_range_meters":7200,"station_id":"ce4bh2h2rcd13ifvqdh0","pricing_plan_id":"free"},{"bike_id":"077b6dda-417e-46d9-987e-591475dc9839","system_id":"levelo_inurba_marseille","lat":43.294162,"lon":5.386292,"is_reserved":false,"is_disabled":false,"rental_uris":{"android":"levelo://app?vid=077b6dda-417e-46d9-987e-591475dc9839","ios":"levelo://app?vid=077b6dda-417e-46d9-987e-591475dc9839"},"vehicle_type_id":"4","last_reported":1700766339,"current_range_meters":4000,"station_id":"ce4bh2h2rcd13ifvqdh0","pricing_plan_id":"free"},{"bike_id":"02fd8e48-38ef-41e6-b97c-675daeb65aa2","system_id":"levelo_inurba_marseille","lat":43.294162,"lon":5.386292,"is_reserved":false,"is_disabled":false,"rental_uris":{"android":"levelo://app?vid=02fd8e48-38ef-41e6-b97c-675daeb65aa2","ios":"levelo://app?vid=02fd8e48-38ef-41e6-b97c-675daeb65aa2"},"vehicle_type_id":"4","last_reported":1700766339,"current_range_meters":28800,"station_id":"ce4bh2h2rcd13ifvqdh0","pricing_plan_id":"free"},{"bike_id":"c52fec84-ac80-4310-9828-e5df8ec6c70b","system_id":"levelo_inurba_marseille","lat":43.289468,"lon":5.363719,"is_reserved":false,"is_disabled":false,"rental_uris":{"android":"levelo://app?vid=c52fec84-ac80-4310-9828-e5df8ec6c70b","ios":"levelo://app?vid=c52fec84-ac80-4310-9828-e5df8ec6c70b"},"vehicle_type_id":"4","last_reported":1700766339,"current_range_meters":16000,"station_id":"ce4bhc92rcd13ifvqetg","pricing_plan_id":"free"},{"bike_id":"1d23d503-0610-40ea-9e9d-5f1b5aa2e0e1","system_id":"levelo_inurba_marseille","lat":43.28931,"lon":5.36388,"is_reserved":false,"is_disabled":false,"rental_uris":{"android":"levelo://app?vid=1d23d503-0610-40ea-9e9d-5f1b5aa2e0e1","ios":"levelo://app?vid=1d23d503-0610-40ea-9e9d-5f1b5aa2e0e1"},"vehicle_type_id":"4","last_reported":1700766339,"current_range_meters":1600,"station_id":"ce4bhc92rcd13ifvqetg","pricing_plan_id":"free"},{"bike_id":"2c533123-6c5d-46cb-bf3b-ba6d86cdafa8","system_id":"levelo_inurba_marseille","lat":43.292644,"lon":5.384257,"is_reserved":false,"is_disabled":false,"rental_uris":{"android":"levelo://app?vid=2c533123-6c5d-46cb-bf3b-ba6d86cdafa8","ios":"levelo://app?vid=2c533123-6c5d-46cb-bf3b-ba6d86cdafa8"},"vehicle_type_id":"4","last_reported":1700766339,"current_range_meters":1200,"station_id":"ce4bh692rcd13ifvqea0","pricing_plan_id":"free"},{"bike_id":"8680a264-2650-4288-9d65-af9adc58da85","system_id":"levelo_inurba_marseille","lat":43.292642,"lon":5.384254,"is_reserved":false,"is_disabled":false,"rental_uris":{"android":"levelo://app?vid=8680a264-2650-4288-9d65-af9adc58da85","ios":"levelo://app?vid=8680a264-2650-4288-9d65-af9adc58da85"},"vehicle_type_id":"4","last_reported":1700766339,"current_range_meters":0,"station_id":"ce4bh692rcd13ifvqea0","pricing_plan_id":"free"},{"bike_id":"c37fd222-2576-4aaa-9e93-98ad54e3e8e5","system_id":"levelo_inurba_marseille","lat":43.292642,"lon":5.384254,"is_reserved":false,"is_disabled":false,"rental_uris":{"android":"levelo://app?vid=c37fd222-2576-4aaa-9e93-98ad54e3e8e5","ios":"levelo://app?vid=c37fd222-2576-4aaa-9e93-98ad54e3e8e5"},"vehicle_type_id":"4","last_reported":1700766339,"current_range_meters":14800,"station_id":"ce4bh692rcd13ifvqea0","pricing_plan_id":"free"},{"bike_id":"1220dd30-99cb-404d-84eb-38f3597e6ca3","system_id":"levelo_inurba_marseille","lat":43.292642,"lon":5.384254,"is_reserved":false,"is_disabled":false,"rental_uris":{"android":"levelo://app?vid=1220dd30-99cb-404d-84eb-38f3597e6ca3","ios":"levelo://app?vid=1220dd30-99cb-404d-84eb-38f3597e6ca3"},"vehicle_type_id":"4","last_reported":1700766339,"current_range_meters":7600,"station_id":"ce4bh692rcd13ifvqea0","pricing_plan_id":"free"},{"bike_id":"9738fad4-154a-4e81-b073-bc771112391d","system_id":"levelo_inurba_marseille","lat":43.292644,"lon":5.384257,"is_reserved":false,"is_disabled":false,"rental_uris":{"android":"levelo://app?vid=9738fad4-154a-4e81-b073-bc771112391d","ios":"levelo://app?vid=9738fad4-154a-4e81-b073-bc771112391d"},"vehicle_type_id":"4","last_reported":1700766339,"current_range_meters":3200,"station_id":"ce4bh692rcd13ifvqea0","pricing_plan_id":"free"},{"bike_id":"44628373-7009-45f6-b98f-81e0277bf267","system_id":"levelo_inurba_marseille","lat":43.292644,"lon":5.384257,"is_reserved":false,"is_disabled":false,"rental_uris":{"android":"levelo://app?vid=44628373-7009-45f6-b98f-81e0277bf267","ios":"levelo://app?vid=44628373-7009-45f6-b98f-81e0277bf267"},"vehicle_type_id":"4","last_reported":1700766339,"current_range_meters":0,"station_id":"ce4bh692rcd13ifvqea0","pricing_plan_id":"free"},{"bike_id":"9b0f987a-6b37-468c-8d21-bbbfef88e060","system_id":"levelo_inurba_marseille","lat":43.292644,"lon":5.384257,"is_reserved":false,"is_disabled":false,"rental_uris":{"android":"levelo://app?vid=9b0f987a-6b37-468c-8d21-bbbfef88e060","ios":"levelo://app?vid=9b0f987a-6b37-468c-8d21-bbbfef88e060"},"vehicle_type_id":"4","last_reported":1700766339,"current_range_meters":8800,"station_id":"ce4bh692rcd13ifvqea0","pricing_plan_id":"free"},{"bike_id":"a82071bc-42e9-4fd9-8ff6-585ddbca6841","system_id":"levelo_inurba_marseille","lat":43.295169,"lon":5.390426,"is_reserved":false,"is_disabled":false,"rental_uris":{"android":"levelo://app?vid=a82071bc-42e9-4fd9-8ff6-585ddbca6841","ios":"levelo://app?vid=a82071bc-42e9-4fd9-8ff6-585ddbca6841"},"vehicle_type_id":"4","last_reported":1700766339,"current_range_meters":2400,"station_id":"ce4bh3p2rcd13ifvqdp0","pricing_plan_id":"free"},{"bike_id":"27f1eb3d-4260-4e98-969e-a69235aaf8f1","system_id":"levelo_inurba_marseille","lat":43.290104,"lon":5.356111,"is_reserved":false,"is_disabled":false,"rental_uris":{"android":"levelo://app?vid=27f1eb3d-4260-4e98-969e-a69235aaf8f1","ios":"levelo://app?vid=27f1eb3d-4260-4e98-969e-a69235aaf8f1"},"vehicle_type_id":"4","last_reported":1700766339,"current_range_meters":2400,"station_id":"ce4bhb92rcd13ifvqen0","pricing_plan_id":"free"},{"bike_id":"4cf94302-1f5f-4c80-86b4-94673dae7d86","system_id":"levelo_inurba_marseille","lat":43.290104,"lon":5.356111,"is_reserved":false,"is_disabled":false,"rental_uris":{"android":"levelo://app?vid=4cf94302-1f5f-4c80-86b4-94673dae7d86","ios":"levelo://app?vid=4cf94302-1f5f-4c80-86b4-94673dae7d86"},"vehicle_type_id":"4","last_reported":1700766339,"current_range_meters":6000,"station_id":"ce4bhb92rcd13ifvqen0","pricing_plan_id":"free"},{"bike_id":"e585230a-53f5-4f7d-bf93-fe2d5c446e87","system_id":"levelo_inurba_marseille","lat":43.330442,"lon":5.389148,"is_reserved":false,"is_disabled":false,"rental_uris":{"android":"levelo://app?vid=e585230a-53f5-4f7d-bf93-fe2d5c446e87","ios":"levelo://app?vid=e585230a-53f5-4f7d-bf93-fe2d5c446e87"},"vehicle_type_id":"4","last_reported":1700766339,"current_range_meters":400,"station_id":"ce4bhr92rcd13ifvqhrg","pricing_plan_id":"free"},{"bike_id":"666012a3-a14a-4490-a888-c48f9a919f96","system_id":"levelo_inurba_marseille","lat":43.330442,"lon":5.389148,"is_reserved":false,"is_disabled":false,"rental_uris":{"android":"levelo://app?vid=666012a3-a14a-4490-a888-c48f9a919f96","ios":"levelo://app?vid=666012a3-a14a-4490-a888-c48f9a919f96"},"vehicle_type_id":"4","last_reported":1700766339,"current_range_meters":2400,"station_id":"ce4bhr92rcd13ifvqhrg","pricing_plan_id":"free"},{"bike_id":"d2468c84-97ba-4285-b0c1-4507b8b0e482","system_id":"levelo_inurba_marseille","lat":43.330442,"lon":5.389148,"is_reserved":false,"is_disabled":false,"rental_uris":{"android":"levelo://app?vid=d2468c84-97ba-4285-b0c1-4507b8b0e482","ios":"levelo://app?vid=d2468c84-97ba-4285-b0c1-4507b8b0e482"},"vehicle_type_id":"4","last_reported":1700766339,"current_range_meters":4800,"station_id":"ce4bhr92rcd13ifvqhrg","pricing_plan_id":"free"},{"bike_id":"abbb8182-1a78-4d70-b671-161ac834f0fc","system_id":"levelo_inurba_marseille","lat":43.33102,"lon":5.38912,"is_reserved":false,"is_disabled":false,"rental_uris":{"android":"levelo://app?vid=abbb8182-1a78-4d70-b671-161ac834f0fc","ios":"levelo://app?vid=abbb8182-1a78-4d70-b671-161ac834f0fc"},"vehicle_type_id":"4","last_reported":1700766339,"current_range_meters":0,"station_id":"","pricing_plan_id":"free"},{"bike_id":"4a6ebc15-7a04-49d6-92df-8f976f2f9cca","system_id":"levelo_inurba_marseille","lat":43.295169,"lon":5.390426,"is_reserved":false,"is_disabled":false,"rental_uris":{"android":"levelo://app?vid=4a6ebc15-7a04-49d6-92df-8f976f2f9cca","ios":"levelo://app?vid=4a6ebc15-7a04-49d6-92df-8f976f2f9cca"},"vehicle_type_id":"4","last_reported":1700766339,"current_range_meters":6800,"station_id":"ce4bh3p2rcd13ifvqdp0","pricing_plan_id":"free"},{"bike_id":"1e65a863-f0f2-4e19-b9de-1c63daa2b8e8","system_id":"levelo_inurba_marseille","lat":43.28856,"lon":5.358371,"is_reserved":false,"is_disabled":false,"rental_uris":{"android":"levelo://app?vid=1e65a863-f0f2-4e19-b9de-1c63daa2b8e8","ios":"levelo://app?vid=1e65a863-f0f2-4e19-b9de-1c63daa2b8e8"},"vehicle_type_id":"4","last_reported":1700766339,"current_range_meters":8000,"station_id":"ce4bhb12rcd13ifvqem0","pricing_plan_id":"free"},{"bike_id":"f76cc349-77e9-4547-8818-3350d932e1ad","system_id":"levelo_inurba_marseille","lat":43.312745,"lon":5.401705,"is_reserved":false,"is_disabled":false,"rental_uris":{"android":"levelo://app?vid=f76cc349-77e9-4547-8818-3350d932e1ad","ios":"levelo://app?vid=f76cc349-77e9-4547-8818-3350d932e1ad"},"vehicle_type_id":"4","last_reported":1700766339,"current_range_meters":26000,"station_id":"ce4bh092rcd13ifvqd30","pricing_plan_id":"free"},{"bike_id":"b4bc6c19-20e6-4b1e-b989-40d4ba171e93","system_id":"levelo_inurba_marseille","lat":43.33079,"lon":5.391329,"is_reserved":false,"is_disabled":false,"rental_uris":{"android":"levelo://app?vid=b4bc6c19-20e6-4b1e-b989-40d4ba171e93","ios":"levelo://app?vid=b4bc6c19-20e6-4b1e-b989-40d4ba171e93"},"vehicle_type_id":"4","last_reported":1700766339,"current_range_meters":7200,"station_id":"","pricing_plan_id":"free"},{"bike_id":"a893e8a4-4ad4-4559-9b44-43a3796f5654","system_id":"levelo_inurba_marseille","lat":43.3376,"lon":5.37492,"is_reserved":false,"is_disabled":false,"rental_uris":{"android":"levelo://app?vid=a893e8a4-4ad4-4559-9b44-43a3796f5654","ios":"levelo://app?vid=a893e8a4-4ad4-4559-9b44-43a3796f5654"},"vehicle_type_id":"4","last_reported":1700766339,"current_range_meters":25600,"station_id":"","pricing_plan_id":"free"},{"bike_id":"46689a99-63a1-4a03-9254-24d34933969c","system_id":"levelo_inurba_marseille","lat":43.301117,"lon":5.398795,"is_reserved":false,"is_disabled":false,"rental_uris":{"android":"levelo://app?vid=46689a99-63a1-4a03-9254-24d34933969c","ios":"levelo://app?vid=46689a99-63a1-4a03-9254-24d34933969c"},"vehicle_type_id":"4","last_reported":1700766339,"current_range_meters":2400,"station_id":"ce4bh0h2rcd13ifvqd40","pricing_plan_id":"free"},{"bike_id":"534b8676-616c-4f89-be24-e3f16ca89c06","system_id":"levelo_inurba_marseille","lat":43.28727,"lon":5.36078,"is_reserved":false,"is_disabled":false,"rental_uris":{"android":"levelo://app?vid=534b8676-616c-4f89-be24-e3f16ca89c06","ios":"levelo://app?vid=534b8676-616c-4f89-be24-e3f16ca89c06"},"vehicle_type_id":"4","last_reported":1700766339,"current_range_meters":3200,"station_id":"cki0cbj6b192h4jlfktg","pricing_plan_id":"free"},{"bike_id":"8c7731d0-b5a6-46d8-ae28-e5221f820082","system_id":"levelo_inurba_marseille","lat":43.301117,"lon":5.398795,"is_reserved":false,"is_disabled":false,"rental_uris":{"android":"levelo://app?vid=8c7731d0-b5a6-46d8-ae28-e5221f820082","ios":"levelo://app?vid=8c7731d0-b5a6-46d8-ae28-e5221f820082"},"vehicle_type_id":"4","last_reported":1700766339,"current_range_meters":0,"station_id":"ce4bh0h2rcd13ifvqd40","pricing_plan_id":"free"},{"bike_id":"9c95a70b-3ad5-4a52-a002-906cbe14c760","system_id":"levelo_inurba_marseille","lat":43.28727,"lon":5.36078,"is_reserved":false,"is_disabled":false,"rental_uris":{"android":"levelo://app?vid=9c95a70b-3ad5-4a52-a002-906cbe14c760","ios":"levelo://app?vid=9c95a70b-3ad5-4a52-a002-906cbe14c760"},"vehicle_type_id":"4","last_reported":1700766339,"current_range_meters":13600,"station_id":"cki0cbj6b192h4jlfktg","pricing_plan_id":"free"},{"bike_id":"11a4b09e-c545-43c8-891b-214cc47ef0a5","system_id":"levelo_inurba_marseille","lat":43.298696,"lon":5.39726,"is_reserved":false,"is_disabled":false,"rental_uris":{"android":"levelo://app?vid=11a4b09e-c545-43c8-891b-214cc47ef0a5","ios":"levelo://app?vid=11a4b09e-c545-43c8-891b-214cc47ef0a5"},"vehicle_type_id":"4","last_reported":1700766339,"current_range_meters":24400,"station_id":"","pricing_plan_id":"free"},{"bike_id":"9a92dcf3-21ee-4290-b5c0-7328b11648d6","system_id":"levelo_inurba_marseille","lat":43.286591,"lon":5.363346,"is_reserved":false,"is_disabled":false,"rental_uris":{"android":"levelo://app?vid=9a92dcf3-21ee-4290-b5c0-7328b11648d6","ios":"levelo://app?vid=9a92dcf3-21ee-4290-b5c0-7328b11648d6"},"vehicle_type_id":"4","last_reported":1700766339,"current_range_meters":11200,"station_id":"ce4bhah2rcd13ifvqej0","pricing_plan_id":"free"},{"bike_id":"8c68fe79-df8c-464a-b88a-9f9e7304a23e","system_id":"levelo_inurba_marseille","lat":43.286961,"lon":5.373785,"is_reserved":false,"is_disabled":false,"rental_uris":{"android":"levelo://app?vid=8c68fe79-df8c-464a-b88a-9f9e7304a23e","ios":"levelo://app?vid=8c68fe79-df8c-464a-b88a-9f9e7304a23e"},"vehicle_type_id":"4","last_reported":1700766339,"current_range_meters":14400,"station_id":"ce4bh3p2rcd13ifvqdq0","pricing_plan_id":"free"},{"bike_id":"ed1ada57-8ed6-4a7c-b47f-1d8644d9c780","system_id":"levelo_inurba_marseille","lat":43.298681,"lon":5.397225,"is_reserved":false,"is_disabled":false,"rental_uris":{"android":"levelo://app?vid=ed1ada57-8ed6-4a7c-b47f-1d8644d9c780","ios":"levelo://app?vid=ed1ada57-8ed6-4a7c-b47f-1d8644d9c780"},"vehicle_type_id":"4","last_reported":1700766339,"current_range_meters":13200,"station_id":"ce4bh0h2rcd13ifvqd50","pricing_plan_id":"free"},{"bike_id":"4eaacd4c-d4e0-4b0a-9057-c1e8e91d2905","system_id":"levelo_inurba_marseille","lat":43.275625,"lon":5.384392,"is_reserved":false,"is_disabled":false,"rental_uris":{"android":"levelo://app?vid=4eaacd4c-d4e0-4b0a-9057-c1e8e91d2905","ios":"levelo://app?vid=4eaacd4c-d4e0-4b0a-9057-c1e8e91d2905"},"vehicle_type_id":"4","last_reported":1700766339,"current_range_meters":6000,"station_id":"ce4bhh92rcd13ifvqfi0","pricing_plan_id":"free"},{"bike_id":"2224d894-5a88-438e-9acd-628e70f0c851","system_id":"levelo_inurba_marseille","lat":43.295194,"lon":5.39397,"is_reserved":false,"is_disabled":false,"rental_uris":{"android":"levelo://app?vid=2224d894-5a88-438e-9acd-628e70f0c851","ios":"levelo://app?vid=2224d894-5a88-438e-9acd-628e70f0c851"},"vehicle_type_id":"4","last_reported":1700766339,"current_range_meters":2400,"station_id":"ce4bh292rcd13ifvqdf0","pricing_plan_id":"free"},{"bike_id":"be5b6b9b-7304-4ac0-ae3b-1c1b601e2986","system_id":"levelo_inurba_marseille","lat":43.28931,"lon":5.38396,"is_reserved":false,"is_disabled":false,"rental_uris":{"android":"levelo://app?vid=be5b6b9b-7304-4ac0-ae3b-1c1b601e2986","ios":"levelo://app?vid=be5b6b9b-7304-4ac0-ae3b-1c1b601e2986"},"vehicle_type_id":"4","last_reported":1700766339,"current_range_meters":8800,"station_id":"ce4bh612rcd13ifvqe6g","pricing_plan_id":"free"},{"bike_id":"af00a1ef-e70b-4296-9c25-84c5f063d0be","system_id":"levelo_inurba_marseille","lat":43.302759,"lon":5.400793,"is_reserved":false,"is_disabled":false,"rental_uris":{"android":"levelo://app?vid=af00a1ef-e70b-4296-9c25-84c5f063d0be","ios":"levelo://app?vid=af00a1ef-e70b-4296-9c25-84c5f063d0be"},"vehicle_type_id":"4","last_reported":1700766339,"current_range_meters":0,"station_id":"ce4bgvh2rcd13ifvqcs0","pricing_plan_id":"free"},{"bike_id":"3b7cb97e-ced8-4ca7-aa27-38f693e8bcb6","system_id":"levelo_inurba_marseille","lat":43.302759,"lon":5.400793,"is_reserved":false,"is_disabled":false,"rental_uris":{"android":"levelo://app?vid=3b7cb97e-ced8-4ca7-aa27-38f693e8bcb6","ios":"levelo://app?vid=3b7cb97e-ced8-4ca7-aa27-38f693e8bcb6"},"vehicle_type_id":"4","last_reported":1700766339,"current_range_meters":31200,"station_id":"ce4bgvh2rcd13ifvqcs0","pricing_plan_id":"free"},{"bike_id":"7e2dc490-37b2-458e-b396-ae2fecfb5f19","system_id":"levelo_inurba_marseille","lat":43.29028,"lon":5.38635,"is_reserved":false,"is_disabled":false,"rental_uris":{"android":"levelo://app?vid=7e2dc490-37b2-458e-b396-ae2fecfb5f19","ios":"levelo://app?vid=7e2dc490-37b2-458e-b396-ae2fecfb5f19"},"vehicle_type_id":"4","last_reported":1700766339,"current_range_meters":16000,"station_id":"ce4bh4p2rcd13ifvqe0g","pricing_plan_id":"free"},{"bike_id":"28436080-35aa-45e5-9650-188872e75bec","system_id":"levelo_inurba_marseille","lat":43.289307,"lon":5.38406,"is_reserved":false,"is_disabled":false,"rental_uris":{"android":"levelo://app?vid=28436080-35aa-45e5-9650-188872e75bec","ios":"levelo://app?vid=28436080-35aa-45e5-9650-188872e75bec"},"vehicle_type_id":"4","last_reported":1700766339,"current_range_meters":8000,"station_id":"ce4bh612rcd13ifvqe6g","pricing_plan_id":"free"},{"bike_id":"bdc207e5-c8fa-41a0-86e9-d8c050d3c9ec","system_id":"levelo_inurba_marseille","lat":43.289307,"lon":5.38406,"is_reserved":false,"is_disabled":false,"rental_uris":{"android":"levelo://app?vid=bdc207e5-c8fa-41a0-86e9-d8c050d3c9ec","ios":"levelo://app?vid=bdc207e5-c8fa-41a0-86e9-d8c050d3c9ec"},"vehicle_type_id":"4","last_reported":1700766339,"current_range_meters":6000,"station_id":"ce4bh612rcd13ifvqe6g","pricing_plan_id":"free"},{"bike_id":"a0046a7a-905c-45b6-9894-357104af0c6c","system_id":"levelo_inurba_marseille","lat":43.302759,"lon":5.400793,"is_reserved":false,"is_disabled":false,"rental_uris":{"android":"levelo://app?vid=a0046a7a-905c-45b6-9894-357104af0c6c","ios":"levelo://app?vid=a0046a7a-905c-45b6-9894-357104af0c6c"},"vehicle_type_id":"4","last_reported":1700766339,"current_range_meters":31200,"station_id":"ce4bgvh2rcd13ifvqcs0","pricing_plan_id":"free"},{"bike_id":"08839a09-ca6d-44ec-a69b-247838b82200","system_id":"levelo_inurba_marseille","lat":43.302759,"lon":5.400793,"is_reserved":false,"is_disabled":false,"rental_uris":{"android":"levelo://app?vid=08839a09-ca6d-44ec-a69b-247838b82200","ios":"levelo://app?vid=08839a09-ca6d-44ec-a69b-247838b82200"},"vehicle_type_id":"4","last_reported":1700766339,"current_range_meters":30400,"station_id":"ce4bgvh2rcd13ifvqcs0","pricing_plan_id":"free"},{"bike_id":"349a0f8f-d156-4f52-985a-bead1687b995","system_id":"levelo_inurba_marseille","lat":43.30251,"lon":5.40095,"is_reserved":false,"is_disabled":false,"rental_uris":{"android":"levelo://app?vid=349a0f8f-d156-4f52-985a-bead1687b995","ios":"levelo://app?vid=349a0f8f-d156-4f52-985a-bead1687b995"},"vehicle_type_id":"4","last_reported":1700766339,"current_range_meters":31200,"station_id":"ce4bgvh2rcd13ifvqcs0","pricing_plan_id":"free"},{"bike_id":"c0713119-c094-45fb-baf6-4211249898c5","system_id":"levelo_inurba_marseille","lat":43.287185,"lon":5.379373,"is_reserved":false,"is_disabled":false,"rental_uris":{"android":"levelo://app?vid=c0713119-c094-45fb-baf6-4211249898c5","ios":"levelo://app?vid=c0713119-c094-45fb-baf6-4211249898c5"},"vehicle_type_id":"4","last_reported":1700766339,"current_range_meters":3600,"station_id":"ce4bh9p2rcd13ifvqec0","pricing_plan_id":"free"},{"bike_id":"59102647-6481-4eee-aa4f-035fd6e6436c","system_id":"levelo_inurba_marseille","lat":43.287185,"lon":5.379373,"is_reserved":false,"is_disabled":false,"rental_uris":{"android":"levelo://app?vid=59102647-6481-4eee-aa4f-035fd6e6436c","ios":"levelo://app?vid=59102647-6481-4eee-aa4f-035fd6e6436c"},"vehicle_type_id":"4","last_reported":1700766339,"current_range_meters":800,"station_id":"ce4bh9p2rcd13ifvqec0","pricing_plan_id":"free"},{"bike_id":"fb2951de-deea-40c5-a982-f8d41c4589df","system_id":"levelo_inurba_marseille","lat":43.29193,"lon":5.39335,"is_reserved":false,"is_disabled":false,"rental_uris":{"android":"levelo://app?vid=fb2951de-deea-40c5-a982-f8d41c4589df","ios":"levelo://app?vid=fb2951de-deea-40c5-a982-f8d41c4589df"},"vehicle_type_id":"4","last_reported":1700766339,"current_range_meters":27200,"station_id":"ce4bh192rcd13ifvqdd0","pricing_plan_id":"free"},{"bike_id":"3cd4239f-6e78-4d2b-b8ba-cb112706bc44","system_id":"levelo_inurba_marseille","lat":43.28457,"lon":5.35892,"is_reserved":false,"is_disabled":false,"rental_uris":{"android":"levelo://app?vid=3cd4239f-6e78-4d2b-b8ba-cb112706bc44","ios":"levelo://app?vid=3cd4239f-6e78-4d2b-b8ba-cb112706bc44"},"vehicle_type_id":"4","last_reported":1700766339,"current_range_meters":0,"station_id":"ce4bhah2rcd13ifvqei0","pricing_plan_id":"free"},{"bike_id":"f651a87f-89f3-4498-94e7-be620ed6c7be","system_id":"levelo_inurba_marseille","lat":43.286025,"lon":5.351052,"is_reserved":false,"is_disabled":false,"rental_uris":{"android":"levelo://app?vid=f651a87f-89f3-4498-94e7-be620ed6c7be","ios":"levelo://app?vid=f651a87f-89f3-4498-94e7-be620ed6c7be"},"vehicle_type_id":"4","last_reported":1700766339,"current_range_meters":5600,"station_id":"ce4bhch2rcd13ifvqeug","pricing_plan_id":"free"},{"bike_id":"cb9cbe9e-052d-46a0-96d9-7bee9ad2e9e8","system_id":"levelo_inurba_marseille","lat":43.283998,"lon":5.375062,"is_reserved":false,"is_disabled":false,"rental_uris":{"android":"levelo://app?vid=cb9cbe9e-052d-46a0-96d9-7bee9ad2e9e8","ios":"levelo://app?vid=cb9cbe9e-052d-46a0-96d9-7bee9ad2e9e8"},"vehicle_type_id":"4","last_reported":1700766339,"current_range_meters":4400,"station_id":"ce4bh412rcd13ifvqds0","pricing_plan_id":"free"},{"bike_id":"adbd441f-44c4-4168-877a-9278b4bd7ceb","system_id":"levelo_inurba_marseille","lat":43.33166,"lon":5.39774,"is_reserved":false,"is_disabled":false,"rental_uris":{"android":"levelo://app?vid=adbd441f-44c4-4168-877a-9278b4bd7ceb","ios":"levelo://app?vid=adbd441f-44c4-4168-877a-9278b4bd7ceb"},"vehicle_type_id":"4","last_reported":1700766339,"current_range_meters":16800,"station_id":"","pricing_plan_id":"free"},{"bike_id":"c42b3ec1-0786-4103-b03d-2a582a8b60cb","system_id":"levelo_inurba_marseille","lat":43.295713,"lon":5.399639,"is_reserved":false,"is_disabled":false,"rental_uris":{"android":"levelo://app?vid=c42b3ec1-0786-4103-b03d-2a582a8b60cb","ios":"levelo://app?vid=c42b3ec1-0786-4103-b03d-2a582a8b60cb"},"vehicle_type_id":"4","last_reported":1700766339,"current_range_meters":8400,"station_id":"ce4bh312rcd13ifvqdj0","pricing_plan_id":"free"},{"bike_id":"46364cf3-6683-4b56-941c-8a1e60285cc4","system_id":"levelo_inurba_marseille","lat":43.319179,"lon":5.407725,"is_reserved":false,"is_disabled":false,"rental_uris":{"android":"levelo://app?vid=46364cf3-6683-4b56-941c-8a1e60285cc4","ios":"levelo://app?vid=46364cf3-6683-4b56-941c-8a1e60285cc4"},"vehicle_type_id":"4","last_reported":1700766339,"current_range_meters":2800,"station_id":"ce4bhq12rcd13ifvqhig","pricing_plan_id":"free"},{"bike_id":"d9785b0c-0523-4b8b-9f28-f29210b1a5eb","system_id":"levelo_inurba_marseille","lat":43.323464,"lon":5.406297,"is_reserved":false,"is_disabled":false,"rental_uris":{"android":"levelo://app?vid=d9785b0c-0523-4b8b-9f28-f29210b1a5eb","ios":"levelo://app?vid=d9785b0c-0523-4b8b-9f28-f29210b1a5eb"},"vehicle_type_id":"4","last_reported":1700766339,"current_range_meters":24400,"station_id":"ce4bhq92rcd13ifvqhjg","pricing_plan_id":"free"},{"bike_id":"133f73aa-3d16-4cb3-ab9a-7e05c7715719","system_id":"levelo_inurba_marseille","lat":43.288501,"lon":5.393087,"is_reserved":false,"is_disabled":false,"rental_uris":{"android":"levelo://app?vid=133f73aa-3d16-4cb3-ab9a-7e05c7715719","ios":"levelo://app?vid=133f73aa-3d16-4cb3-ab9a-7e05c7715719"},"vehicle_type_id":"4","last_reported":1700766339,"current_range_meters":800,"station_id":"ce4bh2p2rcd13ifvqdi0","pricing_plan_id":"free"},{"bike_id":"e2284003-4e46-4e0a-93e7-73d05c3666d9","system_id":"levelo_inurba_marseille","lat":43.33479,"lon":5.39788,"is_reserved":false,"is_disabled":false,"rental_uris":{"android":"levelo://app?vid=e2284003-4e46-4e0a-93e7-73d05c3666d9","ios":"levelo://app?vid=e2284003-4e46-4e0a-93e7-73d05c3666d9"},"vehicle_type_id":"4","last_reported":1700766339,"current_range_meters":26000,"station_id":"","pricing_plan_id":"free"},{"bike_id":"d37f4bd5-6f55-4961-bbf8-eda78dd2c62a","system_id":"levelo_inurba_marseille","lat":43.289363,"lon":5.396322,"is_reserved":false,"is_disabled":false,"rental_uris":{"android":"levelo://app?vid=d37f4bd5-6f55-4961-bbf8-eda78dd2c62a","ios":"levelo://app?vid=d37f4bd5-6f55-4961-bbf8-eda78dd2c62a"},"vehicle_type_id":"4","last_reported":1700766339,"current_range_meters":8000,"station_id":"ce4bh3h2rcd13ifvqdn0","pricing_plan_id":"free"},{"bike_id":"76b9a401-a102-47a4-aa80-f8dc420b0aad","system_id":"levelo_inurba_marseille","lat":43.282744,"lon":5.350533,"is_reserved":false,"is_disabled":false,"rental_uris":{"android":"levelo://app?vid=76b9a401-a102-47a4-aa80-f8dc420b0aad","ios":"levelo://app?vid=76b9a401-a102-47a4-aa80-f8dc420b0aad"},"vehicle_type_id":"4","last_reported":1700766339,"current_range_meters":16400,"station_id":"ce4bhbp2rcd13ifvqerg","pricing_plan_id":"free"},{"bike_id":"372eb93b-80ec-49ae-a74c-b0f24b6b592b","system_id":"levelo_inurba_marseille","lat":43.28044,"lon":5.36939,"is_reserved":false,"is_disabled":false,"rental_uris":{"android":"levelo://app?vid=372eb93b-80ec-49ae-a74c-b0f24b6b592b","ios":"levelo://app?vid=372eb93b-80ec-49ae-a74c-b0f24b6b592b"},"vehicle_type_id":"4","last_reported":1700766339,"current_range_meters":21600,"station_id":"ce4bha12rcd13ifvqef0","pricing_plan_id":"free"},{"bike_id":"857c10bc-5c00-4848-aed1-ce3268427462","system_id":"levelo_inurba_marseille","lat":43.28039,"lon":5.369297,"is_reserved":false,"is_disabled":false,"rental_uris":{"android":"levelo://app?vid=857c10bc-5c00-4848-aed1-ce3268427462","ios":"levelo://app?vid=857c10bc-5c00-4848-aed1-ce3268427462"},"vehicle_type_id":"4","last_reported":1700766339,"current_range_meters":22400,"station_id":"ce4bha12rcd13ifvqef0","pricing_plan_id":"free"},{"bike_id":"93c71f71-9b94-4336-b0ac-f40119b95680","system_id":"levelo_inurba_marseille","lat":43.28039,"lon":5.369297,"is_reserved":false,"is_disabled":false,"rental_uris":{"android":"levelo://app?vid=93c71f71-9b94-4336-b0ac-f40119b95680","ios":"levelo://app?vid=93c71f71-9b94-4336-b0ac-f40119b95680"},"vehicle_type_id":"4","last_reported":1700766339,"current_range_meters":20400,"station_id":"ce4bha12rcd13ifvqef0","pricing_plan_id":"free"},{"bike_id":"8e360a99-579d-498b-8373-2b154126c995","system_id":"levelo_inurba_marseille","lat":43.304188,"lon":5.412904,"is_reserved":false,"is_disabled":false,"rental_uris":{"android":"levelo://app?vid=8e360a99-579d-498b-8373-2b154126c995","ios":"levelo://app?vid=8e360a99-579d-498b-8373-2b154126c995"},"vehicle_type_id":"4","last_reported":1700766339,"current_range_meters":30000,"station_id":"ce4bhop2rcd13ifvqh8g","pricing_plan_id":"free"},{"bike_id":"9a63d390-a04f-48e6-b490-3264a1ed5378","system_id":"levelo_inurba_marseille","lat":43.304163,"lon":5.41285,"is_reserved":false,"is_disabled":false,"rental_uris":{"android":"levelo://app?vid=9a63d390-a04f-48e6-b490-3264a1ed5378","ios":"levelo://app?vid=9a63d390-a04f-48e6-b490-3264a1ed5378"},"vehicle_type_id":"4","last_reported":1700766339,"current_range_meters":12400,"station_id":"ce4bhop2rcd13ifvqh8g","pricing_plan_id":"free"},{"bike_id":"3b7a7244-0216-4399-9f13-c45c56584684","system_id":"levelo_inurba_marseille","lat":43.279087,"lon":5.380114,"is_reserved":false,"is_disabled":false,"rental_uris":{"android":"levelo://app?vid=3b7a7244-0216-4399-9f13-c45c56584684","ios":"levelo://app?vid=3b7a7244-0216-4399-9f13-c45c56584684"},"vehicle_type_id":"4","last_reported":1700766339,"current_range_meters":800,"station_id":"ce4bhf92rcd13ifvqf50","pricing_plan_id":"free"},{"bike_id":"01c93ddb-da14-4fef-a292-7a08f650026c","system_id":"levelo_inurba_marseille","lat":43.28706,"lon":5.39989,"is_reserved":false,"is_disabled":false,"rental_uris":{"android":"levelo://app?vid=01c93ddb-da14-4fef-a292-7a08f650026c","ios":"levelo://app?vid=01c93ddb-da14-4fef-a292-7a08f650026c"},"vehicle_type_id":"4","last_reported":1700766339,"current_range_meters":0,"station_id":"ce4bho92rcd13ifvqh3g","pricing_plan_id":"free"},{"bike_id":"708d76d9-b48b-4370-a4dc-22543ca198ae","system_id":"levelo_inurba_marseille","lat":43.287,"lon":5.39988,"is_reserved":false,"is_disabled":false,"rental_uris":{"android":"levelo://app?vid=708d76d9-b48b-4370-a4dc-22543ca198ae","ios":"levelo://app?vid=708d76d9-b48b-4370-a4dc-22543ca198ae"},"vehicle_type_id":"4","last_reported":1700766339,"current_range_meters":2800,"station_id":"","pricing_plan_id":"free"},{"bike_id":"6e2c2465-4e40-4aae-912b-ca1fbcdf1978","system_id":"levelo_inurba_marseille","lat":43.327063,"lon":5.41245,"is_reserved":false,"is_disabled":false,"rental_uris":{"android":"levelo://app?vid=6e2c2465-4e40-4aae-912b-ca1fbcdf1978","ios":"levelo://app?vid=6e2c2465-4e40-4aae-912b-ca1fbcdf1978"},"vehicle_type_id":"4","last_reported":1700766339,"current_range_meters":0,"station_id":"","pricing_plan_id":"free"},{"bike_id":"a8e2b52b-9ba9-4b70-bcb4-1e1ad46ab6fe","system_id":"levelo_inurba_marseille","lat":43.29939,"lon":5.41321,"is_reserved":false,"is_disabled":false,"rental_uris":{"android":"levelo://app?vid=a8e2b52b-9ba9-4b70-bcb4-1e1ad46ab6fe","ios":"levelo://app?vid=a8e2b52b-9ba9-4b70-bcb4-1e1ad46ab6fe"},"vehicle_type_id":"4","last_reported":1700766339,"current_range_meters":30400,"station_id":"ce4bhp12rcd13ifvqh9g","pricing_plan_id":"free"},{"bike_id":"7011775b-c0e4-46dc-8231-7485425aba5f","system_id":"levelo_inurba_marseille","lat":43.29938,"lon":5.41321,"is_reserved":false,"is_disabled":false,"rental_uris":{"android":"levelo://app?vid=7011775b-c0e4-46dc-8231-7485425aba5f","ios":"levelo://app?vid=7011775b-c0e4-46dc-8231-7485425aba5f"},"vehicle_type_id":"4","last_reported":1700766339,"current_range_meters":26400,"station_id":"ce4bhp12rcd13ifvqh9g","pricing_plan_id":"free"},{"bike_id":"cf7c6503-d761-4e4a-b826-f55f74848caf","system_id":"levelo_inurba_marseille","lat":43.34882,"lon":5.37507,"is_reserved":false,"is_disabled":false,"rental_uris":{"android":"levelo://app?vid=cf7c6503-d761-4e4a-b826-f55f74848caf","ios":"levelo://app?vid=cf7c6503-d761-4e4a-b826-f55f74848caf"},"vehicle_type_id":"4","last_reported":1700766339,"current_range_meters":0,"station_id":"","pricing_plan_id":"free"},{"bike_id":"f9dcd82d-9654-4207-99fc-cadb91d84619","system_id":"levelo_inurba_marseille","lat":43.280784,"lon":5.396622,"is_reserved":false,"is_disabled":false,"rental_uris":{"android":"levelo://app?vid=f9dcd82d-9654-4207-99fc-cadb91d84619","ios":"levelo://app?vid=f9dcd82d-9654-4207-99fc-cadb91d84619"},"vehicle_type_id":"4","last_reported":1700766339,"current_range_meters":11600,"station_id":"ce4bho12rcd13ifvqh2g","pricing_plan_id":"free"},{"bike_id":"292df432-9394-4e14-ac2d-bdfb1b986edc","system_id":"levelo_inurba_marseille","lat":43.303837,"lon":5.418724,"is_reserved":false,"is_disabled":false,"rental_uris":{"android":"levelo://app?vid=292df432-9394-4e14-ac2d-bdfb1b986edc","ios":"levelo://app?vid=292df432-9394-4e14-ac2d-bdfb1b986edc"},"vehicle_type_id":"4","last_reported":1700766339,"current_range_meters":24800,"station_id":"ce4bhop2rcd13ifvqh7g","pricing_plan_id":"free"},{"bike_id":"424d1480-d607-4664-b6fa-ecbf4c63abd0","system_id":"levelo_inurba_marseille","lat":43.278176,"lon":5.392069,"is_reserved":false,"is_disabled":false,"rental_uris":{"android":"levelo://app?vid=424d1480-d607-4664-b6fa-ecbf4c63abd0","ios":"levelo://app?vid=424d1480-d607-4664-b6fa-ecbf4c63abd0"},"vehicle_type_id":"4","last_reported":1700766339,"current_range_meters":0,"station_id":"ce4bhjp2rcd13ifvqga0","pricing_plan_id":"free"},{"bike_id":"8783e96c-b50b-4896-be53-acb8266c2f77","system_id":"levelo_inurba_marseille","lat":43.336148,"lon":5.410349,"is_reserved":false,"is_disabled":false,"rental_uris":{"android":"levelo://app?vid=8783e96c-b50b-4896-be53-acb8266c2f77","ios":"levelo://app?vid=8783e96c-b50b-4896-be53-acb8266c2f77"},"vehicle_type_id":"4","last_reported":1700766339,"current_range_meters":1600,"station_id":"ce4bhqh2rcd13ifvqhmg","pricing_plan_id":"free"},{"bike_id":"2fa2868b-3c19-40b4-80aa-f9fc29ad3d46","system_id":"levelo_inurba_marseille","lat":43.279952,"lon":5.400085,"is_reserved":false,"is_disabled":false,"rental_uris":{"android":"levelo://app?vid=2fa2868b-3c19-40b4-80aa-f9fc29ad3d46","ios":"levelo://app?vid=2fa2868b-3c19-40b4-80aa-f9fc29ad3d46"},"vehicle_type_id":"4","last_reported":1700766339,"current_range_meters":22800,"station_id":"ce4bho92rcd13ifvqh4g","pricing_plan_id":"free"},{"bike_id":"0f0dde2f-b34e-4cb3-8428-609aae5bacdd","system_id":"levelo_inurba_marseille","lat":43.317121,"lon":5.423936,"is_reserved":false,"is_disabled":false,"rental_uris":{"android":"levelo://app?vid=0f0dde2f-b34e-4cb3-8428-609aae5bacdd","ios":"levelo://app?vid=0f0dde2f-b34e-4cb3-8428-609aae5bacdd"},"vehicle_type_id":"4","last_reported":1700766339,"current_range_meters":30400,"station_id":"ce4bhp92rcd13ifvqhbg","pricing_plan_id":"free"},{"bike_id":"a07c2d75-3c21-42ab-b08a-c12647aeebf7","system_id":"levelo_inurba_marseille","lat":43.317121,"lon":5.423936,"is_reserved":false,"is_disabled":false,"rental_uris":{"android":"levelo://app?vid=a07c2d75-3c21-42ab-b08a-c12647aeebf7","ios":"levelo://app?vid=a07c2d75-3c21-42ab-b08a-c12647aeebf7"},"vehicle_type_id":"4","last_reported":1700766339,"current_range_meters":28400,"station_id":"ce4bhp92rcd13ifvqhbg","pricing_plan_id":"free"},{"bike_id":"ed81212e-265d-4cea-bc59-0f8a294a3bb7","system_id":"levelo_inurba_marseille","lat":43.274103,"lon":5.394016,"is_reserved":false,"is_disabled":false,"rental_uris":{"android":"levelo://app?vid=ed81212e-265d-4cea-bc59-0f8a294a3bb7","ios":"levelo://app?vid=ed81212e-265d-4cea-bc59-0f8a294a3bb7"},"vehicle_type_id":"4","last_reported":1700766339,"current_range_meters":4800,"station_id":"ce4bhdp2rcd13ifvqf20","pricing_plan_id":"free"},{"bike_id":"667a437a-324f-4c7f-9f36-88701d9c8dc7","system_id":"levelo_inurba_marseille","lat":43.274099,"lon":5.394019,"is_reserved":false,"is_disabled":false,"rental_uris":{"android":"levelo://app?vid=667a437a-324f-4c7f-9f36-88701d9c8dc7","ios":"levelo://app?vid=667a437a-324f-4c7f-9f36-88701d9c8dc7"},"vehicle_type_id":"4","last_reported":1700766339,"current_range_meters":12800,"station_id":"ce4bhdp2rcd13ifvqf20","pricing_plan_id":"free"},{"bike_id":"2c30d101-0787-42d6-a558-e6ebb182e3a9","system_id":"levelo_inurba_marseille","lat":43.27416,"lon":5.3941,"is_reserved":false,"is_disabled":false,"rental_uris":{"android":"levelo://app?vid=2c30d101-0787-42d6-a558-e6ebb182e3a9","ios":"levelo://app?vid=2c30d101-0787-42d6-a558-e6ebb182e3a9"},"vehicle_type_id":"4","last_reported":1700766339,"current_range_meters":0,"station_id":"ce4bhdp2rcd13ifvqf20","pricing_plan_id":"free"},{"bike_id":"aac6da5d-e32f-4895-b760-2c82e416f441","system_id":"levelo_inurba_marseille","lat":43.2955,"lon":5.42285,"is_reserved":false,"is_disabled":false,"rental_uris":{"android":"levelo://app?vid=aac6da5d-e32f-4895-b760-2c82e416f441","ios":"levelo://app?vid=aac6da5d-e32f-4895-b760-2c82e416f441"},"vehicle_type_id":"4","last_reported":1700766339,"current_range_meters":9600,"station_id":"ce4bhph2rcd13ifvqhdg","pricing_plan_id":"free"},{"bike_id":"5a81cc7d-1885-498c-b3e8-8ac7e8a29dc8","system_id":"levelo_inurba_marseille","lat":43.295533,"lon":5.422937,"is_reserved":false,"is_disabled":false,"rental_uris":{"android":"levelo://app?vid=5a81cc7d-1885-498c-b3e8-8ac7e8a29dc8","ios":"levelo://app?vid=5a81cc7d-1885-498c-b3e8-8ac7e8a29dc8"},"vehicle_type_id":"4","last_reported":1700766339,"current_range_meters":31200,"station_id":"ce4bhph2rcd13ifvqhdg","pricing_plan_id":"free"},{"bike_id":"48c1fbfb-e6c4-4c56-a75c-55416f8bb4c3","system_id":"levelo_inurba_marseille","lat":43.271928,"lon":5.392948,"is_reserved":false,"is_disabled":false,"rental_uris":{"android":"levelo://app?vid=48c1fbfb-e6c4-4c56-a75c-55416f8bb4c3","ios":"levelo://app?vid=48c1fbfb-e6c4-4c56-a75c-55416f8bb4c3"},"vehicle_type_id":"4","last_reported":1700766339,"current_range_meters":24800,"station_id":"","pricing_plan_id":"free"},{"bike_id":"8dfae3e0-abc0-4a1e-9538-4655782c3e3c","system_id":"levelo_inurba_marseille","lat":43.27904,"lon":5.41222,"is_reserved":false,"is_disabled":false,"rental_uris":{"android":"levelo://app?vid=8dfae3e0-abc0-4a1e-9538-4655782c3e3c","ios":"levelo://app?vid=8dfae3e0-abc0-4a1e-9538-4655782c3e3c"},"vehicle_type_id":"4","last_reported":1700766339,"current_range_meters":9200,"station_id":"","pricing_plan_id":"free"},{"bike_id":"9a31796c-56e5-4649-82c7-f77894f07c18","system_id":"levelo_inurba_marseille","lat":43.26684,"lon":5.38271,"is_reserved":false,"is_disabled":false,"rental_uris":{"android":"levelo://app?vid=9a31796c-56e5-4649-82c7-f77894f07c18","ios":"levelo://app?vid=9a31796c-56e5-4649-82c7-f77894f07c18"},"vehicle_type_id":"4","last_reported":1700766339,"current_range_meters":0,"station_id":"ce4bhg92rcd13ifvqf90","pricing_plan_id":"free"},{"bike_id":"28e8ce00-6b21-4e06-9930-c7c4408cc650","system_id":"levelo_inurba_marseille","lat":43.326174,"lon":5.430584,"is_reserved":false,"is_disabled":false,"rental_uris":{"android":"levelo://app?vid=28e8ce00-6b21-4e06-9930-c7c4408cc650","ios":"levelo://app?vid=28e8ce00-6b21-4e06-9930-c7c4408cc650"},"vehicle_type_id":"4","last_reported":1700766339,"current_range_meters":2000,"station_id":"","pricing_plan_id":"free"},{"bike_id":"2b5f0b27-ae58-4e9e-bd76-c585f78e8a73","system_id":"levelo_inurba_marseille","lat":43.26386,"lon":5.37454,"is_reserved":false,"is_disabled":false,"rental_uris":{"android":"levelo://app?vid=2b5f0b27-ae58-4e9e-bd76-c585f78e8a73","ios":"levelo://app?vid=2b5f0b27-ae58-4e9e-bd76-c585f78e8a73"},"vehicle_type_id":"4","last_reported":1700766339,"current_range_meters":17600,"station_id":"","pricing_plan_id":"free"},{"bike_id":"b49ff6aa-3b6d-49d5-ae00-951486a1c185","system_id":"levelo_inurba_marseille","lat":43.26567,"lon":5.3901,"is_reserved":false,"is_disabled":false,"rental_uris":{"android":"levelo://app?vid=b49ff6aa-3b6d-49d5-ae00-951486a1c185","ios":"levelo://app?vid=b49ff6aa-3b6d-49d5-ae00-951486a1c185"},"vehicle_type_id":"4","last_reported":1700766339,"current_range_meters":3200,"station_id":"ce4bhe12rcd13ifvqf30","pricing_plan_id":"free"},{"bike_id":"278e365b-c836-4e18-9dee-bb5c6d92c0a8","system_id":"levelo_inurba_marseille","lat":43.26949,"lon":5.40262,"is_reserved":false,"is_disabled":false,"rental_uris":{"android":"levelo://app?vid=278e365b-c836-4e18-9dee-bb5c6d92c0a8","ios":"levelo://app?vid=278e365b-c836-4e18-9dee-bb5c6d92c0a8"},"vehicle_type_id":"4","last_reported":1700766339,"current_range_meters":0,"station_id":"cjm6bp8fraef2m0cb0m0","pricing_plan_id":"free"},{"bike_id":"bff709aa-9908-467c-9b91-161de7b65ca1","system_id":"levelo_inurba_marseille","lat":43.31715,"lon":5.43705,"is_reserved":false,"is_disabled":false,"rental_uris":{"android":"levelo://app?vid=bff709aa-9908-467c-9b91-161de7b65ca1","ios":"levelo://app?vid=bff709aa-9908-467c-9b91-161de7b65ca1"},"vehicle_type_id":"4","last_reported":1700766339,"current_range_meters":0,"station_id":"ce4bhp92rcd13ifvqhcg","pricing_plan_id":"free"},{"bike_id":"d4d6c84e-20d0-4ab5-a529-49bad562a127","system_id":"levelo_inurba_marseille","lat":43.317104,"lon":5.436818,"is_reserved":false,"is_disabled":false,"rental_uris":{"android":"levelo://app?vid=d4d6c84e-20d0-4ab5-a529-49bad562a127","ios":"levelo://app?vid=d4d6c84e-20d0-4ab5-a529-49bad562a127"},"vehicle_type_id":"4","last_reported":1700766339,"current_range_meters":9600,"station_id":"ce4bhp92rcd13ifvqhcg","pricing_plan_id":"free"},{"bike_id":"589f525b-b94e-4074-a55f-170f20400e33","system_id":"levelo_inurba_marseille","lat":43.317104,"lon":5.436818,"is_reserved":false,"is_disabled":false,"rental_uris":{"android":"levelo://app?vid=589f525b-b94e-4074-a55f-170f20400e33","ios":"levelo://app?vid=589f525b-b94e-4074-a55f-170f20400e33"},"vehicle_type_id":"4","last_reported":1700766339,"current_range_meters":14800,"station_id":"ce4bhp92rcd13ifvqhcg","pricing_plan_id":"free"},{"bike_id":"44c74862-b1b9-4b42-9366-9e8d41a8c3a4","system_id":"levelo_inurba_marseille","lat":43.262012,"lon":5.379307,"is_reserved":false,"is_disabled":false,"rental_uris":{"android":"levelo://app?vid=44c74862-b1b9-4b42-9366-9e8d41a8c3a4","ios":"levelo://app?vid=44c74862-b1b9-4b42-9366-9e8d41a8c3a4"},"vehicle_type_id":"4","last_reported":1700766339,"current_range_meters":16000,"station_id":"ce4bhjp2rcd13ifvqg90","pricing_plan_id":"free"},{"bike_id":"be62ec3b-0549-47c1-b1c8-0e26723ee0c0","system_id":"levelo_inurba_marseille","lat":43.271368,"lon":5.40928,"is_reserved":false,"is_disabled":false,"rental_uris":{"android":"levelo://app?vid=be62ec3b-0549-47c1-b1c8-0e26723ee0c0","ios":"levelo://app?vid=be62ec3b-0549-47c1-b1c8-0e26723ee0c0"},"vehicle_type_id":"4","last_reported":1700766339,"current_range_meters":18400,"station_id":"ce4bhl12rcd13ifvqgf0","pricing_plan_id":"free"},{"bike_id":"20650c99-8e22-4500-9d54-d01ffda1269c","system_id":"levelo_inurba_marseille","lat":43.27173,"lon":5.40991,"is_reserved":false,"is_disabled":false,"rental_uris":{"android":"levelo://app?vid=20650c99-8e22-4500-9d54-d01ffda1269c","ios":"levelo://app?vid=20650c99-8e22-4500-9d54-d01ffda1269c"},"vehicle_type_id":"4","last_reported":1700766339,"current_range_meters":0,"station_id":"ce4bhl12rcd13ifvqgf0","pricing_plan_id":"free"},{"bike_id":"cb16d7ee-4d8d-44c4-bc7a-142b1234ab63","system_id":"levelo_inurba_marseille","lat":43.31725,"lon":5.43786,"is_reserved":false,"is_disabled":false,"rental_uris":{"android":"levelo://app?vid=cb16d7ee-4d8d-44c4-bc7a-142b1234ab63","ios":"levelo://app?vid=cb16d7ee-4d8d-44c4-bc7a-142b1234ab63"},"vehicle_type_id":"4","last_reported":1700766339,"current_range_meters":0,"station_id":"","pricing_plan_id":"free"},{"bike_id":"d0bb53f7-f1b8-4609-a668-27efdac67f66","system_id":"levelo_inurba_marseille","lat":43.26301,"lon":5.38842,"is_reserved":false,"is_disabled":false,"rental_uris":{"android":"levelo://app?vid=d0bb53f7-f1b8-4609-a668-27efdac67f66","ios":"levelo://app?vid=d0bb53f7-f1b8-4609-a668-27efdac67f66"},"vehicle_type_id":"4","last_reported":1700766339,"current_range_meters":0,"station_id":"","pricing_plan_id":"free"},{"bike_id":"c8e0aad3-4462-4f8b-93ce-b770998879ce","system_id":"levelo_inurba_marseille","lat":43.29895,"lon":5.43662,"is_reserved":false,"is_disabled":false,"rental_uris":{"android":"levelo://app?vid=c8e0aad3-4462-4f8b-93ce-b770998879ce","ios":"levelo://app?vid=c8e0aad3-4462-4f8b-93ce-b770998879ce"},"vehicle_type_id":"4","last_reported":1700766339,"current_range_meters":31200,"station_id":"ce4bhpp2rcd13ifvqhfg","pricing_plan_id":"free"},{"bike_id":"32dbc8da-1a48-433d-b69f-a6767c9278fd","system_id":"levelo_inurba_marseille","lat":43.298768,"lon":5.43643,"is_reserved":false,"is_disabled":false,"rental_uris":{"android":"levelo://app?vid=32dbc8da-1a48-433d-b69f-a6767c9278fd","ios":"levelo://app?vid=32dbc8da-1a48-433d-b69f-a6767c9278fd"},"vehicle_type_id":"4","last_reported":1700766339,"current_range_meters":16000,"station_id":"ce4bhpp2rcd13ifvqhfg","pricing_plan_id":"free"},{"bike_id":"4f42384b-07a1-448f-a459-6c4498e43d8a","system_id":"levelo_inurba_marseille","lat":43.28157,"lon":5.42646,"is_reserved":false,"is_disabled":false,"rental_uris":{"android":"levelo://app?vid=4f42384b-07a1-448f-a459-6c4498e43d8a","ios":"levelo://app?vid=4f42384b-07a1-448f-a459-6c4498e43d8a"},"vehicle_type_id":"4","last_reported":1700766339,"current_range_meters":400,"station_id":"ce4bhnh2rcd13ifvqgug","pricing_plan_id":"free"},{"bike_id":"f66b51e9-c4a3-4f45-9226-938d4bff2e55","system_id":"levelo_inurba_marseille","lat":43.260909,"lon":5.397591,"is_reserved":false,"is_disabled":false,"rental_uris":{"android":"levelo://app?vid=f66b51e9-c4a3-4f45-9226-938d4bff2e55","ios":"levelo://app?vid=f66b51e9-c4a3-4f45-9226-938d4bff2e55"},"vehicle_type_id":"4","last_reported":1700766339,"current_range_meters":29200,"station_id":"ce4bhi12rcd13ifvqfq0","pricing_plan_id":"free"},{"bike_id":"4e026cf8-9d7f-480c-86b2-b8a0b393d65c","system_id":"levelo_inurba_marseille","lat":43.26087,"lon":5.39766,"is_reserved":false,"is_disabled":false,"rental_uris":{"android":"levelo://app?vid=4e026cf8-9d7f-480c-86b2-b8a0b393d65c","ios":"levelo://app?vid=4e026cf8-9d7f-480c-86b2-b8a0b393d65c"},"vehicle_type_id":"4","last_reported":1700766339,"current_range_meters":11600,"station_id":"ce4bhi12rcd13ifvqfq0","pricing_plan_id":"free"},{"bike_id":"12a347fd-e403-446b-b994-f53626bfa486","system_id":"levelo_inurba_marseille","lat":43.25594,"lon":5.3823,"is_reserved":false,"is_disabled":false,"rental_uris":{"android":"levelo://app?vid=12a347fd-e403-446b-b994-f53626bfa486","ios":"levelo://app?vid=12a347fd-e403-446b-b994-f53626bfa486"},"vehicle_type_id":"4","last_reported":1700766339,"current_range_meters":0,"station_id":"ce4bhih2rcd13ifvqfs0","pricing_plan_id":"free"},{"bike_id":"3a1f9022-bd46-49cc-bf47-98ffb6823c2e","system_id":"levelo_inurba_marseille","lat":43.25588,"lon":5.38239,"is_reserved":false,"is_disabled":false,"rental_uris":{"android":"levelo://app?vid=3a1f9022-bd46-49cc-bf47-98ffb6823c2e","ios":"levelo://app?vid=3a1f9022-bd46-49cc-bf47-98ffb6823c2e"},"vehicle_type_id":"4","last_reported":1700766339,"current_range_meters":16000,"station_id":"ce4bhih2rcd13ifvqfs0","pricing_plan_id":"free"},{"bike_id":"6e9f2361-8676-497d-a143-517068b5fd93","system_id":"levelo_inurba_marseille","lat":43.25584,"lon":5.38228,"is_reserved":false,"is_disabled":false,"rental_uris":{"android":"levelo://app?vid=6e9f2361-8676-497d-a143-517068b5fd93","ios":"levelo://app?vid=6e9f2361-8676-497d-a143-517068b5fd93"},"vehicle_type_id":"4","last_reported":1700766339,"current_range_meters":16000,"station_id":"ce4bhih2rcd13ifvqfs0","pricing_plan_id":"free"},{"bike_id":"b0c34655-9f04-4532-b299-ed61f0d30ded","system_id":"levelo_inurba_marseille","lat":43.25582,"lon":5.38241,"is_reserved":false,"is_disabled":false,"rental_uris":{"android":"levelo://app?vid=b0c34655-9f04-4532-b299-ed61f0d30ded","ios":"levelo://app?vid=b0c34655-9f04-4532-b299-ed61f0d30ded"},"vehicle_type_id":"4","last_reported":1700766339,"current_range_meters":23600,"station_id":"ce4bhih2rcd13ifvqfs0","pricing_plan_id":"free"},{"bike_id":"0b938667-6ce3-4005-a540-9bccfd7ca7d8","system_id":"levelo_inurba_marseille","lat":43.25825,"lon":5.39434,"is_reserved":false,"is_disabled":false,"rental_uris":{"android":"levelo://app?vid=0b938667-6ce3-4005-a540-9bccfd7ca7d8","ios":"levelo://app?vid=0b938667-6ce3-4005-a540-9bccfd7ca7d8"},"vehicle_type_id":"4","last_reported":1700766339,"current_range_meters":0,"station_id":"ce4bhip2rcd13ifvqft0","pricing_plan_id":"free"},{"bike_id":"14dfcc4b-e29c-4af2-b412-a73ae6c7b646","system_id":"levelo_inurba_marseille","lat":43.258224,"lon":5.394369,"is_reserved":false,"is_disabled":false,"rental_uris":{"android":"levelo://app?vid=14dfcc4b-e29c-4af2-b412-a73ae6c7b646","ios":"levelo://app?vid=14dfcc4b-e29c-4af2-b412-a73ae6c7b646"},"vehicle_type_id":"4","last_reported":1700766339,"current_range_meters":28800,"station_id":"ce4bhip2rcd13ifvqft0","pricing_plan_id":"free"},{"bike_id":"b58271b7-1ca2-4c49-8f3e-52f83be1885d","system_id":"levelo_inurba_marseille","lat":43.258224,"lon":5.394369,"is_reserved":false,"is_disabled":false,"rental_uris":{"android":"levelo://app?vid=b58271b7-1ca2-4c49-8f3e-52f83be1885d","ios":"levelo://app?vid=b58271b7-1ca2-4c49-8f3e-52f83be1885d"},"vehicle_type_id":"4","last_reported":1700766339,"current_range_meters":28400,"station_id":"ce4bhip2rcd13ifvqft0","pricing_plan_id":"free"},{"bike_id":"d5d0c9ce-8392-4660-bfe9-dba3ab2a79bf","system_id":"levelo_inurba_marseille","lat":43.258224,"lon":5.394369,"is_reserved":false,"is_disabled":false,"rental_uris":{"android":"levelo://app?vid=d5d0c9ce-8392-4660-bfe9-dba3ab2a79bf","ios":"levelo://app?vid=d5d0c9ce-8392-4660-bfe9-dba3ab2a79bf"},"vehicle_type_id":"4","last_reported":1700766339,"current_range_meters":14400,"station_id":"ce4bhip2rcd13ifvqft0","pricing_plan_id":"free"},{"bike_id":"b6903629-7e39-4ba2-9d9a-50ac3c4d6dad","system_id":"levelo_inurba_marseille","lat":43.254947,"lon":5.376454,"is_reserved":false,"is_disabled":false,"rental_uris":{"android":"levelo://app?vid=b6903629-7e39-4ba2-9d9a-50ac3c4d6dad","ios":"levelo://app?vid=b6903629-7e39-4ba2-9d9a-50ac3c4d6dad"},"vehicle_type_id":"4","last_reported":1700766339,"current_range_meters":17200,"station_id":"ce4bhh12rcd13ifvqff0","pricing_plan_id":"free"},{"bike_id":"53995a23-1c4e-4d60-8e91-231f6e8636bb","system_id":"levelo_inurba_marseille","lat":43.270721,"lon":5.422764,"is_reserved":false,"is_disabled":false,"rental_uris":{"android":"levelo://app?vid=53995a23-1c4e-4d60-8e91-231f6e8636bb","ios":"levelo://app?vid=53995a23-1c4e-4d60-8e91-231f6e8636bb"},"vehicle_type_id":"4","last_reported":1700766339,"current_range_meters":2000,"station_id":"ce4bhk92rcd13ifvqgb0","pricing_plan_id":"free"},{"bike_id":"1d751b92-5a10-4893-a4e3-1fbf93092a62","system_id":"levelo_inurba_marseille","lat":43.258658,"lon":5.398935,"is_reserved":false,"is_disabled":false,"rental_uris":{"android":"levelo://app?vid=1d751b92-5a10-4893-a4e3-1fbf93092a62","ios":"levelo://app?vid=1d751b92-5a10-4893-a4e3-1fbf93092a62"},"vehicle_type_id":"4","last_reported":1700766339,"current_range_meters":14000,"station_id":"ce4bhl92rcd13ifvqghg","pricing_plan_id":"free"},{"bike_id":"ec5b4e60-ba68-4314-87ca-9f56c36acddd","system_id":"levelo_inurba_marseille","lat":43.258658,"lon":5.398935,"is_reserved":false,"is_disabled":false,"rental_uris":{"android":"levelo://app?vid=ec5b4e60-ba68-4314-87ca-9f56c36acddd","ios":"levelo://app?vid=ec5b4e60-ba68-4314-87ca-9f56c36acddd"},"vehicle_type_id":"4","last_reported":1700766339,"current_range_meters":22800,"station_id":"ce4bhl92rcd13ifvqghg","pricing_plan_id":"free"},{"bike_id":"6716617d-429c-4ae1-a5d3-5ad1dd0483f9","system_id":"levelo_inurba_marseille","lat":43.258658,"lon":5.398935,"is_reserved":false,"is_disabled":false,"rental_uris":{"android":"levelo://app?vid=6716617d-429c-4ae1-a5d3-5ad1dd0483f9","ios":"levelo://app?vid=6716617d-429c-4ae1-a5d3-5ad1dd0483f9"},"vehicle_type_id":"4","last_reported":1700766339,"current_range_meters":6800,"station_id":"ce4bhl92rcd13ifvqghg","pricing_plan_id":"free"},{"bike_id":"a15d6173-36aa-4fcc-a511-ab44c385e192","system_id":"levelo_inurba_marseille","lat":43.259009,"lon":5.40929,"is_reserved":false,"is_disabled":false,"rental_uris":{"android":"levelo://app?vid=a15d6173-36aa-4fcc-a511-ab44c385e192","ios":"levelo://app?vid=a15d6173-36aa-4fcc-a511-ab44c385e192"},"vehicle_type_id":"4","last_reported":1700766339,"current_range_meters":30000,"station_id":"ce4bhm92rcd13ifvqglg","pricing_plan_id":"free"},{"bike_id":"11494382-ce2e-44c2-806d-9f1bc6755b0a","system_id":"levelo_inurba_marseille","lat":43.250009,"lon":5.389195,"is_reserved":false,"is_disabled":false,"rental_uris":{"android":"levelo://app?vid=11494382-ce2e-44c2-806d-9f1bc6755b0a","ios":"levelo://app?vid=11494382-ce2e-44c2-806d-9f1bc6755b0a"},"vehicle_type_id":"4","last_reported":1700766339,"current_range_meters":28400,"station_id":"ce4bhgp2rcd13ifvqfd0","pricing_plan_id":"free"},{"bike_id":"2463e26a-c743-4daa-98ba-a3cd311bb8cd","system_id":"levelo_inurba_marseille","lat":43.2479,"lon":5.374457,"is_reserved":false,"is_disabled":false,"rental_uris":{"android":"levelo://app?vid=2463e26a-c743-4daa-98ba-a3cd311bb8cd","ios":"levelo://app?vid=2463e26a-c743-4daa-98ba-a3cd311bb8cd"},"vehicle_type_id":"4","last_reported":1700766339,"current_range_meters":800,"station_id":"ce4bhgh2rcd13ifvqfb0","pricing_plan_id":"free"},{"bike_id":"03a6b57e-196d-4361-a53d-18c000089aa6","system_id":"levelo_inurba_marseille","lat":43.250966,"lon":5.395186,"is_reserved":false,"is_disabled":false,"rental_uris":{"android":"levelo://app?vid=03a6b57e-196d-4361-a53d-18c000089aa6","ios":"levelo://app?vid=03a6b57e-196d-4361-a53d-18c000089aa6"},"vehicle_type_id":"4","last_reported":1700766339,"current_range_meters":10000,"station_id":"ce4bhm12rcd13ifvqgkg","pricing_plan_id":"free"},{"bike_id":"efa187b0-d8d1-49c9-acc3-4b60600e5901","system_id":"levelo_inurba_marseille","lat":43.25088,"lon":5.39529,"is_reserved":false,"is_disabled":false,"rental_uris":{"android":"levelo://app?vid=efa187b0-d8d1-49c9-acc3-4b60600e5901","ios":"levelo://app?vid=efa187b0-d8d1-49c9-acc3-4b60600e5901"},"vehicle_type_id":"4","last_reported":1700766339,"current_range_meters":5200,"station_id":"ce4bhm12rcd13ifvqgkg","pricing_plan_id":"free"},{"bike_id":"b80925c1-effd-4120-a0b5-9ff7eadaaa2d","system_id":"levelo_inurba_marseille","lat":43.25086,"lon":5.39523,"is_reserved":false,"is_disabled":false,"rental_uris":{"android":"levelo://app?vid=b80925c1-effd-4120-a0b5-9ff7eadaaa2d","ios":"levelo://app?vid=b80925c1-effd-4120-a0b5-9ff7eadaaa2d"},"vehicle_type_id":"4","last_reported":1700766339,"current_range_meters":30800,"station_id":"ce4bhm12rcd13ifvqgkg","pricing_plan_id":"free"},{"bike_id":"9369307d-e427-422a-a1d2-590fbf37d2ca","system_id":"levelo_inurba_marseille","lat":43.250966,"lon":5.395186,"is_reserved":false,"is_disabled":false,"rental_uris":{"android":"levelo://app?vid=9369307d-e427-422a-a1d2-590fbf37d2ca","ios":"levelo://app?vid=9369307d-e427-422a-a1d2-590fbf37d2ca"},"vehicle_type_id":"4","last_reported":1700766339,"current_range_meters":16400,"station_id":"ce4bhm12rcd13ifvqgkg","pricing_plan_id":"free"},{"bike_id":"f585a74a-e97a-4a93-8216-eb5afd010973","system_id":"levelo_inurba_marseille","lat":43.25102,"lon":5.403214,"is_reserved":false,"is_disabled":false,"rental_uris":{"android":"levelo://app?vid=f585a74a-e97a-4a93-8216-eb5afd010973","ios":"levelo://app?vid=f585a74a-e97a-4a93-8216-eb5afd010973"},"vehicle_type_id":"4","last_reported":1700766339,"current_range_meters":1200,"station_id":"ce4bhlh2rcd13ifvqgig","pricing_plan_id":"free"},{"bike_id":"e68545fb-4ac4-40af-8bbe-e46447688418","system_id":"levelo_inurba_marseille","lat":43.25102,"lon":5.403214,"is_reserved":false,"is_disabled":false,"rental_uris":{"android":"levelo://app?vid=e68545fb-4ac4-40af-8bbe-e46447688418","ios":"levelo://app?vid=e68545fb-4ac4-40af-8bbe-e46447688418"},"vehicle_type_id":"4","last_reported":1700766339,"current_range_meters":4000,"station_id":"ce4bhlh2rcd13ifvqgig","pricing_plan_id":"free"},{"bike_id":"9526d937-c982-461b-addb-61ea09e6e71d","system_id":"levelo_inurba_marseille","lat":43.25107,"lon":5.40324,"is_reserved":false,"is_disabled":false,"rental_uris":{"android":"levelo://app?vid=9526d937-c982-461b-addb-61ea09e6e71d","ios":"levelo://app?vid=9526d937-c982-461b-addb-61ea09e6e71d"},"vehicle_type_id":"4","last_reported":1700766339,"current_range_meters":400,"station_id":"ce4bhlh2rcd13ifvqgig","pricing_plan_id":"free"},{"bike_id":"64767d19-726c-4e82-b52b-eeb289ae8540","system_id":"levelo_inurba_marseille","lat":43.25102,"lon":5.403214,"is_reserved":false,"is_disabled":false,"rental_uris":{"android":"levelo://app?vid=64767d19-726c-4e82-b52b-eeb289ae8540","ios":"levelo://app?vid=64767d19-726c-4e82-b52b-eeb289ae8540"},"vehicle_type_id":"4","last_reported":1700766339,"current_range_meters":12400,"station_id":"ce4bhlh2rcd13ifvqgig","pricing_plan_id":"free"},{"bike_id":"c4db6c00-0b4b-499c-a987-e15238075f65","system_id":"levelo_inurba_marseille","lat":43.246461,"lon":5.389014,"is_reserved":false,"is_disabled":false,"rental_uris":{"android":"levelo://app?vid=c4db6c00-0b4b-499c-a987-e15238075f65","ios":"levelo://app?vid=c4db6c00-0b4b-499c-a987-e15238075f65"},"vehicle_type_id":"4","last_reported":1700766339,"current_range_meters":10800,"station_id":"ce4bhg12rcd13ifvqf60","pricing_plan_id":"free"},{"bike_id":"686b3327-de0c-4eee-9419-25f93e0f2665","system_id":"levelo_inurba_marseille","lat":43.246467,"lon":5.388984,"is_reserved":false,"is_disabled":false,"rental_uris":{"android":"levelo://app?vid=686b3327-de0c-4eee-9419-25f93e0f2665","ios":"levelo://app?vid=686b3327-de0c-4eee-9419-25f93e0f2665"},"vehicle_type_id":"4","last_reported":1700766339,"current_range_meters":10800,"station_id":"ce4bhg12rcd13ifvqf60","pricing_plan_id":"free"},{"bike_id":"e24599ae-b8ac-4a49-b0a1-cb27889f4ba8","system_id":"levelo_inurba_marseille","lat":43.243884,"lon":5.370737,"is_reserved":false,"is_disabled":false,"rental_uris":{"android":"levelo://app?vid=e24599ae-b8ac-4a49-b0a1-cb27889f4ba8","ios":"levelo://app?vid=e24599ae-b8ac-4a49-b0a1-cb27889f4ba8"},"vehicle_type_id":"4","last_reported":1700766339,"current_range_meters":8800,"station_id":"ce4bhhh2rcd13ifvqfk0","pricing_plan_id":"free"},{"bike_id":"fb002053-0192-48fc-a8e8-72417b50f02a","system_id":"levelo_inurba_marseille","lat":43.245581,"lon":5.395069,"is_reserved":false,"is_disabled":false,"rental_uris":{"android":"levelo://app?vid=fb002053-0192-48fc-a8e8-72417b50f02a","ios":"levelo://app?vid=fb002053-0192-48fc-a8e8-72417b50f02a"},"vehicle_type_id":"4","last_reported":1700766339,"current_range_meters":29200,"station_id":"ce4bhlp2rcd13ifvqgjg","pricing_plan_id":"free"},{"bike_id":"d7927755-62c6-43c8-8602-9751792ee59d","system_id":"levelo_inurba_marseille","lat":43.245581,"lon":5.395069,"is_reserved":false,"is_disabled":false,"rental_uris":{"android":"levelo://app?vid=d7927755-62c6-43c8-8602-9751792ee59d","ios":"levelo://app?vid=d7927755-62c6-43c8-8602-9751792ee59d"},"vehicle_type_id":"4","last_reported":1700766339,"current_range_meters":15600,"station_id":"ce4bhlp2rcd13ifvqgjg","pricing_plan_id":"free"},{"bike_id":"b2809cd2-4381-418b-a1df-6e748cd8b2c4","system_id":"levelo_inurba_marseille","lat":43.245581,"lon":5.395069,"is_reserved":false,"is_disabled":false,"rental_uris":{"android":"levelo://app?vid=b2809cd2-4381-418b-a1df-6e748cd8b2c4","ios":"levelo://app?vid=b2809cd2-4381-418b-a1df-6e748cd8b2c4"},"vehicle_type_id":"4","last_reported":1700766339,"current_range_meters":14400,"station_id":"ce4bhlp2rcd13ifvqgjg","pricing_plan_id":"free"},{"bike_id":"08fc2310-4bb7-43c0-ac98-fec4a6de7619","system_id":"levelo_inurba_marseille","lat":43.240623,"lon":5.377642,"is_reserved":false,"is_disabled":false,"rental_uris":{"android":"levelo://app?vid=08fc2310-4bb7-43c0-ac98-fec4a6de7619","ios":"levelo://app?vid=08fc2310-4bb7-43c0-ac98-fec4a6de7619"},"vehicle_type_id":"4","last_reported":1700766339,"current_range_meters":9600,"station_id":"ce4bhnp2rcd13ifvqgvg","pricing_plan_id":"free"},{"bike_id":"f3d0e2aa-83b1-4bf2-8a48-5c677091e940","system_id":"levelo_inurba_marseille","lat":43.24071,"lon":5.37763,"is_reserved":false,"is_disabled":false,"rental_uris":{"android":"levelo://app?vid=f3d0e2aa-83b1-4bf2-8a48-5c677091e940","ios":"levelo://app?vid=f3d0e2aa-83b1-4bf2-8a48-5c677091e940"},"vehicle_type_id":"4","last_reported":1700766339,"current_range_meters":24000,"station_id":"ce4bhnp2rcd13ifvqgvg","pricing_plan_id":"free"},{"bike_id":"a521f606-5701-4030-b4c5-dab33339e8f5","system_id":"levelo_inurba_marseille","lat":43.240623,"lon":5.377642,"is_reserved":false,"is_disabled":false,"rental_uris":{"android":"levelo://app?vid=a521f606-5701-4030-b4c5-dab33339e8f5","ios":"levelo://app?vid=a521f606-5701-4030-b4c5-dab33339e8f5"},"vehicle_type_id":"4","last_reported":1700766339,"current_range_meters":28800,"station_id":"ce4bhnp2rcd13ifvqgvg","pricing_plan_id":"free"},{"bike_id":"7f36ee99-fc39-4607-9af5-7ed0f569f63d","system_id":"levelo_inurba_marseille","lat":43.240623,"lon":5.377642,"is_reserved":false,"is_disabled":false,"rental_uris":{"android":"levelo://app?vid=7f36ee99-fc39-4607-9af5-7ed0f569f63d","ios":"levelo://app?vid=7f36ee99-fc39-4607-9af5-7ed0f569f63d"},"vehicle_type_id":"4","last_reported":1700766339,"current_range_meters":8400,"station_id":"ce4bhnp2rcd13ifvqgvg","pricing_plan_id":"free"},{"bike_id":"96abc39f-ad07-4d7e-b3ae-73676f3f3c58","system_id":"levelo_inurba_marseille","lat":43.23975,"lon":5.36612,"is_reserved":false,"is_disabled":false,"rental_uris":{"android":"levelo://app?vid=96abc39f-ad07-4d7e-b3ae-73676f3f3c58","ios":"levelo://app?vid=96abc39f-ad07-4d7e-b3ae-73676f3f3c58"},"vehicle_type_id":"4","last_reported":1700766339,"current_range_meters":20000,"station_id":"ce4bhi12rcd13ifvqfp0","pricing_plan_id":"free"},{"bike_id":"48696721-7d72-4e6d-a69f-9339b8fc83e7","system_id":"levelo_inurba_marseille","lat":43.239725,"lon":5.366262,"is_reserved":false,"is_disabled":false,"rental_uris":{"android":"levelo://app?vid=48696721-7d72-4e6d-a69f-9339b8fc83e7","ios":"levelo://app?vid=48696721-7d72-4e6d-a69f-9339b8fc83e7"},"vehicle_type_id":"4","last_reported":1700766339,"current_range_meters":6400,"station_id":"ce4bhi12rcd13ifvqfp0","pricing_plan_id":"free"},{"bike_id":"4ca74aac-a103-4b68-b4a6-27881d713399","system_id":"levelo_inurba_marseille","lat":43.239667,"lon":5.366317,"is_reserved":false,"is_disabled":false,"rental_uris":{"android":"levelo://app?vid=4ca74aac-a103-4b68-b4a6-27881d713399","ios":"levelo://app?vid=4ca74aac-a103-4b68-b4a6-27881d713399"},"vehicle_type_id":"4","last_reported":1700766339,"current_range_meters":12000,"station_id":"ce4bhi12rcd13ifvqfp0","pricing_plan_id":"free"},{"bike_id":"4c434a78-92e8-423b-942f-5c940f305e63","system_id":"levelo_inurba_marseille","lat":43.23966,"lon":5.36634,"is_reserved":false,"is_disabled":false,"rental_uris":{"android":"levelo://app?vid=4c434a78-92e8-423b-942f-5c940f305e63","ios":"levelo://app?vid=4c434a78-92e8-423b-942f-5c940f305e63"},"vehicle_type_id":"4","last_reported":1700766339,"current_range_meters":6000,"station_id":"ce4bhi12rcd13ifvqfp0","pricing_plan_id":"free"},{"bike_id":"ec0ae06a-418c-40e7-bfed-2ce435e44142","system_id":"levelo_inurba_marseille","lat":43.23965,"lon":5.36634,"is_reserved":false,"is_disabled":false,"rental_uris":{"android":"levelo://app?vid=ec0ae06a-418c-40e7-bfed-2ce435e44142","ios":"levelo://app?vid=ec0ae06a-418c-40e7-bfed-2ce435e44142"},"vehicle_type_id":"4","last_reported":1700766339,"current_range_meters":11200,"station_id":"ce4bhi12rcd13ifvqfp0","pricing_plan_id":"free"},{"bike_id":"2c54862c-aff6-45d6-97d9-752ba2ae7638","system_id":"levelo_inurba_marseille","lat":43.239588,"lon":5.366238,"is_reserved":false,"is_disabled":false,"rental_uris":{"android":"levelo://app?vid=2c54862c-aff6-45d6-97d9-752ba2ae7638","ios":"levelo://app?vid=2c54862c-aff6-45d6-97d9-752ba2ae7638"},"vehicle_type_id":"4","last_reported":1700766339,"current_range_meters":2000,"station_id":"ce4bhi12rcd13ifvqfp0","pricing_plan_id":"free"},{"bike_id":"92467384-89bb-4cba-b408-b94f63527936","system_id":"levelo_inurba_marseille","lat":43.239588,"lon":5.366238,"is_reserved":false,"is_disabled":false,"rental_uris":{"android":"levelo://app?vid=92467384-89bb-4cba-b408-b94f63527936","ios":"levelo://app?vid=92467384-89bb-4cba-b408-b94f63527936"},"vehicle_type_id":"4","last_reported":1700766339,"current_range_meters":6400,"station_id":"ce4bhi12rcd13ifvqfp0","pricing_plan_id":"free"},{"bike_id":"74946933-b2b7-48eb-9ae2-890f844b8c5f","system_id":"levelo_inurba_marseille","lat":43.239588,"lon":5.366238,"is_reserved":false,"is_disabled":false,"rental_uris":{"android":"levelo://app?vid=74946933-b2b7-48eb-9ae2-890f844b8c5f","ios":"levelo://app?vid=74946933-b2b7-48eb-9ae2-890f844b8c5f"},"vehicle_type_id":"4","last_reported":1700766339,"current_range_meters":29600,"station_id":"ce4bhi12rcd13ifvqfp0","pricing_plan_id":"free"},{"bike_id":"5af44420-f288-487d-abf9-5f4de05fc437","system_id":"levelo_inurba_marseille","lat":43.239588,"lon":5.366238,"is_reserved":false,"is_disabled":false,"rental_uris":{"android":"levelo://app?vid=5af44420-f288-487d-abf9-5f4de05fc437","ios":"levelo://app?vid=5af44420-f288-487d-abf9-5f4de05fc437"},"vehicle_type_id":"4","last_reported":1700766339,"current_range_meters":28800,"station_id":"ce4bhi12rcd13ifvqfp0","pricing_plan_id":"free"},{"bike_id":"8b9f999b-91a0-4a46-b30d-7e729987032d","system_id":"levelo_inurba_marseille","lat":43.241782,"lon":5.397261,"is_reserved":false,"is_disabled":false,"rental_uris":{"android":"levelo://app?vid=8b9f999b-91a0-4a46-b30d-7e729987032d","ios":"levelo://app?vid=8b9f999b-91a0-4a46-b30d-7e729987032d"},"vehicle_type_id":"4","last_reported":1700766339,"current_range_meters":20800,"station_id":"ce4bhn12rcd13ifvqgpg","pricing_plan_id":"free"},{"bike_id":"375a79a5-1b3f-4595-959f-964b1b9945f2","system_id":"levelo_inurba_marseille","lat":43.24176,"lon":5.39731,"is_reserved":false,"is_disabled":false,"rental_uris":{"android":"levelo://app?vid=375a79a5-1b3f-4595-959f-964b1b9945f2","ios":"levelo://app?vid=375a79a5-1b3f-4595-959f-964b1b9945f2"},"vehicle_type_id":"4","last_reported":1700766339,"current_range_meters":6400,"station_id":"ce4bhn12rcd13ifvqgpg","pricing_plan_id":"free"},{"bike_id":"425d3457-d7b1-4bd6-af05-1b26bfd08345","system_id":"levelo_inurba_marseille","lat":43.231923,"lon":5.355545,"is_reserved":false,"is_disabled":false,"rental_uris":{"android":"levelo://app?vid=425d3457-d7b1-4bd6-af05-1b26bfd08345","ios":"levelo://app?vid=425d3457-d7b1-4bd6-af05-1b26bfd08345"},"vehicle_type_id":"4","last_reported":1700766339,"current_range_meters":30400,"station_id":"ce4bhu92rcd13ifvqi70","pricing_plan_id":"free"},{"bike_id":"c3facbb7-06a8-412a-9a80-52aeb0503e18","system_id":"levelo_inurba_marseille","lat":43.231923,"lon":5.355545,"is_reserved":false,"is_disabled":false,"rental_uris":{"android":"levelo://app?vid=c3facbb7-06a8-412a-9a80-52aeb0503e18","ios":"levelo://app?vid=c3facbb7-06a8-412a-9a80-52aeb0503e18"},"vehicle_type_id":"4","last_reported":1700766339,"current_range_meters":30400,"station_id":"ce4bhu92rcd13ifvqi70","pricing_plan_id":"free"},{"bike_id":"15098f4a-57e6-48e8-846b-97856909e7a5","system_id":"levelo_inurba_marseille","lat":43.231919,"lon":5.355532,"is_reserved":false,"is_disabled":false,"rental_uris":{"android":"levelo://app?vid=15098f4a-57e6-48e8-846b-97856909e7a5","ios":"levelo://app?vid=15098f4a-57e6-48e8-846b-97856909e7a5"},"vehicle_type_id":"4","last_reported":1700766339,"current_range_meters":20000,"station_id":"ce4bhu92rcd13ifvqi70","pricing_plan_id":"free"},{"bike_id":"aeb874ed-5a67-45f7-94cd-1c1e110219bc","system_id":"levelo_inurba_marseille","lat":43.231919,"lon":5.355532,"is_reserved":false,"is_disabled":false,"rental_uris":{"android":"levelo://app?vid=aeb874ed-5a67-45f7-94cd-1c1e110219bc","ios":"levelo://app?vid=aeb874ed-5a67-45f7-94cd-1c1e110219bc"},"vehicle_type_id":"4","last_reported":1700766339,"current_range_meters":31200,"station_id":"ce4bhu92rcd13ifvqi70","pricing_plan_id":"free"},{"bike_id":"0d65e76d-9880-4e2c-a36d-b8425499c90e","system_id":"levelo_inurba_marseille","lat":43.231793,"lon":5.400044,"is_reserved":false,"is_disabled":false,"rental_uris":{"android":"levelo://app?vid=0d65e76d-9880-4e2c-a36d-b8425499c90e","ios":"levelo://app?vid=0d65e76d-9880-4e2c-a36d-b8425499c90e"},"vehicle_type_id":"4","last_reported":1700766339,"current_range_meters":21600,"station_id":"ce4bhn12rcd13ifvqgqg","pricing_plan_id":"free"},{"bike_id":"9c2bf53e-bbf1-4349-bc38-b78a298e6986","system_id":"levelo_inurba_marseille","lat":43.231793,"lon":5.400044,"is_reserved":false,"is_disabled":false,"rental_uris":{"android":"levelo://app?vid=9c2bf53e-bbf1-4349-bc38-b78a298e6986","ios":"levelo://app?vid=9c2bf53e-bbf1-4349-bc38-b78a298e6986"},"vehicle_type_id":"4","last_reported":1700766339,"current_range_meters":18800,"station_id":"ce4bhn12rcd13ifvqgqg","pricing_plan_id":"free"},{"bike_id":"42b71bb2-3e67-452d-bdb5-18d18eec3243","system_id":"levelo_inurba_marseille","lat":43.231794,"lon":5.400052,"is_reserved":false,"is_disabled":false,"rental_uris":{"android":"levelo://app?vid=42b71bb2-3e67-452d-bdb5-18d18eec3243","ios":"levelo://app?vid=42b71bb2-3e67-452d-bdb5-18d18eec3243"},"vehicle_type_id":"4","last_reported":1700766339,"current_range_meters":26800,"station_id":"ce4bhn12rcd13ifvqgqg","pricing_plan_id":"free"},{"bike_id":"ba6d79c0-6a21-43e4-a3e7-c61b28164239","system_id":"levelo_inurba_marseille","lat":43.231793,"lon":5.400044,"is_reserved":false,"is_disabled":false,"rental_uris":{"android":"levelo://app?vid=ba6d79c0-6a21-43e4-a3e7-c61b28164239","ios":"levelo://app?vid=ba6d79c0-6a21-43e4-a3e7-c61b28164239"},"vehicle_type_id":"4","last_reported":1700766339,"current_range_meters":400,"station_id":"ce4bhn12rcd13ifvqgqg","pricing_plan_id":"free"},{"bike_id":"62d0079e-a6d1-4abb-8137-335ef37b5185","system_id":"levelo_inurba_marseille","lat":43.2318,"lon":5.39981,"is_reserved":false,"is_disabled":false,"rental_uris":{"android":"levelo://app?vid=62d0079e-a6d1-4abb-8137-335ef37b5185","ios":"levelo://app?vid=62d0079e-a6d1-4abb-8137-335ef37b5185"},"vehicle_type_id":"4","last_reported":1700766339,"current_range_meters":24800,"station_id":"ce4bhn12rcd13ifvqgqg","pricing_plan_id":"free"},{"bike_id":"0781b68f-f7ce-4993-97f3-a63d398915f6","system_id":"levelo_inurba_marseille","lat":43.231793,"lon":5.400044,"is_reserved":false,"is_disabled":false,"rental_uris":{"android":"levelo://app?vid=0781b68f-f7ce-4993-97f3-a63d398915f6","ios":"levelo://app?vid=0781b68f-f7ce-4993-97f3-a63d398915f6"},"vehicle_type_id":"4","last_reported":1700766339,"current_range_meters":10800,"station_id":"ce4bhn12rcd13ifvqgqg","pricing_plan_id":"free"},{"bike_id":"b1ff8538-de6b-4362-8b24-b9288098290c","system_id":"levelo_inurba_marseille","lat":43.231793,"lon":5.400044,"is_reserved":false,"is_disabled":false,"rental_uris":{"android":"levelo://app?vid=b1ff8538-de6b-4362-8b24-b9288098290c","ios":"levelo://app?vid=b1ff8538-de6b-4362-8b24-b9288098290c"},"vehicle_type_id":"4","last_reported":1700766339,"current_range_meters":14000,"station_id":"ce4bhn12rcd13ifvqgqg","pricing_plan_id":"free"},{"bike_id":"602c7bd9-ec05-4124-8420-3033368d41cb","system_id":"levelo_inurba_marseille","lat":43.231794,"lon":5.400052,"is_reserved":false,"is_disabled":false,"rental_uris":{"android":"levelo://app?vid=602c7bd9-ec05-4124-8420-3033368d41cb","ios":"levelo://app?vid=602c7bd9-ec05-4124-8420-3033368d41cb"},"vehicle_type_id":"4","last_reported":1700766339,"current_range_meters":14000,"station_id":"ce4bhn12rcd13ifvqgqg","pricing_plan_id":"free"},{"bike_id":"df7e6c4d-a3bc-48a2-a471-a72390a84d34","system_id":"levelo_inurba_marseille","lat":43.231793,"lon":5.400044,"is_reserved":false,"is_disabled":false,"rental_uris":{"android":"levelo://app?vid=df7e6c4d-a3bc-48a2-a471-a72390a84d34","ios":"levelo://app?vid=df7e6c4d-a3bc-48a2-a471-a72390a84d34"},"vehicle_type_id":"4","last_reported":1700766339,"current_range_meters":26000,"station_id":"ce4bhn12rcd13ifvqgqg","pricing_plan_id":"free"},{"bike_id":"bfef33e7-e071-4d70-b1cc-05a6160336e4","system_id":"levelo_inurba_marseille","lat":43.231793,"lon":5.400044,"is_reserved":false,"is_disabled":false,"rental_uris":{"android":"levelo://app?vid=bfef33e7-e071-4d70-b1cc-05a6160336e4","ios":"levelo://app?vid=bfef33e7-e071-4d70-b1cc-05a6160336e4"},"vehicle_type_id":"4","last_reported":1700766339,"current_range_meters":23600,"station_id":"ce4bhn12rcd13ifvqgqg","pricing_plan_id":"free"},{"bike_id":"d3b8a9d5-8f94-4141-9ce6-0e001b35d74c","system_id":"levelo_inurba_marseille","lat":43.231793,"lon":5.400044,"is_reserved":false,"is_disabled":false,"rental_uris":{"android":"levelo://app?vid=d3b8a9d5-8f94-4141-9ce6-0e001b35d74c","ios":"levelo://app?vid=d3b8a9d5-8f94-4141-9ce6-0e001b35d74c"},"vehicle_type_id":"4","last_reported":1700766339,"current_range_meters":0,"station_id":"ce4bhn12rcd13ifvqgqg","pricing_plan_id":"free"}]}}