{"last_updated":1736431696,"ttl":60,"version":"2.2","data":{"bikes":[{"bike_id":"502ea0ff-d435-4e36-ba3d-0d03eaa55dbc","system_id":"levelo_inurba_marseille","lat":43.298,"lon":5.38084,"is_reserved":false,"is_disabled":false,"rental_uris":{"android":"levelo://app?vid=502ea0ff-d435-4e36-ba3d-0d03eaa55dbc","ios":"levelo://app?vid=502ea0ff-d435-4e36-ba3d-0d03eaa55dbc"},"vehicle_type_id":"4","last_reported":1736431696,"current_range_meters":32000,"station_id":"ce4bgip2rcd13ifvqbb0","pricing_plan_id":"cebpf4jnsgd1na2vs0mg"},{"bike_id":"dd9e4985-c802-454b-a5ad-227d583dd231","system_id":"levelo_inurba_marseille","lat":43.22937,"lon":5.35384,"is_reserved":false,"is_disabled":false,"rental_uris":{"android":"levelo://app?vid=dd9e4985-c802-454b-a5ad-227d583dd231","ios":"levelo://app?vid=dd9e4985-c802-454b-a5ad-227d583dd231"},"vehicle_type_id":"4","last_reported":1736431696,"current_range_meters":18800,"station_id":"cpo3532slgdg3j2ikp40","pricing_plan_id":"cebpf4jnsgd1na2vs0mg"},{"bike_id":"75d87b10-e255-43ff-b26a-cb295f47d643","system_id":"levelo_inurba_marseille","lat":43.2731,"lon":5.39095,"is_reserved":false,"is_disabled":false,"rental_uris":{"android":"levelo://app?vid=75d87b10-e255-43ff-b26a-cb295f47d643","ios":"levelo://app?vid=75d87b10-e255-43ff-b26a-cb295f47d643"},"vehicle_type_id":"4","last_reported":1736431696,"current_range_meters":30800,"station_id":"ce4bhgp2rcd13ifvqfe0","pricing_plan_id":"cebpf4jnsgd1na2vs0mg"},{"bike_id":"3d4cf351-e861-4a0a-aa76-5e2a06bb0d14","system_id":"levelo_inurba_marseille","lat":43.26944,"lon":5.38639,"is_reserved":false,"is_disabled":false,"rental_uris":{"android":"levelo://app?vid=3d4cf351-e861-4a0a-aa76-5e2a06bb0d14","ios":"levelo://app?vid=3d4cf351-e861-4a0a-aa76-5e2a06bb0d14"},"vehicle_type_id":"4","last_reported":1736431696,"current_range_meters":27600,"station_id":"ce4bhh92rcd13ifvqfh0","pricing_plan_id":"cebpf4jnsgd1na2vs0mg"},{"bike_id":"e3ed715f-8540-4a0c-8d1a-84fadaf0dd0f","system_id":"levelo_inurba_marseille","lat":43.314725,"lon":5.373117,"is_reserved":false,"is_disabled":false,"rental_uris":{"android":"levelo://app?vid=e3ed715f-8540-4a0c-8d1a-84fadaf0dd0f","ios":"levelo://app?vid=e3ed715f-8540-4a0c-8d1a-84fadaf0dd0f"},"vehicle_type_id":"4","last_reported":1736431696,"current_range_meters":38000,"station_id":"ce4bgt12rcd13ifvqcd0","pricing_plan_id":"cebpf4jnsgd1na2vs0mg"},{"bike_id":"079a2489-d193-414b-8b47-82e93bfb4b65","system_id":"levelo_inurba_marseille","lat":43.2889,"lon":5.37999,"is_reserved":false,"is_disabled":false,"rental_uris":{"android":"levelo://app?vid=079a2489-d193-414b-8b47-82e93bfb4b65","ios":"levelo://app?vid=079a2489-d193-414b-8b47-82e93bfb4b65"},"vehicle_type_id":"4","last_reported":1736431696,"current_range_meters":32400,"station_id":"","pricing_plan_id":"cebpf4jnsgd1na2vs0mg"},{"bike_id":"38b313e7-9a2f-452f-bdb8-d453ae7237a3","system_id":"levelo_inurba_marseille","lat":43.27496,"lon":5.42458,"is_reserved":false,"is_disabled":false,"rental_uris":{"android":"levelo://app?vid=38b313e7-9a2f-452f-bdb8-d453ae7237a3","ios":"levelo://app?vid=38b313e7-9a2f-452f-bdb8-d453ae7237a3"},"vehicle_type_id":"4","last_reported":1736431696,"current_range_meters":38400,"station_id":"ce4bhn92rcd13ifvqgrg","pricing_plan_id":"cebpf4jnsgd1na2vs0mg"},{"bike_id":"4db8df72-e91e-4df3-bbfd-430afaeb23e0","system_id":"levelo_inurba_marseille","lat":43.26948,"lon":5.38666,"is_reserved":false,"is_disabled":false,"rental_uris":{"android":"levelo://app?vid=4db8df72-e91e-4df3-bbfd-430afaeb23e0","ios":"levelo://app?vid=4db8df72-e91e-4df3-bbfd-430afaeb23e0"},"vehicle_type_id":"4","last_reported":1736431696,"current_range_meters":38800,"station_id":"ce4bhh92rcd13ifvqfh0","pricing_plan_id":"cebpf4jnsgd1na2vs0mg"},{"bike_id":"cb489c6a-2371-4da3-be4a-5c64a7054d0b","system_id":"levelo_inurba_marseille","lat":43.32478,"lon":5.36569,"is_reserved":false,"is_disabled":false,"rental_uris":{"android":"levelo://app?vid=cb489c6a-2371-4da3-be4a-5c64a7054d0b","ios":"levelo://app?vid=cb489c6a-2371-4da3-be4a-5c64a7054d0b"},"vehicle_type_id":"4","last_reported":1736431696,"current_range_meters":27600,"station_id":"ce4bhs12rcd13ifvqhvg","pricing_plan_id":"cebpf4jnsgd1na2vs0mg"},{"bike_id":"c25da445-2bd6-4668-92d8-67b9db836116","system_id":"levelo_inurba_marseille","lat":43.30592,"lon":5.37206,"is_reserved":false,"is_disabled":false,"rental_uris":{"android":"levelo://app?vid=c25da445-2bd6-4668-92d8-67b9db836116","ios":"levelo://app?vid=c25da445-2bd6-4668-92d8-67b9db836116"},"vehicle_type_id":"4","last_reported":1736431696,"current_range_meters":39200,"station_id":"ce4bgqh2rcd13ifvqc4g","pricing_plan_id":"cebpf4jnsgd1na2vs0mg"},{"bike_id":"04ec267b-172c-4ae8-9840-d2882657cc57","system_id":"levelo_inurba_marseille","lat":43.27497,"lon":5.42461,"is_reserved":false,"is_disabled":false,"rental_uris":{"android":"levelo://app?vid=04ec267b-172c-4ae8-9840-d2882657cc57","ios":"levelo://app?vid=04ec267b-172c-4ae8-9840-d2882657cc57"},"vehicle_type_id":"4","last_reported":1736431696,"current_range_meters":33600,"station_id":"ce4bhn92rcd13ifvqgrg","pricing_plan_id":"cebpf4jnsgd1na2vs0mg"},{"bike_id":"051ee3d7-17a2-401e-9bd5-08261edf66ab","system_id":"levelo_inurba_marseille","lat":43.25928,"lon":5.40894,"is_reserved":false,"is_disabled":false,"rental_uris":{"android":"levelo://app?vid=051ee3d7-17a2-401e-9bd5-08261edf66ab","ios":"levelo://app?vid=051ee3d7-17a2-401e-9bd5-08261edf66ab"},"vehicle_type_id":"4","last_reported":1736431696,"current_range_meters":22000,"station_id":"ce4bhm92rcd13ifvqglg","pricing_plan_id":"cebpf4jnsgd1na2vs0mg"},{"bike_id":"b5883893-bf20-4922-aca2-f937c9d39041","system_id":"levelo_inurba_marseille","lat":43.30281,"lon":5.37734,"is_reserved":false,"is_disabled":false,"rental_uris":{"android":"levelo://app?vid=b5883893-bf20-4922-aca2-f937c9d39041","ios":"levelo://app?vid=b5883893-bf20-4922-aca2-f937c9d39041"},"vehicle_type_id":"4","last_reported":1736431696,"current_range_meters":38800,"station_id":"ce4bguh2rcd13ifvqcj0","pricing_plan_id":"cebpf4jnsgd1na2vs0mg"},{"bike_id":"4254cdef-cbfe-49de-91a0-fbe5f8f57d8d","system_id":"levelo_inurba_marseille","lat":43.26956,"lon":5.38642,"is_reserved":false,"is_disabled":false,"rental_uris":{"android":"levelo://app?vid=4254cdef-cbfe-49de-91a0-fbe5f8f57d8d","ios":"levelo://app?vid=4254cdef-cbfe-49de-91a0-fbe5f8f57d8d"},"vehicle_type_id":"4","last_reported":1736431696,"current_range_meters":26800,"station_id":"ce4bhh92rcd13ifvqfh0","pricing_plan_id":"cebpf4jnsgd1na2vs0mg"},{"bike_id":"4f439c6b-4554-4213-8983-cec78740d5f8","system_id":"levelo_inurba_marseille","lat":43.23194,"lon":5.35554,"is_reserved":false,"is_disabled":false,"rental_uris":{"android":"levelo://app?vid=4f439c6b-4554-4213-8983-cec78740d5f8","ios":"levelo://app?vid=4f439c6b-4554-4213-8983-cec78740d5f8"},"vehicle_type_id":"4","last_reported":1736431696,"current_range_meters":24400,"station_id":"ce4bhu92rcd13ifvqi70","pricing_plan_id":"cebpf4jnsgd1na2vs0mg"},{"bike_id":"ece82557-6569-4215-9027-5b44a37fe52e","system_id":"levelo_inurba_marseille","lat":43.29143,"lon":5.38086,"is_reserved":false,"is_disabled":true,"rental_uris":{"android":"levelo://app?vid=ece82557-6569-4215-9027-5b44a37fe52e","ios":"levelo://app?vid=ece82557-6569-4215-9027-5b44a37fe52e"},"vehicle_type_id":"4","last_reported":1736431696,"current_range_meters":0,"station_id":"","pricing_plan_id":"cebpf4jnsgd1na2vs0mg"},{"bike_id":"27867ec6-dc38-4e93-906a-9fa049ef4236","system_id":"levelo_inurba_marseille","lat":43.30554,"lon":5.36697,"is_reserved":false,"is_disabled":false,"rental_uris":{"android":"levelo://app?vid=27867ec6-dc38-4e93-906a-9fa049ef4236","ios":"levelo://app?vid=27867ec6-dc38-4e93-906a-9fa049ef4236"},"vehicle_type_id":"4","last_reported":1736431696,"current_range_meters":38800,"station_id":"ce4bgrp2rcd13ifvqc9g","pricing_plan_id":"cebpf4jnsgd1na2vs0mg"},{"bike_id":"dbf69a6d-88c5-42d2-b271-06c7a122ec44","system_id":"levelo_inurba_marseille","lat":43.2991,"lon":5.37464,"is_reserved":false,"is_disabled":true,"rental_uris":{"android":"levelo://app?vid=dbf69a6d-88c5-42d2-b271-06c7a122ec44","ios":"levelo://app?vid=dbf69a6d-88c5-42d2-b271-06c7a122ec44"},"vehicle_type_id":"4","last_reported":1736431696,"current_range_meters":0,"station_id":"ce4bgjh2rcd13ifvqbg0","pricing_plan_id":"cebpf4jnsgd1na2vs0mg"},{"bike_id":"e956986c-dd18-4b6a-a0db-78eef13e7010","system_id":"levelo_inurba_marseille","lat":43.29886,"lon":5.38896,"is_reserved":false,"is_disabled":false,"rental_uris":{"android":"levelo://app?vid=e956986c-dd18-4b6a-a0db-78eef13e7010","ios":"levelo://app?vid=e956986c-dd18-4b6a-a0db-78eef13e7010"},"vehicle_type_id":"4","last_reported":1736431696,"current_range_meters":9600,"station_id":"ce4bh392rcd13ifvqdl0","pricing_plan_id":"cebpf4jnsgd1na2vs0mg"},{"bike_id":"a59b6704-893a-4742-8d35-2cd53b94f7df","system_id":"levelo_inurba_marseille","lat":43.29971,"lon":5.38501,"is_reserved":false,"is_disabled":false,"rental_uris":{"android":"levelo://app?vid=a59b6704-893a-4742-8d35-2cd53b94f7df","ios":"levelo://app?vid=a59b6704-893a-4742-8d35-2cd53b94f7df"},"vehicle_type_id":"4","last_reported":1736431696,"current_range_meters":26000,"station_id":"ce4bgj92rcd13ifvqbd0","pricing_plan_id":"cebpf4jnsgd1na2vs0mg"},{"bike_id":"e5ae5768-3dcb-4f0f-ba65-26b56a33ed41","system_id":"levelo_inurba_marseille","lat":43.24079,"lon":5.3775,"is_reserved":false,"is_disabled":true,"rental_uris":{"android":"levelo://app?vid=e5ae5768-3dcb-4f0f-ba65-26b56a33ed41","ios":"levelo://app?vid=e5ae5768-3dcb-4f0f-ba65-26b56a33ed41"},"vehicle_type_id":"4","last_reported":1736431696,"current_range_meters":1200,"station_id":"ce4bhnp2rcd13ifvqgvg","pricing_plan_id":"cebpf4jnsgd1na2vs0mg"},{"bike_id":"269e3f58-dd4c-495c-a072-9614a2e0d44a","system_id":"levelo_inurba_marseille","lat":43.3095,"lon":5.39079,"is_reserved":false,"is_disabled":false,"rental_uris":{"android":"levelo://app?vid=269e3f58-dd4c-495c-a072-9614a2e0d44a","ios":"levelo://app?vid=269e3f58-dd4c-495c-a072-9614a2e0d44a"},"vehicle_type_id":"4","last_reported":1736431696,"current_range_meters":35200,"station_id":"ce4bgup2rcd13ifvqco0","pricing_plan_id":"cebpf4jnsgd1na2vs0mg"},{"bike_id":"004c2ac5-7f25-4e48-8a80-9a02537f6ba6","system_id":"levelo_inurba_marseille","lat":43.32115,"lon":5.36775,"is_reserved":false,"is_disabled":false,"rental_uris":{"android":"levelo://app?vid=004c2ac5-7f25-4e48-8a80-9a02537f6ba6","ios":"levelo://app?vid=004c2ac5-7f25-4e48-8a80-9a02537f6ba6"},"vehicle_type_id":"4","last_reported":1736431696,"current_range_meters":12000,"station_id":"ce4bhrh2rcd13ifvqhug","pricing_plan_id":"cebpf4jnsgd1na2vs0mg"},{"bike_id":"e9ca9ffc-62cf-4744-95c2-12b0950f0bdc","system_id":"levelo_inurba_marseille","lat":43.27307,"lon":5.39116,"is_reserved":false,"is_disabled":false,"rental_uris":{"android":"levelo://app?vid=e9ca9ffc-62cf-4744-95c2-12b0950f0bdc","ios":"levelo://app?vid=e9ca9ffc-62cf-4744-95c2-12b0950f0bdc"},"vehicle_type_id":"4","last_reported":1736431696,"current_range_meters":23200,"station_id":"ce4bhgp2rcd13ifvqfe0","pricing_plan_id":"cebpf4jnsgd1na2vs0mg"},{"bike_id":"3d466fd4-f0cf-4dd5-af95-1b0ba0b8ab0b","system_id":"levelo_inurba_marseille","lat":43.31167,"lon":5.38707,"is_reserved":false,"is_disabled":false,"rental_uris":{"android":"levelo://app?vid=3d466fd4-f0cf-4dd5-af95-1b0ba0b8ab0b","ios":"levelo://app?vid=3d466fd4-f0cf-4dd5-af95-1b0ba0b8ab0b"},"vehicle_type_id":"4","last_reported":1736431696,"current_range_meters":38800,"station_id":"ce4bgv12rcd13ifvqcp0","pricing_plan_id":"cebpf4jnsgd1na2vs0mg"},{"bike_id":"acf3df7b-f083-4692-997a-4f534a4a5e66","system_id":"levelo_inurba_marseille","lat":43.2871,"lon":5.37931,"is_reserved":false,"is_disabled":false,"rental_uris":{"android":"levelo://app?vid=acf3df7b-f083-4692-997a-4f534a4a5e66","ios":"levelo://app?vid=acf3df7b-f083-4692-997a-4f534a4a5e66"},"vehicle_type_id":"4","last_reported":1736431696,"current_range_meters":32000,"station_id":"ce4bh9p2rcd13ifvqec0","pricing_plan_id":"cebpf4jnsgd1na2vs0mg"},{"bike_id":"99ed20f4-03db-4a39-a00a-188ecb3fb63a","system_id":"levelo_inurba_marseille","lat":43.23138,"lon":5.43713,"is_reserved":false,"is_disabled":false,"rental_uris":{"android":"levelo://app?vid=99ed20f4-03db-4a39-a00a-188ecb3fb63a","ios":"levelo://app?vid=99ed20f4-03db-4a39-a00a-188ecb3fb63a"},"vehicle_type_id":"4","last_reported":1736431696,"current_range_meters":38800,"station_id":"ce4bhmp2rcd13ifvqgog","pricing_plan_id":"cebpf4jnsgd1na2vs0mg"},{"bike_id":"08952b45-9dad-4aee-9b86-be3cfc6e706f","system_id":"levelo_inurba_marseille","lat":43.24182,"lon":5.3973,"is_reserved":false,"is_disabled":false,"rental_uris":{"android":"levelo://app?vid=08952b45-9dad-4aee-9b86-be3cfc6e706f","ios":"levelo://app?vid=08952b45-9dad-4aee-9b86-be3cfc6e706f"},"vehicle_type_id":"4","last_reported":1736431696,"current_range_meters":21600,"station_id":"ce4bhn12rcd13ifvqgpg","pricing_plan_id":"cebpf4jnsgd1na2vs0mg"},{"bike_id":"8716db54-126d-408a-8960-149e8432745d","system_id":"levelo_inurba_marseille","lat":43.25904,"lon":5.40921,"is_reserved":false,"is_disabled":false,"rental_uris":{"android":"levelo://app?vid=8716db54-126d-408a-8960-149e8432745d","ios":"levelo://app?vid=8716db54-126d-408a-8960-149e8432745d"},"vehicle_type_id":"4","last_reported":1736431696,"current_range_meters":34800,"station_id":"ce4bhm92rcd13ifvqglg","pricing_plan_id":"cebpf4jnsgd1na2vs0mg"},{"bike_id":"c49519c8-4737-4982-a5ea-22027ed0c6c1","system_id":"levelo_inurba_marseille","lat":43.29622,"lon":5.37171,"is_reserved":false,"is_disabled":false,"rental_uris":{"android":"levelo://app?vid=c49519c8-4737-4982-a5ea-22027ed0c6c1","ios":"levelo://app?vid=c49519c8-4737-4982-a5ea-22027ed0c6c1"},"vehicle_type_id":"4","last_reported":1736431696,"current_range_meters":33200,"station_id":"ce4bgnh2rcd13ifvqc0g","pricing_plan_id":"cebpf4jnsgd1na2vs0mg"},{"bike_id":"c75d4175-c9eb-4dc6-a6fe-60d1e39a072b","system_id":"levelo_inurba_marseille","lat":43.2742,"lon":5.39412,"is_reserved":false,"is_disabled":false,"rental_uris":{"android":"levelo://app?vid=c75d4175-c9eb-4dc6-a6fe-60d1e39a072b","ios":"levelo://app?vid=c75d4175-c9eb-4dc6-a6fe-60d1e39a072b"},"vehicle_type_id":"4","last_reported":1736431696,"current_range_meters":32000,"station_id":"ce4bhdp2rcd13ifvqf20","pricing_plan_id":"cebpf4jnsgd1na2vs0mg"},{"bike_id":"c59c87e6-421d-4251-89bb-d94aa90ce9ad","system_id":"levelo_inurba_marseille","lat":43.23151,"lon":5.43715,"is_reserved":false,"is_disabled":false,"rental_uris":{"android":"levelo://app?vid=c59c87e6-421d-4251-89bb-d94aa90ce9ad","ios":"levelo://app?vid=c59c87e6-421d-4251-89bb-d94aa90ce9ad"},"vehicle_type_id":"4","last_reported":1736431696,"current_range_meters":38800,"station_id":"ce4bhmp2rcd13ifvqgog","pricing_plan_id":"cebpf4jnsgd1na2vs0mg"},{"bike_id":"3dcc52e8-133c-4a5e-813a-cb4267f687c6","system_id":"levelo_inurba_marseille","lat":43.29677,"lon":5.37304,"is_reserved":false,"is_disabled":false,"rental_uris":{"android":"levelo://app?vid=3dcc52e8-133c-4a5e-813a-cb4267f687c6","ios":"levelo://app?vid=3dcc52e8-133c-4a5e-813a-cb4267f687c6"},"vehicle_type_id":"4","last_reported":1736431696,"current_range_meters":38000,"station_id":"ce4bgk12rcd13ifvqbj0","pricing_plan_id":"cebpf4jnsgd1na2vs0mg"},{"bike_id":"50f8ee15-cb32-4521-b4fa-58b41ff9f783","system_id":"levelo_inurba_marseille","lat":43.27493,"lon":5.42453,"is_reserved":false,"is_disabled":false,"rental_uris":{"android":"levelo://app?vid=50f8ee15-cb32-4521-b4fa-58b41ff9f783","ios":"levelo://app?vid=50f8ee15-cb32-4521-b4fa-58b41ff9f783"},"vehicle_type_id":"4","last_reported":1736431696,"current_range_meters":19200,"station_id":"ce4bhn92rcd13ifvqgrg","pricing_plan_id":"cebpf4jnsgd1na2vs0mg"},{"bike_id":"54c8f4de-0cf1-4e04-bd51-76ba59816efa","system_id":"levelo_inurba_marseille","lat":43.31181,"lon":5.38736,"is_reserved":false,"is_disabled":false,"rental_uris":{"android":"levelo://app?vid=54c8f4de-0cf1-4e04-bd51-76ba59816efa","ios":"levelo://app?vid=54c8f4de-0cf1-4e04-bd51-76ba59816efa"},"vehicle_type_id":"4","last_reported":1736431696,"current_range_meters":25600,"station_id":"ce4bgv12rcd13ifvqcp0","pricing_plan_id":"cebpf4jnsgd1na2vs0mg"},{"bike_id":"629554df-b9ae-411c-bdc3-6495f5d1b020","system_id":"levelo_inurba_marseille","lat":43.28475,"lon":5.38415,"is_reserved":false,"is_disabled":false,"rental_uris":{"android":"levelo://app?vid=629554df-b9ae-411c-bdc3-6495f5d1b020","ios":"levelo://app?vid=629554df-b9ae-411c-bdc3-6495f5d1b020"},"vehicle_type_id":"4","last_reported":1736431696,"current_range_meters":8400,"station_id":"ce4bh512rcd13ifvqe3g","pricing_plan_id":"cebpf4jnsgd1na2vs0mg"},{"bike_id":"6fa4a0b7-3bc7-4cab-82aa-608d21b68d70","system_id":"levelo_inurba_marseille","lat":43.330194,"lon":5.390503,"is_reserved":false,"is_disabled":false,"rental_uris":{"android":"levelo://app?vid=6fa4a0b7-3bc7-4cab-82aa-608d21b68d70","ios":"levelo://app?vid=6fa4a0b7-3bc7-4cab-82aa-608d21b68d70"},"vehicle_type_id":"4","last_reported":1736431696,"current_range_meters":38000,"station_id":"ce4bhr92rcd13ifvqhrg","pricing_plan_id":"cebpf4jnsgd1na2vs0mg"},{"bike_id":"1ddb9a9e-3843-4e4c-a499-4810817c9bef","system_id":"levelo_inurba_marseille","lat":43.27501,"lon":5.42448,"is_reserved":false,"is_disabled":false,"rental_uris":{"android":"levelo://app?vid=1ddb9a9e-3843-4e4c-a499-4810817c9bef","ios":"levelo://app?vid=1ddb9a9e-3843-4e4c-a499-4810817c9bef"},"vehicle_type_id":"4","last_reported":1736431696,"current_range_meters":18800,"station_id":"ce4bhn92rcd13ifvqgrg","pricing_plan_id":"cebpf4jnsgd1na2vs0mg"},{"bike_id":"67eebbdd-1551-4992-9741-a866f96bf22f","system_id":"levelo_inurba_marseille","lat":43.28353,"lon":5.3811,"is_reserved":false,"is_disabled":false,"rental_uris":{"android":"levelo://app?vid=67eebbdd-1551-4992-9741-a866f96bf22f","ios":"levelo://app?vid=67eebbdd-1551-4992-9741-a866f96bf22f"},"vehicle_type_id":"4","last_reported":1736431696,"current_range_meters":12800,"station_id":"ce4bh412rcd13ifvqdr0","pricing_plan_id":"cebpf4jnsgd1na2vs0mg"},{"bike_id":"5856741a-45dd-4bee-b5e7-532602247372","system_id":"levelo_inurba_marseille","lat":43.29308,"lon":5.37172,"is_reserved":false,"is_disabled":false,"rental_uris":{"android":"levelo://app?vid=5856741a-45dd-4bee-b5e7-532602247372","ios":"levelo://app?vid=5856741a-45dd-4bee-b5e7-532602247372"},"vehicle_type_id":"4","last_reported":1736431696,"current_range_meters":28800,"station_id":"ce4bgh92rcd13ifvqb40","pricing_plan_id":"cebpf4jnsgd1na2vs0mg"},{"bike_id":"86a34a90-c113-4686-8d24-6b16fb9cdabf","system_id":"levelo_inurba_marseille","lat":43.28973,"lon":5.37839,"is_reserved":false,"is_disabled":false,"rental_uris":{"android":"levelo://app?vid=86a34a90-c113-4686-8d24-6b16fb9cdabf","ios":"levelo://app?vid=86a34a90-c113-4686-8d24-6b16fb9cdabf"},"vehicle_type_id":"4","last_reported":1736431696,"current_range_meters":39200,"station_id":"ce4bh9p2rcd13ifvqed0","pricing_plan_id":"cebpf4jnsgd1na2vs0mg"},{"bike_id":"64b15e4f-4089-45af-9b53-9a7fa82abf72","system_id":"levelo_inurba_marseille","lat":43.28429,"lon":5.34995,"is_reserved":false,"is_disabled":false,"rental_uris":{"android":"levelo://app?vid=64b15e4f-4089-45af-9b53-9a7fa82abf72","ios":"levelo://app?vid=64b15e4f-4089-45af-9b53-9a7fa82abf72"},"vehicle_type_id":"4","last_reported":1736431696,"current_range_meters":38000,"station_id":"ce4bhbh2rcd13ifvqepg","pricing_plan_id":"cebpf4jnsgd1na2vs0mg"},{"bike_id":"feeeae9a-4bcc-477a-bc8c-e9391fa8aedd","system_id":"levelo_inurba_marseille","lat":43.29182,"lon":5.39328,"is_reserved":false,"is_disabled":true,"rental_uris":{"android":"levelo://app?vid=feeeae9a-4bcc-477a-bc8c-e9391fa8aedd","ios":"levelo://app?vid=feeeae9a-4bcc-477a-bc8c-e9391fa8aedd"},"vehicle_type_id":"4","last_reported":1736431696,"current_range_meters":0,"station_id":"ce4bh192rcd13ifvqdd0","pricing_plan_id":"cebpf4jnsgd1na2vs0mg"},{"bike_id":"bbb42691-618e-438b-93dc-2acd2c34e075","system_id":"levelo_inurba_marseille","lat":43.30796,"lon":5.435272,"is_reserved":false,"is_disabled":false,"rental_uris":{"android":"levelo://app?vid=bbb42691-618e-438b-93dc-2acd2c34e075","ios":"levelo://app?vid=bbb42691-618e-438b-93dc-2acd2c34e075"},"vehicle_type_id":"4","last_reported":1736431696,"current_range_meters":38800,"station_id":"ce4bhph2rcd13ifvqheg","pricing_plan_id":"cebpf4jnsgd1na2vs0mg"},{"bike_id":"dbe4d7d2-95f9-4a28-b000-f9ac7c3f52eb","system_id":"levelo_inurba_marseille","lat":43.29206,"lon":5.39315,"is_reserved":false,"is_disabled":true,"rental_uris":{"android":"levelo://app?vid=dbe4d7d2-95f9-4a28-b000-f9ac7c3f52eb","ios":"levelo://app?vid=dbe4d7d2-95f9-4a28-b000-f9ac7c3f52eb"},"vehicle_type_id":"4","last_reported":1736431696,"current_range_meters":0,"station_id":"ce4bh192rcd13ifvqdd0","pricing_plan_id":"cebpf4jnsgd1na2vs0mg"},{"bike_id":"bc51dc04-a6f6-46bc-8627-1954fd72d704","system_id":"levelo_inurba_marseille","lat":43.30925,"lon":5.36857,"is_reserved":false,"is_disabled":false,"rental_uris":{"android":"levelo://app?vid=bc51dc04-a6f6-46bc-8627-1954fd72d704","ios":"levelo://app?vid=bc51dc04-a6f6-46bc-8627-1954fd72d704"},"vehicle_type_id":"4","last_reported":1736431696,"current_range_meters":38800,"station_id":"ce4bgn92rcd13ifvqbvg","pricing_plan_id":"cebpf4jnsgd1na2vs0mg"},{"bike_id":"63df5974-88a7-4f6a-ac5d-476949a1ad3a","system_id":"levelo_inurba_marseille","lat":43.337444,"lon":5.374475,"is_reserved":false,"is_disabled":false,"rental_uris":{"android":"levelo://app?vid=63df5974-88a7-4f6a-ac5d-476949a1ad3a","ios":"levelo://app?vid=63df5974-88a7-4f6a-ac5d-476949a1ad3a"},"vehicle_type_id":"4","last_reported":1736431696,"current_range_meters":33600,"station_id":"","pricing_plan_id":"cebpf4jnsgd1na2vs0mg"},{"bike_id":"850c8c32-31ea-45fe-8c48-610c59d15175","system_id":"levelo_inurba_marseille","lat":43.2558,"lon":5.38257,"is_reserved":false,"is_disabled":false,"rental_uris":{"android":"levelo://app?vid=850c8c32-31ea-45fe-8c48-610c59d15175","ios":"levelo://app?vid=850c8c32-31ea-45fe-8c48-610c59d15175"},"vehicle_type_id":"4","last_reported":1736431696,"current_range_meters":39200,"station_id":"ce4bhih2rcd13ifvqfs0","pricing_plan_id":"cebpf4jnsgd1na2vs0mg"},{"bike_id":"bb574482-1966-4a4c-94fd-4f6844db76aa","system_id":"levelo_inurba_marseille","lat":43.25591,"lon":5.38246,"is_reserved":false,"is_disabled":false,"rental_uris":{"android":"levelo://app?vid=bb574482-1966-4a4c-94fd-4f6844db76aa","ios":"levelo://app?vid=bb574482-1966-4a4c-94fd-4f6844db76aa"},"vehicle_type_id":"4","last_reported":1736431696,"current_range_meters":30400,"station_id":"ce4bhih2rcd13ifvqfs0","pricing_plan_id":"cebpf4jnsgd1na2vs0mg"},{"bike_id":"03780aab-b80f-494f-9e35-dca33a2e35f8","system_id":"levelo_inurba_marseille","lat":43.28733,"lon":5.36079,"is_reserved":false,"is_disabled":false,"rental_uris":{"android":"levelo://app?vid=03780aab-b80f-494f-9e35-dca33a2e35f8","ios":"levelo://app?vid=03780aab-b80f-494f-9e35-dca33a2e35f8"},"vehicle_type_id":"4","last_reported":1736431696,"current_range_meters":24400,"station_id":"cki0cbj6b192h4jlfktg","pricing_plan_id":"cebpf4jnsgd1na2vs0mg"},{"bike_id":"4e491390-63a3-4127-bd2a-135d511ec258","system_id":"levelo_inurba_marseille","lat":43.26936,"lon":5.38637,"is_reserved":false,"is_disabled":false,"rental_uris":{"android":"levelo://app?vid=4e491390-63a3-4127-bd2a-135d511ec258","ios":"levelo://app?vid=4e491390-63a3-4127-bd2a-135d511ec258"},"vehicle_type_id":"4","last_reported":1736431696,"current_range_meters":7200,"station_id":"ce4bhh92rcd13ifvqfh0","pricing_plan_id":"cebpf4jnsgd1na2vs0mg"},{"bike_id":"55437ac1-09e4-48b8-a9ad-511e0f43f743","system_id":"levelo_inurba_marseille","lat":43.30589,"lon":5.37218,"is_reserved":false,"is_disabled":false,"rental_uris":{"android":"levelo://app?vid=55437ac1-09e4-48b8-a9ad-511e0f43f743","ios":"levelo://app?vid=55437ac1-09e4-48b8-a9ad-511e0f43f743"},"vehicle_type_id":"4","last_reported":1736431696,"current_range_meters":35600,"station_id":"ce4bgqh2rcd13ifvqc4g","pricing_plan_id":"cebpf4jnsgd1na2vs0mg"},{"bike_id":"07e82d96-2b36-4368-a217-0bee627ae6e1","system_id":"levelo_inurba_marseille","lat":43.30533,"lon":5.36557,"is_reserved":false,"is_disabled":false,"rental_uris":{"android":"levelo://app?vid=07e82d96-2b36-4368-a217-0bee627ae6e1","ios":"levelo://app?vid=07e82d96-2b36-4368-a217-0bee627ae6e1"},"vehicle_type_id":"4","last_reported":1736431696,"current_range_meters":36400,"station_id":"ce4bgs12rcd13ifvqcag","pricing_plan_id":"cebpf4jnsgd1na2vs0mg"},{"bike_id":"e752ded6-6fdb-4c56-b252-c79f0149665e","system_id":"levelo_inurba_marseille","lat":43.26572,"lon":5.39037,"is_reserved":false,"is_disabled":false,"rental_uris":{"android":"levelo://app?vid=e752ded6-6fdb-4c56-b252-c79f0149665e","ios":"levelo://app?vid=e752ded6-6fdb-4c56-b252-c79f0149665e"},"vehicle_type_id":"4","last_reported":1736431696,"current_range_meters":29600,"station_id":"ce4bhe12rcd13ifvqf30","pricing_plan_id":"cebpf4jnsgd1na2vs0mg"},{"bike_id":"a816258e-3246-4099-b421-3c9b784b731d","system_id":"levelo_inurba_marseille","lat":43.24182,"lon":5.39715,"is_reserved":false,"is_disabled":false,"rental_uris":{"android":"levelo://app?vid=a816258e-3246-4099-b421-3c9b784b731d","ios":"levelo://app?vid=a816258e-3246-4099-b421-3c9b784b731d"},"vehicle_type_id":"4","last_reported":1736431696,"current_range_meters":38800,"station_id":"ce4bhn12rcd13ifvqgpg","pricing_plan_id":"cebpf4jnsgd1na2vs0mg"},{"bike_id":"3d5e546e-7667-4073-8981-6abf695038ca","system_id":"levelo_inurba_marseille","lat":43.29812,"lon":5.40403,"is_reserved":false,"is_disabled":false,"rental_uris":{"android":"levelo://app?vid=3d5e546e-7667-4073-8981-6abf695038ca","ios":"levelo://app?vid=3d5e546e-7667-4073-8981-6abf695038ca"},"vehicle_type_id":"4","last_reported":1736431696,"current_range_meters":38800,"station_id":"ce4bh112rcd13ifvqd90","pricing_plan_id":"cebpf4jnsgd1na2vs0mg"},{"bike_id":"4c4b803a-8067-4208-8a52-209170454aea","system_id":"levelo_inurba_marseille","lat":43.30213,"lon":5.39473,"is_reserved":false,"is_disabled":false,"rental_uris":{"android":"levelo://app?vid=4c4b803a-8067-4208-8a52-209170454aea","ios":"levelo://app?vid=4c4b803a-8067-4208-8a52-209170454aea"},"vehicle_type_id":"4","last_reported":1736431696,"current_range_meters":22800,"station_id":"ce4bh0p2rcd13ifvqd70","pricing_plan_id":"cebpf4jnsgd1na2vs0mg"},{"bike_id":"b2f5a796-7933-46f1-9a54-868543f46da7","system_id":"levelo_inurba_marseille","lat":43.23154,"lon":5.43699,"is_reserved":false,"is_disabled":false,"rental_uris":{"android":"levelo://app?vid=b2f5a796-7933-46f1-9a54-868543f46da7","ios":"levelo://app?vid=b2f5a796-7933-46f1-9a54-868543f46da7"},"vehicle_type_id":"4","last_reported":1736431696,"current_range_meters":32400,"station_id":"ce4bhmp2rcd13ifvqgog","pricing_plan_id":"cebpf4jnsgd1na2vs0mg"},{"bike_id":"0530eaa3-fb41-4962-802b-8de744954c6a","system_id":"levelo_inurba_marseille","lat":43.24382,"lon":5.37052,"is_reserved":false,"is_disabled":false,"rental_uris":{"android":"levelo://app?vid=0530eaa3-fb41-4962-802b-8de744954c6a","ios":"levelo://app?vid=0530eaa3-fb41-4962-802b-8de744954c6a"},"vehicle_type_id":"4","last_reported":1736431696,"current_range_meters":36000,"station_id":"ce4bhhh2rcd13ifvqfk0","pricing_plan_id":"cebpf4jnsgd1na2vs0mg"},{"bike_id":"38d0c53e-a765-4eb8-9fcf-204c9744ffd4","system_id":"levelo_inurba_marseille","lat":43.295123,"lon":5.393993,"is_reserved":false,"is_disabled":false,"rental_uris":{"android":"levelo://app?vid=38d0c53e-a765-4eb8-9fcf-204c9744ffd4","ios":"levelo://app?vid=38d0c53e-a765-4eb8-9fcf-204c9744ffd4"},"vehicle_type_id":"4","last_reported":1736431696,"current_range_meters":28800,"station_id":"ce4bh292rcd13ifvqdf0","pricing_plan_id":"cebpf4jnsgd1na2vs0mg"},{"bike_id":"8e90ed06-28d2-46d9-8d8f-f5e9bc21030d","system_id":"levelo_inurba_marseille","lat":43.28561,"lon":5.39495,"is_reserved":false,"is_disabled":false,"rental_uris":{"android":"levelo://app?vid=8e90ed06-28d2-46d9-8d8f-f5e9bc21030d","ios":"levelo://app?vid=8e90ed06-28d2-46d9-8d8f-f5e9bc21030d"},"vehicle_type_id":"4","last_reported":1736431696,"current_range_meters":30400,"station_id":"ce4bh292rcd13ifvqdg0","pricing_plan_id":"cebpf4jnsgd1na2vs0mg"},{"bike_id":"1fe4de93-a972-46c6-bbc7-b129ab9b60fe","system_id":"levelo_inurba_marseille","lat":43.27491,"lon":5.42457,"is_reserved":false,"is_disabled":false,"rental_uris":{"android":"levelo://app?vid=1fe4de93-a972-46c6-bbc7-b129ab9b60fe","ios":"levelo://app?vid=1fe4de93-a972-46c6-bbc7-b129ab9b60fe"},"vehicle_type_id":"4","last_reported":1736431696,"current_range_meters":28800,"station_id":"ce4bhn92rcd13ifvqgrg","pricing_plan_id":"cebpf4jnsgd1na2vs0mg"},{"bike_id":"2efead72-824c-45ef-8cf3-b657af317181","system_id":"levelo_inurba_marseille","lat":43.29852,"lon":5.36284,"is_reserved":false,"is_disabled":false,"rental_uris":{"android":"levelo://app?vid=2efead72-824c-45ef-8cf3-b657af317181","ios":"levelo://app?vid=2efead72-824c-45ef-8cf3-b657af317181"},"vehicle_type_id":"4","last_reported":1736431696,"current_range_meters":38800,"station_id":"ce4bgpp2rcd13ifvqc3g","pricing_plan_id":"cebpf4jnsgd1na2vs0mg"},{"bike_id":"0c9f26e2-be7f-4990-af23-4023b9fc089b","system_id":"levelo_inurba_marseille","lat":43.31094,"lon":5.42439,"is_reserved":false,"is_disabled":false,"rental_uris":{"android":"levelo://app?vid=0c9f26e2-be7f-4990-af23-4023b9fc089b","ios":"levelo://app?vid=0c9f26e2-be7f-4990-af23-4023b9fc089b"},"vehicle_type_id":"4","last_reported":1736431696,"current_range_meters":38800,"station_id":"ce4bhp92rcd13ifvqhag","pricing_plan_id":"cebpf4jnsgd1na2vs0mg"},{"bike_id":"3965b4bc-83b0-48b6-8bba-edbef38dd6c5","system_id":"levelo_inurba_marseille","lat":43.29417,"lon":5.38608,"is_reserved":false,"is_disabled":false,"rental_uris":{"android":"levelo://app?vid=3965b4bc-83b0-48b6-8bba-edbef38dd6c5","ios":"levelo://app?vid=3965b4bc-83b0-48b6-8bba-edbef38dd6c5"},"vehicle_type_id":"4","last_reported":1736431696,"current_range_meters":37600,"station_id":"ce4bh2h2rcd13ifvqdh0","pricing_plan_id":"cebpf4jnsgd1na2vs0mg"},{"bike_id":"61c7a4ed-2be4-4d8d-b5dc-8f527e56c3da","system_id":"levelo_inurba_marseille","lat":43.30534,"lon":5.38423,"is_reserved":false,"is_disabled":false,"rental_uris":{"android":"levelo://app?vid=61c7a4ed-2be4-4d8d-b5dc-8f527e56c3da","ios":"levelo://app?vid=61c7a4ed-2be4-4d8d-b5dc-8f527e56c3da"},"vehicle_type_id":"4","last_reported":1736431696,"current_range_meters":38800,"station_id":"ce4bgg92rcd13ifvqb30","pricing_plan_id":"cebpf4jnsgd1na2vs0mg"},{"bike_id":"44744da6-8adf-4188-bb07-011098685ab4","system_id":"levelo_inurba_marseille","lat":43.30469,"lon":5.37906,"is_reserved":false,"is_disabled":false,"rental_uris":{"android":"levelo://app?vid=44744da6-8adf-4188-bb07-011098685ab4","ios":"levelo://app?vid=44744da6-8adf-4188-bb07-011098685ab4"},"vehicle_type_id":"4","last_reported":1736431696,"current_range_meters":24400,"station_id":"ce4bgup2rcd13ifvqcn0","pricing_plan_id":"cebpf4jnsgd1na2vs0mg"},{"bike_id":"d0b63980-ee75-4159-99b8-45fbe5cb8173","system_id":"levelo_inurba_marseille","lat":43.28492,"lon":5.38552,"is_reserved":false,"is_disabled":false,"rental_uris":{"android":"levelo://app?vid=d0b63980-ee75-4159-99b8-45fbe5cb8173","ios":"levelo://app?vid=d0b63980-ee75-4159-99b8-45fbe5cb8173"},"vehicle_type_id":"4","last_reported":1736431696,"current_range_meters":32000,"station_id":"ce4bh8p2rcd13ifvqeb0","pricing_plan_id":"cebpf4jnsgd1na2vs0mg"},{"bike_id":"fa9a7671-3abf-41cd-86b5-80c458ec5d68","system_id":"levelo_inurba_marseille","lat":43.31178,"lon":5.38694,"is_reserved":false,"is_disabled":false,"rental_uris":{"android":"levelo://app?vid=fa9a7671-3abf-41cd-86b5-80c458ec5d68","ios":"levelo://app?vid=fa9a7671-3abf-41cd-86b5-80c458ec5d68"},"vehicle_type_id":"4","last_reported":1736431696,"current_range_meters":8400,"station_id":"ce4bgv12rcd13ifvqcp0","pricing_plan_id":"cebpf4jnsgd1na2vs0mg"},{"bike_id":"ef55feca-657c-488b-9e32-b2fe658b0af8","system_id":"levelo_inurba_marseille","lat":43.27213,"lon":5.39174,"is_reserved":false,"is_disabled":false,"rental_uris":{"android":"levelo://app?vid=ef55feca-657c-488b-9e32-b2fe658b0af8","ios":"levelo://app?vid=ef55feca-657c-488b-9e32-b2fe658b0af8"},"vehicle_type_id":"4","last_reported":1736431696,"current_range_meters":38400,"station_id":"ce4bhhp2rcd13ifvqfm0","pricing_plan_id":"cebpf4jnsgd1na2vs0mg"},{"bike_id":"4445bdac-50b8-4b63-9a1d-60360f86ae93","system_id":"levelo_inurba_marseille","lat":43.31082,"lon":5.42445,"is_reserved":false,"is_disabled":false,"rental_uris":{"android":"levelo://app?vid=4445bdac-50b8-4b63-9a1d-60360f86ae93","ios":"levelo://app?vid=4445bdac-50b8-4b63-9a1d-60360f86ae93"},"vehicle_type_id":"4","last_reported":1736431696,"current_range_meters":12400,"station_id":"ce4bhp92rcd13ifvqhag","pricing_plan_id":"cebpf4jnsgd1na2vs0mg"},{"bike_id":"7e647b87-ee39-48c8-8a57-8ca415c7293d","system_id":"levelo_inurba_marseille","lat":43.23054,"lon":5.35504,"is_reserved":false,"is_disabled":false,"rental_uris":{"android":"levelo://app?vid=7e647b87-ee39-48c8-8a57-8ca415c7293d","ios":"levelo://app?vid=7e647b87-ee39-48c8-8a57-8ca415c7293d"},"vehicle_type_id":"4","last_reported":1736431696,"current_range_meters":33600,"station_id":"cpo3342slgdg3j2ifvpg","pricing_plan_id":"cebpf4jnsgd1na2vs0mg"},{"bike_id":"a0df9193-55f6-4a03-826a-744e803b6ed4","system_id":"levelo_inurba_marseille","lat":43.24671,"lon":5.38158,"is_reserved":false,"is_disabled":false,"rental_uris":{"android":"levelo://app?vid=a0df9193-55f6-4a03-826a-744e803b6ed4","ios":"levelo://app?vid=a0df9193-55f6-4a03-826a-744e803b6ed4"},"vehicle_type_id":"4","last_reported":1736431696,"current_range_meters":32400,"station_id":"ce4bhih2rcd13ifvqfr0","pricing_plan_id":"cebpf4jnsgd1na2vs0mg"},{"bike_id":"b3235d33-613c-4817-b2d7-f386fe4e079a","system_id":"levelo_inurba_marseille","lat":43.30904,"lon":5.36844,"is_reserved":false,"is_disabled":false,"rental_uris":{"android":"levelo://app?vid=b3235d33-613c-4817-b2d7-f386fe4e079a","ios":"levelo://app?vid=b3235d33-613c-4817-b2d7-f386fe4e079a"},"vehicle_type_id":"4","last_reported":1736431696,"current_range_meters":28800,"station_id":"ce4bgn92rcd13ifvqbvg","pricing_plan_id":"cebpf4jnsgd1na2vs0mg"},{"bike_id":"f3ac7703-aae0-4932-9e81-9257657457ab","system_id":"levelo_inurba_marseille","lat":43.23142,"lon":5.43713,"is_reserved":false,"is_disabled":false,"rental_uris":{"android":"levelo://app?vid=f3ac7703-aae0-4932-9e81-9257657457ab","ios":"levelo://app?vid=f3ac7703-aae0-4932-9e81-9257657457ab"},"vehicle_type_id":"4","last_reported":1736431696,"current_range_meters":19600,"station_id":"ce4bhmp2rcd13ifvqgog","pricing_plan_id":"cebpf4jnsgd1na2vs0mg"},{"bike_id":"00e9ae50-e0de-4a0b-82ae-9d2d5db35cee","system_id":"levelo_inurba_marseille","lat":43.24083,"lon":5.37749,"is_reserved":false,"is_disabled":false,"rental_uris":{"android":"levelo://app?vid=00e9ae50-e0de-4a0b-82ae-9d2d5db35cee","ios":"levelo://app?vid=00e9ae50-e0de-4a0b-82ae-9d2d5db35cee"},"vehicle_type_id":"4","last_reported":1736431696,"current_range_meters":30400,"station_id":"ce4bhnp2rcd13ifvqgvg","pricing_plan_id":"cebpf4jnsgd1na2vs0mg"},{"bike_id":"1f50cc2d-c6ef-46fb-9c7f-27b6608a6555","system_id":"levelo_inurba_marseille","lat":43.309,"lon":5.36857,"is_reserved":false,"is_disabled":false,"rental_uris":{"android":"levelo://app?vid=1f50cc2d-c6ef-46fb-9c7f-27b6608a6555","ios":"levelo://app?vid=1f50cc2d-c6ef-46fb-9c7f-27b6608a6555"},"vehicle_type_id":"4","last_reported":1736431696,"current_range_meters":31200,"station_id":"ce4bgn92rcd13ifvqbvg","pricing_plan_id":"cebpf4jnsgd1na2vs0mg"},{"bike_id":"5a35bfef-fc4b-4ca1-ad69-a1d2b4fa2ef4","system_id":"levelo_inurba_marseille","lat":43.302,"lon":5.36631,"is_reserved":false,"is_disabled":false,"rental_uris":{"android":"levelo://app?vid=5a35bfef-fc4b-4ca1-ad69-a1d2b4fa2ef4","ios":"levelo://app?vid=5a35bfef-fc4b-4ca1-ad69-a1d2b4fa2ef4"},"vehicle_type_id":"4","last_reported":1736431696,"current_range_meters":38000,"station_id":"ce4bgrh2rcd13ifvqc8g","pricing_plan_id":"cebpf4jnsgd1na2vs0mg"},{"bike_id":"8b3f1b37-2108-4da6-b739-d9638408221c","system_id":"levelo_inurba_marseille","lat":43.28423,"lon":5.37538,"is_reserved":false,"is_disabled":false,"rental_uris":{"android":"levelo://app?vid=8b3f1b37-2108-4da6-b739-d9638408221c","ios":"levelo://app?vid=8b3f1b37-2108-4da6-b739-d9638408221c"},"vehicle_type_id":"4","last_reported":1736431696,"current_range_meters":34000,"station_id":"ce4bh412rcd13ifvqds0","pricing_plan_id":"cebpf4jnsgd1na2vs0mg"},{"bike_id":"95080515-c909-4d80-b47e-bd910cceccba","system_id":"levelo_inurba_marseille","lat":43.2741,"lon":5.39406,"is_reserved":false,"is_disabled":false,"rental_uris":{"android":"levelo://app?vid=95080515-c909-4d80-b47e-bd910cceccba","ios":"levelo://app?vid=95080515-c909-4d80-b47e-bd910cceccba"},"vehicle_type_id":"4","last_reported":1736431696,"current_range_meters":7200,"station_id":"ce4bhdp2rcd13ifvqf20","pricing_plan_id":"cebpf4jnsgd1na2vs0mg"},{"bike_id":"73ea2294-304a-4239-9dec-907efb67650c","system_id":"levelo_inurba_marseille","lat":43.30545,"lon":5.36569,"is_reserved":false,"is_disabled":false,"rental_uris":{"android":"levelo://app?vid=73ea2294-304a-4239-9dec-907efb67650c","ios":"levelo://app?vid=73ea2294-304a-4239-9dec-907efb67650c"},"vehicle_type_id":"4","last_reported":1736431696,"current_range_meters":23200,"station_id":"ce4bgs12rcd13ifvqcag","pricing_plan_id":"cebpf4jnsgd1na2vs0mg"},{"bike_id":"e8977a4b-25f0-40a5-a077-9c7dc0db4568","system_id":"levelo_inurba_marseille","lat":43.27471,"lon":5.36028,"is_reserved":false,"is_disabled":false,"rental_uris":{"android":"levelo://app?vid=e8977a4b-25f0-40a5-a077-9c7dc0db4568","ios":"levelo://app?vid=e8977a4b-25f0-40a5-a077-9c7dc0db4568"},"vehicle_type_id":"4","last_reported":1736431696,"current_range_meters":22400,"station_id":"ce4bhh12rcd13ifvqff0","pricing_plan_id":"cebpf4jnsgd1na2vs0mg"},{"bike_id":"b6c7c5ec-297f-4e79-9ac8-c4ffdcfb78ef","system_id":"levelo_inurba_marseille","lat":43.29971,"lon":5.385,"is_reserved":false,"is_disabled":false,"rental_uris":{"android":"levelo://app?vid=b6c7c5ec-297f-4e79-9ac8-c4ffdcfb78ef","ios":"levelo://app?vid=b6c7c5ec-297f-4e79-9ac8-c4ffdcfb78ef"},"vehicle_type_id":"4","last_reported":1736431696,"current_range_meters":38800,"station_id":"ce4bgj92rcd13ifvqbd0","pricing_plan_id":"cebpf4jnsgd1na2vs0mg"},{"bike_id":"fccbecdc-7f6b-4c85-b510-cd5a92912b79","system_id":"levelo_inurba_marseille","lat":43.29676,"lon":5.37295,"is_reserved":false,"is_disabled":false,"rental_uris":{"android":"levelo://app?vid=fccbecdc-7f6b-4c85-b510-cd5a92912b79","ios":"levelo://app?vid=fccbecdc-7f6b-4c85-b510-cd5a92912b79"},"vehicle_type_id":"4","last_reported":1736431696,"current_range_meters":38800,"station_id":"ce4bgk12rcd13ifvqbj0","pricing_plan_id":"cebpf4jnsgd1na2vs0mg"},{"bike_id":"2d1536de-ed9a-4813-bbd6-10bda74ca621","system_id":"levelo_inurba_marseille","lat":43.24805,"lon":5.374553,"is_reserved":false,"is_disabled":false,"rental_uris":{"android":"levelo://app?vid=2d1536de-ed9a-4813-bbd6-10bda74ca621","ios":"levelo://app?vid=2d1536de-ed9a-4813-bbd6-10bda74ca621"},"vehicle_type_id":"4","last_reported":1736431696,"current_range_meters":37600,"station_id":"ce4bhgh2rcd13ifvqfb0","pricing_plan_id":"cebpf4jnsgd1na2vs0mg"},{"bike_id":"dd95b172-24fd-4056-9bb1-1ba37d74b460","system_id":"levelo_inurba_marseille","lat":43.25583,"lon":5.38242,"is_reserved":false,"is_disabled":false,"rental_uris":{"android":"levelo://app?vid=dd95b172-24fd-4056-9bb1-1ba37d74b460","ios":"levelo://app?vid=dd95b172-24fd-4056-9bb1-1ba37d74b460"},"vehicle_type_id":"4","last_reported":1736431696,"current_range_meters":20000,"station_id":"ce4bhih2rcd13ifvqfs0","pricing_plan_id":"cebpf4jnsgd1na2vs0mg"},{"bike_id":"851f001a-2b3f-466e-9530-34388857b2c0","system_id":"levelo_inurba_marseille","lat":43.30145,"lon":5.38779,"is_reserved":false,"is_disabled":false,"rental_uris":{"android":"levelo://app?vid=851f001a-2b3f-466e-9530-34388857b2c0","ios":"levelo://app?vid=851f001a-2b3f-466e-9530-34388857b2c0"},"vehicle_type_id":"4","last_reported":1736431696,"current_range_meters":32400,"station_id":"ce4bghh2rcd13ifvqb60","pricing_plan_id":"cebpf4jnsgd1na2vs0mg"},{"bike_id":"c805142b-1ce4-4316-aec5-0d0e6e7f344d","system_id":"levelo_inurba_marseille","lat":43.29559,"lon":5.42283,"is_reserved":false,"is_disabled":false,"rental_uris":{"android":"levelo://app?vid=c805142b-1ce4-4316-aec5-0d0e6e7f344d","ios":"levelo://app?vid=c805142b-1ce4-4316-aec5-0d0e6e7f344d"},"vehicle_type_id":"4","last_reported":1736431696,"current_range_meters":32400,"station_id":"ce4bhph2rcd13ifvqhdg","pricing_plan_id":"cebpf4jnsgd1na2vs0mg"},{"bike_id":"2d1407f8-7a0a-4438-a238-ab6db6fdea21","system_id":"levelo_inurba_marseille","lat":43.31074,"lon":5.38355,"is_reserved":false,"is_disabled":false,"rental_uris":{"android":"levelo://app?vid=2d1407f8-7a0a-4438-a238-ab6db6fdea21","ios":"levelo://app?vid=2d1407f8-7a0a-4438-a238-ab6db6fdea21"},"vehicle_type_id":"4","last_reported":1736431696,"current_range_meters":28800,"station_id":"ce4bgv92rcd13ifvqcr0","pricing_plan_id":"cebpf4jnsgd1na2vs0mg"},{"bike_id":"4c3bd439-e92c-4064-a51f-879c6f698614","system_id":"levelo_inurba_marseille","lat":43.26681,"lon":5.38277,"is_reserved":false,"is_disabled":false,"rental_uris":{"android":"levelo://app?vid=4c3bd439-e92c-4064-a51f-879c6f698614","ios":"levelo://app?vid=4c3bd439-e92c-4064-a51f-879c6f698614"},"vehicle_type_id":"4","last_reported":1736431696,"current_range_meters":33600,"station_id":"ce4bhg92rcd13ifvqf90","pricing_plan_id":"cebpf4jnsgd1na2vs0mg"},{"bike_id":"1565e8de-a7c0-4b5d-bab6-a5c2edfdb606","system_id":"levelo_inurba_marseille","lat":43.29706,"lon":5.37703,"is_reserved":false,"is_disabled":false,"rental_uris":{"android":"levelo://app?vid=1565e8de-a7c0-4b5d-bab6-a5c2edfdb606","ios":"levelo://app?vid=1565e8de-a7c0-4b5d-bab6-a5c2edfdb606"},"vehicle_type_id":"4","last_reported":1736431696,"current_range_meters":33200,"station_id":"ce4bgkh2rcd13ifvqbl0","pricing_plan_id":"cebpf4jnsgd1na2vs0mg"},{"bike_id":"ab80a0aa-9b2c-4197-ab42-25247801aa16","system_id":"levelo_inurba_marseille","lat":43.25122,"lon":5.40329,"is_reserved":false,"is_disabled":false,"rental_uris":{"android":"levelo://app?vid=ab80a0aa-9b2c-4197-ab42-25247801aa16","ios":"levelo://app?vid=ab80a0aa-9b2c-4197-ab42-25247801aa16"},"vehicle_type_id":"4","last_reported":1736431696,"current_range_meters":36800,"station_id":"ce4bhlh2rcd13ifvqgig","pricing_plan_id":"cebpf4jnsgd1na2vs0mg"},{"bike_id":"26b4ec21-be4f-46ba-85c3-6d48a659ca41","system_id":"levelo_inurba_marseille","lat":43.2466,"lon":5.38171,"is_reserved":false,"is_disabled":false,"rental_uris":{"android":"levelo://app?vid=26b4ec21-be4f-46ba-85c3-6d48a659ca41","ios":"levelo://app?vid=26b4ec21-be4f-46ba-85c3-6d48a659ca41"},"vehicle_type_id":"4","last_reported":1736431696,"current_range_meters":12000,"station_id":"ce4bhih2rcd13ifvqfr0","pricing_plan_id":"cebpf4jnsgd1na2vs0mg"},{"bike_id":"98acfbe9-5036-4f04-be90-e65f01ce50b5","system_id":"levelo_inurba_marseille","lat":43.2408,"lon":5.37747,"is_reserved":false,"is_disabled":false,"rental_uris":{"android":"levelo://app?vid=98acfbe9-5036-4f04-be90-e65f01ce50b5","ios":"levelo://app?vid=98acfbe9-5036-4f04-be90-e65f01ce50b5"},"vehicle_type_id":"4","last_reported":1736431696,"current_range_meters":24800,"station_id":"ce4bhnp2rcd13ifvqgvg","pricing_plan_id":"cebpf4jnsgd1na2vs0mg"},{"bike_id":"f8c426c6-d2f6-4cba-b2b6-38d583c741ea","system_id":"levelo_inurba_marseille","lat":43.29975,"lon":5.38497,"is_reserved":false,"is_disabled":false,"rental_uris":{"android":"levelo://app?vid=f8c426c6-d2f6-4cba-b2b6-38d583c741ea","ios":"levelo://app?vid=f8c426c6-d2f6-4cba-b2b6-38d583c741ea"},"vehicle_type_id":"4","last_reported":1736431696,"current_range_meters":22800,"station_id":"ce4bgj92rcd13ifvqbd0","pricing_plan_id":"cebpf4jnsgd1na2vs0mg"},{"bike_id":"7525d5bc-d5cb-4998-a508-14f64c28c58c","system_id":"levelo_inurba_marseille","lat":43.258663,"lon":5.399036,"is_reserved":false,"is_disabled":false,"rental_uris":{"android":"levelo://app?vid=7525d5bc-d5cb-4998-a508-14f64c28c58c","ios":"levelo://app?vid=7525d5bc-d5cb-4998-a508-14f64c28c58c"},"vehicle_type_id":"4","last_reported":1736431696,"current_range_meters":36400,"station_id":"ce4bhl92rcd13ifvqghg","pricing_plan_id":"cebpf4jnsgd1na2vs0mg"},{"bike_id":"a28a3e15-60b0-475a-aeb2-1b107b1039c9","system_id":"levelo_inurba_marseille","lat":43.23149,"lon":5.43712,"is_reserved":false,"is_disabled":false,"rental_uris":{"android":"levelo://app?vid=a28a3e15-60b0-475a-aeb2-1b107b1039c9","ios":"levelo://app?vid=a28a3e15-60b0-475a-aeb2-1b107b1039c9"},"vehicle_type_id":"4","last_reported":1736431696,"current_range_meters":27200,"station_id":"ce4bhmp2rcd13ifvqgog","pricing_plan_id":"cebpf4jnsgd1na2vs0mg"},{"bike_id":"287374fd-dbe1-45ce-93ef-f5159f6c2828","system_id":"levelo_inurba_marseille","lat":43.2952,"lon":5.39046,"is_reserved":false,"is_disabled":false,"rental_uris":{"android":"levelo://app?vid=287374fd-dbe1-45ce-93ef-f5159f6c2828","ios":"levelo://app?vid=287374fd-dbe1-45ce-93ef-f5159f6c2828"},"vehicle_type_id":"4","last_reported":1736431696,"current_range_meters":38800,"station_id":"ce4bh3p2rcd13ifvqdp0","pricing_plan_id":"cebpf4jnsgd1na2vs0mg"},{"bike_id":"6301fc15-e340-4d1e-a3ec-5dddbe7ee385","system_id":"levelo_inurba_marseille","lat":43.2827,"lon":5.3506,"is_reserved":false,"is_disabled":false,"rental_uris":{"android":"levelo://app?vid=6301fc15-e340-4d1e-a3ec-5dddbe7ee385","ios":"levelo://app?vid=6301fc15-e340-4d1e-a3ec-5dddbe7ee385"},"vehicle_type_id":"4","last_reported":1736431696,"current_range_meters":10000,"station_id":"ce4bhbp2rcd13ifvqerg","pricing_plan_id":"cebpf4jnsgd1na2vs0mg"},{"bike_id":"a023b9e2-2413-4b3d-a218-b9727e7097b5","system_id":"levelo_inurba_marseille","lat":43.292991,"lon":5.374633,"is_reserved":false,"is_disabled":true,"rental_uris":{"android":"levelo://app?vid=a023b9e2-2413-4b3d-a218-b9727e7097b5","ios":"levelo://app?vid=a023b9e2-2413-4b3d-a218-b9727e7097b5"},"vehicle_type_id":"4","last_reported":1736431696,"current_range_meters":29600,"station_id":"ce4bgi12rcd13ifvqb70","pricing_plan_id":"cebpf4jnsgd1na2vs0mg"},{"bike_id":"75c1339c-5690-4b29-bf2a-82dd8248bce5","system_id":"levelo_inurba_marseille","lat":43.29798,"lon":5.381,"is_reserved":false,"is_disabled":false,"rental_uris":{"android":"levelo://app?vid=75c1339c-5690-4b29-bf2a-82dd8248bce5","ios":"levelo://app?vid=75c1339c-5690-4b29-bf2a-82dd8248bce5"},"vehicle_type_id":"4","last_reported":1736431696,"current_range_meters":38400,"station_id":"ce4bgip2rcd13ifvqbb0","pricing_plan_id":"cebpf4jnsgd1na2vs0mg"},{"bike_id":"b61410a3-14e1-4aff-ac94-d44098cd6c7f","system_id":"levelo_inurba_marseille","lat":43.31351,"lon":5.38499,"is_reserved":false,"is_disabled":true,"rental_uris":{"android":"levelo://app?vid=b61410a3-14e1-4aff-ac94-d44098cd6c7f","ios":"levelo://app?vid=b61410a3-14e1-4aff-ac94-d44098cd6c7f"},"vehicle_type_id":"4","last_reported":1736431696,"current_range_meters":0,"station_id":"ce4bgt92rcd13ifvqcf0","pricing_plan_id":"cebpf4jnsgd1na2vs0mg"},{"bike_id":"69fd814b-885f-4aef-927a-d94af522b3a2","system_id":"levelo_inurba_marseille","lat":43.29033,"lon":5.38136,"is_reserved":false,"is_disabled":false,"rental_uris":{"android":"levelo://app?vid=69fd814b-885f-4aef-927a-d94af522b3a2","ios":"levelo://app?vid=69fd814b-885f-4aef-927a-d94af522b3a2"},"vehicle_type_id":"4","last_reported":1736431696,"current_range_meters":5600,"station_id":"","pricing_plan_id":"cebpf4jnsgd1na2vs0mg"},{"bike_id":"dca00bba-2f39-40a8-ad4d-72c38ee8461a","system_id":"levelo_inurba_marseille","lat":43.2743,"lon":5.39411,"is_reserved":false,"is_disabled":false,"rental_uris":{"android":"levelo://app?vid=dca00bba-2f39-40a8-ad4d-72c38ee8461a","ios":"levelo://app?vid=dca00bba-2f39-40a8-ad4d-72c38ee8461a"},"vehicle_type_id":"4","last_reported":1736431696,"current_range_meters":33200,"station_id":"ce4bhdp2rcd13ifvqf20","pricing_plan_id":"cebpf4jnsgd1na2vs0mg"},{"bike_id":"e2b50226-9fde-4544-853e-aad92a8a6c78","system_id":"levelo_inurba_marseille","lat":43.28423,"lon":5.34978,"is_reserved":false,"is_disabled":false,"rental_uris":{"android":"levelo://app?vid=e2b50226-9fde-4544-853e-aad92a8a6c78","ios":"levelo://app?vid=e2b50226-9fde-4544-853e-aad92a8a6c78"},"vehicle_type_id":"4","last_reported":1736431696,"current_range_meters":14400,"station_id":"ce4bhbh2rcd13ifvqepg","pricing_plan_id":"cebpf4jnsgd1na2vs0mg"},{"bike_id":"fcda1bf7-c69b-4557-a8f1-0ada65d0d425","system_id":"levelo_inurba_marseille","lat":43.29902,"lon":5.3815,"is_reserved":false,"is_disabled":false,"rental_uris":{"android":"levelo://app?vid=fcda1bf7-c69b-4557-a8f1-0ada65d0d425","ios":"levelo://app?vid=fcda1bf7-c69b-4557-a8f1-0ada65d0d425"},"vehicle_type_id":"4","last_reported":1736431696,"current_range_meters":36400,"station_id":"ce4bgj12rcd13ifvqbc0","pricing_plan_id":"cebpf4jnsgd1na2vs0mg"},{"bike_id":"a240a13c-f278-4462-a924-09b9e62ad122","system_id":"levelo_inurba_marseille","lat":43.337444,"lon":5.374475,"is_reserved":false,"is_disabled":false,"rental_uris":{"android":"levelo://app?vid=a240a13c-f278-4462-a924-09b9e62ad122","ios":"levelo://app?vid=a240a13c-f278-4462-a924-09b9e62ad122"},"vehicle_type_id":"4","last_reported":1736431696,"current_range_meters":38800,"station_id":"ce4bh112rcd13ifvqd90","pricing_plan_id":"cebpf4jnsgd1na2vs0mg"},{"bike_id":"cb9e88a2-0f49-4702-87dd-06d2b1648625","system_id":"levelo_inurba_marseille","lat":43.29924,"lon":5.37486,"is_reserved":false,"is_disabled":false,"rental_uris":{"android":"levelo://app?vid=cb9e88a2-0f49-4702-87dd-06d2b1648625","ios":"levelo://app?vid=cb9e88a2-0f49-4702-87dd-06d2b1648625"},"vehicle_type_id":"4","last_reported":1736431696,"current_range_meters":34000,"station_id":"ce4bgjh2rcd13ifvqbg0","pricing_plan_id":"cebpf4jnsgd1na2vs0mg"},{"bike_id":"5e498754-bb3d-4823-a378-a06f7dd04975","system_id":"levelo_inurba_marseille","lat":43.28268,"lon":5.35077,"is_reserved":false,"is_disabled":false,"rental_uris":{"android":"levelo://app?vid=5e498754-bb3d-4823-a378-a06f7dd04975","ios":"levelo://app?vid=5e498754-bb3d-4823-a378-a06f7dd04975"},"vehicle_type_id":"4","last_reported":1736431696,"current_range_meters":24800,"station_id":"ce4bhbp2rcd13ifvqerg","pricing_plan_id":"cebpf4jnsgd1na2vs0mg"},{"bike_id":"96020aae-c176-4097-a04b-4d31225989df","system_id":"levelo_inurba_marseille","lat":43.31367,"lon":5.38491,"is_reserved":false,"is_disabled":false,"rental_uris":{"android":"levelo://app?vid=96020aae-c176-4097-a04b-4d31225989df","ios":"levelo://app?vid=96020aae-c176-4097-a04b-4d31225989df"},"vehicle_type_id":"4","last_reported":1736431696,"current_range_meters":38800,"station_id":"ce4bgt92rcd13ifvqcf0","pricing_plan_id":"cebpf4jnsgd1na2vs0mg"},{"bike_id":"baa48dce-41ad-4f7a-bdc9-c971a3f1545b","system_id":"levelo_inurba_marseille","lat":43.27055,"lon":5.40263,"is_reserved":false,"is_disabled":false,"rental_uris":{"android":"levelo://app?vid=baa48dce-41ad-4f7a-bdc9-c971a3f1545b","ios":"levelo://app?vid=baa48dce-41ad-4f7a-bdc9-c971a3f1545b"},"vehicle_type_id":"4","last_reported":1736431696,"current_range_meters":33600,"station_id":"ce4bhk92rcd13ifvqgc0","pricing_plan_id":"cebpf4jnsgd1na2vs0mg"},{"bike_id":"3402ac95-fc9f-4aa7-8d06-c5e0b4779208","system_id":"levelo_inurba_marseille","lat":43.24388,"lon":5.37057,"is_reserved":false,"is_disabled":false,"rental_uris":{"android":"levelo://app?vid=3402ac95-fc9f-4aa7-8d06-c5e0b4779208","ios":"levelo://app?vid=3402ac95-fc9f-4aa7-8d06-c5e0b4779208"},"vehicle_type_id":"4","last_reported":1736431696,"current_range_meters":37600,"station_id":"ce4bhhh2rcd13ifvqfk0","pricing_plan_id":"cebpf4jnsgd1na2vs0mg"},{"bike_id":"58a1600f-e5ba-4deb-8b32-702a3c8183b4","system_id":"levelo_inurba_marseille","lat":43.27995,"lon":5.40024,"is_reserved":false,"is_disabled":false,"rental_uris":{"android":"levelo://app?vid=58a1600f-e5ba-4deb-8b32-702a3c8183b4","ios":"levelo://app?vid=58a1600f-e5ba-4deb-8b32-702a3c8183b4"},"vehicle_type_id":"4","last_reported":1736431696,"current_range_meters":25200,"station_id":"ce4bho92rcd13ifvqh4g","pricing_plan_id":"cebpf4jnsgd1na2vs0mg"},{"bike_id":"4efd2084-9715-446a-aae8-df22bb0734d5","system_id":"levelo_inurba_marseille","lat":43.25931,"lon":5.40898,"is_reserved":false,"is_disabled":false,"rental_uris":{"android":"levelo://app?vid=4efd2084-9715-446a-aae8-df22bb0734d5","ios":"levelo://app?vid=4efd2084-9715-446a-aae8-df22bb0734d5"},"vehicle_type_id":"4","last_reported":1736431696,"current_range_meters":22400,"station_id":"ce4bhm92rcd13ifvqglg","pricing_plan_id":"cebpf4jnsgd1na2vs0mg"},{"bike_id":"8e75df86-e49b-4f3c-8f63-cab9d97e50e9","system_id":"levelo_inurba_marseille","lat":43.28659,"lon":5.36356,"is_reserved":false,"is_disabled":false,"rental_uris":{"android":"levelo://app?vid=8e75df86-e49b-4f3c-8f63-cab9d97e50e9","ios":"levelo://app?vid=8e75df86-e49b-4f3c-8f63-cab9d97e50e9"},"vehicle_type_id":"4","last_reported":1736431696,"current_range_meters":35600,"station_id":"ce4bhah2rcd13ifvqej0","pricing_plan_id":"cebpf4jnsgd1na2vs0mg"},{"bike_id":"a9b6393a-afe2-41b2-8370-dc893e0b832a","system_id":"levelo_inurba_marseille","lat":43.30494,"lon":5.37905,"is_reserved":false,"is_disabled":false,"rental_uris":{"android":"levelo://app?vid=a9b6393a-afe2-41b2-8370-dc893e0b832a","ios":"levelo://app?vid=a9b6393a-afe2-41b2-8370-dc893e0b832a"},"vehicle_type_id":"4","last_reported":1736431696,"current_range_meters":28000,"station_id":"ce4bgup2rcd13ifvqcn0","pricing_plan_id":"cebpf4jnsgd1na2vs0mg"},{"bike_id":"7a0a8a69-615c-43f3-a001-073b74f4a57b","system_id":"levelo_inurba_marseille","lat":43.25561,"lon":5.38246,"is_reserved":false,"is_disabled":false,"rental_uris":{"android":"levelo://app?vid=7a0a8a69-615c-43f3-a001-073b74f4a57b","ios":"levelo://app?vid=7a0a8a69-615c-43f3-a001-073b74f4a57b"},"vehicle_type_id":"4","last_reported":1736431696,"current_range_meters":30400,"station_id":"ce4bhih2rcd13ifvqfs0","pricing_plan_id":"cebpf4jnsgd1na2vs0mg"},{"bike_id":"54d881c1-9733-41b1-bcb8-a3547a618e6d","system_id":"levelo_inurba_marseille","lat":43.26561,"lon":5.39042,"is_reserved":false,"is_disabled":false,"rental_uris":{"android":"levelo://app?vid=54d881c1-9733-41b1-bcb8-a3547a618e6d","ios":"levelo://app?vid=54d881c1-9733-41b1-bcb8-a3547a618e6d"},"vehicle_type_id":"4","last_reported":1736431696,"current_range_meters":6400,"station_id":"ce4bhe12rcd13ifvqf30","pricing_plan_id":"cebpf4jnsgd1na2vs0mg"},{"bike_id":"d03baa4e-a1ff-4dbb-aa3a-8f7610789178","system_id":"levelo_inurba_marseille","lat":43.33719,"lon":5.39181,"is_reserved":false,"is_disabled":false,"rental_uris":{"android":"levelo://app?vid=d03baa4e-a1ff-4dbb-aa3a-8f7610789178","ios":"levelo://app?vid=d03baa4e-a1ff-4dbb-aa3a-8f7610789178"},"vehicle_type_id":"4","last_reported":1736431696,"current_range_meters":38800,"station_id":"ce4bhr92rcd13ifvqhsg","pricing_plan_id":"cebpf4jnsgd1na2vs0mg"},{"bike_id":"373f9adc-1c85-4ead-bb1d-5a706b5c55e3","system_id":"levelo_inurba_marseille","lat":43.30155,"lon":5.38085,"is_reserved":false,"is_disabled":false,"rental_uris":{"android":"levelo://app?vid=373f9adc-1c85-4ead-bb1d-5a706b5c55e3","ios":"levelo://app?vid=373f9adc-1c85-4ead-bb1d-5a706b5c55e3"},"vehicle_type_id":"4","last_reported":1736431696,"current_range_meters":29600,"station_id":"ce4bgjp2rcd13ifvqbh0","pricing_plan_id":"cebpf4jnsgd1na2vs0mg"},{"bike_id":"121d2b7f-02c4-4e7e-a442-57e420399f1e","system_id":"levelo_inurba_marseille","lat":43.24068,"lon":5.37704,"is_reserved":false,"is_disabled":false,"rental_uris":{"android":"levelo://app?vid=121d2b7f-02c4-4e7e-a442-57e420399f1e","ios":"levelo://app?vid=121d2b7f-02c4-4e7e-a442-57e420399f1e"},"vehicle_type_id":"4","last_reported":1736431696,"current_range_meters":38800,"station_id":"ce4bhnp2rcd13ifvqgvg","pricing_plan_id":"cebpf4jnsgd1na2vs0mg"},{"bike_id":"1c071016-4426-4a79-86fe-c7a9f2cb5431","system_id":"levelo_inurba_marseille","lat":43.28347,"lon":5.38102,"is_reserved":false,"is_disabled":false,"rental_uris":{"android":"levelo://app?vid=1c071016-4426-4a79-86fe-c7a9f2cb5431","ios":"levelo://app?vid=1c071016-4426-4a79-86fe-c7a9f2cb5431"},"vehicle_type_id":"4","last_reported":1736431696,"current_range_meters":14400,"station_id":"ce4bh412rcd13ifvqdr0","pricing_plan_id":"cebpf4jnsgd1na2vs0mg"},{"bike_id":"e55df270-5810-4b23-940b-dee821cadcec","system_id":"levelo_inurba_marseille","lat":43.32989,"lon":5.38416,"is_reserved":false,"is_disabled":false,"rental_uris":{"android":"levelo://app?vid=e55df270-5810-4b23-940b-dee821cadcec","ios":"levelo://app?vid=e55df270-5810-4b23-940b-dee821cadcec"},"vehicle_type_id":"4","last_reported":1736431696,"current_range_meters":31200,"station_id":"","pricing_plan_id":"cebpf4jnsgd1na2vs0mg"},{"bike_id":"03150058-0a35-42f2-a29e-9a2d94dc6c68","system_id":"levelo_inurba_marseille","lat":43.2782,"lon":5.40711,"is_reserved":false,"is_disabled":false,"rental_uris":{"android":"levelo://app?vid=03150058-0a35-42f2-a29e-9a2d94dc6c68","ios":"levelo://app?vid=03150058-0a35-42f2-a29e-9a2d94dc6c68"},"vehicle_type_id":"4","last_reported":1736431696,"current_range_meters":3200,"station_id":"ce4bhnh2rcd13ifvqgtg","pricing_plan_id":"cebpf4jnsgd1na2vs0mg"},{"bike_id":"575f7d47-7572-4f64-9d2d-a4d77ab95c7f","system_id":"levelo_inurba_marseille","lat":43.28347,"lon":5.38104,"is_reserved":false,"is_disabled":false,"rental_uris":{"android":"levelo://app?vid=575f7d47-7572-4f64-9d2d-a4d77ab95c7f","ios":"levelo://app?vid=575f7d47-7572-4f64-9d2d-a4d77ab95c7f"},"vehicle_type_id":"4","last_reported":1736431696,"current_range_meters":28400,"station_id":"ce4bh412rcd13ifvqdr0","pricing_plan_id":"cebpf4jnsgd1na2vs0mg"},{"bike_id":"ec319423-7fa8-45ee-b7f8-ab3cf86bce10","system_id":"levelo_inurba_marseille","lat":43.29932,"lon":5.36519,"is_reserved":false,"is_disabled":false,"rental_uris":{"android":"levelo://app?vid=ec319423-7fa8-45ee-b7f8-ab3cf86bce10","ios":"levelo://app?vid=ec319423-7fa8-45ee-b7f8-ab3cf86bce10"},"vehicle_type_id":"4","last_reported":1736431696,"current_range_meters":38800,"station_id":"ce4bgm92rcd13ifvqbr0","pricing_plan_id":"cebpf4jnsgd1na2vs0mg"},{"bike_id":"b30c7bc7-4b32-4b74-86b2-78e7c0217f17","system_id":"levelo_inurba_marseille","lat":43.29806,"lon":5.38103,"is_reserved":false,"is_disabled":false,"rental_uris":{"android":"levelo://app?vid=b30c7bc7-4b32-4b74-86b2-78e7c0217f17","ios":"levelo://app?vid=b30c7bc7-4b32-4b74-86b2-78e7c0217f17"},"vehicle_type_id":"4","last_reported":1736431696,"current_range_meters":31200,"station_id":"ce4bgip2rcd13ifvqbb0","pricing_plan_id":"cebpf4jnsgd1na2vs0mg"},{"bike_id":"286c4090-319b-4f4e-9d26-6b77c817536c","system_id":"levelo_inurba_marseille","lat":43.30292,"lon":5.39213,"is_reserved":false,"is_disabled":false,"rental_uris":{"android":"levelo://app?vid=286c4090-319b-4f4e-9d26-6b77c817536c","ios":"levelo://app?vid=286c4090-319b-4f4e-9d26-6b77c817536c"},"vehicle_type_id":"4","last_reported":1736431696,"current_range_meters":24000,"station_id":"ce4bgkh2rcd13ifvqbk0","pricing_plan_id":"cebpf4jnsgd1na2vs0mg"},{"bike_id":"c8715b1d-b413-4b2c-b6c2-dc7edfd3607d","system_id":"levelo_inurba_marseille","lat":43.31327,"lon":5.39691,"is_reserved":false,"is_disabled":false,"rental_uris":{"android":"levelo://app?vid=c8715b1d-b413-4b2c-b6c2-dc7edfd3607d","ios":"levelo://app?vid=c8715b1d-b413-4b2c-b6c2-dc7edfd3607d"},"vehicle_type_id":"4","last_reported":1736431696,"current_range_meters":38800,"station_id":"ce4bgvp2rcd13ifvqcu0","pricing_plan_id":"cebpf4jnsgd1na2vs0mg"},{"bike_id":"f799bb7a-9933-4b5a-8f9e-1b8361cf1c45","system_id":"levelo_inurba_marseille","lat":43.27497,"lon":5.42454,"is_reserved":false,"is_disabled":false,"rental_uris":{"android":"levelo://app?vid=f799bb7a-9933-4b5a-8f9e-1b8361cf1c45","ios":"levelo://app?vid=f799bb7a-9933-4b5a-8f9e-1b8361cf1c45"},"vehicle_type_id":"4","last_reported":1736431696,"current_range_meters":24000,"station_id":"ce4bhn92rcd13ifvqgrg","pricing_plan_id":"cebpf4jnsgd1na2vs0mg"},{"bike_id":"e93f83ab-0e3e-4fd9-8d9e-6775678c8e02","system_id":"levelo_inurba_marseille","lat":43.33,"lon":5.39014,"is_reserved":false,"is_disabled":false,"rental_uris":{"android":"levelo://app?vid=e93f83ab-0e3e-4fd9-8d9e-6775678c8e02","ios":"levelo://app?vid=e93f83ab-0e3e-4fd9-8d9e-6775678c8e02"},"vehicle_type_id":"4","last_reported":1736431696,"current_range_meters":39200,"station_id":"ce4bhr92rcd13ifvqhrg","pricing_plan_id":"cebpf4jnsgd1na2vs0mg"},{"bike_id":"8a376682-71b7-48d3-b00b-5dd77704f71e","system_id":"levelo_inurba_marseille","lat":43.29364,"lon":5.37855,"is_reserved":false,"is_disabled":false,"rental_uris":{"android":"levelo://app?vid=8a376682-71b7-48d3-b00b-5dd77704f71e","ios":"levelo://app?vid=8a376682-71b7-48d3-b00b-5dd77704f71e"},"vehicle_type_id":"4","last_reported":1736431696,"current_range_meters":39200,"station_id":"ce4bgjh2rcd13ifvqbf0","pricing_plan_id":"cebpf4jnsgd1na2vs0mg"},{"bike_id":"2a688222-c53a-43b7-8662-6814af84e9d9","system_id":"levelo_inurba_marseille","lat":43.2559,"lon":5.3824,"is_reserved":false,"is_disabled":false,"rental_uris":{"android":"levelo://app?vid=2a688222-c53a-43b7-8662-6814af84e9d9","ios":"levelo://app?vid=2a688222-c53a-43b7-8662-6814af84e9d9"},"vehicle_type_id":"4","last_reported":1736431696,"current_range_meters":28800,"station_id":"ce4bhih2rcd13ifvqfs0","pricing_plan_id":"cebpf4jnsgd1na2vs0mg"},{"bike_id":"380532f5-9862-43e2-9bc8-8d4dae90d2a6","system_id":"levelo_inurba_marseille","lat":43.29801,"lon":5.40411,"is_reserved":false,"is_disabled":false,"rental_uris":{"android":"levelo://app?vid=380532f5-9862-43e2-9bc8-8d4dae90d2a6","ios":"levelo://app?vid=380532f5-9862-43e2-9bc8-8d4dae90d2a6"},"vehicle_type_id":"4","last_reported":1736431696,"current_range_meters":36800,"station_id":"ce4bh112rcd13ifvqd90","pricing_plan_id":"cebpf4jnsgd1na2vs0mg"},{"bike_id":"bb5f7b1b-fafb-45b0-a6b7-306e5a25c30d","system_id":"levelo_inurba_marseille","lat":43.2314,"lon":5.4373,"is_reserved":false,"is_disabled":false,"rental_uris":{"android":"levelo://app?vid=bb5f7b1b-fafb-45b0-a6b7-306e5a25c30d","ios":"levelo://app?vid=bb5f7b1b-fafb-45b0-a6b7-306e5a25c30d"},"vehicle_type_id":"4","last_reported":1736431696,"current_range_meters":38800,"station_id":"ce4bhmp2rcd13ifvqgog","pricing_plan_id":"cebpf4jnsgd1na2vs0mg"},{"bike_id":"945846a1-273e-4ff7-b4fa-22eab695956b","system_id":"levelo_inurba_marseille","lat":43.24073,"lon":5.37757,"is_reserved":false,"is_disabled":false,"rental_uris":{"android":"levelo://app?vid=945846a1-273e-4ff7-b4fa-22eab695956b","ios":"levelo://app?vid=945846a1-273e-4ff7-b4fa-22eab695956b"},"vehicle_type_id":"4","last_reported":1736431696,"current_range_meters":33600,"station_id":"ce4bhnp2rcd13ifvqgvg","pricing_plan_id":"cebpf4jnsgd1na2vs0mg"},{"bike_id":"ceedfdd9-ad24-48f1-98fd-db1646610c23","system_id":"levelo_inurba_marseille","lat":43.27418,"lon":5.39413,"is_reserved":false,"is_disabled":false,"rental_uris":{"android":"levelo://app?vid=ceedfdd9-ad24-48f1-98fd-db1646610c23","ios":"levelo://app?vid=ceedfdd9-ad24-48f1-98fd-db1646610c23"},"vehicle_type_id":"4","last_reported":1736431696,"current_range_meters":23200,"station_id":"ce4bhdp2rcd13ifvqf20","pricing_plan_id":"cebpf4jnsgd1na2vs0mg"},{"bike_id":"22ef06b5-960c-4594-a9ce-bdfe76cc1abf","system_id":"levelo_inurba_marseille","lat":43.30924,"lon":5.40141,"is_reserved":false,"is_disabled":false,"rental_uris":{"android":"levelo://app?vid=22ef06b5-960c-4594-a9ce-bdfe76cc1abf","ios":"levelo://app?vid=22ef06b5-960c-4594-a9ce-bdfe76cc1abf"},"vehicle_type_id":"4","last_reported":1736431696,"current_range_meters":38800,"station_id":"ce4bgvp2rcd13ifvqct0","pricing_plan_id":"cebpf4jnsgd1na2vs0mg"},{"bike_id":"58186d51-b5b6-4bbd-b774-d3ee334f580e","system_id":"levelo_inurba_marseille","lat":43.29714,"lon":5.37689,"is_reserved":false,"is_disabled":false,"rental_uris":{"android":"levelo://app?vid=58186d51-b5b6-4bbd-b774-d3ee334f580e","ios":"levelo://app?vid=58186d51-b5b6-4bbd-b774-d3ee334f580e"},"vehicle_type_id":"4","last_reported":1736431696,"current_range_meters":34000,"station_id":"ce4bgkh2rcd13ifvqbl0","pricing_plan_id":"cebpf4jnsgd1na2vs0mg"},{"bike_id":"ca929e17-2c3f-4af7-bd21-94ba0b28a269","system_id":"levelo_inurba_marseille","lat":43.32657,"lon":5.41003,"is_reserved":false,"is_disabled":false,"rental_uris":{"android":"levelo://app?vid=ca929e17-2c3f-4af7-bd21-94ba0b28a269","ios":"levelo://app?vid=ca929e17-2c3f-4af7-bd21-94ba0b28a269"},"vehicle_type_id":"4","last_reported":1736431696,"current_range_meters":39200,"station_id":"ce4bhpp2rcd13ifvqhgg","pricing_plan_id":"cebpf4jnsgd1na2vs0mg"},{"bike_id":"fa573424-5251-41d0-8cc9-a981f6ca3bf5","system_id":"levelo_inurba_marseille","lat":43.28029,"lon":5.36947,"is_reserved":false,"is_disabled":false,"rental_uris":{"android":"levelo://app?vid=fa573424-5251-41d0-8cc9-a981f6ca3bf5","ios":"levelo://app?vid=fa573424-5251-41d0-8cc9-a981f6ca3bf5"},"vehicle_type_id":"4","last_reported":1736431696,"current_range_meters":35200,"station_id":"ce4bha12rcd13ifvqef0","pricing_plan_id":"cebpf4jnsgd1na2vs0mg"},{"bike_id":"494822bd-666e-4933-8362-e9915c3e969d","system_id":"levelo_inurba_marseille","lat":43.30146,"lon":5.38099,"is_reserved":false,"is_disabled":false,"rental_uris":{"android":"levelo://app?vid=494822bd-666e-4933-8362-e9915c3e969d","ios":"levelo://app?vid=494822bd-666e-4933-8362-e9915c3e969d"},"vehicle_type_id":"4","last_reported":1736431696,"current_range_meters":24400,"station_id":"ce4bgjp2rcd13ifvqbh0","pricing_plan_id":"cebpf4jnsgd1na2vs0mg"},{"bike_id":"a5b17657-42e5-456b-bb59-7c63a1f42c97","system_id":"levelo_inurba_marseille","lat":43.23149,"lon":5.43708,"is_reserved":false,"is_disabled":false,"rental_uris":{"android":"levelo://app?vid=a5b17657-42e5-456b-bb59-7c63a1f42c97","ios":"levelo://app?vid=a5b17657-42e5-456b-bb59-7c63a1f42c97"},"vehicle_type_id":"4","last_reported":1736431696,"current_range_meters":36800,"station_id":"ce4bhmp2rcd13ifvqgog","pricing_plan_id":"cebpf4jnsgd1na2vs0mg"},{"bike_id":"37d8e1ef-d932-49d7-b893-49542cf44d13","system_id":"levelo_inurba_marseille","lat":43.32345,"lon":5.40629,"is_reserved":false,"is_disabled":true,"rental_uris":{"android":"levelo://app?vid=37d8e1ef-d932-49d7-b893-49542cf44d13","ios":"levelo://app?vid=37d8e1ef-d932-49d7-b893-49542cf44d13"},"vehicle_type_id":"4","last_reported":1736431696,"current_range_meters":0,"station_id":"ce4bhq92rcd13ifvqhjg","pricing_plan_id":"cebpf4jnsgd1na2vs0mg"},{"bike_id":"458c3d58-e6a5-4d1a-8df2-05d9cb3e0072","system_id":"levelo_inurba_marseille","lat":43.25591,"lon":5.38251,"is_reserved":false,"is_disabled":false,"rental_uris":{"android":"levelo://app?vid=458c3d58-e6a5-4d1a-8df2-05d9cb3e0072","ios":"levelo://app?vid=458c3d58-e6a5-4d1a-8df2-05d9cb3e0072"},"vehicle_type_id":"4","last_reported":1736431696,"current_range_meters":20800,"station_id":"ce4bhih2rcd13ifvqfs0","pricing_plan_id":"cebpf4jnsgd1na2vs0mg"},{"bike_id":"7de8d9ac-4f29-46dc-a2a1-c043eb579698","system_id":"levelo_inurba_marseille","lat":43.26062,"lon":5.39399,"is_reserved":false,"is_disabled":false,"rental_uris":{"android":"levelo://app?vid=7de8d9ac-4f29-46dc-a2a1-c043eb579698","ios":"levelo://app?vid=7de8d9ac-4f29-46dc-a2a1-c043eb579698"},"vehicle_type_id":"4","last_reported":1736431696,"current_range_meters":25200,"station_id":"ce4bhh92rcd13ifvqfj0","pricing_plan_id":"cebpf4jnsgd1na2vs0mg"},{"bike_id":"da6743bd-ba20-40f9-8840-fa3f640bc022","system_id":"levelo_inurba_marseille","lat":43.31356,"lon":5.38496,"is_reserved":false,"is_disabled":false,"rental_uris":{"android":"levelo://app?vid=da6743bd-ba20-40f9-8840-fa3f640bc022","ios":"levelo://app?vid=da6743bd-ba20-40f9-8840-fa3f640bc022"},"vehicle_type_id":"4","last_reported":1736431696,"current_range_meters":16000,"station_id":"ce4bgt92rcd13ifvqcf0","pricing_plan_id":"cebpf4jnsgd1na2vs0mg"},{"bike_id":"42a1497d-f43e-4a74-8aa6-ab7fae7f9094","system_id":"levelo_inurba_marseille","lat":43.298065,"lon":5.380946,"is_reserved":false,"is_disabled":false,"rental_uris":{"android":"levelo://app?vid=42a1497d-f43e-4a74-8aa6-ab7fae7f9094","ios":"levelo://app?vid=42a1497d-f43e-4a74-8aa6-ab7fae7f9094"},"vehicle_type_id":"4","last_reported":1736431696,"current_range_meters":4000,"station_id":"ce4bgip2rcd13ifvqbb0","pricing_plan_id":"cebpf4jnsgd1na2vs0mg"},{"bike_id":"263d3f02-c0ce-4595-baad-e0e05c6a3c4c","system_id":"levelo_inurba_marseille","lat":43.25589,"lon":5.38221,"is_reserved":false,"is_disabled":false,"rental_uris":{"android":"levelo://app?vid=263d3f02-c0ce-4595-baad-e0e05c6a3c4c","ios":"levelo://app?vid=263d3f02-c0ce-4595-baad-e0e05c6a3c4c"},"vehicle_type_id":"4","last_reported":1736431696,"current_range_meters":28400,"station_id":"ce4bhih2rcd13ifvqfs0","pricing_plan_id":"cebpf4jnsgd1na2vs0mg"},{"bike_id":"8cfd7e90-9cc2-4f6e-8f50-df450bfe3c1c","system_id":"levelo_inurba_marseille","lat":43.29558,"lon":5.42293,"is_reserved":false,"is_disabled":false,"rental_uris":{"android":"levelo://app?vid=8cfd7e90-9cc2-4f6e-8f50-df450bfe3c1c","ios":"levelo://app?vid=8cfd7e90-9cc2-4f6e-8f50-df450bfe3c1c"},"vehicle_type_id":"4","last_reported":1736431696,"current_range_meters":30800,"station_id":"ce4bhph2rcd13ifvqhdg","pricing_plan_id":"cebpf4jnsgd1na2vs0mg"},{"bike_id":"3db9e692-2b87-4b8c-a286-519e310f563e","system_id":"levelo_inurba_marseille","lat":43.27212,"lon":5.39182,"is_reserved":false,"is_disabled":false,"rental_uris":{"android":"levelo://app?vid=3db9e692-2b87-4b8c-a286-519e310f563e","ios":"levelo://app?vid=3db9e692-2b87-4b8c-a286-519e310f563e"},"vehicle_type_id":"4","last_reported":1736431696,"current_range_meters":14400,"station_id":"ce4bhhp2rcd13ifvqfm0","pricing_plan_id":"cebpf4jnsgd1na2vs0mg"},{"bike_id":"73506a2a-d06c-45de-92d0-b96c574a5cbc","system_id":"levelo_inurba_marseille","lat":43.29346,"lon":5.37879,"is_reserved":false,"is_disabled":false,"rental_uris":{"android":"levelo://app?vid=73506a2a-d06c-45de-92d0-b96c574a5cbc","ios":"levelo://app?vid=73506a2a-d06c-45de-92d0-b96c574a5cbc"},"vehicle_type_id":"4","last_reported":1736431696,"current_range_meters":30000,"station_id":"ce4bgjh2rcd13ifvqbf0","pricing_plan_id":"cebpf4jnsgd1na2vs0mg"},{"bike_id":"4b9552e7-7313-44cc-ba72-6ebb3cfea997","system_id":"levelo_inurba_marseille","lat":43.26046,"lon":5.39401,"is_reserved":false,"is_disabled":false,"rental_uris":{"android":"levelo://app?vid=4b9552e7-7313-44cc-ba72-6ebb3cfea997","ios":"levelo://app?vid=4b9552e7-7313-44cc-ba72-6ebb3cfea997"},"vehicle_type_id":"4","last_reported":1736431696,"current_range_meters":38800,"station_id":"ce4bhh92rcd13ifvqfj0","pricing_plan_id":"cebpf4jnsgd1na2vs0mg"},{"bike_id":"c150f8af-fc8f-4eb5-ac98-0b06dadf4ce0","system_id":"levelo_inurba_marseille","lat":43.25586,"lon":5.38248,"is_reserved":false,"is_disabled":false,"rental_uris":{"android":"levelo://app?vid=c150f8af-fc8f-4eb5-ac98-0b06dadf4ce0","ios":"levelo://app?vid=c150f8af-fc8f-4eb5-ac98-0b06dadf4ce0"},"vehicle_type_id":"4","last_reported":1736431696,"current_range_meters":37600,"station_id":"ce4bhih2rcd13ifvqfs0","pricing_plan_id":"cebpf4jnsgd1na2vs0mg"},{"bike_id":"014747e4-3368-446b-8320-5289348fab26","system_id":"levelo_inurba_marseille","lat":43.28155,"lon":5.4264,"is_reserved":false,"is_disabled":false,"rental_uris":{"android":"levelo://app?vid=014747e4-3368-446b-8320-5289348fab26","ios":"levelo://app?vid=014747e4-3368-446b-8320-5289348fab26"},"vehicle_type_id":"4","last_reported":1736431696,"current_range_meters":28400,"station_id":"ce4bhnh2rcd13ifvqgug","pricing_plan_id":"cebpf4jnsgd1na2vs0mg"},{"bike_id":"7277abf6-1732-4723-9bef-c0330eccd972","system_id":"levelo_inurba_marseille","lat":43.27495,"lon":5.42457,"is_reserved":false,"is_disabled":false,"rental_uris":{"android":"levelo://app?vid=7277abf6-1732-4723-9bef-c0330eccd972","ios":"levelo://app?vid=7277abf6-1732-4723-9bef-c0330eccd972"},"vehicle_type_id":"4","last_reported":1736431696,"current_range_meters":35200,"station_id":"ce4bhn92rcd13ifvqgrg","pricing_plan_id":"cebpf4jnsgd1na2vs0mg"},{"bike_id":"1c6a8ec7-5ae9-44c9-a9ca-e14034f04ace","system_id":"levelo_inurba_marseille","lat":43.28414,"lon":5.37515,"is_reserved":false,"is_disabled":false,"rental_uris":{"android":"levelo://app?vid=1c6a8ec7-5ae9-44c9-a9ca-e14034f04ace","ios":"levelo://app?vid=1c6a8ec7-5ae9-44c9-a9ca-e14034f04ace"},"vehicle_type_id":"4","last_reported":1736431696,"current_range_meters":26000,"station_id":"ce4bh412rcd13ifvqds0","pricing_plan_id":"cebpf4jnsgd1na2vs0mg"},{"bike_id":"8caee6a7-a343-4e7e-92cc-a74facb40f4e","system_id":"levelo_inurba_marseille","lat":43.23157,"lon":5.43709,"is_reserved":false,"is_disabled":false,"rental_uris":{"android":"levelo://app?vid=8caee6a7-a343-4e7e-92cc-a74facb40f4e","ios":"levelo://app?vid=8caee6a7-a343-4e7e-92cc-a74facb40f4e"},"vehicle_type_id":"4","last_reported":1736431696,"current_range_meters":38800,"station_id":"ce4bhmp2rcd13ifvqgog","pricing_plan_id":"cebpf4jnsgd1na2vs0mg"},{"bike_id":"60ce1b70-e47d-4caf-abee-52e7d5bfe299","system_id":"levelo_inurba_marseille","lat":43.24647,"lon":5.38886,"is_reserved":false,"is_disabled":false,"rental_uris":{"android":"levelo://app?vid=60ce1b70-e47d-4caf-abee-52e7d5bfe299","ios":"levelo://app?vid=60ce1b70-e47d-4caf-abee-52e7d5bfe299"},"vehicle_type_id":"4","last_reported":1736431696,"current_range_meters":38000,"station_id":"ce4bhg12rcd13ifvqf60","pricing_plan_id":"cebpf4jnsgd1na2vs0mg"},{"bike_id":"7627c0f8-e30b-4018-a991-3dd21750fc78","system_id":"levelo_inurba_marseille","lat":43.28723,"lon":5.37953,"is_reserved":false,"is_disabled":true,"rental_uris":{"android":"levelo://app?vid=7627c0f8-e30b-4018-a991-3dd21750fc78","ios":"levelo://app?vid=7627c0f8-e30b-4018-a991-3dd21750fc78"},"vehicle_type_id":"4","last_reported":1736431696,"current_range_meters":38800,"station_id":"ce4bh9p2rcd13ifvqec0","pricing_plan_id":"cebpf4jnsgd1na2vs0mg"},{"bike_id":"a84b57a6-f5ea-4511-9399-d04b2bf4b84c","system_id":"levelo_inurba_marseille","lat":43.29476,"lon":5.38604,"is_reserved":false,"is_disabled":false,"rental_uris":{"android":"levelo://app?vid=a84b57a6-f5ea-4511-9399-d04b2bf4b84c","ios":"levelo://app?vid=a84b57a6-f5ea-4511-9399-d04b2bf4b84c"},"vehicle_type_id":"4","last_reported":1736431696,"current_range_meters":36400,"station_id":"","pricing_plan_id":"cebpf4jnsgd1na2vs0mg"},{"bike_id":"66471134-25e4-4211-abd7-23c33d84503b","system_id":"levelo_inurba_marseille","lat":43.25928,"lon":5.40913,"is_reserved":false,"is_disabled":false,"rental_uris":{"android":"levelo://app?vid=66471134-25e4-4211-abd7-23c33d84503b","ios":"levelo://app?vid=66471134-25e4-4211-abd7-23c33d84503b"},"vehicle_type_id":"4","last_reported":1736431696,"current_range_meters":38800,"station_id":"ce4bhm92rcd13ifvqglg","pricing_plan_id":"cebpf4jnsgd1na2vs0mg"},{"bike_id":"fccb27bf-abbb-42b8-8c71-be1ef504107f","system_id":"levelo_inurba_marseille","lat":43.28444,"lon":5.39208,"is_reserved":false,"is_disabled":false,"rental_uris":{"android":"levelo://app?vid=fccb27bf-abbb-42b8-8c71-be1ef504107f","ios":"levelo://app?vid=fccb27bf-abbb-42b8-8c71-be1ef504107f"},"vehicle_type_id":"4","last_reported":1736431696,"current_range_meters":38800,"station_id":"ce4bhoh2rcd13ifvqh5g","pricing_plan_id":"cebpf4jnsgd1na2vs0mg"},{"bike_id":"a04c750d-c2a3-4826-bb16-b9d8bd34b860","system_id":"levelo_inurba_marseille","lat":43.25585,"lon":5.38227,"is_reserved":false,"is_disabled":false,"rental_uris":{"android":"levelo://app?vid=a04c750d-c2a3-4826-bb16-b9d8bd34b860","ios":"levelo://app?vid=a04c750d-c2a3-4826-bb16-b9d8bd34b860"},"vehicle_type_id":"4","last_reported":1736431696,"current_range_meters":39200,"station_id":"ce4bhih2rcd13ifvqfs0","pricing_plan_id":"cebpf4jnsgd1na2vs0mg"},{"bike_id":"d1b092d3-a407-46bf-b987-f5eda0e6e805","system_id":"levelo_inurba_marseille","lat":43.29756,"lon":5.37121,"is_reserved":false,"is_disabled":false,"rental_uris":{"android":"levelo://app?vid=d1b092d3-a407-46bf-b987-f5eda0e6e805","ios":"levelo://app?vid=d1b092d3-a407-46bf-b987-f5eda0e6e805"},"vehicle_type_id":"4","last_reported":1736431696,"current_range_meters":36800,"station_id":"ce4bgop2rcd13ifvqc1g","pricing_plan_id":"cebpf4jnsgd1na2vs0mg"},{"bike_id":"eb9e7f11-40b0-4740-a3cf-085cd019d8d1","system_id":"levelo_inurba_marseille","lat":43.30156,"lon":5.38077,"is_reserved":false,"is_disabled":false,"rental_uris":{"android":"levelo://app?vid=eb9e7f11-40b0-4740-a3cf-085cd019d8d1","ios":"levelo://app?vid=eb9e7f11-40b0-4740-a3cf-085cd019d8d1"},"vehicle_type_id":"4","last_reported":1736431696,"current_range_meters":38800,"station_id":"ce4bgjp2rcd13ifvqbh0","pricing_plan_id":"cebpf4jnsgd1na2vs0mg"},{"bike_id":"77d2aaaf-d1e1-478e-8d5e-217a31b0679b","system_id":"levelo_inurba_marseille","lat":43.29004,"lon":5.35617,"is_reserved":false,"is_disabled":false,"rental_uris":{"android":"levelo://app?vid=77d2aaaf-d1e1-478e-8d5e-217a31b0679b","ios":"levelo://app?vid=77d2aaaf-d1e1-478e-8d5e-217a31b0679b"},"vehicle_type_id":"4","last_reported":1736431696,"current_range_meters":35600,"station_id":"ce4bhb92rcd13ifvqen0","pricing_plan_id":"cebpf4jnsgd1na2vs0mg"},{"bike_id":"51e8f2a4-f64b-4d7a-bcaf-c62d9d723ade","system_id":"levelo_inurba_marseille","lat":43.26565,"lon":5.3901,"is_reserved":false,"is_disabled":false,"rental_uris":{"android":"levelo://app?vid=51e8f2a4-f64b-4d7a-bcaf-c62d9d723ade","ios":"levelo://app?vid=51e8f2a4-f64b-4d7a-bcaf-c62d9d723ade"},"vehicle_type_id":"4","last_reported":1736431696,"current_range_meters":16800,"station_id":"ce4bhe12rcd13ifvqf30","pricing_plan_id":"cebpf4jnsgd1na2vs0mg"},{"bike_id":"a155b776-babb-4235-a662-824147b7b6eb","system_id":"levelo_inurba_marseille","lat":43.2903,"lon":5.3756,"is_reserved":false,"is_disabled":false,"rental_uris":{"android":"levelo://app?vid=a155b776-babb-4235-a662-824147b7b6eb","ios":"levelo://app?vid=a155b776-babb-4235-a662-824147b7b6eb"},"vehicle_type_id":"4","last_reported":1736431696,"current_range_meters":27200,"station_id":"ce4bh692rcd13ifvqe90","pricing_plan_id":"cebpf4jnsgd1na2vs0mg"},{"bike_id":"6c9daffc-e174-4a9a-8b3e-30a6cf4027c8","system_id":"levelo_inurba_marseille","lat":43.32118,"lon":5.36775,"is_reserved":false,"is_disabled":false,"rental_uris":{"android":"levelo://app?vid=6c9daffc-e174-4a9a-8b3e-30a6cf4027c8","ios":"levelo://app?vid=6c9daffc-e174-4a9a-8b3e-30a6cf4027c8"},"vehicle_type_id":"4","last_reported":1736431696,"current_range_meters":14800,"station_id":"ce4bhrh2rcd13ifvqhug","pricing_plan_id":"cebpf4jnsgd1na2vs0mg"},{"bike_id":"c4674aa4-a07b-4de1-b830-e87483dd74d7","system_id":"levelo_inurba_marseille","lat":43.29798,"lon":5.38113,"is_reserved":false,"is_disabled":false,"rental_uris":{"android":"levelo://app?vid=c4674aa4-a07b-4de1-b830-e87483dd74d7","ios":"levelo://app?vid=c4674aa4-a07b-4de1-b830-e87483dd74d7"},"vehicle_type_id":"4","last_reported":1736431696,"current_range_meters":8800,"station_id":"ce4bgip2rcd13ifvqbb0","pricing_plan_id":"cebpf4jnsgd1na2vs0mg"},{"bike_id":"355798b5-9f19-4468-ab35-5d5928887f31","system_id":"levelo_inurba_marseille","lat":43.26686,"lon":5.38273,"is_reserved":false,"is_disabled":false,"rental_uris":{"android":"levelo://app?vid=355798b5-9f19-4468-ab35-5d5928887f31","ios":"levelo://app?vid=355798b5-9f19-4468-ab35-5d5928887f31"},"vehicle_type_id":"4","last_reported":1736431696,"current_range_meters":20400,"station_id":"ce4bhg92rcd13ifvqf90","pricing_plan_id":"cebpf4jnsgd1na2vs0mg"},{"bike_id":"feb1c606-2341-4918-8abd-da8a12f4e1f7","system_id":"levelo_inurba_marseille","lat":43.31357,"lon":5.38499,"is_reserved":false,"is_disabled":false,"rental_uris":{"android":"levelo://app?vid=feb1c606-2341-4918-8abd-da8a12f4e1f7","ios":"levelo://app?vid=feb1c606-2341-4918-8abd-da8a12f4e1f7"},"vehicle_type_id":"4","last_reported":1736431696,"current_range_meters":36800,"station_id":"ce4bgt92rcd13ifvqcf0","pricing_plan_id":"cebpf4jnsgd1na2vs0mg"},{"bike_id":"cfb415c6-da59-4905-81c1-91453da2b754","system_id":"levelo_inurba_marseille","lat":43.22924,"lon":5.35382,"is_reserved":false,"is_disabled":false,"rental_uris":{"android":"levelo://app?vid=cfb415c6-da59-4905-81c1-91453da2b754","ios":"levelo://app?vid=cfb415c6-da59-4905-81c1-91453da2b754"},"vehicle_type_id":"4","last_reported":1736431696,"current_range_meters":11200,"station_id":"cpo3532slgdg3j2ikp40","pricing_plan_id":"cebpf4jnsgd1na2vs0mg"},{"bike_id":"f1b6bf01-78fe-4518-922e-ca94ee2b9527","system_id":"levelo_inurba_marseille","lat":43.26967,"lon":5.38638,"is_reserved":false,"is_disabled":false,"rental_uris":{"android":"levelo://app?vid=f1b6bf01-78fe-4518-922e-ca94ee2b9527","ios":"levelo://app?vid=f1b6bf01-78fe-4518-922e-ca94ee2b9527"},"vehicle_type_id":"4","last_reported":1736431696,"current_range_meters":17600,"station_id":"ce4bhh92rcd13ifvqfh0","pricing_plan_id":"cebpf4jnsgd1na2vs0mg"},{"bike_id":"2581e438-acdf-4d21-8721-6bb36b3adbc3","system_id":"levelo_inurba_marseille","lat":43.31236,"lon":5.36864,"is_reserved":false,"is_disabled":false,"rental_uris":{"android":"levelo://app?vid=2581e438-acdf-4d21-8721-6bb36b3adbc3","ios":"levelo://app?vid=2581e438-acdf-4d21-8721-6bb36b3adbc3"},"vehicle_type_id":"4","last_reported":1736431696,"current_range_meters":17600,"station_id":"ce4bgl92rcd13ifvqbq0","pricing_plan_id":"cebpf4jnsgd1na2vs0mg"},{"bike_id":"8fb4a4e8-d912-4ace-b88c-b341c0ed27e0","system_id":"levelo_inurba_marseille","lat":43.2844,"lon":5.3919,"is_reserved":false,"is_disabled":false,"rental_uris":{"android":"levelo://app?vid=8fb4a4e8-d912-4ace-b88c-b341c0ed27e0","ios":"levelo://app?vid=8fb4a4e8-d912-4ace-b88c-b341c0ed27e0"},"vehicle_type_id":"4","last_reported":1736431696,"current_range_meters":9600,"station_id":"ce4bhoh2rcd13ifvqh5g","pricing_plan_id":"cebpf4jnsgd1na2vs0mg"},{"bike_id":"b4ae055c-0671-4c3f-a516-03a49c838983","system_id":"levelo_inurba_marseille","lat":43.28924,"lon":5.38405,"is_reserved":false,"is_disabled":false,"rental_uris":{"android":"levelo://app?vid=b4ae055c-0671-4c3f-a516-03a49c838983","ios":"levelo://app?vid=b4ae055c-0671-4c3f-a516-03a49c838983"},"vehicle_type_id":"4","last_reported":1736431696,"current_range_meters":38800,"station_id":"ce4bh612rcd13ifvqe6g","pricing_plan_id":"cebpf4jnsgd1na2vs0mg"},{"bike_id":"47b52840-ae6f-45a2-91dd-47029d990ad8","system_id":"levelo_inurba_marseille","lat":43.290127,"lon":5.356008,"is_reserved":false,"is_disabled":false,"rental_uris":{"android":"levelo://app?vid=47b52840-ae6f-45a2-91dd-47029d990ad8","ios":"levelo://app?vid=47b52840-ae6f-45a2-91dd-47029d990ad8"},"vehicle_type_id":"4","last_reported":1736431696,"current_range_meters":28400,"station_id":"ce4bhb92rcd13ifvqen0","pricing_plan_id":"cebpf4jnsgd1na2vs0mg"},{"bike_id":"2eb264c8-1e8d-4f17-a831-3cda07857865","system_id":"levelo_inurba_marseille","lat":43.32108,"lon":5.36782,"is_reserved":false,"is_disabled":false,"rental_uris":{"android":"levelo://app?vid=2eb264c8-1e8d-4f17-a831-3cda07857865","ios":"levelo://app?vid=2eb264c8-1e8d-4f17-a831-3cda07857865"},"vehicle_type_id":"4","last_reported":1736431696,"current_range_meters":38000,"station_id":"ce4bhrh2rcd13ifvqhug","pricing_plan_id":"cebpf4jnsgd1na2vs0mg"},{"bike_id":"d41dbd6d-ba49-4da7-8568-b5e5c4a69328","system_id":"levelo_inurba_marseille","lat":43.30145,"lon":5.39844,"is_reserved":false,"is_disabled":false,"rental_uris":{"android":"levelo://app?vid=d41dbd6d-ba49-4da7-8568-b5e5c4a69328","ios":"levelo://app?vid=d41dbd6d-ba49-4da7-8568-b5e5c4a69328"},"vehicle_type_id":"4","last_reported":1736431696,"current_range_meters":30400,"station_id":"ce4bh0h2rcd13ifvqd40","pricing_plan_id":"cebpf4jnsgd1na2vs0mg"},{"bike_id":"1e2223a2-c032-49e7-8dbf-982df86a0520","system_id":"levelo_inurba_marseille","lat":43.22928,"lon":5.35376,"is_reserved":false,"is_disabled":false,"rental_uris":{"android":"levelo://app?vid=1e2223a2-c032-49e7-8dbf-982df86a0520","ios":"levelo://app?vid=1e2223a2-c032-49e7-8dbf-982df86a0520"},"vehicle_type_id":"4","last_reported":1736431696,"current_range_meters":36400,"station_id":"cpo3532slgdg3j2ikp40","pricing_plan_id":"cebpf4jnsgd1na2vs0mg"},{"bike_id":"c71ce5fa-7d0e-409a-a897-67090c53b395","system_id":"levelo_inurba_marseille","lat":43.28446,"lon":5.39199,"is_reserved":false,"is_disabled":false,"rental_uris":{"android":"levelo://app?vid=c71ce5fa-7d0e-409a-a897-67090c53b395","ios":"levelo://app?vid=c71ce5fa-7d0e-409a-a897-67090c53b395"},"vehicle_type_id":"4","last_reported":1736431696,"current_range_meters":38800,"station_id":"ce4bhoh2rcd13ifvqh5g","pricing_plan_id":"cebpf4jnsgd1na2vs0mg"},{"bike_id":"20dfce35-8e8e-45c1-bacc-717be5427391","system_id":"levelo_inurba_marseille","lat":43.30529,"lon":5.38434,"is_reserved":false,"is_disabled":false,"rental_uris":{"android":"levelo://app?vid=20dfce35-8e8e-45c1-bacc-717be5427391","ios":"levelo://app?vid=20dfce35-8e8e-45c1-bacc-717be5427391"},"vehicle_type_id":"4","last_reported":1736431696,"current_range_meters":38800,"station_id":"ce4bgg92rcd13ifvqb30","pricing_plan_id":"cebpf4jnsgd1na2vs0mg"},{"bike_id":"3aefb9c1-3e4a-487c-b413-b90ef97c7063","system_id":"levelo_inurba_marseille","lat":43.23151,"lon":5.43712,"is_reserved":false,"is_disabled":false,"rental_uris":{"android":"levelo://app?vid=3aefb9c1-3e4a-487c-b413-b90ef97c7063","ios":"levelo://app?vid=3aefb9c1-3e4a-487c-b413-b90ef97c7063"},"vehicle_type_id":"4","last_reported":1736431696,"current_range_meters":14800,"station_id":"ce4bhmp2rcd13ifvqgog","pricing_plan_id":"cebpf4jnsgd1na2vs0mg"},{"bike_id":"be8a233f-ad85-41b2-af03-bfa1e3033438","system_id":"levelo_inurba_marseille","lat":43.23206,"lon":5.35564,"is_reserved":false,"is_disabled":false,"rental_uris":{"android":"levelo://app?vid=be8a233f-ad85-41b2-af03-bfa1e3033438","ios":"levelo://app?vid=be8a233f-ad85-41b2-af03-bfa1e3033438"},"vehicle_type_id":"4","last_reported":1736431696,"current_range_meters":28000,"station_id":"ce4bhu92rcd13ifvqi70","pricing_plan_id":"cebpf4jnsgd1na2vs0mg"},{"bike_id":"b124ca2f-2fd0-4c56-960f-1b8a90949c3b","system_id":"levelo_inurba_marseille","lat":43.29529,"lon":5.37495,"is_reserved":false,"is_disabled":true,"rental_uris":{"android":"levelo://app?vid=b124ca2f-2fd0-4c56-960f-1b8a90949c3b","ios":"levelo://app?vid=b124ca2f-2fd0-4c56-960f-1b8a90949c3b"},"vehicle_type_id":"4","last_reported":1736431696,"current_range_meters":28800,"station_id":"ce4bgkp2rcd13ifvqbmg","pricing_plan_id":"cebpf4jnsgd1na2vs0mg"},{"bike_id":"4e961a78-0f5c-4fc7-98ca-40069191b9f0","system_id":"levelo_inurba_marseille","lat":43.28392,"lon":5.35022,"is_reserved":false,"is_disabled":false,"rental_uris":{"android":"levelo://app?vid=4e961a78-0f5c-4fc7-98ca-40069191b9f0","ios":"levelo://app?vid=4e961a78-0f5c-4fc7-98ca-40069191b9f0"},"vehicle_type_id":"4","last_reported":1736431696,"current_range_meters":37600,"station_id":"ce4bhbh2rcd13ifvqepg","pricing_plan_id":"cebpf4jnsgd1na2vs0mg"},{"bike_id":"11a898d8-d645-4f4a-92a2-baea3ec19760","system_id":"levelo_inurba_marseille","lat":43.2903,"lon":5.37575,"is_reserved":false,"is_disabled":false,"rental_uris":{"android":"levelo://app?vid=11a898d8-d645-4f4a-92a2-baea3ec19760","ios":"levelo://app?vid=11a898d8-d645-4f4a-92a2-baea3ec19760"},"vehicle_type_id":"4","last_reported":1736431696,"current_range_meters":24800,"station_id":"ce4bh692rcd13ifvqe90","pricing_plan_id":"cebpf4jnsgd1na2vs0mg"},{"bike_id":"2bf137df-75b1-44ad-8782-8d7ae5906911","system_id":"levelo_inurba_marseille","lat":43.304347,"lon":5.38902,"is_reserved":false,"is_disabled":false,"rental_uris":{"android":"levelo://app?vid=2bf137df-75b1-44ad-8782-8d7ae5906911","ios":"levelo://app?vid=2bf137df-75b1-44ad-8782-8d7ae5906911"},"vehicle_type_id":"4","last_reported":1736431696,"current_range_meters":37600,"station_id":"ce4bgk12rcd13ifvqbi0","pricing_plan_id":"cebpf4jnsgd1na2vs0mg"},{"bike_id":"94c02afb-9760-4eea-9611-074184d4b1de","system_id":"levelo_inurba_marseille","lat":43.29939,"lon":5.36549,"is_reserved":false,"is_disabled":false,"rental_uris":{"android":"levelo://app?vid=94c02afb-9760-4eea-9611-074184d4b1de","ios":"levelo://app?vid=94c02afb-9760-4eea-9611-074184d4b1de"},"vehicle_type_id":"4","last_reported":1736431696,"current_range_meters":37600,"station_id":"ce4bgm92rcd13ifvqbr0","pricing_plan_id":"cebpf4jnsgd1na2vs0mg"},{"bike_id":"07ee3803-f867-4e40-9872-6084e3ca80cb","system_id":"levelo_inurba_marseille","lat":43.30642,"lon":5.40092,"is_reserved":false,"is_disabled":false,"rental_uris":{"android":"levelo://app?vid=07ee3803-f867-4e40-9872-6084e3ca80cb","ios":"levelo://app?vid=07ee3803-f867-4e40-9872-6084e3ca80cb"},"vehicle_type_id":"4","last_reported":1736431696,"current_range_meters":31200,"station_id":"ce4bh112rcd13ifvqda0","pricing_plan_id":"cebpf4jnsgd1na2vs0mg"},{"bike_id":"363b71f0-6185-416e-9aed-097caf5f4dfa","system_id":"levelo_inurba_marseille","lat":43.28709,"lon":5.37925,"is_reserved":false,"is_disabled":false,"rental_uris":{"android":"levelo://app?vid=363b71f0-6185-416e-9aed-097caf5f4dfa","ios":"levelo://app?vid=363b71f0-6185-416e-9aed-097caf5f4dfa"},"vehicle_type_id":"4","last_reported":1736431696,"current_range_meters":9200,"station_id":"ce4bh9p2rcd13ifvqec0","pricing_plan_id":"cebpf4jnsgd1na2vs0mg"},{"bike_id":"a2cdc16c-2ab6-429a-9af3-90d7981a1f04","system_id":"levelo_inurba_marseille","lat":43.27948,"lon":5.38713,"is_reserved":false,"is_disabled":true,"rental_uris":{"android":"levelo://app?vid=a2cdc16c-2ab6-429a-9af3-90d7981a1f04","ios":"levelo://app?vid=a2cdc16c-2ab6-429a-9af3-90d7981a1f04"},"vehicle_type_id":"4","last_reported":1736431696,"current_range_meters":0,"station_id":"ce4bhg12rcd13ifvqf80","pricing_plan_id":"cebpf4jnsgd1na2vs0mg"},{"bike_id":"cc126a05-9563-45c9-aaad-c2416b55c9a5","system_id":"levelo_inurba_marseille","lat":43.27059,"lon":5.40254,"is_reserved":false,"is_disabled":false,"rental_uris":{"android":"levelo://app?vid=cc126a05-9563-45c9-aaad-c2416b55c9a5","ios":"levelo://app?vid=cc126a05-9563-45c9-aaad-c2416b55c9a5"},"vehicle_type_id":"4","last_reported":1736431696,"current_range_meters":16800,"station_id":"ce4bhk92rcd13ifvqgc0","pricing_plan_id":"cebpf4jnsgd1na2vs0mg"},{"bike_id":"aca58d84-ee45-42b2-bfa7-a284870e32cc","system_id":"levelo_inurba_marseille","lat":43.30931,"lon":5.3684,"is_reserved":false,"is_disabled":false,"rental_uris":{"android":"levelo://app?vid=aca58d84-ee45-42b2-bfa7-a284870e32cc","ios":"levelo://app?vid=aca58d84-ee45-42b2-bfa7-a284870e32cc"},"vehicle_type_id":"4","last_reported":1736431696,"current_range_meters":38800,"station_id":"ce4bgn92rcd13ifvqbvg","pricing_plan_id":"cebpf4jnsgd1na2vs0mg"},{"bike_id":"661421ef-43d8-4a9a-9b63-a317032c4e73","system_id":"levelo_inurba_marseille","lat":43.30121,"lon":5.38772,"is_reserved":false,"is_disabled":true,"rental_uris":{"android":"levelo://app?vid=661421ef-43d8-4a9a-9b63-a317032c4e73","ios":"levelo://app?vid=661421ef-43d8-4a9a-9b63-a317032c4e73"},"vehicle_type_id":"4","last_reported":1736431696,"current_range_meters":38800,"station_id":"ce4bghh2rcd13ifvqb60","pricing_plan_id":"cebpf4jnsgd1na2vs0mg"},{"bike_id":"fc9288ed-9da0-4c7f-9aba-d64070cdbf51","system_id":"levelo_inurba_marseille","lat":43.23147,"lon":5.43698,"is_reserved":false,"is_disabled":true,"rental_uris":{"android":"levelo://app?vid=fc9288ed-9da0-4c7f-9aba-d64070cdbf51","ios":"levelo://app?vid=fc9288ed-9da0-4c7f-9aba-d64070cdbf51"},"vehicle_type_id":"4","last_reported":1736431696,"current_range_meters":2000,"station_id":"ce4bhmp2rcd13ifvqgog","pricing_plan_id":"cebpf4jnsgd1na2vs0mg"},{"bike_id":"0819326e-4c9e-46b6-a47f-46eef59e79b2","system_id":"levelo_inurba_marseille","lat":43.24077,"lon":5.37757,"is_reserved":false,"is_disabled":false,"rental_uris":{"android":"levelo://app?vid=0819326e-4c9e-46b6-a47f-46eef59e79b2","ios":"levelo://app?vid=0819326e-4c9e-46b6-a47f-46eef59e79b2"},"vehicle_type_id":"4","last_reported":1736431696,"current_range_meters":28800,"station_id":"ce4bhnp2rcd13ifvqgvg","pricing_plan_id":"cebpf4jnsgd1na2vs0mg"},{"bike_id":"ad28bd53-1c8c-44ea-9a1c-1e5a5b2498fe","system_id":"levelo_inurba_marseille","lat":43.24168,"lon":5.36405,"is_reserved":false,"is_disabled":false,"rental_uris":{"android":"levelo://app?vid=ad28bd53-1c8c-44ea-9a1c-1e5a5b2498fe","ios":"levelo://app?vid=ad28bd53-1c8c-44ea-9a1c-1e5a5b2498fe"},"vehicle_type_id":"4","last_reported":1736431696,"current_range_meters":14800,"station_id":"cpo36qri1sfpv3e86is0","pricing_plan_id":"cebpf4jnsgd1na2vs0mg"},{"bike_id":"c6f5202e-f115-4b0f-953e-5b95cb1987d4","system_id":"levelo_inurba_marseille","lat":43.26811,"lon":5.4026,"is_reserved":false,"is_disabled":false,"rental_uris":{"android":"levelo://app?vid=c6f5202e-f115-4b0f-953e-5b95cb1987d4","ios":"levelo://app?vid=c6f5202e-f115-4b0f-953e-5b95cb1987d4"},"vehicle_type_id":"4","last_reported":1736431696,"current_range_meters":20000,"station_id":"ce501612rcd8frsf0b60","pricing_plan_id":"cebpf4jnsgd1na2vs0mg"},{"bike_id":"2d2fbc61-7484-43d8-82f1-4c77f4e113dc","system_id":"levelo_inurba_marseille","lat":43.240804,"lon":5.377308,"is_reserved":false,"is_disabled":false,"rental_uris":{"android":"levelo://app?vid=2d2fbc61-7484-43d8-82f1-4c77f4e113dc","ios":"levelo://app?vid=2d2fbc61-7484-43d8-82f1-4c77f4e113dc"},"vehicle_type_id":"4","last_reported":1736431696,"current_range_meters":22400,"station_id":"ce4bhnp2rcd13ifvqgvg","pricing_plan_id":"cebpf4jnsgd1na2vs0mg"},{"bike_id":"60278077-1f3d-446b-a428-7039cba05bb0","system_id":"levelo_inurba_marseille","lat":43.29622,"lon":5.37717,"is_reserved":false,"is_disabled":false,"rental_uris":{"android":"levelo://app?vid=60278077-1f3d-446b-a428-7039cba05bb0","ios":"levelo://app?vid=60278077-1f3d-446b-a428-7039cba05bb0"},"vehicle_type_id":"4","last_reported":1736431696,"current_range_meters":30400,"station_id":"ce4bgi92rcd13ifvqb90","pricing_plan_id":"cebpf4jnsgd1na2vs0mg"},{"bike_id":"beceaf1c-b3bb-4418-826f-ccba131c6a10","system_id":"levelo_inurba_marseille","lat":43.23146,"lon":5.43713,"is_reserved":false,"is_disabled":false,"rental_uris":{"android":"levelo://app?vid=beceaf1c-b3bb-4418-826f-ccba131c6a10","ios":"levelo://app?vid=beceaf1c-b3bb-4418-826f-ccba131c6a10"},"vehicle_type_id":"4","last_reported":1736431696,"current_range_meters":38800,"station_id":"ce4bhmp2rcd13ifvqgog","pricing_plan_id":"cebpf4jnsgd1na2vs0mg"},{"bike_id":"b4719b60-0822-432e-bdf1-71e49dd12aad","system_id":"levelo_inurba_marseille","lat":43.2894,"lon":5.39632,"is_reserved":false,"is_disabled":false,"rental_uris":{"android":"levelo://app?vid=b4719b60-0822-432e-bdf1-71e49dd12aad","ios":"levelo://app?vid=b4719b60-0822-432e-bdf1-71e49dd12aad"},"vehicle_type_id":"4","last_reported":1736431696,"current_range_meters":27200,"station_id":"ce4bh3h2rcd13ifvqdn0","pricing_plan_id":"cebpf4jnsgd1na2vs0mg"},{"bike_id":"72cf66a2-c5a6-4535-b7a2-c649dbfaf791","system_id":"levelo_inurba_marseille","lat":43.24662,"lon":5.38166,"is_reserved":false,"is_disabled":false,"rental_uris":{"android":"levelo://app?vid=72cf66a2-c5a6-4535-b7a2-c649dbfaf791","ios":"levelo://app?vid=72cf66a2-c5a6-4535-b7a2-c649dbfaf791"},"vehicle_type_id":"4","last_reported":1736431696,"current_range_meters":34800,"station_id":"ce4bhih2rcd13ifvqfr0","pricing_plan_id":"cebpf4jnsgd1na2vs0mg"},{"bike_id":"c27611f9-1c81-43d5-a1b9-b12209022e52","system_id":"levelo_inurba_marseille","lat":43.26668,"lon":5.38274,"is_reserved":false,"is_disabled":false,"rental_uris":{"android":"levelo://app?vid=c27611f9-1c81-43d5-a1b9-b12209022e52","ios":"levelo://app?vid=c27611f9-1c81-43d5-a1b9-b12209022e52"},"vehicle_type_id":"4","last_reported":1736431696,"current_range_meters":39200,"station_id":"ce4bhg92rcd13ifvqf90","pricing_plan_id":"cebpf4jnsgd1na2vs0mg"},{"bike_id":"b528ae1f-1cef-4319-8c5e-71132ca99ac1","system_id":"levelo_inurba_marseille","lat":43.30186,"lon":5.36622,"is_reserved":false,"is_disabled":false,"rental_uris":{"android":"levelo://app?vid=b528ae1f-1cef-4319-8c5e-71132ca99ac1","ios":"levelo://app?vid=b528ae1f-1cef-4319-8c5e-71132ca99ac1"},"vehicle_type_id":"4","last_reported":1736431696,"current_range_meters":38800,"station_id":"ce4bgrh2rcd13ifvqc8g","pricing_plan_id":"cebpf4jnsgd1na2vs0mg"},{"bike_id":"ab09e227-6fab-4bb3-97d5-42e0489b368c","system_id":"levelo_inurba_marseille","lat":43.30145,"lon":5.38776,"is_reserved":false,"is_disabled":false,"rental_uris":{"android":"levelo://app?vid=ab09e227-6fab-4bb3-97d5-42e0489b368c","ios":"levelo://app?vid=ab09e227-6fab-4bb3-97d5-42e0489b368c"},"vehicle_type_id":"4","last_reported":1736431696,"current_range_meters":8800,"station_id":"ce4bhoh2rcd13ifvqh6g","pricing_plan_id":"cebpf4jnsgd1na2vs0mg"},{"bike_id":"b8acbba0-a715-4ced-a2aa-0517db10ac9d","system_id":"levelo_inurba_marseille","lat":43.22927,"lon":5.35381,"is_reserved":false,"is_disabled":false,"rental_uris":{"android":"levelo://app?vid=b8acbba0-a715-4ced-a2aa-0517db10ac9d","ios":"levelo://app?vid=b8acbba0-a715-4ced-a2aa-0517db10ac9d"},"vehicle_type_id":"4","last_reported":1736431696,"current_range_meters":11200,"station_id":"cpo3532slgdg3j2ikp40","pricing_plan_id":"cebpf4jnsgd1na2vs0mg"},{"bike_id":"b450dfde-eda4-42e3-a726-8a34fd665df8","system_id":"levelo_inurba_marseille","lat":43.24107,"lon":5.37756,"is_reserved":false,"is_disabled":false,"rental_uris":{"android":"levelo://app?vid=b450dfde-eda4-42e3-a726-8a34fd665df8","ios":"levelo://app?vid=b450dfde-eda4-42e3-a726-8a34fd665df8"},"vehicle_type_id":"4","last_reported":1736431696,"current_range_meters":38800,"station_id":"ce4bhnp2rcd13ifvqgvg","pricing_plan_id":"cebpf4jnsgd1na2vs0mg"},{"bike_id":"c68400b7-0236-4e72-a5c8-07e776ed0eca","system_id":"levelo_inurba_marseille","lat":43.29054,"lon":5.35871,"is_reserved":false,"is_disabled":false,"rental_uris":{"android":"levelo://app?vid=c68400b7-0236-4e72-a5c8-07e776ed0eca","ios":"levelo://app?vid=c68400b7-0236-4e72-a5c8-07e776ed0eca"},"vehicle_type_id":"4","last_reported":1736431696,"current_range_meters":39200,"station_id":"ce4bha92rcd13ifvqeg0","pricing_plan_id":"cebpf4jnsgd1na2vs0mg"},{"bike_id":"dd7cc496-2a63-482d-8c03-a46ec0460746","system_id":"levelo_inurba_marseille","lat":43.30538,"lon":5.36561,"is_reserved":false,"is_disabled":false,"rental_uris":{"android":"levelo://app?vid=dd7cc496-2a63-482d-8c03-a46ec0460746","ios":"levelo://app?vid=dd7cc496-2a63-482d-8c03-a46ec0460746"},"vehicle_type_id":"4","last_reported":1736431696,"current_range_meters":28400,"station_id":"ce4bgs12rcd13ifvqcag","pricing_plan_id":"cebpf4jnsgd1na2vs0mg"},{"bike_id":"584e93ba-4d72-45aa-90e0-c26a9ff8e2ac","system_id":"levelo_inurba_marseille","lat":43.292748,"lon":5.36859,"is_reserved":false,"is_disabled":false,"rental_uris":{"android":"levelo://app?vid=584e93ba-4d72-45aa-90e0-c26a9ff8e2ac","ios":"levelo://app?vid=584e93ba-4d72-45aa-90e0-c26a9ff8e2ac"},"vehicle_type_id":"4","last_reported":1736431696,"current_range_meters":8400,"station_id":"ce4bhbp2rcd13ifvqesg","pricing_plan_id":"cebpf4jnsgd1na2vs0mg"},{"bike_id":"ca28c05e-bfc5-443c-b699-0afa6d6ec689","system_id":"levelo_inurba_marseille","lat":43.29849,"lon":5.36292,"is_reserved":false,"is_disabled":false,"rental_uris":{"android":"levelo://app?vid=ca28c05e-bfc5-443c-b699-0afa6d6ec689","ios":"levelo://app?vid=ca28c05e-bfc5-443c-b699-0afa6d6ec689"},"vehicle_type_id":"4","last_reported":1736431696,"current_range_meters":35200,"station_id":"ce4bgpp2rcd13ifvqc3g","pricing_plan_id":"cebpf4jnsgd1na2vs0mg"},{"bike_id":"94d7f15d-c2eb-48e0-ab06-c718661b3572","system_id":"levelo_inurba_marseille","lat":43.3092,"lon":5.36851,"is_reserved":false,"is_disabled":false,"rental_uris":{"android":"levelo://app?vid=94d7f15d-c2eb-48e0-ab06-c718661b3572","ios":"levelo://app?vid=94d7f15d-c2eb-48e0-ab06-c718661b3572"},"vehicle_type_id":"4","last_reported":1736431696,"current_range_meters":30000,"station_id":"ce4bgn92rcd13ifvqbvg","pricing_plan_id":"cebpf4jnsgd1na2vs0mg"},{"bike_id":"9f45806b-0439-44e8-9147-35b59088d5f3","system_id":"levelo_inurba_marseille","lat":43.24173,"lon":5.36406,"is_reserved":false,"is_disabled":false,"rental_uris":{"android":"levelo://app?vid=9f45806b-0439-44e8-9147-35b59088d5f3","ios":"levelo://app?vid=9f45806b-0439-44e8-9147-35b59088d5f3"},"vehicle_type_id":"4","last_reported":1736431696,"current_range_meters":18800,"station_id":"cpo36qri1sfpv3e86is0","pricing_plan_id":"cebpf4jnsgd1na2vs0mg"},{"bike_id":"cbe61088-8cda-4b9a-b6fc-038219455931","system_id":"levelo_inurba_marseille","lat":43.30543,"lon":5.36712,"is_reserved":false,"is_disabled":false,"rental_uris":{"android":"levelo://app?vid=cbe61088-8cda-4b9a-b6fc-038219455931","ios":"levelo://app?vid=cbe61088-8cda-4b9a-b6fc-038219455931"},"vehicle_type_id":"4","last_reported":1736431696,"current_range_meters":38800,"station_id":"ce4bgrp2rcd13ifvqc9g","pricing_plan_id":"cebpf4jnsgd1na2vs0mg"},{"bike_id":"1df29812-c741-42c0-ac8b-8beb0e4e67a5","system_id":"levelo_inurba_marseille","lat":43.2919,"lon":5.35806,"is_reserved":false,"is_disabled":false,"rental_uris":{"android":"levelo://app?vid=1df29812-c741-42c0-ac8b-8beb0e4e67a5","ios":"levelo://app?vid=1df29812-c741-42c0-ac8b-8beb0e4e67a5"},"vehicle_type_id":"4","last_reported":1736431696,"current_range_meters":13600,"station_id":"ce4bhb12rcd13ifvqel0","pricing_plan_id":"cebpf4jnsgd1na2vs0mg"},