{"last_updated":1740463983,"ttl":60,"version":"2.2","data":{"bikes":[{"bike_id":"8c39fbcb-bc41-49a9-ad4d-cc55d2a50515","system_id":"levelo_inurba_marseille","lat":43.29514,"lon":5.39035,"is_reserved":false,"is_disabled":true,"rental_uris":{"android":"levelo://app?vid=8c39fbcb-bc41-49a9-ad4d-cc55d2a50515","ios":"levelo://app?vid=8c39fbcb-bc41-49a9-ad4d-cc55d2a50515"},"vehicle_type_id":"4","last_reported":1740463983,"current_range_meters":2800,"station_id":"ce4bh3p2rcd13ifvqdp0","pricing_plan_id":"cebpf4jnsgd1na2vs0mg"},{"bike_id":"76b417ec-d64b-4105-bb54-e1299d1ff102","system_id":"levelo_inurba_marseille","lat":43.27936,"lon":5.41039,"is_reserved":false,"is_disabled":true,"rental_uris":{"android":"levelo://app?vid=76b417ec-d64b-4105-bb54-e1299d1ff102","ios":"levelo://app?vid=76b417ec-d64b-4105-bb54-e1299d1ff102"},"vehicle_type_id":"4","last_reported":1740463983,"current_range_meters":2800,"station_id":"ce4bhnp2rcd13ifvqh0g","pricing_plan_id":"cebpf4jnsgd1na2vs0mg"},{"bike_id":"f245eae0-ca5a-4856-867d-5d6d248959c7","system_id":"levelo_inurba_marseille","lat":43.29439,"lon":5.39752,"is_reserved":false,"is_disabled":false,"rental_uris":{"android":"levelo://app?vid=f245eae0-ca5a-4856-867d-5d6d248959c7","ios":"levelo://app?vid=f245eae0-ca5a-4856-867d-5d6d248959c7"},"vehicle_type_id":"4","last_reported":1740463983,"current_range_meters":8400,"station_id":"ce4bh3h2rcd13ifvqdo0","pricing_plan_id":"cebpf4jnsgd1na2vs0mg"},{"bike_id":"16a64962-c840-403e-8215-260ce50518b7","system_id":"levelo_inurba_marseille","lat":43.28154,"lon":5.42656,"is_reserved":false,"is_disabled":true,"rental_uris":{"android":"levelo://app?vid=16a64962-c840-403e-8215-260ce50518b7","ios":"levelo://app?vid=16a64962-c840-403e-8215-260ce50518b7"},"vehicle_type_id":"4","last_reported":1740463983,"current_range_meters":4400,"station_id":"ce4bhnh2rcd13ifvqgug","pricing_plan_id":"cebpf4jnsgd1na2vs0mg"},{"bike_id":"97d726ed-4183-4544-8274-4d89eaa2f547","system_id":"levelo_inurba_marseille","lat":43.2573,"lon":5.41075,"is_reserved":false,"is_disabled":false,"rental_uris":{"android":"levelo://app?vid=97d726ed-4183-4544-8274-4d89eaa2f547","ios":"levelo://app?vid=97d726ed-4183-4544-8274-4d89eaa2f547"},"vehicle_type_id":"4","last_reported":1740463983,"current_range_meters":4400,"station_id":"ce4bhkp2rcd13ifvqgd0","pricing_plan_id":"cebpf4jnsgd1na2vs0mg"},{"bike_id":"29e32c4b-2689-417b-b4e4-0fcf572c9afc","system_id":"levelo_inurba_marseille","lat":43.30434,"lon":5.38898,"is_reserved":false,"is_disabled":false,"rental_uris":{"android":"levelo://app?vid=29e32c4b-2689-417b-b4e4-0fcf572c9afc","ios":"levelo://app?vid=29e32c4b-2689-417b-b4e4-0fcf572c9afc"},"vehicle_type_id":"4","last_reported":1740463983,"current_range_meters":4400,"station_id":"ce4bgk12rcd13ifvqbi0","pricing_plan_id":"cebpf4jnsgd1na2vs0mg"},{"bike_id":"e183eae5-48d7-457d-909e-37878dcc0461","system_id":"levelo_inurba_marseille","lat":43.29808,"lon":5.38097,"is_reserved":false,"is_disabled":false,"rental_uris":{"android":"levelo://app?vid=e183eae5-48d7-457d-909e-37878dcc0461","ios":"levelo://app?vid=e183eae5-48d7-457d-909e-37878dcc0461"},"vehicle_type_id":"4","last_reported":1740463983,"current_range_meters":4800,"station_id":"ce4bgip2rcd13ifvqbb0","pricing_plan_id":"cebpf4jnsgd1na2vs0mg"},{"bike_id":"80655659-a270-46de-a2c1-6ad4df112438","system_id":"levelo_inurba_marseille","lat":43.25686,"lon":5.41922,"is_reserved":false,"is_disabled":false,"rental_uris":{"android":"levelo://app?vid=80655659-a270-46de-a2c1-6ad4df112438","ios":"levelo://app?vid=80655659-a270-46de-a2c1-6ad4df112438"},"vehicle_type_id":"4","last_reported":1740463983,"current_range_meters":4800,"station_id":"","pricing_plan_id":"cebpf4jnsgd1na2vs0mg"},{"bike_id":"96abab4b-c5af-4f9f-ae32-aba47129cb81","system_id":"levelo_inurba_marseille","lat":43.26224,"lon":5.40453,"is_reserved":false,"is_disabled":false,"rental_uris":{"android":"levelo://app?vid=96abab4b-c5af-4f9f-ae32-aba47129cb81","ios":"levelo://app?vid=96abab4b-c5af-4f9f-ae32-aba47129cb81"},"vehicle_type_id":"4","last_reported":1740463983,"current_range_meters":5600,"station_id":"ce4bhmh2rcd13ifvqgmg","pricing_plan_id":"cebpf4jnsgd1na2vs0mg"},{"bike_id":"f3ae546d-0e29-4126-8575-dfd987cdfe78","system_id":"levelo_inurba_marseille","lat":43.33617,"lon":5.4094,"is_reserved":false,"is_disabled":false,"rental_uris":{"android":"levelo://app?vid=f3ae546d-0e29-4126-8575-dfd987cdfe78","ios":"levelo://app?vid=f3ae546d-0e29-4126-8575-dfd987cdfe78"},"vehicle_type_id":"4","last_reported":1740463983,"current_range_meters":6000,"station_id":"ce4bhqh2rcd13ifvqhmg","pricing_plan_id":"cebpf4jnsgd1na2vs0mg"},{"bike_id":"bddf8e7b-3da7-4773-b7ae-9c6dd1337414","system_id":"levelo_inurba_marseille","lat":43.28156,"lon":5.42639,"is_reserved":false,"is_disabled":false,"rental_uris":{"android":"levelo://app?vid=bddf8e7b-3da7-4773-b7ae-9c6dd1337414","ios":"levelo://app?vid=bddf8e7b-3da7-4773-b7ae-9c6dd1337414"},"vehicle_type_id":"4","last_reported":1740463983,"current_range_meters":6000,"station_id":"ce4bhnh2rcd13ifvqgug","pricing_plan_id":"cebpf4jnsgd1na2vs0mg"},{"bike_id":"3e3bde6f-8dc0-41cf-8fe6-f850e893e1da","system_id":"levelo_inurba_marseille","lat":43.27938,"lon":5.41046,"is_reserved":false,"is_disabled":false,"rental_uris":{"android":"levelo://app?vid=3e3bde6f-8dc0-41cf-8fe6-f850e893e1da","ios":"levelo://app?vid=3e3bde6f-8dc0-41cf-8fe6-f850e893e1da"},"vehicle_type_id":"4","last_reported":1740463983,"current_range_meters":6000,"station_id":"ce4bhnp2rcd13ifvqh0g","pricing_plan_id":"cebpf4jnsgd1na2vs0mg"},{"bike_id":"4e76829f-70cf-4d94-80fd-c186bc55f908","system_id":"levelo_inurba_marseille","lat":43.27974,"lon":5.41663,"is_reserved":false,"is_disabled":false,"rental_uris":{"android":"levelo://app?vid=4e76829f-70cf-4d94-80fd-c186bc55f908","ios":"levelo://app?vid=4e76829f-70cf-4d94-80fd-c186bc55f908"},"vehicle_type_id":"4","last_reported":1740463983,"current_range_meters":6000,"station_id":"ce4bho12rcd13ifvqh1g","pricing_plan_id":"cebpf4jnsgd1na2vs0mg"},{"bike_id":"3ee08106-b8dc-44c9-a111-e641d13b4a18","system_id":"levelo_inurba_marseille","lat":43.30157,"lon":5.38094,"is_reserved":false,"is_disabled":false,"rental_uris":{"android":"levelo://app?vid=3ee08106-b8dc-44c9-a111-e641d13b4a18","ios":"levelo://app?vid=3ee08106-b8dc-44c9-a111-e641d13b4a18"},"vehicle_type_id":"4","last_reported":1740463983,"current_range_meters":6000,"station_id":"ce4bgjp2rcd13ifvqbh0","pricing_plan_id":"cebpf4jnsgd1na2vs0mg"},{"bike_id":"bd1c9204-109d-453d-a655-cc2878aad0c5","system_id":"levelo_inurba_marseille","lat":43.29902,"lon":5.43666,"is_reserved":false,"is_disabled":false,"rental_uris":{"android":"levelo://app?vid=bd1c9204-109d-453d-a655-cc2878aad0c5","ios":"levelo://app?vid=bd1c9204-109d-453d-a655-cc2878aad0c5"},"vehicle_type_id":"4","last_reported":1740463983,"current_range_meters":6400,"station_id":"ce4bhpp2rcd13ifvqhfg","pricing_plan_id":"cebpf4jnsgd1na2vs0mg"},{"bike_id":"59422e92-f9f1-4326-97e8-7da3700ed321","system_id":"levelo_inurba_marseille","lat":43.264946,"lon":5.39541,"is_reserved":false,"is_disabled":false,"rental_uris":{"android":"levelo://app?vid=59422e92-f9f1-4326-97e8-7da3700ed321","ios":"levelo://app?vid=59422e92-f9f1-4326-97e8-7da3700ed321"},"vehicle_type_id":"4","last_reported":1740463983,"current_range_meters":6400,"station_id":"ce4bh312rcd13ifvqdj0","pricing_plan_id":"cebpf4jnsgd1na2vs0mg"},{"bike_id":"f21b3eff-079d-4e58-91e0-692c4c5c2974","system_id":"levelo_inurba_marseille","lat":43.23197,"lon":5.35549,"is_reserved":false,"is_disabled":false,"rental_uris":{"android":"levelo://app?vid=f21b3eff-079d-4e58-91e0-692c4c5c2974","ios":"levelo://app?vid=f21b3eff-079d-4e58-91e0-692c4c5c2974"},"vehicle_type_id":"4","last_reported":1740463983,"current_range_meters":6400,"station_id":"ce4bhu92rcd13ifvqi70","pricing_plan_id":"cebpf4jnsgd1na2vs0mg"},{"bike_id":"216bb77f-c769-4011-8970-e66d63254aa2","system_id":"levelo_inurba_marseille","lat":43.2992,"lon":5.37864,"is_reserved":false,"is_disabled":false,"rental_uris":{"android":"levelo://app?vid=216bb77f-c769-4011-8970-e66d63254aa2","ios":"levelo://app?vid=216bb77f-c769-4011-8970-e66d63254aa2"},"vehicle_type_id":"4","last_reported":1740463983,"current_range_meters":6800,"station_id":"","pricing_plan_id":"cebpf4jnsgd1na2vs0mg"},{"bike_id":"2ce5a7a3-ebc5-4542-8581-83c42fa52a52","system_id":"levelo_inurba_marseille","lat":43.30953,"lon":5.3902,"is_reserved":false,"is_disabled":true,"rental_uris":{"android":"levelo://app?vid=2ce5a7a3-ebc5-4542-8581-83c42fa52a52","ios":"levelo://app?vid=2ce5a7a3-ebc5-4542-8581-83c42fa52a52"},"vehicle_type_id":"4","last_reported":1740463983,"current_range_meters":6800,"station_id":"ce4bgup2rcd13ifvqco0","pricing_plan_id":"cebpf4jnsgd1na2vs0mg"},{"bike_id":"9912bd3b-182f-467c-92db-65e052c11af3","system_id":"levelo_inurba_marseille","lat":43.24285,"lon":5.43821,"is_reserved":false,"is_disabled":false,"rental_uris":{"android":"levelo://app?vid=9912bd3b-182f-467c-92db-65e052c11af3","ios":"levelo://app?vid=9912bd3b-182f-467c-92db-65e052c11af3"},"vehicle_type_id":"4","last_reported":1740463983,"current_range_meters":6800,"station_id":"","pricing_plan_id":"cebpf4jnsgd1na2vs0mg"},{"bike_id":"079ede2b-32fe-4362-bd93-5c53508ec4a3","system_id":"levelo_inurba_marseille","lat":43.32365,"lon":5.38883,"is_reserved":false,"is_disabled":false,"rental_uris":{"android":"levelo://app?vid=079ede2b-32fe-4362-bd93-5c53508ec4a3","ios":"levelo://app?vid=079ede2b-32fe-4362-bd93-5c53508ec4a3"},"vehicle_type_id":"4","last_reported":1740463983,"current_range_meters":6800,"station_id":"ce4bhqp2rcd13ifvqhog","pricing_plan_id":"cebpf4jnsgd1na2vs0mg"},{"bike_id":"4c676afd-aabb-48c7-9c62-f89205cd3f4a","system_id":"levelo_inurba_marseille","lat":43.27826,"lon":5.40705,"is_reserved":false,"is_disabled":false,"rental_uris":{"android":"levelo://app?vid=4c676afd-aabb-48c7-9c62-f89205cd3f4a","ios":"levelo://app?vid=4c676afd-aabb-48c7-9c62-f89205cd3f4a"},"vehicle_type_id":"4","last_reported":1740463983,"current_range_meters":6800,"station_id":"ce4bhnh2rcd13ifvqgtg","pricing_plan_id":"cebpf4jnsgd1na2vs0mg"},{"bike_id":"87bbda1f-0db0-4d79-a046-a87b5e94995a","system_id":"levelo_inurba_marseille","lat":43.24161,"lon":5.36403,"is_reserved":false,"is_disabled":false,"rental_uris":{"android":"levelo://app?vid=87bbda1f-0db0-4d79-a046-a87b5e94995a","ios":"levelo://app?vid=87bbda1f-0db0-4d79-a046-a87b5e94995a"},"vehicle_type_id":"4","last_reported":1740463983,"current_range_meters":7200,"station_id":"cpo36qri1sfpv3e86is0","pricing_plan_id":"cebpf4jnsgd1na2vs0mg"},{"bike_id":"f80a79d6-1c74-4e76-8ed2-23203ade1d35","system_id":"levelo_inurba_marseille","lat":43.27806,"lon":5.40681,"is_reserved":false,"is_disabled":false,"rental_uris":{"android":"levelo://app?vid=f80a79d6-1c74-4e76-8ed2-23203ade1d35","ios":"levelo://app?vid=f80a79d6-1c74-4e76-8ed2-23203ade1d35"},"vehicle_type_id":"4","last_reported":1740463983,"current_range_meters":7200,"station_id":"ce4bhnh2rcd13ifvqgtg","pricing_plan_id":"cebpf4jnsgd1na2vs0mg"},{"bike_id":"15d63c41-d467-4e01-ab9d-1a4d98399eb8","system_id":"levelo_inurba_marseille","lat":43.28109,"lon":5.396,"is_reserved":false,"is_disabled":true,"rental_uris":{"android":"levelo://app?vid=15d63c41-d467-4e01-ab9d-1a4d98399eb8","ios":"levelo://app?vid=15d63c41-d467-4e01-ab9d-1a4d98399eb8"},"vehicle_type_id":"4","last_reported":1740463983,"current_range_meters":7200,"station_id":"ce4bho12rcd13ifvqh2g","pricing_plan_id":"cebpf4jnsgd1na2vs0mg"},{"bike_id":"5d035776-9a72-41f9-8bd5-ef8ca8fef514","system_id":"levelo_inurba_marseille","lat":43.28146,"lon":5.42643,"is_reserved":false,"is_disabled":false,"rental_uris":{"android":"levelo://app?vid=5d035776-9a72-41f9-8bd5-ef8ca8fef514","ios":"levelo://app?vid=5d035776-9a72-41f9-8bd5-ef8ca8fef514"},"vehicle_type_id":"4","last_reported":1740463983,"current_range_meters":7200,"station_id":"ce4bhnh2rcd13ifvqgug","pricing_plan_id":"cebpf4jnsgd1na2vs0mg"},{"bike_id":"99e11aa5-2a69-4b97-b202-0544f0eb0875","system_id":"levelo_inurba_marseille","lat":43.27997,"lon":5.41644,"is_reserved":false,"is_disabled":false,"rental_uris":{"android":"levelo://app?vid=99e11aa5-2a69-4b97-b202-0544f0eb0875","ios":"levelo://app?vid=99e11aa5-2a69-4b97-b202-0544f0eb0875"},"vehicle_type_id":"4","last_reported":1740463983,"current_range_meters":7200,"station_id":"ce4bho12rcd13ifvqh1g","pricing_plan_id":"cebpf4jnsgd1na2vs0mg"},{"bike_id":"f3e2d31b-bf16-4d93-8358-e1b5fc69cdb1","system_id":"levelo_inurba_marseille","lat":43.28098,"lon":5.39888,"is_reserved":false,"is_disabled":false,"rental_uris":{"android":"levelo://app?vid=f3e2d31b-bf16-4d93-8358-e1b5fc69cdb1","ios":"levelo://app?vid=f3e2d31b-bf16-4d93-8358-e1b5fc69cdb1"},"vehicle_type_id":"4","last_reported":1740463983,"current_range_meters":7200,"station_id":"","pricing_plan_id":"cebpf4jnsgd1na2vs0mg"},{"bike_id":"a03f1e5c-6ee2-493b-8528-d8322245ef54","system_id":"levelo_inurba_marseille","lat":43.27896,"lon":5.39594,"is_reserved":false,"is_disabled":false,"rental_uris":{"android":"levelo://app?vid=a03f1e5c-6ee2-493b-8528-d8322245ef54","ios":"levelo://app?vid=a03f1e5c-6ee2-493b-8528-d8322245ef54"},"vehicle_type_id":"4","last_reported":1740463983,"current_range_meters":7200,"station_id":"ce4bhf92rcd13ifvqf40","pricing_plan_id":"cebpf4jnsgd1na2vs0mg"},{"bike_id":"7e26a3e9-4c57-4918-aa17-698a0ce4ac78","system_id":"levelo_inurba_marseille","lat":43.30645,"lon":5.3754,"is_reserved":false,"is_disabled":false,"rental_uris":{"android":"levelo://app?vid=7e26a3e9-4c57-4918-aa17-698a0ce4ac78","ios":"levelo://app?vid=7e26a3e9-4c57-4918-aa17-698a0ce4ac78"},"vehicle_type_id":"4","last_reported":1740463983,"current_range_meters":7200,"station_id":"","pricing_plan_id":"cebpf4jnsgd1na2vs0mg"},{"bike_id":"17da1feb-9abe-4e1d-9544-5a842d8f1b8a","system_id":"levelo_inurba_marseille","lat":43.27814,"lon":5.40731,"is_reserved":false,"is_disabled":false,"rental_uris":{"android":"levelo://app?vid=17da1feb-9abe-4e1d-9544-5a842d8f1b8a","ios":"levelo://app?vid=17da1feb-9abe-4e1d-9544-5a842d8f1b8a"},"vehicle_type_id":"4","last_reported":1740463983,"current_range_meters":7200,"station_id":"ce4bhnh2rcd13ifvqgtg","pricing_plan_id":"cebpf4jnsgd1na2vs0mg"},{"bike_id":"5f618fd8-4c1d-4b98-9d96-80413e9c5e2b","system_id":"levelo_inurba_marseille","lat":43.32367,"lon":5.40615,"is_reserved":false,"is_disabled":true,"rental_uris":{"android":"levelo://app?vid=5f618fd8-4c1d-4b98-9d96-80413e9c5e2b","ios":"levelo://app?vid=5f618fd8-4c1d-4b98-9d96-80413e9c5e2b"},"vehicle_type_id":"4","last_reported":1740463983,"current_range_meters":8000,"station_id":"ce4bhq92rcd13ifvqhjg","pricing_plan_id":"cebpf4jnsgd1na2vs0mg"},{"bike_id":"b2e3ecc5-9178-4f96-a507-539eb2bf82c4","system_id":"levelo_inurba_marseille","lat":43.32324,"lon":5.3885,"is_reserved":false,"is_disabled":false,"rental_uris":{"android":"levelo://app?vid=b2e3ecc5-9178-4f96-a507-539eb2bf82c4","ios":"levelo://app?vid=b2e3ecc5-9178-4f96-a507-539eb2bf82c4"},"vehicle_type_id":"4","last_reported":1740463983,"current_range_meters":8000,"station_id":"ce4bhqp2rcd13ifvqhog","pricing_plan_id":"cebpf4jnsgd1na2vs0mg"},{"bike_id":"735470d2-1397-44a5-b56e-f70aa7aef316","system_id":"levelo_inurba_marseille","lat":43.25112,"lon":5.40323,"is_reserved":false,"is_disabled":false,"rental_uris":{"android":"levelo://app?vid=735470d2-1397-44a5-b56e-f70aa7aef316","ios":"levelo://app?vid=735470d2-1397-44a5-b56e-f70aa7aef316"},"vehicle_type_id":"4","last_reported":1740463983,"current_range_meters":1600,"station_id":"ce4bhlh2rcd13ifvqgig","pricing_plan_id":"cebpf4jnsgd1na2vs0mg"},{"bike_id":"9923f8d1-6eb6-4d95-ab5f-802c9a7d866f","system_id":"levelo_inurba_marseille","lat":43.30353,"lon":5.41877,"is_reserved":false,"is_disabled":false,"rental_uris":{"android":"levelo://app?vid=9923f8d1-6eb6-4d95-ab5f-802c9a7d866f","ios":"levelo://app?vid=9923f8d1-6eb6-4d95-ab5f-802c9a7d866f"},"vehicle_type_id":"4","last_reported":1740463983,"current_range_meters":8000,"station_id":"ce4bhop2rcd13ifvqh7g","pricing_plan_id":"cebpf4jnsgd1na2vs0mg"},{"bike_id":"20a0944d-608d-4be9-bb83-17be138bd271","system_id":"levelo_inurba_marseille","lat":43.27495,"lon":5.4245,"is_reserved":false,"is_disabled":false,"rental_uris":{"android":"levelo://app?vid=20a0944d-608d-4be9-bb83-17be138bd271","ios":"levelo://app?vid=20a0944d-608d-4be9-bb83-17be138bd271"},"vehicle_type_id":"4","last_reported":1740463983,"current_range_meters":8400,"station_id":"ce4bhn92rcd13ifvqgrg","pricing_plan_id":"cebpf4jnsgd1na2vs0mg"},{"bike_id":"8788e12a-f05c-45b2-9570-f7c7ac9b560c","system_id":"levelo_inurba_marseille","lat":43.27953,"lon":5.41033,"is_reserved":false,"is_disabled":false,"rental_uris":{"android":"levelo://app?vid=8788e12a-f05c-45b2-9570-f7c7ac9b560c","ios":"levelo://app?vid=8788e12a-f05c-45b2-9570-f7c7ac9b560c"},"vehicle_type_id":"4","last_reported":1740463983,"current_range_meters":8400,"station_id":"ce4bhnp2rcd13ifvqh0g","pricing_plan_id":"cebpf4jnsgd1na2vs0mg"},{"bike_id":"ab771808-fdf6-4ffc-9b5a-6ec6f2d5aa30","system_id":"levelo_inurba_marseille","lat":43.29719,"lon":5.36608,"is_reserved":false,"is_disabled":false,"rental_uris":{"android":"levelo://app?vid=ab771808-fdf6-4ffc-9b5a-6ec6f2d5aa30","ios":"levelo://app?vid=ab771808-fdf6-4ffc-9b5a-6ec6f2d5aa30"},"vehicle_type_id":"4","last_reported":1740463983,"current_range_meters":8800,"station_id":"ce4bgn12rcd13ifvqbt0","pricing_plan_id":"cebpf4jnsgd1na2vs0mg"},{"bike_id":"fdfa34fd-1d7f-46fe-99d0-2fb07efc6fbd","system_id":"levelo_inurba_marseille","lat":43.317,"lon":5.40465,"is_reserved":false,"is_disabled":false,"rental_uris":{"android":"levelo://app?vid=fdfa34fd-1d7f-46fe-99d0-2fb07efc6fbd","ios":"levelo://app?vid=fdfa34fd-1d7f-46fe-99d0-2fb07efc6fbd"},"vehicle_type_id":"4","last_reported":1740463983,"current_range_meters":8400,"station_id":"ce4bh012rcd13ifvqd00","pricing_plan_id":"cebpf4jnsgd1na2vs0mg"},{"bike_id":"e49232ce-36e0-478c-a319-bb8d76abfc7f","system_id":"levelo_inurba_marseille","lat":43.29715,"lon":5.36604,"is_reserved":false,"is_disabled":false,"rental_uris":{"android":"levelo://app?vid=e49232ce-36e0-478c-a319-bb8d76abfc7f","ios":"levelo://app?vid=e49232ce-36e0-478c-a319-bb8d76abfc7f"},"vehicle_type_id":"4","last_reported":1740463983,"current_range_meters":8800,"station_id":"ce4bgn12rcd13ifvqbt0","pricing_plan_id":"cebpf4jnsgd1na2vs0mg"},{"bike_id":"45463d5f-38b2-4eba-b291-9a76ac17bca2","system_id":"levelo_inurba_marseille","lat":43.304493,"lon":5.379282,"is_reserved":false,"is_disabled":false,"rental_uris":{"android":"levelo://app?vid=45463d5f-38b2-4eba-b291-9a76ac17bca2","ios":"levelo://app?vid=45463d5f-38b2-4eba-b291-9a76ac17bca2"},"vehicle_type_id":"4","last_reported":1740463983,"current_range_meters":8800,"station_id":"ce4bgup2rcd13ifvqcn0","pricing_plan_id":"cebpf4jnsgd1na2vs0mg"},{"bike_id":"f5e523f2-246d-474c-808f-a050215d7059","system_id":"levelo_inurba_marseille","lat":43.23191,"lon":5.35556,"is_reserved":false,"is_disabled":false,"rental_uris":{"android":"levelo://app?vid=f5e523f2-246d-474c-808f-a050215d7059","ios":"levelo://app?vid=f5e523f2-246d-474c-808f-a050215d7059"},"vehicle_type_id":"4","last_reported":1740463983,"current_range_meters":8800,"station_id":"ce4bhu92rcd13ifvqi70","pricing_plan_id":"cebpf4jnsgd1na2vs0mg"},{"bike_id":"044b4f75-9277-46f1-b9dc-51a9b2d09618","system_id":"levelo_inurba_marseille","lat":43.27051,"lon":5.40285,"is_reserved":false,"is_disabled":false,"rental_uris":{"android":"levelo://app?vid=044b4f75-9277-46f1-b9dc-51a9b2d09618","ios":"levelo://app?vid=044b4f75-9277-46f1-b9dc-51a9b2d09618"},"vehicle_type_id":"4","last_reported":1740463983,"current_range_meters":8800,"station_id":"ce4bhk92rcd13ifvqgc0","pricing_plan_id":"cebpf4jnsgd1na2vs0mg"},{"bike_id":"5162c2ce-a731-4d3b-a21a-a1c8cb63150f","system_id":"levelo_inurba_marseille","lat":43.31717,"lon":5.43691,"is_reserved":false,"is_disabled":false,"rental_uris":{"android":"levelo://app?vid=5162c2ce-a731-4d3b-a21a-a1c8cb63150f","ios":"levelo://app?vid=5162c2ce-a731-4d3b-a21a-a1c8cb63150f"},"vehicle_type_id":"4","last_reported":1740463983,"current_range_meters":8800,"station_id":"ce4bhp92rcd13ifvqhcg","pricing_plan_id":"cebpf4jnsgd1na2vs0mg"},{"bike_id":"751e9f66-56c7-42ca-a033-91972d773ee0","system_id":"levelo_inurba_marseille","lat":43.32484,"lon":5.36565,"is_reserved":false,"is_disabled":false,"rental_uris":{"android":"levelo://app?vid=751e9f66-56c7-42ca-a033-91972d773ee0","ios":"levelo://app?vid=751e9f66-56c7-42ca-a033-91972d773ee0"},"vehicle_type_id":"4","last_reported":1740463983,"current_range_meters":8800,"station_id":"ce4bhs12rcd13ifvqhvg","pricing_plan_id":"cebpf4jnsgd1na2vs0mg"},{"bike_id":"446313c8-37fc-4f36-b9c3-a1d481dfb62b","system_id":"levelo_inurba_marseille","lat":43.26817,"lon":5.41104,"is_reserved":false,"is_disabled":false,"rental_uris":{"android":"levelo://app?vid=446313c8-37fc-4f36-b9c3-a1d481dfb62b","ios":"levelo://app?vid=446313c8-37fc-4f36-b9c3-a1d481dfb62b"},"vehicle_type_id":"4","last_reported":1740463983,"current_range_meters":8800,"station_id":"","pricing_plan_id":"cebpf4jnsgd1na2vs0mg"},{"bike_id":"674cb057-5d42-4512-ae8c-448c1f63016b","system_id":"levelo_inurba_marseille","lat":43.30359,"lon":5.3944,"is_reserved":false,"is_disabled":false,"rental_uris":{"android":"levelo://app?vid=674cb057-5d42-4512-ae8c-448c1f63016b","ios":"levelo://app?vid=674cb057-5d42-4512-ae8c-448c1f63016b"},"vehicle_type_id":"4","last_reported":1740463983,"current_range_meters":9200,"station_id":"","pricing_plan_id":"cebpf4jnsgd1na2vs0mg"},{"bike_id":"294edc22-1901-4d5e-bb34-9bc4f65c5bd4","system_id":"levelo_inurba_marseille","lat":43.23189,"lon":5.39983,"is_reserved":false,"is_disabled":false,"rental_uris":{"android":"levelo://app?vid=294edc22-1901-4d5e-bb34-9bc4f65c5bd4","ios":"levelo://app?vid=294edc22-1901-4d5e-bb34-9bc4f65c5bd4"},"vehicle_type_id":"4","last_reported":1740463983,"current_range_meters":9200,"station_id":"ce4bhn12rcd13ifvqgqg","pricing_plan_id":"cebpf4jnsgd1na2vs0mg"},{"bike_id":"7f153b39-4160-49a4-801b-a907c9f4c350","system_id":"levelo_inurba_marseille","lat":43.29307,"lon":5.43461,"is_reserved":false,"is_disabled":false,"rental_uris":{"android":"levelo://app?vid=7f153b39-4160-49a4-801b-a907c9f4c350","ios":"levelo://app?vid=7f153b39-4160-49a4-801b-a907c9f4c350"},"vehicle_type_id":"4","last_reported":1740463983,"current_range_meters":9200,"station_id":"","pricing_plan_id":"cebpf4jnsgd1na2vs0mg"},{"bike_id":"1a0b050f-f33f-48d2-9894-613d93a341cc","system_id":"levelo_inurba_marseille","lat":43.23191,"lon":5.39965,"is_reserved":false,"is_disabled":false,"rental_uris":{"android":"levelo://app?vid=1a0b050f-f33f-48d2-9894-613d93a341cc","ios":"levelo://app?vid=1a0b050f-f33f-48d2-9894-613d93a341cc"},"vehicle_type_id":"4","last_reported":1740463983,"current_range_meters":9200,"station_id":"ce4bhn12rcd13ifvqgqg","pricing_plan_id":"cebpf4jnsgd1na2vs0mg"},{"bike_id":"d6e9473b-dc2e-415e-a49b-32762a351f28","system_id":"levelo_inurba_marseille","lat":43.28847,"lon":5.35853,"is_reserved":false,"is_disabled":false,"rental_uris":{"android":"levelo://app?vid=d6e9473b-dc2e-415e-a49b-32762a351f28","ios":"levelo://app?vid=d6e9473b-dc2e-415e-a49b-32762a351f28"},"vehicle_type_id":"4","last_reported":1740463983,"current_range_meters":9600,"station_id":"ce4bhb12rcd13ifvqem0","pricing_plan_id":"cebpf4jnsgd1na2vs0mg"},{"bike_id":"19a8f35e-59c5-4bff-a8e1-1e0d52f1d0ca","system_id":"levelo_inurba_marseille","lat":43.28444,"lon":5.39185,"is_reserved":false,"is_disabled":false,"rental_uris":{"android":"levelo://app?vid=19a8f35e-59c5-4bff-a8e1-1e0d52f1d0ca","ios":"levelo://app?vid=19a8f35e-59c5-4bff-a8e1-1e0d52f1d0ca"},"vehicle_type_id":"4","last_reported":1740463983,"current_range_meters":9600,"station_id":"ce4bhoh2rcd13ifvqh5g","pricing_plan_id":"cebpf4jnsgd1na2vs0mg"},{"bike_id":"e37ffcf5-bb0c-47f5-a826-7f04d919fa4b","system_id":"levelo_inurba_marseille","lat":43.28475,"lon":5.35901,"is_reserved":false,"is_disabled":false,"rental_uris":{"android":"levelo://app?vid=e37ffcf5-bb0c-47f5-a826-7f04d919fa4b","ios":"levelo://app?vid=e37ffcf5-bb0c-47f5-a826-7f04d919fa4b"},"vehicle_type_id":"4","last_reported":1740463983,"current_range_meters":9600,"station_id":"ce4bhah2rcd13ifvqei0","pricing_plan_id":"cebpf4jnsgd1na2vs0mg"},{"bike_id":"ce08e129-3210-4784-8e00-3661099c392d","system_id":"levelo_inurba_marseille","lat":43.29908,"lon":5.43665,"is_reserved":false,"is_disabled":false,"rental_uris":{"android":"levelo://app?vid=ce08e129-3210-4784-8e00-3661099c392d","ios":"levelo://app?vid=ce08e129-3210-4784-8e00-3661099c392d"},"vehicle_type_id":"4","last_reported":1740463983,"current_range_meters":9600,"station_id":"ce4bhpp2rcd13ifvqhfg","pricing_plan_id":"cebpf4jnsgd1na2vs0mg"},{"bike_id":"ffd24134-c22b-4404-b1cc-90b534d3a88e","system_id":"levelo_inurba_marseille","lat":43.31993,"lon":5.38138,"is_reserved":false,"is_disabled":false,"rental_uris":{"android":"levelo://app?vid=ffd24134-c22b-4404-b1cc-90b534d3a88e","ios":"levelo://app?vid=ffd24134-c22b-4404-b1cc-90b534d3a88e"},"vehicle_type_id":"4","last_reported":1740463983,"current_range_meters":9600,"station_id":"ce4bhr12rcd13ifvqhpg","pricing_plan_id":"cebpf4jnsgd1na2vs0mg"},{"bike_id":"7a54af2b-83b1-4aee-8413-844b3f79ac9e","system_id":"levelo_inurba_marseille","lat":43.3136,"lon":5.38497,"is_reserved":false,"is_disabled":false,"rental_uris":{"android":"levelo://app?vid=7a54af2b-83b1-4aee-8413-844b3f79ac9e","ios":"levelo://app?vid=7a54af2b-83b1-4aee-8413-844b3f79ac9e"},"vehicle_type_id":"4","last_reported":1740463983,"current_range_meters":9600,"station_id":"ce4bgt92rcd13ifvqcf0","pricing_plan_id":"cebpf4jnsgd1na2vs0mg"},{"bike_id":"fa607b43-2bfd-442a-86bc-08f40a695b42","system_id":"levelo_inurba_marseille","lat":43.23156,"lon":5.43733,"is_reserved":false,"is_disabled":false,"rental_uris":{"android":"levelo://app?vid=fa607b43-2bfd-442a-86bc-08f40a695b42","ios":"levelo://app?vid=fa607b43-2bfd-442a-86bc-08f40a695b42"},"vehicle_type_id":"4","last_reported":1740463983,"current_range_meters":9600,"station_id":"ce4bhmp2rcd13ifvqgog","pricing_plan_id":"cebpf4jnsgd1na2vs0mg"},{"bike_id":"054a8c13-e003-4a19-8213-3d429c22f36e","system_id":"levelo_inurba_marseille","lat":43.24152,"lon":5.36419,"is_reserved":false,"is_disabled":false,"rental_uris":{"android":"levelo://app?vid=054a8c13-e003-4a19-8213-3d429c22f36e","ios":"levelo://app?vid=054a8c13-e003-4a19-8213-3d429c22f36e"},"vehicle_type_id":"4","last_reported":1740463983,"current_range_meters":10000,"station_id":"cpo36qri1sfpv3e86is0","pricing_plan_id":"cebpf4jnsgd1na2vs0mg"},{"bike_id":"52f330b7-05bc-4b3f-8a49-c74c78935af0","system_id":"levelo_inurba_marseille","lat":43.3125,"lon":5.39514,"is_reserved":false,"is_disabled":false,"rental_uris":{"android":"levelo://app?vid=52f330b7-05bc-4b3f-8a49-c74c78935af0","ios":"levelo://app?vid=52f330b7-05bc-4b3f-8a49-c74c78935af0"},"vehicle_type_id":"4","last_reported":1740463983,"current_range_meters":10000,"station_id":"","pricing_plan_id":"cebpf4jnsgd1na2vs0mg"},{"bike_id":"43283546-0c6f-4116-b0be-3b4e91fa7c5f","system_id":"levelo_inurba_marseille","lat":43.29392,"lon":5.38493,"is_reserved":false,"is_disabled":false,"rental_uris":{"android":"levelo://app?vid=43283546-0c6f-4116-b0be-3b4e91fa7c5f","ios":"levelo://app?vid=43283546-0c6f-4116-b0be-3b4e91fa7c5f"},"vehicle_type_id":"4","last_reported":1740463983,"current_range_meters":10000,"station_id":"","pricing_plan_id":"cebpf4jnsgd1na2vs0mg"},{"bike_id":"7017dd5d-52f3-4f63-b9b0-ffdb8d04bba3","system_id":"levelo_inurba_marseille","lat":43.29695,"lon":5.38451,"is_reserved":false,"is_disabled":false,"rental_uris":{"android":"levelo://app?vid=7017dd5d-52f3-4f63-b9b0-ffdb8d04bba3","ios":"levelo://app?vid=7017dd5d-52f3-4f63-b9b0-ffdb8d04bba3"},"vehicle_type_id":"4","last_reported":1740463983,"current_range_meters":10000,"station_id":"","pricing_plan_id":"cebpf4jnsgd1na2vs0mg"},{"bike_id":"5b930b96-a224-47db-852d-e3343dbf4e29","system_id":"levelo_inurba_marseille","lat":43.308004,"lon":5.381436,"is_reserved":false,"is_disabled":false,"rental_uris":{"android":"levelo://app?vid=5b930b96-a224-47db-852d-e3343dbf4e29","ios":"levelo://app?vid=5b930b96-a224-47db-852d-e3343dbf4e29"},"vehicle_type_id":"4","last_reported":1740463983,"current_range_meters":10000,"station_id":"ce4bgt12rcd13ifvqce0","pricing_plan_id":"cebpf4jnsgd1na2vs0mg"},{"bike_id":"2d9f0777-5b96-4c1e-80c5-10449636aa92","system_id":"levelo_inurba_marseille","lat":43.32371,"lon":5.38887,"is_reserved":false,"is_disabled":false,"rental_uris":{"android":"levelo://app?vid=2d9f0777-5b96-4c1e-80c5-10449636aa92","ios":"levelo://app?vid=2d9f0777-5b96-4c1e-80c5-10449636aa92"},"vehicle_type_id":"4","last_reported":1740463983,"current_range_meters":10000,"station_id":"ce4bhqp2rcd13ifvqhog","pricing_plan_id":"cebpf4jnsgd1na2vs0mg"},{"bike_id":"cafd7f33-9808-404a-b6af-22e15a18d7e0","system_id":"levelo_inurba_marseille","lat":43.29041,"lon":5.35907,"is_reserved":false,"is_disabled":false,"rental_uris":{"android":"levelo://app?vid=cafd7f33-9808-404a-b6af-22e15a18d7e0","ios":"levelo://app?vid=cafd7f33-9808-404a-b6af-22e15a18d7e0"},"vehicle_type_id":"4","last_reported":1740463983,"current_range_meters":10000,"station_id":"","pricing_plan_id":"cebpf4jnsgd1na2vs0mg"},{"bike_id":"7333f5f0-71fa-4cf2-9e94-a5d02574b956","system_id":"levelo_inurba_marseille","lat":43.2836,"lon":5.38622,"is_reserved":false,"is_disabled":false,"rental_uris":{"android":"levelo://app?vid=7333f5f0-71fa-4cf2-9e94-a5d02574b956","ios":"levelo://app?vid=7333f5f0-71fa-4cf2-9e94-a5d02574b956"},"vehicle_type_id":"4","last_reported":1740463983,"current_range_meters":10000,"station_id":"ce4bh492rcd13ifvqdvg","pricing_plan_id":"cebpf4jnsgd1na2vs0mg"},{"bike_id":"c22a864a-72a3-458e-b149-0c368ad2f04c","system_id":"levelo_inurba_marseille","lat":43.29798,"lon":5.39345,"is_reserved":false,"is_disabled":false,"rental_uris":{"android":"levelo://app?vid=c22a864a-72a3-458e-b149-0c368ad2f04c","ios":"levelo://app?vid=c22a864a-72a3-458e-b149-0c368ad2f04c"},"vehicle_type_id":"4","last_reported":1740463983,"current_range_meters":11200,"station_id":"chh1huq6cuj3fo74tm60","pricing_plan_id":"cebpf4jnsgd1na2vs0mg"},{"bike_id":"6bf9c769-90dc-4dad-91aa-a46aa0479151","system_id":"levelo_inurba_marseille","lat":43.28455,"lon":5.39198,"is_reserved":false,"is_disabled":false,"rental_uris":{"android":"levelo://app?vid=6bf9c769-90dc-4dad-91aa-a46aa0479151","ios":"levelo://app?vid=6bf9c769-90dc-4dad-91aa-a46aa0479151"},"vehicle_type_id":"4","last_reported":1740463983,"current_range_meters":10800,"station_id":"ce4bhoh2rcd13ifvqh5g","pricing_plan_id":"cebpf4jnsgd1na2vs0mg"},{"bike_id":"279bcd62-078a-4beb-bbab-686b0baab501","system_id":"levelo_inurba_marseille","lat":43.292023,"lon":5.39324,"is_reserved":false,"is_disabled":false,"rental_uris":{"android":"levelo://app?vid=279bcd62-078a-4beb-bbab-686b0baab501","ios":"levelo://app?vid=279bcd62-078a-4beb-bbab-686b0baab501"},"vehicle_type_id":"4","last_reported":1740463983,"current_range_meters":14800,"station_id":"","pricing_plan_id":"cebpf4jnsgd1na2vs0mg"},{"bike_id":"c8ac5d5c-ac5b-42a0-b37c-1ee0be279889","system_id":"levelo_inurba_marseille","lat":43.28838,"lon":5.35857,"is_reserved":false,"is_disabled":false,"rental_uris":{"android":"levelo://app?vid=c8ac5d5c-ac5b-42a0-b37c-1ee0be279889","ios":"levelo://app?vid=c8ac5d5c-ac5b-42a0-b37c-1ee0be279889"},"vehicle_type_id":"4","last_reported":1740463983,"current_range_meters":10800,"station_id":"ce4bhb12rcd13ifvqem0","pricing_plan_id":"cebpf4jnsgd1na2vs0mg"},{"bike_id":"130ab319-f673-4e36-9717-343d196c6cce","system_id":"levelo_inurba_marseille","lat":43.23198,"lon":5.39981,"is_reserved":false,"is_disabled":false,"rental_uris":{"android":"levelo://app?vid=130ab319-f673-4e36-9717-343d196c6cce","ios":"levelo://app?vid=130ab319-f673-4e36-9717-343d196c6cce"},"vehicle_type_id":"4","last_reported":1740463983,"current_range_meters":10800,"station_id":"ce4bhn12rcd13ifvqgqg","pricing_plan_id":"cebpf4jnsgd1na2vs0mg"},{"bike_id":"0338d931-1b59-4131-9010-881f558f192e","system_id":"levelo_inurba_marseille","lat":43.28841,"lon":5.35842,"is_reserved":false,"is_disabled":false,"rental_uris":{"android":"levelo://app?vid=0338d931-1b59-4131-9010-881f558f192e","ios":"levelo://app?vid=0338d931-1b59-4131-9010-881f558f192e"},"vehicle_type_id":"4","last_reported":1740463983,"current_range_meters":11200,"station_id":"ce4bhb12rcd13ifvqem0","pricing_plan_id":"cebpf4jnsgd1na2vs0mg"},{"bike_id":"d630238b-e434-4009-a114-1268aae217f8","system_id":"levelo_inurba_marseille","lat":43.29198,"lon":5.39329,"is_reserved":false,"is_disabled":false,"rental_uris":{"android":"levelo://app?vid=d630238b-e434-4009-a114-1268aae217f8","ios":"levelo://app?vid=d630238b-e434-4009-a114-1268aae217f8"},"vehicle_type_id":"4","last_reported":1740463983,"current_range_meters":11200,"station_id":"ce4bh192rcd13ifvqdd0","pricing_plan_id":"cebpf4jnsgd1na2vs0mg"},{"bike_id":"ef18fbd6-85fe-4257-aaef-cd0fcf515452","system_id":"levelo_inurba_marseille","lat":43.30324,"lon":5.4044,"is_reserved":false,"is_disabled":false,"rental_uris":{"android":"levelo://app?vid=ef18fbd6-85fe-4257-aaef-cd0fcf515452","ios":"levelo://app?vid=ef18fbd6-85fe-4257-aaef-cd0fcf515452"},"vehicle_type_id":"4","last_reported":1740463983,"current_range_meters":11200,"station_id":"ce4bh012rcd13ifvqd10","pricing_plan_id":"cebpf4jnsgd1na2vs0mg"},{"bike_id":"d90fc6d7-871e-4fc4-950b-c963063affa1","system_id":"levelo_inurba_marseille","lat":43.25084,"lon":5.39509,"is_reserved":false,"is_disabled":false,"rental_uris":{"android":"levelo://app?vid=d90fc6d7-871e-4fc4-950b-c963063affa1","ios":"levelo://app?vid=d90fc6d7-871e-4fc4-950b-c963063affa1"},"vehicle_type_id":"4","last_reported":1740463983,"current_range_meters":11200,"station_id":"ce4bhm12rcd13ifvqgkg","pricing_plan_id":"cebpf4jnsgd1na2vs0mg"},{"bike_id":"7152cafa-1634-4db9-9fd6-93705c425f63","system_id":"levelo_inurba_marseille","lat":43.32005,"lon":5.38145,"is_reserved":false,"is_disabled":false,"rental_uris":{"android":"levelo://app?vid=7152cafa-1634-4db9-9fd6-93705c425f63","ios":"levelo://app?vid=7152cafa-1634-4db9-9fd6-93705c425f63"},"vehicle_type_id":"4","last_reported":1740463983,"current_range_meters":11200,"station_id":"ce4bhr12rcd13ifvqhpg","pricing_plan_id":"cebpf4jnsgd1na2vs0mg"},{"bike_id":"6973d6f6-2714-49f6-8e4d-226f2db3c6c6","system_id":"levelo_inurba_marseille","lat":43.28276,"lon":5.35068,"is_reserved":false,"is_disabled":false,"rental_uris":{"android":"levelo://app?vid=6973d6f6-2714-49f6-8e4d-226f2db3c6c6","ios":"levelo://app?vid=6973d6f6-2714-49f6-8e4d-226f2db3c6c6"},"vehicle_type_id":"4","last_reported":1740463983,"current_range_meters":11200,"station_id":"ce4bhbp2rcd13ifvqerg","pricing_plan_id":"cebpf4jnsgd1na2vs0mg"},{"bike_id":"d9539a63-7677-4fd2-a172-046d356a2529","system_id":"levelo_inurba_marseille","lat":43.30003,"lon":5.372,"is_reserved":false,"is_disabled":false,"rental_uris":{"android":"levelo://app?vid=d9539a63-7677-4fd2-a172-046d356a2529","ios":"levelo://app?vid=d9539a63-7677-4fd2-a172-046d356a2529"},"vehicle_type_id":"4","last_reported":1740463983,"current_range_meters":11600,"station_id":"ce4bgr92rcd13ifvqc7g","pricing_plan_id":"cebpf4jnsgd1na2vs0mg"},{"bike_id":"13c69b28-6377-4890-b354-766efac35229","system_id":"levelo_inurba_marseille","lat":43.25109,"lon":5.40324,"is_reserved":false,"is_disabled":false,"rental_uris":{"android":"levelo://app?vid=13c69b28-6377-4890-b354-766efac35229","ios":"levelo://app?vid=13c69b28-6377-4890-b354-766efac35229"},"vehicle_type_id":"4","last_reported":1740463983,"current_range_meters":11600,"station_id":"ce4bhlh2rcd13ifvqgig","pricing_plan_id":"cebpf4jnsgd1na2vs0mg"},{"bike_id":"c7141c64-f04f-4dca-bf0b-c87dedcef0a3","system_id":"levelo_inurba_marseille","lat":43.30202,"lon":5.40029,"is_reserved":false,"is_disabled":false,"rental_uris":{"android":"levelo://app?vid=c7141c64-f04f-4dca-bf0b-c87dedcef0a3","ios":"levelo://app?vid=c7141c64-f04f-4dca-bf0b-c87dedcef0a3"},"vehicle_type_id":"4","last_reported":1740463983,"current_range_meters":11600,"station_id":"ce4bgvh2rcd13ifvqcs0","pricing_plan_id":"cebpf4jnsgd1na2vs0mg"},{"bike_id":"e5c275a2-a964-47d8-9489-ed1126cf4cef","system_id":"levelo_inurba_marseille","lat":43.2962,"lon":5.37934,"is_reserved":false,"is_disabled":false,"rental_uris":{"android":"levelo://app?vid=e5c275a2-a964-47d8-9489-ed1126cf4cef","ios":"levelo://app?vid=e5c275a2-a964-47d8-9489-ed1126cf4cef"},"vehicle_type_id":"4","last_reported":1740463983,"current_range_meters":11600,"station_id":"","pricing_plan_id":"cebpf4jnsgd1na2vs0mg"},{"bike_id":"d2610799-3b25-4010-8a8a-a9ba4108f5fb","system_id":"levelo_inurba_marseille","lat":43.25061,"lon":5.3888,"is_reserved":false,"is_disabled":false,"rental_uris":{"android":"levelo://app?vid=d2610799-3b25-4010-8a8a-a9ba4108f5fb","ios":"levelo://app?vid=d2610799-3b25-4010-8a8a-a9ba4108f5fb"},"vehicle_type_id":"4","last_reported":1740463983,"current_range_meters":11600,"station_id":"ce4bhgp2rcd13ifvqfd0","pricing_plan_id":"cebpf4jnsgd1na2vs0mg"},{"bike_id":"8ef508bb-1538-4e4f-bb05-57f2794f730e","system_id":"levelo_inurba_marseille","lat":43.3093,"lon":5.40145,"is_reserved":false,"is_disabled":false,"rental_uris":{"android":"levelo://app?vid=8ef508bb-1538-4e4f-bb05-57f2794f730e","ios":"levelo://app?vid=8ef508bb-1538-4e4f-bb05-57f2794f730e"},"vehicle_type_id":"4","last_reported":1740463983,"current_range_meters":11600,"station_id":"ce4bgvp2rcd13ifvqct0","pricing_plan_id":"cebpf4jnsgd1na2vs0mg"},{"bike_id":"6881749d-7210-4820-b4d5-9b5c0c11cb42","system_id":"levelo_inurba_marseille","lat":43.25686,"lon":5.39723,"is_reserved":false,"is_disabled":false,"rental_uris":{"android":"levelo://app?vid=6881749d-7210-4820-b4d5-9b5c0c11cb42","ios":"levelo://app?vid=6881749d-7210-4820-b4d5-9b5c0c11cb42"},"vehicle_type_id":"4","last_reported":1740463983,"current_range_meters":12000,"station_id":"","pricing_plan_id":"cebpf4jnsgd1na2vs0mg"},{"bike_id":"763a38cd-b50b-4187-a9a7-e0318d9aae60","system_id":"levelo_inurba_marseille","lat":43.25013,"lon":5.38904,"is_reserved":false,"is_disabled":false,"rental_uris":{"android":"levelo://app?vid=763a38cd-b50b-4187-a9a7-e0318d9aae60","ios":"levelo://app?vid=763a38cd-b50b-4187-a9a7-e0318d9aae60"},"vehicle_type_id":"4","last_reported":1740463983,"current_range_meters":12400,"station_id":"ce4bhgp2rcd13ifvqfd0","pricing_plan_id":"cebpf4jnsgd1na2vs0mg"},{"bike_id":"64b31661-9e5a-46b2-8f94-ad465732c441","system_id":"levelo_inurba_marseille","lat":43.23186,"lon":5.39979,"is_reserved":false,"is_disabled":false,"rental_uris":{"android":"levelo://app?vid=64b31661-9e5a-46b2-8f94-ad465732c441","ios":"levelo://app?vid=64b31661-9e5a-46b2-8f94-ad465732c441"},"vehicle_type_id":"4","last_reported":1740463983,"current_range_meters":12000,"station_id":"ce4bhn12rcd13ifvqgqg","pricing_plan_id":"cebpf4jnsgd1na2vs0mg"},{"bike_id":"8e5ae0b1-8e84-4ee8-a954-9733e390b352","system_id":"levelo_inurba_marseille","lat":43.31891,"lon":5.40735,"is_reserved":false,"is_disabled":false,"rental_uris":{"android":"levelo://app?vid=8e5ae0b1-8e84-4ee8-a954-9733e390b352","ios":"levelo://app?vid=8e5ae0b1-8e84-4ee8-a954-9733e390b352"},"vehicle_type_id":"4","last_reported":1740463983,"current_range_meters":12400,"station_id":"ce4bhq12rcd13ifvqhig","pricing_plan_id":"cebpf4jnsgd1na2vs0mg"},{"bike_id":"6491ef1b-9b7b-4294-a78b-cf05a333ba7f","system_id":"levelo_inurba_marseille","lat":43.30806,"lon":5.38158,"is_reserved":false,"is_disabled":false,"rental_uris":{"android":"levelo://app?vid=6491ef1b-9b7b-4294-a78b-cf05a333ba7f","ios":"levelo://app?vid=6491ef1b-9b7b-4294-a78b-cf05a333ba7f"},"vehicle_type_id":"4","last_reported":1740463983,"current_range_meters":12400,"station_id":"ce4bgt12rcd13ifvqce0","pricing_plan_id":"cebpf4jnsgd1na2vs0mg"},{"bike_id":"760eb658-016e-422a-925a-e97810424e09","system_id":"levelo_inurba_marseille","lat":43.27944,"lon":5.41039,"is_reserved":false,"is_disabled":false,"rental_uris":{"android":"levelo://app?vid=760eb658-016e-422a-925a-e97810424e09","ios":"levelo://app?vid=760eb658-016e-422a-925a-e97810424e09"},"vehicle_type_id":"4","last_reported":1740463983,"current_range_meters":12400,"station_id":"ce4bhnp2rcd13ifvqh0g","pricing_plan_id":"cebpf4jnsgd1na2vs0mg"},{"bike_id":"c806e66a-ae05-45b4-b912-01c1e8730711","system_id":"levelo_inurba_marseille","lat":43.293023,"lon":5.371558,"is_reserved":false,"is_disabled":false,"rental_uris":{"android":"levelo://app?vid=c806e66a-ae05-45b4-b912-01c1e8730711","ios":"levelo://app?vid=c806e66a-ae05-45b4-b912-01c1e8730711"},"vehicle_type_id":"4","last_reported":1740463983,"current_range_meters":12400,"station_id":"ce4bgh92rcd13ifvqb40","pricing_plan_id":"cebpf4jnsgd1na2vs0mg"},{"bike_id":"18b4ecad-07e0-467d-bffe-ed8a07dff029","system_id":"levelo_inurba_marseille","lat":43.291903,"lon":5.39325,"is_reserved":false,"is_disabled":false,"rental_uris":{"android":"levelo://app?vid=18b4ecad-07e0-467d-bffe-ed8a07dff029","ios":"levelo://app?vid=18b4ecad-07e0-467d-bffe-ed8a07dff029"},"vehicle_type_id":"4","last_reported":1740463983,"current_range_meters":9600,"station_id":"ce4bh192rcd13ifvqdd0","pricing_plan_id":"cebpf4jnsgd1na2vs0mg"},{"bike_id":"c08ee2e6-fdf1-4ded-9dac-f5139a08339c","system_id":"levelo_inurba_marseille","lat":43.2979,"lon":5.37081,"is_reserved":false,"is_disabled":false,"rental_uris":{"android":"levelo://app?vid=c08ee2e6-fdf1-4ded-9dac-f5139a08339c","ios":"levelo://app?vid=c08ee2e6-fdf1-4ded-9dac-f5139a08339c"},"vehicle_type_id":"4","last_reported":1740463983,"current_range_meters":13600,"station_id":"ce4bgop2rcd13ifvqc1g","pricing_plan_id":"cebpf4jnsgd1na2vs0mg"},{"bike_id":"de54b84e-d754-4cf9-97ed-7d6cd44576a6","system_id":"levelo_inurba_marseille","lat":43.27811,"lon":5.40709,"is_reserved":false,"is_disabled":false,"rental_uris":{"android":"levelo://app?vid=de54b84e-d754-4cf9-97ed-7d6cd44576a6","ios":"levelo://app?vid=de54b84e-d754-4cf9-97ed-7d6cd44576a6"},"vehicle_type_id":"4","last_reported":1740463983,"current_range_meters":13600,"station_id":"ce4bhnh2rcd13ifvqgtg","pricing_plan_id":"cebpf4jnsgd1na2vs0mg"},{"bike_id":"03c502df-c0d3-4ad7-b038-d3923b426e2e","system_id":"levelo_inurba_marseille","lat":43.29398,"lon":5.38624,"is_reserved":false,"is_disabled":true,"rental_uris":{"android":"levelo://app?vid=03c502df-c0d3-4ad7-b038-d3923b426e2e","ios":"levelo://app?vid=03c502df-c0d3-4ad7-b038-d3923b426e2e"},"vehicle_type_id":"4","last_reported":1740463983,"current_range_meters":12800,"station_id":"ce4bh2h2rcd13ifvqdh0","pricing_plan_id":"cebpf4jnsgd1na2vs0mg"},{"bike_id":"a7768e58-8634-427c-858e-c6eff8fe37d4","system_id":"levelo_inurba_marseille","lat":43.32476,"lon":5.36571,"is_reserved":false,"is_disabled":false,"rental_uris":{"android":"levelo://app?vid=a7768e58-8634-427c-858e-c6eff8fe37d4","ios":"levelo://app?vid=a7768e58-8634-427c-858e-c6eff8fe37d4"},"vehicle_type_id":"4","last_reported":1740463983,"current_range_meters":12800,"station_id":"ce4bhs12rcd13ifvqhvg","pricing_plan_id":"cebpf4jnsgd1na2vs0mg"},{"bike_id":"b1e68bfa-e0ad-4a40-b063-e1ce6dcea5ff","system_id":"levelo_inurba_marseille","lat":43.28941,"lon":5.36381,"is_reserved":false,"is_disabled":false,"rental_uris":{"android":"levelo://app?vid=b1e68bfa-e0ad-4a40-b063-e1ce6dcea5ff","ios":"levelo://app?vid=b1e68bfa-e0ad-4a40-b063-e1ce6dcea5ff"},"vehicle_type_id":"4","last_reported":1740463983,"current_range_meters":12800,"station_id":"ce4bhc92rcd13ifvqetg","pricing_plan_id":"cebpf4jnsgd1na2vs0mg"},{"bike_id":"05f51bd6-bf8c-4b6c-ba2f-d7bf7cec3006","system_id":"levelo_inurba_marseille","lat":43.23192,"lon":5.35577,"is_reserved":false,"is_disabled":false,"rental_uris":{"android":"levelo://app?vid=05f51bd6-bf8c-4b6c-ba2f-d7bf7cec3006","ios":"levelo://app?vid=05f51bd6-bf8c-4b6c-ba2f-d7bf7cec3006"},"vehicle_type_id":"4","last_reported":1740463983,"current_range_meters":13600,"station_id":"ce4bhu92rcd13ifvqi70","pricing_plan_id":"cebpf4jnsgd1na2vs0mg"},{"bike_id":"ed8c1bab-a7b4-438a-950c-b8f0fe91dea0","system_id":"levelo_inurba_marseille","lat":43.26225,"lon":5.40447,"is_reserved":false,"is_disabled":false,"rental_uris":{"android":"levelo://app?vid=ed8c1bab-a7b4-438a-950c-b8f0fe91dea0","ios":"levelo://app?vid=ed8c1bab-a7b4-438a-950c-b8f0fe91dea0"},"vehicle_type_id":"4","last_reported":1740463983,"current_range_meters":13600,"station_id":"ce4bhmh2rcd13ifvqgmg","pricing_plan_id":"cebpf4jnsgd1na2vs0mg"},{"bike_id":"e91fe3a2-3bf1-4c2b-a8af-758533abe744","system_id":"levelo_inurba_marseille","lat":43.2927,"lon":5.40132,"is_reserved":false,"is_disabled":false,"rental_uris":{"android":"levelo://app?vid=e91fe3a2-3bf1-4c2b-a8af-758533abe744","ios":"levelo://app?vid=e91fe3a2-3bf1-4c2b-a8af-758533abe744"},"vehicle_type_id":"4","last_reported":1740463983,"current_range_meters":13600,"station_id":"ce4bh312rcd13ifvqdk0","pricing_plan_id":"cebpf4jnsgd1na2vs0mg"},{"bike_id":"c5c22a0a-9ccc-4ea3-b713-2efe2edd25c8","system_id":"levelo_inurba_marseille","lat":43.30455,"lon":5.37897,"is_reserved":false,"is_disabled":false,"rental_uris":{"android":"levelo://app?vid=c5c22a0a-9ccc-4ea3-b713-2efe2edd25c8","ios":"levelo://app?vid=c5c22a0a-9ccc-4ea3-b713-2efe2edd25c8"},"vehicle_type_id":"4","last_reported":1740463983,"current_range_meters":13600,"station_id":"ce4bgup2rcd13ifvqcn0","pricing_plan_id":"cebpf4jnsgd1na2vs0mg"},{"bike_id":"5b8a8f3b-2f99-4faa-8d0c-8a2f1ca059ef","system_id":"levelo_inurba_marseille","lat":43.31373,"lon":5.38507,"is_reserved":false,"is_disabled":false,"rental_uris":{"android":"levelo://app?vid=5b8a8f3b-2f99-4faa-8d0c-8a2f1ca059ef","ios":"levelo://app?vid=5b8a8f3b-2f99-4faa-8d0c-8a2f1ca059ef"},"vehicle_type_id":"4","last_reported":1740463983,"current_range_meters":14000,"station_id":"ce4bgt92rcd13ifvqcf0","pricing_plan_id":"cebpf4jnsgd1na2vs0mg"},{"bike_id":"27df2c47-30b9-42a1-a17f-d05f9ce10835","system_id":"levelo_inurba_marseille","lat":43.28414,"lon":5.37503,"is_reserved":false,"is_disabled":false,"rental_uris":{"android":"levelo://app?vid=27df2c47-30b9-42a1-a17f-d05f9ce10835","ios":"levelo://app?vid=27df2c47-30b9-42a1-a17f-d05f9ce10835"},"vehicle_type_id":"4","last_reported":1740463983,"current_range_meters":14000,"station_id":"ce4bh412rcd13ifvqds0","pricing_plan_id":"cebpf4jnsgd1na2vs0mg"},{"bike_id":"5fbbec35-b93c-4252-9a82-5185261b3c18","system_id":"levelo_inurba_marseille","lat":43.25103,"lon":5.40323,"is_reserved":false,"is_disabled":false,"rental_uris":{"android":"levelo://app?vid=5fbbec35-b93c-4252-9a82-5185261b3c18","ios":"levelo://app?vid=5fbbec35-b93c-4252-9a82-5185261b3c18"},"vehicle_type_id":"4","last_reported":1740463983,"current_range_meters":14000,"station_id":"ce4bhlh2rcd13ifvqgig","pricing_plan_id":"cebpf4jnsgd1na2vs0mg"},{"bike_id":"545f68d9-63a2-4948-a6b8-8f51f7c5f52a","system_id":"levelo_inurba_marseille","lat":43.28275,"lon":5.35076,"is_reserved":false,"is_disabled":false,"rental_uris":{"android":"levelo://app?vid=545f68d9-63a2-4948-a6b8-8f51f7c5f52a","ios":"levelo://app?vid=545f68d9-63a2-4948-a6b8-8f51f7c5f52a"},"vehicle_type_id":"4","last_reported":1740463983,"current_range_meters":13600,"station_id":"ce4bhbp2rcd13ifvqerg","pricing_plan_id":"cebpf4jnsgd1na2vs0mg"},{"bike_id":"92ed7cef-280a-478a-a395-78128812bf52","system_id":"levelo_inurba_marseille","lat":43.28483,"lon":5.38458,"is_reserved":false,"is_disabled":true,"rental_uris":{"android":"levelo://app?vid=92ed7cef-280a-478a-a395-78128812bf52","ios":"levelo://app?vid=92ed7cef-280a-478a-a395-78128812bf52"},"vehicle_type_id":"4","last_reported":1740463983,"current_range_meters":14000,"station_id":"ce4bh512rcd13ifvqe3g","pricing_plan_id":"cebpf4jnsgd1na2vs0mg"},{"bike_id":"8fadb97d-7b28-4b55-9215-38c3c6032a44","system_id":"levelo_inurba_marseille","lat":43.29851,"lon":5.36286,"is_reserved":false,"is_disabled":false,"rental_uris":{"android":"levelo://app?vid=8fadb97d-7b28-4b55-9215-38c3c6032a44","ios":"levelo://app?vid=8fadb97d-7b28-4b55-9215-38c3c6032a44"},"vehicle_type_id":"4","last_reported":1740463983,"current_range_meters":14000,"station_id":"ce4bgpp2rcd13ifvqc3g","pricing_plan_id":"cebpf4jnsgd1na2vs0mg"},{"bike_id":"c33dc554-6ec4-498e-a373-244da71a4042","system_id":"levelo_inurba_marseille","lat":43.28421,"lon":5.34994,"is_reserved":false,"is_disabled":false,"rental_uris":{"android":"levelo://app?vid=c33dc554-6ec4-498e-a373-244da71a4042","ios":"levelo://app?vid=c33dc554-6ec4-498e-a373-244da71a4042"},"vehicle_type_id":"4","last_reported":1740463983,"current_range_meters":14000,"station_id":"ce4bhbh2rcd13ifvqepg","pricing_plan_id":"cebpf4jnsgd1na2vs0mg"},{"bike_id":"1b2b6854-e24c-4791-b80a-24ad8e4d20d7","system_id":"levelo_inurba_marseille","lat":43.28834,"lon":5.35844,"is_reserved":false,"is_disabled":false,"rental_uris":{"android":"levelo://app?vid=1b2b6854-e24c-4791-b80a-24ad8e4d20d7","ios":"levelo://app?vid=1b2b6854-e24c-4791-b80a-24ad8e4d20d7"},"vehicle_type_id":"4","last_reported":1740463983,"current_range_meters":14400,"station_id":"ce4bhb12rcd13ifvqem0","pricing_plan_id":"cebpf4jnsgd1na2vs0mg"},{"bike_id":"50811b74-cd9a-400a-8ede-e9cfae7e31aa","system_id":"levelo_inurba_marseille","lat":43.29223,"lon":5.36054,"is_reserved":false,"is_disabled":false,"rental_uris":{"android":"levelo://app?vid=50811b74-cd9a-400a-8ede-e9cfae7e31aa","ios":"levelo://app?vid=50811b74-cd9a-400a-8ede-e9cfae7e31aa"},"vehicle_type_id":"4","last_reported":1740463983,"current_range_meters":16400,"station_id":"ce4bhbh2rcd13ifvqeqg","pricing_plan_id":"cebpf4jnsgd1na2vs0mg"},{"bike_id":"9baa584d-7606-45b4-87a7-a46922cf6e4d","system_id":"levelo_inurba_marseille","lat":43.29902,"lon":5.39735,"is_reserved":false,"is_disabled":false,"rental_uris":{"android":"levelo://app?vid=9baa584d-7606-45b4-87a7-a46922cf6e4d","ios":"levelo://app?vid=9baa584d-7606-45b4-87a7-a46922cf6e4d"},"vehicle_type_id":"4","last_reported":1740463983,"current_range_meters":14400,"station_id":"ce4bh0h2rcd13ifvqd50","pricing_plan_id":"cebpf4jnsgd1na2vs0mg"},{"bike_id":"1c2f3bdc-68fa-40a8-b99e-fcf41f32f9e4","system_id":"levelo_inurba_marseille","lat":43.29213,"lon":5.40493,"is_reserved":false,"is_disabled":false,"rental_uris":{"android":"levelo://app?vid=1c2f3bdc-68fa-40a8-b99e-fcf41f32f9e4","ios":"levelo://app?vid=1c2f3bdc-68fa-40a8-b99e-fcf41f32f9e4"},"vehicle_type_id":"4","last_reported":1740463983,"current_range_meters":14400,"station_id":"","pricing_plan_id":"cebpf4jnsgd1na2vs0mg"},{"bike_id":"c9a1858d-786d-4197-a639-046d237805f3","system_id":"levelo_inurba_marseille","lat":43.2841,"lon":5.37506,"is_reserved":false,"is_disabled":false,"rental_uris":{"android":"levelo://app?vid=c9a1858d-786d-4197-a639-046d237805f3","ios":"levelo://app?vid=c9a1858d-786d-4197-a639-046d237805f3"},"vehicle_type_id":"4","last_reported":1740463983,"current_range_meters":14400,"station_id":"ce4bh412rcd13ifvqds0","pricing_plan_id":"cebpf4jnsgd1na2vs0mg"},{"bike_id":"f5199c91-a04d-4ab5-975e-7a0c1c29ef09","system_id":"levelo_inurba_marseille","lat":43.32104,"lon":5.36801,"is_reserved":false,"is_disabled":false,"rental_uris":{"android":"levelo://app?vid=f5199c91-a04d-4ab5-975e-7a0c1c29ef09","ios":"levelo://app?vid=f5199c91-a04d-4ab5-975e-7a0c1c29ef09"},"vehicle_type_id":"4","last_reported":1740463983,"current_range_meters":14400,"station_id":"ce4bhrh2rcd13ifvqhug","pricing_plan_id":"cebpf4jnsgd1na2vs0mg"},{"bike_id":"a9086d25-8d7e-408f-925a-30e583e791fc","system_id":"levelo_inurba_marseille","lat":43.29523,"lon":5.39054,"is_reserved":false,"is_disabled":false,"rental_uris":{"android":"levelo://app?vid=a9086d25-8d7e-408f-925a-30e583e791fc","ios":"levelo://app?vid=a9086d25-8d7e-408f-925a-30e583e791fc"},"vehicle_type_id":"4","last_reported":1740463983,"current_range_meters":14400,"station_id":"ce4bh3p2rcd13ifvqdp0","pricing_plan_id":"cebpf4jnsgd1na2vs0mg"},{"bike_id":"c089c19a-9e3a-4f5f-8b9c-a99d357a37fa","system_id":"levelo_inurba_marseille","lat":43.29536,"lon":5.39382,"is_reserved":false,"is_disabled":false,"rental_uris":{"android":"levelo://app?vid=c089c19a-9e3a-4f5f-8b9c-a99d357a37fa","ios":"levelo://app?vid=c089c19a-9e3a-4f5f-8b9c-a99d357a37fa"},"vehicle_type_id":"4","last_reported":1740463983,"current_range_meters":15200,"station_id":"ce4bh292rcd13ifvqdf0","pricing_plan_id":"cebpf4jnsgd1na2vs0mg"},{"bike_id":"9062f7b6-9c81-49b8-a1bd-5df58202afcd","system_id":"levelo_inurba_marseille","lat":43.31669,"lon":5.43691,"is_reserved":false,"is_disabled":false,"rental_uris":{"android":"levelo://app?vid=9062f7b6-9c81-49b8-a1bd-5df58202afcd","ios":"levelo://app?vid=9062f7b6-9c81-49b8-a1bd-5df58202afcd"},"vehicle_type_id":"4","last_reported":1740463983,"current_range_meters":14800,"station_id":"ce4bhp92rcd13ifvqhcg","pricing_plan_id":"cebpf4jnsgd1na2vs0mg"},{"bike_id":"6bb7a600-4627-48d6-a6ba-24a72f10b0e3","system_id":"levelo_inurba_marseille","lat":43.231524,"lon":5.437234,"is_reserved":false,"is_disabled":false,"rental_uris":{"android":"levelo://app?vid=6bb7a600-4627-48d6-a6ba-24a72f10b0e3","ios":"levelo://app?vid=6bb7a600-4627-48d6-a6ba-24a72f10b0e3"},"vehicle_type_id":"4","last_reported":1740463983,"current_range_meters":14800,"station_id":"ce4bhmp2rcd13ifvqgog","pricing_plan_id":"cebpf4jnsgd1na2vs0mg"},{"bike_id":"123873b6-0553-4b01-8057-3a4fedeb0171","system_id":"levelo_inurba_marseille","lat":43.25086,"lon":5.39521,"is_reserved":false,"is_disabled":false,"rental_uris":{"android":"levelo://app?vid=123873b6-0553-4b01-8057-3a4fedeb0171","ios":"levelo://app?vid=123873b6-0553-4b01-8057-3a4fedeb0171"},"vehicle_type_id":"4","last_reported":1740463983,"current_range_meters":15200,"station_id":"ce4bhm12rcd13ifvqgkg","pricing_plan_id":"cebpf4jnsgd1na2vs0mg"},{"bike_id":"63d2dc5a-e03c-4909-9269-36c39633100a","system_id":"levelo_inurba_marseille","lat":43.28421,"lon":5.34993,"is_reserved":false,"is_disabled":true,"rental_uris":{"android":"levelo://app?vid=63d2dc5a-e03c-4909-9269-36c39633100a","ios":"levelo://app?vid=63d2dc5a-e03c-4909-9269-36c39633100a"},"vehicle_type_id":"4","last_reported":1740463983,"current_range_meters":15200,"station_id":"ce4bhbh2rcd13ifvqepg","pricing_plan_id":"cebpf4jnsgd1na2vs0mg"},{"bike_id":"8514fc45-931a-4d33-8ebd-119ca23a33dc","system_id":"levelo_inurba_marseille","lat":43.27809,"lon":5.40725,"is_reserved":false,"is_disabled":false,"rental_uris":{"android":"levelo://app?vid=8514fc45-931a-4d33-8ebd-119ca23a33dc","ios":"levelo://app?vid=8514fc45-931a-4d33-8ebd-119ca23a33dc"},"vehicle_type_id":"4","last_reported":1740463983,"current_range_meters":15200,"station_id":"ce4bhnh2rcd13ifvqgtg","pricing_plan_id":"cebpf4jnsgd1na2vs0mg"},{"bike_id":"7c45866a-bd99-4c12-9747-66203f12a96e","system_id":"levelo_inurba_marseille","lat":43.23153,"lon":5.35514,"is_reserved":false,"is_disabled":false,"rental_uris":{"android":"levelo://app?vid=7c45866a-bd99-4c12-9747-66203f12a96e","ios":"levelo://app?vid=7c45866a-bd99-4c12-9747-66203f12a96e"},"vehicle_type_id":"4","last_reported":1740463983,"current_range_meters":15200,"station_id":"","pricing_plan_id":"cebpf4jnsgd1na2vs0mg"},{"bike_id":"fb352528-6dce-483c-a4f0-c367df3759b9","system_id":"levelo_inurba_marseille","lat":43.29058,"lon":5.37549,"is_reserved":false,"is_disabled":true,"rental_uris":{"android":"levelo://app?vid=fb352528-6dce-483c-a4f0-c367df3759b9","ios":"levelo://app?vid=fb352528-6dce-483c-a4f0-c367df3759b9"},"vehicle_type_id":"4","last_reported":1740463983,"current_range_meters":15200,"station_id":"ce4bh692rcd13ifvqe90","pricing_plan_id":"cebpf4jnsgd1na2vs0mg"},{"bike_id":"6f9eb619-ce1a-440a-9085-673242f78425","system_id":"levelo_inurba_marseille","lat":43.29496,"lon":5.37529,"is_reserved":false,"is_disabled":true,"rental_uris":{"android":"levelo://app?vid=6f9eb619-ce1a-440a-9085-673242f78425","ios":"levelo://app?vid=6f9eb619-ce1a-440a-9085-673242f78425"},"vehicle_type_id":"4","last_reported":1740463983,"current_range_meters":16000,"station_id":"","pricing_plan_id":"cebpf4jnsgd1na2vs0mg"},{"bike_id":"46455735-1dab-4610-8eb6-3c16d93ce19b","system_id":"levelo_inurba_marseille","lat":43.27941,"lon":5.41036,"is_reserved":false,"is_disabled":false,"rental_uris":{"android":"levelo://app?vid=46455735-1dab-4610-8eb6-3c16d93ce19b","ios":"levelo://app?vid=46455735-1dab-4610-8eb6-3c16d93ce19b"},"vehicle_type_id":"4","last_reported":1740463983,"current_range_meters":16000,"station_id":"ce4bhnp2rcd13ifvqh0g","pricing_plan_id":"cebpf4jnsgd1na2vs0mg"},{"bike_id":"3ca12e5b-bc10-471e-b621-aa59335cc3bb","system_id":"levelo_inurba_marseille","lat":43.29531,"lon":5.40767,"is_reserved":false,"is_disabled":false,"rental_uris":{"android":"levelo://app?vid=3ca12e5b-bc10-471e-b621-aa59335cc3bb","ios":"levelo://app?vid=3ca12e5b-bc10-471e-b621-aa59335cc3bb"},"vehicle_type_id":"4","last_reported":1740463983,"current_range_meters":16000,"station_id":"","pricing_plan_id":"cebpf4jnsgd1na2vs0mg"},{"bike_id":"0dc77e2f-ce80-4f7e-b672-b7d704534da5","system_id":"levelo_inurba_marseille","lat":43.27998,"lon":5.40007,"is_reserved":false,"is_disabled":false,"rental_uris":{"android":"levelo://app?vid=0dc77e2f-ce80-4f7e-b672-b7d704534da5","ios":"levelo://app?vid=0dc77e2f-ce80-4f7e-b672-b7d704534da5"},"vehicle_type_id":"4","last_reported":1740463983,"current_range_meters":16000,"station_id":"ce4bho92rcd13ifvqh4g","pricing_plan_id":"cebpf4jnsgd1na2vs0mg"},{"bike_id":"db8f7a43-768b-45ca-9dfa-098c5d9697d5","system_id":"levelo_inurba_marseille","lat":43.28861,"lon":5.35826,"is_reserved":false,"is_disabled":false,"rental_uris":{"android":"levelo://app?vid=db8f7a43-768b-45ca-9dfa-098c5d9697d5","ios":"levelo://app?vid=db8f7a43-768b-45ca-9dfa-098c5d9697d5"},"vehicle_type_id":"4","last_reported":1740463983,"current_range_meters":16000,"station_id":"ce4bhb12rcd13ifvqem0","pricing_plan_id":"cebpf4jnsgd1na2vs0mg"},{"bike_id":"06ba8faf-1890-49a3-ab59-d9bac3cc50a7","system_id":"levelo_inurba_marseille","lat":43.25001,"lon":5.38952,"is_reserved":false,"is_disabled":false,"rental_uris":{"android":"levelo://app?vid=06ba8faf-1890-49a3-ab59-d9bac3cc50a7","ios":"levelo://app?vid=06ba8faf-1890-49a3-ab59-d9bac3cc50a7"},"vehicle_type_id":"4","last_reported":1740463983,"current_range_meters":16000,"station_id":"ce4bhgp2rcd13ifvqfd0","pricing_plan_id":"cebpf4jnsgd1na2vs0mg"},{"bike_id":"73747d2b-e71e-4180-a461-b9fb4a42bfe0","system_id":"levelo_inurba_marseille","lat":43.28716,"lon":5.37946,"is_reserved":false,"is_disabled":false,"rental_uris":{"android":"levelo://app?vid=73747d2b-e71e-4180-a461-b9fb4a42bfe0","ios":"levelo://app?vid=73747d2b-e71e-4180-a461-b9fb4a42bfe0"},"vehicle_type_id":"4","last_reported":1740463983,"current_range_meters":16000,"station_id":"ce4bh9p2rcd13ifvqec0","pricing_plan_id":"cebpf4jnsgd1na2vs0mg"},{"bike_id":"48cd24b6-6d9d-440b-9450-0fec3fc9894e","system_id":"levelo_inurba_marseille","lat":43.28852,"lon":5.3585,"is_reserved":false,"is_disabled":false,"rental_uris":{"android":"levelo://app?vid=48cd24b6-6d9d-440b-9450-0fec3fc9894e","ios":"levelo://app?vid=48cd24b6-6d9d-440b-9450-0fec3fc9894e"},"vehicle_type_id":"4","last_reported":1740463983,"current_range_meters":16400,"station_id":"ce4bhb12rcd13ifvqem0","pricing_plan_id":"cebpf4jnsgd1na2vs0mg"},{"bike_id":"99a6215f-6506-4f6e-9c5e-ddad7f4be2a5","system_id":"levelo_inurba_marseille","lat":43.29929,"lon":5.43748,"is_reserved":false,"is_disabled":false,"rental_uris":{"android":"levelo://app?vid=99a6215f-6506-4f6e-9c5e-ddad7f4be2a5","ios":"levelo://app?vid=99a6215f-6506-4f6e-9c5e-ddad7f4be2a5"},"vehicle_type_id":"4","last_reported":1740463983,"current_range_meters":16400,"station_id":"","pricing_plan_id":"cebpf4jnsgd1na2vs0mg"},{"bike_id":"8140536f-d4f8-472f-83af-0e094b3f960a","system_id":"levelo_inurba_marseille","lat":43.31087,"lon":5.42426,"is_reserved":false,"is_disabled":false,"rental_uris":{"android":"levelo://app?vid=8140536f-d4f8-472f-83af-0e094b3f960a","ios":"levelo://app?vid=8140536f-d4f8-472f-83af-0e094b3f960a"},"vehicle_type_id":"4","last_reported":1740463983,"current_range_meters":16400,"station_id":"ce4bhp92rcd13ifvqhag","pricing_plan_id":"cebpf4jnsgd1na2vs0mg"},{"bike_id":"67462c7c-fcd4-47dc-94d8-9d7a33d5da2f","system_id":"levelo_inurba_marseille","lat":43.27951,"lon":5.4103,"is_reserved":false,"is_disabled":false,"rental_uris":{"android":"levelo://app?vid=67462c7c-fcd4-47dc-94d8-9d7a33d5da2f","ios":"levelo://app?vid=67462c7c-fcd4-47dc-94d8-9d7a33d5da2f"},"vehicle_type_id":"4","last_reported":1740463983,"current_range_meters":16400,"station_id":"ce4bhnp2rcd13ifvqh0g","pricing_plan_id":"cebpf4jnsgd1na2vs0mg"},{"bike_id":"c068dcb4-6111-4494-92b0-fe59cb336012","system_id":"levelo_inurba_marseille","lat":43.2987,"lon":5.38906,"is_reserved":false,"is_disabled":false,"rental_uris":{"android":"levelo://app?vid=c068dcb4-6111-4494-92b0-fe59cb336012","ios":"levelo://app?vid=c068dcb4-6111-4494-92b0-fe59cb336012"},"vehicle_type_id":"4","last_reported":1740463983,"current_range_meters":16400,"station_id":"ce4bh392rcd13ifvqdl0","pricing_plan_id":"cebpf4jnsgd1na2vs0mg"},{"bike_id":"7951ec82-c1c3-436f-b4bb-ea3dd1dc5ab6","system_id":"levelo_inurba_marseille","lat":43.2861,"lon":5.35108,"is_reserved":false,"is_disabled":false,"rental_uris":{"android":"levelo://app?vid=7951ec82-c1c3-436f-b4bb-ea3dd1dc5ab6","ios":"levelo://app?vid=7951ec82-c1c3-436f-b4bb-ea3dd1dc5ab6"},"vehicle_type_id":"4","last_reported":1740463983,"current_range_meters":16800,"station_id":"ce4bhch2rcd13ifvqeug","pricing_plan_id":"cebpf4jnsgd1na2vs0mg"},{"bike_id":"fecb5daa-a777-44eb-ad60-faaf813f5687","system_id":"levelo_inurba_marseille","lat":43.29034,"lon":5.35907,"is_reserved":false,"is_disabled":false,"rental_uris":{"android":"levelo://app?vid=fecb5daa-a777-44eb-ad60-faaf813f5687","ios":"levelo://app?vid=fecb5daa-a777-44eb-ad60-faaf813f5687"},"vehicle_type_id":"4","last_reported":1740463983,"current_range_meters":16800,"station_id":"ce4bha92rcd13ifvqeg0","pricing_plan_id":"cebpf4jnsgd1na2vs0mg"},{"bike_id":"1a38d434-4c01-4633-adc3-fd07ad021111","system_id":"levelo_inurba_marseille","lat":43.27048,"lon":5.40272,"is_reserved":false,"is_disabled":false,"rental_uris":{"android":"levelo://app?vid=1a38d434-4c01-4633-adc3-fd07ad021111","ios":"levelo://app?vid=1a38d434-4c01-4633-adc3-fd07ad021111"},"vehicle_type_id":"4","last_reported":1740463983,"current_range_meters":16800,"station_id":"ce4bhk92rcd13ifvqgc0","pricing_plan_id":"cebpf4jnsgd1na2vs0mg"},{"bike_id":"c68f3a0b-e764-4bf3-9b63-b72387fdffb5","system_id":"levelo_inurba_marseille","lat":43.28843,"lon":5.35846,"is_reserved":false,"is_disabled":false,"rental_uris":{"android":"levelo://app?vid=c68f3a0b-e764-4bf3-9b63-b72387fdffb5","ios":"levelo://app?vid=c68f3a0b-e764-4bf3-9b63-b72387fdffb5"},"vehicle_type_id":"4","last_reported":1740463983,"current_range_meters":16800,"station_id":"ce4bhb12rcd13ifvqem0","pricing_plan_id":"cebpf4jnsgd1na2vs0mg"},{"bike_id":"fc4fc2bc-cc85-4ec8-a7e7-3a6ae146cf46","system_id":"levelo_inurba_marseille","lat":43.292,"lon":5.39318,"is_reserved":false,"is_disabled":false,"rental_uris":{"android":"levelo://app?vid=fc4fc2bc-cc85-4ec8-a7e7-3a6ae146cf46","ios":"levelo://app?vid=fc4fc2bc-cc85-4ec8-a7e7-3a6ae146cf46"},"vehicle_type_id":"4","last_reported":1740463983,"current_range_meters":16800,"station_id":"ce4bh192rcd13ifvqdd0","pricing_plan_id":"cebpf4jnsgd1na2vs0mg"},{"bike_id":"5b05002f-7e6a-4c47-97c7-0858f4fd1ce4","system_id":"levelo_inurba_marseille","lat":43.28946,"lon":5.36623,"is_reserved":false,"is_disabled":false,"rental_uris":{"android":"levelo://app?vid=5b05002f-7e6a-4c47-97c7-0858f4fd1ce4","ios":"levelo://app?vid=5b05002f-7e6a-4c47-97c7-0858f4fd1ce4"},"vehicle_type_id":"4","last_reported":1740463983,"current_range_meters":16800,"station_id":"ce4bhap2rcd13ifvqek0","pricing_plan_id":"cebpf4jnsgd1na2vs0mg"},{"bike_id":"eea46f47-e6ec-4c1d-a173-6d051008e29b","system_id":"levelo_inurba_marseille","lat":43.31889,"lon":5.40724,"is_reserved":false,"is_disabled":false,"rental_uris":{"android":"levelo://app?vid=eea46f47-e6ec-4c1d-a173-6d051008e29b","ios":"levelo://app?vid=eea46f47-e6ec-4c1d-a173-6d051008e29b"},"vehicle_type_id":"4","last_reported":1740463983,"current_range_meters":16800,"station_id":"ce4bhq12rcd13ifvqhig","pricing_plan_id":"cebpf4jnsgd1na2vs0mg"},{"bike_id":"97b32ca9-0b6b-4e41-8c58-cfffa4bec840","system_id":"levelo_inurba_marseille","lat":43.31127,"lon":5.37775,"is_reserved":false,"is_disabled":false,"rental_uris":{"android":"levelo://app?vid=97b32ca9-0b6b-4e41-8c58-cfffa4bec840","ios":"levelo://app?vid=97b32ca9-0b6b-4e41-8c58-cfffa4bec840"},"vehicle_type_id":"4","last_reported":1740463983,"current_range_meters":16800,"station_id":"ce4bgt92rcd13ifvqcg0","pricing_plan_id":"cebpf4jnsgd1na2vs0mg"},{"bike_id":"aff7a8a1-5476-44b3-8b23-aa5705650095","system_id":"levelo_inurba_marseille","lat":43.29527,"lon":5.39404,"is_reserved":false,"is_disabled":false,"rental_uris":{"android":"levelo://app?vid=aff7a8a1-5476-44b3-8b23-aa5705650095","ios":"levelo://app?vid=aff7a8a1-5476-44b3-8b23-aa5705650095"},"vehicle_type_id":"4","last_reported":1740463983,"current_range_meters":17200,"station_id":"ce4bh292rcd13ifvqdf0","pricing_plan_id":"cebpf4jnsgd1na2vs0mg"},{"bike_id":"e8d8d250-4dba-405b-9c84-c803f77d975f","system_id":"levelo_inurba_marseille","lat":43.27063,"lon":5.40248,"is_reserved":false,"is_disabled":false,"rental_uris":{"android":"levelo://app?vid=e8d8d250-4dba-405b-9c84-c803f77d975f","ios":"levelo://app?vid=e8d8d250-4dba-405b-9c84-c803f77d975f"},"vehicle_type_id":"4","last_reported":1740463983,"current_range_meters":17200,"station_id":"ce4bhk92rcd13ifvqgc0","pricing_plan_id":"cebpf4jnsgd1na2vs0mg"},{"bike_id":"c3eaf577-384f-49be-90a6-7d88e2904d90","system_id":"levelo_inurba_marseille","lat":43.33612,"lon":5.41015,"is_reserved":false,"is_disabled":true,"rental_uris":{"android":"levelo://app?vid=c3eaf577-384f-49be-90a6-7d88e2904d90","ios":"levelo://app?vid=c3eaf577-384f-49be-90a6-7d88e2904d90"},"vehicle_type_id":"4","last_reported":1740463983,"current_range_meters":17200,"station_id":"ce4bhqh2rcd13ifvqhmg","pricing_plan_id":"cebpf4jnsgd1na2vs0mg"},{"bike_id":"45ae883b-0aff-454b-a2be-e94342b6f471","system_id":"levelo_inurba_marseille","lat":43.28342,"lon":5.38112,"is_reserved":false,"is_disabled":false,"rental_uris":{"android":"levelo://app?vid=45ae883b-0aff-454b-a2be-e94342b6f471","ios":"levelo://app?vid=45ae883b-0aff-454b-a2be-e94342b6f471"},"vehicle_type_id":"4","last_reported":1740463983,"current_range_meters":17200,"station_id":"ce4bh412rcd13ifvqdr0","pricing_plan_id":"cebpf4jnsgd1na2vs0mg"},{"bike_id":"132397d0-4755-40c8-bc1e-cbad631e388d","system_id":"levelo_inurba_marseille","lat":43.3171,"lon":5.3774,"is_reserved":false,"is_disabled":false,"rental_uris":{"android":"levelo://app?vid=132397d0-4755-40c8-bc1e-cbad631e388d","ios":"levelo://app?vid=132397d0-4755-40c8-bc1e-cbad631e388d"},"vehicle_type_id":"4","last_reported":1740463983,"current_range_meters":17200,"station_id":"ce4bgth2rcd13ifvqch0","pricing_plan_id":"cebpf4jnsgd1na2vs0mg"},{"bike_id":"6ab61c77-2b78-4944-929b-3625fab47136","system_id":"levelo_inurba_marseille","lat":43.28716,"lon":5.36098,"is_reserved":false,"is_disabled":false,"rental_uris":{"android":"levelo://app?vid=6ab61c77-2b78-4944-929b-3625fab47136","ios":"levelo://app?vid=6ab61c77-2b78-4944-929b-3625fab47136"},"vehicle_type_id":"4","last_reported":1740463983,"current_range_meters":17600,"station_id":"cki0cbj6b192h4jlfktg","pricing_plan_id":"cebpf4jnsgd1na2vs0mg"},{"bike_id":"342f6faa-d7db-4869-a8c6-15f071610b9c","system_id":"levelo_inurba_marseille","lat":43.29897,"lon":5.43671,"is_reserved":false,"is_disabled":false,"rental_uris":{"android":"levelo://app?vid=342f6faa-d7db-4869-a8c6-15f071610b9c","ios":"levelo://app?vid=342f6faa-d7db-4869-a8c6-15f071610b9c"},"vehicle_type_id":"4","last_reported":1740463983,"current_range_meters":17600,"station_id":"ce4bhpp2rcd13ifvqhfg","pricing_plan_id":"cebpf4jnsgd1na2vs0mg"},{"bike_id":"e3f56918-7d25-4b2d-b789-0116e2292b75","system_id":"levelo_inurba_marseille","lat":43.28318,"lon":5.38103,"is_reserved":false,"is_disabled":false,"rental_uris":{"android":"levelo://app?vid=e3f56918-7d25-4b2d-b789-0116e2292b75","ios":"levelo://app?vid=e3f56918-7d25-4b2d-b789-0116e2292b75"},"vehicle_type_id":"4","last_reported":1740463983,"current_range_meters":17600,"station_id":"ce4bh412rcd13ifvqdr0","pricing_plan_id":"cebpf4jnsgd1na2vs0mg"},{"bike_id":"9bb96cdf-78d2-4f2d-a906-dc0df595fac7","system_id":"levelo_inurba_marseille","lat":43.26144,"lon":5.40567,"is_reserved":false,"is_disabled":false,"rental_uris":{"android":"levelo://app?vid=9bb96cdf-78d2-4f2d-a906-dc0df595fac7","ios":"levelo://app?vid=9bb96cdf-78d2-4f2d-a906-dc0df595fac7"},"vehicle_type_id":"4","last_reported":1740463983,"current_range_meters":17600,"station_id":"ce4bhmh2rcd13ifvqgmg","pricing_plan_id":"cebpf4jnsgd1na2vs0mg"},{"bike_id":"a5f17b8a-93c0-45b6-82bd-c6a5f8fcac61","system_id":"levelo_inurba_marseille","lat":43.28566,"lon":5.39489,"is_reserved":false,"is_disabled":false,"rental_uris":{"android":"levelo://app?vid=a5f17b8a-93c0-45b6-82bd-c6a5f8fcac61","ios":"levelo://app?vid=a5f17b8a-93c0-45b6-82bd-c6a5f8fcac61"},"vehicle_type_id":"4","last_reported":1740463983,"current_range_meters":17600,"station_id":"ce4bh292rcd13ifvqdg0","pricing_plan_id":"cebpf4jnsgd1na2vs0mg"},{"bike_id":"2d50fb33-49cb-450e-a873-325ea39b74f3","system_id":"levelo_inurba_marseille","lat":43.29701,"lon":5.36612,"is_reserved":false,"is_disabled":false,"rental_uris":{"android":"levelo://app?vid=2d50fb33-49cb-450e-a873-325ea39b74f3","ios":"levelo://app?vid=2d50fb33-49cb-450e-a873-325ea39b74f3"},"vehicle_type_id":"4","last_reported":1740463983,"current_range_meters":18000,"station_id":"ce4bgn12rcd13ifvqbt0","pricing_plan_id":"cebpf4jnsgd1na2vs0mg"},{"bike_id":"c3d0fefa-5db4-49bd-a964-1a22da440d36","system_id":"levelo_inurba_marseille","lat":43.269559,"lon":5.386313,"is_reserved":false,"is_disabled":false,"rental_uris":{"android":"levelo://app?vid=c3d0fefa-5db4-49bd-a964-1a22da440d36","ios":"levelo://app?vid=c3d0fefa-5db4-49bd-a964-1a22da440d36"},"vehicle_type_id":"4","last_reported":1740463983,"current_range_meters":17600,"station_id":"","pricing_plan_id":"cebpf4jnsgd1na2vs0mg"},{"bike_id":"eae38a93-dd09-49e3-895a-a41c8fd42355","system_id":"levelo_inurba_marseille","lat":43.3034,"lon":5.40439,"is_reserved":false,"is_disabled":false,"rental_uris":{"android":"levelo://app?vid=eae38a93-dd09-49e3-895a-a41c8fd42355","ios":"levelo://app?vid=eae38a93-dd09-49e3-895a-a41c8fd42355"},"vehicle_type_id":"4","last_reported":1740463983,"current_range_meters":18000,"station_id":"ce4bh012rcd13ifvqd10","pricing_plan_id":"cebpf4jnsgd1na2vs0mg"},{"bike_id":"5d5f0c0b-9bc4-4b1f-8890-8f3a88d118b3","system_id":"levelo_inurba_marseille","lat":43.28617,"lon":5.351,"is_reserved":false,"is_disabled":false,"rental_uris":{"android":"levelo://app?vid=5d5f0c0b-9bc4-4b1f-8890-8f3a88d118b3","ios":"levelo://app?vid=5d5f0c0b-9bc4-4b1f-8890-8f3a88d118b3"},"vehicle_type_id":"4","last_reported":1740463983,"current_range_meters":18000,"station_id":"ce4bhch2rcd13ifvqeug","pricing_plan_id":"cebpf4jnsgd1na2vs0mg"},{"bike_id":"5bef056c-d61f-46ed-bbba-16214d7268b1","system_id":"levelo_inurba_marseille","lat":43.28356,"lon":5.3811,"is_reserved":false,"is_disabled":false,"rental_uris":{"android":"levelo://app?vid=5bef056c-d61f-46ed-bbba-16214d7268b1","ios":"levelo://app?vid=5bef056c-d61f-46ed-bbba-16214d7268b1"},"vehicle_type_id":"4","last_reported":1740463983,"current_range_meters":18000,"station_id":"ce4bh412rcd13ifvqdr0","pricing_plan_id":"cebpf4jnsgd1na2vs0mg"},{"bike_id":"4becd803-3ddc-4628-b0b3-34bc517d3f34","system_id":"levelo_inurba_marseille","lat":43.28274,"lon":5.35074,"is_reserved":false,"is_disabled":false,"rental_uris":{"android":"levelo://app?vid=4becd803-3ddc-4628-b0b3-34bc517d3f34","ios":"levelo://app?vid=4becd803-3ddc-4628-b0b3-34bc517d3f34"},"vehicle_type_id":"4","last_reported":1740463983,"current_range_meters":18000,"station_id":"ce4bhbp2rcd13ifvqerg","pricing_plan_id":"cebpf4jnsgd1na2vs0mg"},{"bike_id":"fb798b1a-f514-4328-9f6a-ae91748839ed","system_id":"levelo_inurba_marseille","lat":43.31074,"lon":5.38391,"is_reserved":false,"is_disabled":false,"rental_uris":{"android":"levelo://app?vid=fb798b1a-f514-4328-9f6a-ae91748839ed","ios":"levelo://app?vid=fb798b1a-f514-4328-9f6a-ae91748839ed"},"vehicle_type_id":"4","last_reported":1740463983,"current_range_meters":18800,"station_id":"ce4bgv92rcd13ifvqcr0","pricing_plan_id":"cebpf4jnsgd1na2vs0mg"},{"bike_id":"79486965-c088-498f-8f45-61ea909d33f7","system_id":"levelo_inurba_marseille","lat":43.31101,"lon":5.37763,"is_reserved":false,"is_disabled":true,"rental_uris":{"android":"levelo://app?vid=79486965-c088-498f-8f45-61ea909d33f7","ios":"levelo://app?vid=79486965-c088-498f-8f45-61ea909d33f7"},"vehicle_type_id":"4","last_reported":1740463983,"current_range_meters":18800,"station_id":"ce4bgt92rcd13ifvqcg0","pricing_plan_id":"cebpf4jnsgd1na2vs0mg"},{"bike_id":"46d93f9d-8df9-4253-ae37-efb0674aedab","system_id":"levelo_inurba_marseille","lat":43.28088,"lon":5.39656,"is_reserved":false,"is_disabled":false,"rental_uris":{"android":"levelo://app?vid=46d93f9d-8df9-4253-ae37-efb0674aedab","ios":"levelo://app?vid=46d93f9d-8df9-4253-ae37-efb0674aedab"},"vehicle_type_id":"4","last_reported":1740463983,"current_range_meters":18800,"station_id":"ce4bho12rcd13ifvqh2g","pricing_plan_id":"cebpf4jnsgd1na2vs0mg"},{"bike_id":"513f5369-6cd4-46d3-beb0-aa8ba7b3fc09","system_id":"levelo_inurba_marseille","lat":43.25575,"lon":5.38278,"is_reserved":false,"is_disabled":false,"rental_uris":{"android":"levelo://app?vid=513f5369-6cd4-46d3-beb0-aa8ba7b3fc09","ios":"levelo://app?vid=513f5369-6cd4-46d3-beb0-aa8ba7b3fc09"},"vehicle_type_id":"4","last_reported":1740463983,"current_range_meters":19200,"station_id":"ce4bhih2rcd13ifvqfs0","pricing_plan_id":"cebpf4jnsgd1na2vs0mg"},{"bike_id":"95f04377-dbb1-40c3-a9ab-aa1a9b36eb91","system_id":"levelo_inurba_marseille","lat":43.26205,"lon":5.37445,"is_reserved":false,"is_disabled":false,"rental_uris":{"android":"levelo://app?vid=95f04377-dbb1-40c3-a9ab-aa1a9b36eb91","ios":"levelo://app?vid=95f04377-dbb1-40c3-a9ab-aa1a9b36eb91"},"vehicle_type_id":"4","last_reported":1740463983,"current_range_meters":19200,"station_id":"ce4bhgp2rcd13ifvqfc0","pricing_plan_id":"cebpf4jnsgd1na2vs0mg"},{"bike_id":"9bcb6e74-9384-4520-a191-6ca3da24e600","system_id":"levelo_inurba_marseille","lat":43.2416,"lon":5.36399,"is_reserved":false,"is_disabled":false,"rental_uris":{"android":"levelo://app?vid=9bcb6e74-9384-4520-a191-6ca3da24e600","ios":"levelo://app?vid=9bcb6e74-9384-4520-a191-6ca3da24e600"},"vehicle_type_id":"4","last_reported":1740463983,"current_range_meters":19200,"station_id":"cpo36qri1sfpv3e86is0","pricing_plan_id":"cebpf4jnsgd1na2vs0mg"},{"bike_id":"9c032ed8-3a3f-4e7f-8e21-11951ef3407f","system_id":"levelo_inurba_marseille","lat":43.29197,"lon":5.39328,"is_reserved":false,"is_disabled":false,"rental_uris":{"android":"levelo://app?vid=9c032ed8-3a3f-4e7f-8e21-11951ef3407f","ios":"levelo://app?vid=9c032ed8-3a3f-4e7f-8e21-11951ef3407f"},"vehicle_type_id":"4","last_reported":1740463983,"current_range_meters":19200,"station_id":"ce4bh192rcd13ifvqdd0","pricing_plan_id":"cebpf4jnsgd1na2vs0mg"},{"bike_id":"d3103336-2d71-4742-bf9a-d557baf6d26c","system_id":"levelo_inurba_marseille","lat":43.27491,"lon":5.42456,"is_reserved":false,"is_disabled":false,"rental_uris":{"android":"levelo://app?vid=d3103336-2d71-4742-bf9a-d557baf6d26c","ios":"levelo://app?vid=d3103336-2d71-4742-bf9a-d557baf6d26c"},"vehicle_type_id":"4","last_reported":1740463983,"current_range_meters":19200,"station_id":"ce4bhn92rcd13ifvqgrg","pricing_plan_id":"cebpf4jnsgd1na2vs0mg"},{"bike_id":"451ee27c-3053-4dad-97f9-30aa721d9def","system_id":"levelo_inurba_marseille","lat":43.27989,"lon":5.40025,"is_reserved":false,"is_disabled":false,"rental_uris":{"android":"levelo://app?vid=451ee27c-3053-4dad-97f9-30aa721d9def","ios":"levelo://app?vid=451ee27c-3053-4dad-97f9-30aa721d9def"},"vehicle_type_id":"4","last_reported":1740463983,"current_range_meters":19200,"station_id":"ce4bho92rcd13ifvqh4g","pricing_plan_id":"cebpf4jnsgd1na2vs0mg"},{"bike_id":"114038f4-ead0-4db8-9a49-34c2c851290e","system_id":"levelo_inurba_marseille","lat":43.280028,"lon":5.400103,"is_reserved":false,"is_disabled":false,"rental_uris":{"android":"levelo://app?vid=114038f4-ead0-4db8-9a49-34c2c851290e","ios":"levelo://app?vid=114038f4-ead0-4db8-9a49-34c2c851290e"},"vehicle_type_id":"4","last_reported":1740463983,"current_range_meters":19600,"station_id":"ce4bho92rcd13ifvqh4g","pricing_plan_id":"cebpf4jnsgd1na2vs0mg"},{"bike_id":"1304ca52-f421-4b8c-8856-7eddf181faa6","system_id":"levelo_inurba_marseille","lat":43.30467,"lon":5.37905,"is_reserved":false,"is_disabled":false,"rental_uris":{"android":"levelo://app?vid=1304ca52-f421-4b8c-8856-7eddf181faa6","ios":"levelo://app?vid=1304ca52-f421-4b8c-8856-7eddf181faa6"},"vehicle_type_id":"4","last_reported":1740463983,"current_range_meters":19200,"station_id":"ce4bgup2rcd13ifvqcn0","pricing_plan_id":"cebpf4jnsgd1na2vs0mg"},{"bike_id":"0405ecb7-d759-436b-8e27-cc5f65ed09ae","system_id":"levelo_inurba_marseille","lat":43.29709,"lon":5.36617,"is_reserved":false,"is_disabled":false,"rental_uris":{"android":"levelo://app?vid=0405ecb7-d759-436b-8e27-cc5f65ed09ae","ios":"levelo://app?vid=0405ecb7-d759-436b-8e27-cc5f65ed09ae"},"vehicle_type_id":"4","last_reported":1740463983,"current_range_meters":19200,"station_id":"ce4bgn12rcd13ifvqbt0","pricing_plan_id":"cebpf4jnsgd1na2vs0mg"},{"bike_id":"2493185a-4034-4257-864e-a16b123adc10","system_id":"levelo_inurba_marseille","lat":43.30818,"lon":5.38159,"is_reserved":false,"is_disabled":false,"rental_uris":{"android":"levelo://app?vid=2493185a-4034-4257-864e-a16b123adc10","ios":"levelo://app?vid=2493185a-4034-4257-864e-a16b123adc10"},"vehicle_type_id":"4","last_reported":1740463983,"current_range_meters":19200,"station_id":"ce4bgt12rcd13ifvqce0","pricing_plan_id":"cebpf4jnsgd1na2vs0mg"},{"bike_id":"45cf12c1-bde0-40bf-882d-b8398a59cb4d","system_id":"levelo_inurba_marseille","lat":43.2815,"lon":5.42641,"is_reserved":false,"is_disabled":false,"rental_uris":{"android":"levelo://app?vid=45cf12c1-bde0-40bf-882d-b8398a59cb4d","ios":"levelo://app?vid=45cf12c1-bde0-40bf-882d-b8398a59cb4d"},"vehicle_type_id":"4","last_reported":1740463983,"current_range_meters":19600,"station_id":"ce4bhnh2rcd13ifvqgug","pricing_plan_id":"cebpf4jnsgd1na2vs0mg"},{"bike_id":"08b558ae-f5c2-4f30-808a-f8a57fad3fc7","system_id":"levelo_inurba_marseille","lat":43.25096,"lon":5.39554,"is_reserved":false,"is_disabled":false,"rental_uris":{"android":"levelo://app?vid=08b558ae-f5c2-4f30-808a-f8a57fad3fc7","ios":"levelo://app?vid=08b558ae-f5c2-4f30-808a-f8a57fad3fc7"},"vehicle_type_id":"4","last_reported":1740463983,"current_range_meters":19600,"station_id":"ce4bhm12rcd13ifvqgkg","pricing_plan_id":"cebpf4jnsgd1na2vs0mg"},{"bike_id":"d7b86c71-089b-48f6-a952-fb6803fe85b1","system_id":"levelo_inurba_marseille","lat":43.26081,"lon":5.40322,"is_reserved":false,"is_disabled":false,"rental_uris":{"android":"levelo://app?vid=d7b86c71-089b-48f6-a952-fb6803fe85b1","ios":"levelo://app?vid=d7b86c71-089b-48f6-a952-fb6803fe85b1"},"vehicle_type_id":"4","last_reported":1740463983,"current_range_meters":20000,"station_id":"","pricing_plan_id":"cebpf4jnsgd1na2vs0mg"},{"bike_id":"7c5b6628-d4b6-4323-87e6-f8a6e381634c","system_id":"levelo_inurba_marseille","lat":43.28268,"lon":5.35067,"is_reserved":false,"is_disabled":false,"rental_uris":{"android":"levelo://app?vid=7c5b6628-d4b6-4323-87e6-f8a6e381634c","ios":"levelo://app?vid=7c5b6628-d4b6-4323-87e6-f8a6e381634c"},"vehicle_type_id":"4","last_reported":1740463983,"current_range_meters":19600,"station_id":"ce4bhbp2rcd13ifvqerg","pricing_plan_id":"cebpf4jnsgd1na2vs0mg"},{"bike_id":"0c180688-e751-46a2-bf47-3b74c6f78c8f","system_id":"levelo_inurba_marseille","lat":43.29258,"lon":5.37627,"is_reserved":false,"is_disabled":false,"rental_uris":{"android":"levelo://app?vid=0c180688-e751-46a2-bf47-3b74c6f78c8f","ios":"levelo://app?vid=0c180688-e751-46a2-bf47-3b74c6f78c8f"},"vehicle_type_id":"4","last_reported":1740463983,"current_range_meters":20000,"station_id":"ce4bgi12rcd13ifvqb80","pricing_plan_id":"cebpf4jnsgd1na2vs0mg"},{"bike_id":"4dbfaa61-d22a-48fb-a890-3705163699e9","system_id":"levelo_inurba_marseille","lat":43.311167,"lon":5.377637,"is_reserved":false,"is_disabled":false,"rental_uris":{"android":"levelo://app?vid=4dbfaa61-d22a-48fb-a890-3705163699e9","ios":"levelo://app?vid=4dbfaa61-d22a-48fb-a890-3705163699e9"},"vehicle_type_id":"4","last_reported":1740463983,"current_range_meters":19600,"station_id":"ce4bgt92rcd13ifvqcg0","pricing_plan_id":"cebpf4jnsgd1na2vs0mg"},{"bike_id":"5b93a733-24de-4563-8e81-2787019020b4","system_id":"levelo_inurba_marseille","lat":43.295366,"lon":5.393987,"is_reserved":false,"is_disabled":false,"rental_uris":{"android":"levelo://app?vid=5b93a733-24de-4563-8e81-2787019020b4","ios":"levelo://app?vid=5b93a733-24de-4563-8e81-2787019020b4"},"vehicle_type_id":"4","last_reported":1740463983,"current_range_meters":19600,"station_id":"ce4bh292rcd13ifvqdf0","pricing_plan_id":"cebpf4jnsgd1na2vs0mg"},{"bike_id":"8b955f19-a1ac-410f-bee7-a2154713c8aa","system_id":"levelo_inurba_marseille","lat":43.29044,"lon":5.39973,"is_reserved":false,"is_disabled":false,"rental_uris":{"android":"levelo://app?vid=8b955f19-a1ac-410f-bee7-a2154713c8aa","ios":"levelo://app?vid=8b955f19-a1ac-410f-bee7-a2154713c8aa"},"vehicle_type_id":"4","last_reported":1740463983,"current_range_meters":19600,"station_id":"ce4bh392rcd13ifvqdm0","pricing_plan_id":"cebpf4jnsgd1na2vs0mg"},{"bike_id":"03f8ecf4-f41c-40ac-83df-fdda1fdc2f2e","system_id":"levelo_inurba_marseille","lat":43.32381,"lon":5.38876,"is_reserved":false,"is_disabled":false,"rental_uris":{"android":"levelo://app?vid=03f8ecf4-f41c-40ac-83df-fdda1fdc2f2e","ios":"levelo://app?vid=03f8ecf4-f41c-40ac-83df-fdda1fdc2f2e"},"vehicle_type_id":"4","last_reported":1740463983,"current_range_meters":20000,"station_id":"ce4bhqp2rcd13ifvqhog","pricing_plan_id":"cebpf4jnsgd1na2vs0mg"},{"bike_id":"3652c2ba-ebbd-4e1e-906d-f53d57607269","system_id":"levelo_inurba_marseille","lat":43.28027,"lon":5.36944,"is_reserved":false,"is_disabled":false,"rental_uris":{"android":"levelo://app?vid=3652c2ba-ebbd-4e1e-906d-f53d57607269","ios":"levelo://app?vid=3652c2ba-ebbd-4e1e-906d-f53d57607269"},"vehicle_type_id":"4","last_reported":1740463983,"current_range_meters":20000,"station_id":"ce4bha12rcd13ifvqef0","pricing_plan_id":"cebpf4jnsgd1na2vs0mg"},{"bike_id":"a8e04683-5540-4a52-8eff-cfca9d08e8a6","system_id":"levelo_inurba_marseille","lat":43.30447,"lon":5.38908,"is_reserved":false,"is_disabled":false,"rental_uris":{"android":"levelo://app?vid=a8e04683-5540-4a52-8eff-cfca9d08e8a6","ios":"levelo://app?vid=a8e04683-5540-4a52-8eff-cfca9d08e8a6"},"vehicle_type_id":"4","last_reported":1740463983,"current_range_meters":20000,"station_id":"ce4bgk12rcd13ifvqbi0","pricing_plan_id":"cebpf4jnsgd1na2vs0mg"},{"bike_id":"31852a57-9484-4d6b-a810-99fa57a3f774","system_id":"levelo_inurba_marseille","lat":43.2847,"lon":5.35871,"is_reserved":false,"is_disabled":false,"rental_uris":{"android":"levelo://app?vid=31852a57-9484-4d6b-a810-99fa57a3f774","ios":"levelo://app?vid=31852a57-9484-4d6b-a810-99fa57a3f774"},"vehicle_type_id":"4","last_reported":1740463983,"current_range_meters":20000,"station_id":"ce4bhah2rcd13ifvqei0","pricing_plan_id":"cebpf4jnsgd1na2vs0mg"},{"bike_id":"bfa63be2-4a76-4e23-8137-fb3e2f6ee01e","system_id":"levelo_inurba_marseille","lat":43.29264,"lon":5.40126,"is_reserved":false,"is_disabled":true,"rental_uris":{"android":"levelo://app?vid=bfa63be2-4a76-4e23-8137-fb3e2f6ee01e","ios":"levelo://app?vid=bfa63be2-4a76-4e23-8137-fb3e2f6ee01e"},"vehicle_type_id":"4","last_reported":1740463983,"current_range_meters":20400,"station_id":"ce4bh312rcd13ifvqdk0","pricing_plan_id":"cebpf4jnsgd1na2vs0mg"},{"bike_id":"af5dd17b-4281-45d4-8f54-cabb30e658ce","system_id":"levelo_inurba_marseille","lat":43.284091,"lon":5.375049,"is_reserved":false,"is_disabled":false,"rental_uris":{"android":"levelo://app?vid=af5dd17b-4281-45d4-8f54-cabb30e658ce","ios":"levelo://app?vid=af5dd17b-4281-45d4-8f54-cabb30e658ce"},"vehicle_type_id":"4","last_reported":1740463983,"current_range_meters":20000,"station_id":"ce4bh412rcd13ifvqds0","pricing_plan_id":"cebpf4jnsgd1na2vs0mg"},{"bike_id":"c780eb95-12e9-4626-89ea-a22fdc60d8ab","system_id":"levelo_inurba_marseille","lat":43.28152,"lon":5.42637,"is_reserved":false,"is_disabled":false,"rental_uris":{"android":"levelo://app?vid=c780eb95-12e9-4626-89ea-a22fdc60d8ab","ios":"levelo://app?vid=c780eb95-12e9-4626-89ea-a22fdc60d8ab"},"vehicle_type_id":"4","last_reported":1740463983,"current_range_meters":20000,"station_id":"ce4bhnh2rcd13ifvqgug","pricing_plan_id":"cebpf4jnsgd1na2vs0mg"},{"bike_id":"b233af78-37a2-485c-9bca-5344d967400d","system_id":"levelo_inurba_marseille","lat":43.2847,"lon":5.35889,"is_reserved":false,"is_disabled":false,"rental_uris":{"android":"levelo://app?vid=b233af78-37a2-485c-9bca-5344d967400d","ios":"levelo://app?vid=b233af78-37a2-485c-9bca-5344d967400d"},"vehicle_type_id":"4","last_reported":1740463983,"current_range_meters":20800,"station_id":"ce4bhah2rcd13ifvqei0","pricing_plan_id":"cebpf4jnsgd1na2vs0mg"},{"bike_id":"7c1b7433-681b-4e70-943b-cab2e7a14194","system_id":"levelo_inurba_marseille","lat":43.31123,"lon":5.3776,"is_reserved":false,"is_disabled":false,"rental_uris":{"android":"levelo://app?vid=7c1b7433-681b-4e70-943b-cab2e7a14194","ios":"levelo://app?vid=7c1b7433-681b-4e70-943b-cab2e7a14194"},"vehicle_type_id":"4","last_reported":1740463983,"current_range_meters":20400,"station_id":"ce4bgt92rcd13ifvqcg0","pricing_plan_id":"cebpf4jnsgd1na2vs0mg"},{"bike_id":"2adb7e1a-eb0b-4390-9465-e7b65128ca4f","system_id":"levelo_inurba_marseille","lat":43.29874,"lon":5.39726,"is_reserved":false,"is_disabled":false,"rental_uris":{"android":"levelo://app?vid=2adb7e1a-eb0b-4390-9465-e7b65128ca4f","ios":"levelo://app?vid=2adb7e1a-eb0b-4390-9465-e7b65128ca4f"},"vehicle_type_id":"4","last_reported":1740463983,"current_range_meters":20400,"station_id":"ce4bh0h2rcd13ifvqd50","pricing_plan_id":"cebpf4jnsgd1na2vs0mg"},{"bike_id":"c96fc18e-e3be-48cb-9501-691f901bc09a","system_id":"levelo_inurba_marseille","lat":43.29901,"lon":5.43673,"is_reserved":false,"is_disabled":false,"rental_uris":{"android":"levelo://app?vid=c96fc18e-e3be-48cb-9501-691f901bc09a","ios":"levelo://app?vid=c96fc18e-e3be-48cb-9501-691f901bc09a"},"vehicle_type_id":"4","last_reported":1740463983,"current_range_meters":20400,"station_id":"ce4bhpp2rcd13ifvqhfg","pricing_plan_id":"cebpf4jnsgd1na2vs0mg"},{"bike_id":"a2818a8c-a6e3-4f5c-ad30-9bd10361a5f5","system_id":"levelo_inurba_marseille","lat":43.29278,"lon":5.40129,"is_reserved":false,"is_disabled":false,"rental_uris":{"android":"levelo://app?vid=a2818a8c-a6e3-4f5c-ad30-9bd10361a5f5","ios":"levelo://app?vid=a2818a8c-a6e3-4f5c-ad30-9bd10361a5f5"},"vehicle_type_id":"4","last_reported":1740463983,"current_range_meters":20800,"station_id":"ce4bh312rcd13ifvqdk0","pricing_plan_id":"cebpf4jnsgd1na2vs0mg"},{"bike_id":"052e2ad7-d79c-46cc-b395-ae79f0654a7a","system_id":"levelo_inurba_marseille","lat":43.28931,"lon":5.36412,"is_reserved":false,"is_disabled":false,"rental_uris":{"android":"levelo://app?vid=052e2ad7-d79c-46cc-b395-ae79f0654a7a","ios":"levelo://app?vid=052e2ad7-d79c-46cc-b395-ae79f0654a7a"},"vehicle_type_id":"4","last_reported":1740463983,"current_range_meters":20800,"station_id":"ce4bhc92rcd13ifvqetg","pricing_plan_id":"cebpf4jnsgd1na2vs0mg"},{"bike_id":"b7f76178-377d-4e00-871f-bf94845c2693","system_id":"levelo_inurba_marseille","lat":43.30787,"lon":5.38168,"is_reserved":false,"is_disabled":false,"rental_uris":{"android":"levelo://app?vid=b7f76178-377d-4e00-871f-bf94845c2693","ios":"levelo://app?vid=b7f76178-377d-4e00-871f-bf94845c2693"},"vehicle_type_id":"4","last_reported":1740463983,"current_range_meters":20800,"station_id":"ce4bgt12rcd13ifvqce0","pricing_plan_id":"cebpf4jnsgd1na2vs0mg"},{"bike_id":"a9c06b5f-6c2f-4392-a548-0468045c24ed","system_id":"levelo_inurba_marseille","lat":43.30309,"lon":5.36895,"is_reserved":false,"is_disabled":true,"rental_uris":{"android":"levelo://app?vid=a9c06b5f-6c2f-4392-a548-0468045c24ed","ios":"levelo://app?vid=a9c06b5f-6c2f-4392-a548-0468045c24ed"},"vehicle_type_id":"4","last_reported":1740463983,"current_range_meters":20800,"station_id":"ce4bgqh2rcd13ifvqc5g","pricing_plan_id":"cebpf4jnsgd1na2vs0mg"},{"bike_id":"f4629c6e-36fc-402c-93ca-7566da9b882d","system_id":"levelo_inurba_marseille","lat":43.27819,"lon":5.40696,"is_reserved":false,"is_disabled":false,"rental_uris":{"android":"levelo://app?vid=f4629c6e-36fc-402c-93ca-7566da9b882d","ios":"levelo://app?vid=f4629c6e-36fc-402c-93ca-7566da9b882d"},"vehicle_type_id":"4","last_reported":1740463983,"current_range_meters":20800,"station_id":"ce4bhnh2rcd13ifvqgtg","pricing_plan_id":"cebpf4jnsgd1na2vs0mg"},{"bike_id":"dd2672fd-619c-4c48-b706-e3003956cdbd","system_id":"levelo_inurba_marseille","lat":43.29185,"lon":5.39327,"is_reserved":false,"is_disabled":false,"rental_uris":{"android":"levelo://app?vid=dd2672fd-619c-4c48-b706-e3003956cdbd","ios":"levelo://app?vid=dd2672fd-619c-4c48-b706-e3003956cdbd"},"vehicle_type_id":"4","last_reported":1740463983,"current_range_meters":21600,"station_id":"ce4bh192rcd13ifvqdd0","pricing_plan_id":"cebpf4jnsgd1na2vs0mg"},{"bike_id":"73030f93-21b7-4945-ab5c-23bd9645e2f6","system_id":"levelo_inurba_marseille","lat":43.25491,"lon":5.3765,"is_reserved":false,"is_disabled":false,"rental_uris":{"android":"levelo://app?vid=73030f93-21b7-4945-ab5c-23bd9645e2f6","ios":"levelo://app?vid=73030f93-21b7-4945-ab5c-23bd9645e2f6"},"vehicle_type_id":"4","last_reported":1740463983,"current_range_meters":20800,"station_id":"ce4bhh12rcd13ifvqff0","pricing_plan_id":"cebpf4jnsgd1na2vs0mg"},{"bike_id":"4121b65b-dff8-4f1a-af16-01df5ce17a07","system_id":"levelo_inurba_marseille","lat":43.30652,"lon":5.40109,"is_reserved":false,"is_disabled":false,"rental_uris":{"android":"levelo://app?vid=4121b65b-dff8-4f1a-af16-01df5ce17a07","ios":"levelo://app?vid=4121b65b-dff8-4f1a-af16-01df5ce17a07"},"vehicle_type_id":"4","last_reported":1740463983,"current_range_meters":20800,"station_id":"ce4bh112rcd13ifvqda0","pricing_plan_id":"cebpf4jnsgd1na2vs0mg"},{"bike_id":"dc89590e-d487-4263-8792-a3fa4383d98a","system_id":"levelo_inurba_marseille","lat":43.28246,"lon":5.3507,"is_reserved":false,"is_disabled":false,"rental_uris":{"android":"levelo://app?vid=dc89590e-d487-4263-8792-a3fa4383d98a","ios":"levelo://app?vid=dc89590e-d487-4263-8792-a3fa4383d98a"},"vehicle_type_id":"4","last_reported":1740463983,"current_range_meters":20800,"station_id":"ce4bhbp2rcd13ifvqerg","pricing_plan_id":"cebpf4jnsgd1na2vs0mg"},{"bike_id":"0437c14a-f4df-4d64-84d1-73e304180e3d","system_id":"levelo_inurba_marseille","lat":43.28868,"lon":5.35837,"is_reserved":false,"is_disabled":false,"rental_uris":{"android":"levelo://app?vid=0437c14a-f4df-4d64-84d1-73e304180e3d","ios":"levelo://app?vid=0437c14a-f4df-4d64-84d1-73e304180e3d"},"vehicle_type_id":"4","last_reported":1740463983,"current_range_meters":20800,"station_id":"ce4bhb12rcd13ifvqem0","pricing_plan_id":"cebpf4jnsgd1na2vs0mg"},{"bike_id":"f8e8e657-be14-4ebf-9979-d6e94e7e7e85","system_id":"levelo_inurba_marseille","lat":43.27938,"lon":5.41048,"is_reserved":false,"is_disabled":false,"rental_uris":{"android":"levelo://app?vid=f8e8e657-be14-4ebf-9979-d6e94e7e7e85","ios":"levelo://app?vid=f8e8e657-be14-4ebf-9979-d6e94e7e7e85"},"vehicle_type_id":"4","last_reported":1740463983,"current_range_meters":21600,"station_id":"ce4bhnp2rcd13ifvqh0g","pricing_plan_id":"cebpf4jnsgd1na2vs0mg"},{"bike_id":"25411262-23d1-41bb-a382-a545d4af1ec3","system_id":"levelo_inurba_marseille","lat":43.25112,"lon":5.40317,"is_reserved":false,"is_disabled":false,"rental_uris":{"android":"levelo://app?vid=25411262-23d1-41bb-a382-a545d4af1ec3","ios":"levelo://app?vid=25411262-23d1-41bb-a382-a545d4af1ec3"},"vehicle_type_id":"4","last_reported":1740463983,"current_range_meters":21600,"station_id":"ce4bhlh2rcd13ifvqgig","pricing_plan_id":"cebpf4jnsgd1na2vs0mg"},{"bike_id":"c0ec9620-a238-4d85-bb5d-f3f28d4be671","system_id":"levelo_inurba_marseille","lat":43.27949,"lon":5.38693,"is_reserved":false,"is_disabled":true,"rental_uris":{"android":"levelo://app?vid=c0ec9620-a238-4d85-bb5d-f3f28d4be671","ios":"levelo://app?vid=c0ec9620-a238-4d85-bb5d-f3f28d4be671"},"vehicle_type_id":"4","last_reported":1740463983,"current_range_meters":21600,"station_id":"ce4bhg12rcd13ifvqf80","pricing_plan_id":"cebpf4jnsgd1na2vs0mg"},{"bike_id":"474602bc-c50d-42bd-bb2a-f5c9602c8ee8","system_id":"levelo_inurba_marseille","lat":43.3306,"lon":5.39028,"is_reserved":false,"is_disabled":false,"rental_uris":{"android":"levelo://app?vid=474602bc-c50d-42bd-bb2a-f5c9602c8ee8","ios":"levelo://app?vid=474602bc-c50d-42bd-bb2a-f5c9602c8ee8"},"vehicle_type_id":"4","last_reported":1740463983,"current_range_meters":21600,"station_id":"ce4bhr92rcd13ifvqhrg","pricing_plan_id":"cebpf4jnsgd1na2vs0mg"},{"bike_id":"9bdd9437-9736-4966-a462-083b2743d825","system_id":"levelo_inurba_marseille","lat":43.27917,"lon":5.39586,"is_reserved":false,"is_disabled":false,"rental_uris":{"android":"levelo://app?vid=9bdd9437-9736-4966-a462-083b2743d825","ios":"levelo://app?vid=9bdd9437-9736-4966-a462-083b2743d825"},"vehicle_type_id":"4","last_reported":1740463983,"current_range_meters":21600,"station_id":"ce4bhf92rcd13ifvqf40","pricing_plan_id":"cebpf4jnsgd1na2vs0mg"},{"bike_id":"37bd8654-6154-4640-be92-583f9853cee5","system_id":"levelo_inurba_marseille","lat":43.29185,"lon":5.39321,"is_reserved":false,"is_disabled":false,"rental_uris":{"android":"levelo://app?vid=37bd8654-6154-4640-be92-583f9853cee5","ios":"levelo://app?vid=37bd8654-6154-4640-be92-583f9853cee5"},"vehicle_type_id":"4","last_reported":1740463983,"current_range_meters":22000,"station_id":"ce4bh192rcd13ifvqdd0","pricing_plan_id":"cebpf4jnsgd1na2vs0mg"},{"bike_id":"d9ca74bd-4994-40d2-a2a3-4ce115480b09","system_id":"levelo_inurba_marseille","lat":43.31365,"lon":5.38482,"is_reserved":false,"is_disabled":false,"rental_uris":{"android":"levelo://app?vid=d9ca74bd-4994-40d2-a2a3-4ce115480b09","ios":"levelo://app?vid=d9ca74bd-4994-40d2-a2a3-4ce115480b09"},"vehicle_type_id":"4","last_reported":1740463983,"current_range_meters":22000,"station_id":"ce4bgt92rcd13ifvqcf0","pricing_plan_id":"cebpf4jnsgd1na2vs0mg"},{"bike_id":"09466927-b7ee-405b-8cbc-fa9bccde132e","system_id":"levelo_inurba_marseille","lat":43.30244,"lon":5.40074,"is_reserved":false,"is_disabled":false,"rental_uris":{"android":"levelo://app?vid=09466927-b7ee-405b-8cbc-fa9bccde132e","ios":"levelo://app?vid=09466927-b7ee-405b-8cbc-fa9bccde132e"},"vehicle_type_id":"4","last_reported":1740463983,"current_range_meters":22000,"station_id":"ce4bgvh2rcd13ifvqcs0","pricing_plan_id":"cebpf4jnsgd1na2vs0mg"},{"bike_id":"fc22684b-1e44-4137-8eb3-8f4c97d52cb0","system_id":"levelo_inurba_marseille","lat":43.25004,"lon":5.38938,"is_reserved":false,"is_disabled":false,"rental_uris":{"android":"levelo://app?vid=fc22684b-1e44-4137-8eb3-8f4c97d52cb0","ios":"levelo://app?vid=fc22684b-1e44-4137-8eb3-8f4c97d52cb0"},"vehicle_type_id":"4","last_reported":1740463983,"current_range_meters":22000,"station_id":"ce4bhgp2rcd13ifvqfd0","pricing_plan_id":"cebpf4jnsgd1na2vs0mg"},{"bike_id":"59b75d2d-4f10-4570-97ec-40db54e58cc8","system_id":"levelo_inurba_marseille","lat":43.29362,"lon":5.42821,"is_reserved":false,"is_disabled":false,"rental_uris":{"android":"levelo://app?vid=59b75d2d-4f10-4570-97ec-40db54e58cc8","ios":"levelo://app?vid=59b75d2d-4f10-4570-97ec-40db54e58cc8"},"vehicle_type_id":"4","last_reported":1740463983,"current_range_meters":22000,"station_id":"","pricing_plan_id":"cebpf4jnsgd1na2vs0mg"},{"bike_id":"e4471e44-79b3-4a0e-ae1b-b990dea87d4e","system_id":"levelo_inurba_marseille","lat":43.32368,"lon":5.38875,"is_reserved":false,"is_disabled":false,"rental_uris":{"android":"levelo://app?vid=e4471e44-79b3-4a0e-ae1b-b990dea87d4e","ios":"levelo://app?vid=e4471e44-79b3-4a0e-ae1b-b990dea87d4e"},"vehicle_type_id":"4","last_reported":1740463983,"current_range_meters":22000,"station_id":"ce4bhqp2rcd13ifvqhog","pricing_plan_id":"cebpf4jnsgd1na2vs0mg"},{"bike_id":"034f4946-0532-4716-bfa9-71f08dacc26e","system_id":"levelo_inurba_marseille","lat":43.28768,"lon":5.39018,"is_reserved":false,"is_disabled":false,"rental_uris":{"android":"levelo://app?vid=034f4946-0532-4716-bfa9-71f08dacc26e","ios":"levelo://app?vid=034f4946-0532-4716-bfa9-71f08dacc26e"},"vehicle_type_id":"4","last_reported":1740463983,"current_range_meters":22000,"station_id":"","pricing_plan_id":"cebpf4jnsgd1na2vs0mg"},{"bike_id":"87d922cd-2aac-4d4b-922b-f85f67d09710","system_id":"levelo_inurba_marseille","lat":43.28417,"lon":5.37538,"is_reserved":false,"is_disabled":false,"rental_uris":{"android":"levelo://app?vid=87d922cd-2aac-4d4b-922b-f85f67d09710","ios":"levelo://app?vid=87d922cd-2aac-4d4b-922b-f85f67d09710"},"vehicle_type_id":"4","last_reported":1740463983,"current_range_meters":22000,"station_id":"ce4bh412rcd13ifvqds0","pricing_plan_id":"cebpf4jnsgd1na2vs0mg"},{"bike_id":"66beb408-5f9e-42fa-a1f6-51b18a6a986c","system_id":"levelo_inurba_marseille","lat":43.30535,"lon":5.39387,"is_reserved":false,"is_disabled":false,"rental_uris":{"android":"levelo://app?vid=66beb408-5f9e-42fa-a1f6-51b18a6a986c","ios":"levelo://app?vid=66beb408-5f9e-42fa-a1f6-51b18a6a986c"},"vehicle_type_id":"4","last_reported":1740463983,"current_range_meters":22000,"station_id":"ce4bh0p2rcd13ifvqd80","pricing_plan_id":"cebpf4jnsgd1na2vs0mg"},{"bike_id":"1df32ffb-b6d0-42f0-8856-8dbb268b7110","system_id":"levelo_inurba_marseille","lat":43.31713,"lon":5.43715,"is_reserved":false,"is_disabled":false,"rental_uris":{"android":"levelo://app?vid=1df32ffb-b6d0-42f0-8856-8dbb268b7110","ios":"levelo://app?vid=1df32ffb-b6d0-42f0-8856-8dbb268b7110"},"vehicle_type_id":"4","last_reported":1740463983,"current_range_meters":22000,"station_id":"ce4bhp92rcd13ifvqhcg","pricing_plan_id":"cebpf4jnsgd1na2vs0mg"},{"bike_id":"06765a4a-4e68-4f4e-bd19-09f0098ecd68","system_id":"levelo_inurba_marseille","lat":43.27821,"lon":5.40721,"is_reserved":false,"is_disabled":false,"rental_uris":{"android":"levelo://app?vid=06765a4a-4e68-4f4e-bd19-09f0098ecd68","ios":"levelo://app?vid=06765a4a-4e68-4f4e-bd19-09f0098ecd68"},"vehicle_type_id":"4","last_reported":1740463983,"current_range_meters":22000,"station_id":"ce4bhnh2rcd13ifvqgtg","pricing_plan_id":"cebpf4jnsgd1na2vs0mg"},{"bike_id":"bdbbb8e6-130a-46fd-84fa-1e47ce8097b3","system_id":"levelo_inurba_marseille","lat":43.29256,"lon":5.40158,"is_reserved":false,"is_disabled":false,"rental_uris":{"android":"levelo://app?vid=bdbbb8e6-130a-46fd-84fa-1e47ce8097b3","ios":"levelo://app?vid=bdbbb8e6-130a-46fd-84fa-1e47ce8097b3"},"vehicle_type_id":"4","last_reported":1740463983,"current_range_meters":22400,"station_id":"ce4bh312rcd13ifvqdk0","pricing_plan_id":"cebpf4jnsgd1na2vs0mg"},{"bike_id":"c3558330-f1af-4e0e-a458-4e1e21bac14b","system_id":"levelo_inurba_marseille","lat":43.25183,"lon":5.3746,"is_reserved":false,"is_disabled":false,"rental_uris":{"android":"levelo://app?vid=c3558330-f1af-4e0e-a458-4e1e21bac14b","ios":"levelo://app?vid=c3558330-f1af-4e0e-a458-4e1e21bac14b"},"vehicle_type_id":"4","last_reported":1740463983,"current_range_meters":22400,"station_id":"","pricing_plan_id":"cebpf4jnsgd1na2vs0mg"},{"bike_id":"b554e8a1-ffe5-452a-8b1c-a24bc7cdb627","system_id":"levelo_inurba_marseille","lat":43.32011,"lon":5.38141,"is_reserved":false,"is_disabled":false,"rental_uris":{"android":"levelo://app?vid=b554e8a1-ffe5-452a-8b1c-a24bc7cdb627","ios":"levelo://app?vid=b554e8a1-ffe5-452a-8b1c-a24bc7cdb627"},"vehicle_type_id":"4","last_reported":1740463983,"current_range_meters":22400,"station_id":"ce4bhr12rcd13ifvqhpg","pricing_plan_id":"cebpf4jnsgd1na2vs0mg"},{"bike_id":"a1a94b94-6e9a-40cb-a090-26e67b727cf2","system_id":"levelo_inurba_marseille","lat":43.2846,"lon":5.3589,"is_reserved":false,"is_disabled":false,"rental_uris":{"android":"levelo://app?vid=a1a94b94-6e9a-40cb-a090-26e67b727cf2","ios":"levelo://app?vid=a1a94b94-6e9a-40cb-a090-26e67b727cf2"},"vehicle_type_id":"4","last_reported":1740463983,"current_range_meters":22400,"station_id":"ce4bhah2rcd13ifvqei0","pricing_plan_id":"cebpf4jnsgd1na2vs0mg"},{"bike_id":"90663df9-11c7-4d3e-97ec-ca8583a8e0dc","system_id":"levelo_inurba_marseille","lat":43.28344,"lon":5.38105,"is_reserved":false,"is_disabled":false,"rental_uris":{"android":"levelo://app?vid=90663df9-11c7-4d3e-97ec-ca8583a8e0dc","ios":"levelo://app?vid=90663df9-11c7-4d3e-97ec-ca8583a8e0dc"},