{"last_updated":1750342206,"ttl":60,"version":"2.2","data":{"bikes":[{"bike_id":"3da29fb8-fc97-44c6-b9ac-31dd456b2fd4","system_id":"levelo_inurba_marseille","lat":43.33771,"lon":5.37424,"is_reserved":false,"is_disabled":true,"rental_uris":{"android":"levelo://app?vid=3da29fb8-fc97-44c6-b9ac-31dd456b2fd4","ios":"levelo://app?vid=3da29fb8-fc97-44c6-b9ac-31dd456b2fd4"},"vehicle_type_id":"4","last_reported":1750342206,"current_range_meters":0,"station_id":"","pricing_plan_id":"cebpf4jnsgd1na2vs0mg"},{"bike_id":"01861ad8-a8d7-4be6-816e-651927c87584","system_id":"levelo_inurba_marseille","lat":43.33751,"lon":5.37456,"is_reserved":false,"is_disabled":true,"rental_uris":{"android":"levelo://app?vid=01861ad8-a8d7-4be6-816e-651927c87584","ios":"levelo://app?vid=01861ad8-a8d7-4be6-816e-651927c87584"},"vehicle_type_id":"4","last_reported":1750342206,"current_range_meters":0,"station_id":"","pricing_plan_id":"cebpf4jnsgd1na2vs0mg"},{"bike_id":"dbfce7a3-3423-4296-b193-a177dea644ac","system_id":"levelo_inurba_marseille","lat":43.27303,"lon":5.41631,"is_reserved":false,"is_disabled":true,"rental_uris":{"android":"levelo://app?vid=dbfce7a3-3423-4296-b193-a177dea644ac","ios":"levelo://app?vid=dbfce7a3-3423-4296-b193-a177dea644ac"},"vehicle_type_id":"4","last_reported":1750342206,"current_range_meters":0,"station_id":"","pricing_plan_id":"cebpf4jnsgd1na2vs0mg"},{"bike_id":"eff675e9-75ca-47c9-bd95-5090bc060d4f","system_id":"levelo_inurba_marseille","lat":43.34079,"lon":5.36162,"is_reserved":false,"is_disabled":true,"rental_uris":{"android":"levelo://app?vid=eff675e9-75ca-47c9-bd95-5090bc060d4f","ios":"levelo://app?vid=eff675e9-75ca-47c9-bd95-5090bc060d4f"},"vehicle_type_id":"4","last_reported":1750342206,"current_range_meters":0,"station_id":"","pricing_plan_id":"cebpf4jnsgd1na2vs0mg"},{"bike_id":"26b3ff76-101f-4251-ab64-e53344c3642d","system_id":"levelo_inurba_marseille","lat":43.28154,"lon":5.42647,"is_reserved":false,"is_disabled":true,"rental_uris":{"android":"levelo://app?vid=26b3ff76-101f-4251-ab64-e53344c3642d","ios":"levelo://app?vid=26b3ff76-101f-4251-ab64-e53344c3642d"},"vehicle_type_id":"4","last_reported":1750342206,"current_range_meters":0,"station_id":"","pricing_plan_id":"cebpf4jnsgd1na2vs0mg"},{"bike_id":"d2bd57c8-6b64-48db-ad24-5398eb3fd9d6","system_id":"levelo_inurba_marseille","lat":43.337444,"lon":5.374475,"is_reserved":false,"is_disabled":true,"rental_uris":{"android":"levelo://app?vid=d2bd57c8-6b64-48db-ad24-5398eb3fd9d6","ios":"levelo://app?vid=d2bd57c8-6b64-48db-ad24-5398eb3fd9d6"},"vehicle_type_id":"4","last_reported":1750342206,"current_range_meters":0,"station_id":"","pricing_plan_id":"cebpf4jnsgd1na2vs0mg"},{"bike_id":"62a493c7-4534-4419-ad43-0582de34a72a","system_id":"levelo_inurba_marseille","lat":43.21366,"lon":5.355183,"is_reserved":false,"is_disabled":true,"rental_uris":{"android":"levelo://app?vid=62a493c7-4534-4419-ad43-0582de34a72a","ios":"levelo://app?vid=62a493c7-4534-4419-ad43-0582de34a72a"},"vehicle_type_id":"4","last_reported":1750342206,"current_range_meters":0,"station_id":"","pricing_plan_id":"cebpf4jnsgd1na2vs0mg"},{"bike_id":"b9e37238-9abe-4b8b-b932-edaee33a7e59","system_id":"levelo_inurba_marseille","lat":43.27479,"lon":5.39058,"is_reserved":false,"is_disabled":true,"rental_uris":{"android":"levelo://app?vid=b9e37238-9abe-4b8b-b932-edaee33a7e59","ios":"levelo://app?vid=b9e37238-9abe-4b8b-b932-edaee33a7e59"},"vehicle_type_id":"4","last_reported":1750342206,"current_range_meters":0,"station_id":"","pricing_plan_id":"cebpf4jnsgd1na2vs0mg"},{"bike_id":"8ad9234e-001a-4549-8bba-9baf2ef98804","system_id":"levelo_inurba_marseille","lat":43.2689,"lon":5.39883,"is_reserved":false,"is_disabled":true,"rental_uris":{"android":"levelo://app?vid=8ad9234e-001a-4549-8bba-9baf2ef98804","ios":"levelo://app?vid=8ad9234e-001a-4549-8bba-9baf2ef98804"},"vehicle_type_id":"4","last_reported":1750342206,"current_range_meters":0,"station_id":"","pricing_plan_id":"cebpf4jnsgd1na2vs0mg"},{"bike_id":"47196f00-388f-4b3b-a4de-3dba126cd107","system_id":"levelo_inurba_marseille","lat":43.24373,"lon":5.41174,"is_reserved":false,"is_disabled":true,"rental_uris":{"android":"levelo://app?vid=47196f00-388f-4b3b-a4de-3dba126cd107","ios":"levelo://app?vid=47196f00-388f-4b3b-a4de-3dba126cd107"},"vehicle_type_id":"4","last_reported":1750342206,"current_range_meters":0,"station_id":"","pricing_plan_id":"cebpf4jnsgd1na2vs0mg"},{"bike_id":"4fa45ca6-f376-4694-b527-69a47b552011","system_id":"levelo_inurba_marseille","lat":43.2831,"lon":5.3899,"is_reserved":false,"is_disabled":true,"rental_uris":{"android":"levelo://app?vid=4fa45ca6-f376-4694-b527-69a47b552011","ios":"levelo://app?vid=4fa45ca6-f376-4694-b527-69a47b552011"},"vehicle_type_id":"4","last_reported":1750342206,"current_range_meters":0,"station_id":"","pricing_plan_id":"cebpf4jnsgd1na2vs0mg"},{"bike_id":"d6609b4f-333b-43c1-9ebe-8726f5e76e88","system_id":"levelo_inurba_marseille","lat":43.337444,"lon":5.374475,"is_reserved":false,"is_disabled":true,"rental_uris":{"android":"levelo://app?vid=d6609b4f-333b-43c1-9ebe-8726f5e76e88","ios":"levelo://app?vid=d6609b4f-333b-43c1-9ebe-8726f5e76e88"},"vehicle_type_id":"4","last_reported":1750342206,"current_range_meters":0,"station_id":"","pricing_plan_id":"cebpf4jnsgd1na2vs0mg"},{"bike_id":"57c83ce1-960e-466a-b6c5-d93bc130c53a","system_id":"levelo_inurba_marseille","lat":43.24925,"lon":5.38983,"is_reserved":false,"is_disabled":true,"rental_uris":{"android":"levelo://app?vid=57c83ce1-960e-466a-b6c5-d93bc130c53a","ios":"levelo://app?vid=57c83ce1-960e-466a-b6c5-d93bc130c53a"},"vehicle_type_id":"4","last_reported":1750342206,"current_range_meters":0,"station_id":"","pricing_plan_id":"cebpf4jnsgd1na2vs0mg"},{"bike_id":"d600dcc7-8a55-43fa-90a4-da588cbae671","system_id":"levelo_inurba_marseille","lat":43.30419,"lon":5.42491,"is_reserved":false,"is_disabled":true,"rental_uris":{"android":"levelo://app?vid=d600dcc7-8a55-43fa-90a4-da588cbae671","ios":"levelo://app?vid=d600dcc7-8a55-43fa-90a4-da588cbae671"},"vehicle_type_id":"4","last_reported":1750342206,"current_range_meters":0,"station_id":"ce4bghh2rcd13ifvqb60","pricing_plan_id":"cebpf4jnsgd1na2vs0mg"},{"bike_id":"e254c838-d6b9-4411-942f-8c84228c69b6","system_id":"levelo_inurba_marseille","lat":43.27616,"lon":5.3611,"is_reserved":false,"is_disabled":true,"rental_uris":{"android":"levelo://app?vid=e254c838-d6b9-4411-942f-8c84228c69b6","ios":"levelo://app?vid=e254c838-d6b9-4411-942f-8c84228c69b6"},"vehicle_type_id":"4","last_reported":1750342206,"current_range_meters":0,"station_id":"ce4bgj92rcd13ifvqbe0","pricing_plan_id":"cebpf4jnsgd1na2vs0mg"},{"bike_id":"6ba7f77e-69ab-4822-b260-322d2585c64d","system_id":"levelo_inurba_marseille","lat":43.30215,"lon":5.3947,"is_reserved":false,"is_disabled":true,"rental_uris":{"android":"levelo://app?vid=6ba7f77e-69ab-4822-b260-322d2585c64d","ios":"levelo://app?vid=6ba7f77e-69ab-4822-b260-322d2585c64d"},"vehicle_type_id":"4","last_reported":1750342206,"current_range_meters":0,"station_id":"ce4bh0p2rcd13ifvqd70","pricing_plan_id":"cebpf4jnsgd1na2vs0mg"},{"bike_id":"4356094e-0c70-4e13-bd87-923d604c663f","system_id":"levelo_inurba_marseille","lat":43.29204,"lon":5.3933,"is_reserved":false,"is_disabled":true,"rental_uris":{"android":"levelo://app?vid=4356094e-0c70-4e13-bd87-923d604c663f","ios":"levelo://app?vid=4356094e-0c70-4e13-bd87-923d604c663f"},"vehicle_type_id":"4","last_reported":1750342206,"current_range_meters":0,"station_id":"ce4bh192rcd13ifvqdd0","pricing_plan_id":"cebpf4jnsgd1na2vs0mg"},{"bike_id":"bc8f7c5b-e86f-48f1-bcb1-46d91e144eb0","system_id":"levelo_inurba_marseille","lat":43.2836,"lon":5.38128,"is_reserved":false,"is_disabled":true,"rental_uris":{"android":"levelo://app?vid=bc8f7c5b-e86f-48f1-bcb1-46d91e144eb0","ios":"levelo://app?vid=bc8f7c5b-e86f-48f1-bcb1-46d91e144eb0"},"vehicle_type_id":"4","last_reported":1750342206,"current_range_meters":0,"station_id":"ce4bh412rcd13ifvqdr0","pricing_plan_id":"cebpf4jnsgd1na2vs0mg"},{"bike_id":"7780d595-6267-45b8-95c5-0f3ee7be7f4b","system_id":"levelo_inurba_marseille","lat":43.28412,"lon":5.37513,"is_reserved":false,"is_disabled":true,"rental_uris":{"android":"levelo://app?vid=7780d595-6267-45b8-95c5-0f3ee7be7f4b","ios":"levelo://app?vid=7780d595-6267-45b8-95c5-0f3ee7be7f4b"},"vehicle_type_id":"4","last_reported":1750342206,"current_range_meters":0,"station_id":"ce4bh412rcd13ifvqds0","pricing_plan_id":"cebpf4jnsgd1na2vs0mg"},{"bike_id":"0bb8d816-a3c7-4d55-b1c7-58e7c03002ba","system_id":"levelo_inurba_marseille","lat":43.27369,"lon":5.36245,"is_reserved":false,"is_disabled":true,"rental_uris":{"android":"levelo://app?vid=0bb8d816-a3c7-4d55-b1c7-58e7c03002ba","ios":"levelo://app?vid=0bb8d816-a3c7-4d55-b1c7-58e7c03002ba"},"vehicle_type_id":"4","last_reported":1750342206,"current_range_meters":0,"station_id":"ce4bhbh2rcd13ifvqeo0","pricing_plan_id":"cebpf4jnsgd1na2vs0mg"},{"bike_id":"19a67f9a-0967-4acb-8bfd-55779cabb14a","system_id":"levelo_inurba_marseille","lat":43.27375,"lon":5.36259,"is_reserved":false,"is_disabled":true,"rental_uris":{"android":"levelo://app?vid=19a67f9a-0967-4acb-8bfd-55779cabb14a","ios":"levelo://app?vid=19a67f9a-0967-4acb-8bfd-55779cabb14a"},"vehicle_type_id":"4","last_reported":1750342206,"current_range_meters":0,"station_id":"ce4bhbh2rcd13ifvqeo0","pricing_plan_id":"cebpf4jnsgd1na2vs0mg"},{"bike_id":"60970cb7-3c19-457a-bf72-01f66dd55587","system_id":"levelo_inurba_marseille","lat":43.28413,"lon":5.34988,"is_reserved":false,"is_disabled":true,"rental_uris":{"android":"levelo://app?vid=60970cb7-3c19-457a-bf72-01f66dd55587","ios":"levelo://app?vid=60970cb7-3c19-457a-bf72-01f66dd55587"},"vehicle_type_id":"4","last_reported":1750342206,"current_range_meters":0,"station_id":"ce4bhbh2rcd13ifvqepg","pricing_plan_id":"cebpf4jnsgd1na2vs0mg"},{"bike_id":"b1c85ad5-f3a2-4961-b51a-72ff10b4d0ab","system_id":"levelo_inurba_marseille","lat":43.28264,"lon":5.35067,"is_reserved":false,"is_disabled":true,"rental_uris":{"android":"levelo://app?vid=b1c85ad5-f3a2-4961-b51a-72ff10b4d0ab","ios":"levelo://app?vid=b1c85ad5-f3a2-4961-b51a-72ff10b4d0ab"},"vehicle_type_id":"4","last_reported":1750342206,"current_range_meters":0,"station_id":"ce4bhbp2rcd13ifvqerg","pricing_plan_id":"cebpf4jnsgd1na2vs0mg"},{"bike_id":"6967a3c9-b41e-4806-9db3-4dd7732a3195","system_id":"levelo_inurba_marseille","lat":43.27315,"lon":5.39073,"is_reserved":false,"is_disabled":true,"rental_uris":{"android":"levelo://app?vid=6967a3c9-b41e-4806-9db3-4dd7732a3195","ios":"levelo://app?vid=6967a3c9-b41e-4806-9db3-4dd7732a3195"},"vehicle_type_id":"4","last_reported":1750342206,"current_range_meters":0,"station_id":"ce4bhgp2rcd13ifvqfe0","pricing_plan_id":"cebpf4jnsgd1na2vs0mg"},{"bike_id":"c347fbd1-0083-4c2b-980e-cb7a502a2dc8","system_id":"levelo_inurba_marseille","lat":43.24388,"lon":5.37064,"is_reserved":false,"is_disabled":true,"rental_uris":{"android":"levelo://app?vid=c347fbd1-0083-4c2b-980e-cb7a502a2dc8","ios":"levelo://app?vid=c347fbd1-0083-4c2b-980e-cb7a502a2dc8"},"vehicle_type_id":"4","last_reported":1750342206,"current_range_meters":0,"station_id":"ce4bhhh2rcd13ifvqfk0","pricing_plan_id":"cebpf4jnsgd1na2vs0mg"},{"bike_id":"b1b21f7f-63a2-4876-a8ff-aeabead3c053","system_id":"levelo_inurba_marseille","lat":43.2315,"lon":5.43707,"is_reserved":false,"is_disabled":true,"rental_uris":{"android":"levelo://app?vid=b1b21f7f-63a2-4876-a8ff-aeabead3c053","ios":"levelo://app?vid=b1b21f7f-63a2-4876-a8ff-aeabead3c053"},"vehicle_type_id":"4","last_reported":1750342206,"current_range_meters":0,"station_id":"ce4bhmp2rcd13ifvqgog","pricing_plan_id":"cebpf4jnsgd1na2vs0mg"},{"bike_id":"737ed6a2-1fd0-4bdd-85da-92db0c44facd","system_id":"levelo_inurba_marseille","lat":43.241919,"lon":5.397095,"is_reserved":false,"is_disabled":false,"rental_uris":{"android":"levelo://app?vid=737ed6a2-1fd0-4bdd-85da-92db0c44facd","ios":"levelo://app?vid=737ed6a2-1fd0-4bdd-85da-92db0c44facd"},"vehicle_type_id":"4","last_reported":1750342206,"current_range_meters":0,"station_id":"ce4bhn12rcd13ifvqgpg","pricing_plan_id":"cebpf4jnsgd1na2vs0mg"},{"bike_id":"98bd3186-df87-4811-9803-0527da526e51","system_id":"levelo_inurba_marseille","lat":43.29898,"lon":5.43676,"is_reserved":false,"is_disabled":true,"rental_uris":{"android":"levelo://app?vid=98bd3186-df87-4811-9803-0527da526e51","ios":"levelo://app?vid=98bd3186-df87-4811-9803-0527da526e51"},"vehicle_type_id":"4","last_reported":1750342206,"current_range_meters":0,"station_id":"ce4bhpp2rcd13ifvqhfg","pricing_plan_id":"cebpf4jnsgd1na2vs0mg"},{"bike_id":"3bbb3ce5-c63f-42a2-b2a1-470bb9065f9e","system_id":"levelo_inurba_marseille","lat":43.21191,"lon":5.3507,"is_reserved":false,"is_disabled":true,"rental_uris":{"android":"levelo://app?vid=3bbb3ce5-c63f-42a2-b2a1-470bb9065f9e","ios":"levelo://app?vid=3bbb3ce5-c63f-42a2-b2a1-470bb9065f9e"},"vehicle_type_id":"4","last_reported":1750342206,"current_range_meters":0,"station_id":"st_cvj6sg6p6f1abm77japg","pricing_plan_id":"cebpf4jnsgd1na2vs0mg"},{"bike_id":"3af1020d-5cca-4da4-ba60-dcacd727d863","system_id":"levelo_inurba_marseille","lat":43.299747,"lon":5.385,"is_reserved":false,"is_disabled":true,"rental_uris":{"android":"levelo://app?vid=3af1020d-5cca-4da4-ba60-dcacd727d863","ios":"levelo://app?vid=3af1020d-5cca-4da4-ba60-dcacd727d863"},"vehicle_type_id":"4","last_reported":1750342206,"current_range_meters":400,"station_id":"ce4bgj92rcd13ifvqbd0","pricing_plan_id":"cebpf4jnsgd1na2vs0mg"},{"bike_id":"ad765ed0-daa7-4a3a-8772-6929effeae1c","system_id":"levelo_inurba_marseille","lat":43.25104,"lon":5.39548,"is_reserved":false,"is_disabled":true,"rental_uris":{"android":"levelo://app?vid=ad765ed0-daa7-4a3a-8772-6929effeae1c","ios":"levelo://app?vid=ad765ed0-daa7-4a3a-8772-6929effeae1c"},"vehicle_type_id":"4","last_reported":1750342206,"current_range_meters":400,"station_id":"ce4bhm12rcd13ifvqgkg","pricing_plan_id":"cebpf4jnsgd1na2vs0mg"},{"bike_id":"dabc6c41-b12b-4140-9777-01447687696b","system_id":"levelo_inurba_marseille","lat":43.29792,"lon":5.37295,"is_reserved":false,"is_disabled":true,"rental_uris":{"android":"levelo://app?vid=dabc6c41-b12b-4140-9777-01447687696b","ios":"levelo://app?vid=dabc6c41-b12b-4140-9777-01447687696b"},"vehicle_type_id":"4","last_reported":1750342206,"current_range_meters":800,"station_id":"","pricing_plan_id":"cebpf4jnsgd1na2vs0mg"},{"bike_id":"439a15b9-6a77-4f5d-8e47-d345fa437a4a","system_id":"levelo_inurba_marseille","lat":43.2957,"lon":5.37543,"is_reserved":false,"is_disabled":true,"rental_uris":{"android":"levelo://app?vid=439a15b9-6a77-4f5d-8e47-d345fa437a4a","ios":"levelo://app?vid=439a15b9-6a77-4f5d-8e47-d345fa437a4a"},"vehicle_type_id":"4","last_reported":1750342206,"current_range_meters":800,"station_id":"ce4bgh92rcd13ifvqb50","pricing_plan_id":"cebpf4jnsgd1na2vs0mg"},{"bike_id":"04da7532-a19f-4ba7-b6ba-954a4976fb80","system_id":"levelo_inurba_marseille","lat":43.30612,"lon":5.37232,"is_reserved":false,"is_disabled":true,"rental_uris":{"android":"levelo://app?vid=04da7532-a19f-4ba7-b6ba-954a4976fb80","ios":"levelo://app?vid=04da7532-a19f-4ba7-b6ba-954a4976fb80"},"vehicle_type_id":"4","last_reported":1750342206,"current_range_meters":800,"station_id":"ce4bgqh2rcd13ifvqc4g","pricing_plan_id":"cebpf4jnsgd1na2vs0mg"},{"bike_id":"92a90c1e-161b-4115-ad42-ca3c4913a90f","system_id":"levelo_inurba_marseille","lat":43.28415,"lon":5.34983,"is_reserved":false,"is_disabled":true,"rental_uris":{"android":"levelo://app?vid=92a90c1e-161b-4115-ad42-ca3c4913a90f","ios":"levelo://app?vid=92a90c1e-161b-4115-ad42-ca3c4913a90f"},"vehicle_type_id":"4","last_reported":1750342206,"current_range_meters":800,"station_id":"ce4bhbh2rcd13ifvqepg","pricing_plan_id":"cebpf4jnsgd1na2vs0mg"},{"bike_id":"64b8b83e-503a-4015-b7c1-3bd9b6c0bb97","system_id":"levelo_inurba_marseille","lat":43.30363,"lon":5.45133,"is_reserved":false,"is_disabled":true,"rental_uris":{"android":"levelo://app?vid=64b8b83e-503a-4015-b7c1-3bd9b6c0bb97","ios":"levelo://app?vid=64b8b83e-503a-4015-b7c1-3bd9b6c0bb97"},"vehicle_type_id":"4","last_reported":1750342206,"current_range_meters":1200,"station_id":"","pricing_plan_id":"cebpf4jnsgd1na2vs0mg"},{"bike_id":"32d55e80-ceda-4026-baa1-e3b96cec02cb","system_id":"levelo_inurba_marseille","lat":43.25414,"lon":5.3755,"is_reserved":false,"is_disabled":true,"rental_uris":{"android":"levelo://app?vid=32d55e80-ceda-4026-baa1-e3b96cec02cb","ios":"levelo://app?vid=32d55e80-ceda-4026-baa1-e3b96cec02cb"},"vehicle_type_id":"4","last_reported":1750342206,"current_range_meters":1200,"station_id":"","pricing_plan_id":"cebpf4jnsgd1na2vs0mg"},{"bike_id":"fb7f0fca-328c-4590-8315-5fcf92aa068d","system_id":"levelo_inurba_marseille","lat":43.337444,"lon":5.374475,"is_reserved":false,"is_disabled":true,"rental_uris":{"android":"levelo://app?vid=fb7f0fca-328c-4590-8315-5fcf92aa068d","ios":"levelo://app?vid=fb7f0fca-328c-4590-8315-5fcf92aa068d"},"vehicle_type_id":"4","last_reported":1750342206,"current_range_meters":1200,"station_id":"","pricing_plan_id":"cebpf4jnsgd1na2vs0mg"},{"bike_id":"e56a82e6-6ba2-4e0f-8750-e470025e92db","system_id":"levelo_inurba_marseille","lat":43.28261,"lon":5.3508,"is_reserved":false,"is_disabled":true,"rental_uris":{"android":"levelo://app?vid=e56a82e6-6ba2-4e0f-8750-e470025e92db","ios":"levelo://app?vid=e56a82e6-6ba2-4e0f-8750-e470025e92db"},"vehicle_type_id":"4","last_reported":1750342206,"current_range_meters":1200,"station_id":"ce4bhbp2rcd13ifvqerg","pricing_plan_id":"cebpf4jnsgd1na2vs0mg"},{"bike_id":"d4b2375e-15c2-4b2f-a628-6d423b46231b","system_id":"levelo_inurba_marseille","lat":43.24257,"lon":5.41146,"is_reserved":false,"is_disabled":true,"rental_uris":{"android":"levelo://app?vid=d4b2375e-15c2-4b2f-a628-6d423b46231b","ios":"levelo://app?vid=d4b2375e-15c2-4b2f-a628-6d423b46231b"},"vehicle_type_id":"4","last_reported":1750342206,"current_range_meters":1600,"station_id":"","pricing_plan_id":"cebpf4jnsgd1na2vs0mg"},{"bike_id":"90cf5cab-f7ed-49f9-a3c4-bbcef0a20666","system_id":"levelo_inurba_marseille","lat":43.30211,"lon":5.39468,"is_reserved":false,"is_disabled":true,"rental_uris":{"android":"levelo://app?vid=90cf5cab-f7ed-49f9-a3c4-bbcef0a20666","ios":"levelo://app?vid=90cf5cab-f7ed-49f9-a3c4-bbcef0a20666"},"vehicle_type_id":"4","last_reported":1750342206,"current_range_meters":2000,"station_id":"ce4bh0p2rcd13ifvqd70","pricing_plan_id":"cebpf4jnsgd1na2vs0mg"},{"bike_id":"a005a105-9f0d-4d0e-905f-754d45ac4df2","system_id":"levelo_inurba_marseille","lat":43.29801,"lon":5.40403,"is_reserved":false,"is_disabled":false,"rental_uris":{"android":"levelo://app?vid=a005a105-9f0d-4d0e-905f-754d45ac4df2","ios":"levelo://app?vid=a005a105-9f0d-4d0e-905f-754d45ac4df2"},"vehicle_type_id":"4","last_reported":1750342206,"current_range_meters":2000,"station_id":"ce4bh112rcd13ifvqd90","pricing_plan_id":"cebpf4jnsgd1na2vs0mg"},{"bike_id":"8a961ef7-0f42-457d-ae6c-53f4a4f4195a","system_id":"levelo_inurba_marseille","lat":43.28701,"lon":5.37396,"is_reserved":false,"is_disabled":true,"rental_uris":{"android":"levelo://app?vid=8a961ef7-0f42-457d-ae6c-53f4a4f4195a","ios":"levelo://app?vid=8a961ef7-0f42-457d-ae6c-53f4a4f4195a"},"vehicle_type_id":"4","last_reported":1750342206,"current_range_meters":2000,"station_id":"ce4bh3p2rcd13ifvqdq0","pricing_plan_id":"cebpf4jnsgd1na2vs0mg"},{"bike_id":"05ce067e-41e5-49f8-9db5-3544b45ef7ac","system_id":"levelo_inurba_marseille","lat":43.28034,"lon":5.3695,"is_reserved":false,"is_disabled":false,"rental_uris":{"android":"levelo://app?vid=05ce067e-41e5-49f8-9db5-3544b45ef7ac","ios":"levelo://app?vid=05ce067e-41e5-49f8-9db5-3544b45ef7ac"},"vehicle_type_id":"4","last_reported":1750342206,"current_range_meters":2800,"station_id":"ce4bha12rcd13ifvqef0","pricing_plan_id":"cebpf4jnsgd1na2vs0mg"},{"bike_id":"5bdc69a3-6995-481f-b0cb-239757890fce","system_id":"levelo_inurba_marseille","lat":43.2737,"lon":5.36257,"is_reserved":false,"is_disabled":false,"rental_uris":{"android":"levelo://app?vid=5bdc69a3-6995-481f-b0cb-239757890fce","ios":"levelo://app?vid=5bdc69a3-6995-481f-b0cb-239757890fce"},"vehicle_type_id":"4","last_reported":1750342206,"current_range_meters":2800,"station_id":"ce4bhbh2rcd13ifvqeo0","pricing_plan_id":"cebpf4jnsgd1na2vs0mg"},{"bike_id":"2779ff32-6758-4d82-a812-e1e4555c0ba6","system_id":"levelo_inurba_marseille","lat":43.29632,"lon":5.40599,"is_reserved":false,"is_disabled":false,"rental_uris":{"android":"levelo://app?vid=2779ff32-6758-4d82-a812-e1e4555c0ba6","ios":"levelo://app?vid=2779ff32-6758-4d82-a812-e1e4555c0ba6"},"vehicle_type_id":"4","last_reported":1750342206,"current_range_meters":3200,"station_id":"ce4bh0h2rcd13ifvqd60","pricing_plan_id":"cebpf4jnsgd1na2vs0mg"},{"bike_id":"ec01be80-b228-49a9-bb2c-57dc2fb1f199","system_id":"levelo_inurba_marseille","lat":43.27269,"lon":5.40932,"is_reserved":false,"is_disabled":false,"rental_uris":{"android":"levelo://app?vid=ec01be80-b228-49a9-bb2c-57dc2fb1f199","ios":"levelo://app?vid=ec01be80-b228-49a9-bb2c-57dc2fb1f199"},"vehicle_type_id":"4","last_reported":1750342206,"current_range_meters":3600,"station_id":"","pricing_plan_id":"cebpf4jnsgd1na2vs0mg"},{"bike_id":"b32ae94b-c6c7-45de-a0c7-205f886afa7b","system_id":"levelo_inurba_marseille","lat":43.29629,"lon":5.40599,"is_reserved":false,"is_disabled":false,"rental_uris":{"android":"levelo://app?vid=b32ae94b-c6c7-45de-a0c7-205f886afa7b","ios":"levelo://app?vid=b32ae94b-c6c7-45de-a0c7-205f886afa7b"},"vehicle_type_id":"4","last_reported":1750342206,"current_range_meters":3600,"station_id":"ce4bh0h2rcd13ifvqd60","pricing_plan_id":"cebpf4jnsgd1na2vs0mg"},{"bike_id":"93e4d4b7-e41c-45b5-8d2d-2d710017b92a","system_id":"levelo_inurba_marseille","lat":43.29554,"lon":5.42297,"is_reserved":false,"is_disabled":false,"rental_uris":{"android":"levelo://app?vid=93e4d4b7-e41c-45b5-8d2d-2d710017b92a","ios":"levelo://app?vid=93e4d4b7-e41c-45b5-8d2d-2d710017b92a"},"vehicle_type_id":"4","last_reported":1750342206,"current_range_meters":3600,"station_id":"ce4bhph2rcd13ifvqhdg","pricing_plan_id":"cebpf4jnsgd1na2vs0mg"},{"bike_id":"5e2dc650-aa22-49a3-af2c-39fc7e8ca812","system_id":"levelo_inurba_marseille","lat":43.31329,"lon":5.39694,"is_reserved":false,"is_disabled":false,"rental_uris":{"android":"levelo://app?vid=5e2dc650-aa22-49a3-af2c-39fc7e8ca812","ios":"levelo://app?vid=5e2dc650-aa22-49a3-af2c-39fc7e8ca812"},"vehicle_type_id":"4","last_reported":1750342206,"current_range_meters":4000,"station_id":"ce4bgvp2rcd13ifvqcu0","pricing_plan_id":"cebpf4jnsgd1na2vs0mg"},{"bike_id":"a2832e6d-c3ad-46f5-9754-c9195a000c00","system_id":"levelo_inurba_marseille","lat":43.28403,"lon":5.34979,"is_reserved":false,"is_disabled":false,"rental_uris":{"android":"levelo://app?vid=a2832e6d-c3ad-46f5-9754-c9195a000c00","ios":"levelo://app?vid=a2832e6d-c3ad-46f5-9754-c9195a000c00"},"vehicle_type_id":"4","last_reported":1750342206,"current_range_meters":4000,"station_id":"ce4bhbh2rcd13ifvqepg","pricing_plan_id":"cebpf4jnsgd1na2vs0mg"},{"bike_id":"1c42ec38-6034-414d-bebb-27dbe0045cd5","system_id":"levelo_inurba_marseille","lat":43.26023,"lon":5.37549,"is_reserved":false,"is_disabled":false,"rental_uris":{"android":"levelo://app?vid=1c42ec38-6034-414d-bebb-27dbe0045cd5","ios":"levelo://app?vid=1c42ec38-6034-414d-bebb-27dbe0045cd5"},"vehicle_type_id":"4","last_reported":1750342206,"current_range_meters":4000,"station_id":"ce4bhgh2rcd13ifvqfa0","pricing_plan_id":"cebpf4jnsgd1na2vs0mg"},{"bike_id":"1bf5ea90-4a0e-41bf-9614-6a0598fc14bf","system_id":"levelo_inurba_marseille","lat":43.24165,"lon":5.36396,"is_reserved":false,"is_disabled":false,"rental_uris":{"android":"levelo://app?vid=1bf5ea90-4a0e-41bf-9614-6a0598fc14bf","ios":"levelo://app?vid=1bf5ea90-4a0e-41bf-9614-6a0598fc14bf"},"vehicle_type_id":"4","last_reported":1750342206,"current_range_meters":4000,"station_id":"cpo36qri1sfpv3e86is0","pricing_plan_id":"cebpf4jnsgd1na2vs0mg"},{"bike_id":"88fe4b5c-5bbb-4913-b184-d966a9be16d9","system_id":"levelo_inurba_marseille","lat":43.30267,"lon":5.37719,"is_reserved":false,"is_disabled":false,"rental_uris":{"android":"levelo://app?vid=88fe4b5c-5bbb-4913-b184-d966a9be16d9","ios":"levelo://app?vid=88fe4b5c-5bbb-4913-b184-d966a9be16d9"},"vehicle_type_id":"4","last_reported":1750342206,"current_range_meters":4400,"station_id":"ce4bguh2rcd13ifvqcj0","pricing_plan_id":"cebpf4jnsgd1na2vs0mg"},{"bike_id":"89054764-165d-476b-8986-86500b8d5801","system_id":"levelo_inurba_marseille","lat":43.30591,"lon":5.39359,"is_reserved":false,"is_disabled":false,"rental_uris":{"android":"levelo://app?vid=89054764-165d-476b-8986-86500b8d5801","ios":"levelo://app?vid=89054764-165d-476b-8986-86500b8d5801"},"vehicle_type_id":"4","last_reported":1750342206,"current_range_meters":4400,"station_id":"ce4bh0p2rcd13ifvqd80","pricing_plan_id":"cebpf4jnsgd1na2vs0mg"},{"bike_id":"18fc2902-b433-4699-9ffd-f0e98f52a68c","system_id":"levelo_inurba_marseille","lat":43.28357,"lon":5.38652,"is_reserved":false,"is_disabled":false,"rental_uris":{"android":"levelo://app?vid=18fc2902-b433-4699-9ffd-f0e98f52a68c","ios":"levelo://app?vid=18fc2902-b433-4699-9ffd-f0e98f52a68c"},"vehicle_type_id":"4","last_reported":1750342206,"current_range_meters":4400,"station_id":"ce4bh492rcd13ifvqdvg","pricing_plan_id":"cebpf4jnsgd1na2vs0mg"},{"bike_id":"9647d5f6-6fe8-4937-b0c7-dd630e0b708c","system_id":"levelo_inurba_marseille","lat":43.29608,"lon":5.38093,"is_reserved":false,"is_disabled":false,"rental_uris":{"android":"levelo://app?vid=9647d5f6-6fe8-4937-b0c7-dd630e0b708c","ios":"levelo://app?vid=9647d5f6-6fe8-4937-b0c7-dd630e0b708c"},"vehicle_type_id":"4","last_reported":1750342206,"current_range_meters":4800,"station_id":"ce4bgl12rcd13ifvqbo0","pricing_plan_id":"cebpf4jnsgd1na2vs0mg"},{"bike_id":"f4d08171-1b97-482f-a74c-89038f9bc783","system_id":"levelo_inurba_marseille","lat":43.317,"lon":5.40467,"is_reserved":false,"is_disabled":false,"rental_uris":{"android":"levelo://app?vid=f4d08171-1b97-482f-a74c-89038f9bc783","ios":"levelo://app?vid=f4d08171-1b97-482f-a74c-89038f9bc783"},"vehicle_type_id":"4","last_reported":1750342206,"current_range_meters":4800,"station_id":"ce4bh012rcd13ifvqd00","pricing_plan_id":"cebpf4jnsgd1na2vs0mg"},{"bike_id":"3f8c5f8a-48f4-4699-ba4f-b5d36102a45b","system_id":"levelo_inurba_marseille","lat":43.3041,"lon":5.39733,"is_reserved":false,"is_disabled":false,"rental_uris":{"android":"levelo://app?vid=3f8c5f8a-48f4-4699-ba4f-b5d36102a45b","ios":"levelo://app?vid=3f8c5f8a-48f4-4699-ba4f-b5d36102a45b"},"vehicle_type_id":"4","last_reported":1750342206,"current_range_meters":4800,"station_id":"ce4bh092rcd13ifvqd20","pricing_plan_id":"cebpf4jnsgd1na2vs0mg"},{"bike_id":"400d0b69-9626-4ae2-8ff3-b3391e9e65b9","system_id":"levelo_inurba_marseille","lat":43.28613,"lon":5.35103,"is_reserved":false,"is_disabled":false,"rental_uris":{"android":"levelo://app?vid=400d0b69-9626-4ae2-8ff3-b3391e9e65b9","ios":"levelo://app?vid=400d0b69-9626-4ae2-8ff3-b3391e9e65b9"},"vehicle_type_id":"4","last_reported":1750342206,"current_range_meters":4800,"station_id":"ce4bhch2rcd13ifvqeug","pricing_plan_id":"cebpf4jnsgd1na2vs0mg"},{"bike_id":"82411423-b16b-4ea1-82ee-94c4e3e83d84","system_id":"levelo_inurba_marseille","lat":43.29919,"lon":5.37474,"is_reserved":false,"is_disabled":false,"rental_uris":{"android":"levelo://app?vid=82411423-b16b-4ea1-82ee-94c4e3e83d84","ios":"levelo://app?vid=82411423-b16b-4ea1-82ee-94c4e3e83d84"},"vehicle_type_id":"4","last_reported":1750342206,"current_range_meters":5600,"station_id":"ce4bgjh2rcd13ifvqbg0","pricing_plan_id":"cebpf4jnsgd1na2vs0mg"},{"bike_id":"d6751f6d-8153-4397-8e87-afc599ad4e4e","system_id":"levelo_inurba_marseille","lat":43.27383,"lon":5.36249,"is_reserved":false,"is_disabled":false,"rental_uris":{"android":"levelo://app?vid=d6751f6d-8153-4397-8e87-afc599ad4e4e","ios":"levelo://app?vid=d6751f6d-8153-4397-8e87-afc599ad4e4e"},"vehicle_type_id":"4","last_reported":1750342206,"current_range_meters":5600,"station_id":"ce4bhbh2rcd13ifvqeo0","pricing_plan_id":"cebpf4jnsgd1na2vs0mg"},{"bike_id":"6d1a1ea6-69be-460e-83d3-fdfb1792a3ff","system_id":"levelo_inurba_marseille","lat":43.28701,"lon":5.39984,"is_reserved":false,"is_disabled":false,"rental_uris":{"android":"levelo://app?vid=6d1a1ea6-69be-460e-83d3-fdfb1792a3ff","ios":"levelo://app?vid=6d1a1ea6-69be-460e-83d3-fdfb1792a3ff"},"vehicle_type_id":"4","last_reported":1750342206,"current_range_meters":5600,"station_id":"ce4bho92rcd13ifvqh3g","pricing_plan_id":"cebpf4jnsgd1na2vs0mg"},{"bike_id":"b6730b60-d695-4d15-a7d0-6a4c2a5443b6","system_id":"levelo_inurba_marseille","lat":43.23193,"lon":5.35557,"is_reserved":false,"is_disabled":false,"rental_uris":{"android":"levelo://app?vid=b6730b60-d695-4d15-a7d0-6a4c2a5443b6","ios":"levelo://app?vid=b6730b60-d695-4d15-a7d0-6a4c2a5443b6"},"vehicle_type_id":"4","last_reported":1750342206,"current_range_meters":5600,"station_id":"ce4bhu92rcd13ifvqi70","pricing_plan_id":"cebpf4jnsgd1na2vs0mg"},{"bike_id":"13575f78-b7bc-47c7-adad-e0a72db5052f","system_id":"levelo_inurba_marseille","lat":43.24168,"lon":5.36393,"is_reserved":false,"is_disabled":false,"rental_uris":{"android":"levelo://app?vid=13575f78-b7bc-47c7-adad-e0a72db5052f","ios":"levelo://app?vid=13575f78-b7bc-47c7-adad-e0a72db5052f"},"vehicle_type_id":"4","last_reported":1750342206,"current_range_meters":5600,"station_id":"cpo36qri1sfpv3e86is0","pricing_plan_id":"cebpf4jnsgd1na2vs0mg"},{"bike_id":"ca7fa57f-9755-4c17-a606-9f6a51e32ebf","system_id":"levelo_inurba_marseille","lat":43.30401,"lon":5.38114,"is_reserved":false,"is_disabled":false,"rental_uris":{"android":"levelo://app?vid=ca7fa57f-9755-4c17-a606-9f6a51e32ebf","ios":"levelo://app?vid=ca7fa57f-9755-4c17-a606-9f6a51e32ebf"},"vehicle_type_id":"4","last_reported":1750342206,"current_range_meters":6000,"station_id":"","pricing_plan_id":"cebpf4jnsgd1na2vs0mg"},{"bike_id":"01b0421e-2a50-4296-ba78-eef8b3f4f3b9","system_id":"levelo_inurba_marseille","lat":43.30128,"lon":5.39853,"is_reserved":false,"is_disabled":false,"rental_uris":{"android":"levelo://app?vid=01b0421e-2a50-4296-ba78-eef8b3f4f3b9","ios":"levelo://app?vid=01b0421e-2a50-4296-ba78-eef8b3f4f3b9"},"vehicle_type_id":"4","last_reported":1750342206,"current_range_meters":6000,"station_id":"ce4bh0h2rcd13ifvqd40","pricing_plan_id":"cebpf4jnsgd1na2vs0mg"},{"bike_id":"a21e5346-ffcc-4e7d-adbc-fd3104468421","system_id":"levelo_inurba_marseille","lat":43.304605,"lon":5.37911,"is_reserved":false,"is_disabled":false,"rental_uris":{"android":"levelo://app?vid=a21e5346-ffcc-4e7d-adbc-fd3104468421","ios":"levelo://app?vid=a21e5346-ffcc-4e7d-adbc-fd3104468421"},"vehicle_type_id":"4","last_reported":1750342206,"current_range_meters":6400,"station_id":"ce4bgup2rcd13ifvqcn0","pricing_plan_id":"cebpf4jnsgd1na2vs0mg"},{"bike_id":"6255772c-a986-4534-aa02-da05d4fa78c0","system_id":"levelo_inurba_marseille","lat":43.26053,"lon":5.39401,"is_reserved":false,"is_disabled":false,"rental_uris":{"android":"levelo://app?vid=6255772c-a986-4534-aa02-da05d4fa78c0","ios":"levelo://app?vid=6255772c-a986-4534-aa02-da05d4fa78c0"},"vehicle_type_id":"4","last_reported":1750342206,"current_range_meters":6400,"station_id":"ce4bhh92rcd13ifvqfj0","pricing_plan_id":"cebpf4jnsgd1na2vs0mg"},{"bike_id":"23f3feed-e6a0-4a28-bf48-8571d41ec480","system_id":"levelo_inurba_marseille","lat":43.31515,"lon":5.3749,"is_reserved":false,"is_disabled":false,"rental_uris":{"android":"levelo://app?vid=23f3feed-e6a0-4a28-bf48-8571d41ec480","ios":"levelo://app?vid=23f3feed-e6a0-4a28-bf48-8571d41ec480"},"vehicle_type_id":"4","last_reported":1750342206,"current_range_meters":6800,"station_id":"","pricing_plan_id":"cebpf4jnsgd1na2vs0mg"},{"bike_id":"de0f7c2b-5974-4035-a240-8ed367c0e3f3","system_id":"levelo_inurba_marseille","lat":43.31962,"lon":5.37645,"is_reserved":false,"is_disabled":false,"rental_uris":{"android":"levelo://app?vid=de0f7c2b-5974-4035-a240-8ed367c0e3f3","ios":"levelo://app?vid=de0f7c2b-5974-4035-a240-8ed367c0e3f3"},"vehicle_type_id":"4","last_reported":1750342206,"current_range_meters":6800,"station_id":"","pricing_plan_id":"cebpf4jnsgd1na2vs0mg"},{"bike_id":"6640517b-d519-4976-be62-00401593ee25","system_id":"levelo_inurba_marseille","lat":43.33104,"lon":5.38148,"is_reserved":false,"is_disabled":false,"rental_uris":{"android":"levelo://app?vid=6640517b-d519-4976-be62-00401593ee25","ios":"levelo://app?vid=6640517b-d519-4976-be62-00401593ee25"},"vehicle_type_id":"4","last_reported":1750342206,"current_range_meters":6800,"station_id":"","pricing_plan_id":"cebpf4jnsgd1na2vs0mg"},{"bike_id":"a90b3bad-b274-48e8-a6e4-0e649ed4a17e","system_id":"levelo_inurba_marseille","lat":43.305426,"lon":5.365348,"is_reserved":false,"is_disabled":false,"rental_uris":{"android":"levelo://app?vid=a90b3bad-b274-48e8-a6e4-0e649ed4a17e","ios":"levelo://app?vid=a90b3bad-b274-48e8-a6e4-0e649ed4a17e"},"vehicle_type_id":"4","last_reported":1750342206,"current_range_meters":6800,"station_id":"ce4bgs12rcd13ifvqcag","pricing_plan_id":"cebpf4jnsgd1na2vs0mg"},{"bike_id":"a593d219-c56b-4ae1-8554-486e6414fd78","system_id":"levelo_inurba_marseille","lat":43.32043,"lon":5.41551,"is_reserved":false,"is_disabled":false,"rental_uris":{"android":"levelo://app?vid=a593d219-c56b-4ae1-8554-486e6414fd78","ios":"levelo://app?vid=a593d219-c56b-4ae1-8554-486e6414fd78"},"vehicle_type_id":"4","last_reported":1750342206,"current_range_meters":6800,"station_id":"ce4bhq92rcd13ifvqhkg","pricing_plan_id":"cebpf4jnsgd1na2vs0mg"},{"bike_id":"5758f02d-ab77-4076-9ccd-2538e67f35b9","system_id":"levelo_inurba_marseille","lat":43.30137,"lon":5.37962,"is_reserved":false,"is_disabled":false,"rental_uris":{"android":"levelo://app?vid=5758f02d-ab77-4076-9ccd-2538e67f35b9","ios":"levelo://app?vid=5758f02d-ab77-4076-9ccd-2538e67f35b9"},"vehicle_type_id":"4","last_reported":1750342206,"current_range_meters":7200,"station_id":"","pricing_plan_id":"cebpf4jnsgd1na2vs0mg"},{"bike_id":"d057ef76-d638-417b-93af-2ed4416e2b22","system_id":"levelo_inurba_marseille","lat":43.30426,"lon":5.39753,"is_reserved":false,"is_disabled":false,"rental_uris":{"android":"levelo://app?vid=d057ef76-d638-417b-93af-2ed4416e2b22","ios":"levelo://app?vid=d057ef76-d638-417b-93af-2ed4416e2b22"},"vehicle_type_id":"4","last_reported":1750342206,"current_range_meters":7200,"station_id":"ce4bh092rcd13ifvqd20","pricing_plan_id":"cebpf4jnsgd1na2vs0mg"},{"bike_id":"8382f313-446c-40d5-929b-059a64febcb7","system_id":"levelo_inurba_marseille","lat":43.27387,"lon":5.3623,"is_reserved":false,"is_disabled":false,"rental_uris":{"android":"levelo://app?vid=8382f313-446c-40d5-929b-059a64febcb7","ios":"levelo://app?vid=8382f313-446c-40d5-929b-059a64febcb7"},"vehicle_type_id":"4","last_reported":1750342206,"current_range_meters":7200,"station_id":"ce4bhbh2rcd13ifvqeo0","pricing_plan_id":"cebpf4jnsgd1na2vs0mg"},{"bike_id":"7855c43c-0848-4fef-8d02-df1782bef4dd","system_id":"levelo_inurba_marseille","lat":43.282684,"lon":5.350753,"is_reserved":false,"is_disabled":false,"rental_uris":{"android":"levelo://app?vid=7855c43c-0848-4fef-8d02-df1782bef4dd","ios":"levelo://app?vid=7855c43c-0848-4fef-8d02-df1782bef4dd"},"vehicle_type_id":"4","last_reported":1750342206,"current_range_meters":7200,"station_id":"ce4bhbp2rcd13ifvqerg","pricing_plan_id":"cebpf4jnsgd1na2vs0mg"},{"bike_id":"abe2a2c8-7015-4e9d-8fc1-315c94512747","system_id":"levelo_inurba_marseille","lat":43.28269,"lon":5.35078,"is_reserved":false,"is_disabled":false,"rental_uris":{"android":"levelo://app?vid=abe2a2c8-7015-4e9d-8fc1-315c94512747","ios":"levelo://app?vid=abe2a2c8-7015-4e9d-8fc1-315c94512747"},"vehicle_type_id":"4","last_reported":1750342206,"current_range_meters":7200,"station_id":"ce4bhbp2rcd13ifvqerg","pricing_plan_id":"cebpf4jnsgd1na2vs0mg"},{"bike_id":"db36f56e-fe5c-47eb-811d-82071741e9f6","system_id":"levelo_inurba_marseille","lat":43.282654,"lon":5.350605,"is_reserved":false,"is_disabled":false,"rental_uris":{"android":"levelo://app?vid=db36f56e-fe5c-47eb-811d-82071741e9f6","ios":"levelo://app?vid=db36f56e-fe5c-47eb-811d-82071741e9f6"},"vehicle_type_id":"4","last_reported":1750342206,"current_range_meters":8000,"station_id":"","pricing_plan_id":"cebpf4jnsgd1na2vs0mg"},{"bike_id":"01cf88f0-6d1e-4ace-a645-bae815ab02bf","system_id":"levelo_inurba_marseille","lat":43.28259,"lon":5.35075,"is_reserved":false,"is_disabled":false,"rental_uris":{"android":"levelo://app?vid=01cf88f0-6d1e-4ace-a645-bae815ab02bf","ios":"levelo://app?vid=01cf88f0-6d1e-4ace-a645-bae815ab02bf"},"vehicle_type_id":"4","last_reported":1750342206,"current_range_meters":8000,"station_id":"ce4bhbp2rcd13ifvqerg","pricing_plan_id":"cebpf4jnsgd1na2vs0mg"},{"bike_id":"118feb08-f320-4abf-a566-47f8aba7353a","system_id":"levelo_inurba_marseille","lat":43.28268,"lon":5.35092,"is_reserved":false,"is_disabled":false,"rental_uris":{"android":"levelo://app?vid=118feb08-f320-4abf-a566-47f8aba7353a","ios":"levelo://app?vid=118feb08-f320-4abf-a566-47f8aba7353a"},"vehicle_type_id":"4","last_reported":1750342206,"current_range_meters":8000,"station_id":"ce4bhbp2rcd13ifvqerg","pricing_plan_id":"cebpf4jnsgd1na2vs0mg"},{"bike_id":"dfb5f012-f5b4-4029-a915-6fb664bbe6a4","system_id":"levelo_inurba_marseille","lat":43.25293,"lon":5.39459,"is_reserved":false,"is_disabled":false,"rental_uris":{"android":"levelo://app?vid=dfb5f012-f5b4-4029-a915-6fb664bbe6a4","ios":"levelo://app?vid=dfb5f012-f5b4-4029-a915-6fb664bbe6a4"},"vehicle_type_id":"4","last_reported":1750342206,"current_range_meters":8400,"station_id":"","pricing_plan_id":"cebpf4jnsgd1na2vs0mg"},{"bike_id":"a47d769b-ae27-4c83-bc03-15294204d299","system_id":"levelo_inurba_marseille","lat":43.27617,"lon":5.36113,"is_reserved":false,"is_disabled":false,"rental_uris":{"android":"levelo://app?vid=a47d769b-ae27-4c83-bc03-15294204d299","ios":"levelo://app?vid=a47d769b-ae27-4c83-bc03-15294204d299"},"vehicle_type_id":"4","last_reported":1750342206,"current_range_meters":8400,"station_id":"ce4bgj92rcd13ifvqbe0","pricing_plan_id":"cebpf4jnsgd1na2vs0mg"},{"bike_id":"bb4fa477-3216-4255-8f5d-39c0fa3f0ece","system_id":"levelo_inurba_marseille","lat":43.3026,"lon":5.40075,"is_reserved":false,"is_disabled":false,"rental_uris":{"android":"levelo://app?vid=bb4fa477-3216-4255-8f5d-39c0fa3f0ece","ios":"levelo://app?vid=bb4fa477-3216-4255-8f5d-39c0fa3f0ece"},"vehicle_type_id":"4","last_reported":1750342206,"current_range_meters":8400,"station_id":"ce4bgvh2rcd13ifvqcs0","pricing_plan_id":"cebpf4jnsgd1na2vs0mg"},{"bike_id":"20aa22f5-add5-4b5a-a56b-78ba61ae9630","system_id":"levelo_inurba_marseille","lat":43.30428,"lon":5.39738,"is_reserved":false,"is_disabled":false,"rental_uris":{"android":"levelo://app?vid=20aa22f5-add5-4b5a-a56b-78ba61ae9630","ios":"levelo://app?vid=20aa22f5-add5-4b5a-a56b-78ba61ae9630"},"vehicle_type_id":"4","last_reported":1750342206,"current_range_meters":8400,"station_id":"ce4bh092rcd13ifvqd20","pricing_plan_id":"cebpf4jnsgd1na2vs0mg"},{"bike_id":"4d3570b8-28df-42a2-bfb5-5b1d75843004","system_id":"levelo_inurba_marseille","lat":43.28704,"lon":5.37396,"is_reserved":false,"is_disabled":false,"rental_uris":{"android":"levelo://app?vid=4d3570b8-28df-42a2-bfb5-5b1d75843004","ios":"levelo://app?vid=4d3570b8-28df-42a2-bfb5-5b1d75843004"},"vehicle_type_id":"4","last_reported":1750342206,"current_range_meters":8400,"station_id":"ce4bh3p2rcd13ifvqdq0","pricing_plan_id":"cebpf4jnsgd1na2vs0mg"},{"bike_id":"aa9fa92c-3ae8-4046-945b-0ce1ee1b02eb","system_id":"levelo_inurba_marseille","lat":43.27365,"lon":5.3626,"is_reserved":false,"is_disabled":false,"rental_uris":{"android":"levelo://app?vid=aa9fa92c-3ae8-4046-945b-0ce1ee1b02eb","ios":"levelo://app?vid=aa9fa92c-3ae8-4046-945b-0ce1ee1b02eb"},"vehicle_type_id":"4","last_reported":1750342206,"current_range_meters":8400,"station_id":"ce4bhbh2rcd13ifvqeo0","pricing_plan_id":"cebpf4jnsgd1na2vs0mg"},{"bike_id":"31a3e7e4-9ab6-442f-bc59-45095f9057cd","system_id":"levelo_inurba_marseille","lat":43.27383,"lon":5.36254,"is_reserved":false,"is_disabled":false,"rental_uris":{"android":"levelo://app?vid=31a3e7e4-9ab6-442f-bc59-45095f9057cd","ios":"levelo://app?vid=31a3e7e4-9ab6-442f-bc59-45095f9057cd"},"vehicle_type_id":"4","last_reported":1750342206,"current_range_meters":8400,"station_id":"ce4bhbh2rcd13ifvqeo0","pricing_plan_id":"cebpf4jnsgd1na2vs0mg"},{"bike_id":"4b8da722-ee9e-48a4-a5e5-3a8a10364708","system_id":"levelo_inurba_marseille","lat":43.31219,"lon":5.37815,"is_reserved":false,"is_disabled":false,"rental_uris":{"android":"levelo://app?vid=4b8da722-ee9e-48a4-a5e5-3a8a10364708","ios":"levelo://app?vid=4b8da722-ee9e-48a4-a5e5-3a8a10364708"},"vehicle_type_id":"4","last_reported":1750342206,"current_range_meters":8800,"station_id":"","pricing_plan_id":"cebpf4jnsgd1na2vs0mg"},{"bike_id":"3518210a-6d90-482f-a11b-11cb7c94acd1","system_id":"levelo_inurba_marseille","lat":43.265052,"lon":5.392193,"is_reserved":false,"is_disabled":false,"rental_uris":{"android":"levelo://app?vid=3518210a-6d90-482f-a11b-11cb7c94acd1","ios":"levelo://app?vid=3518210a-6d90-482f-a11b-11cb7c94acd1"},"vehicle_type_id":"4","last_reported":1750342206,"current_range_meters":8800,"station_id":"","pricing_plan_id":"cebpf4jnsgd1na2vs0mg"},{"bike_id":"fc138398-0e0f-4f90-b624-03cc7a1dc204","system_id":"levelo_inurba_marseille","lat":43.30656,"lon":5.40077,"is_reserved":false,"is_disabled":false,"rental_uris":{"android":"levelo://app?vid=fc138398-0e0f-4f90-b624-03cc7a1dc204","ios":"levelo://app?vid=fc138398-0e0f-4f90-b624-03cc7a1dc204"},"vehicle_type_id":"4","last_reported":1750342206,"current_range_meters":8800,"station_id":"ce4bh112rcd13ifvqda0","pricing_plan_id":"cebpf4jnsgd1na2vs0mg"},{"bike_id":"0dedb6f6-6801-483b-bfb8-9cd4533d158f","system_id":"levelo_inurba_marseille","lat":43.31143,"lon":5.38085,"is_reserved":false,"is_disabled":false,"rental_uris":{"android":"levelo://app?vid=0dedb6f6-6801-483b-bfb8-9cd4533d158f","ios":"levelo://app?vid=0dedb6f6-6801-483b-bfb8-9cd4533d158f"},"vehicle_type_id":"4","last_reported":1750342206,"current_range_meters":9200,"station_id":"","pricing_plan_id":"cebpf4jnsgd1na2vs0mg"},{"bike_id":"44ef975f-ce25-41a1-a5cf-5dc802c453d7","system_id":"levelo_inurba_marseille","lat":43.3122,"lon":5.36907,"is_reserved":false,"is_disabled":false,"rental_uris":{"android":"levelo://app?vid=44ef975f-ce25-41a1-a5cf-5dc802c453d7","ios":"levelo://app?vid=44ef975f-ce25-41a1-a5cf-5dc802c453d7"},"vehicle_type_id":"4","last_reported":1750342206,"current_range_meters":9200,"station_id":"ce4bgl92rcd13ifvqbq0","pricing_plan_id":"cebpf4jnsgd1na2vs0mg"},{"bike_id":"2e26cc32-737d-4446-a4ce-ecc2049aee96","system_id":"levelo_inurba_marseille","lat":43.31712,"lon":5.37737,"is_reserved":false,"is_disabled":false,"rental_uris":{"android":"levelo://app?vid=2e26cc32-737d-4446-a4ce-ecc2049aee96","ios":"levelo://app?vid=2e26cc32-737d-4446-a4ce-ecc2049aee96"},"vehicle_type_id":"4","last_reported":1750342206,"current_range_meters":9200,"station_id":"ce4bgth2rcd13ifvqch0","pricing_plan_id":"cebpf4jnsgd1na2vs0mg"},{"bike_id":"55330921-f998-4bd7-8a49-32a963860280","system_id":"levelo_inurba_marseille","lat":43.30216,"lon":5.39475,"is_reserved":false,"is_disabled":false,"rental_uris":{"android":"levelo://app?vid=55330921-f998-4bd7-8a49-32a963860280","ios":"levelo://app?vid=55330921-f998-4bd7-8a49-32a963860280"},"vehicle_type_id":"4","last_reported":1750342206,"current_range_meters":9200,"station_id":"ce4bh0p2rcd13ifvqd70","pricing_plan_id":"cebpf4jnsgd1na2vs0mg"},{"bike_id":"e5eebe49-0309-4855-b1c9-042599268ec6","system_id":"levelo_inurba_marseille","lat":43.29187,"lon":5.39305,"is_reserved":false,"is_disabled":false,"rental_uris":{"android":"levelo://app?vid=e5eebe49-0309-4855-b1c9-042599268ec6","ios":"levelo://app?vid=e5eebe49-0309-4855-b1c9-042599268ec6"},"vehicle_type_id":"4","last_reported":1750342206,"current_range_meters":9200,"station_id":"ce4bh192rcd13ifvqdd0","pricing_plan_id":"cebpf4jnsgd1na2vs0mg"},{"bike_id":"64f07fa2-6dbe-4276-815a-540a364c0a9e","system_id":"levelo_inurba_marseille","lat":43.29529,"lon":5.3903,"is_reserved":false,"is_disabled":false,"rental_uris":{"android":"levelo://app?vid=64f07fa2-6dbe-4276-815a-540a364c0a9e","ios":"levelo://app?vid=64f07fa2-6dbe-4276-815a-540a364c0a9e"},"vehicle_type_id":"4","last_reported":1750342206,"current_range_meters":9200,"station_id":"ce4bh3p2rcd13ifvqdp0","pricing_plan_id":"cebpf4jnsgd1na2vs0mg"},{"bike_id":"b4f51bf8-ddd6-421d-8dc7-8bbfdc6c1211","system_id":"levelo_inurba_marseille","lat":43.27376,"lon":5.36265,"is_reserved":false,"is_disabled":false,"rental_uris":{"android":"levelo://app?vid=b4f51bf8-ddd6-421d-8dc7-8bbfdc6c1211","ios":"levelo://app?vid=b4f51bf8-ddd6-421d-8dc7-8bbfdc6c1211"},"vehicle_type_id":"4","last_reported":1750342206,"current_range_meters":9200,"station_id":"ce4bhbh2rcd13ifvqeo0","pricing_plan_id":"cebpf4jnsgd1na2vs0mg"},{"bike_id":"cca449d7-da6a-414b-9a66-8848eb576fbb","system_id":"levelo_inurba_marseille","lat":43.28267,"lon":5.35062,"is_reserved":false,"is_disabled":false,"rental_uris":{"android":"levelo://app?vid=cca449d7-da6a-414b-9a66-8848eb576fbb","ios":"levelo://app?vid=cca449d7-da6a-414b-9a66-8848eb576fbb"},"vehicle_type_id":"4","last_reported":1750342206,"current_range_meters":9200,"station_id":"ce4bhbp2rcd13ifvqerg","pricing_plan_id":"cebpf4jnsgd1na2vs0mg"},{"bike_id":"e825c24d-3c57-4b34-a3a8-4cd97258cb14","system_id":"levelo_inurba_marseille","lat":43.2762,"lon":5.36101,"is_reserved":false,"is_disabled":false,"rental_uris":{"android":"levelo://app?vid=e825c24d-3c57-4b34-a3a8-4cd97258cb14","ios":"levelo://app?vid=e825c24d-3c57-4b34-a3a8-4cd97258cb14"},"vehicle_type_id":"4","last_reported":1750342206,"current_range_meters":9600,"station_id":"ce4bgj92rcd13ifvqbe0","pricing_plan_id":"cebpf4jnsgd1na2vs0mg"},{"bike_id":"e7a6ff5b-1602-4ec0-b7e4-11fd8b1fe087","system_id":"levelo_inurba_marseille","lat":43.28349,"lon":5.381,"is_reserved":false,"is_disabled":false,"rental_uris":{"android":"levelo://app?vid=e7a6ff5b-1602-4ec0-b7e4-11fd8b1fe087","ios":"levelo://app?vid=e7a6ff5b-1602-4ec0-b7e4-11fd8b1fe087"},"vehicle_type_id":"4","last_reported":1750342206,"current_range_meters":9600,"station_id":"ce4bh412rcd13ifvqdr0","pricing_plan_id":"cebpf4jnsgd1na2vs0mg"},{"bike_id":"8157647b-2312-412e-a389-12bdabca6e8c","system_id":"levelo_inurba_marseille","lat":43.281105,"lon":5.378081,"is_reserved":false,"is_disabled":false,"rental_uris":{"android":"levelo://app?vid=8157647b-2312-412e-a389-12bdabca6e8c","ios":"levelo://app?vid=8157647b-2312-412e-a389-12bdabca6e8c"},"vehicle_type_id":"4","last_reported":1750342206,"current_range_meters":9600,"station_id":"ce4bha12rcd13ifvqee0","pricing_plan_id":"cebpf4jnsgd1na2vs0mg"},{"bike_id":"d66d8b0f-d761-49b1-a8c0-07423a533969","system_id":"levelo_inurba_marseille","lat":43.26562,"lon":5.39022,"is_reserved":false,"is_disabled":false,"rental_uris":{"android":"levelo://app?vid=d66d8b0f-d761-49b1-a8c0-07423a533969","ios":"levelo://app?vid=d66d8b0f-d761-49b1-a8c0-07423a533969"},"vehicle_type_id":"4","last_reported":1750342206,"current_range_meters":9600,"station_id":"ce4bhe12rcd13ifvqf30","pricing_plan_id":"cebpf4jnsgd1na2vs0mg"},{"bike_id":"dfa2ca84-1cbe-4f06-a5ae-f435abb487e9","system_id":"levelo_inurba_marseille","lat":43.243975,"lon":5.371041,"is_reserved":false,"is_disabled":false,"rental_uris":{"android":"levelo://app?vid=dfa2ca84-1cbe-4f06-a5ae-f435abb487e9","ios":"levelo://app?vid=dfa2ca84-1cbe-4f06-a5ae-f435abb487e9"},"vehicle_type_id":"4","last_reported":1750342206,"current_range_meters":9600,"station_id":"ce4bhhh2rcd13ifvqfk0","pricing_plan_id":"cebpf4jnsgd1na2vs0mg"},{"bike_id":"edbe92b8-fdd1-4a43-9bbe-2a97207ea690","system_id":"levelo_inurba_marseille","lat":43.24391,"lon":5.37061,"is_reserved":false,"is_disabled":false,"rental_uris":{"android":"levelo://app?vid=edbe92b8-fdd1-4a43-9bbe-2a97207ea690","ios":"levelo://app?vid=edbe92b8-fdd1-4a43-9bbe-2a97207ea690"},"vehicle_type_id":"4","last_reported":1750342206,"current_range_meters":9600,"station_id":"ce4bhhh2rcd13ifvqfk0","pricing_plan_id":"cebpf4jnsgd1na2vs0mg"},{"bike_id":"ed723627-250a-4ca1-8a4f-9b1e6d3e53b9","system_id":"levelo_inurba_marseille","lat":43.26489,"lon":5.39542,"is_reserved":false,"is_disabled":false,"rental_uris":{"android":"levelo://app?vid=ed723627-250a-4ca1-8a4f-9b1e6d3e53b9","ios":"levelo://app?vid=ed723627-250a-4ca1-8a4f-9b1e6d3e53b9"},"vehicle_type_id":"4","last_reported":1750342206,"current_range_meters":9600,"station_id":"ce4bhi12rcd13ifvqfq0","pricing_plan_id":"cebpf4jnsgd1na2vs0mg"},{"bike_id":"aeeabfbc-db77-4ddd-9336-56c7fe5c91b4","system_id":"levelo_inurba_marseille","lat":43.2953,"lon":5.38543,"is_reserved":false,"is_disabled":false,"rental_uris":{"android":"levelo://app?vid=aeeabfbc-db77-4ddd-9336-56c7fe5c91b4","ios":"levelo://app?vid=aeeabfbc-db77-4ddd-9336-56c7fe5c91b4"},"vehicle_type_id":"4","last_reported":1750342206,"current_range_meters":10000,"station_id":"ce4bgih2rcd13ifvqba0","pricing_plan_id":"cebpf4jnsgd1na2vs0mg"},{"bike_id":"ec16ab3e-b664-4572-9432-15457882bc66","system_id":"levelo_inurba_marseille","lat":43.31219,"lon":5.36858,"is_reserved":false,"is_disabled":false,"rental_uris":{"android":"levelo://app?vid=ec16ab3e-b664-4572-9432-15457882bc66","ios":"levelo://app?vid=ec16ab3e-b664-4572-9432-15457882bc66"},"vehicle_type_id":"4","last_reported":1750342206,"current_range_meters":10000,"station_id":"ce4bgl92rcd13ifvqbq0","pricing_plan_id":"cebpf4jnsgd1na2vs0mg"},{"bike_id":"b0f733dc-a839-4989-90dd-21f466006a8d","system_id":"levelo_inurba_marseille","lat":43.30563,"lon":5.365549,"is_reserved":false,"is_disabled":false,"rental_uris":{"android":"levelo://app?vid=b0f733dc-a839-4989-90dd-21f466006a8d","ios":"levelo://app?vid=b0f733dc-a839-4989-90dd-21f466006a8d"},"vehicle_type_id":"4","last_reported":1750342206,"current_range_meters":10000,"station_id":"ce4bgt92rcd13ifvqcg0","pricing_plan_id":"cebpf4jnsgd1na2vs0mg"},{"bike_id":"ce5e882a-f212-46aa-bf85-72bb454f6fd7","system_id":"levelo_inurba_marseille","lat":43.311643,"lon":5.387217,"is_reserved":false,"is_disabled":false,"rental_uris":{"android":"levelo://app?vid=ce5e882a-f212-46aa-bf85-72bb454f6fd7","ios":"levelo://app?vid=ce5e882a-f212-46aa-bf85-72bb454f6fd7"},"vehicle_type_id":"4","last_reported":1750342206,"current_range_meters":10000,"station_id":"ce4bgv12rcd13ifvqcp0","pricing_plan_id":"cebpf4jnsgd1na2vs0mg"},{"bike_id":"197368d2-aec0-4973-b634-b2bc02bf6398","system_id":"levelo_inurba_marseille","lat":43.282684,"lon":5.350736,"is_reserved":false,"is_disabled":false,"rental_uris":{"android":"levelo://app?vid=197368d2-aec0-4973-b634-b2bc02bf6398","ios":"levelo://app?vid=197368d2-aec0-4973-b634-b2bc02bf6398"},"vehicle_type_id":"4","last_reported":1750342206,"current_range_meters":10000,"station_id":"ce4bhbp2rcd13ifvqerg","pricing_plan_id":"cebpf4jnsgd1na2vs0mg"},{"bike_id":"4fe86417-527a-403e-8cf9-f9af9cd84df4","system_id":"levelo_inurba_marseille","lat":43.2439,"lon":5.37071,"is_reserved":false,"is_disabled":false,"rental_uris":{"android":"levelo://app?vid=4fe86417-527a-403e-8cf9-f9af9cd84df4","ios":"levelo://app?vid=4fe86417-527a-403e-8cf9-f9af9cd84df4"},"vehicle_type_id":"4","last_reported":1750342206,"current_range_meters":10000,"station_id":"ce4bhhh2rcd13ifvqfk0","pricing_plan_id":"cebpf4jnsgd1na2vs0mg"},{"bike_id":"8dea601a-2ff6-4d1b-83da-2a5a677aa2d6","system_id":"levelo_inurba_marseille","lat":43.27167,"lon":5.40997,"is_reserved":false,"is_disabled":false,"rental_uris":{"android":"levelo://app?vid=8dea601a-2ff6-4d1b-83da-2a5a677aa2d6","ios":"levelo://app?vid=8dea601a-2ff6-4d1b-83da-2a5a677aa2d6"},"vehicle_type_id":"4","last_reported":1750342206,"current_range_meters":10000,"station_id":"ce4bhl12rcd13ifvqgf0","pricing_plan_id":"cebpf4jnsgd1na2vs0mg"},{"bike_id":"268aafb4-1331-426c-97bc-a7d6564caeb6","system_id":"levelo_inurba_marseille","lat":43.32933,"lon":5.37919,"is_reserved":false,"is_disabled":false,"rental_uris":{"android":"levelo://app?vid=268aafb4-1331-426c-97bc-a7d6564caeb6","ios":"levelo://app?vid=268aafb4-1331-426c-97bc-a7d6564caeb6"},"vehicle_type_id":"4","last_reported":1750342206,"current_range_meters":10800,"station_id":"","pricing_plan_id":"cebpf4jnsgd1na2vs0mg"},{"bike_id":"43e73870-2c0f-40e3-b0db-363099c20193","system_id":"levelo_inurba_marseille","lat":43.29787,"lon":5.38105,"is_reserved":false,"is_disabled":false,"rental_uris":{"android":"levelo://app?vid=43e73870-2c0f-40e3-b0db-363099c20193","ios":"levelo://app?vid=43e73870-2c0f-40e3-b0db-363099c20193"},"vehicle_type_id":"4","last_reported":1750342206,"current_range_meters":10800,"station_id":"ce4bgip2rcd13ifvqbb0","pricing_plan_id":"cebpf4jnsgd1na2vs0mg"},{"bike_id":"58992f5a-aa29-4b37-a105-f9e8fb301f10","system_id":"levelo_inurba_marseille","lat":43.31261,"lon":5.40166,"is_reserved":false,"is_disabled":false,"rental_uris":{"android":"levelo://app?vid=58992f5a-aa29-4b37-a105-f9e8fb301f10","ios":"levelo://app?vid=58992f5a-aa29-4b37-a105-f9e8fb301f10"},"vehicle_type_id":"4","last_reported":1750342206,"current_range_meters":10800,"station_id":"ce4bh092rcd13ifvqd30","pricing_plan_id":"cebpf4jnsgd1na2vs0mg"},{"bike_id":"ee08a826-ebce-4824-b93f-fc72453555e3","system_id":"levelo_inurba_marseille","lat":43.28676,"lon":5.38652,"is_reserved":false,"is_disabled":false,"rental_uris":{"android":"levelo://app?vid=ee08a826-ebce-4824-b93f-fc72453555e3","ios":"levelo://app?vid=ee08a826-ebce-4824-b93f-fc72453555e3"},"vehicle_type_id":"4","last_reported":1750342206,"current_range_meters":10800,"station_id":"ce4bh492rcd13ifvqdug","pricing_plan_id":"cebpf4jnsgd1na2vs0mg"},{"bike_id":"2e84c174-c769-49f6-9e32-4421d18e652a","system_id":"levelo_inurba_marseille","lat":43.267,"lon":5.38239,"is_reserved":false,"is_disabled":false,"rental_uris":{"android":"levelo://app?vid=2e84c174-c769-49f6-9e32-4421d18e652a","ios":"levelo://app?vid=2e84c174-c769-49f6-9e32-4421d18e652a"},"vehicle_type_id":"4","last_reported":1750342206,"current_range_meters":10800,"station_id":"ce4bhg92rcd13ifvqf90","pricing_plan_id":"cebpf4jnsgd1na2vs0mg"},{"bike_id":"3eb9992a-e24a-4ed3-bd44-5e035e6e973e","system_id":"levelo_inurba_marseille","lat":43.31283,"lon":5.37849,"is_reserved":false,"is_disabled":false,"rental_uris":{"android":"levelo://app?vid=3eb9992a-e24a-4ed3-bd44-5e035e6e973e","ios":"levelo://app?vid=3eb9992a-e24a-4ed3-bd44-5e035e6e973e"},"vehicle_type_id":"4","last_reported":1750342206,"current_range_meters":11200,"station_id":"","pricing_plan_id":"cebpf4jnsgd1na2vs0mg"},{"bike_id":"f025e0b0-8595-426c-b214-cb9b74c5fcfd","system_id":"levelo_inurba_marseille","lat":43.32191,"lon":5.40571,"is_reserved":false,"is_disabled":false,"rental_uris":{"android":"levelo://app?vid=f025e0b0-8595-426c-b214-cb9b74c5fcfd","ios":"levelo://app?vid=f025e0b0-8595-426c-b214-cb9b74c5fcfd"},"vehicle_type_id":"4","last_reported":1750342206,"current_range_meters":11200,"station_id":"","pricing_plan_id":"cebpf4jnsgd1na2vs0mg"},{"bike_id":"56fdfc4e-979c-4ed5-9885-57018d76de79","system_id":"levelo_inurba_marseille","lat":43.29349,"lon":5.42835,"is_reserved":false,"is_disabled":false,"rental_uris":{"android":"levelo://app?vid=56fdfc4e-979c-4ed5-9885-57018d76de79","ios":"levelo://app?vid=56fdfc4e-979c-4ed5-9885-57018d76de79"},"vehicle_type_id":"4","last_reported":1750342206,"current_range_meters":11200,"station_id":"","pricing_plan_id":"cebpf4jnsgd1na2vs0mg"},{"bike_id":"10a969ad-76ca-458b-83f0-9278b5030f8e","system_id":"levelo_inurba_marseille","lat":43.29012,"lon":5.38129,"is_reserved":false,"is_disabled":false,"rental_uris":{"android":"levelo://app?vid=10a969ad-76ca-458b-83f0-9278b5030f8e","ios":"levelo://app?vid=10a969ad-76ca-458b-83f0-9278b5030f8e"},"vehicle_type_id":"4","last_reported":1750342206,"current_range_meters":11200,"station_id":"ce4bh4p2rcd13ifvqe1g","pricing_plan_id":"cebpf4jnsgd1na2vs0mg"},{"bike_id":"ea967898-2e06-4fe3-9a27-c663bcb9c48d","system_id":"levelo_inurba_marseille","lat":43.2826,"lon":5.35075,"is_reserved":false,"is_disabled":false,"rental_uris":{"android":"levelo://app?vid=ea967898-2e06-4fe3-9a27-c663bcb9c48d","ios":"levelo://app?vid=ea967898-2e06-4fe3-9a27-c663bcb9c48d"},"vehicle_type_id":"4","last_reported":1750342206,"current_range_meters":11200,"station_id":"ce4bhbp2rcd13ifvqerg","pricing_plan_id":"cebpf4jnsgd1na2vs0mg"},{"bike_id":"6152ecca-7d40-44f6-9197-25ecaeaba3ce","system_id":"levelo_inurba_marseille","lat":43.24083,"lon":5.37754,"is_reserved":false,"is_disabled":false,"rental_uris":{"android":"levelo://app?vid=6152ecca-7d40-44f6-9197-25ecaeaba3ce","ios":"levelo://app?vid=6152ecca-7d40-44f6-9197-25ecaeaba3ce"},"vehicle_type_id":"4","last_reported":1750342206,"current_range_meters":11200,"station_id":"ce4bhnp2rcd13ifvqgvg","pricing_plan_id":"cebpf4jnsgd1na2vs0mg"},{"bike_id":"fe9e9cc0-81fc-4907-9f46-431454cd6151","system_id":"levelo_inurba_marseille","lat":43.29557,"lon":5.42295,"is_reserved":false,"is_disabled":false,"rental_uris":{"android":"levelo://app?vid=fe9e9cc0-81fc-4907-9f46-431454cd6151","ios":"levelo://app?vid=fe9e9cc0-81fc-4907-9f46-431454cd6151"},"vehicle_type_id":"4","last_reported":1750342206,"current_range_meters":11200,"station_id":"ce4bhph2rcd13ifvqhdg","pricing_plan_id":"cebpf4jnsgd1na2vs0mg"},{"bike_id":"3d4106c1-4821-4a69-a51c-a5919d3fd1be","system_id":"levelo_inurba_marseille","lat":43.2678,"lon":5.39488,"is_reserved":false,"is_disabled":false,"rental_uris":{"android":"levelo://app?vid=3d4106c1-4821-4a69-a51c-a5919d3fd1be","ios":"levelo://app?vid=3d4106c1-4821-4a69-a51c-a5919d3fd1be"},"vehicle_type_id":"4","last_reported":1750342206,"current_range_meters":11600,"station_id":"","pricing_plan_id":"cebpf4jnsgd1na2vs0mg"},{"bike_id":"4a9dccbf-5349-49cf-83a8-d2dcade9a12e","system_id":"levelo_inurba_marseille","lat":43.272066,"lon":5.391823,"is_reserved":false,"is_disabled":false,"rental_uris":{"android":"levelo://app?vid=4a9dccbf-5349-49cf-83a8-d2dcade9a12e","ios":"levelo://app?vid=4a9dccbf-5349-49cf-83a8-d2dcade9a12e"},"vehicle_type_id":"4","last_reported":1750342206,"current_range_meters":11600,"station_id":"","pricing_plan_id":"cebpf4jnsgd1na2vs0mg"},{"bike_id":"534efeb1-9846-4aee-8130-df4d28e740dd","system_id":"levelo_inurba_marseille","lat":43.2982,"lon":5.41633,"is_reserved":false,"is_disabled":false,"rental_uris":{"android":"levelo://app?vid=534efeb1-9846-4aee-8130-df4d28e740dd","ios":"levelo://app?vid=534efeb1-9846-4aee-8130-df4d28e740dd"},"vehicle_type_id":"4","last_reported":1750342206,"current_range_meters":11600,"station_id":"","pricing_plan_id":"cebpf4jnsgd1na2vs0mg"},{"bike_id":"0e048875-ca5c-437a-9bf6-3716b49dc0bb","system_id":"levelo_inurba_marseille","lat":43.30651,"lon":5.401,"is_reserved":false,"is_disabled":false,"rental_uris":{"android":"levelo://app?vid=0e048875-ca5c-437a-9bf6-3716b49dc0bb","ios":"levelo://app?vid=0e048875-ca5c-437a-9bf6-3716b49dc0bb"},"vehicle_type_id":"4","last_reported":1750342206,"current_range_meters":11600,"station_id":"ce4bh112rcd13ifvqda0","pricing_plan_id":"cebpf4jnsgd1na2vs0mg"},{"bike_id":"ea3b24f6-b55f-4629-9639-c9e7ae8adc06","system_id":"levelo_inurba_marseille","lat":43.27385,"lon":5.36254,"is_reserved":false,"is_disabled":false,"rental_uris":{"android":"levelo://app?vid=ea3b24f6-b55f-4629-9639-c9e7ae8adc06","ios":"levelo://app?vid=ea3b24f6-b55f-4629-9639-c9e7ae8adc06"},"vehicle_type_id":"4","last_reported":1750342206,"current_range_meters":11600,"station_id":"ce4bhbh2rcd13ifvqeo0","pricing_plan_id":"cebpf4jnsgd1na2vs0mg"},{"bike_id":"22b43b45-26b6-447c-9a75-f535ac2268d1","system_id":"levelo_inurba_marseille","lat":43.28416,"lon":5.35014,"is_reserved":false,"is_disabled":false,"rental_uris":{"android":"levelo://app?vid=22b43b45-26b6-447c-9a75-f535ac2268d1","ios":"levelo://app?vid=22b43b45-26b6-447c-9a75-f535ac2268d1"},"vehicle_type_id":"4","last_reported":1750342206,"current_range_meters":11600,"station_id":"ce4bhbh2rcd13ifvqepg","pricing_plan_id":"cebpf4jnsgd1na2vs0mg"},{"bike_id":"979c8a4d-836b-492f-af71-6e8b18249744","system_id":"levelo_inurba_marseille","lat":43.25719,"lon":5.41115,"is_reserved":false,"is_disabled":false,"rental_uris":{"android":"levelo://app?vid=979c8a4d-836b-492f-af71-6e8b18249744","ios":"levelo://app?vid=979c8a4d-836b-492f-af71-6e8b18249744"},"vehicle_type_id":"4","last_reported":1750342206,"current_range_meters":11600,"station_id":"ce4bhkp2rcd13ifvqgd0","pricing_plan_id":"cebpf4jnsgd1na2vs0mg"},{"bike_id":"3f740256-c4dd-4c99-9dd7-4545fd16128e","system_id":"levelo_inurba_marseille","lat":43.2417,"lon":5.364,"is_reserved":false,"is_disabled":false,"rental_uris":{"android":"levelo://app?vid=3f740256-c4dd-4c99-9dd7-4545fd16128e","ios":"levelo://app?vid=3f740256-c4dd-4c99-9dd7-4545fd16128e"},"vehicle_type_id":"4","last_reported":1750342206,"current_range_meters":11600,"station_id":"cpo36qri1sfpv3e86is0","pricing_plan_id":"cebpf4jnsgd1na2vs0mg"},{"bike_id":"1412b0bd-fc36-439c-8741-7f878f7476df","system_id":"levelo_inurba_marseille","lat":43.28261,"lon":5.35069,"is_reserved":false,"is_disabled":false,"rental_uris":{"android":"levelo://app?vid=1412b0bd-fc36-439c-8741-7f878f7476df","ios":"levelo://app?vid=1412b0bd-fc36-439c-8741-7f878f7476df"},"vehicle_type_id":"4","last_reported":1750342206,"current_range_meters":12000,"station_id":"ce4bhbp2rcd13ifvqerg","pricing_plan_id":"cebpf4jnsgd1na2vs0mg"},{"bike_id":"d6c8cc77-3cf5-4614-92f7-f843e1f78ac1","system_id":"levelo_inurba_marseille","lat":43.286157,"lon":5.35097,"is_reserved":false,"is_disabled":false,"rental_uris":{"android":"levelo://app?vid=d6c8cc77-3cf5-4614-92f7-f843e1f78ac1","ios":"levelo://app?vid=d6c8cc77-3cf5-4614-92f7-f843e1f78ac1"},"vehicle_type_id":"4","last_reported":1750342206,"current_range_meters":12000,"station_id":"ce4bhch2rcd13ifvqeug","pricing_plan_id":"cebpf4jnsgd1na2vs0mg"},{"bike_id":"58288d69-29e3-4080-92b4-86f4ac30b989","system_id":"levelo_inurba_marseille","lat":43.25824,"lon":5.39436,"is_reserved":false,"is_disabled":false,"rental_uris":{"android":"levelo://app?vid=58288d69-29e3-4080-92b4-86f4ac30b989","ios":"levelo://app?vid=58288d69-29e3-4080-92b4-86f4ac30b989"},"vehicle_type_id":"4","last_reported":1750342206,"current_range_meters":12000,"station_id":"ce4bhip2rcd13ifvqft0","pricing_plan_id":"cebpf4jnsgd1na2vs0mg"},{"bike_id":"c08ad108-377a-46e4-9d17-7d60f8482b6a","system_id":"levelo_inurba_marseille","lat":43.30415,"lon":5.4129,"is_reserved":false,"is_disabled":false,"rental_uris":{"android":"levelo://app?vid=c08ad108-377a-46e4-9d17-7d60f8482b6a","ios":"levelo://app?vid=c08ad108-377a-46e4-9d17-7d60f8482b6a"},"vehicle_type_id":"4","last_reported":1750342206,"current_range_meters":12000,"station_id":"ce4bhop2rcd13ifvqh8g","pricing_plan_id":"cebpf4jnsgd1na2vs0mg"},{"bike_id":"4541ba06-f29b-4eab-b31c-2b96fb91153f","system_id":"levelo_inurba_marseille","lat":43.31084,"lon":5.42433,"is_reserved":false,"is_disabled":false,"rental_uris":{"android":"levelo://app?vid=4541ba06-f29b-4eab-b31c-2b96fb91153f","ios":"levelo://app?vid=4541ba06-f29b-4eab-b31c-2b96fb91153f"},"vehicle_type_id":"4","last_reported":1750342206,"current_range_meters":12000,"station_id":"ce4bhp92rcd13ifvqhag","pricing_plan_id":"cebpf4jnsgd1na2vs0mg"},{"bike_id":"c67e415d-9e05-432d-bc6e-c2a8a0714194","system_id":"levelo_inurba_marseille","lat":43.29102,"lon":5.38121,"is_reserved":false,"is_disabled":false,"rental_uris":{"android":"levelo://app?vid=c67e415d-9e05-432d-bc6e-c2a8a0714194","ios":"levelo://app?vid=c67e415d-9e05-432d-bc6e-c2a8a0714194"},"vehicle_type_id":"4","last_reported":1750342206,"current_range_meters":12400,"station_id":"ce4bh512rcd13ifvqe2g","pricing_plan_id":"cebpf4jnsgd1na2vs0mg"},{"bike_id":"37a3b9f5-e3a5-4d2a-90d7-962a4f76cc56","system_id":"levelo_inurba_marseille","lat":43.28262,"lon":5.35067,"is_reserved":false,"is_disabled":false,"rental_uris":{"android":"levelo://app?vid=37a3b9f5-e3a5-4d2a-90d7-962a4f76cc56","ios":"levelo://app?vid=37a3b9f5-e3a5-4d2a-90d7-962a4f76cc56"},"vehicle_type_id":"4","last_reported":1750342206,"current_range_meters":12400,"station_id":"ce4bhbp2rcd13ifvqerg","pricing_plan_id":"cebpf4jnsgd1na2vs0mg"},{"bike_id":"d84b4acb-d4bf-4175-9185-70e02232c00e","system_id":"levelo_inurba_marseille","lat":43.2693,"lon":5.38914,"is_reserved":false,"is_disabled":false,"rental_uris":{"android":"levelo://app?vid=d84b4acb-d4bf-4175-9185-70e02232c00e","ios":"levelo://app?vid=d84b4acb-d4bf-4175-9185-70e02232c00e"},"vehicle_type_id":"4","last_reported":1750342206,"current_range_meters":12400,"station_id":"ce4bhhh2rcd13ifvqfl0","pricing_plan_id":"cebpf4jnsgd1na2vs0mg"},{"bike_id":"a378603d-da10-41a0-8ffe-df39b8b6e0a2","system_id":"levelo_inurba_marseille","lat":43.317573,"lon":5.390192,"is_reserved":false,"is_disabled":false,"rental_uris":{"android":"levelo://app?vid=a378603d-da10-41a0-8ffe-df39b8b6e0a2","ios":"levelo://app?vid=a378603d-da10-41a0-8ffe-df39b8b6e0a2"},"vehicle_type_id":"4","last_reported":1750342206,"current_range_meters":12400,"station_id":"ce4bhqp2rcd13ifvqhng","pricing_plan_id":"cebpf4jnsgd1na2vs0mg"},{"bike_id":"2c555767-5c9b-4c10-a745-6bbf5ccfa066","system_id":"levelo_inurba_marseille","lat":43.25399,"lon":5.37623,"is_reserved":false,"is_disabled":false,"rental_uris":{"android":"levelo://app?vid=2c555767-5c9b-4c10-a745-6bbf5ccfa066","ios":"levelo://app?vid=2c555767-5c9b-4c10-a745-6bbf5ccfa066"},"vehicle_type_id":"4","last_reported":1750342206,"current_range_meters":12800,"station_id":"","pricing_plan_id":"cebpf4jnsgd1na2vs0mg"},{"bike_id":"f22a4e09-6ce2-4dce-83b5-b13a30ff5f77","system_id":"levelo_inurba_marseille","lat":43.3024,"lon":5.38633,"is_reserved":false,"is_disabled":false,"rental_uris":{"android":"levelo://app?vid=f22a4e09-6ce2-4dce-83b5-b13a30ff5f77","ios":"levelo://app?vid=f22a4e09-6ce2-4dce-83b5-b13a30ff5f77"},"vehicle_type_id":"4","last_reported":1750342206,"current_range_meters":12800,"station_id":"","pricing_plan_id":"cebpf4jnsgd1na2vs0mg"},{"bike_id":"76de54b5-f37b-4b08-b8b1-6aac519d72ab","system_id":"levelo_inurba_marseille","lat":43.26196,"lon":5.37446,"is_reserved":false,"is_disabled":false,"rental_uris":{"android":"levelo://app?vid=76de54b5-f37b-4b08-b8b1-6aac519d72ab","ios":"levelo://app?vid=76de54b5-f37b-4b08-b8b1-6aac519d72ab"},"vehicle_type_id":"4","last_reported":1750342206,"current_range_meters":12800,"station_id":"ce4bhgp2rcd13ifvqfc0","pricing_plan_id":"cebpf4jnsgd1na2vs0mg"},{"bike_id":"5ed6bed3-531e-485b-a898-28852488d185","system_id":"levelo_inurba_marseille","lat":43.2316,"lon":5.4374,"is_reserved":false,"is_disabled":false,"rental_uris":{"android":"levelo://app?vid=5ed6bed3-531e-485b-a898-28852488d185","ios":"levelo://app?vid=5ed6bed3-531e-485b-a898-28852488d185"},"vehicle_type_id":"4","last_reported":1750342206,"current_range_meters":12800,"station_id":"ce4bhmp2rcd13ifvqgog","pricing_plan_id":"cebpf4jnsgd1na2vs0mg"},{"bike_id":"120313ea-a70f-48d0-90eb-072fcb2d4cd7","system_id":"levelo_inurba_marseille","lat":43.33739,"lon":5.39193,"is_reserved":false,"is_disabled":false,"rental_uris":{"android":"levelo://app?vid=120313ea-a70f-48d0-90eb-072fcb2d4cd7","ios":"levelo://app?vid=120313ea-a70f-48d0-90eb-072fcb2d4cd7"},"vehicle_type_id":"4","last_reported":1750342206,"current_range_meters":12800,"station_id":"ce4bhr92rcd13ifvqhsg","pricing_plan_id":"cebpf4jnsgd1na2vs0mg"},{"bike_id":"fe9f0b73-9819-4feb-b41d-82be4281b970","system_id":"levelo_inurba_marseille","lat":43.32894,"lon":5.39067,"is_reserved":false,"is_disabled":false,"rental_uris":{"android":"levelo://app?vid=fe9f0b73-9819-4feb-b41d-82be4281b970","ios":"levelo://app?vid=fe9f0b73-9819-4feb-b41d-82be4281b970"},"vehicle_type_id":"4","last_reported":1750342206,"current_range_meters":13600,"station_id":"","pricing_plan_id":"cebpf4jnsgd1na2vs0mg"},{"bike_id":"df77b6d2-6834-4a44-a94b-20f11853c902","system_id":"levelo_inurba_marseille","lat":43.28415,"lon":5.35006,"is_reserved":false,"is_disabled":false,"rental_uris":{"android":"levelo://app?vid=df77b6d2-6834-4a44-a94b-20f11853c902","ios":"levelo://app?vid=df77b6d2-6834-4a44-a94b-20f11853c902"},"vehicle_type_id":"4","last_reported":1750342206,"current_range_meters":13600,"station_id":"ce4bhbh2rcd13ifvqepg","pricing_plan_id":"cebpf4jnsgd1na2vs0mg"},{"bike_id":"7e0d7199-4e3a-443e-838e-94c23b68a2c0","system_id":"levelo_inurba_marseille","lat":43.3018,"lon":5.36618,"is_reserved":false,"is_disabled":false,"rental_uris":{"android":"levelo://app?vid=7e0d7199-4e3a-443e-838e-94c23b68a2c0","ios":"levelo://app?vid=7e0d7199-4e3a-443e-838e-94c23b68a2c0"},"vehicle_type_id":"4","last_reported":1750342206,"current_range_meters":14000,"station_id":"ce4bgrh2rcd13ifvqc8g","pricing_plan_id":"cebpf4jnsgd1na2vs0mg"},{"bike_id":"70083776-afc4-42b4-8ebe-95815720e050","system_id":"levelo_inurba_marseille","lat":43.28411,"lon":5.34998,"is_reserved":false,"is_disabled":false,"rental_uris":{"android":"levelo://app?vid=70083776-afc4-42b4-8ebe-95815720e050","ios":"levelo://app?vid=70083776-afc4-42b4-8ebe-95815720e050"},"vehicle_type_id":"4","last_reported":1750342206,"current_range_meters":14000,"station_id":"ce4bhbh2rcd13ifvqepg","pricing_plan_id":"cebpf4jnsgd1na2vs0mg"},{"bike_id":"4e843060-018f-4f9f-97c4-3e11f372dca1","system_id":"levelo_inurba_marseille","lat":43.24727,"lon":5.4117,"is_reserved":false,"is_disabled":false,"rental_uris":{"android":"levelo://app?vid=4e843060-018f-4f9f-97c4-3e11f372dca1","ios":"levelo://app?vid=4e843060-018f-4f9f-97c4-3e11f372dca1"},"vehicle_type_id":"4","last_reported":1750342206,"current_range_meters":14400,"station_id":"","pricing_plan_id":"cebpf4jnsgd1na2vs0mg"},{"bike_id":"5f734162-6db6-4433-a672-3dc3b296055f","system_id":"levelo_inurba_marseille","lat":43.31684,"lon":5.4047,"is_reserved":false,"is_disabled":false,"rental_uris":{"android":"levelo://app?vid=5f734162-6db6-4433-a672-3dc3b296055f","ios":"levelo://app?vid=5f734162-6db6-4433-a672-3dc3b296055f"},"vehicle_type_id":"4","last_reported":1750342206,"current_range_meters":14400,"station_id":"ce4bh012rcd13ifvqd00","pricing_plan_id":"cebpf4jnsgd1na2vs0mg"},{"bike_id":"31f6d8c2-c2ea-4de5-a424-ab0128b0004e","system_id":"levelo_inurba_marseille","lat":43.26054,"lon":5.394,"is_reserved":false,"is_disabled":false,"rental_uris":{"android":"levelo://app?vid=31f6d8c2-c2ea-4de5-a424-ab0128b0004e","ios":"levelo://app?vid=31f6d8c2-c2ea-4de5-a424-ab0128b0004e"},"vehicle_type_id":"4","last_reported":1750342206,"current_range_meters":14400,"station_id":"ce4bhh92rcd13ifvqfj0","pricing_plan_id":"cebpf4jnsgd1na2vs0mg"},{"bike_id":"7e13585d-3707-4a1e-a4aa-708d13598055","system_id":"levelo_inurba_marseille","lat":43.23961,"lon":5.36642,"is_reserved":false,"is_disabled":false,"rental_uris":{"android":"levelo://app?vid=7e13585d-3707-4a1e-a4aa-708d13598055","ios":"levelo://app?vid=7e13585d-3707-4a1e-a4aa-708d13598055"},"vehicle_type_id":"4","last_reported":1750342206,"current_range_meters":14400,"station_id":"ce4bhi12rcd13ifvqfp0","pricing_plan_id":"cebpf4jnsgd1na2vs0mg"},{"bike_id":"bb1a5c0e-eee8-4734-8767-a2ca65052572","system_id":"levelo_inurba_marseille","lat":43.29628,"lon":5.40597,"is_reserved":false,"is_disabled":false,"rental_uris":{"android":"levelo://app?vid=bb1a5c0e-eee8-4734-8767-a2ca65052572","ios":"levelo://app?vid=bb1a5c0e-eee8-4734-8767-a2ca65052572"},"vehicle_type_id":"4","last_reported":1750342206,"current_range_meters":14800,"station_id":"ce4bh0h2rcd13ifvqd60","pricing_plan_id":"cebpf4jnsgd1na2vs0mg"},{"bike_id":"964aebc2-8e17-4ea5-a73b-ee06b38eaa19","system_id":"levelo_inurba_marseille","lat":43.29031,"lon":5.38651,"is_reserved":false,"is_disabled":false,"rental_uris":{"android":"levelo://app?vid=964aebc2-8e17-4ea5-a73b-ee06b38eaa19","ios":"levelo://app?vid=964aebc2-8e17-4ea5-a73b-ee06b38eaa19"},"vehicle_type_id":"4","last_reported":1750342206,"current_range_meters":14800,"station_id":"ce4bh4p2rcd13ifvqe0g","pricing_plan_id":"cebpf4jnsgd1na2vs0mg"},{"bike_id":"7c511433-dcbf-4b6f-82e9-313fc4eaf04d","system_id":"levelo_inurba_marseille","lat":43.29036,"lon":5.37574,"is_reserved":false,"is_disabled":false,"rental_uris":{"android":"levelo://app?vid=7c511433-dcbf-4b6f-82e9-313fc4eaf04d","ios":"levelo://app?vid=7c511433-dcbf-4b6f-82e9-313fc4eaf04d"},"vehicle_type_id":"4","last_reported":1750342206,"current_range_meters":14800,"station_id":"ce4bh692rcd13ifvqe90","pricing_plan_id":"cebpf4jnsgd1na2vs0mg"},{"bike_id":"2a448752-8c54-4fef-951d-cf24e12d2d9e","system_id":"levelo_inurba_marseille","lat":43.27387,"lon":5.36269,"is_reserved":false,"is_disabled":false,"rental_uris":{"android":"levelo://app?vid=2a448752-8c54-4fef-951d-cf24e12d2d9e","ios":"levelo://app?vid=2a448752-8c54-4fef-951d-cf24e12d2d9e"},"vehicle_type_id":"4","last_reported":1750342206,"current_range_meters":14800,"station_id":"ce4bhbh2rcd13ifvqeo0","pricing_plan_id":"cebpf4jnsgd1na2vs0mg"},{"bike_id":"5df7ac8f-605a-408a-b800-817ab0479d44","system_id":"levelo_inurba_marseille","lat":43.27362,"lon":5.3622,"is_reserved":false,"is_disabled":false,"rental_uris":{"android":"levelo://app?vid=5df7ac8f-605a-408a-b800-817ab0479d44","ios":"levelo://app?vid=5df7ac8f-605a-408a-b800-817ab0479d44"},"vehicle_type_id":"4","last_reported":1750342206,"current_range_meters":14800,"station_id":"ce4bhbh2rcd13ifvqeo0","pricing_plan_id":"cebpf4jnsgd1na2vs0mg"},{"bike_id":"e363306f-53a7-42d8-a215-bdbce499e1dd","system_id":"levelo_inurba_marseille","lat":43.28412,"lon":5.34988,"is_reserved":false,"is_disabled":false,"rental_uris":{"android":"levelo://app?vid=e363306f-53a7-42d8-a215-bdbce499e1dd","ios":"levelo://app?vid=e363306f-53a7-42d8-a215-bdbce499e1dd"},"vehicle_type_id":"4","last_reported":1750342206,"current_range_meters":14800,"station_id":"ce4bhbh2rcd13ifvqepg","pricing_plan_id":"cebpf4jnsgd1na2vs0mg"},{"bike_id":"2474747c-358c-4b47-bc91-3aa97484f766","system_id":"levelo_inurba_marseille","lat":43.28261,"lon":5.35072,"is_reserved":false,"is_disabled":false,"rental_uris":{"android":"levelo://app?vid=2474747c-358c-4b47-bc91-3aa97484f766","ios":"levelo://app?vid=2474747c-358c-4b47-bc91-3aa97484f766"},"vehicle_type_id":"4","last_reported":1750342206,"current_range_meters":14800,"station_id":"ce4bhbp2rcd13ifvqerg","pricing_plan_id":"cebpf4jnsgd1na2vs0mg"},{"bike_id":"d7a7c834-d6f7-4fed-bdb9-b0cadc1d3dfd","system_id":"levelo_inurba_marseille","lat":43.25931,"lon":5.40881,"is_reserved":false,"is_disabled":false,"rental_uris":{"android":"levelo://app?vid=d7a7c834-d6f7-4fed-bdb9-b0cadc1d3dfd","ios":"levelo://app?vid=d7a7c834-d6f7-4fed-bdb9-b0cadc1d3dfd"},"vehicle_type_id":"4","last_reported":1750342206,"current_range_meters":14800,"station_id":"ce4bhm92rcd13ifvqglg","pricing_plan_id":"cebpf4jnsgd1na2vs0mg"},{"bike_id":"f4dd3eb1-7e82-4c26-b698-3c2a1ed42096","system_id":"levelo_inurba_marseille","lat":43.23177,"lon":5.3555,"is_reserved":false,"is_disabled":false,"rental_uris":{"android":"levelo://app?vid=f4dd3eb1-7e82-4c26-b698-3c2a1ed42096","ios":"levelo://app?vid=f4dd3eb1-7e82-4c26-b698-3c2a1ed42096"},"vehicle_type_id":"4","last_reported":1750342206,"current_range_meters":14800,"station_id":"ce4bhu92rcd13ifvqi70","pricing_plan_id":"cebpf4jnsgd1na2vs0mg"},{"bike_id":"93221c99-3ba7-430e-a2ff-dca6d9151327","system_id":"levelo_inurba_marseille","lat":43.282654,"lon":5.350596,"is_reserved":false,"is_disabled":false,"rental_uris":{"android":"levelo://app?vid=93221c99-3ba7-430e-a2ff-dca6d9151327","ios":"levelo://app?vid=93221c99-3ba7-430e-a2ff-dca6d9151327"},"vehicle_type_id":"4","last_reported":1750342206,"current_range_meters":15200,"station_id":"ce4bhbp2rcd13ifvqerg","pricing_plan_id":"cebpf4jnsgd1na2vs0mg"},{"bike_id":"7db1f68d-bb80-4a3f-8f80-3eee934838e9","system_id":"levelo_inurba_marseille","lat":43.2762,"lon":5.36111,"is_reserved":false,"is_disabled":false,"rental_uris":{"android":"levelo://app?vid=7db1f68d-bb80-4a3f-8f80-3eee934838e9","ios":"levelo://app?vid=7db1f68d-bb80-4a3f-8f80-3eee934838e9"},"vehicle_type_id":"4","last_reported":1750342206,"current_range_meters":16000,"station_id":"ce4bgj92rcd13ifvqbe0","pricing_plan_id":"cebpf4jnsgd1na2vs0mg"},{"bike_id":"bfa70356-e334-4d3b-96b6-5a4c919e35ab","system_id":"levelo_inurba_marseille","lat":43.30799,"lon":5.38161,"is_reserved":false,"is_disabled":false,"rental_uris":{"android":"levelo://app?vid=bfa70356-e334-4d3b-96b6-5a4c919e35ab","ios":"levelo://app?vid=bfa70356-e334-4d3b-96b6-5a4c919e35ab"},"vehicle_type_id":"4","last_reported":1750342206,"current_range_meters":16000,"station_id":"ce4bgt12rcd13ifvqce0","pricing_plan_id":"cebpf4jnsgd1na2vs0mg"},{"bike_id":"a9a99511-61a8-4890-8915-7e87b20c150d","system_id":"levelo_inurba_marseille","lat":43.282654,"lon":5.350736,"is_reserved":false,"is_disabled":false,"rental_uris":{"android":"levelo://app?vid=a9a99511-61a8-4890-8915-7e87b20c150d","ios":"levelo://app?vid=a9a99511-61a8-4890-8915-7e87b20c150d"},"vehicle_type_id":"4","last_reported":1750342206,"current_range_meters":16000,"station_id":"ce4bhbp2rcd13ifvqerg","pricing_plan_id":"cebpf4jnsgd1na2vs0mg"},{"bike_id":"cbce4f40-db88-4620-84db-4230202239d6","system_id":"levelo_inurba_marseille","lat":43.30946,"lon":5.36845,"is_reserved":false,"is_disabled":false,"rental_uris":{"android":"levelo://app?vid=cbce4f40-db88-4620-84db-4230202239d6","ios":"levelo://app?vid=cbce4f40-db88-4620-84db-4230202239d6"},"vehicle_type_id":"4","last_reported":1750342206,"current_range_meters":16400,"station_id":"","pricing_plan_id":"cebpf4jnsgd1na2vs0mg"},{"bike_id":"54bbaa15-050c-4526-b172-09f06af97620","system_id":"levelo_inurba_marseille","lat":43.28429,"lon":5.35036,"is_reserved":false,"is_disabled":false,"rental_uris":{"android":"levelo://app?vid=54bbaa15-050c-4526-b172-09f06af97620","ios":"levelo://app?vid=54bbaa15-050c-4526-b172-09f06af97620"},"vehicle_type_id":"4","last_reported":1750342206,"current_range_meters":16400,"station_id":"","pricing_plan_id":"cebpf4jnsgd1na2vs0mg"},{"bike_id":"4e8f8ad8-e1d2-448e-a161-5f635d00b8ae","system_id":"levelo_inurba_marseille","lat":43.29876,"lon":5.38902,"is_reserved":false,"is_disabled":false,"rental_uris":{"android":"levelo://app?vid=4e8f8ad8-e1d2-448e-a161-5f635d00b8ae","ios":"levelo://app?vid=4e8f8ad8-e1d2-448e-a161-5f635d00b8ae"},"vehicle_type_id":"4","last_reported":1750342206,"current_range_meters":16400,"station_id":"ce4bh392rcd13ifvqdl0","pricing_plan_id":"cebpf4jnsgd1na2vs0mg"},{"bike_id":"5c17f474-67ea-463c-abb4-6621c8a461db","system_id":"levelo_inurba_marseille","lat":43.28418,"lon":5.34952,"is_reserved":false,"is_disabled":false,"rental_uris":{"android":"levelo://app?vid=5c17f474-67ea-463c-abb4-6621c8a461db","ios":"levelo://app?vid=5c17f474-67ea-463c-abb4-6621c8a461db"},"vehicle_type_id":"4","last_reported":1750342206,"current_range_meters":16400,"station_id":"ce4bhbh2rcd13ifvqepg","pricing_plan_id":"cebpf4jnsgd1na2vs0mg"},{"bike_id":"e3546a1e-8b30-4e13-835e-c4e72ed1e705","system_id":"levelo_inurba_marseille","lat":43.28267,"lon":5.35077,"is_reserved":false,"is_disabled":false,"rental_uris":{"android":"levelo://app?vid=e3546a1e-8b30-4e13-835e-c4e72ed1e705","ios":"levelo://app?vid=e3546a1e-8b30-4e13-835e-c4e72ed1e705"},"vehicle_type_id":"4","last_reported":1750342206,"current_range_meters":16400,"station_id":"ce4bhbp2rcd13ifvqerg","pricing_plan_id":"cebpf4jnsgd1na2vs0mg"},{"bike_id":"c6ecf7a1-288f-4efc-aad1-a4b59d2da061","system_id":"levelo_inurba_marseille","lat":43.3416,"lon":5.40914,"is_reserved":false,"is_disabled":false,"rental_uris":{"android":"levelo://app?vid=c6ecf7a1-288f-4efc-aad1-a4b59d2da061","ios":"levelo://app?vid=c6ecf7a1-288f-4efc-aad1-a4b59d2da061"},"vehicle_type_id":"4","last_reported":1750342206,"current_range_meters":16400,"station_id":"ce4bhqh2rcd13ifvqhlg","pricing_plan_id":"cebpf4jnsgd1na2vs0mg"},{"bike_id":"dc39e9df-7330-4303-9cdd-6bb46e47798c","system_id":"levelo_inurba_marseille","lat":43.23086,"lon":5.3547,"is_reserved":false,"is_disabled":false,"rental_uris":{"android":"levelo://app?vid=dc39e9df-7330-4303-9cdd-6bb46e47798c","ios":"levelo://app?vid=dc39e9df-7330-4303-9cdd-6bb46e47798c"},"vehicle_type_id":"4","last_reported":1750342206,"current_range_meters":16400,"station_id":"cpo3342slgdg3j2ifvpg","pricing_plan_id":"cebpf4jnsgd1na2vs0mg"},{"bike_id":"a0d02667-b6f5-4e5b-9154-0bb69c0f8dff","system_id":"levelo_inurba_marseille","lat":43.30537,"lon":5.36711,"is_reserved":false,"is_disabled":false,"rental_uris":{"android":"levelo://app?vid=a0d02667-b6f5-4e5b-9154-0bb69c0f8dff","ios":"levelo://app?vid=a0d02667-b6f5-4e5b-9154-0bb69c0f8dff"},"vehicle_type_id":"4","last_reported":1750342206,"current_range_meters":16800,"station_id":"ce4bgrp2rcd13ifvqc9g","pricing_plan_id":"cebpf4jnsgd1na2vs0mg"},{"bike_id":"fe75accb-bd3a-4946-b9b9-4541e6661814","system_id":"levelo_inurba_marseille","lat":43.2738,"lon":5.36259,"is_reserved":false,"is_disabled":false,"rental_uris":{"android":"levelo://app?vid=fe75accb-bd3a-4946-b9b9-4541e6661814","ios":"levelo://app?vid=fe75accb-bd3a-4946-b9b9-4541e6661814"},"vehicle_type_id":"4","last_reported":1750342206,"current_range_meters":16800,"station_id":"ce4bhbh2rcd13ifvqeo0","pricing_plan_id":"cebpf4jnsgd1na2vs0mg"},{"bike_id":"c08ce5b0-7b02-4204-a925-87c16aedeea6","system_id":"levelo_inurba_marseille","lat":43.28258,"lon":5.35068,"is_reserved":false,"is_disabled":false,"rental_uris":{"android":"levelo://app?vid=c08ce5b0-7b02-4204-a925-87c16aedeea6","ios":"levelo://app?vid=c08ce5b0-7b02-4204-a925-87c16aedeea6"},"vehicle_type_id":"4","last_reported":1750342206,"current_range_meters":16800,"station_id":"ce4bhbp2rcd13ifvqerg","pricing_plan_id":"cebpf4jnsgd1na2vs0mg"},{"bike_id":"856f5a4d-2b8f-4253-9170-1b53a0356e6b","system_id":"levelo_inurba_marseille","lat":43.29163,"lon":5.38605,"is_reserved":false,"is_disabled":false,"rental_uris":{"android":"levelo://app?vid=856f5a4d-2b8f-4253-9170-1b53a0356e6b","ios":"levelo://app?vid=856f5a4d-2b8f-4253-9170-1b53a0356e6b"},"vehicle_type_id":"4","last_reported":1750342206,"current_range_meters":17200,"station_id":"","pricing_plan_id":"cebpf4jnsgd1na2vs0mg"},{"bike_id":"e49879e6-0e44-4e8d-aff8-5bc0e21e138b","system_id":"levelo_inurba_marseille","lat":43.312096,"lon":5.368293,"is_reserved":false,"is_disabled":false,"rental_uris":{"android":"levelo://app?vid=e49879e6-0e44-4e8d-aff8-5bc0e21e138b","ios":"levelo://app?vid=e49879e6-0e44-4e8d-aff8-5bc0e21e138b"},"vehicle_type_id":"4","last_reported":1750342206,"current_range_meters":17200,"station_id":"ce4bgl92rcd13ifvqbq0","pricing_plan_id":"cebpf4jnsgd1na2vs0mg"},{"bike_id":"eb0ba004-427f-4de2-93e3-f6bb4ddae61a","system_id":"levelo_inurba_marseille","lat":43.30285,"lon":5.37709,"is_reserved":false,"is_disabled":false,"rental_uris":{"android":"levelo://app?vid=eb0ba004-427f-4de2-93e3-f6bb4ddae61a","ios":"levelo://app?vid=eb0ba004-427f-4de2-93e3-f6bb4ddae61a"},"vehicle_type_id":"4","last_reported":1750342206,"current_range_meters":17200,"station_id":"ce4bguh2rcd13ifvqcj0","pricing_plan_id":"cebpf4jnsgd1na2vs0mg"},{"bike_id":"bae8d7db-8cfd-4cec-a975-665b0c8785e2","system_id":"levelo_inurba_marseille","lat":43.28259,"lon":5.35072,"is_reserved":false,"is_disabled":false,"rental_uris":{"android":"levelo://app?vid=bae8d7db-8cfd-4cec-a975-665b0c8785e2","ios":"levelo://app?vid=bae8d7db-8cfd-4cec-a975-665b0c8785e2"},"vehicle_type_id":"4","last_reported":1750342206,"current_range_meters":17200,"station_id":"ce4bhbp2rcd13ifvqerg","pricing_plan_id":"cebpf4jnsgd1na2vs0mg"},{"bike_id":"8d0cff53-1478-41dd-a2ef-2ae6e9e9bd2b","system_id":"levelo_inurba_marseille","lat":43.278317,"lon":5.39202,"is_reserved":false,"is_disabled":false,"rental_uris":{"android":"levelo://app?vid=8d0cff53-1478-41dd-a2ef-2ae6e9e9bd2b","ios":"levelo://app?vid=8d0cff53-1478-41dd-a2ef-2ae6e9e9bd2b"},"vehicle_type_id":"4","last_reported":1750342206,"current_range_meters":17200,"station_id":"ce4bhjp2rcd13ifvqga0","pricing_plan_id":"cebpf4jnsgd1na2vs0mg"},{"bike_id":"e3430d0a-34a6-427c-a4ff-2edf10077051","system_id":"levelo_inurba_marseille","lat":43.25709,"lon":5.41098,"is_reserved":false,"is_disabled":false,"rental_uris":{"android":"levelo://app?vid=e3430d0a-34a6-427c-a4ff-2edf10077051","ios":"levelo://app?vid=e3430d0a-34a6-427c-a4ff-2edf10077051"},"vehicle_type_id":"4","last_reported":1750342206,"current_range_meters":17200,"station_id":"ce4bhkp2rcd13ifvqgd0","pricing_plan_id":"cebpf4jnsgd1na2vs0mg"},{"bike_id":"7b9aea3b-1043-4259-8cc8-b88764001cb4","system_id":"levelo_inurba_marseille","lat":43.23148,"lon":5.43726,"is_reserved":false,"is_disabled":false,"rental_uris":{"android":"levelo://app?vid=7b9aea3b-1043-4259-8cc8-b88764001cb4","ios":"levelo://app?vid=7b9aea3b-1043-4259-8cc8-b88764001cb4"},"vehicle_type_id":"4","last_reported":1750342206,"current_range_meters":17200,"station_id":"ce4bhmp2rcd13ifvqgog","pricing_plan_id":"cebpf4jnsgd1na2vs0mg"},{"bike_id":"7e65b096-aa08-41c8-9b2a-e94078d8b578","system_id":"levelo_inurba_marseille","lat":43.21211,"lon":5.35106,"is_reserved":false,"is_disabled":false,"rental_uris":{"android":"levelo://app?vid=7e65b096-aa08-41c8-9b2a-e94078d8b578","ios":"levelo://app?vid=7e65b096-aa08-41c8-9b2a-e94078d8b578"},"vehicle_type_id":"4","last_reported":1750342206,"current_range_meters":17200,"station_id":"st_cvj6sg6p6f1abm77japg","pricing_plan_id":"cebpf4jnsgd1na2vs0mg"},{"bike_id":"b9c6eeab-051f-43a6-87cb-bd45214fca77","system_id":"levelo_inurba_marseille","lat":43.29743,"lon":5.37729,"is_reserved":false,"is_disabled":false,"rental_uris":{"android":"levelo://app?vid=b9c6eeab-051f-43a6-87cb-bd45214fca77","ios":"levelo://app?vid=b9c6eeab-051f-43a6-87cb-bd45214fca77"},"vehicle_type_id":"4","last_reported":1750342206,"current_range_meters":17600,"station_id":"ce4bgkh2rcd13ifvqbl0","pricing_plan_id":"cebpf4jnsgd1na2vs0mg"},{"bike_id":"7e6595c7-01ed-4204-9783-5e2fad806398","system_id":"levelo_inurba_marseille","lat":43.28463,"lon":5.35887,"is_reserved":false,"is_disabled":false,"rental_uris":{"android":"levelo://app?vid=7e6595c7-01ed-4204-9783-5e2fad806398","ios":"levelo://app?vid=7e6595c7-01ed-4204-9783-5e2fad806398"},"vehicle_type_id":"4","last_reported":1750342206,"current_range_meters":17600,"station_id":"ce4bhah2rcd13ifvqei0","pricing_plan_id":"cebpf4jnsgd1na2vs0mg"},{"bike_id":"b5f8fbad-9030-48a5-8763-273180c6bf2f","system_id":"levelo_inurba_marseille","lat":43.23963,"lon":5.36626,"is_reserved":false,"is_disabled":false,"rental_uris":{"android":"levelo://app?vid=b5f8fbad-9030-48a5-8763-273180c6bf2f","ios":"levelo://app?vid=b5f8fbad-9030-48a5-8763-273180c6bf2f"},"vehicle_type_id":"4","last_reported":1750342206,"current_range_meters":17600,"station_id":"ce4bhi12rcd13ifvqfp0","pricing_plan_id":"cebpf4jnsgd1na2vs0mg"},{"bike_id":"3b9bdf8e-1b5f-44fb-b03e-73c4a4a0f72c","system_id":"levelo_inurba_marseille","lat":43.3176,"lon":5.3902,"is_reserved":false,"is_disabled":false,"rental_uris":{"android":"levelo://app?vid=3b9bdf8e-1b5f-44fb-b03e-73c4a4a0f72c","ios":"levelo://app?vid=3b9bdf8e-1b5f-44fb-b03e-73c4a4a0f72c"},"vehicle_type_id":"4","last_reported":1750342206,"current_range_meters":17600,"station_id":"ce4bhqp2rcd13ifvqhng","pricing_plan_id":"cebpf4jnsgd1na2vs0mg"},{"bike_id":"2a056024-9671-4c97-a958-ddfbf02c87b9","system_id":"levelo_inurba_marseille","lat":43.32358,"lon":5.38876,"is_reserved":false,"is_disabled":false,"rental_uris":{"android":"levelo://app?vid=2a056024-9671-4c97-a958-ddfbf02c87b9","ios":"levelo://app?vid=2a056024-9671-4c97-a958-ddfbf02c87b9"},"vehicle_type_id":"4","last_reported":1750342206,"current_range_meters":17600,"station_id":"ce4bhqp2rcd13ifvqhog","pricing_plan_id":"cebpf4jnsgd1na2vs0mg"},{"bike_id":"02446148-c9f7-4f78-b18f-149730da9a75","system_id":"levelo_inurba_marseille","lat":43.231967,"lon":5.355562,"is_reserved":false,"is_disabled":false,"rental_uris":{"android":"levelo://app?vid=02446148-c9f7-4f78-b18f-149730da9a75","ios":"levelo://app?vid=02446148-c9f7-4f78-b18f-149730da9a75"},"vehicle_type_id":"4","last_reported":1750342206,"current_range_meters":17600,"station_id":"ce4bhu92rcd13ifvqi70","pricing_plan_id":"cebpf4jnsgd1na2vs0mg"},{"bike_id":"4ce5b165-f22d-40cf-abd3-1cb294861955","system_id":"levelo_inurba_marseille","lat":43.211923,"lon":5.35079,"is_reserved":false,"is_disabled":false,"rental_uris":{"android":"levelo://app?vid=4ce5b165-f22d-40cf-abd3-1cb294861955","ios":"levelo://app?vid=4ce5b165-f22d-40cf-abd3-1cb294861955"},"vehicle_type_id":"4","last_reported":1750342206,"current_range_meters":18000,"station_id":"","pricing_plan_id":"cebpf4jnsgd1na2vs0mg"},{"bike_id":"42479a2c-97e5-49e7-a7e8-60694666891b","system_id":"levelo_inurba_marseille","lat":43.30149,"lon":5.38078,"is_reserved":false,"is_disabled":false,"rental_uris":{"android":"levelo://app?vid=42479a2c-97e5-49e7-a7e8-60694666891b","ios":"levelo://app?vid=42479a2c-97e5-49e7-a7e8-60694666891b"},"vehicle_type_id":"4","last_reported":1750342206,"current_range_meters":18000,"station_id":"ce4bgjp2rcd13ifvqbh0","pricing_plan_id":"cebpf4jnsgd1na2vs0mg"},{"bike_id":"2efe0a10-f93f-4584-92dc-4100ffa6186c","system_id":"levelo_inurba_marseille","lat":43.31708,"lon":5.37794,"is_reserved":false,"is_disabled":false,"rental_uris":{"android":"levelo://app?vid=2efe0a10-f93f-4584-92dc-4100ffa6186c","ios":"levelo://app?vid=2efe0a10-f93f-4584-92dc-4100ffa6186c"},"vehicle_type_id":"4","last_reported":1750342206,"current_range_meters":18000,"station_id":"ce4bgth2rcd13ifvqch0","pricing_plan_id":"cebpf4jnsgd1na2vs0mg"},{"bike_id":"cc34d586-b82f-4a34-8fa6-12192bd50232","system_id":"levelo_inurba_marseille","lat":43.28409,"lon":5.34989,"is_reserved":false,"is_disabled":false,"rental_uris":{"android":"levelo://app?vid=cc34d586-b82f-4a34-8fa6-12192bd50232","ios":"levelo://app?vid=cc34d586-b82f-4a34-8fa6-12192bd50232"},"vehicle_type_id":"4","last_reported":1750342206,"current_range_meters":18000,"station_id":"ce4bhbh2rcd13ifvqepg","pricing_plan_id":"cebpf4jnsgd1na2vs0mg"},{"bike_id":"784efc61-b1c0-4015-bd86-20f443ceb29d","system_id":"levelo_inurba_marseille","lat":43.23968,"lon":5.3663,"is_reserved":false,"is_disabled":false,"rental_uris":{"android":"levelo://app?vid=784efc61-b1c0-4015-bd86-20f443ceb29d","ios":"levelo://app?vid=784efc61-b1c0-4015-bd86-20f443ceb29d"},"vehicle_type_id":"4","last_reported":1750342206,"current_range_meters":18000,"station_id":"ce4bhi12rcd13ifvqfp0","pricing_plan_id":"cebpf4jnsgd1na2vs0mg"},{"bike_id":"53f86949-cae5-49ad-a73d-e164ce331e00","system_id":"levelo_inurba_marseille","lat":43.24181,"lon":5.39724,"is_reserved":false,"is_disabled":false,"rental_uris":{"android":"levelo://app?vid=53f86949-cae5-49ad-a73d-e164ce331e00","ios":"levelo://app?vid=53f86949-cae5-49ad-a73d-e164ce331e00"},"vehicle_type_id":"4","last_reported":1750342206,"current_range_meters":18000,"station_id":"ce4bhn12rcd13ifvqgpg","pricing_plan_id":"cebpf4jnsgd1na2vs0mg"},{"bike_id":"fef39bef-1b21-4d4a-a49d-538b66c9a37d","system_id":"levelo_inurba_marseille","lat":43.24165,"lon":5.36374,"is_reserved":false,"is_disabled":false,"rental_uris":{"android":"levelo://app?vid=fef39bef-1b21-4d4a-a49d-538b66c9a37d","ios":"levelo://app?vid=fef39bef-1b21-4d4a-a49d-538b66c9a37d"},"vehicle_type_id":"4","last_reported":1750342206,"current_range_meters":18000,"station_id":"cpo36qri1sfpv3e86is0","pricing_plan_id":"cebpf4jnsgd1na2vs0mg"},{"bike_id":"f138f97c-9184-4423-8851-43001f2097b7","system_id":"levelo_inurba_marseille","lat":43.21196,"lon":5.35079,"is_reserved":false,"is_disabled":false,"rental_uris":{"android":"levelo://app?vid=f138f97c-9184-4423-8851-43001f2097b7","ios":"levelo://app?vid=f138f97c-9184-4423-8851-43001f2097b7"},"vehicle_type_id":"4","last_reported":1750342206,"current_range_meters":18000,"station_id":"st_cvj6sg6p6f1abm77japg","pricing_plan_id":"cebpf4jnsgd1na2vs0mg"},{"bike_id":"b95b164a-21c9-40ae-bb2e-285e35bed00b","system_id":"levelo_inurba_marseille","lat":43.29843,"lon":5.36276,"is_reserved":false,"is_disabled":false,"rental_uris":{"android":"levelo://app?vid=b95b164a-21c9-40ae-bb2e-285e35bed00b","ios":"levelo://app?vid=b95b164a-21c9-40ae-bb2e-285e35bed00b"},"vehicle_type_id":"4","last_reported":1750342206,"current_range_meters":18800,"station_id":"ce4bgpp2rcd13ifvqc3g","pricing_plan_id":"cebpf4jnsgd1na2vs0mg"},{"bike_id":"7318d0b5-0da3-4d64-ad3b-afb24766f0a4","system_id":"levelo_inurba_marseille","lat":43.31715,"lon":5.37739,"is_reserved":false,"is_disabled":false,"rental_uris":{"android":"levelo://app?vid=7318d0b5-0da3-4d64-ad3b-afb24766f0a4","ios":"levelo://app?vid=7318d0b5-0da3-4d64-ad3b-afb24766f0a4"},"vehicle_type_id":"4","last_reported":1750342206,"current_range_meters":18800,"station_id":"ce4bgth2rcd13ifvqch0","pricing_plan_id":"cebpf4jnsgd1na2vs0mg"},{"bike_id":"81b9aa48-2c85-474a-9ed0-4d4cb146bf1a","system_id":"levelo_inurba_marseille","lat":43.29522,"lon":5.39055,"is_reserved":false,"is_disabled":false,"rental_uris":{"android":"levelo://app?vid=81b9aa48-2c85-474a-9ed0-4d4cb146bf1a","ios":"levelo://app?vid=81b9aa48-2c85-474a-9ed0-4d4cb146bf1a"},"vehicle_type_id":"4","last_reported":1750342206,"current_range_meters":18800,"station_id":"ce4bh3p2rcd13ifvqdp0","pricing_plan_id":"cebpf4jnsgd1na2vs0mg"},{"bike_id":"650dfdbc-4825-47e6-ad0c-e18215952ca4","system_id":"levelo_inurba_marseille","lat":43.27374,"lon":5.36257,"is_reserved":false,"is_disabled":false,"rental_uris":{"android":"levelo://app?vid=650dfdbc-4825-47e6-ad0c-e18215952ca4","ios":"levelo://app?vid=650dfdbc-4825-47e6-ad0c-e18215952ca4"},"vehicle_type_id":"4","last_reported":1750342206,"current_range_meters":18800,"station_id":"ce4bhbh2rcd13ifvqeo0","pricing_plan_id":"cebpf4jnsgd1na2vs0mg"},{"bike_id":"8fb6f1cc-a67d-40ac-b5ab-26aa9754851b","system_id":"levelo_inurba_marseille","lat":43.26791,"lon":5.3941,"is_reserved":false,"is_disabled":false,"rental_uris":{"android":"levelo://app?vid=8fb6f1cc-a67d-40ac-b5ab-26aa9754851b","ios":"levelo://app?vid=8fb6f1cc-a67d-40ac-b5ab-26aa9754851b"},"vehicle_type_id":"4","last_reported":1750342206,"current_range_meters":18800,"station_id":"ce4bhh12rcd13ifvqfg0","pricing_plan_id":"cebpf4jnsgd1na2vs0mg"},{"bike_id":"d675883e-7ed0-4fb3-ac16-69247ce4a955","system_id":"levelo_inurba_marseille","lat":43.27974,"lon":5.38986,"is_reserved":false,"is_disabled":false,"rental_uris":{"android":"levelo://app?vid=d675883e-7ed0-4fb3-ac16-69247ce4a955","ios":"levelo://app?vid=d675883e-7ed0-4fb3-ac16-69247ce4a955"},"vehicle_type_id":"4","last_reported":1750342206,"current_range_meters":19200,"station_id":"","pricing_plan_id":"cebpf4jnsgd1na2vs0mg"},{"bike_id":"f5035d12-6f6d-499b-8c76-01bbb6677f60","system_id":"levelo_inurba_marseille","lat":43.31298,"lon":5.3753,"is_reserved":false,"is_disabled":false,"rental_uris":{"android":"levelo://app?vid=f5035d12-6f6d-499b-8c76-01bbb6677f60","ios":"levelo://app?vid=f5035d12-6f6d-499b-8c76-01bbb6677f60"},"vehicle_type_id":"4","last_reported":1750342206,"current_range_meters":19200,"station_id":"","pricing_plan_id":"cebpf4jnsgd1na2vs0mg"},{"bike_id":"7fb8f777-502e-4027-8e9f-d463bb7373be","system_id":"levelo_inurba_marseille","lat":43.29642,"lon":5.38022,"is_reserved":false,"is_disabled":false,"rental_uris":{"android":"levelo://app?vid=7fb8f777-502e-4027-8e9f-d463bb7373be","ios":"levelo://app?vid=7fb8f777-502e-4027-8e9f-d463bb7373be"},"vehicle_type_id":"4","last_reported":1750342206,"current_range_meters":19200,"station_id":"","pricing_plan_id":"cebpf4jnsgd1na2vs0mg"},{"bike_id":"29478c00-3517-4e18-a113-c568eb399fa8","system_id":"levelo_inurba_marseille","lat":43.2508,"lon":5.40395,"is_reserved":false,"is_disabled":false,"rental_uris":{"android":"levelo://app?vid=29478c00-3517-4e18-a113-c568eb399fa8","ios":"levelo://app?vid=29478c00-3517-4e18-a113-c568eb399fa8"},"vehicle_type_id":"4","last_reported":1750342206,"current_range_meters":19200,"station_id":"","pricing_plan_id":"cebpf4jnsgd1na2vs0mg"},{"bike_id":"d6bae9e6-64ae-44e4-808f-9d4fe4841c96","system_id":"levelo_inurba_marseille","lat":43.29598,"lon":5.381,"is_reserved":false,"is_disabled":false,"rental_uris":{"android":"levelo://app?vid=d6bae9e6-64ae-44e4-808f-9d4fe4841c96","ios":"levelo://app?vid=d6bae9e6-64ae-44e4-808f-9d4fe4841c96"},"vehicle_type_id":"4","last_reported":1750342206,"current_range_meters":19200,"station_id":"ce4bgl12rcd13ifvqbo0","pricing_plan_id":"cebpf4jnsgd1na2vs0mg"},{"bike_id":"a55bd2a2-8625-4f20-994d-3d03d5bda327","system_id":"levelo_inurba_marseille","lat":43.30935,"lon":5.40145,"is_reserved":false,"is_disabled":false,"rental_uris":{"android":"levelo://app?vid=a55bd2a2-8625-4f20-994d-3d03d5bda327","ios":"levelo://app?vid=a55bd2a2-8625-4f20-994d-3d03d5bda327"},"vehicle_type_id":"4","last_reported":1750342206,"current_range_meters":19200,"station_id":"ce4bgvp2rcd13ifvqct0","pricing_plan_id":"cebpf4jnsgd1na2vs0mg"},{"bike_id":"8eb8b0d4-f55a-474b-96d3-1a4fdeedece0","system_id":"levelo_inurba_marseille","lat":43.28471,"lon":5.38409,"is_reserved":false,"is_disabled":false,"rental_uris":{"android":"levelo://app?vid=8eb8b0d4-f55a-474b-96d3-1a4fdeedece0","ios":"levelo://app?vid=8eb8b0d4-f55a-474b-96d3-1a4fdeedece0"},"vehicle_type_id":"4","last_reported":1750342206,"current_range_meters":19200,"station_id":"ce4bh512rcd13ifvqe3g","pricing_plan_id":"cebpf4jnsgd1na2vs0mg"},{"bike_id":"f49178b3-2bab-4011-bc44-3aaa355e0564","system_id":"levelo_inurba_marseille","lat":43.2841,"lon":5.34995,"is_reserved":false,"is_disabled":false,"rental_uris":{"android":"levelo://app?vid=f49178b3-2bab-4011-bc44-3aaa355e0564","ios":"levelo://app?vid=f49178b3-2bab-4011-bc44-3aaa355e0564"},"vehicle_type_id":"4","last_reported":1750342206,"current_range_meters":19200,"station_id":"ce4bhbh2rcd13ifvqepg","pricing_plan_id":"cebpf4jnsgd1na2vs0mg"},{"bike_id":"27970314-2047-48cf-8f5a-47edda0d779f","system_id":"levelo_inurba_marseille","lat":43.28417,"lon":5.35011,"is_reserved":false,"is_disabled":false,"rental_uris":{"android":"levelo://app?vid=27970314-2047-48cf-8f5a-47edda0d779f","ios":"levelo://app?vid=27970314-2047-48cf-8f5a-47edda0d779f"},"vehicle_type_id":"4","last_reported":1750342206,"current_range_meters":19200,"station_id":"ce4bhbh2rcd13ifvqepg","pricing_plan_id":"cebpf4jnsgd1na2vs0mg"},{"bike_id":"67aefb54-5c14-44fc-8e8e-35858567d4ac","system_id":"levelo_inurba_marseille","lat":43.28258,"lon":5.35078,"is_reserved":false,"is_disabled":false,"rental_uris":{"android":"levelo://app?vid=67aefb54-5c14-44fc-8e8e-35858567d4ac","ios":"levelo://app?vid=67aefb54-5c14-44fc-8e8e-35858567d4ac"},"vehicle_type_id":"4","last_reported":1750342206,"current_range_meters":19200,"station_id":"ce4bhbp2rcd13ifvqerg","pricing_plan_id":"cebpf4jnsgd1na2vs0mg"},{"bike_id":"bcacd389-a424-42b7-b00f-baa62a9720f4","system_id":"levelo_inurba_marseille","lat":43.26028,"lon":5.37554,"is_reserved":false,"is_disabled":false,"rental_uris":{"android":"levelo://app?vid=bcacd389-a424-42b7-b00f-baa62a9720f4","ios":"levelo://app?vid=bcacd389-a424-42b7-b00f-baa62a9720f4"},"vehicle_type_id":"4","last_reported":1750342206,"current_range_meters":19200,"station_id":"ce4bhgh2rcd13ifvqfa0","pricing_plan_id":"cebpf4jnsgd1na2vs0mg"},{"bike_id":"64e96c96-b200-4491-b262-5856d8d0fc7f","system_id":"levelo_inurba_marseille","lat":43.24811,"lon":5.37457,"is_reserved":false,"is_disabled":false,"rental_uris":{"android":"levelo://app?vid=64e96c96-b200-4491-b262-5856d8d0fc7f","ios":"levelo://app?vid=64e96c96-b200-4491-b262-5856d8d0fc7f"},"vehicle_type_id":"4","last_reported":1750342206,"current_range_meters":19200,"station_id":"ce4bhgh2rcd13ifvqfb0","pricing_plan_id":"cebpf4jnsgd1na2vs0mg"},{"bike_id":"45ad63e9-d30d-46ec-8276-d711ae12437c","system_id":"levelo_inurba_marseille","lat":43.31528,"lon":5.38038,"is_reserved":false,"is_disabled":false,"rental_uris":{"android":"levelo://app?vid=45ad63e9-d30d-46ec-8276-d711ae12437c","ios":"levelo://app?vid=45ad63e9-d30d-46ec-8276-d711ae12437c"},"vehicle_type_id":"4","last_reported":1750342206,"current_range_meters":19200,"station_id":"ce4bhsp2rcd13ifvqi50","pricing_plan_id":"cebpf4jnsgd1na2vs0mg"},{"bike_id":"32c8c1a1-a0e7-4a63-a191-fe37a5f45194","system_id":"levelo_inurba_marseille","lat":43.21196,"lon":5.35075,"is_reserved":false,"is_disabled":false,"rental_uris":{"android":"levelo://app?vid=32c8c1a1-a0e7-4a63-a191-fe37a5f45194","ios":"levelo://app?vid=32c8c1a1-a0e7-4a63-a191-fe37a5f45194"},"vehicle_type_id":"4","last_reported":1750342206,"current_range_meters":19200,"station_id":"st_cvj6sg6p6f1abm77japg","pricing_plan_id":"cebpf4jnsgd1na2vs0mg"},{"bike_id":"1dfe9908-9650-44eb-8312-56100d651e72","system_id":"levelo_inurba_marseille","lat":43.29918,"lon":5.37468,"is_reserved":false,"is_disabled":false,"rental_uris":{"android":"levelo://app?vid=1dfe9908-9650-44eb-8312-56100d651e72","ios":"levelo://app?vid=1dfe9908-9650-44eb-8312-56100d651e72"},"vehicle_type_id":"4","last_reported":1750342206,"current_range_meters":19600,"station_id":"ce4bgjh2rcd13ifvqbg0","pricing_plan_id":"cebpf4jnsgd1na2vs0mg"},