{"last_updated":1734185280,"ttl":60,"version":"2.2","data":{"bikes":[{"bike_id":"45c22bfb-3859-46ca-bbdd-b43970628095","system_id":"levelo_inurba_marseille","lat":43.23188,"lon":5.40009,"is_reserved":false,"is_disabled":false,"rental_uris":{"android":"levelo://app?vid=45c22bfb-3859-46ca-bbdd-b43970628095","ios":"levelo://app?vid=45c22bfb-3859-46ca-bbdd-b43970628095"},"vehicle_type_id":"4","last_reported":1734185280,"current_range_meters":22000,"station_id":"ce4bhn12rcd13ifvqgqg","pricing_plan_id":"cebpf4jnsgd1na2vs0mg"},{"bike_id":"3e5d99b9-1aaf-48b9-b5fb-fb7a0b5b1ba5","system_id":"levelo_inurba_marseille","lat":43.29035,"lon":5.39232,"is_reserved":false,"is_disabled":true,"rental_uris":{"android":"levelo://app?vid=3e5d99b9-1aaf-48b9-b5fb-fb7a0b5b1ba5","ios":"levelo://app?vid=3e5d99b9-1aaf-48b9-b5fb-fb7a0b5b1ba5"},"vehicle_type_id":"4","last_reported":1734185280,"current_range_meters":0,"station_id":"","pricing_plan_id":"cebpf4jnsgd1na2vs0mg"},{"bike_id":"fff29451-019c-4126-9eed-adf39f2432bd","system_id":"levelo_inurba_marseille","lat":43.29029,"lon":5.38644,"is_reserved":false,"is_disabled":false,"rental_uris":{"android":"levelo://app?vid=fff29451-019c-4126-9eed-adf39f2432bd","ios":"levelo://app?vid=fff29451-019c-4126-9eed-adf39f2432bd"},"vehicle_type_id":"4","last_reported":1734185280,"current_range_meters":10000,"station_id":"ce4bh4p2rcd13ifvqe0g","pricing_plan_id":"cebpf4jnsgd1na2vs0mg"},{"bike_id":"410f4564-72b7-4cc8-ac1d-17f407b39673","system_id":"levelo_inurba_marseille","lat":43.32091,"lon":5.4155,"is_reserved":false,"is_disabled":false,"rental_uris":{"android":"levelo://app?vid=410f4564-72b7-4cc8-ac1d-17f407b39673","ios":"levelo://app?vid=410f4564-72b7-4cc8-ac1d-17f407b39673"},"vehicle_type_id":"4","last_reported":1734185280,"current_range_meters":38800,"station_id":"","pricing_plan_id":"cebpf4jnsgd1na2vs0mg"},{"bike_id":"3bbd559a-b2c3-4665-9373-e5fb5a95a297","system_id":"levelo_inurba_marseille","lat":43.23196,"lon":5.3555,"is_reserved":false,"is_disabled":false,"rental_uris":{"android":"levelo://app?vid=3bbd559a-b2c3-4665-9373-e5fb5a95a297","ios":"levelo://app?vid=3bbd559a-b2c3-4665-9373-e5fb5a95a297"},"vehicle_type_id":"4","last_reported":1734185280,"current_range_meters":19200,"station_id":"ce4bhu92rcd13ifvqi70","pricing_plan_id":"cebpf4jnsgd1na2vs0mg"},{"bike_id":"548b71d6-57f8-4fef-ad05-d9f3c9d122d8","system_id":"levelo_inurba_marseille","lat":43.23138,"lon":5.43716,"is_reserved":false,"is_disabled":false,"rental_uris":{"android":"levelo://app?vid=548b71d6-57f8-4fef-ad05-d9f3c9d122d8","ios":"levelo://app?vid=548b71d6-57f8-4fef-ad05-d9f3c9d122d8"},"vehicle_type_id":"4","last_reported":1734185280,"current_range_meters":30400,"station_id":"ce4bhmp2rcd13ifvqgog","pricing_plan_id":"cebpf4jnsgd1na2vs0mg"},{"bike_id":"b9d9676f-a687-4670-9d4b-3f80137525ec","system_id":"levelo_inurba_marseille","lat":43.29015,"lon":5.38131,"is_reserved":false,"is_disabled":false,"rental_uris":{"android":"levelo://app?vid=b9d9676f-a687-4670-9d4b-3f80137525ec","ios":"levelo://app?vid=b9d9676f-a687-4670-9d4b-3f80137525ec"},"vehicle_type_id":"4","last_reported":1734185280,"current_range_meters":38800,"station_id":"ce4bh4p2rcd13ifvqe1g","pricing_plan_id":"cebpf4jnsgd1na2vs0mg"},{"bike_id":"35642114-ba9f-4cd0-9d6f-a2edaa6e597b","system_id":"levelo_inurba_marseille","lat":43.30459,"lon":5.37896,"is_reserved":false,"is_disabled":false,"rental_uris":{"android":"levelo://app?vid=35642114-ba9f-4cd0-9d6f-a2edaa6e597b","ios":"levelo://app?vid=35642114-ba9f-4cd0-9d6f-a2edaa6e597b"},"vehicle_type_id":"4","last_reported":1734185280,"current_range_meters":13600,"station_id":"ce4bgup2rcd13ifvqcn0","pricing_plan_id":"cebpf4jnsgd1na2vs0mg"},{"bike_id":"e2d56994-dec6-45b3-8682-96e98cbed5a6","system_id":"levelo_inurba_marseille","lat":43.30331,"lon":5.40428,"is_reserved":false,"is_disabled":true,"rental_uris":{"android":"levelo://app?vid=e2d56994-dec6-45b3-8682-96e98cbed5a6","ios":"levelo://app?vid=e2d56994-dec6-45b3-8682-96e98cbed5a6"},"vehicle_type_id":"4","last_reported":1734185280,"current_range_meters":1600,"station_id":"ce4bh012rcd13ifvqd10","pricing_plan_id":"cebpf4jnsgd1na2vs0mg"},{"bike_id":"e3e2c755-2983-4a51-89a6-24322fb4142f","system_id":"levelo_inurba_marseille","lat":43.2501,"lon":5.38917,"is_reserved":false,"is_disabled":false,"rental_uris":{"android":"levelo://app?vid=e3e2c755-2983-4a51-89a6-24322fb4142f","ios":"levelo://app?vid=e3e2c755-2983-4a51-89a6-24322fb4142f"},"vehicle_type_id":"4","last_reported":1734185280,"current_range_meters":24400,"station_id":"ce4bhgp2rcd13ifvqfd0","pricing_plan_id":"cebpf4jnsgd1na2vs0mg"},{"bike_id":"801cd140-eb56-47e2-9127-9062331d5db3","system_id":"levelo_inurba_marseille","lat":43.27217,"lon":5.39176,"is_reserved":false,"is_disabled":false,"rental_uris":{"android":"levelo://app?vid=801cd140-eb56-47e2-9127-9062331d5db3","ios":"levelo://app?vid=801cd140-eb56-47e2-9127-9062331d5db3"},"vehicle_type_id":"4","last_reported":1734185280,"current_range_meters":8400,"station_id":"ce4bhhp2rcd13ifvqfm0","pricing_plan_id":"cebpf4jnsgd1na2vs0mg"},{"bike_id":"0e6971e9-c558-4b8e-8f60-6b2ff20a0b4e","system_id":"levelo_inurba_marseille","lat":43.27055,"lon":5.40267,"is_reserved":false,"is_disabled":false,"rental_uris":{"android":"levelo://app?vid=0e6971e9-c558-4b8e-8f60-6b2ff20a0b4e","ios":"levelo://app?vid=0e6971e9-c558-4b8e-8f60-6b2ff20a0b4e"},"vehicle_type_id":"4","last_reported":1734185280,"current_range_meters":7200,"station_id":"ce4bhk92rcd13ifvqgc0","pricing_plan_id":"cebpf4jnsgd1na2vs0mg"},{"bike_id":"06c87679-da9b-4bf8-8de4-737666c178be","system_id":"levelo_inurba_marseille","lat":43.29519,"lon":5.37513,"is_reserved":false,"is_disabled":false,"rental_uris":{"android":"levelo://app?vid=06c87679-da9b-4bf8-8de4-737666c178be","ios":"levelo://app?vid=06c87679-da9b-4bf8-8de4-737666c178be"},"vehicle_type_id":"4","last_reported":1734185280,"current_range_meters":16800,"station_id":"ce4bgkp2rcd13ifvqbmg","pricing_plan_id":"cebpf4jnsgd1na2vs0mg"},{"bike_id":"92911da1-35ed-4153-b20b-4efa12b925ae","system_id":"levelo_inurba_marseille","lat":43.29942,"lon":5.3719,"is_reserved":false,"is_disabled":false,"rental_uris":{"android":"levelo://app?vid=92911da1-35ed-4153-b20b-4efa12b925ae","ios":"levelo://app?vid=92911da1-35ed-4153-b20b-4efa12b925ae"},"vehicle_type_id":"4","last_reported":1734185280,"current_range_meters":25200,"station_id":"ce4bgr92rcd13ifvqc7g","pricing_plan_id":"cebpf4jnsgd1na2vs0mg"},{"bike_id":"80e5c1e3-8d27-43e3-9451-b00f65b301df","system_id":"levelo_inurba_marseille","lat":43.23193,"lon":5.35563,"is_reserved":false,"is_disabled":false,"rental_uris":{"android":"levelo://app?vid=80e5c1e3-8d27-43e3-9451-b00f65b301df","ios":"levelo://app?vid=80e5c1e3-8d27-43e3-9451-b00f65b301df"},"vehicle_type_id":"4","last_reported":1734185280,"current_range_meters":38800,"station_id":"ce4bhu92rcd13ifvqi70","pricing_plan_id":"cebpf4jnsgd1na2vs0mg"},{"bike_id":"496b9119-850a-49b3-bf98-295bb079ca7c","system_id":"levelo_inurba_marseille","lat":43.28209,"lon":5.44573,"is_reserved":false,"is_disabled":false,"rental_uris":{"android":"levelo://app?vid=496b9119-850a-49b3-bf98-295bb079ca7c","ios":"levelo://app?vid=496b9119-850a-49b3-bf98-295bb079ca7c"},"vehicle_type_id":"4","last_reported":1734185280,"current_range_meters":9600,"station_id":"","pricing_plan_id":"cebpf4jnsgd1na2vs0mg"},{"bike_id":"057c20b7-bf34-40df-bd6f-93a11afceebe","system_id":"levelo_inurba_marseille","lat":43.27999,"lon":5.41661,"is_reserved":false,"is_disabled":false,"rental_uris":{"android":"levelo://app?vid=057c20b7-bf34-40df-bd6f-93a11afceebe","ios":"levelo://app?vid=057c20b7-bf34-40df-bd6f-93a11afceebe"},"vehicle_type_id":"4","last_reported":1734185280,"current_range_meters":37600,"station_id":"ce4bho12rcd13ifvqh1g","pricing_plan_id":"cebpf4jnsgd1na2vs0mg"},{"bike_id":"6af30c08-1b45-454a-8f37-3be3164a268a","system_id":"levelo_inurba_marseille","lat":43.29843,"lon":5.36269,"is_reserved":false,"is_disabled":false,"rental_uris":{"android":"levelo://app?vid=6af30c08-1b45-454a-8f37-3be3164a268a","ios":"levelo://app?vid=6af30c08-1b45-454a-8f37-3be3164a268a"},"vehicle_type_id":"4","last_reported":1734185280,"current_range_meters":16400,"station_id":"ce4bgpp2rcd13ifvqc3g","pricing_plan_id":"cebpf4jnsgd1na2vs0mg"},{"bike_id":"88f2033b-7e30-4fec-967e-f2db67085ede","system_id":"levelo_inurba_marseille","lat":43.34145,"lon":5.40925,"is_reserved":false,"is_disabled":false,"rental_uris":{"android":"levelo://app?vid=88f2033b-7e30-4fec-967e-f2db67085ede","ios":"levelo://app?vid=88f2033b-7e30-4fec-967e-f2db67085ede"},"vehicle_type_id":"4","last_reported":1734185280,"current_range_meters":38800,"station_id":"ce4bhqh2rcd13ifvqhlg","pricing_plan_id":"cebpf4jnsgd1na2vs0mg"},{"bike_id":"bc796477-337b-4b39-98e8-8d5a27013136","system_id":"levelo_inurba_marseille","lat":43.249448,"lon":5.388524,"is_reserved":false,"is_disabled":false,"rental_uris":{"android":"levelo://app?vid=bc796477-337b-4b39-98e8-8d5a27013136","ios":"levelo://app?vid=bc796477-337b-4b39-98e8-8d5a27013136"},"vehicle_type_id":"4","last_reported":1734185280,"current_range_meters":8000,"station_id":"","pricing_plan_id":"cebpf4jnsgd1na2vs0mg"},{"bike_id":"d5c89c1f-3bad-4af2-9449-e04c277a4696","system_id":"levelo_inurba_marseille","lat":43.29974,"lon":5.413268,"is_reserved":false,"is_disabled":true,"rental_uris":{"android":"levelo://app?vid=d5c89c1f-3bad-4af2-9449-e04c277a4696","ios":"levelo://app?vid=d5c89c1f-3bad-4af2-9449-e04c277a4696"},"vehicle_type_id":"4","last_reported":1734185280,"current_range_meters":38800,"station_id":"ce4bhp12rcd13ifvqh9g","pricing_plan_id":"cebpf4jnsgd1na2vs0mg"},{"bike_id":"9af68957-624e-4400-80be-b162d4e17425","system_id":"levelo_inurba_marseille","lat":43.25869,"lon":5.39897,"is_reserved":false,"is_disabled":false,"rental_uris":{"android":"levelo://app?vid=9af68957-624e-4400-80be-b162d4e17425","ios":"levelo://app?vid=9af68957-624e-4400-80be-b162d4e17425"},"vehicle_type_id":"4","last_reported":1734185280,"current_range_meters":37600,"station_id":"ce4bhl92rcd13ifvqghg","pricing_plan_id":"cebpf4jnsgd1na2vs0mg"},{"bike_id":"5dcb142e-3766-4e2c-b1fe-c9ebbc5d3c50","system_id":"levelo_inurba_marseille","lat":43.31995,"lon":5.38154,"is_reserved":false,"is_disabled":false,"rental_uris":{"android":"levelo://app?vid=5dcb142e-3766-4e2c-b1fe-c9ebbc5d3c50","ios":"levelo://app?vid=5dcb142e-3766-4e2c-b1fe-c9ebbc5d3c50"},"vehicle_type_id":"4","last_reported":1734185280,"current_range_meters":38800,"station_id":"ce4bhr12rcd13ifvqhpg","pricing_plan_id":"cebpf4jnsgd1na2vs0mg"},{"bike_id":"861d1a1b-c380-4d3c-a924-e0c08e4efb49","system_id":"levelo_inurba_marseille","lat":43.28836,"lon":5.35859,"is_reserved":false,"is_disabled":false,"rental_uris":{"android":"levelo://app?vid=861d1a1b-c380-4d3c-a924-e0c08e4efb49","ios":"levelo://app?vid=861d1a1b-c380-4d3c-a924-e0c08e4efb49"},"vehicle_type_id":"4","last_reported":1734185280,"current_range_meters":38800,"station_id":"ce4bhb12rcd13ifvqem0","pricing_plan_id":"cebpf4jnsgd1na2vs0mg"},{"bike_id":"a7b8257e-8dd8-4089-b34c-9c18012a63d0","system_id":"levelo_inurba_marseille","lat":43.23152,"lon":5.43714,"is_reserved":false,"is_disabled":false,"rental_uris":{"android":"levelo://app?vid=a7b8257e-8dd8-4089-b34c-9c18012a63d0","ios":"levelo://app?vid=a7b8257e-8dd8-4089-b34c-9c18012a63d0"},"vehicle_type_id":"4","last_reported":1734185280,"current_range_meters":23200,"station_id":"ce4bhmp2rcd13ifvqgog","pricing_plan_id":"cebpf4jnsgd1na2vs0mg"},{"bike_id":"ba838ee3-c54d-4ede-b6cd-d1685e40e5d7","system_id":"levelo_inurba_marseille","lat":43.23187,"lon":5.39992,"is_reserved":false,"is_disabled":false,"rental_uris":{"android":"levelo://app?vid=ba838ee3-c54d-4ede-b6cd-d1685e40e5d7","ios":"levelo://app?vid=ba838ee3-c54d-4ede-b6cd-d1685e40e5d7"},"vehicle_type_id":"4","last_reported":1734185280,"current_range_meters":26800,"station_id":"ce4bhn12rcd13ifvqgqg","pricing_plan_id":"cebpf4jnsgd1na2vs0mg"},{"bike_id":"595ce88a-34cb-4990-9769-b15c51d16d43","system_id":"levelo_inurba_marseille","lat":43.29275,"lon":5.36848,"is_reserved":false,"is_disabled":false,"rental_uris":{"android":"levelo://app?vid=595ce88a-34cb-4990-9769-b15c51d16d43","ios":"levelo://app?vid=595ce88a-34cb-4990-9769-b15c51d16d43"},"vehicle_type_id":"4","last_reported":1734185280,"current_range_meters":38800,"station_id":"ce4bhbp2rcd13ifvqesg","pricing_plan_id":"cebpf4jnsgd1na2vs0mg"},{"bike_id":"6096a327-73d1-4c04-99a6-02637963dee7","system_id":"levelo_inurba_marseille","lat":43.23138,"lon":5.43723,"is_reserved":false,"is_disabled":false,"rental_uris":{"android":"levelo://app?vid=6096a327-73d1-4c04-99a6-02637963dee7","ios":"levelo://app?vid=6096a327-73d1-4c04-99a6-02637963dee7"},"vehicle_type_id":"4","last_reported":1734185280,"current_range_meters":37600,"station_id":"ce4bhmp2rcd13ifvqgog","pricing_plan_id":"cebpf4jnsgd1na2vs0mg"},{"bike_id":"4ca3ebb9-f80c-4945-b2ee-aeaaf50ad09c","system_id":"levelo_inurba_marseille","lat":43.28272,"lon":5.35063,"is_reserved":false,"is_disabled":false,"rental_uris":{"android":"levelo://app?vid=4ca3ebb9-f80c-4945-b2ee-aeaaf50ad09c","ios":"levelo://app?vid=4ca3ebb9-f80c-4945-b2ee-aeaaf50ad09c"},"vehicle_type_id":"4","last_reported":1734185280,"current_range_meters":34000,"station_id":"ce4bhbp2rcd13ifvqerg","pricing_plan_id":"cebpf4jnsgd1na2vs0mg"},{"bike_id":"ff4dd77c-9815-4ceb-84fd-29a29009fea2","system_id":"levelo_inurba_marseille","lat":43.28603,"lon":5.37073,"is_reserved":false,"is_disabled":false,"rental_uris":{"android":"levelo://app?vid=ff4dd77c-9815-4ceb-84fd-29a29009fea2","ios":"levelo://app?vid=ff4dd77c-9815-4ceb-84fd-29a29009fea2"},"vehicle_type_id":"4","last_reported":1734185280,"current_range_meters":36400,"station_id":"ce4bht12rcd13ifvqi60","pricing_plan_id":"cebpf4jnsgd1na2vs0mg"},{"bike_id":"63a50a4d-bc8c-4962-a6bd-73d0a32a0a57","system_id":"levelo_inurba_marseille","lat":43.29285,"lon":5.37178,"is_reserved":false,"is_disabled":false,"rental_uris":{"android":"levelo://app?vid=63a50a4d-bc8c-4962-a6bd-73d0a32a0a57","ios":"levelo://app?vid=63a50a4d-bc8c-4962-a6bd-73d0a32a0a57"},"vehicle_type_id":"4","last_reported":1734185280,"current_range_meters":37600,"station_id":"ce4bgh92rcd13ifvqb40","pricing_plan_id":"cebpf4jnsgd1na2vs0mg"},{"bike_id":"2a715f19-ab5c-4800-bff4-26cfbf6de55e","system_id":"levelo_inurba_marseille","lat":43.29003,"lon":5.35607,"is_reserved":false,"is_disabled":false,"rental_uris":{"android":"levelo://app?vid=2a715f19-ab5c-4800-bff4-26cfbf6de55e","ios":"levelo://app?vid=2a715f19-ab5c-4800-bff4-26cfbf6de55e"},"vehicle_type_id":"4","last_reported":1734185280,"current_range_meters":21600,"station_id":"ce4bhb92rcd13ifvqen0","pricing_plan_id":"cebpf4jnsgd1na2vs0mg"},{"bike_id":"374b8c78-c612-482d-b5db-7451c70d7b3b","system_id":"levelo_inurba_marseille","lat":43.30527,"lon":5.36548,"is_reserved":false,"is_disabled":false,"rental_uris":{"android":"levelo://app?vid=374b8c78-c612-482d-b5db-7451c70d7b3b","ios":"levelo://app?vid=374b8c78-c612-482d-b5db-7451c70d7b3b"},"vehicle_type_id":"4","last_reported":1734185280,"current_range_meters":24800,"station_id":"ce4bgs12rcd13ifvqcag","pricing_plan_id":"cebpf4jnsgd1na2vs0mg"},{"bike_id":"51777b59-d4d3-426a-bd98-e9bc3f1b51f9","system_id":"levelo_inurba_marseille","lat":43.337444,"lon":5.374475,"is_reserved":false,"is_disabled":false,"rental_uris":{"android":"levelo://app?vid=51777b59-d4d3-426a-bd98-e9bc3f1b51f9","ios":"levelo://app?vid=51777b59-d4d3-426a-bd98-e9bc3f1b51f9"},"vehicle_type_id":"4","last_reported":1734185280,"current_range_meters":34000,"station_id":"","pricing_plan_id":"cebpf4jnsgd1na2vs0mg"},{"bike_id":"edaea664-24e0-4d6c-aa7a-497f5c5f88f6","system_id":"levelo_inurba_marseille","lat":43.27008,"lon":5.39139,"is_reserved":false,"is_disabled":true,"rental_uris":{"android":"levelo://app?vid=edaea664-24e0-4d6c-aa7a-497f5c5f88f6","ios":"levelo://app?vid=edaea664-24e0-4d6c-aa7a-497f5c5f88f6"},"vehicle_type_id":"4","last_reported":1734185280,"current_range_meters":0,"station_id":"","pricing_plan_id":"cebpf4jnsgd1na2vs0mg"},{"bike_id":"5ce53a34-c9ea-4a40-a280-67aa15301131","system_id":"levelo_inurba_marseille","lat":43.31712,"lon":5.43709,"is_reserved":false,"is_disabled":false,"rental_uris":{"android":"levelo://app?vid=5ce53a34-c9ea-4a40-a280-67aa15301131","ios":"levelo://app?vid=5ce53a34-c9ea-4a40-a280-67aa15301131"},"vehicle_type_id":"4","last_reported":1734185280,"current_range_meters":6400,"station_id":"ce4bhp92rcd13ifvqhcg","pricing_plan_id":"cebpf4jnsgd1na2vs0mg"},{"bike_id":"14bab710-60e0-4d10-be77-a1d9ccb8b8bd","system_id":"levelo_inurba_marseille","lat":43.26198,"lon":5.37445,"is_reserved":false,"is_disabled":false,"rental_uris":{"android":"levelo://app?vid=14bab710-60e0-4d10-be77-a1d9ccb8b8bd","ios":"levelo://app?vid=14bab710-60e0-4d10-be77-a1d9ccb8b8bd"},"vehicle_type_id":"4","last_reported":1734185280,"current_range_meters":27200,"station_id":"ce4bhgp2rcd13ifvqfc0","pricing_plan_id":"cebpf4jnsgd1na2vs0mg"},{"bike_id":"66331cc1-d263-487f-86ec-bf9d2260ae21","system_id":"levelo_inurba_marseille","lat":43.25866,"lon":5.39901,"is_reserved":false,"is_disabled":false,"rental_uris":{"android":"levelo://app?vid=66331cc1-d263-487f-86ec-bf9d2260ae21","ios":"levelo://app?vid=66331cc1-d263-487f-86ec-bf9d2260ae21"},"vehicle_type_id":"4","last_reported":1734185280,"current_range_meters":38800,"station_id":"ce4bhl92rcd13ifvqghg","pricing_plan_id":"cebpf4jnsgd1na2vs0mg"},{"bike_id":"39220056-d897-4dba-b22c-26dbc894b4b9","system_id":"levelo_inurba_marseille","lat":43.30879,"lon":5.39665,"is_reserved":false,"is_disabled":false,"rental_uris":{"android":"levelo://app?vid=39220056-d897-4dba-b22c-26dbc894b4b9","ios":"levelo://app?vid=39220056-d897-4dba-b22c-26dbc894b4b9"},"vehicle_type_id":"4","last_reported":1734185280,"current_range_meters":15200,"station_id":"ce4bh012rcd13ifvqcv0","pricing_plan_id":"cebpf4jnsgd1na2vs0mg"},{"bike_id":"10080bec-3f49-4155-8924-03f9792a2d09","system_id":"levelo_inurba_marseille","lat":43.30352,"lon":5.41887,"is_reserved":false,"is_disabled":true,"rental_uris":{"android":"levelo://app?vid=10080bec-3f49-4155-8924-03f9792a2d09","ios":"levelo://app?vid=10080bec-3f49-4155-8924-03f9792a2d09"},"vehicle_type_id":"4","last_reported":1734185280,"current_range_meters":0,"station_id":"ce4bhop2rcd13ifvqh7g","pricing_plan_id":"cebpf4jnsgd1na2vs0mg"},{"bike_id":"6bfacb51-2580-4ccf-9aa3-c8ac17392142","system_id":"levelo_inurba_marseille","lat":43.33602,"lon":5.41035,"is_reserved":false,"is_disabled":false,"rental_uris":{"android":"levelo://app?vid=6bfacb51-2580-4ccf-9aa3-c8ac17392142","ios":"levelo://app?vid=6bfacb51-2580-4ccf-9aa3-c8ac17392142"},"vehicle_type_id":"4","last_reported":1734185280,"current_range_meters":38800,"station_id":"ce4bhqh2rcd13ifvqhmg","pricing_plan_id":"cebpf4jnsgd1na2vs0mg"},{"bike_id":"75d005f1-a104-4287-b501-1002db049ee7","system_id":"levelo_inurba_marseille","lat":43.33713,"lon":5.39196,"is_reserved":false,"is_disabled":false,"rental_uris":{"android":"levelo://app?vid=75d005f1-a104-4287-b501-1002db049ee7","ios":"levelo://app?vid=75d005f1-a104-4287-b501-1002db049ee7"},"vehicle_type_id":"4","last_reported":1734185280,"current_range_meters":38800,"station_id":"ce4bhr92rcd13ifvqhsg","pricing_plan_id":"cebpf4jnsgd1na2vs0mg"},{"bike_id":"4fe5b802-6d4a-478f-80f7-e4f6837b7ef9","system_id":"levelo_inurba_marseille","lat":43.26942,"lon":5.40249,"is_reserved":false,"is_disabled":true,"rental_uris":{"android":"levelo://app?vid=4fe5b802-6d4a-478f-80f7-e4f6837b7ef9","ios":"levelo://app?vid=4fe5b802-6d4a-478f-80f7-e4f6837b7ef9"},"vehicle_type_id":"4","last_reported":1734185280,"current_range_meters":0,"station_id":"cjm6bp8fraef2m0cb0m0","pricing_plan_id":"cebpf4jnsgd1na2vs0mg"},{"bike_id":"30b7f7b0-cffb-44e8-9e23-86428fe1183d","system_id":"levelo_inurba_marseille","lat":43.23063,"lon":5.35492,"is_reserved":false,"is_disabled":false,"rental_uris":{"android":"levelo://app?vid=30b7f7b0-cffb-44e8-9e23-86428fe1183d","ios":"levelo://app?vid=30b7f7b0-cffb-44e8-9e23-86428fe1183d"},"vehicle_type_id":"4","last_reported":1734185280,"current_range_meters":34800,"station_id":"cpo3342slgdg3j2ifvpg","pricing_plan_id":"cebpf4jnsgd1na2vs0mg"},{"bike_id":"477c947b-8b78-4c54-bfa3-469a23410093","system_id":"levelo_inurba_marseille","lat":43.2581,"lon":5.39462,"is_reserved":false,"is_disabled":false,"rental_uris":{"android":"levelo://app?vid=477c947b-8b78-4c54-bfa3-469a23410093","ios":"levelo://app?vid=477c947b-8b78-4c54-bfa3-469a23410093"},"vehicle_type_id":"4","last_reported":1734185280,"current_range_meters":30800,"station_id":"ce4bhip2rcd13ifvqft0","pricing_plan_id":"cebpf4jnsgd1na2vs0mg"},{"bike_id":"9e25212c-cbb7-4bbb-b0ef-530024be3d7e","system_id":"levelo_inurba_marseille","lat":43.32485,"lon":5.36573,"is_reserved":false,"is_disabled":true,"rental_uris":{"android":"levelo://app?vid=9e25212c-cbb7-4bbb-b0ef-530024be3d7e","ios":"levelo://app?vid=9e25212c-cbb7-4bbb-b0ef-530024be3d7e"},"vehicle_type_id":"4","last_reported":1734185280,"current_range_meters":0,"station_id":"ce4bhs12rcd13ifvqhvg","pricing_plan_id":"cebpf4jnsgd1na2vs0mg"},{"bike_id":"0aeafd43-76dd-4c4c-89ac-f53a24f3e150","system_id":"levelo_inurba_marseille","lat":43.30908,"lon":5.36856,"is_reserved":false,"is_disabled":false,"rental_uris":{"android":"levelo://app?vid=0aeafd43-76dd-4c4c-89ac-f53a24f3e150","ios":"levelo://app?vid=0aeafd43-76dd-4c4c-89ac-f53a24f3e150"},"vehicle_type_id":"4","last_reported":1734185280,"current_range_meters":30000,"station_id":"ce4bgn92rcd13ifvqbvg","pricing_plan_id":"cebpf4jnsgd1na2vs0mg"},{"bike_id":"598cd91e-5725-4aa4-92f6-620ea21032c5","system_id":"levelo_inurba_marseille","lat":43.30467,"lon":5.3791,"is_reserved":false,"is_disabled":false,"rental_uris":{"android":"levelo://app?vid=598cd91e-5725-4aa4-92f6-620ea21032c5","ios":"levelo://app?vid=598cd91e-5725-4aa4-92f6-620ea21032c5"},"vehicle_type_id":"4","last_reported":1734185280,"current_range_meters":34800,"station_id":"ce4bgup2rcd13ifvqcn0","pricing_plan_id":"cebpf4jnsgd1na2vs0mg"},{"bike_id":"df04b35b-8dd7-4343-bd71-1cd2b1e5daa3","system_id":"levelo_inurba_marseille","lat":43.29421,"lon":5.38629,"is_reserved":false,"is_disabled":true,"rental_uris":{"android":"levelo://app?vid=df04b35b-8dd7-4343-bd71-1cd2b1e5daa3","ios":"levelo://app?vid=df04b35b-8dd7-4343-bd71-1cd2b1e5daa3"},"vehicle_type_id":"4","last_reported":1734185280,"current_range_meters":1600,"station_id":"ce4bh2h2rcd13ifvqdh0","pricing_plan_id":"cebpf4jnsgd1na2vs0mg"},{"bike_id":"f1b843f4-b3b5-4b91-a23a-d700b27ef6a7","system_id":"levelo_inurba_marseille","lat":43.28425,"lon":5.34987,"is_reserved":false,"is_disabled":false,"rental_uris":{"android":"levelo://app?vid=f1b843f4-b3b5-4b91-a23a-d700b27ef6a7","ios":"levelo://app?vid=f1b843f4-b3b5-4b91-a23a-d700b27ef6a7"},"vehicle_type_id":"4","last_reported":1734185280,"current_range_meters":3200,"station_id":"ce4bhbh2rcd13ifvqepg","pricing_plan_id":"cebpf4jnsgd1na2vs0mg"},{"bike_id":"d9834bc1-0a12-45ef-b703-48b43f237533","system_id":"levelo_inurba_marseille","lat":43.27058,"lon":5.40267,"is_reserved":false,"is_disabled":false,"rental_uris":{"android":"levelo://app?vid=d9834bc1-0a12-45ef-b703-48b43f237533","ios":"levelo://app?vid=d9834bc1-0a12-45ef-b703-48b43f237533"},"vehicle_type_id":"4","last_reported":1734185280,"current_range_meters":24400,"station_id":"ce4bhk92rcd13ifvqgc0","pricing_plan_id":"cebpf4jnsgd1na2vs0mg"},{"bike_id":"981b4c89-2122-4b15-9b4a-96d3e84a50e3","system_id":"levelo_inurba_marseille","lat":43.26208,"lon":5.37443,"is_reserved":false,"is_disabled":false,"rental_uris":{"android":"levelo://app?vid=981b4c89-2122-4b15-9b4a-96d3e84a50e3","ios":"levelo://app?vid=981b4c89-2122-4b15-9b4a-96d3e84a50e3"},"vehicle_type_id":"4","last_reported":1734185280,"current_range_meters":30800,"station_id":"ce4bhgp2rcd13ifvqfc0","pricing_plan_id":"cebpf4jnsgd1na2vs0mg"},{"bike_id":"b567e686-cfb0-4fbc-b512-0dd68d43387c","system_id":"levelo_inurba_marseille","lat":43.289444,"lon":5.363951,"is_reserved":false,"is_disabled":false,"rental_uris":{"android":"levelo://app?vid=b567e686-cfb0-4fbc-b512-0dd68d43387c","ios":"levelo://app?vid=b567e686-cfb0-4fbc-b512-0dd68d43387c"},"vehicle_type_id":"4","last_reported":1734185280,"current_range_meters":35600,"station_id":"ce4bhc92rcd13ifvqetg","pricing_plan_id":"cebpf4jnsgd1na2vs0mg"},{"bike_id":"eaac3b54-d489-45fe-9f7c-40072c8522d9","system_id":"levelo_inurba_marseille","lat":43.24997,"lon":5.38927,"is_reserved":false,"is_disabled":false,"rental_uris":{"android":"levelo://app?vid=eaac3b54-d489-45fe-9f7c-40072c8522d9","ios":"levelo://app?vid=eaac3b54-d489-45fe-9f7c-40072c8522d9"},"vehicle_type_id":"4","last_reported":1734185280,"current_range_meters":12000,"station_id":"ce4bhgp2rcd13ifvqfd0","pricing_plan_id":"cebpf4jnsgd1na2vs0mg"},{"bike_id":"ee12c1d4-76e3-43ba-a7d3-8e72c56f0b4e","system_id":"levelo_inurba_marseille","lat":43.27318,"lon":5.39091,"is_reserved":false,"is_disabled":false,"rental_uris":{"android":"levelo://app?vid=ee12c1d4-76e3-43ba-a7d3-8e72c56f0b4e","ios":"levelo://app?vid=ee12c1d4-76e3-43ba-a7d3-8e72c56f0b4e"},"vehicle_type_id":"4","last_reported":1734185280,"current_range_meters":38800,"station_id":"ce4bhgp2rcd13ifvqfe0","pricing_plan_id":"cebpf4jnsgd1na2vs0mg"},{"bike_id":"ae0bdd7b-187c-409c-b2b3-37aac32d4db3","system_id":"levelo_inurba_marseille","lat":43.32361,"lon":5.36766,"is_reserved":false,"is_disabled":false,"rental_uris":{"android":"levelo://app?vid=ae0bdd7b-187c-409c-b2b3-37aac32d4db3","ios":"levelo://app?vid=ae0bdd7b-187c-409c-b2b3-37aac32d4db3"},"vehicle_type_id":"4","last_reported":1734185280,"current_range_meters":38800,"station_id":"ce4bhsh2rcd13ifvqi2g","pricing_plan_id":"cebpf4jnsgd1na2vs0mg"},{"bike_id":"be7c6edc-0896-465a-9571-d8987e892b17","system_id":"levelo_inurba_marseille","lat":43.30475,"lon":5.37909,"is_reserved":false,"is_disabled":false,"rental_uris":{"android":"levelo://app?vid=be7c6edc-0896-465a-9571-d8987e892b17","ios":"levelo://app?vid=be7c6edc-0896-465a-9571-d8987e892b17"},"vehicle_type_id":"4","last_reported":1734185280,"current_range_meters":38000,"station_id":"ce4bgup2rcd13ifvqcn0","pricing_plan_id":"cebpf4jnsgd1na2vs0mg"},{"bike_id":"9ad311dd-c450-4f09-933a-ef53d4559dc3","system_id":"levelo_inurba_marseille","lat":43.26982,"lon":5.39876,"is_reserved":false,"is_disabled":false,"rental_uris":{"android":"levelo://app?vid=9ad311dd-c450-4f09-933a-ef53d4559dc3","ios":"levelo://app?vid=9ad311dd-c450-4f09-933a-ef53d4559dc3"},"vehicle_type_id":"4","last_reported":1734185280,"current_range_meters":26800,"station_id":"","pricing_plan_id":"cebpf4jnsgd1na2vs0mg"},{"bike_id":"ac213dcf-2b81-4db4-9d57-eadb95b2483a","system_id":"levelo_inurba_marseille","lat":43.26957,"lon":5.38912,"is_reserved":false,"is_disabled":false,"rental_uris":{"android":"levelo://app?vid=ac213dcf-2b81-4db4-9d57-eadb95b2483a","ios":"levelo://app?vid=ac213dcf-2b81-4db4-9d57-eadb95b2483a"},"vehicle_type_id":"4","last_reported":1734185280,"current_range_meters":16000,"station_id":"ce4bhhh2rcd13ifvqfl0","pricing_plan_id":"cebpf4jnsgd1na2vs0mg"},{"bike_id":"3787bba6-8a43-4277-afd7-a70b2fecfb32","system_id":"levelo_inurba_marseille","lat":43.27322,"lon":5.39138,"is_reserved":false,"is_disabled":false,"rental_uris":{"android":"levelo://app?vid=3787bba6-8a43-4277-afd7-a70b2fecfb32","ios":"levelo://app?vid=3787bba6-8a43-4277-afd7-a70b2fecfb32"},"vehicle_type_id":"4","last_reported":1734185280,"current_range_meters":39200,"station_id":"ce4bhgp2rcd13ifvqfe0","pricing_plan_id":"cebpf4jnsgd1na2vs0mg"},{"bike_id":"41f926b2-a436-44a1-9af3-ff12c3760a91","system_id":"levelo_inurba_marseille","lat":43.26786,"lon":5.39426,"is_reserved":false,"is_disabled":false,"rental_uris":{"android":"levelo://app?vid=41f926b2-a436-44a1-9af3-ff12c3760a91","ios":"levelo://app?vid=41f926b2-a436-44a1-9af3-ff12c3760a91"},"vehicle_type_id":"4","last_reported":1734185280,"current_range_meters":35600,"station_id":"ce4bhh12rcd13ifvqfg0","pricing_plan_id":"cebpf4jnsgd1na2vs0mg"},{"bike_id":"af67ac53-ba21-4ff0-8334-95679e9ff2cc","system_id":"levelo_inurba_marseille","lat":43.278805,"lon":5.388003,"is_reserved":false,"is_disabled":true,"rental_uris":{"android":"levelo://app?vid=af67ac53-ba21-4ff0-8334-95679e9ff2cc","ios":"levelo://app?vid=af67ac53-ba21-4ff0-8334-95679e9ff2cc"},"vehicle_type_id":"4","last_reported":1734185280,"current_range_meters":1600,"station_id":"","pricing_plan_id":"cebpf4jnsgd1na2vs0mg"},{"bike_id":"c1ae412a-6681-4523-b320-819c39a2e95e","system_id":"levelo_inurba_marseille","lat":43.29779,"lon":5.3812,"is_reserved":false,"is_disabled":false,"rental_uris":{"android":"levelo://app?vid=c1ae412a-6681-4523-b320-819c39a2e95e","ios":"levelo://app?vid=c1ae412a-6681-4523-b320-819c39a2e95e"},"vehicle_type_id":"4","last_reported":1734185280,"current_range_meters":23200,"station_id":"ce4bgip2rcd13ifvqbb0","pricing_plan_id":"cebpf4jnsgd1na2vs0mg"},{"bike_id":"1b7b4ff3-4a1d-49c7-b08f-bb135a59f385","system_id":"levelo_inurba_marseille","lat":43.24073,"lon":5.37764,"is_reserved":false,"is_disabled":true,"rental_uris":{"android":"levelo://app?vid=1b7b4ff3-4a1d-49c7-b08f-bb135a59f385","ios":"levelo://app?vid=1b7b4ff3-4a1d-49c7-b08f-bb135a59f385"},"vehicle_type_id":"4","last_reported":1734185280,"current_range_meters":0,"station_id":"ce4bhnp2rcd13ifvqgvg","pricing_plan_id":"cebpf4jnsgd1na2vs0mg"},{"bike_id":"0232408d-292c-41d3-b181-663261afd040","system_id":"levelo_inurba_marseille","lat":43.27476,"lon":5.40933,"is_reserved":false,"is_disabled":false,"rental_uris":{"android":"levelo://app?vid=0232408d-292c-41d3-b181-663261afd040","ios":"levelo://app?vid=0232408d-292c-41d3-b181-663261afd040"},"vehicle_type_id":"4","last_reported":1734185280,"current_range_meters":34000,"station_id":"","pricing_plan_id":"cebpf4jnsgd1na2vs0mg"},{"bike_id":"897bdc92-f1d7-46ce-b4b6-539838ebfaae","system_id":"levelo_inurba_marseille","lat":43.27998,"lon":5.41662,"is_reserved":false,"is_disabled":false,"rental_uris":{"android":"levelo://app?vid=897bdc92-f1d7-46ce-b4b6-539838ebfaae","ios":"levelo://app?vid=897bdc92-f1d7-46ce-b4b6-539838ebfaae"},"vehicle_type_id":"4","last_reported":1734185280,"current_range_meters":8000,"station_id":"ce4bho12rcd13ifvqh1g","pricing_plan_id":"cebpf4jnsgd1na2vs0mg"},{"bike_id":"9b4b0523-bd2e-4c02-8a7f-68d17a5c480c","system_id":"levelo_inurba_marseille","lat":43.32539,"lon":5.41448,"is_reserved":false,"is_disabled":false,"rental_uris":{"android":"levelo://app?vid=9b4b0523-bd2e-4c02-8a7f-68d17a5c480c","ios":"levelo://app?vid=9b4b0523-bd2e-4c02-8a7f-68d17a5c480c"},"vehicle_type_id":"4","last_reported":1734185280,"current_range_meters":38000,"station_id":"ce4bhq12rcd13ifvqhhg","pricing_plan_id":"cebpf4jnsgd1na2vs0mg"},{"bike_id":"5c616e93-fdc8-47af-a6db-2b046bc69090","system_id":"levelo_inurba_marseille","lat":43.29571,"lon":5.37568,"is_reserved":false,"is_disabled":false,"rental_uris":{"android":"levelo://app?vid=5c616e93-fdc8-47af-a6db-2b046bc69090","ios":"levelo://app?vid=5c616e93-fdc8-47af-a6db-2b046bc69090"},"vehicle_type_id":"4","last_reported":1734185280,"current_range_meters":17200,"station_id":"ce4bgh92rcd13ifvqb50","pricing_plan_id":"cebpf4jnsgd1na2vs0mg"},{"bike_id":"d65fcea9-51ba-41f0-86fd-e798dfdd6f09","system_id":"levelo_inurba_marseille","lat":43.28703,"lon":5.38316,"is_reserved":false,"is_disabled":true,"rental_uris":{"android":"levelo://app?vid=d65fcea9-51ba-41f0-86fd-e798dfdd6f09","ios":"levelo://app?vid=d65fcea9-51ba-41f0-86fd-e798dfdd6f09"},"vehicle_type_id":"4","last_reported":1734185280,"current_range_meters":0,"station_id":"","pricing_plan_id":"cebpf4jnsgd1na2vs0mg"},{"bike_id":"3d74cfa0-2e7a-4866-b0ce-62bbd1055103","system_id":"levelo_inurba_marseille","lat":43.29967,"lon":5.37164,"is_reserved":false,"is_disabled":false,"rental_uris":{"android":"levelo://app?vid=3d74cfa0-2e7a-4866-b0ce-62bbd1055103","ios":"levelo://app?vid=3d74cfa0-2e7a-4866-b0ce-62bbd1055103"},"vehicle_type_id":"4","last_reported":1734185280,"current_range_meters":38400,"station_id":"ce4bgr92rcd13ifvqc7g","pricing_plan_id":"cebpf4jnsgd1na2vs0mg"},{"bike_id":"30b09c14-5db6-4bdd-8ec0-8d8fd355bef3","system_id":"levelo_inurba_marseille","lat":43.298847,"lon":5.39759,"is_reserved":false,"is_disabled":true,"rental_uris":{"android":"levelo://app?vid=30b09c14-5db6-4bdd-8ec0-8d8fd355bef3","ios":"levelo://app?vid=30b09c14-5db6-4bdd-8ec0-8d8fd355bef3"},"vehicle_type_id":"4","last_reported":1734185280,"current_range_meters":36800,"station_id":"ce4bh0h2rcd13ifvqd50","pricing_plan_id":"cebpf4jnsgd1na2vs0mg"},{"bike_id":"4ae9e4fd-9127-4c06-b04c-689f53ae9385","system_id":"levelo_inurba_marseille","lat":43.30134,"lon":5.39873,"is_reserved":false,"is_disabled":true,"rental_uris":{"android":"levelo://app?vid=4ae9e4fd-9127-4c06-b04c-689f53ae9385","ios":"levelo://app?vid=4ae9e4fd-9127-4c06-b04c-689f53ae9385"},"vehicle_type_id":"4","last_reported":1734185280,"current_range_meters":32000,"station_id":"ce4bh0h2rcd13ifvqd40","pricing_plan_id":"cebpf4jnsgd1na2vs0mg"},{"bike_id":"e5007d7d-30da-4cfd-a7f0-3df2adfbe187","system_id":"levelo_inurba_marseille","lat":43.29746,"lon":5.38969,"is_reserved":false,"is_disabled":false,"rental_uris":{"android":"levelo://app?vid=e5007d7d-30da-4cfd-a7f0-3df2adfbe187","ios":"levelo://app?vid=e5007d7d-30da-4cfd-a7f0-3df2adfbe187"},"vehicle_type_id":"4","last_reported":1734185280,"current_range_meters":17200,"station_id":"","pricing_plan_id":"cebpf4jnsgd1na2vs0mg"},{"bike_id":"e619691d-a413-4fda-9f27-3cb4470161bf","system_id":"levelo_inurba_marseille","lat":43.2961,"lon":5.37724,"is_reserved":false,"is_disabled":false,"rental_uris":{"android":"levelo://app?vid=e619691d-a413-4fda-9f27-3cb4470161bf","ios":"levelo://app?vid=e619691d-a413-4fda-9f27-3cb4470161bf"},"vehicle_type_id":"4","last_reported":1734185280,"current_range_meters":14000,"station_id":"ce4bgi92rcd13ifvqb90","pricing_plan_id":"cebpf4jnsgd1na2vs0mg"},{"bike_id":"64203de9-e72b-4d66-9a84-7a315c7ed37f","system_id":"levelo_inurba_marseille","lat":43.29434,"lon":5.3742,"is_reserved":false,"is_disabled":true,"rental_uris":{"android":"levelo://app?vid=64203de9-e72b-4d66-9a84-7a315c7ed37f","ios":"levelo://app?vid=64203de9-e72b-4d66-9a84-7a315c7ed37f"},"vehicle_type_id":"4","last_reported":1734185280,"current_range_meters":0,"station_id":"","pricing_plan_id":"cebpf4jnsgd1na2vs0mg"},{"bike_id":"52c20ae0-dd1c-4592-a876-988bfb62d281","system_id":"levelo_inurba_marseille","lat":43.31251,"lon":5.36911,"is_reserved":false,"is_disabled":false,"rental_uris":{"android":"levelo://app?vid=52c20ae0-dd1c-4592-a876-988bfb62d281","ios":"levelo://app?vid=52c20ae0-dd1c-4592-a876-988bfb62d281"},"vehicle_type_id":"4","last_reported":1734185280,"current_range_meters":38800,"station_id":"","pricing_plan_id":"cebpf4jnsgd1na2vs0mg"},{"bike_id":"42b4fe2d-11a7-43fb-9c7c-b9b0a313e822","system_id":"levelo_inurba_marseille","lat":43.28863,"lon":5.35846,"is_reserved":false,"is_disabled":false,"rental_uris":{"android":"levelo://app?vid=42b4fe2d-11a7-43fb-9c7c-b9b0a313e822","ios":"levelo://app?vid=42b4fe2d-11a7-43fb-9c7c-b9b0a313e822"},"vehicle_type_id":"4","last_reported":1734185280,"current_range_meters":12400,"station_id":"ce4bhb12rcd13ifvqem0","pricing_plan_id":"cebpf4jnsgd1na2vs0mg"},{"bike_id":"ef311535-8b3d-40de-81a1-67f78cf1efb7","system_id":"levelo_inurba_marseille","lat":43.26948,"lon":5.40259,"is_reserved":false,"is_disabled":false,"rental_uris":{"android":"levelo://app?vid=ef311535-8b3d-40de-81a1-67f78cf1efb7","ios":"levelo://app?vid=ef311535-8b3d-40de-81a1-67f78cf1efb7"},"vehicle_type_id":"4","last_reported":1734185280,"current_range_meters":28400,"station_id":"cjm6bp8fraef2m0cb0m0","pricing_plan_id":"cebpf4jnsgd1na2vs0mg"},{"bike_id":"b87949d9-3ce4-46dc-9631-d1edddd018e9","system_id":"levelo_inurba_marseille","lat":43.26554,"lon":5.37289,"is_reserved":false,"is_disabled":false,"rental_uris":{"android":"levelo://app?vid=b87949d9-3ce4-46dc-9631-d1edddd018e9","ios":"levelo://app?vid=b87949d9-3ce4-46dc-9631-d1edddd018e9"},"vehicle_type_id":"4","last_reported":1734185280,"current_range_meters":24000,"station_id":"ce4bhg12rcd13ifvqf70","pricing_plan_id":"cebpf4jnsgd1na2vs0mg"},{"bike_id":"ab78612c-ca8b-4d79-89d8-3c52620d5ecb","system_id":"levelo_inurba_marseille","lat":43.29717,"lon":5.37709,"is_reserved":false,"is_disabled":false,"rental_uris":{"android":"levelo://app?vid=ab78612c-ca8b-4d79-89d8-3c52620d5ecb","ios":"levelo://app?vid=ab78612c-ca8b-4d79-89d8-3c52620d5ecb"},"vehicle_type_id":"4","last_reported":1734185280,"current_range_meters":30400,"station_id":"ce4bgkh2rcd13ifvqbl0","pricing_plan_id":"cebpf4jnsgd1na2vs0mg"},{"bike_id":"8f3ac92d-1651-4772-899e-a1e56620faea","system_id":"levelo_inurba_marseille","lat":43.23963,"lon":5.36627,"is_reserved":false,"is_disabled":false,"rental_uris":{"android":"levelo://app?vid=8f3ac92d-1651-4772-899e-a1e56620faea","ios":"levelo://app?vid=8f3ac92d-1651-4772-899e-a1e56620faea"},"vehicle_type_id":"4","last_reported":1734185280,"current_range_meters":36400,"station_id":"ce4bhi12rcd13ifvqfp0","pricing_plan_id":"cebpf4jnsgd1na2vs0mg"},{"bike_id":"f2926aa7-9e5c-4a53-96ca-8a24fcc2aaa0","system_id":"levelo_inurba_marseille","lat":43.30533,"lon":5.38428,"is_reserved":true,"is_disabled":false,"rental_uris":{"android":"levelo://app?vid=f2926aa7-9e5c-4a53-96ca-8a24fcc2aaa0","ios":"levelo://app?vid=f2926aa7-9e5c-4a53-96ca-8a24fcc2aaa0"},"vehicle_type_id":"4","last_reported":1734185280,"current_range_meters":20400,"station_id":"ce4bgg92rcd13ifvqb30","pricing_plan_id":"cebpf4jnsgd1na2vs0mg"},{"bike_id":"c1cb7336-1bc2-47da-a06d-1f137b9a098c","system_id":"levelo_inurba_marseille","lat":43.29871,"lon":5.3974,"is_reserved":false,"is_disabled":false,"rental_uris":{"android":"levelo://app?vid=c1cb7336-1bc2-47da-a06d-1f137b9a098c","ios":"levelo://app?vid=c1cb7336-1bc2-47da-a06d-1f137b9a098c"},"vehicle_type_id":"4","last_reported":1734185280,"current_range_meters":15200,"station_id":"ce4bh0h2rcd13ifvqd50","pricing_plan_id":"cebpf4jnsgd1na2vs0mg"},{"bike_id":"c5612d8f-0e06-4158-a5da-981bdae3f4e9","system_id":"levelo_inurba_marseille","lat":43.28844,"lon":5.3584,"is_reserved":false,"is_disabled":false,"rental_uris":{"android":"levelo://app?vid=c5612d8f-0e06-4158-a5da-981bdae3f4e9","ios":"levelo://app?vid=c5612d8f-0e06-4158-a5da-981bdae3f4e9"},"vehicle_type_id":"4","last_reported":1734185280,"current_range_meters":36400,"station_id":"ce4bhb12rcd13ifvqem0","pricing_plan_id":"cebpf4jnsgd1na2vs0mg"},{"bike_id":"6f9ded0b-b0f0-4763-8a9f-3b4a533a2c57","system_id":"levelo_inurba_marseille","lat":43.29895,"lon":5.4367,"is_reserved":false,"is_disabled":false,"rental_uris":{"android":"levelo://app?vid=6f9ded0b-b0f0-4763-8a9f-3b4a533a2c57","ios":"levelo://app?vid=6f9ded0b-b0f0-4763-8a9f-3b4a533a2c57"},"vehicle_type_id":"4","last_reported":1734185280,"current_range_meters":37600,"station_id":"ce4bhpp2rcd13ifvqhfg","pricing_plan_id":"cebpf4jnsgd1na2vs0mg"},{"bike_id":"cee47e0b-683d-4e61-8f41-f6f65194c574","system_id":"levelo_inurba_marseille","lat":43.27215,"lon":5.39198,"is_reserved":false,"is_disabled":false,"rental_uris":{"android":"levelo://app?vid=cee47e0b-683d-4e61-8f41-f6f65194c574","ios":"levelo://app?vid=cee47e0b-683d-4e61-8f41-f6f65194c574"},"vehicle_type_id":"4","last_reported":1734185280,"current_range_meters":26000,"station_id":"ce4bhhp2rcd13ifvqfm0","pricing_plan_id":"cebpf4jnsgd1na2vs0mg"},{"bike_id":"07154a6e-1aad-4b6f-8cd5-49a1da2b8e24","system_id":"levelo_inurba_marseille","lat":43.23161,"lon":5.4371,"is_reserved":false,"is_disabled":false,"rental_uris":{"android":"levelo://app?vid=07154a6e-1aad-4b6f-8cd5-49a1da2b8e24","ios":"levelo://app?vid=07154a6e-1aad-4b6f-8cd5-49a1da2b8e24"},"vehicle_type_id":"4","last_reported":1734185280,"current_range_meters":28000,"station_id":"ce4bhmp2rcd13ifvqgog","pricing_plan_id":"cebpf4jnsgd1na2vs0mg"},{"bike_id":"de1ffc90-706b-4709-b380-fb4761335aec","system_id":"levelo_inurba_marseille","lat":43.29722,"lon":5.37689,"is_reserved":false,"is_disabled":false,"rental_uris":{"android":"levelo://app?vid=de1ffc90-706b-4709-b380-fb4761335aec","ios":"levelo://app?vid=de1ffc90-706b-4709-b380-fb4761335aec"},"vehicle_type_id":"4","last_reported":1734185280,"current_range_meters":34000,"station_id":"ce4bgkh2rcd13ifvqbl0","pricing_plan_id":"cebpf4jnsgd1na2vs0mg"},{"bike_id":"1b6993b6-94af-4f4c-928f-c1023bb0af28","system_id":"levelo_inurba_marseille","lat":43.29025,"lon":5.37574,"is_reserved":false,"is_disabled":false,"rental_uris":{"android":"levelo://app?vid=1b6993b6-94af-4f4c-928f-c1023bb0af28","ios":"levelo://app?vid=1b6993b6-94af-4f4c-928f-c1023bb0af28"},"vehicle_type_id":"4","last_reported":1734185280,"current_range_meters":22400,"station_id":"ce4bh692rcd13ifvqe90","pricing_plan_id":"cebpf4jnsgd1na2vs0mg"},{"bike_id":"ee929a18-ce61-459b-bf03-f70a822cd29a","system_id":"levelo_inurba_marseille","lat":43.26786,"lon":5.39416,"is_reserved":false,"is_disabled":false,"rental_uris":{"android":"levelo://app?vid=ee929a18-ce61-459b-bf03-f70a822cd29a","ios":"levelo://app?vid=ee929a18-ce61-459b-bf03-f70a822cd29a"},"vehicle_type_id":"4","last_reported":1734185280,"current_range_meters":28000,"station_id":"ce4bhh12rcd13ifvqfg0","pricing_plan_id":"cebpf4jnsgd1na2vs0mg"},{"bike_id":"1c87fd27-7d73-42de-8301-46fc95d5e5d3","system_id":"levelo_inurba_marseille","lat":43.33737,"lon":5.39164,"is_reserved":false,"is_disabled":false,"rental_uris":{"android":"levelo://app?vid=1c87fd27-7d73-42de-8301-46fc95d5e5d3","ios":"levelo://app?vid=1c87fd27-7d73-42de-8301-46fc95d5e5d3"},"vehicle_type_id":"4","last_reported":1734185280,"current_range_meters":24000,"station_id":"ce4bhr92rcd13ifvqhsg","pricing_plan_id":"cebpf4jnsgd1na2vs0mg"},{"bike_id":"818ef841-d8c0-4c92-9c0c-4a12654cda95","system_id":"levelo_inurba_marseille","lat":43.30592,"lon":5.37248,"is_reserved":false,"is_disabled":false,"rental_uris":{"android":"levelo://app?vid=818ef841-d8c0-4c92-9c0c-4a12654cda95","ios":"levelo://app?vid=818ef841-d8c0-4c92-9c0c-4a12654cda95"},"vehicle_type_id":"4","last_reported":1734185280,"current_range_meters":25600,"station_id":"ce4bgqh2rcd13ifvqc4g","pricing_plan_id":"cebpf4jnsgd1na2vs0mg"},{"bike_id":"ca7827b8-b3f7-4e24-8ad8-07e3e54f9e44","system_id":"levelo_inurba_marseille","lat":43.29794,"lon":5.40397,"is_reserved":false,"is_disabled":true,"rental_uris":{"android":"levelo://app?vid=ca7827b8-b3f7-4e24-8ad8-07e3e54f9e44","ios":"levelo://app?vid=ca7827b8-b3f7-4e24-8ad8-07e3e54f9e44"},"vehicle_type_id":"4","last_reported":1734185280,"current_range_meters":0,"station_id":"ce4bh112rcd13ifvqd90","pricing_plan_id":"cebpf4jnsgd1na2vs0mg"},{"bike_id":"d6b2c14b-7bd9-40e9-b393-058718aa963e","system_id":"levelo_inurba_marseille","lat":43.3046,"lon":5.37912,"is_reserved":false,"is_disabled":false,"rental_uris":{"android":"levelo://app?vid=d6b2c14b-7bd9-40e9-b393-058718aa963e","ios":"levelo://app?vid=d6b2c14b-7bd9-40e9-b393-058718aa963e"},"vehicle_type_id":"4","last_reported":1734185280,"current_range_meters":38400,"station_id":"ce4bgup2rcd13ifvqcn0","pricing_plan_id":"cebpf4jnsgd1na2vs0mg"},{"bike_id":"2a9bbe81-c578-430a-a2f2-77cf58fb1d2c","system_id":"levelo_inurba_marseille","lat":43.24159,"lon":5.39714,"is_reserved":false,"is_disabled":false,"rental_uris":{"android":"levelo://app?vid=2a9bbe81-c578-430a-a2f2-77cf58fb1d2c","ios":"levelo://app?vid=2a9bbe81-c578-430a-a2f2-77cf58fb1d2c"},"vehicle_type_id":"4","last_reported":1734185280,"current_range_meters":10000,"station_id":"ce4bhn12rcd13ifvqgpg","pricing_plan_id":"cebpf4jnsgd1na2vs0mg"},{"bike_id":"884e746e-02a4-4564-abcb-e018f31561ec","system_id":"levelo_inurba_marseille","lat":43.28838,"lon":5.39308,"is_reserved":false,"is_disabled":false,"rental_uris":{"android":"levelo://app?vid=884e746e-02a4-4564-abcb-e018f31561ec","ios":"levelo://app?vid=884e746e-02a4-4564-abcb-e018f31561ec"},"vehicle_type_id":"4","last_reported":1734185280,"current_range_meters":6800,"station_id":"ce4bh2p2rcd13ifvqdi0","pricing_plan_id":"cebpf4jnsgd1na2vs0mg"},{"bike_id":"2f2b0523-99c1-4a4c-871b-4ed266236d4b","system_id":"levelo_inurba_marseille","lat":43.29771,"lon":5.37109,"is_reserved":false,"is_disabled":false,"rental_uris":{"android":"levelo://app?vid=2f2b0523-99c1-4a4c-871b-4ed266236d4b","ios":"levelo://app?vid=2f2b0523-99c1-4a4c-871b-4ed266236d4b"},"vehicle_type_id":"4","last_reported":1734185280,"current_range_meters":14400,"station_id":"ce4bgop2rcd13ifvqc1g","pricing_plan_id":"cebpf4jnsgd1na2vs0mg"},{"bike_id":"17e3d656-642e-42aa-8927-0ad7c0067e15","system_id":"levelo_inurba_marseille","lat":43.26779,"lon":5.39414,"is_reserved":false,"is_disabled":false,"rental_uris":{"android":"levelo://app?vid=17e3d656-642e-42aa-8927-0ad7c0067e15","ios":"levelo://app?vid=17e3d656-642e-42aa-8927-0ad7c0067e15"},"vehicle_type_id":"4","last_reported":1734185280,"current_range_meters":18000,"station_id":"ce4bhh12rcd13ifvqfg0","pricing_plan_id":"cebpf4jnsgd1na2vs0mg"},{"bike_id":"91bc6f38-f0e5-4266-96b0-b5a862348a34","system_id":"levelo_inurba_marseille","lat":43.26935,"lon":5.3892,"is_reserved":false,"is_disabled":false,"rental_uris":{"android":"levelo://app?vid=91bc6f38-f0e5-4266-96b0-b5a862348a34","ios":"levelo://app?vid=91bc6f38-f0e5-4266-96b0-b5a862348a34"},"vehicle_type_id":"4","last_reported":1734185280,"current_range_meters":38800,"station_id":"ce4bhhh2rcd13ifvqfl0","pricing_plan_id":"cebpf4jnsgd1na2vs0mg"},{"bike_id":"da1ce74e-6ebb-4417-8473-55c087e2b362","system_id":"levelo_inurba_marseille","lat":43.27315,"lon":5.39079,"is_reserved":false,"is_disabled":false,"rental_uris":{"android":"levelo://app?vid=da1ce74e-6ebb-4417-8473-55c087e2b362","ios":"levelo://app?vid=da1ce74e-6ebb-4417-8473-55c087e2b362"},"vehicle_type_id":"4","last_reported":1734185280,"current_range_meters":37600,"station_id":"ce4bhgp2rcd13ifvqfe0","pricing_plan_id":"cebpf4jnsgd1na2vs0mg"},{"bike_id":"c5c1b5c9-66c8-433b-8beb-0d35264533eb","system_id":"levelo_inurba_marseille","lat":43.32663,"lon":5.40993,"is_reserved":false,"is_disabled":false,"rental_uris":{"android":"levelo://app?vid=c5c1b5c9-66c8-433b-8beb-0d35264533eb","ios":"levelo://app?vid=c5c1b5c9-66c8-433b-8beb-0d35264533eb"},"vehicle_type_id":"4","last_reported":1734185280,"current_range_meters":38800,"station_id":"ce4bhpp2rcd13ifvqhgg","pricing_plan_id":"cebpf4jnsgd1na2vs0mg"},{"bike_id":"01900be5-4d44-4f88-a50e-8517f36261e7","system_id":"levelo_inurba_marseille","lat":43.28834,"lon":5.3931,"is_reserved":false,"is_disabled":false,"rental_uris":{"android":"levelo://app?vid=01900be5-4d44-4f88-a50e-8517f36261e7","ios":"levelo://app?vid=01900be5-4d44-4f88-a50e-8517f36261e7"},"vehicle_type_id":"4","last_reported":1734185280,"current_range_meters":35600,"station_id":"ce4bh2p2rcd13ifvqdi0","pricing_plan_id":"cebpf4jnsgd1na2vs0mg"},{"bike_id":"28fc90b9-3e7b-4c11-b6c2-40d95902dadd","system_id":"levelo_inurba_marseille","lat":43.22931,"lon":5.35377,"is_reserved":false,"is_disabled":false,"rental_uris":{"android":"levelo://app?vid=28fc90b9-3e7b-4c11-b6c2-40d95902dadd","ios":"levelo://app?vid=28fc90b9-3e7b-4c11-b6c2-40d95902dadd"},"vehicle_type_id":"4","last_reported":1734185280,"current_range_meters":39200,"station_id":"cpo3532slgdg3j2ikp40","pricing_plan_id":"cebpf4jnsgd1na2vs0mg"},{"bike_id":"d60b1fd4-228a-4ceb-b91f-e53f9ec922f0","system_id":"levelo_inurba_marseille","lat":43.27214,"lon":5.39176,"is_reserved":false,"is_disabled":false,"rental_uris":{"android":"levelo://app?vid=d60b1fd4-228a-4ceb-b91f-e53f9ec922f0","ios":"levelo://app?vid=d60b1fd4-228a-4ceb-b91f-e53f9ec922f0"},"vehicle_type_id":"4","last_reported":1734185280,"current_range_meters":25600,"station_id":"ce4bhhp2rcd13ifvqfm0","pricing_plan_id":"cebpf4jnsgd1na2vs0mg"},{"bike_id":"f2e3ed99-4d7d-44ed-9336-bafd9f31ea87","system_id":"levelo_inurba_marseille","lat":43.27974,"lon":5.38749,"is_reserved":true,"is_disabled":false,"rental_uris":{"android":"levelo://app?vid=f2e3ed99-4d7d-44ed-9336-bafd9f31ea87","ios":"levelo://app?vid=f2e3ed99-4d7d-44ed-9336-bafd9f31ea87"},"vehicle_type_id":"4","last_reported":1734185280,"current_range_meters":38800,"station_id":"ce4bhg12rcd13ifvqf80","pricing_plan_id":"cebpf4jnsgd1na2vs0mg"},{"bike_id":"6aadc0dd-d854-4c08-9c03-8083806fe54c","system_id":"levelo_inurba_marseille","lat":43.27367,"lon":5.36261,"is_reserved":false,"is_disabled":false,"rental_uris":{"android":"levelo://app?vid=6aadc0dd-d854-4c08-9c03-8083806fe54c","ios":"levelo://app?vid=6aadc0dd-d854-4c08-9c03-8083806fe54c"},"vehicle_type_id":"4","last_reported":1734185280,"current_range_meters":38800,"station_id":"ce4bhbh2rcd13ifvqeo0","pricing_plan_id":"cebpf4jnsgd1na2vs0mg"},{"bike_id":"eb1496f4-67ed-47fd-8660-60023378367f","system_id":"levelo_inurba_marseille","lat":43.294212,"lon":5.374322,"is_reserved":false,"is_disabled":true,"rental_uris":{"android":"levelo://app?vid=eb1496f4-67ed-47fd-8660-60023378367f","ios":"levelo://app?vid=eb1496f4-67ed-47fd-8660-60023378367f"},"vehicle_type_id":"4","last_reported":1734185280,"current_range_meters":0,"station_id":"","pricing_plan_id":"cebpf4jnsgd1na2vs0mg"},{"bike_id":"31c7c931-55e2-482c-9ee5-63e523f58659","system_id":"levelo_inurba_marseille","lat":43.2998,"lon":5.37177,"is_reserved":false,"is_disabled":false,"rental_uris":{"android":"levelo://app?vid=31c7c931-55e2-482c-9ee5-63e523f58659","ios":"levelo://app?vid=31c7c931-55e2-482c-9ee5-63e523f58659"},"vehicle_type_id":"4","last_reported":1734185280,"current_range_meters":38800,"station_id":"ce4bgr92rcd13ifvqc7g","pricing_plan_id":"cebpf4jnsgd1na2vs0mg"},{"bike_id":"faf7cbfc-5a3b-4c27-83a7-aaa310de447c","system_id":"levelo_inurba_marseille","lat":43.27215,"lon":5.39204,"is_reserved":false,"is_disabled":false,"rental_uris":{"android":"levelo://app?vid=faf7cbfc-5a3b-4c27-83a7-aaa310de447c","ios":"levelo://app?vid=faf7cbfc-5a3b-4c27-83a7-aaa310de447c"},"vehicle_type_id":"4","last_reported":1734185280,"current_range_meters":37600,"station_id":"ce4bhhp2rcd13ifvqfm0","pricing_plan_id":"cebpf4jnsgd1na2vs0mg"},{"bike_id":"a5754fbb-2369-4ca9-ba0a-964bbf483bd3","system_id":"levelo_inurba_marseille","lat":43.23193,"lon":5.35548,"is_reserved":false,"is_disabled":true,"rental_uris":{"android":"levelo://app?vid=a5754fbb-2369-4ca9-ba0a-964bbf483bd3","ios":"levelo://app?vid=a5754fbb-2369-4ca9-ba0a-964bbf483bd3"},"vehicle_type_id":"4","last_reported":1734185280,"current_range_meters":400,"station_id":"ce4bhu92rcd13ifvqi70","pricing_plan_id":"cebpf4jnsgd1na2vs0mg"},{"bike_id":"a2e3bf37-f1e5-4b35-adeb-0da3e0fe69d3","system_id":"levelo_inurba_marseille","lat":43.286301,"lon":5.386171,"is_reserved":false,"is_disabled":true,"rental_uris":{"android":"levelo://app?vid=a2e3bf37-f1e5-4b35-adeb-0da3e0fe69d3","ios":"levelo://app?vid=a2e3bf37-f1e5-4b35-adeb-0da3e0fe69d3"},"vehicle_type_id":"4","last_reported":1734185280,"current_range_meters":0,"station_id":"","pricing_plan_id":"cebpf4jnsgd1na2vs0mg"},{"bike_id":"6d43effb-9c5d-4122-bf9c-c0a6eb70a617","system_id":"levelo_inurba_marseille","lat":43.31706,"lon":5.43711,"is_reserved":false,"is_disabled":false,"rental_uris":{"android":"levelo://app?vid=6d43effb-9c5d-4122-bf9c-c0a6eb70a617","ios":"levelo://app?vid=6d43effb-9c5d-4122-bf9c-c0a6eb70a617"},"vehicle_type_id":"4","last_reported":1734185280,"current_range_meters":28000,"station_id":"ce4bhp92rcd13ifvqhcg","pricing_plan_id":"cebpf4jnsgd1na2vs0mg"},{"bike_id":"2bef6397-6d43-470b-a7fa-4ef7c62248e9","system_id":"levelo_inurba_marseille","lat":43.30148,"lon":5.38091,"is_reserved":false,"is_disabled":false,"rental_uris":{"android":"levelo://app?vid=2bef6397-6d43-470b-a7fa-4ef7c62248e9","ios":"levelo://app?vid=2bef6397-6d43-470b-a7fa-4ef7c62248e9"},"vehicle_type_id":"4","last_reported":1734185280,"current_range_meters":22400,"station_id":"ce4bgjp2rcd13ifvqbh0","pricing_plan_id":"cebpf4jnsgd1na2vs0mg"},{"bike_id":"7598c6ce-cf6e-4fb0-841c-5c5c2ee94d30","system_id":"levelo_inurba_marseille","lat":43.23183,"lon":5.43792,"is_reserved":false,"is_disabled":false,"rental_uris":{"android":"levelo://app?vid=7598c6ce-cf6e-4fb0-841c-5c5c2ee94d30","ios":"levelo://app?vid=7598c6ce-cf6e-4fb0-841c-5c5c2ee94d30"},"vehicle_type_id":"4","last_reported":1734185280,"current_range_meters":36800,"station_id":"ce4bhmp2rcd13ifvqgog","pricing_plan_id":"cebpf4jnsgd1na2vs0mg"},{"bike_id":"ec927667-9164-479a-b446-395f55c955bb","system_id":"levelo_inurba_marseille","lat":43.22914,"lon":5.35376,"is_reserved":false,"is_disabled":false,"rental_uris":{"android":"levelo://app?vid=ec927667-9164-479a-b446-395f55c955bb","ios":"levelo://app?vid=ec927667-9164-479a-b446-395f55c955bb"},"vehicle_type_id":"4","last_reported":1734185280,"current_range_meters":39200,"station_id":"cpo3532slgdg3j2ikp40","pricing_plan_id":"cebpf4jnsgd1na2vs0mg"},{"bike_id":"e171553a-d499-40c6-b158-4c1c9a0d09dc","system_id":"levelo_inurba_marseille","lat":43.27196,"lon":5.40995,"is_reserved":false,"is_disabled":false,"rental_uris":{"android":"levelo://app?vid=e171553a-d499-40c6-b158-4c1c9a0d09dc","ios":"levelo://app?vid=e171553a-d499-40c6-b158-4c1c9a0d09dc"},"vehicle_type_id":"4","last_reported":1734185280,"current_range_meters":39200,"station_id":"ce4bhl12rcd13ifvqgf0","pricing_plan_id":"cebpf4jnsgd1na2vs0mg"},{"bike_id":"804875ea-4876-4d88-b7a5-51039ee819e0","system_id":"levelo_inurba_marseille","lat":43.32655,"lon":5.40996,"is_reserved":false,"is_disabled":false,"rental_uris":{"android":"levelo://app?vid=804875ea-4876-4d88-b7a5-51039ee819e0","ios":"levelo://app?vid=804875ea-4876-4d88-b7a5-51039ee819e0"},"vehicle_type_id":"4","last_reported":1734185280,"current_range_meters":38800,"station_id":"ce4bhpp2rcd13ifvqhgg","pricing_plan_id":"cebpf4jnsgd1na2vs0mg"},{"bike_id":"d0f616d3-4e1b-4801-b6b7-5762445f0e8a","system_id":"levelo_inurba_marseille","lat":43.2586,"lon":5.39899,"is_reserved":false,"is_disabled":false,"rental_uris":{"android":"levelo://app?vid=d0f616d3-4e1b-4801-b6b7-5762445f0e8a","ios":"levelo://app?vid=d0f616d3-4e1b-4801-b6b7-5762445f0e8a"},"vehicle_type_id":"4","last_reported":1734185280,"current_range_meters":6800,"station_id":"ce4bhl92rcd13ifvqghg","pricing_plan_id":"cebpf4jnsgd1na2vs0mg"},{"bike_id":"a02bce7c-288c-46c0-a9fd-8aa8e0178c35","system_id":"levelo_inurba_marseille","lat":43.23194,"lon":5.35556,"is_reserved":false,"is_disabled":false,"rental_uris":{"android":"levelo://app?vid=a02bce7c-288c-46c0-a9fd-8aa8e0178c35","ios":"levelo://app?vid=a02bce7c-288c-46c0-a9fd-8aa8e0178c35"},"vehicle_type_id":"4","last_reported":1734185280,"current_range_meters":24400,"station_id":"ce4bhu92rcd13ifvqi70","pricing_plan_id":"cebpf4jnsgd1na2vs0mg"},{"bike_id":"f1a06ee4-1d14-4634-9311-99ca126b78ec","system_id":"levelo_inurba_marseille","lat":43.23969,"lon":5.3662,"is_reserved":false,"is_disabled":false,"rental_uris":{"android":"levelo://app?vid=f1a06ee4-1d14-4634-9311-99ca126b78ec","ios":"levelo://app?vid=f1a06ee4-1d14-4634-9311-99ca126b78ec"},"vehicle_type_id":"4","last_reported":1734185280,"current_range_meters":4000,"station_id":"ce4bhi12rcd13ifvqfp0","pricing_plan_id":"cebpf4jnsgd1na2vs0mg"},{"bike_id":"af335707-f603-46ad-9ef2-27a37be6dc32","system_id":"levelo_inurba_marseille","lat":43.30462,"lon":5.37909,"is_reserved":false,"is_disabled":false,"rental_uris":{"android":"levelo://app?vid=af335707-f603-46ad-9ef2-27a37be6dc32","ios":"levelo://app?vid=af335707-f603-46ad-9ef2-27a37be6dc32"},"vehicle_type_id":"4","last_reported":1734185280,"current_range_meters":38800,"station_id":"ce4bgup2rcd13ifvqcn0","pricing_plan_id":"cebpf4jnsgd1na2vs0mg"},{"bike_id":"026eac8f-1877-4181-bac3-28bf4f63c4e7","system_id":"levelo_inurba_marseille","lat":43.29275,"lon":5.36849,"is_reserved":false,"is_disabled":false,"rental_uris":{"android":"levelo://app?vid=026eac8f-1877-4181-bac3-28bf4f63c4e7","ios":"levelo://app?vid=026eac8f-1877-4181-bac3-28bf4f63c4e7"},"vehicle_type_id":"4","last_reported":1734185280,"current_range_meters":30000,"station_id":"ce4bhbp2rcd13ifvqesg","pricing_plan_id":"cebpf4jnsgd1na2vs0mg"},{"bike_id":"807c66ce-b746-48c3-bf88-07717a49aec6","system_id":"levelo_inurba_marseille","lat":43.29957,"lon":5.37194,"is_reserved":false,"is_disabled":false,"rental_uris":{"android":"levelo://app?vid=807c66ce-b746-48c3-bf88-07717a49aec6","ios":"levelo://app?vid=807c66ce-b746-48c3-bf88-07717a49aec6"},"vehicle_type_id":"4","last_reported":1734185280,"current_range_meters":39200,"station_id":"ce4bgr92rcd13ifvqc7g","pricing_plan_id":"cebpf4jnsgd1na2vs0mg"},{"bike_id":"0d5b1b0c-54d0-463e-8e32-441120da14e0","system_id":"levelo_inurba_marseille","lat":43.26943,"lon":5.40248,"is_reserved":false,"is_disabled":false,"rental_uris":{"android":"levelo://app?vid=0d5b1b0c-54d0-463e-8e32-441120da14e0","ios":"levelo://app?vid=0d5b1b0c-54d0-463e-8e32-441120da14e0"},"vehicle_type_id":"4","last_reported":1734185280,"current_range_meters":24800,"station_id":"cjm6bp8fraef2m0cb0m0","pricing_plan_id":"cebpf4jnsgd1na2vs0mg"},{"bike_id":"5f4f873f-92ae-4de2-b54c-1a95dc7d21d1","system_id":"levelo_inurba_marseille","lat":43.29991,"lon":5.37175,"is_reserved":false,"is_disabled":true,"rental_uris":{"android":"levelo://app?vid=5f4f873f-92ae-4de2-b54c-1a95dc7d21d1","ios":"levelo://app?vid=5f4f873f-92ae-4de2-b54c-1a95dc7d21d1"},"vehicle_type_id":"4","last_reported":1734185280,"current_range_meters":400,"station_id":"ce4bgr92rcd13ifvqc7g","pricing_plan_id":"cebpf4jnsgd1na2vs0mg"},{"bike_id":"ac28ff4c-48d6-495a-9486-eac4ab35d1a1","system_id":"levelo_inurba_marseille","lat":43.24394,"lon":5.37048,"is_reserved":false,"is_disabled":false,"rental_uris":{"android":"levelo://app?vid=ac28ff4c-48d6-495a-9486-eac4ab35d1a1","ios":"levelo://app?vid=ac28ff4c-48d6-495a-9486-eac4ab35d1a1"},"vehicle_type_id":"4","last_reported":1734185280,"current_range_meters":17600,"station_id":"ce4bhhh2rcd13ifvqfk0","pricing_plan_id":"cebpf4jnsgd1na2vs0mg"},{"bike_id":"7691eeb5-458b-415d-8b8b-0369bf8ed1f5","system_id":"levelo_inurba_marseille","lat":43.27371,"lon":5.36259,"is_reserved":false,"is_disabled":false,"rental_uris":{"android":"levelo://app?vid=7691eeb5-458b-415d-8b8b-0369bf8ed1f5","ios":"levelo://app?vid=7691eeb5-458b-415d-8b8b-0369bf8ed1f5"},"vehicle_type_id":"4","last_reported":1734185280,"current_range_meters":39200,"station_id":"ce4bhbh2rcd13ifvqeo0","pricing_plan_id":"cebpf4jnsgd1na2vs0mg"},{"bike_id":"6347dac2-3384-4d85-977c-86b023f83fa8","system_id":"levelo_inurba_marseille","lat":43.31061,"lon":5.40094,"is_reserved":false,"is_disabled":false,"rental_uris":{"android":"levelo://app?vid=6347dac2-3384-4d85-977c-86b023f83fa8","ios":"levelo://app?vid=6347dac2-3384-4d85-977c-86b023f83fa8"},"vehicle_type_id":"4","last_reported":1734185280,"current_range_meters":36400,"station_id":"","pricing_plan_id":"cebpf4jnsgd1na2vs0mg"},{"bike_id":"24b14d49-2139-4f68-bb53-71e90dbfaf01","system_id":"levelo_inurba_marseille","lat":43.27996,"lon":5.40031,"is_reserved":false,"is_disabled":false,"rental_uris":{"android":"levelo://app?vid=24b14d49-2139-4f68-bb53-71e90dbfaf01","ios":"levelo://app?vid=24b14d49-2139-4f68-bb53-71e90dbfaf01"},"vehicle_type_id":"4","last_reported":1734185280,"current_range_meters":37600,"station_id":"ce4bho92rcd13ifvqh4g","pricing_plan_id":"cebpf4jnsgd1na2vs0mg"},{"bike_id":"c51154b5-1034-4fc0-8fac-d1d2e91dba39","system_id":"levelo_inurba_marseille","lat":43.23057,"lon":5.35494,"is_reserved":false,"is_disabled":false,"rental_uris":{"android":"levelo://app?vid=c51154b5-1034-4fc0-8fac-d1d2e91dba39","ios":"levelo://app?vid=c51154b5-1034-4fc0-8fac-d1d2e91dba39"},"vehicle_type_id":"4","last_reported":1734185280,"current_range_meters":10800,"station_id":"cpo3342slgdg3j2ifvpg","pricing_plan_id":"cebpf4jnsgd1na2vs0mg"},{"bike_id":"a4787828-f21a-4f65-9395-0d1b00e6c5c0","system_id":"levelo_inurba_marseille","lat":43.27317,"lon":5.39074,"is_reserved":false,"is_disabled":false,"rental_uris":{"android":"levelo://app?vid=a4787828-f21a-4f65-9395-0d1b00e6c5c0","ios":"levelo://app?vid=a4787828-f21a-4f65-9395-0d1b00e6c5c0"},"vehicle_type_id":"4","last_reported":1734185280,"current_range_meters":25600,"station_id":"ce4bhgp2rcd13ifvqfe0","pricing_plan_id":"cebpf4jnsgd1na2vs0mg"},{"bike_id":"9898497d-08a8-4f3f-896d-f939d7b3fae3","system_id":"levelo_inurba_marseille","lat":43.2972,"lon":5.37689,"is_reserved":false,"is_disabled":false,"rental_uris":{"android":"levelo://app?vid=9898497d-08a8-4f3f-896d-f939d7b3fae3","ios":"levelo://app?vid=9898497d-08a8-4f3f-896d-f939d7b3fae3"},"vehicle_type_id":"4","last_reported":1734185280,"current_range_meters":27200,"station_id":"ce4bgkh2rcd13ifvqbl0","pricing_plan_id":"cebpf4jnsgd1na2vs0mg"},{"bike_id":"b44a30ba-72f7-4613-a0ec-2939ad0c2725","system_id":"levelo_inurba_marseille","lat":43.25503,"lon":5.37651,"is_reserved":false,"is_disabled":false,"rental_uris":{"android":"levelo://app?vid=b44a30ba-72f7-4613-a0ec-2939ad0c2725","ios":"levelo://app?vid=b44a30ba-72f7-4613-a0ec-2939ad0c2725"},"vehicle_type_id":"4","last_reported":1734185280,"current_range_meters":38800,"station_id":"ce4bhh12rcd13ifvqff0","pricing_plan_id":"cebpf4jnsgd1na2vs0mg"},{"bike_id":"abe250a1-3d26-47a1-bae8-73bf3354b17a","system_id":"levelo_inurba_marseille","lat":43.27199,"lon":5.4099,"is_reserved":false,"is_disabled":false,"rental_uris":{"android":"levelo://app?vid=abe250a1-3d26-47a1-bae8-73bf3354b17a","ios":"levelo://app?vid=abe250a1-3d26-47a1-bae8-73bf3354b17a"},"vehicle_type_id":"4","last_reported":1734185280,"current_range_meters":10800,"station_id":"ce4bhl12rcd13ifvqgf0","pricing_plan_id":"cebpf4jnsgd1na2vs0mg"},{"bike_id":"6cd0cfd3-a094-446b-9ece-e3678d6f47a4","system_id":"levelo_inurba_marseille","lat":43.31498,"lon":5.37309,"is_reserved":false,"is_disabled":false,"rental_uris":{"android":"levelo://app?vid=6cd0cfd3-a094-446b-9ece-e3678d6f47a4","ios":"levelo://app?vid=6cd0cfd3-a094-446b-9ece-e3678d6f47a4"},"vehicle_type_id":"4","last_reported":1734185280,"current_range_meters":12800,"station_id":"ce4bgt12rcd13ifvqcd0","pricing_plan_id":"cebpf4jnsgd1na2vs0mg"},{"bike_id":"b22cae93-e5e3-467b-82be-f118d6d5c726","system_id":"levelo_inurba_marseille","lat":43.29199,"lon":5.35805,"is_reserved":false,"is_disabled":false,"rental_uris":{"android":"levelo://app?vid=b22cae93-e5e3-467b-82be-f118d6d5c726","ios":"levelo://app?vid=b22cae93-e5e3-467b-82be-f118d6d5c726"},"vehicle_type_id":"4","last_reported":1734185280,"current_range_meters":36000,"station_id":"ce4bhb12rcd13ifvqel0","pricing_plan_id":"cebpf4jnsgd1na2vs0mg"},{"bike_id":"0a82adb1-f497-4316-8724-e903095c5bd6","system_id":"levelo_inurba_marseille","lat":43.29212,"lon":5.36073,"is_reserved":false,"is_disabled":false,"rental_uris":{"android":"levelo://app?vid=0a82adb1-f497-4316-8724-e903095c5bd6","ios":"levelo://app?vid=0a82adb1-f497-4316-8724-e903095c5bd6"},"vehicle_type_id":"4","last_reported":1734185280,"current_range_meters":25200,"station_id":"ce4bhbh2rcd13ifvqeqg","pricing_plan_id":"cebpf4jnsgd1na2vs0mg"},{"bike_id":"bad09c18-7711-41ee-bbb5-b5fd34fb1d4d","system_id":"levelo_inurba_marseille","lat":43.27185,"lon":5.40982,"is_reserved":false,"is_disabled":false,"rental_uris":{"android":"levelo://app?vid=bad09c18-7711-41ee-bbb5-b5fd34fb1d4d","ios":"levelo://app?vid=bad09c18-7711-41ee-bbb5-b5fd34fb1d4d"},"vehicle_type_id":"4","last_reported":1734185280,"current_range_meters":39200,"station_id":"ce4bhl12rcd13ifvqgf0","pricing_plan_id":"cebpf4jnsgd1na2vs0mg"},{"bike_id":"d2a0b895-cddb-4c91-8025-52871ff8256e","system_id":"levelo_inurba_marseille","lat":43.32228,"lon":5.38952,"is_reserved":false,"is_disabled":true,"rental_uris":{"android":"levelo://app?vid=d2a0b895-cddb-4c91-8025-52871ff8256e","ios":"levelo://app?vid=d2a0b895-cddb-4c91-8025-52871ff8256e"},"vehicle_type_id":"4","last_reported":1734185280,"current_range_meters":38400,"station_id":"","pricing_plan_id":"cebpf4jnsgd1na2vs0mg"},{"bike_id":"603fe332-244d-480f-933c-9e6958f4aeb1","system_id":"levelo_inurba_marseille","lat":43.24813,"lon":5.37462,"is_reserved":false,"is_disabled":false,"rental_uris":{"android":"levelo://app?vid=603fe332-244d-480f-933c-9e6958f4aeb1","ios":"levelo://app?vid=603fe332-244d-480f-933c-9e6958f4aeb1"},"vehicle_type_id":"4","last_reported":1734185280,"current_range_meters":36800,"station_id":"ce4bhgh2rcd13ifvqfb0","pricing_plan_id":"cebpf4jnsgd1na2vs0mg"},{"bike_id":"73ef44c6-d42a-4ef5-af47-542e7073a722","system_id":"levelo_inurba_marseille","lat":43.25473,"lon":5.37694,"is_reserved":false,"is_disabled":false,"rental_uris":{"android":"levelo://app?vid=73ef44c6-d42a-4ef5-af47-542e7073a722","ios":"levelo://app?vid=73ef44c6-d42a-4ef5-af47-542e7073a722"},"vehicle_type_id":"4","last_reported":1734185280,"current_range_meters":38800,"station_id":"ce4bhh12rcd13ifvqff0","pricing_plan_id":"cebpf4jnsgd1na2vs0mg"},{"bike_id":"34a80e20-dc70-41ae-911b-7978942308e0","system_id":"levelo_inurba_marseille","lat":43.31893,"lon":5.40727,"is_reserved":false,"is_disabled":false,"rental_uris":{"android":"levelo://app?vid=34a80e20-dc70-41ae-911b-7978942308e0","ios":"levelo://app?vid=34a80e20-dc70-41ae-911b-7978942308e0"},"vehicle_type_id":"4","last_reported":1734185280,"current_range_meters":38800,"station_id":"ce4bhq12rcd13ifvqhig","pricing_plan_id":"cebpf4jnsgd1na2vs0mg"},{"bike_id":"587d1534-49c1-4e4a-a940-83a47fcf998c","system_id":"levelo_inurba_marseille","lat":43.29275,"lon":5.36847,"is_reserved":false,"is_disabled":false,"rental_uris":{"android":"levelo://app?vid=587d1534-49c1-4e4a-a940-83a47fcf998c","ios":"levelo://app?vid=587d1534-49c1-4e4a-a940-83a47fcf998c"},"vehicle_type_id":"4","last_reported":1734185280,"current_range_meters":27600,"station_id":"ce4bhbp2rcd13ifvqesg","pricing_plan_id":"cebpf4jnsgd1na2vs0mg"},{"bike_id":"6a81d341-07b6-4b20-abc2-b5abdb2485ee","system_id":"levelo_inurba_marseille","lat":43.27212,"lon":5.39181,"is_reserved":false,"is_disabled":false,"rental_uris":{"android":"levelo://app?vid=6a81d341-07b6-4b20-abc2-b5abdb2485ee","ios":"levelo://app?vid=6a81d341-07b6-4b20-abc2-b5abdb2485ee"},"vehicle_type_id":"4","last_reported":1734185280,"current_range_meters":36800,"station_id":"ce4bhhp2rcd13ifvqfm0","pricing_plan_id":"cebpf4jnsgd1na2vs0mg"},{"bike_id":"15bd29d8-15e2-44d6-853a-c764e913dcfd","system_id":"levelo_inurba_marseille","lat":43.30254,"lon":5.40077,"is_reserved":false,"is_disabled":true,"rental_uris":{"android":"levelo://app?vid=15bd29d8-15e2-44d6-853a-c764e913dcfd","ios":"levelo://app?vid=15bd29d8-15e2-44d6-853a-c764e913dcfd"},"vehicle_type_id":"4","last_reported":1734185280,"current_range_meters":27600,"station_id":"ce4bgvh2rcd13ifvqcs0","pricing_plan_id":"cebpf4jnsgd1na2vs0mg"},{"bike_id":"c75bddd8-53e9-48da-b5b5-42395c8f7395","system_id":"levelo_inurba_marseille","lat":43.33735,"lon":5.39198,"is_reserved":false,"is_disabled":false,"rental_uris":{"android":"levelo://app?vid=c75bddd8-53e9-48da-b5b5-42395c8f7395","ios":"levelo://app?vid=c75bddd8-53e9-48da-b5b5-42395c8f7395"},"vehicle_type_id":"4","last_reported":1734185280,"current_range_meters":38400,"station_id":"ce4bhr92rcd13ifvqhsg","pricing_plan_id":"cebpf4jnsgd1na2vs0mg"},{"bike_id":"69ac9efb-2c6d-4530-a746-1163eb200e85","system_id":"levelo_inurba_marseille","lat":43.29273,"lon":5.36838,"is_reserved":false,"is_disabled":false,"rental_uris":{"android":"levelo://app?vid=69ac9efb-2c6d-4530-a746-1163eb200e85","ios":"levelo://app?vid=69ac9efb-2c6d-4530-a746-1163eb200e85"},"vehicle_type_id":"4","last_reported":1734185280,"current_range_meters":16800,"station_id":"ce4bhbp2rcd13ifvqesg","pricing_plan_id":"cebpf4jnsgd1na2vs0mg"},{"bike_id":"cf556c27-412d-4848-a84c-7a5dbb91f92e","system_id":"levelo_inurba_marseille","lat":43.25851,"lon":5.39882,"is_reserved":false,"is_disabled":false,"rental_uris":{"android":"levelo://app?vid=cf556c27-412d-4848-a84c-7a5dbb91f92e","ios":"levelo://app?vid=cf556c27-412d-4848-a84c-7a5dbb91f92e"},"vehicle_type_id":"4","last_reported":1734185280,"current_range_meters":33600,"station_id":"ce4bhl92rcd13ifvqghg","pricing_plan_id":"cebpf4jnsgd1na2vs0mg"},{"bike_id":"723f930d-391b-4b48-bee3-3f2e137b2aa5","system_id":"levelo_inurba_marseille","lat":43.25004,"lon":5.38914,"is_reserved":false,"is_disabled":false,"rental_uris":{"android":"levelo://app?vid=723f930d-391b-4b48-bee3-3f2e137b2aa5","ios":"levelo://app?vid=723f930d-391b-4b48-bee3-3f2e137b2aa5"},"vehicle_type_id":"4","last_reported":1734185280,"current_range_meters":38800,"station_id":"ce4bhgp2rcd13ifvqfd0","pricing_plan_id":"cebpf4jnsgd1na2vs0mg"},{"bike_id":"7c0b5968-6776-4d89-ab39-cd4492481ab3","system_id":"levelo_inurba_marseille","lat":43.337444,"lon":5.374475,"is_reserved":false,"is_disabled":false,"rental_uris":{"android":"levelo://app?vid=7c0b5968-6776-4d89-ab39-cd4492481ab3","ios":"levelo://app?vid=7c0b5968-6776-4d89-ab39-cd4492481ab3"},"vehicle_type_id":"4","last_reported":1734185280,"current_range_meters":13600,"station_id":"ce4bhq92rcd13ifvqhkg","pricing_plan_id":"cebpf4jnsgd1na2vs0mg"},{"bike_id":"fd1d6366-cf9f-4720-bfed-437d147382a8","system_id":"levelo_inurba_marseille","lat":43.25019,"lon":5.38948,"is_reserved":false,"is_disabled":false,"rental_uris":{"android":"levelo://app?vid=fd1d6366-cf9f-4720-bfed-437d147382a8","ios":"levelo://app?vid=fd1d6366-cf9f-4720-bfed-437d147382a8"},"vehicle_type_id":"4","last_reported":1734185280,"current_range_meters":38800,"station_id":"ce4bhgp2rcd13ifvqfd0","pricing_plan_id":"cebpf4jnsgd1na2vs0mg"},{"bike_id":"9fee3077-b6c4-4fb9-a670-d22c832b1afb","system_id":"levelo_inurba_marseille","lat":43.27986,"lon":5.4167,"is_reserved":false,"is_disabled":false,"rental_uris":{"android":"levelo://app?vid=9fee3077-b6c4-4fb9-a670-d22c832b1afb","ios":"levelo://app?vid=9fee3077-b6c4-4fb9-a670-d22c832b1afb"},"vehicle_type_id":"4","last_reported":1734185280,"current_range_meters":39200,"station_id":"ce4bho12rcd13ifvqh1g","pricing_plan_id":"cebpf4jnsgd1na2vs0mg"},{"bike_id":"6cb5f94f-eade-4b7c-b995-84c805be74f9","system_id":"levelo_inurba_marseille","lat":43.33769,"lon":5.3747,"is_reserved":false,"is_disabled":false,"rental_uris":{"android":"levelo://app?vid=6cb5f94f-eade-4b7c-b995-84c805be74f9","ios":"levelo://app?vid=6cb5f94f-eade-4b7c-b995-84c805be74f9"},"vehicle_type_id":"4","last_reported":1734185280,"current_range_meters":38800,"station_id":"","pricing_plan_id":"cebpf4jnsgd1na2vs0mg"},{"bike_id":"9332f19c-96e3-47ac-8807-c5c2384614c0","system_id":"levelo_inurba_marseille","lat":43.23058,"lon":5.35546,"is_reserved":false,"is_disabled":false,"rental_uris":{"android":"levelo://app?vid=9332f19c-96e3-47ac-8807-c5c2384614c0","ios":"levelo://app?vid=9332f19c-96e3-47ac-8807-c5c2384614c0"},"vehicle_type_id":"4","last_reported":1734185280,"current_range_meters":36400,"station_id":"cpo3342slgdg3j2ifvpg","pricing_plan_id":"cebpf4jnsgd1na2vs0mg"},{"bike_id":"380c9a62-9355-46ea-aba6-5d39cd47ad4b","system_id":"levelo_inurba_marseille","lat":43.31375,"lon":5.40618,"is_reserved":false,"is_disabled":true,"rental_uris":{"android":"levelo://app?vid=380c9a62-9355-46ea-aba6-5d39cd47ad4b","ios":"levelo://app?vid=380c9a62-9355-46ea-aba6-5d39cd47ad4b"},"vehicle_type_id":"4","last_reported":1734185280,"current_range_meters":0,"station_id":"","pricing_plan_id":"cebpf4jnsgd1na2vs0mg"},{"bike_id":"dc382634-aed8-493e-8590-bf7f7a19747b","system_id":"levelo_inurba_marseille","lat":43.27312,"lon":5.39115,"is_reserved":false,"is_disabled":false,"rental_uris":{"android":"levelo://app?vid=dc382634-aed8-493e-8590-bf7f7a19747b","ios":"levelo://app?vid=dc382634-aed8-493e-8590-bf7f7a19747b"},"vehicle_type_id":"4","last_reported":1734185280,"current_range_meters":37600,"station_id":"ce4bhgp2rcd13ifvqfe0","pricing_plan_id":"cebpf4jnsgd1na2vs0mg"},{"bike_id":"60f98681-f19c-4888-8a4b-0e777f375b45","system_id":"levelo_inurba_marseille","lat":43.32657,"lon":5.40994,"is_reserved":false,"is_disabled":false,"rental_uris":{"android":"levelo://app?vid=60f98681-f19c-4888-8a4b-0e777f375b45","ios":"levelo://app?vid=60f98681-f19c-4888-8a4b-0e777f375b45"},"vehicle_type_id":"4","last_reported":1734185280,"current_range_meters":38800,"station_id":"ce4bhpp2rcd13ifvqhgg","pricing_plan_id":"cebpf4jnsgd1na2vs0mg"},{"bike_id":"c6c1ca25-9d20-4592-8665-5e2613c6ef34","system_id":"levelo_inurba_marseille","lat":43.324849,"lon":5.365657,"is_reserved":false,"is_disabled":true,"rental_uris":{"android":"levelo://app?vid=c6c1ca25-9d20-4592-8665-5e2613c6ef34","ios":"levelo://app?vid=c6c1ca25-9d20-4592-8665-5e2613c6ef34"},"vehicle_type_id":"4","last_reported":1734185280,"current_range_meters":0,"station_id":"ce4bhs12rcd13ifvqhvg","pricing_plan_id":"cebpf4jnsgd1na2vs0mg"},{"bike_id":"75bf594d-bb31-4d5e-9d81-6cbc1082fde2","system_id":"levelo_inurba_marseille","lat":43.26496,"lon":5.39541,"is_reserved":false,"is_disabled":false,"rental_uris":{"android":"levelo://app?vid=75bf594d-bb31-4d5e-9d81-6cbc1082fde2","ios":"levelo://app?vid=75bf594d-bb31-4d5e-9d81-6cbc1082fde2"},"vehicle_type_id":"4","last_reported":1734185280,"current_range_meters":24800,"station_id":"ce4bhi12rcd13ifvqfq0","pricing_plan_id":"cebpf4jnsgd1na2vs0mg"},{"bike_id":"ca59d865-1951-4846-a717-a349b9e50e7c","system_id":"levelo_inurba_marseille","lat":43.27609,"lon":5.36122,"is_reserved":false,"is_disabled":true,"rental_uris":{"android":"levelo://app?vid=ca59d865-1951-4846-a717-a349b9e50e7c","ios":"levelo://app?vid=ca59d865-1951-4846-a717-a349b9e50e7c"},"vehicle_type_id":"4","last_reported":1734185280,"current_range_meters":36400,"station_id":"ce4bgj92rcd13ifvqbe0","pricing_plan_id":"cebpf4jnsgd1na2vs0mg"},{"bike_id":"27ce0fb8-8182-4471-8289-091e3b09abae","system_id":"levelo_inurba_marseille","lat":43.29041,"lon":5.35918,"is_reserved":false,"is_disabled":false,"rental_uris":{"android":"levelo://app?vid=27ce0fb8-8182-4471-8289-091e3b09abae","ios":"levelo://app?vid=27ce0fb8-8182-4471-8289-091e3b09abae"},"vehicle_type_id":"4","last_reported":1734185280,"current_range_meters":36800,"station_id":"ce4bha92rcd13ifvqeg0","pricing_plan_id":"cebpf4jnsgd1na2vs0mg"},{"bike_id":"ddf3fb82-0700-4a9c-83a8-23753b99f1d8","system_id":"levelo_inurba_marseille","lat":43.26796,"lon":5.39417,"is_reserved":false,"is_disabled":false,"rental_uris":{"android":"levelo://app?vid=ddf3fb82-0700-4a9c-83a8-23753b99f1d8","ios":"levelo://app?vid=ddf3fb82-0700-4a9c-83a8-23753b99f1d8"},"vehicle_type_id":"4","last_reported":1734185280,"current_range_meters":27200,"station_id":"ce4bhh12rcd13ifvqfg0","pricing_plan_id":"cebpf4jnsgd1na2vs0mg"},{"bike_id":"283ec910-2b59-4ffd-bbff-9867d116f826","system_id":"levelo_inurba_marseille","lat":43.337444,"lon":5.374475,"is_reserved":false,"is_disabled":true,"rental_uris":{"android":"levelo://app?vid=283ec910-2b59-4ffd-bbff-9867d116f826","ios":"levelo://app?vid=283ec910-2b59-4ffd-bbff-9867d116f826"},"vehicle_type_id":"4","last_reported":1734185280,"current_range_meters":0,"station_id":"","pricing_plan_id":"cebpf4jnsgd1na2vs0mg"},{"bike_id":"78322935-ced8-4fc5-99d4-b8696bce838d","system_id":"levelo_inurba_marseille","lat":43.279367,"lon":5.410461,"is_reserved":false,"is_disabled":false,"rental_uris":{"android":"levelo://app?vid=78322935-ced8-4fc5-99d4-b8696bce838d","ios":"levelo://app?vid=78322935-ced8-4fc5-99d4-b8696bce838d"},"vehicle_type_id":"4","last_reported":1734185280,"current_range_meters":34800,"station_id":"ce4bhnp2rcd13ifvqh0g","pricing_plan_id":"cebpf4jnsgd1na2vs0mg"},{"bike_id":"3dce564d-a95d-4277-ad0f-04f250401730","system_id":"levelo_inurba_marseille","lat":43.26944,"lon":5.40255,"is_reserved":false,"is_disabled":false,"rental_uris":{"android":"levelo://app?vid=3dce564d-a95d-4277-ad0f-04f250401730","ios":"levelo://app?vid=3dce564d-a95d-4277-ad0f-04f250401730"},"vehicle_type_id":"4","last_reported":1734185280,"current_range_meters":38800,"station_id":"cjm6bp8fraef2m0cb0m0","pricing_plan_id":"cebpf4jnsgd1na2vs0mg"},{"bike_id":"17fd35d3-b5ae-4835-89d5-563396c39234","system_id":"levelo_inurba_marseille","lat":43.25582,"lon":5.38231,"is_reserved":false,"is_disabled":false,"rental_uris":{"android":"levelo://app?vid=17fd35d3-b5ae-4835-89d5-563396c39234","ios":"levelo://app?vid=17fd35d3-b5ae-4835-89d5-563396c39234"},"vehicle_type_id":"4","last_reported":1734185280,"current_range_meters":32000,"station_id":"ce4bhih2rcd13ifvqfs0","pricing_plan_id":"cebpf4jnsgd1na2vs0mg"},{"bike_id":"7937484b-3976-47e6-a69c-b16476636bc4","system_id":"levelo_inurba_marseille","lat":43.29226,"lon":5.36075,"is_reserved":false,"is_disabled":false,"rental_uris":{"android":"levelo://app?vid=7937484b-3976-47e6-a69c-b16476636bc4","ios":"levelo://app?vid=7937484b-3976-47e6-a69c-b16476636bc4"},"vehicle_type_id":"4","last_reported":1734185280,"current_range_meters":37600,"station_id":"ce4bhbh2rcd13ifvqeqg","pricing_plan_id":"cebpf4jnsgd1na2vs0mg"},{"bike_id":"c6234abb-f24f-4e51-8203-a434dd5a5cf7","system_id":"levelo_inurba_marseille","lat":43.2723,"lon":5.4099,"is_reserved":false,"is_disabled":false,"rental_uris":{"android":"levelo://app?vid=c6234abb-f24f-4e51-8203-a434dd5a5cf7","ios":"levelo://app?vid=c6234abb-f24f-4e51-8203-a434dd5a5cf7"},"vehicle_type_id":"4","last_reported":1734185280,"current_range_meters":38000,"station_id":"","pricing_plan_id":"cebpf4jnsgd1na2vs0mg"},{"bike_id":"6e6a004b-462d-4b03-aeaa-2611256f0d89","system_id":"levelo_inurba_marseille","lat":43.28113,"lon":5.38934,"is_reserved":false,"is_disabled":true,"rental_uris":{"android":"levelo://app?vid=6e6a004b-462d-4b03-aeaa-2611256f0d89","ios":"levelo://app?vid=6e6a004b-462d-4b03-aeaa-2611256f0d89"},"vehicle_type_id":"4","last_reported":1734185280,"current_range_meters":0,"station_id":"","pricing_plan_id":"cebpf4jnsgd1na2vs0mg"},{"bike_id":"dc6236f8-89fd-4ec8-a8cd-16aba7e44040","system_id":"levelo_inurba_marseille","lat":43.29229,"lon":5.36071,"is_reserved":false,"is_disabled":false,"rental_uris":{"android":"levelo://app?vid=dc6236f8-89fd-4ec8-a8cd-16aba7e44040","ios":"levelo://app?vid=dc6236f8-89fd-4ec8-a8cd-16aba7e44040"},"vehicle_type_id":"4","last_reported":1734185280,"current_range_meters":38800,"station_id":"ce4bhbh2rcd13ifvqeqg","pricing_plan_id":"cebpf4jnsgd1na2vs0mg"},{"bike_id":"a3b8ec3c-ac14-4c0f-8df3-2b82f2e62846","system_id":"levelo_inurba_marseille","lat":43.28074,"lon":5.3966,"is_reserved":false,"is_disabled":false,"rental_uris":{"android":"levelo://app?vid=a3b8ec3c-ac14-4c0f-8df3-2b82f2e62846","ios":"levelo://app?vid=a3b8ec3c-ac14-4c0f-8df3-2b82f2e62846"},"vehicle_type_id":"4","last_reported":1734185280,"current_range_meters":12000,"station_id":"ce4bho12rcd13ifvqh2g","pricing_plan_id":"cebpf4jnsgd1na2vs0mg"},{"bike_id":"6666abf9-47c2-42a4-9451-283e2fa4d06e","system_id":"levelo_inurba_marseille","lat":43.30353,"lon":5.41874,"is_reserved":false,"is_disabled":false,"rental_uris":{"android":"levelo://app?vid=6666abf9-47c2-42a4-9451-283e2fa4d06e","ios":"levelo://app?vid=6666abf9-47c2-42a4-9451-283e2fa4d06e"},"vehicle_type_id":"4","last_reported":1734185280,"current_range_meters":38800,"station_id":"ce4bhop2rcd13ifvqh7g","pricing_plan_id":"cebpf4jnsgd1na2vs0mg"},{"bike_id":"c3848dd6-dc25-44d4-8c07-ff3e79d88df9","system_id":"levelo_inurba_marseille","lat":43.30223,"lon":5.38128,"is_reserved":false,"is_disabled":false,"rental_uris":{"android":"levelo://app?vid=c3848dd6-dc25-44d4-8c07-ff3e79d88df9","ios":"levelo://app?vid=c3848dd6-dc25-44d4-8c07-ff3e79d88df9"},"vehicle_type_id":"4","last_reported":1734185280,"current_range_meters":37600,"station_id":"","pricing_plan_id":"cebpf4jnsgd1na2vs0mg"},{"bike_id":"c8727f36-6d82-45d4-8a0c-bd58abd6552f","system_id":"levelo_inurba_marseille","lat":43.2861,"lon":5.37065,"is_reserved":false,"is_disabled":false,"rental_uris":{"android":"levelo://app?vid=c8727f36-6d82-45d4-8a0c-bd58abd6552f","ios":"levelo://app?vid=c8727f36-6d82-45d4-8a0c-bd58abd6552f"},"vehicle_type_id":"4","last_reported":1734185280,"current_range_meters":38800,"station_id":"ce4bht12rcd13ifvqi60","pricing_plan_id":"cebpf4jnsgd1na2vs0mg"},{"bike_id":"ce95cdee-d443-4314-96ee-385ae9d87c99","system_id":"levelo_inurba_marseille","lat":43.30552,"lon":5.36552,"is_reserved":false,"is_disabled":false,"rental_uris":{"android":"levelo://app?vid=ce95cdee-d443-4314-96ee-385ae9d87c99","ios":"levelo://app?vid=ce95cdee-d443-4314-96ee-385ae9d87c99"},"vehicle_type_id":"4","last_reported":1734185280,"current_range_meters":27200,"station_id":"ce4bgs12rcd13ifvqcag","pricing_plan_id":"cebpf4jnsgd1na2vs0mg"},{"bike_id":"702fe746-2950-4d83-96ad-da74f787e42f","system_id":"levelo_inurba_marseille","lat":43.25862,"lon":5.39902,"is_reserved":false,"is_disabled":false,"rental_uris":{"android":"levelo://app?vid=702fe746-2950-4d83-96ad-da74f787e42f","ios":"levelo://app?vid=702fe746-2950-4d83-96ad-da74f787e42f"},"vehicle_type_id":"4","last_reported":1734185280,"current_range_meters":36800,"station_id":"ce4bhl92rcd13ifvqghg","pricing_plan_id":"cebpf4jnsgd1na2vs0mg"},{"bike_id":"f5b382e6-2c54-4c44-a7d5-4e07b45b39df","system_id":"levelo_inurba_marseille","lat":43.29685,"lon":5.37287,"is_reserved":false,"is_disabled":false,"rental_uris":{"android":"levelo://app?vid=f5b382e6-2c54-4c44-a7d5-4e07b45b39df","ios":"levelo://app?vid=f5b382e6-2c54-4c44-a7d5-4e07b45b39df"},"vehicle_type_id":"4","last_reported":1734185280,"current_range_meters":28000,"station_id":"ce4bgk12rcd13ifvqbj0","pricing_plan_id":"cebpf4jnsgd1na2vs0mg"},{"bike_id":"7965bd8b-65b9-4460-9e65-36f253ebc53b","system_id":"levelo_inurba_marseille","lat":43.32049,"lon":5.41524,"is_reserved":false,"is_disabled":false,"rental_uris":{"android":"levelo://app?vid=7965bd8b-65b9-4460-9e65-36f253ebc53b","ios":"levelo://app?vid=7965bd8b-65b9-4460-9e65-36f253ebc53b"},"vehicle_type_id":"4","last_reported":1734185280,"current_range_meters":19200,"station_id":"ce4bhq92rcd13ifvqhkg","pricing_plan_id":"cebpf4jnsgd1na2vs0mg"},{"bike_id":"6779e3b6-1567-4f73-8060-06dd2a9b0744","system_id":"levelo_inurba_marseille","lat":43.30668,"lon":5.37367,"is_reserved":false,"is_disabled":false,"rental_uris":{"android":"levelo://app?vid=6779e3b6-1567-4f73-8060-06dd2a9b0744","ios":"levelo://app?vid=6779e3b6-1567-4f73-8060-06dd2a9b0744"},"vehicle_type_id":"4","last_reported":1734185280,"current_range_meters":16800,"station_id":"","pricing_plan_id":"cebpf4jnsgd1na2vs0mg"},{"bike_id":"3fcb8d4e-b80b-4cf2-b38b-da369aab81f3","system_id":"levelo_inurba_marseille","lat":43.27172,"lon":5.40994,"is_reserved":false,"is_disabled":false,"rental_uris":{"android":"levelo://app?vid=3fcb8d4e-b80b-4cf2-b38b-da369aab81f3","ios":"levelo://app?vid=3fcb8d4e-b80b-4cf2-b38b-da369aab81f3"},"vehicle_type_id":"4","last_reported":1734185280,"current_range_meters":13600,"station_id":"ce4bhl12rcd13ifvqgf0","pricing_plan_id":"cebpf4jnsgd1na2vs0mg"},{"bike_id":"e5192aff-1008-4e7e-b82a-23b5df79d920","system_id":"levelo_inurba_marseille","lat":43.29577,"lon":5.42283,"is_reserved":false,"is_disabled":false,"rental_uris":{"android":"levelo://app?vid=e5192aff-1008-4e7e-b82a-23b5df79d920","ios":"levelo://app?vid=e5192aff-1008-4e7e-b82a-23b5df79d920"},"vehicle_type_id":"4","last_reported":1734185280,"current_range_meters":38000,"station_id":"ce4bhph2rcd13ifvqhdg","pricing_plan_id":"cebpf4jnsgd1na2vs0mg"},{"bike_id":"04f74f3a-620d-4cfe-a925-05d9d082937d","system_id":"levelo_inurba_marseille","lat":43.27988,"lon":5.41663,"is_reserved":false,"is_disabled":false,"rental_uris":{"android":"levelo://app?vid=04f74f3a-620d-4cfe-a925-05d9d082937d","ios":"levelo://app?vid=04f74f3a-620d-4cfe-a925-05d9d082937d"},"vehicle_type_id":"4","last_reported":1734185280,"current_range_meters":32800,"station_id":"ce4bho12rcd13ifvqh1g","pricing_plan_id":"cebpf4jnsgd1na2vs0mg"},{"bike_id":"da810669-b734-4d03-9840-d50860a133aa","system_id":"levelo_inurba_marseille","lat":43.337444,"lon":5.374475,"is_reserved":false,"is_disabled":false,"rental_uris":{"android":"levelo://app?vid=da810669-b734-4d03-9840-d50860a133aa","ios":"levelo://app?vid=da810669-b734-4d03-9840-d50860a133aa"},"vehicle_type_id":"4","last_reported":1734185280,"current_range_meters":25200,"station_id":"ce4bhb12rcd13ifvqem0","pricing_plan_id":"cebpf4jnsgd1na2vs0mg"},{"bike_id":"07aaffff-6c5a-4390-a6e5-b91a437396ec","system_id":"levelo_inurba_marseille","lat":43.24164,"lon":5.36397,"is_reserved":false,"is_disabled":false,"rental_uris":{"android":"levelo://app?vid=07aaffff-6c5a-4390-a6e5-b91a437396ec","ios":"levelo://app?vid=07aaffff-6c5a-4390-a6e5-b91a437396ec"},"vehicle_type_id":"4","last_reported":1734185280,"current_range_meters":10800,"station_id":"cpo36qri1sfpv3e86is0","pricing_plan_id":"cebpf4jnsgd1na2vs0mg"},{"bike_id":"3fe39583-58e4-474a-8105-36a06d15f540","system_id":"levelo_inurba_marseille","lat":43.32491,"lon":5.36581,"is_reserved":false,"is_disabled":false,"rental_uris":{"android":"levelo://app?vid=3fe39583-58e4-474a-8105-36a06d15f540","ios":"levelo://app?vid=3fe39583-58e4-474a-8105-36a06d15f540"},"vehicle_type_id":"4","last_reported":1734185280,"current_range_meters":20800,"station_id":"ce4bhs12rcd13ifvqhvg","pricing_plan_id":"cebpf4jnsgd1na2vs0mg"},{"bike_id":"a5589391-a7e4-412b-9a87-f917b2322580","system_id":"levelo_inurba_marseille","lat":43.23061,"lon":5.35493,"is_reserved":false,"is_disabled":false,"rental_uris":{"android":"levelo://app?vid=a5589391-a7e4-412b-9a87-f917b2322580","ios":"levelo://app?vid=a5589391-a7e4-412b-9a87-f917b2322580"},"vehicle_type_id":"4","last_reported":1734185280,"current_range_meters":35600,"station_id":"cpo3342slgdg3j2ifvpg","pricing_plan_id":"cebpf4jnsgd1na2vs0mg"},{"bike_id":"a1acc031-48d1-48e2-b872-2d2bf15b18f5","system_id":"levelo_inurba_marseille","lat":43.320625,"lon":5.41567,"is_reserved":false,"is_disabled":false,"rental_uris":{"android":"levelo://app?vid=a1acc031-48d1-48e2-b872-2d2bf15b18f5","ios":"levelo://app?vid=a1acc031-48d1-48e2-b872-2d2bf15b18f5"},"vehicle_type_id":"4","last_reported":1734185280,"current_range_meters":39200,"station_id":"ce4bhq92rcd13ifvqhkg","pricing_plan_id":"cebpf4jnsgd1na2vs0mg"},{"bike_id":"94cb59f0-d33f-441e-8ccd-84870df561ff","system_id":"levelo_inurba_marseille","lat":43.24387,"lon":5.37055,"is_reserved":false,"is_disabled":true,"rental_uris":{"android":"levelo://app?vid=94cb59f0-d33f-441e-8ccd-84870df561ff","ios":"levelo://app?vid=94cb59f0-d33f-441e-8ccd-84870df561ff"},"vehicle_type_id":"4","last_reported":1734185280,"current_range_meters":1600,"station_id":"ce4bhhh2rcd13ifvqfk0","pricing_plan_id":"cebpf4jnsgd1na2vs0mg"},{"bike_id":"353dedef-da8c-4b49-9da8-7acfbb3796e1","system_id":"levelo_inurba_marseille","lat":43.30879,"lon":5.39664,"is_reserved":false,"is_disabled":false,"rental_uris":{"android":"levelo://app?vid=353dedef-da8c-4b49-9da8-7acfbb3796e1","ios":"levelo://app?vid=353dedef-da8c-4b49-9da8-7acfbb3796e1"},"vehicle_type_id":"4","last_reported":1734185280,"current_range_meters":16000,"station_id":"ce4bh012rcd13ifvqcv0","pricing_plan_id":"cebpf4jnsgd1na2vs0mg"},{"bike_id":"90a6738d-75a0-4426-8b1c-7593b834f606","system_id":"levelo_inurba_marseille","lat":43.290541,"lon":5.359273,"is_reserved":false,"is_disabled":true,"rental_uris":{"android":"levelo://app?vid=90a6738d-75a0-4426-8b1c-7593b834f606","ios":"levelo://app?vid=90a6738d-75a0-4426-8b1c-7593b834f606"},"vehicle_type_id":"4","last_reported":1734185280,"current_range_meters":1600,"station_id":"ce4bha92rcd13ifvqeg0","pricing_plan_id":"cebpf4jnsgd1na2vs0mg"},{"bike_id":"a8f0de7b-1973-4f72-99a5-213e7b2f08d7","system_id":"levelo_inurba_marseille","lat":43.27367,"lon":5.3626,"is_reserved":false,"is_disabled":false,"rental_uris":{"android":"levelo://app?vid=a8f0de7b-1973-4f72-99a5-213e7b2f08d7","ios":"levelo://app?vid=a8f0de7b-1973-4f72-99a5-213e7b2f08d7"},"vehicle_type_id":"4","last_reported":1734185280,"current_range_meters":39200,"station_id":"ce4bhbh2rcd13ifvqeo0","pricing_plan_id":"cebpf4jnsgd1na2vs0mg"},{"bike_id":"3dc50e8c-f733-4683-9332-0b952d0f6631","system_id":"levelo_inurba_marseille","lat":43.25007,"lon":5.3893,"is_reserved":false,"is_disabled":true,"rental_uris":{"android":"levelo://app?vid=3dc50e8c-f733-4683-9332-0b952d0f6631","ios":"levelo://app?vid=3dc50e8c-f733-4683-9332-0b952d0f6631"},"vehicle_type_id":"4","last_reported":1734185280,"current_range_meters":8400,"station_id":"ce4bhgp2rcd13ifvqfd0","pricing_plan_id":"cebpf4jnsgd1na2vs0mg"},{"bike_id":"4bcbfaa7-72f9-4a15-af06-60aa943fc75e","system_id":"levelo_inurba_marseille","lat":43.30958,"lon":5.39042,"is_reserved":false,"is_disabled":false,"rental_uris":{"android":"levelo://app?vid=4bcbfaa7-72f9-4a15-af06-60aa943fc75e","ios":"levelo://app?vid=4bcbfaa7-72f9-4a15-af06-60aa943fc75e"},"vehicle_type_id":"4","last_reported":1734185280,"current_range_meters":24400,"station_id":"ce4bgup2rcd13ifvqco0","pricing_plan_id":"cebpf4jnsgd1na2vs0mg"},{"bike_id":"d7abb042-0978-4632-bd05-15f8e2238fe7","system_id":"levelo_inurba_marseille","lat":43.26053,"lon":5.3757,"is_reserved":false,"is_disabled":false,"rental_uris":{"android":"levelo://app?vid=d7abb042-0978-4632-bd05-15f8e2238fe7","ios":"levelo://app?vid=d7abb042-0978-4632-bd05-15f8e2238fe7"},"vehicle_type_id":"4","last_reported":1734185280,"current_range_meters":32400,"station_id":"ce4bhgh2rcd13ifvqfa0","pricing_plan_id":"cebpf4jnsgd1na2vs0mg"},{"bike_id":"7f8c885e-55c7-41c4-9c31-ee8840deb37a","system_id":"levelo_inurba_marseille","lat":43.2603,"lon":5.37551,"is_reserved":false,"is_disabled":false,"rental_uris":{"android":"levelo://app?vid=7f8c885e-55c7-41c4-9c31-ee8840deb37a","ios":"levelo://app?vid=7f8c885e-55c7-41c4-9c31-ee8840deb37a"},"vehicle_type_id":"4","last_reported":1734185280,"current_range_meters":32000,"station_id":"ce4bhgh2rcd13ifvqfa0","pricing_plan_id":"cebpf4jnsgd1na2vs0mg"},{"bike_id":"924dae81-bfe3-4569-9842-5d053e900127","system_id":"levelo_inurba_marseille","lat":43.29972,"lon":5.37174,"is_reserved":false,"is_disabled":false,"rental_uris":{"android":"levelo://app?vid=924dae81-bfe3-4569-9842-5d053e900127","ios":"levelo://app?vid=924dae81-bfe3-4569-9842-5d053e900127"},"vehicle_type_id":"4","last_reported":1734185280,"current_range_meters":10800,"station_id":"ce4bgr92rcd13ifvqc7g","pricing_plan_id":"cebpf4jnsgd1na2vs0mg"},{"bike_id":"ca3bf6a0-806c-4046-b219-bbea4c2ba646","system_id":"levelo_inurba_marseille","lat":43.23194,"lon":5.35548,"is_reserved":false,"is_disabled":false,"rental_uris":{"android":"levelo://app?vid=ca3bf6a0-806c-4046-b219-bbea4c2ba646","ios":"levelo://app?vid=ca3bf6a0-806c-4046-b219-bbea4c2ba646"},"vehicle_type_id":"4","last_reported":1734185280,"current_range_meters":38800,"station_id":"ce4bhu92rcd13ifvqi70","pricing_plan_id":"cebpf4jnsgd1na2vs0mg"},{"bike_id":"aa1b3a04-57a6-47e0-afe1-081f8b9d47fa","system_id":"levelo_inurba_marseille","lat":43.22922,"lon":5.35385,"is_reserved":false,"is_disabled":false,"rental_uris":{"android":"levelo://app?vid=aa1b3a04-57a6-47e0-afe1-081f8b9d47fa","ios":"levelo://app?vid=aa1b3a04-57a6-47e0-afe1-081f8b9d47fa"},"vehicle_type_id":"4","last_reported":1734185280,"current_range_meters":6400,"station_id":"cpo3532slgdg3j2ikp40","pricing_plan_id":"cebpf4jnsgd1na2vs0mg"},{"bike_id":"46b2fdec-0870-4ae2-84dc-b1f57512351e","system_id":"levelo_inurba_marseille","lat":43.337444,"lon":5.374475,"is_reserved":false,"is_disabled":true,"rental_uris":{"android":"levelo://app?vid=46b2fdec-0870-4ae2-84dc-b1f57512351e","ios":"levelo://app?vid=46b2fdec-0870-4ae2-84dc-b1f57512351e"},"vehicle_type_id":"4","last_reported":1734185280,"current_range_meters":0,"station_id":"","pricing_plan_id":"cebpf4jnsgd1na2vs0mg"},{"bike_id":"e07f8927-8121-4133-911c-f4fdbcb240cf","system_id":"levelo_inurba_marseille","lat":43.33862,"lon":5.37433,"is_reserved":false,"is_disabled":true,"rental_uris":{"android":"levelo://app?vid=e07f8927-8121-4133-911c-f4fdbcb240cf","ios":"levelo://app?vid=e07f8927-8121-4133-911c-f4fdbcb240cf"},"vehicle_type_id":"4","last_reported":1734185280,"current_range_meters":33600,"station_id":"","pricing_plan_id":"cebpf4jnsgd1na2vs0mg"},{"bike_id":"2d1621ab-e817-4a31-b19b-22c30129ac2e","system_id":"levelo_inurba_marseille","lat":43.27981,"lon":5.41659,"is_reserved":false,"is_disabled":false,"rental_uris":{"android":"levelo://app?vid=2d1621ab-e817-4a31-b19b-22c30129ac2e","ios":"levelo://app?vid=2d1621ab-e817-4a31-b19b-22c30129ac2e"},"vehicle_type_id":"4","last_reported":1734185280,"current_range_meters":16400,"station_id":"ce4bho12rcd13ifvqh1g","pricing_plan_id":"cebpf4jnsgd1na2vs0mg"},{"bike_id":"e154add8-c0be-404a-abe4-6c451b227648","system_id":"levelo_inurba_marseille","lat":43.2905,"lon":5.35912,"is_reserved":false,"is_disabled":false,"rental_uris":{"android":"levelo://app?vid=e154add8-c0be-404a-abe4-6c451b227648","ios":"levelo://app?vid=e154add8-c0be-404a-abe4-6c451b227648"},"vehicle_type_id":"4","last_reported":1734185280,"current_range_meters":38800,"station_id":"ce4bha92rcd13ifvqeg0","pricing_plan_id":"cebpf4jnsgd1na2vs0mg"},{"bike_id":"f9e6bb9b-5af9-41b4-94d6-1a9a9891f123","system_id":"levelo_inurba_marseille","lat":43.24642,"lon":5.38894,"is_reserved":false,"is_disabled":false,"rental_uris":{"android":"levelo://app?vid=f9e6bb9b-5af9-41b4-94d6-1a9a9891f123","ios":"levelo://app?vid=f9e6bb9b-5af9-41b4-94d6-1a9a9891f123"},"vehicle_type_id":"4","last_reported":1734185280,"current_range_meters":24400,"station_id":"ce4bhg12rcd13ifvqf60","pricing_plan_id":"cebpf4jnsgd1na2vs0mg"},{"bike_id":"b946146a-cce3-405f-b51f-9fa745f28932","system_id":"levelo_inurba_marseille","lat":43.29037,"lon":5.37573,"is_reserved":false,"is_disabled":false,"rental_uris":{"android":"levelo://app?vid=b946146a-cce3-405f-b51f-9fa745f28932","ios":"levelo://app?vid=b946146a-cce3-405f-b51f-9fa745f28932"},"vehicle_type_id":"4","last_reported":1734185280,"current_range_meters":38000,"station_id":"ce4bh692rcd13ifvqe90","pricing_plan_id":"cebpf4jnsgd1na2vs0mg"},{"bike_id":"59a4a5bc-f1ff-498c-8471-40a7bf183aa7","system_id":"levelo_inurba_marseille","lat":43.23193,"lon":5.35553,"is_reserved":false,"is_disabled":false,"rental_uris":{"android":"levelo://app?vid=59a4a5bc-f1ff-498c-8471-40a7bf183aa7","ios":"levelo://app?vid=59a4a5bc-f1ff-498c-8471-40a7bf183aa7"},"vehicle_type_id":"4","last_reported":1734185280,"current_range_meters":6400,"station_id":"ce4bhu92rcd13ifvqi70","pricing_plan_id":"cebpf4jnsgd1na2vs0mg"},{"bike_id":"5f11fdd9-45f0-4d70-8224-eef136d43616","system_id":"levelo_inurba_marseille","lat":43.2719,"lon":5.40988,"is_reserved":false,"is_disabled":false,"rental_uris":{"android":"levelo://app?vid=5f11fdd9-45f0-4d70-8224-eef136d43616","ios":"levelo://app?vid=5f11fdd9-45f0-4d70-8224-eef136d43616"},"vehicle_type_id":"4","last_reported":1734185280,"current_range_meters":33600,"station_id":"ce4bhl12rcd13ifvqgf0","pricing_plan_id":"cebpf4jnsgd1na2vs0mg"},{"bike_id":"a5eb41b8-b6a6-4c7e-bb8f-16c221f8adb0","system_id":"levelo_inurba_marseille","lat":43.29022,"lon":5.37551,"is_reserved":false,"is_disabled":false,"rental_uris":{"android":"levelo://app?vid=a5eb41b8-b6a6-4c7e-bb8f-16c221f8adb0","ios":"levelo://app?vid=a5eb41b8-b6a6-4c7e-bb8f-16c221f8adb0"},"vehicle_type_id":"4","last_reported":1734185280,"current_range_meters":35600,"station_id":"ce4bh692rcd13ifvqe90","pricing_plan_id":"cebpf4jnsgd1na2vs0mg"},{"bike_id":"0e7799bf-b3f4-4748-a553-10a881d636ec","system_id":"levelo_inurba_marseille","lat":43.27944,"lon":5.41048,"is_reserved":false,"is_disabled":true,"rental_uris":{"android":"levelo://app?vid=0e7799bf-b3f4-4748-a553-10a881d636ec","ios":"levelo://app?vid=0e7799bf-b3f4-4748-a553-10a881d636ec"},"vehicle_type_id":"4","last_reported":1734185280,"current_range_meters":0,"station_id":"ce4bhnp2rcd13ifvqh0g","pricing_plan_id":"cebpf4jnsgd1na2vs0mg"},{"bike_id":"68a41eea-9566-451c-a0f0-7215cc8281e1","system_id":"levelo_inurba_marseille","lat":43.29807,"lon":5.38106,"is_reserved":false,"is_disabled":false,"rental_uris":{"android":"levelo://app?vid=68a41eea-9566-451c-a0f0-7215cc8281e1","ios":"levelo://app?vid=68a41eea-9566-451c-a0f0-7215cc8281e1"},"vehicle_type_id":"4","last_reported":1734185280,"current_range_meters":35600,"station_id":"ce4bgip2rcd13ifvqbb0","pricing_plan_id":"cebpf4jnsgd1na2vs0mg"},{"bike_id":"2448f112-093b-44a4-8c49-c482af2ba024","system_id":"levelo_inurba_marseille","lat":43.2306,"lon":5.35479,"is_reserved":false,"is_disabled":false,"rental_uris":{"android":"levelo://app?vid=2448f112-093b-44a4-8c49-c482af2ba024","ios":"levelo://app?vid=2448f112-093b-44a4-8c49-c482af2ba024"},"vehicle_type_id":"4","last_reported":1734185280,"current_range_meters":21600,"station_id":"cpo3342slgdg3j2ifvpg","pricing_plan_id":"cebpf4jnsgd1na2vs0mg"},{"bike_id":"fcf0c5a5-fe7b-45f1-8dec-f1a73c5cb417","system_id":"levelo_inurba_marseille","lat":43.29229,"lon":5.36067,"is_reserved":false,"is_disabled":false,"rental_uris":{"android":"levelo://app?vid=fcf0c5a5-fe7b-45f1-8dec-f1a73c5cb417","ios":"levelo://app?vid=fcf0c5a5-fe7b-45f1-8dec-f1a73c5cb417"},"vehicle_type_id":"4","last_reported":1734185280,"current_range_meters":24000,"station_id":"ce4bhbh2rcd13ifvqeqg","pricing_plan_id":"cebpf4jnsgd1na2vs0mg"},{"bike_id":"eff6214a-e327-44ef-b149-b0c14110902c","system_id":"levelo_inurba_marseille","lat":43.30151,"lon":5.380873,"is_reserved":false,"is_disabled":false,"rental_uris":{"android":"levelo://app?vid=eff6214a-e327-44ef-b149-b0c14110902c","ios":"levelo://app?vid=eff6214a-e327-44ef-b149-b0c14110902c"},"vehicle_type_id":"4","last_reported":1734185280,"current_range_meters":38800,"station_id":"ce4bgjp2rcd13ifvqbh0","pricing_plan_id":"cebpf4jnsgd1na2vs0mg"},{"bike_id":"4e297458-9b1e-4fce-85b7-052fe9234e9c","system_id":"levelo_inurba_marseille","lat":43.23178,"lon":5.39995,"is_reserved":false,"is_disabled":false,"rental_uris":{"android":"levelo://app?vid=4e297458-9b1e-4fce-85b7-052fe9234e9c","ios":"levelo://app?vid=4e297458-9b1e-4fce-85b7-052fe9234e9c"},"vehicle_type_id":"4","last_reported":1734185280,"current_range_meters":20000,"station_id":"ce4bhn12rcd13ifvqgqg","pricing_plan_id":"cebpf4jnsgd1na2vs0mg"},{"bike_id":"d214c25f-242c-440b-993d-cd644c655be6","system_id":"levelo_inurba_marseille","lat":43.23059,"lon":5.35502,"is_reserved":false,"is_disabled":false,"rental_uris":{"android":"levelo://app?vid=d214c25f-242c-440b-993d-cd644c655be6","ios":"levelo://app?vid=d214c25f-242c-440b-993d-cd644c655be6"},"vehicle_type_id":"4","last_reported":1734185280,"current_range_meters":29600,"station_id":"cpo3342slgdg3j2ifvpg","pricing_plan_id":"cebpf4jnsgd1na2vs0mg"},{"bike_id":"6f56edec-47f3-4089-9c04-11e42d2f2a26","system_id":"levelo_inurba_marseille","lat":43.30506,"lon":5.36685,"is_reserved":false,"is_disabled":false,"rental_uris":{"android":"levelo://app?vid=6f56edec-47f3-4089-9c04-11e42d2f2a26","ios":"levelo://app?vid=6f56edec-47f3-4089-9c04-11e42d2f2a26"},"vehicle_type_id":"4","last_reported":1734185280,"current_range_meters":36000,"station_id":"","pricing_plan_id":"cebpf4jnsgd1na2vs0mg"},{"bike_id":"6d05f7ba-808a-4403-b1f3-f8483fec843c","system_id":"levelo_inurba_marseille","lat":43.23185,"lon":5.35559,"is_reserved":false,"is_disabled":false,"rental_uris":{"android":"levelo://app?vid=6d05f7ba-808a-4403-b1f3-f8483fec843c","ios":"levelo://app?vid=6d05f7ba-808a-4403-b1f3-f8483fec843c"},"vehicle_type_id":"4","last_reported":1734185280,"current_range_meters":22400,"station_id":"ce4bhu92rcd13ifvqi70","pricing_plan_id":"cebpf4jnsgd1na2vs0mg"},{"bike_id":"a0b89159-70a1-4f4a-b88f-d6f74fb0338c","system_id":"levelo_inurba_marseille","lat":43.30467,"lon":5.37901,"is_reserved":false,"is_disabled":false,"rental_uris":{"android":"levelo://app?vid=a0b89159-70a1-4f4a-b88f-d6f74fb0338c","ios":"levelo://app?vid=a0b89159-70a1-4f4a-b88f-d6f74fb0338c"},"vehicle_type_id":"4","last_reported":1734185280,"current_range_meters":24800,"station_id":"ce4bgup2rcd13ifvqcn0","pricing_plan_id":"cebpf4jnsgd1na2vs0mg"},{"bike_id":"991731ff-b2df-48f2-83cc-b0b1736b9905","system_id":"levelo_inurba_marseille","lat":43.29026,"lon":5.37555,"is_reserved":false,"is_disabled":false,"rental_uris":{"android":"levelo://app?vid=991731ff-b2df-48f2-83cc-b0b1736b9905","ios":"levelo://app?vid=991731ff-b2df-48f2-83cc-b0b1736b9905"},"vehicle_type_id":"4","last_reported":1734185280,"current_range_meters":38800,"station_id":"ce4bh692rcd13ifvqe90","pricing_plan_id":"cebpf4jnsgd1na2vs0mg"},{"bike_id":"a5397efa-629d-4917-8594-0532aea74fe2","system_id":"levelo_inurba_marseille","lat":43.28452,"lon":5.35898,"is_reserved":false,"is_disabled":true,"rental_uris":{"android":"levelo://app?vid=a5397efa-629d-4917-8594-0532aea74fe2","ios":"levelo://app?vid=a5397efa-629d-4917-8594-0532aea74fe2"},"vehicle_type_id":"4","last_reported":1734185280,"current_range_meters":12000,"station_id":"ce4bhah2rcd13ifvqei0","pricing_plan_id":"cebpf4jnsgd1na2vs0mg"},{"bike_id":"18c94c04-1495-43d9-a4b2-41793fbaff6d","system_id":"levelo_inurba_marseille","lat":43.23061,"lon":5.3549,"is_reserved":false,"is_disabled":false,"rental_uris":{"android":"levelo://app?vid=18c94c04-1495-43d9-a4b2-41793fbaff6d","ios":"levelo://app?vid=18c94c04-1495-43d9-a4b2-41793fbaff6d"},"vehicle_type_id":"4","last_reported":1734185280,"current_range_meters":20000,"station_id":"cpo3342slgdg3j2ifvpg","pricing_plan_id":"cebpf4jnsgd1na2vs0mg"},