{"last_updated":1731986517,"ttl":60,"version":"2.2","data":{"bikes":[{"bike_id":"0c4cf5ea-a0b3-42a9-a5f8-ad337dddca0c","system_id":"levelo_inurba_marseille","lat":43.29253,"lon":5.4091,"is_reserved":false,"is_disabled":false,"rental_uris":{"android":"levelo://app?vid=0c4cf5ea-a0b3-42a9-a5f8-ad337dddca0c","ios":"levelo://app?vid=0c4cf5ea-a0b3-42a9-a5f8-ad337dddca0c"},"vehicle_type_id":"4","last_reported":1731986517,"current_range_meters":39200,"station_id":"ce4bh192rcd13ifvqdc0","pricing_plan_id":"cebpf4jnsgd1na2vs0mg"},{"bike_id":"457bb5e6-741e-4f94-a043-dca2d0f5b93a","system_id":"levelo_inurba_marseille","lat":43.31373,"lon":5.38491,"is_reserved":false,"is_disabled":false,"rental_uris":{"android":"levelo://app?vid=457bb5e6-741e-4f94-a043-dca2d0f5b93a","ios":"levelo://app?vid=457bb5e6-741e-4f94-a043-dca2d0f5b93a"},"vehicle_type_id":"4","last_reported":1731986517,"current_range_meters":10000,"station_id":"ce4bgt92rcd13ifvqcf0","pricing_plan_id":"cebpf4jnsgd1na2vs0mg"},{"bike_id":"3921a9f0-bca5-4438-8c4e-1dddd4afb0ff","system_id":"levelo_inurba_marseille","lat":43.31373,"lon":5.38494,"is_reserved":false,"is_disabled":false,"rental_uris":{"android":"levelo://app?vid=3921a9f0-bca5-4438-8c4e-1dddd4afb0ff","ios":"levelo://app?vid=3921a9f0-bca5-4438-8c4e-1dddd4afb0ff"},"vehicle_type_id":"4","last_reported":1731986517,"current_range_meters":32400,"station_id":"ce4bgt92rcd13ifvqcf0","pricing_plan_id":"cebpf4jnsgd1na2vs0mg"},{"bike_id":"2f5083a8-01ca-4328-baf6-04e4b87dc35e","system_id":"levelo_inurba_marseille","lat":43.27913,"lon":5.39583,"is_reserved":false,"is_disabled":false,"rental_uris":{"android":"levelo://app?vid=2f5083a8-01ca-4328-baf6-04e4b87dc35e","ios":"levelo://app?vid=2f5083a8-01ca-4328-baf6-04e4b87dc35e"},"vehicle_type_id":"4","last_reported":1731986517,"current_range_meters":28000,"station_id":"ce4bhf92rcd13ifvqf40","pricing_plan_id":"cebpf4jnsgd1na2vs0mg"},{"bike_id":"983fb69d-fd74-4d65-bc1c-29a8a65f02b7","system_id":"levelo_inurba_marseille","lat":43.27942,"lon":5.41045,"is_reserved":false,"is_disabled":false,"rental_uris":{"android":"levelo://app?vid=983fb69d-fd74-4d65-bc1c-29a8a65f02b7","ios":"levelo://app?vid=983fb69d-fd74-4d65-bc1c-29a8a65f02b7"},"vehicle_type_id":"4","last_reported":1731986517,"current_range_meters":30800,"station_id":"ce4bhnp2rcd13ifvqh0g","pricing_plan_id":"cebpf4jnsgd1na2vs0mg"},{"bike_id":"75cc8757-90ec-44a2-b070-b9cc134f750e","system_id":"levelo_inurba_marseille","lat":43.25023,"lon":5.3805,"is_reserved":false,"is_disabled":false,"rental_uris":{"android":"levelo://app?vid=75cc8757-90ec-44a2-b070-b9cc134f750e","ios":"levelo://app?vid=75cc8757-90ec-44a2-b070-b9cc134f750e"},"vehicle_type_id":"4","last_reported":1731986517,"current_range_meters":36000,"station_id":"","pricing_plan_id":"cebpf4jnsgd1na2vs0mg"},{"bike_id":"bc131b68-36d4-435a-9133-ec280e03582d","system_id":"levelo_inurba_marseille","lat":43.24664,"lon":5.38165,"is_reserved":false,"is_disabled":false,"rental_uris":{"android":"levelo://app?vid=bc131b68-36d4-435a-9133-ec280e03582d","ios":"levelo://app?vid=bc131b68-36d4-435a-9133-ec280e03582d"},"vehicle_type_id":"4","last_reported":1731986517,"current_range_meters":23200,"station_id":"ce4bhih2rcd13ifvqfr0","pricing_plan_id":"cebpf4jnsgd1na2vs0mg"},{"bike_id":"96ff0849-873b-421d-8847-cf59d38d784e","system_id":"levelo_inurba_marseille","lat":43.32656,"lon":5.4099,"is_reserved":false,"is_disabled":false,"rental_uris":{"android":"levelo://app?vid=96ff0849-873b-421d-8847-cf59d38d784e","ios":"levelo://app?vid=96ff0849-873b-421d-8847-cf59d38d784e"},"vehicle_type_id":"4","last_reported":1731986517,"current_range_meters":22400,"station_id":"ce4bhpp2rcd13ifvqhgg","pricing_plan_id":"cebpf4jnsgd1na2vs0mg"},{"bike_id":"65462e86-de49-4a82-a117-2d3617211b26","system_id":"levelo_inurba_marseille","lat":43.30925,"lon":5.4014,"is_reserved":false,"is_disabled":false,"rental_uris":{"android":"levelo://app?vid=65462e86-de49-4a82-a117-2d3617211b26","ios":"levelo://app?vid=65462e86-de49-4a82-a117-2d3617211b26"},"vehicle_type_id":"4","last_reported":1731986517,"current_range_meters":37600,"station_id":"ce4bgvp2rcd13ifvqct0","pricing_plan_id":"cebpf4jnsgd1na2vs0mg"},{"bike_id":"ee8b0697-df46-4de8-b7de-734c3a73285b","system_id":"levelo_inurba_marseille","lat":43.27816,"lon":5.40705,"is_reserved":false,"is_disabled":false,"rental_uris":{"android":"levelo://app?vid=ee8b0697-df46-4de8-b7de-734c3a73285b","ios":"levelo://app?vid=ee8b0697-df46-4de8-b7de-734c3a73285b"},"vehicle_type_id":"4","last_reported":1731986517,"current_range_meters":32400,"station_id":"ce4bhnh2rcd13ifvqgtg","pricing_plan_id":"cebpf4jnsgd1na2vs0mg"},{"bike_id":"0bc2b4da-31a7-4cb4-95e9-3aa3825f7da9","system_id":"levelo_inurba_marseille","lat":43.28003,"lon":5.40004,"is_reserved":false,"is_disabled":false,"rental_uris":{"android":"levelo://app?vid=0bc2b4da-31a7-4cb4-95e9-3aa3825f7da9","ios":"levelo://app?vid=0bc2b4da-31a7-4cb4-95e9-3aa3825f7da9"},"vehicle_type_id":"4","last_reported":1731986517,"current_range_meters":12400,"station_id":"ce4bho92rcd13ifvqh4g","pricing_plan_id":"cebpf4jnsgd1na2vs0mg"},{"bike_id":"f241cc7c-02e4-4e14-98e9-7c64fa35ec13","system_id":"levelo_inurba_marseille","lat":43.29628,"lon":5.40593,"is_reserved":false,"is_disabled":false,"rental_uris":{"android":"levelo://app?vid=f241cc7c-02e4-4e14-98e9-7c64fa35ec13","ios":"levelo://app?vid=f241cc7c-02e4-4e14-98e9-7c64fa35ec13"},"vehicle_type_id":"4","last_reported":1731986517,"current_range_meters":7200,"station_id":"ce4bh0h2rcd13ifvqd60","pricing_plan_id":"cebpf4jnsgd1na2vs0mg"},{"bike_id":"98568737-99bd-4851-a170-5764e02de3a0","system_id":"levelo_inurba_marseille","lat":43.31755,"lon":5.39022,"is_reserved":false,"is_disabled":false,"rental_uris":{"android":"levelo://app?vid=98568737-99bd-4851-a170-5764e02de3a0","ios":"levelo://app?vid=98568737-99bd-4851-a170-5764e02de3a0"},"vehicle_type_id":"4","last_reported":1731986517,"current_range_meters":38800,"station_id":"ce4bhqp2rcd13ifvqhng","pricing_plan_id":"cebpf4jnsgd1na2vs0mg"},{"bike_id":"86159686-8bb6-4861-b82b-5d805432ffef","system_id":"levelo_inurba_marseille","lat":43.25,"lon":5.3893,"is_reserved":false,"is_disabled":false,"rental_uris":{"android":"levelo://app?vid=86159686-8bb6-4861-b82b-5d805432ffef","ios":"levelo://app?vid=86159686-8bb6-4861-b82b-5d805432ffef"},"vehicle_type_id":"4","last_reported":1731986517,"current_range_meters":30000,"station_id":"ce4bhgp2rcd13ifvqfd0","pricing_plan_id":"cebpf4jnsgd1na2vs0mg"},{"bike_id":"97f5c00d-ab13-4097-8e13-e80b4b96ad92","system_id":"levelo_inurba_marseille","lat":43.302551,"lon":5.400768,"is_reserved":false,"is_disabled":false,"rental_uris":{"android":"levelo://app?vid=97f5c00d-ab13-4097-8e13-e80b4b96ad92","ios":"levelo://app?vid=97f5c00d-ab13-4097-8e13-e80b4b96ad92"},"vehicle_type_id":"4","last_reported":1731986517,"current_range_meters":37600,"station_id":"ce4bgvh2rcd13ifvqcs0","pricing_plan_id":"cebpf4jnsgd1na2vs0mg"},{"bike_id":"6c926eef-89ef-4421-9c04-3c9899f3173b","system_id":"levelo_inurba_marseille","lat":43.29902,"lon":5.43661,"is_reserved":false,"is_disabled":true,"rental_uris":{"android":"levelo://app?vid=6c926eef-89ef-4421-9c04-3c9899f3173b","ios":"levelo://app?vid=6c926eef-89ef-4421-9c04-3c9899f3173b"},"vehicle_type_id":"4","last_reported":1731986517,"current_range_meters":0,"station_id":"ce4bhpp2rcd13ifvqhfg","pricing_plan_id":"cebpf4jnsgd1na2vs0mg"},{"bike_id":"127efe80-b451-4258-b40a-516220894345","system_id":"levelo_inurba_marseille","lat":43.30887,"lon":5.37194,"is_reserved":false,"is_disabled":true,"rental_uris":{"android":"levelo://app?vid=127efe80-b451-4258-b40a-516220894345","ios":"levelo://app?vid=127efe80-b451-4258-b40a-516220894345"},"vehicle_type_id":"4","last_reported":1731986517,"current_range_meters":39200,"station_id":"ce4bguh2rcd13ifvqckg","pricing_plan_id":"cebpf4jnsgd1na2vs0mg"},{"bike_id":"81108a94-b9fd-4847-be3f-917addbb08ef","system_id":"levelo_inurba_marseille","lat":43.26558,"lon":5.37285,"is_reserved":false,"is_disabled":false,"rental_uris":{"android":"levelo://app?vid=81108a94-b9fd-4847-be3f-917addbb08ef","ios":"levelo://app?vid=81108a94-b9fd-4847-be3f-917addbb08ef"},"vehicle_type_id":"4","last_reported":1731986517,"current_range_meters":38000,"station_id":"ce4bhg12rcd13ifvqf70","pricing_plan_id":"cebpf4jnsgd1na2vs0mg"},{"bike_id":"e08875d1-5eda-43a9-a5b5-ee3ebd16c83c","system_id":"levelo_inurba_marseille","lat":43.25006,"lon":5.38912,"is_reserved":false,"is_disabled":false,"rental_uris":{"android":"levelo://app?vid=e08875d1-5eda-43a9-a5b5-ee3ebd16c83c","ios":"levelo://app?vid=e08875d1-5eda-43a9-a5b5-ee3ebd16c83c"},"vehicle_type_id":"4","last_reported":1731986517,"current_range_meters":37600,"station_id":"ce4bhgp2rcd13ifvqfd0","pricing_plan_id":"cebpf4jnsgd1na2vs0mg"},{"bike_id":"b1879da0-4952-4a10-8d90-fd2192536eda","system_id":"levelo_inurba_marseille","lat":43.23154,"lon":5.43712,"is_reserved":false,"is_disabled":false,"rental_uris":{"android":"levelo://app?vid=b1879da0-4952-4a10-8d90-fd2192536eda","ios":"levelo://app?vid=b1879da0-4952-4a10-8d90-fd2192536eda"},"vehicle_type_id":"4","last_reported":1731986517,"current_range_meters":21600,"station_id":"ce4bhmp2rcd13ifvqgog","pricing_plan_id":"cebpf4jnsgd1na2vs0mg"},{"bike_id":"4ff0bc06-1b0b-4246-97ea-67727dfe81ee","system_id":"levelo_inurba_marseille","lat":43.28407,"lon":5.37519,"is_reserved":false,"is_disabled":false,"rental_uris":{"android":"levelo://app?vid=4ff0bc06-1b0b-4246-97ea-67727dfe81ee","ios":"levelo://app?vid=4ff0bc06-1b0b-4246-97ea-67727dfe81ee"},"vehicle_type_id":"4","last_reported":1731986517,"current_range_meters":29600,"station_id":"ce4bh412rcd13ifvqds0","pricing_plan_id":"cebpf4jnsgd1na2vs0mg"},{"bike_id":"46cf6f0d-da6a-4481-b9b5-ca51f0c8f960","system_id":"levelo_inurba_marseille","lat":43.2872,"lon":5.36085,"is_reserved":false,"is_disabled":false,"rental_uris":{"android":"levelo://app?vid=46cf6f0d-da6a-4481-b9b5-ca51f0c8f960","ios":"levelo://app?vid=46cf6f0d-da6a-4481-b9b5-ca51f0c8f960"},"vehicle_type_id":"4","last_reported":1731986517,"current_range_meters":19600,"station_id":"cki0cbj6b192h4jlfktg","pricing_plan_id":"cebpf4jnsgd1na2vs0mg"},{"bike_id":"87c8c14c-6dc4-4d7e-968e-7f10f823cce4","system_id":"levelo_inurba_marseille","lat":43.318835,"lon":5.407335,"is_reserved":false,"is_disabled":false,"rental_uris":{"android":"levelo://app?vid=87c8c14c-6dc4-4d7e-968e-7f10f823cce4","ios":"levelo://app?vid=87c8c14c-6dc4-4d7e-968e-7f10f823cce4"},"vehicle_type_id":"4","last_reported":1731986517,"current_range_meters":34800,"station_id":"ce4bhq12rcd13ifvqhig","pricing_plan_id":"cebpf4jnsgd1na2vs0mg"},{"bike_id":"5ecdfa42-3f78-42de-9069-d5974c65fdc5","system_id":"levelo_inurba_marseille","lat":43.31494,"lon":5.37311,"is_reserved":false,"is_disabled":false,"rental_uris":{"android":"levelo://app?vid=5ecdfa42-3f78-42de-9069-d5974c65fdc5","ios":"levelo://app?vid=5ecdfa42-3f78-42de-9069-d5974c65fdc5"},"vehicle_type_id":"4","last_reported":1731986517,"current_range_meters":37600,"station_id":"ce4bgt12rcd13ifvqcd0","pricing_plan_id":"cebpf4jnsgd1na2vs0mg"},{"bike_id":"226e83bf-1a60-405a-af72-b50b167433a5","system_id":"levelo_inurba_marseille","lat":43.29578,"lon":5.39961,"is_reserved":false,"is_disabled":false,"rental_uris":{"android":"levelo://app?vid=226e83bf-1a60-405a-af72-b50b167433a5","ios":"levelo://app?vid=226e83bf-1a60-405a-af72-b50b167433a5"},"vehicle_type_id":"4","last_reported":1731986517,"current_range_meters":36800,"station_id":"ce4bh312rcd13ifvqdj0","pricing_plan_id":"cebpf4jnsgd1na2vs0mg"},{"bike_id":"4e682c21-86be-4d76-a64b-638a60816da7","system_id":"levelo_inurba_marseille","lat":43.27815,"lon":5.40703,"is_reserved":false,"is_disabled":false,"rental_uris":{"android":"levelo://app?vid=4e682c21-86be-4d76-a64b-638a60816da7","ios":"levelo://app?vid=4e682c21-86be-4d76-a64b-638a60816da7"},"vehicle_type_id":"4","last_reported":1731986517,"current_range_meters":19600,"station_id":"ce4bhnh2rcd13ifvqgtg","pricing_plan_id":"cebpf4jnsgd1na2vs0mg"},{"bike_id":"1ceca4c0-e64b-47cd-84e8-4eaf493a34ff","system_id":"levelo_inurba_marseille","lat":43.303168,"lon":5.402617,"is_reserved":false,"is_disabled":true,"rental_uris":{"android":"levelo://app?vid=1ceca4c0-e64b-47cd-84e8-4eaf493a34ff","ios":"levelo://app?vid=1ceca4c0-e64b-47cd-84e8-4eaf493a34ff"},"vehicle_type_id":"4","last_reported":1731986517,"current_range_meters":0,"station_id":"","pricing_plan_id":"cebpf4jnsgd1na2vs0mg"},{"bike_id":"daca0b75-1bb0-48e0-847c-38b1ea139373","system_id":"levelo_inurba_marseille","lat":43.27989,"lon":5.41656,"is_reserved":false,"is_disabled":false,"rental_uris":{"android":"levelo://app?vid=daca0b75-1bb0-48e0-847c-38b1ea139373","ios":"levelo://app?vid=daca0b75-1bb0-48e0-847c-38b1ea139373"},"vehicle_type_id":"4","last_reported":1731986517,"current_range_meters":38000,"station_id":"ce4bho12rcd13ifvqh1g","pricing_plan_id":"cebpf4jnsgd1na2vs0mg"},{"bike_id":"8cdcff88-f0a9-48bf-bc2d-1d0e44dc6973","system_id":"levelo_inurba_marseille","lat":43.28663,"lon":5.36356,"is_reserved":false,"is_disabled":false,"rental_uris":{"android":"levelo://app?vid=8cdcff88-f0a9-48bf-bc2d-1d0e44dc6973","ios":"levelo://app?vid=8cdcff88-f0a9-48bf-bc2d-1d0e44dc6973"},"vehicle_type_id":"4","last_reported":1731986517,"current_range_meters":27200,"station_id":"ce4bhah2rcd13ifvqej0","pricing_plan_id":"cebpf4jnsgd1na2vs0mg"},{"bike_id":"c8051b12-6cd5-4ffc-86b8-096be2fd8343","system_id":"levelo_inurba_marseille","lat":43.231965,"lon":5.35556,"is_reserved":false,"is_disabled":false,"rental_uris":{"android":"levelo://app?vid=c8051b12-6cd5-4ffc-86b8-096be2fd8343","ios":"levelo://app?vid=c8051b12-6cd5-4ffc-86b8-096be2fd8343"},"vehicle_type_id":"4","last_reported":1731986517,"current_range_meters":17200,"station_id":"ce4bhu92rcd13ifvqi70","pricing_plan_id":"cebpf4jnsgd1na2vs0mg"},{"bike_id":"636ad6ad-7ea2-4a54-b125-0c397f6550f8","system_id":"levelo_inurba_marseille","lat":43.28436,"lon":5.39183,"is_reserved":false,"is_disabled":true,"rental_uris":{"android":"levelo://app?vid=636ad6ad-7ea2-4a54-b125-0c397f6550f8","ios":"levelo://app?vid=636ad6ad-7ea2-4a54-b125-0c397f6550f8"},"vehicle_type_id":"4","last_reported":1731986517,"current_range_meters":28800,"station_id":"ce4bhoh2rcd13ifvqh5g","pricing_plan_id":"cebpf4jnsgd1na2vs0mg"},{"bike_id":"bf87836b-438d-4b6d-b9b3-cf8fd9fd8f8b","system_id":"levelo_inurba_marseille","lat":43.27979,"lon":5.38756,"is_reserved":false,"is_disabled":false,"rental_uris":{"android":"levelo://app?vid=bf87836b-438d-4b6d-b9b3-cf8fd9fd8f8b","ios":"levelo://app?vid=bf87836b-438d-4b6d-b9b3-cf8fd9fd8f8b"},"vehicle_type_id":"4","last_reported":1731986517,"current_range_meters":35200,"station_id":"ce4bhg12rcd13ifvqf80","pricing_plan_id":"cebpf4jnsgd1na2vs0mg"},{"bike_id":"43fc3a21-f3df-43fc-8276-7a68f99281c3","system_id":"levelo_inurba_marseille","lat":43.25117,"lon":5.403148,"is_reserved":false,"is_disabled":false,"rental_uris":{"android":"levelo://app?vid=43fc3a21-f3df-43fc-8276-7a68f99281c3","ios":"levelo://app?vid=43fc3a21-f3df-43fc-8276-7a68f99281c3"},"vehicle_type_id":"4","last_reported":1731986517,"current_range_meters":38000,"station_id":"ce4bhlh2rcd13ifvqgig","pricing_plan_id":"cebpf4jnsgd1na2vs0mg"},{"bike_id":"6ba2d3f3-c655-4e14-8211-bd7d1cb3d06a","system_id":"levelo_inurba_marseille","lat":43.29875,"lon":5.39756,"is_reserved":false,"is_disabled":false,"rental_uris":{"android":"levelo://app?vid=6ba2d3f3-c655-4e14-8211-bd7d1cb3d06a","ios":"levelo://app?vid=6ba2d3f3-c655-4e14-8211-bd7d1cb3d06a"},"vehicle_type_id":"4","last_reported":1731986517,"current_range_meters":38000,"station_id":"ce4bh0h2rcd13ifvqd50","pricing_plan_id":"cebpf4jnsgd1na2vs0mg"},{"bike_id":"38ef1c7d-db66-4004-abf9-f9fc6a67758b","system_id":"levelo_inurba_marseille","lat":43.3137,"lon":5.38496,"is_reserved":false,"is_disabled":false,"rental_uris":{"android":"levelo://app?vid=38ef1c7d-db66-4004-abf9-f9fc6a67758b","ios":"levelo://app?vid=38ef1c7d-db66-4004-abf9-f9fc6a67758b"},"vehicle_type_id":"4","last_reported":1731986517,"current_range_meters":16000,"station_id":"ce4bgt92rcd13ifvqcf0","pricing_plan_id":"cebpf4jnsgd1na2vs0mg"},{"bike_id":"4612e287-ccfe-4af4-be38-92e9c35c2c3a","system_id":"levelo_inurba_marseille","lat":43.24665,"lon":5.38167,"is_reserved":false,"is_disabled":false,"rental_uris":{"android":"levelo://app?vid=4612e287-ccfe-4af4-be38-92e9c35c2c3a","ios":"levelo://app?vid=4612e287-ccfe-4af4-be38-92e9c35c2c3a"},"vehicle_type_id":"4","last_reported":1731986517,"current_range_meters":38000,"station_id":"ce4bhih2rcd13ifvqfr0","pricing_plan_id":"cebpf4jnsgd1na2vs0mg"},{"bike_id":"bc122eef-c627-4c48-898c-81234e04e2bd","system_id":"levelo_inurba_marseille","lat":43.30596,"lon":5.39341,"is_reserved":false,"is_disabled":true,"rental_uris":{"android":"levelo://app?vid=bc122eef-c627-4c48-898c-81234e04e2bd","ios":"levelo://app?vid=bc122eef-c627-4c48-898c-81234e04e2bd"},"vehicle_type_id":"4","last_reported":1731986517,"current_range_meters":37600,"station_id":"ce4bh0p2rcd13ifvqd80","pricing_plan_id":"cebpf4jnsgd1na2vs0mg"},{"bike_id":"370474bd-c5a1-4d30-85ee-1b07a0bdb8b3","system_id":"levelo_inurba_marseille","lat":43.33021,"lon":5.39036,"is_reserved":false,"is_disabled":false,"rental_uris":{"android":"levelo://app?vid=370474bd-c5a1-4d30-85ee-1b07a0bdb8b3","ios":"levelo://app?vid=370474bd-c5a1-4d30-85ee-1b07a0bdb8b3"},"vehicle_type_id":"4","last_reported":1731986517,"current_range_meters":21600,"station_id":"ce4bhr92rcd13ifvqhrg","pricing_plan_id":"cebpf4jnsgd1na2vs0mg"},{"bike_id":"9c003458-5bcb-4587-ba82-142e30067a2f","system_id":"levelo_inurba_marseille","lat":43.3302,"lon":5.39037,"is_reserved":false,"is_disabled":false,"rental_uris":{"android":"levelo://app?vid=9c003458-5bcb-4587-ba82-142e30067a2f","ios":"levelo://app?vid=9c003458-5bcb-4587-ba82-142e30067a2f"},"vehicle_type_id":"4","last_reported":1731986517,"current_range_meters":38400,"station_id":"ce4bhr92rcd13ifvqhrg","pricing_plan_id":"cebpf4jnsgd1na2vs0mg"},{"bike_id":"e138b0e1-0592-4057-bb8b-cf36d0939c91","system_id":"levelo_inurba_marseille","lat":43.28007,"lon":5.40014,"is_reserved":false,"is_disabled":false,"rental_uris":{"android":"levelo://app?vid=e138b0e1-0592-4057-bb8b-cf36d0939c91","ios":"levelo://app?vid=e138b0e1-0592-4057-bb8b-cf36d0939c91"},"vehicle_type_id":"4","last_reported":1731986517,"current_range_meters":40000,"station_id":"ce4bho92rcd13ifvqh4g","pricing_plan_id":"cebpf4jnsgd1na2vs0mg"},{"bike_id":"1341a828-b981-4198-a789-8a5791ca7539","system_id":"levelo_inurba_marseille","lat":43.25011,"lon":5.38915,"is_reserved":false,"is_disabled":false,"rental_uris":{"android":"levelo://app?vid=1341a828-b981-4198-a789-8a5791ca7539","ios":"levelo://app?vid=1341a828-b981-4198-a789-8a5791ca7539"},"vehicle_type_id":"4","last_reported":1731986517,"current_range_meters":37600,"station_id":"ce4bhgp2rcd13ifvqfd0","pricing_plan_id":"cebpf4jnsgd1na2vs0mg"},{"bike_id":"423c94ef-b71b-4307-a3dd-5dfeaef4c110","system_id":"levelo_inurba_marseille","lat":43.28409,"lon":5.37515,"is_reserved":false,"is_disabled":false,"rental_uris":{"android":"levelo://app?vid=423c94ef-b71b-4307-a3dd-5dfeaef4c110","ios":"levelo://app?vid=423c94ef-b71b-4307-a3dd-5dfeaef4c110"},"vehicle_type_id":"4","last_reported":1731986517,"current_range_meters":30000,"station_id":"ce4bh412rcd13ifvqds0","pricing_plan_id":"cebpf4jnsgd1na2vs0mg"},{"bike_id":"08a910d0-5478-47a2-88ea-af8273ec9923","system_id":"levelo_inurba_marseille","lat":43.30417,"lon":5.39753,"is_reserved":false,"is_disabled":false,"rental_uris":{"android":"levelo://app?vid=08a910d0-5478-47a2-88ea-af8273ec9923","ios":"levelo://app?vid=08a910d0-5478-47a2-88ea-af8273ec9923"},"vehicle_type_id":"4","last_reported":1731986517,"current_range_meters":37600,"station_id":"ce4bh092rcd13ifvqd20","pricing_plan_id":"cebpf4jnsgd1na2vs0mg"},{"bike_id":"73e893d7-288d-4212-84f4-e9e28b81fc1a","system_id":"levelo_inurba_marseille","lat":43.239667,"lon":5.366322,"is_reserved":false,"is_disabled":false,"rental_uris":{"android":"levelo://app?vid=73e893d7-288d-4212-84f4-e9e28b81fc1a","ios":"levelo://app?vid=73e893d7-288d-4212-84f4-e9e28b81fc1a"},"vehicle_type_id":"4","last_reported":1731986517,"current_range_meters":38400,"station_id":"ce4bhi12rcd13ifvqfp0","pricing_plan_id":"cebpf4jnsgd1na2vs0mg"},{"bike_id":"08ffd31c-fe78-416e-b527-8f7725b133f1","system_id":"levelo_inurba_marseille","lat":43.27992,"lon":5.40009,"is_reserved":false,"is_disabled":false,"rental_uris":{"android":"levelo://app?vid=08ffd31c-fe78-416e-b527-8f7725b133f1","ios":"levelo://app?vid=08ffd31c-fe78-416e-b527-8f7725b133f1"},"vehicle_type_id":"4","last_reported":1731986517,"current_range_meters":36400,"station_id":"ce4bho92rcd13ifvqh4g","pricing_plan_id":"cebpf4jnsgd1na2vs0mg"},{"bike_id":"ef31495f-6a34-4d74-a72b-91bbac7371df","system_id":"levelo_inurba_marseille","lat":43.25932,"lon":5.40916,"is_reserved":false,"is_disabled":true,"rental_uris":{"android":"levelo://app?vid=ef31495f-6a34-4d74-a72b-91bbac7371df","ios":"levelo://app?vid=ef31495f-6a34-4d74-a72b-91bbac7371df"},"vehicle_type_id":"4","last_reported":1731986517,"current_range_meters":22400,"station_id":"ce4bhm92rcd13ifvqglg","pricing_plan_id":"cebpf4jnsgd1na2vs0mg"},{"bike_id":"d10c90fd-3c70-4bb6-bcaa-6d62b6ce4770","system_id":"levelo_inurba_marseille","lat":43.26069,"lon":5.39391,"is_reserved":false,"is_disabled":true,"rental_uris":{"android":"levelo://app?vid=d10c90fd-3c70-4bb6-bcaa-6d62b6ce4770","ios":"levelo://app?vid=d10c90fd-3c70-4bb6-bcaa-6d62b6ce4770"},"vehicle_type_id":"4","last_reported":1731986517,"current_range_meters":9200,"station_id":"ce4bhh92rcd13ifvqfj0","pricing_plan_id":"cebpf4jnsgd1na2vs0mg"},{"bike_id":"5917a06d-1a89-42ee-9c96-70b3e49f2520","system_id":"levelo_inurba_marseille","lat":43.31703,"lon":5.40473,"is_reserved":false,"is_disabled":true,"rental_uris":{"android":"levelo://app?vid=5917a06d-1a89-42ee-9c96-70b3e49f2520","ios":"levelo://app?vid=5917a06d-1a89-42ee-9c96-70b3e49f2520"},"vehicle_type_id":"4","last_reported":1731986517,"current_range_meters":16000,"station_id":"ce4bh012rcd13ifvqd00","pricing_plan_id":"cebpf4jnsgd1na2vs0mg"},{"bike_id":"dbf60536-a536-4a38-8bbd-8d36414f5350","system_id":"levelo_inurba_marseille","lat":43.28854,"lon":5.35856,"is_reserved":false,"is_disabled":false,"rental_uris":{"android":"levelo://app?vid=dbf60536-a536-4a38-8bbd-8d36414f5350","ios":"levelo://app?vid=dbf60536-a536-4a38-8bbd-8d36414f5350"},"vehicle_type_id":"4","last_reported":1731986517,"current_range_meters":37600,"station_id":"ce4bhb12rcd13ifvqem0","pricing_plan_id":"cebpf4jnsgd1na2vs0mg"},{"bike_id":"2c263757-7671-407f-89c7-d1436f782341","system_id":"levelo_inurba_marseille","lat":43.2808,"lon":5.3965,"is_reserved":false,"is_disabled":false,"rental_uris":{"android":"levelo://app?vid=2c263757-7671-407f-89c7-d1436f782341","ios":"levelo://app?vid=2c263757-7671-407f-89c7-d1436f782341"},"vehicle_type_id":"4","last_reported":1731986517,"current_range_meters":39200,"station_id":"ce4bho12rcd13ifvqh2g","pricing_plan_id":"cebpf4jnsgd1na2vs0mg"},{"bike_id":"e095c480-1be3-4d37-84b1-7d30698bce1c","system_id":"levelo_inurba_marseille","lat":43.28696,"lon":5.37382,"is_reserved":false,"is_disabled":false,"rental_uris":{"android":"levelo://app?vid=e095c480-1be3-4d37-84b1-7d30698bce1c","ios":"levelo://app?vid=e095c480-1be3-4d37-84b1-7d30698bce1c"},"vehicle_type_id":"4","last_reported":1731986517,"current_range_meters":6400,"station_id":"ce4bh3p2rcd13ifvqdq0","pricing_plan_id":"cebpf4jnsgd1na2vs0mg"},{"bike_id":"7469e33e-c994-4731-b38b-2241d8efe8e6","system_id":"levelo_inurba_marseille","lat":43.286662,"lon":5.36356,"is_reserved":false,"is_disabled":false,"rental_uris":{"android":"levelo://app?vid=7469e33e-c994-4731-b38b-2241d8efe8e6","ios":"levelo://app?vid=7469e33e-c994-4731-b38b-2241d8efe8e6"},"vehicle_type_id":"4","last_reported":1731986517,"current_range_meters":27200,"station_id":"ce4bhah2rcd13ifvqej0","pricing_plan_id":"cebpf4jnsgd1na2vs0mg"},{"bike_id":"02c7140d-eb0a-4832-a8c4-16edc8f79941","system_id":"levelo_inurba_marseille","lat":43.23966,"lon":5.36634,"is_reserved":false,"is_disabled":false,"rental_uris":{"android":"levelo://app?vid=02c7140d-eb0a-4832-a8c4-16edc8f79941","ios":"levelo://app?vid=02c7140d-eb0a-4832-a8c4-16edc8f79941"},"vehicle_type_id":"4","last_reported":1731986517,"current_range_meters":22800,"station_id":"ce4bhi12rcd13ifvqfp0","pricing_plan_id":"cebpf4jnsgd1na2vs0mg"},{"bike_id":"0534ce24-46b6-4220-851d-cebdfec71164","system_id":"levelo_inurba_marseille","lat":43.23185,"lon":5.39978,"is_reserved":false,"is_disabled":false,"rental_uris":{"android":"levelo://app?vid=0534ce24-46b6-4220-851d-cebdfec71164","ios":"levelo://app?vid=0534ce24-46b6-4220-851d-cebdfec71164"},"vehicle_type_id":"4","last_reported":1731986517,"current_range_meters":38400,"station_id":"ce4bhn12rcd13ifvqgqg","pricing_plan_id":"cebpf4jnsgd1na2vs0mg"},{"bike_id":"bb3259d9-9da2-433b-9e09-7ebb886ab180","system_id":"levelo_inurba_marseille","lat":43.31071,"lon":5.38354,"is_reserved":false,"is_disabled":false,"rental_uris":{"android":"levelo://app?vid=bb3259d9-9da2-433b-9e09-7ebb886ab180","ios":"levelo://app?vid=bb3259d9-9da2-433b-9e09-7ebb886ab180"},"vehicle_type_id":"4","last_reported":1731986517,"current_range_meters":36000,"station_id":"ce4bgv92rcd13ifvqcr0","pricing_plan_id":"cebpf4jnsgd1na2vs0mg"},{"bike_id":"ee73fa0d-ae4c-428a-9248-7dc0b16a03fe","system_id":"levelo_inurba_marseille","lat":43.3171,"lon":5.3985,"is_reserved":false,"is_disabled":false,"rental_uris":{"android":"levelo://app?vid=ee73fa0d-ae4c-428a-9248-7dc0b16a03fe","ios":"levelo://app?vid=ee73fa0d-ae4c-428a-9248-7dc0b16a03fe"},"vehicle_type_id":"4","last_reported":1731986517,"current_range_meters":30000,"station_id":"","pricing_plan_id":"cebpf4jnsgd1na2vs0mg"},{"bike_id":"80851460-2c7d-4d36-9c6e-80e3087e4e9c","system_id":"levelo_inurba_marseille","lat":43.28621,"lon":5.35098,"is_reserved":false,"is_disabled":false,"rental_uris":{"android":"levelo://app?vid=80851460-2c7d-4d36-9c6e-80e3087e4e9c","ios":"levelo://app?vid=80851460-2c7d-4d36-9c6e-80e3087e4e9c"},"vehicle_type_id":"4","last_reported":1731986517,"current_range_meters":32000,"station_id":"ce4bhch2rcd13ifvqeug","pricing_plan_id":"cebpf4jnsgd1na2vs0mg"},{"bike_id":"3f095bc8-9af8-4b0b-a298-157d8e949f36","system_id":"levelo_inurba_marseille","lat":43.27675,"lon":5.38906,"is_reserved":false,"is_disabled":true,"rental_uris":{"android":"levelo://app?vid=3f095bc8-9af8-4b0b-a298-157d8e949f36","ios":"levelo://app?vid=3f095bc8-9af8-4b0b-a298-157d8e949f36"},"vehicle_type_id":"4","last_reported":1731986517,"current_range_meters":8400,"station_id":"ce4bhi12rcd13ifvqfo0","pricing_plan_id":"cebpf4jnsgd1na2vs0mg"},{"bike_id":"7c407d42-b656-4801-b91f-c3365028215c","system_id":"levelo_inurba_marseille","lat":43.26213,"lon":5.37439,"is_reserved":false,"is_disabled":false,"rental_uris":{"android":"levelo://app?vid=7c407d42-b656-4801-b91f-c3365028215c","ios":"levelo://app?vid=7c407d42-b656-4801-b91f-c3365028215c"},"vehicle_type_id":"4","last_reported":1731986517,"current_range_meters":38800,"station_id":"ce4bhgp2rcd13ifvqfc0","pricing_plan_id":"cebpf4jnsgd1na2vs0mg"},{"bike_id":"9ff1d3e0-c2d5-4a1d-a1d8-983df56c2db6","system_id":"levelo_inurba_marseille","lat":43.302987,"lon":5.39211,"is_reserved":false,"is_disabled":false,"rental_uris":{"android":"levelo://app?vid=9ff1d3e0-c2d5-4a1d-a1d8-983df56c2db6","ios":"levelo://app?vid=9ff1d3e0-c2d5-4a1d-a1d8-983df56c2db6"},"vehicle_type_id":"4","last_reported":1731986517,"current_range_meters":28800,"station_id":"ce4bgkh2rcd13ifvqbk0","pricing_plan_id":"cebpf4jnsgd1na2vs0mg"},{"bike_id":"a048dcd7-5cc2-4dc6-b206-12ad13acc9f1","system_id":"levelo_inurba_marseille","lat":43.24805,"lon":5.37453,"is_reserved":false,"is_disabled":false,"rental_uris":{"android":"levelo://app?vid=a048dcd7-5cc2-4dc6-b206-12ad13acc9f1","ios":"levelo://app?vid=a048dcd7-5cc2-4dc6-b206-12ad13acc9f1"},"vehicle_type_id":"4","last_reported":1731986517,"current_range_meters":19200,"station_id":"ce4bhgh2rcd13ifvqfb0","pricing_plan_id":"cebpf4jnsgd1na2vs0mg"},{"bike_id":"26715a30-0a1f-47c0-9b9a-b674240a1332","system_id":"levelo_inurba_marseille","lat":43.30319,"lon":5.40435,"is_reserved":false,"is_disabled":false,"rental_uris":{"android":"levelo://app?vid=26715a30-0a1f-47c0-9b9a-b674240a1332","ios":"levelo://app?vid=26715a30-0a1f-47c0-9b9a-b674240a1332"},"vehicle_type_id":"4","last_reported":1731986517,"current_range_meters":33200,"station_id":"ce4bh012rcd13ifvqd10","pricing_plan_id":"cebpf4jnsgd1na2vs0mg"},{"bike_id":"d674a550-723f-4e20-a0c2-89aa344c2ade","system_id":"levelo_inurba_marseille","lat":43.28196,"lon":5.44375,"is_reserved":false,"is_disabled":false,"rental_uris":{"android":"levelo://app?vid=d674a550-723f-4e20-a0c2-89aa344c2ade","ios":"levelo://app?vid=d674a550-723f-4e20-a0c2-89aa344c2ade"},"vehicle_type_id":"4","last_reported":1731986517,"current_range_meters":5600,"station_id":"","pricing_plan_id":"cebpf4jnsgd1na2vs0mg"},{"bike_id":"f1cc326e-0a40-4b5a-bef5-eb1d62bf939b","system_id":"levelo_inurba_marseille","lat":43.2872,"lon":5.36091,"is_reserved":false,"is_disabled":false,"rental_uris":{"android":"levelo://app?vid=f1cc326e-0a40-4b5a-bef5-eb1d62bf939b","ios":"levelo://app?vid=f1cc326e-0a40-4b5a-bef5-eb1d62bf939b"},"vehicle_type_id":"4","last_reported":1731986517,"current_range_meters":30000,"station_id":"cki0cbj6b192h4jlfktg","pricing_plan_id":"cebpf4jnsgd1na2vs0mg"},{"bike_id":"f26f9ff4-6d82-459d-bc98-b8addb7fa0b2","system_id":"levelo_inurba_marseille","lat":43.28934,"lon":5.36629,"is_reserved":false,"is_disabled":true,"rental_uris":{"android":"levelo://app?vid=f26f9ff4-6d82-459d-bc98-b8addb7fa0b2","ios":"levelo://app?vid=f26f9ff4-6d82-459d-bc98-b8addb7fa0b2"},"vehicle_type_id":"4","last_reported":1731986517,"current_range_meters":0,"station_id":"ce4bhap2rcd13ifvqek0","pricing_plan_id":"cebpf4jnsgd1na2vs0mg"},{"bike_id":"6b820048-12f4-4da7-aee0-6c64c8a09952","system_id":"levelo_inurba_marseille","lat":43.31052,"lon":5.38182,"is_reserved":false,"is_disabled":false,"rental_uris":{"android":"levelo://app?vid=6b820048-12f4-4da7-aee0-6c64c8a09952","ios":"levelo://app?vid=6b820048-12f4-4da7-aee0-6c64c8a09952"},"vehicle_type_id":"4","last_reported":1731986517,"current_range_meters":28000,"station_id":"","pricing_plan_id":"cebpf4jnsgd1na2vs0mg"},{"bike_id":"5cafd947-fcaf-42d4-90dc-a3f0d34e955d","system_id":"levelo_inurba_marseille","lat":43.285739,"lon":5.394976,"is_reserved":false,"is_disabled":false,"rental_uris":{"android":"levelo://app?vid=5cafd947-fcaf-42d4-90dc-a3f0d34e955d","ios":"levelo://app?vid=5cafd947-fcaf-42d4-90dc-a3f0d34e955d"},"vehicle_type_id":"4","last_reported":1731986517,"current_range_meters":39200,"station_id":"ce4bh292rcd13ifvqdg0","pricing_plan_id":"cebpf4jnsgd1na2vs0mg"},{"bike_id":"77d61375-aef5-483d-8341-8cab0fdcbcc8","system_id":"levelo_inurba_marseille","lat":43.28723,"lon":5.40003,"is_reserved":false,"is_disabled":false,"rental_uris":{"android":"levelo://app?vid=77d61375-aef5-483d-8341-8cab0fdcbcc8","ios":"levelo://app?vid=77d61375-aef5-483d-8341-8cab0fdcbcc8"},"vehicle_type_id":"4","last_reported":1731986517,"current_range_meters":38800,"station_id":"ce4bho92rcd13ifvqh3g","pricing_plan_id":"cebpf4jnsgd1na2vs0mg"},{"bike_id":"68c024af-65bb-4b0e-bb1d-10e38cc109a8","system_id":"levelo_inurba_marseille","lat":43.26936,"lon":5.40249,"is_reserved":false,"is_disabled":false,"rental_uris":{"android":"levelo://app?vid=68c024af-65bb-4b0e-bb1d-10e38cc109a8","ios":"levelo://app?vid=68c024af-65bb-4b0e-bb1d-10e38cc109a8"},"vehicle_type_id":"4","last_reported":1731986517,"current_range_meters":38000,"station_id":"cjm6bp8fraef2m0cb0m0","pricing_plan_id":"cebpf4jnsgd1na2vs0mg"},{"bike_id":"8361f9ef-1b5a-4afa-97d3-72b9e3ea5766","system_id":"levelo_inurba_marseille","lat":43.28348,"lon":5.38107,"is_reserved":false,"is_disabled":false,"rental_uris":{"android":"levelo://app?vid=8361f9ef-1b5a-4afa-97d3-72b9e3ea5766","ios":"levelo://app?vid=8361f9ef-1b5a-4afa-97d3-72b9e3ea5766"},"vehicle_type_id":"4","last_reported":1731986517,"current_range_meters":38800,"station_id":"ce4bh412rcd13ifvqdr0","pricing_plan_id":"cebpf4jnsgd1na2vs0mg"},{"bike_id":"f1f50780-48cb-44fa-9dee-6831b7cf5f41","system_id":"levelo_inurba_marseille","lat":43.29524,"lon":5.39038,"is_reserved":false,"is_disabled":false,"rental_uris":{"android":"levelo://app?vid=f1f50780-48cb-44fa-9dee-6831b7cf5f41","ios":"levelo://app?vid=f1f50780-48cb-44fa-9dee-6831b7cf5f41"},"vehicle_type_id":"4","last_reported":1731986517,"current_range_meters":38800,"station_id":"ce4bh3p2rcd13ifvqdp0","pricing_plan_id":"cebpf4jnsgd1na2vs0mg"},{"bike_id":"5873cbbb-60e4-463a-a62f-14bc6adde5e8","system_id":"levelo_inurba_marseille","lat":43.28032,"lon":5.36937,"is_reserved":false,"is_disabled":false,"rental_uris":{"android":"levelo://app?vid=5873cbbb-60e4-463a-a62f-14bc6adde5e8","ios":"levelo://app?vid=5873cbbb-60e4-463a-a62f-14bc6adde5e8"},"vehicle_type_id":"4","last_reported":1731986517,"current_range_meters":6400,"station_id":"ce4bha12rcd13ifvqef0","pricing_plan_id":"cebpf4jnsgd1na2vs0mg"},{"bike_id":"a74ebd93-bc18-4c3e-aace-af4ac37176f1","system_id":"levelo_inurba_marseille","lat":43.32359,"lon":5.38875,"is_reserved":false,"is_disabled":false,"rental_uris":{"android":"levelo://app?vid=a74ebd93-bc18-4c3e-aace-af4ac37176f1","ios":"levelo://app?vid=a74ebd93-bc18-4c3e-aace-af4ac37176f1"},"vehicle_type_id":"4","last_reported":1731986517,"current_range_meters":30000,"station_id":"ce4bhqp2rcd13ifvqhog","pricing_plan_id":"cebpf4jnsgd1na2vs0mg"},{"bike_id":"abce7aef-009c-4b3d-a0b5-a03faaef0a04","system_id":"levelo_inurba_marseille","lat":43.27972,"lon":5.38761,"is_reserved":false,"is_disabled":false,"rental_uris":{"android":"levelo://app?vid=abce7aef-009c-4b3d-a0b5-a03faaef0a04","ios":"levelo://app?vid=abce7aef-009c-4b3d-a0b5-a03faaef0a04"},"vehicle_type_id":"4","last_reported":1731986517,"current_range_meters":38800,"station_id":"ce4bhg12rcd13ifvqf80","pricing_plan_id":"cebpf4jnsgd1na2vs0mg"},{"bike_id":"9c82aec4-b25e-4e2d-90e6-c4e64e936483","system_id":"levelo_inurba_marseille","lat":43.24656,"lon":5.38899,"is_reserved":false,"is_disabled":false,"rental_uris":{"android":"levelo://app?vid=9c82aec4-b25e-4e2d-90e6-c4e64e936483","ios":"levelo://app?vid=9c82aec4-b25e-4e2d-90e6-c4e64e936483"},"vehicle_type_id":"4","last_reported":1731986517,"current_range_meters":20400,"station_id":"ce4bhg12rcd13ifvqf60","pricing_plan_id":"cebpf4jnsgd1na2vs0mg"},{"bike_id":"cf868fa3-ec6f-4f8e-9248-697d5a90b03f","system_id":"levelo_inurba_marseille","lat":43.31265,"lon":5.40173,"is_reserved":false,"is_disabled":false,"rental_uris":{"android":"levelo://app?vid=cf868fa3-ec6f-4f8e-9248-697d5a90b03f","ios":"levelo://app?vid=cf868fa3-ec6f-4f8e-9248-697d5a90b03f"},"vehicle_type_id":"4","last_reported":1731986517,"current_range_meters":38800,"station_id":"ce4bh092rcd13ifvqd30","pricing_plan_id":"cebpf4jnsgd1na2vs0mg"},{"bike_id":"c0c9d5dd-546b-4b63-8cbe-43e6bdfb4752","system_id":"levelo_inurba_marseille","lat":43.29786,"lon":5.39358,"is_reserved":false,"is_disabled":false,"rental_uris":{"android":"levelo://app?vid=c0c9d5dd-546b-4b63-8cbe-43e6bdfb4752","ios":"levelo://app?vid=c0c9d5dd-546b-4b63-8cbe-43e6bdfb4752"},"vehicle_type_id":"4","last_reported":1731986517,"current_range_meters":38800,"station_id":"chh1huq6cuj3fo74tm60","pricing_plan_id":"cebpf4jnsgd1na2vs0mg"},{"bike_id":"73332224-98f2-414b-87c0-bc1ba4164316","system_id":"levelo_inurba_marseille","lat":43.30939,"lon":5.40144,"is_reserved":false,"is_disabled":false,"rental_uris":{"android":"levelo://app?vid=73332224-98f2-414b-87c0-bc1ba4164316","ios":"levelo://app?vid=73332224-98f2-414b-87c0-bc1ba4164316"},"vehicle_type_id":"4","last_reported":1731986517,"current_range_meters":39200,"station_id":"ce4bgvp2rcd13ifvqct0","pricing_plan_id":"cebpf4jnsgd1na2vs0mg"},{"bike_id":"167ddbfa-b0fc-4d7d-a055-948ddb0d0bd7","system_id":"levelo_inurba_marseille","lat":43.24179,"lon":5.39726,"is_reserved":false,"is_disabled":false,"rental_uris":{"android":"levelo://app?vid=167ddbfa-b0fc-4d7d-a055-948ddb0d0bd7","ios":"levelo://app?vid=167ddbfa-b0fc-4d7d-a055-948ddb0d0bd7"},"vehicle_type_id":"4","last_reported":1731986517,"current_range_meters":34800,"station_id":"ce4bhn12rcd13ifvqgpg","pricing_plan_id":"cebpf4jnsgd1na2vs0mg"},{"bike_id":"27ccafd2-436f-46c0-b0a8-25f1f9ad69ad","system_id":"levelo_inurba_marseille","lat":43.30419,"lon":5.39751,"is_reserved":false,"is_disabled":false,"rental_uris":{"android":"levelo://app?vid=27ccafd2-436f-46c0-b0a8-25f1f9ad69ad","ios":"levelo://app?vid=27ccafd2-436f-46c0-b0a8-25f1f9ad69ad"},"vehicle_type_id":"4","last_reported":1731986517,"current_range_meters":32800,"station_id":"ce4bh092rcd13ifvqd20","pricing_plan_id":"cebpf4jnsgd1na2vs0mg"},{"bike_id":"72f28a1c-85b6-4b48-8166-a4388190332f","system_id":"levelo_inurba_marseille","lat":43.24179,"lon":5.39726,"is_reserved":false,"is_disabled":false,"rental_uris":{"android":"levelo://app?vid=72f28a1c-85b6-4b48-8166-a4388190332f","ios":"levelo://app?vid=72f28a1c-85b6-4b48-8166-a4388190332f"},"vehicle_type_id":"4","last_reported":1731986517,"current_range_meters":18000,"station_id":"ce4bhn12rcd13ifvqgpg","pricing_plan_id":"cebpf4jnsgd1na2vs0mg"},{"bike_id":"9a371e54-9b5f-4d3b-8923-f341b2c5ced2","system_id":"levelo_inurba_marseille","lat":43.28703,"lon":5.39986,"is_reserved":false,"is_disabled":false,"rental_uris":{"android":"levelo://app?vid=9a371e54-9b5f-4d3b-8923-f341b2c5ced2","ios":"levelo://app?vid=9a371e54-9b5f-4d3b-8923-f341b2c5ced2"},"vehicle_type_id":"4","last_reported":1731986517,"current_range_meters":38800,"station_id":"ce4bho92rcd13ifvqh3g","pricing_plan_id":"cebpf4jnsgd1na2vs0mg"},{"bike_id":"bc249293-6395-4334-b84a-652f70f197fc","system_id":"levelo_inurba_marseille","lat":43.27629,"lon":5.42636,"is_reserved":false,"is_disabled":true,"rental_uris":{"android":"levelo://app?vid=bc249293-6395-4334-b84a-652f70f197fc","ios":"levelo://app?vid=bc249293-6395-4334-b84a-652f70f197fc"},"vehicle_type_id":"4","last_reported":1731986517,"current_range_meters":2000,"station_id":"","pricing_plan_id":"cebpf4jnsgd1na2vs0mg"},{"bike_id":"b959319f-9d2e-4b1b-b67a-2c1e9c576074","system_id":"levelo_inurba_marseille","lat":43.29096,"lon":5.38141,"is_reserved":false,"is_disabled":false,"rental_uris":{"android":"levelo://app?vid=b959319f-9d2e-4b1b-b67a-2c1e9c576074","ios":"levelo://app?vid=b959319f-9d2e-4b1b-b67a-2c1e9c576074"},"vehicle_type_id":"4","last_reported":1731986517,"current_range_meters":38000,"station_id":"ce4bh512rcd13ifvqe2g","pricing_plan_id":"cebpf4jnsgd1na2vs0mg"},{"bike_id":"5203ab47-a9f6-48ae-bdd3-3c5a5ab6ee25","system_id":"levelo_inurba_marseille","lat":43.29978,"lon":5.38492,"is_reserved":false,"is_disabled":true,"rental_uris":{"android":"levelo://app?vid=5203ab47-a9f6-48ae-bdd3-3c5a5ab6ee25","ios":"levelo://app?vid=5203ab47-a9f6-48ae-bdd3-3c5a5ab6ee25"},"vehicle_type_id":"4","last_reported":1731986517,"current_range_meters":36800,"station_id":"ce4bgj92rcd13ifvqbd0","pricing_plan_id":"cebpf4jnsgd1na2vs0mg"},{"bike_id":"be1dd5f8-91fc-4786-8461-76cd869dae13","system_id":"levelo_inurba_marseille","lat":43.31982,"lon":5.41584,"is_reserved":false,"is_disabled":false,"rental_uris":{"android":"levelo://app?vid=be1dd5f8-91fc-4786-8461-76cd869dae13","ios":"levelo://app?vid=be1dd5f8-91fc-4786-8461-76cd869dae13"},"vehicle_type_id":"4","last_reported":1731986517,"current_range_meters":28000,"station_id":"","pricing_plan_id":"cebpf4jnsgd1na2vs0mg"},{"bike_id":"f857906a-f6a8-40fd-857b-e9c80b6443ac","system_id":"levelo_inurba_marseille","lat":43.30215,"lon":5.39467,"is_reserved":false,"is_disabled":false,"rental_uris":{"android":"levelo://app?vid=f857906a-f6a8-40fd-857b-e9c80b6443ac","ios":"levelo://app?vid=f857906a-f6a8-40fd-857b-e9c80b6443ac"},"vehicle_type_id":"4","last_reported":1731986517,"current_range_meters":38800,"station_id":"ce4bh0p2rcd13ifvqd70","pricing_plan_id":"cebpf4jnsgd1na2vs0mg"},{"bike_id":"a5e7f50d-fadf-4dd4-ae3f-8a3b7f953742","system_id":"levelo_inurba_marseille","lat":43.241763,"lon":5.397357,"is_reserved":false,"is_disabled":false,"rental_uris":{"android":"levelo://app?vid=a5e7f50d-fadf-4dd4-ae3f-8a3b7f953742","ios":"levelo://app?vid=a5e7f50d-fadf-4dd4-ae3f-8a3b7f953742"},"vehicle_type_id":"4","last_reported":1731986517,"current_range_meters":39200,"station_id":"ce4bhn12rcd13ifvqgpg","pricing_plan_id":"cebpf4jnsgd1na2vs0mg"},{"bike_id":"fb88366a-b497-48a5-b609-fbf1f1abdb27","system_id":"levelo_inurba_marseille","lat":43.31119,"lon":5.37767,"is_reserved":false,"is_disabled":false,"rental_uris":{"android":"levelo://app?vid=fb88366a-b497-48a5-b609-fbf1f1abdb27","ios":"levelo://app?vid=fb88366a-b497-48a5-b609-fbf1f1abdb27"},"vehicle_type_id":"4","last_reported":1731986517,"current_range_meters":38800,"station_id":"ce4bgt92rcd13ifvqcg0","pricing_plan_id":"cebpf4jnsgd1na2vs0mg"},{"bike_id":"040df864-1d44-4716-9bba-b89e08f6be00","system_id":"levelo_inurba_marseille","lat":43.28622,"lon":5.35102,"is_reserved":false,"is_disabled":false,"rental_uris":{"android":"levelo://app?vid=040df864-1d44-4716-9bba-b89e08f6be00","ios":"levelo://app?vid=040df864-1d44-4716-9bba-b89e08f6be00"},"vehicle_type_id":"4","last_reported":1731986517,"current_range_meters":12000,"station_id":"ce4bhch2rcd13ifvqeug","pricing_plan_id":"cebpf4jnsgd1na2vs0mg"},{"bike_id":"e5e2248a-03d3-4b07-b4f7-fd61796e9419","system_id":"levelo_inurba_marseille","lat":43.29978,"lon":5.38087,"is_reserved":false,"is_disabled":true,"rental_uris":{"android":"levelo://app?vid=e5e2248a-03d3-4b07-b4f7-fd61796e9419","ios":"levelo://app?vid=e5e2248a-03d3-4b07-b4f7-fd61796e9419"},"vehicle_type_id":"4","last_reported":1731986517,"current_range_meters":0,"station_id":"","pricing_plan_id":"cebpf4jnsgd1na2vs0mg"},{"bike_id":"38da3766-b28c-4389-b344-8e179deaa5af","system_id":"levelo_inurba_marseille","lat":43.29258,"lon":5.40904,"is_reserved":false,"is_disabled":false,"rental_uris":{"android":"levelo://app?vid=38da3766-b28c-4389-b344-8e179deaa5af","ios":"levelo://app?vid=38da3766-b28c-4389-b344-8e179deaa5af"},"vehicle_type_id":"4","last_reported":1731986517,"current_range_meters":25200,"station_id":"ce4bh192rcd13ifvqdc0","pricing_plan_id":"cebpf4jnsgd1na2vs0mg"},{"bike_id":"7ab15835-2460-4a83-92d5-6b2c91044315","system_id":"levelo_inurba_marseille","lat":43.3361,"lon":5.41028,"is_reserved":false,"is_disabled":false,"rental_uris":{"android":"levelo://app?vid=7ab15835-2460-4a83-92d5-6b2c91044315","ios":"levelo://app?vid=7ab15835-2460-4a83-92d5-6b2c91044315"},"vehicle_type_id":"4","last_reported":1731986517,"current_range_meters":38800,"station_id":"ce4bhqh2rcd13ifvqhmg","pricing_plan_id":"cebpf4jnsgd1na2vs0mg"},{"bike_id":"56edd46b-d236-45f1-ba2f-1f7d8acc3af2","system_id":"levelo_inurba_marseille","lat":43.337444,"lon":5.374475,"is_reserved":false,"is_disabled":false,"rental_uris":{"android":"levelo://app?vid=56edd46b-d236-45f1-ba2f-1f7d8acc3af2","ios":"levelo://app?vid=56edd46b-d236-45f1-ba2f-1f7d8acc3af2"},"vehicle_type_id":"4","last_reported":1731986517,"current_range_meters":36000,"station_id":"","pricing_plan_id":"cebpf4jnsgd1na2vs0mg"},{"bike_id":"5834ee09-4357-45e5-874f-df75212d88c9","system_id":"levelo_inurba_marseille","lat":43.30645,"lon":5.40085,"is_reserved":false,"is_disabled":false,"rental_uris":{"android":"levelo://app?vid=5834ee09-4357-45e5-874f-df75212d88c9","ios":"levelo://app?vid=5834ee09-4357-45e5-874f-df75212d88c9"},"vehicle_type_id":"4","last_reported":1731986517,"current_range_meters":39200,"station_id":"ce4bh112rcd13ifvqda0","pricing_plan_id":"cebpf4jnsgd1na2vs0mg"},{"bike_id":"e50796fb-dacb-48fc-9bce-fef14a9f4c74","system_id":"levelo_inurba_marseille","lat":43.292609,"lon":5.409094,"is_reserved":false,"is_disabled":false,"rental_uris":{"android":"levelo://app?vid=e50796fb-dacb-48fc-9bce-fef14a9f4c74","ios":"levelo://app?vid=e50796fb-dacb-48fc-9bce-fef14a9f4c74"},"vehicle_type_id":"4","last_reported":1731986517,"current_range_meters":39200,"station_id":"ce4bh192rcd13ifvqdc0","pricing_plan_id":"cebpf4jnsgd1na2vs0mg"},{"bike_id":"e4f9cc0f-319a-443a-a84b-8e045f7b918f","system_id":"levelo_inurba_marseille","lat":43.31763,"lon":5.39017,"is_reserved":false,"is_disabled":false,"rental_uris":{"android":"levelo://app?vid=e4f9cc0f-319a-443a-a84b-8e045f7b918f","ios":"levelo://app?vid=e4f9cc0f-319a-443a-a84b-8e045f7b918f"},"vehicle_type_id":"4","last_reported":1731986517,"current_range_meters":24800,"station_id":"ce4bhqp2rcd13ifvqhng","pricing_plan_id":"cebpf4jnsgd1na2vs0mg"},{"bike_id":"3e7c1d72-50d4-415d-af23-59fde5cd919a","system_id":"levelo_inurba_marseille","lat":43.28664,"lon":5.36354,"is_reserved":false,"is_disabled":false,"rental_uris":{"android":"levelo://app?vid=3e7c1d72-50d4-415d-af23-59fde5cd919a","ios":"levelo://app?vid=3e7c1d72-50d4-415d-af23-59fde5cd919a"},"vehicle_type_id":"4","last_reported":1731986517,"current_range_meters":39200,"station_id":"ce4bhah2rcd13ifvqej0","pricing_plan_id":"cebpf4jnsgd1na2vs0mg"},{"bike_id":"cd3ead8f-e453-49dc-8a7f-902dde01b246","system_id":"levelo_inurba_marseille","lat":43.28862,"lon":5.35846,"is_reserved":false,"is_disabled":false,"rental_uris":{"android":"levelo://app?vid=cd3ead8f-e453-49dc-8a7f-902dde01b246","ios":"levelo://app?vid=cd3ead8f-e453-49dc-8a7f-902dde01b246"},"vehicle_type_id":"4","last_reported":1731986517,"current_range_meters":25600,"station_id":"ce4bhb12rcd13ifvqem0","pricing_plan_id":"cebpf4jnsgd1na2vs0mg"},{"bike_id":"fb47a6a4-7b4b-4a3c-95dd-dc0f50bc1fee","system_id":"levelo_inurba_marseille","lat":43.25825,"lon":5.39417,"is_reserved":false,"is_disabled":false,"rental_uris":{"android":"levelo://app?vid=fb47a6a4-7b4b-4a3c-95dd-dc0f50bc1fee","ios":"levelo://app?vid=fb47a6a4-7b4b-4a3c-95dd-dc0f50bc1fee"},"vehicle_type_id":"4","last_reported":1731986517,"current_range_meters":9200,"station_id":"ce4bhip2rcd13ifvqft0","pricing_plan_id":"cebpf4jnsgd1na2vs0mg"},{"bike_id":"fdb71768-5b52-4299-b627-9f36c04d544a","system_id":"levelo_inurba_marseille","lat":43.30139,"lon":5.39869,"is_reserved":false,"is_disabled":false,"rental_uris":{"android":"levelo://app?vid=fdb71768-5b52-4299-b627-9f36c04d544a","ios":"levelo://app?vid=fdb71768-5b52-4299-b627-9f36c04d544a"},"vehicle_type_id":"4","last_reported":1731986517,"current_range_meters":38800,"station_id":"ce4bh0h2rcd13ifvqd40","pricing_plan_id":"cebpf4jnsgd1na2vs0mg"},{"bike_id":"5bbcd2f3-be5f-45bd-b4a5-6aad5ec279d4","system_id":"levelo_inurba_marseille","lat":43.30811,"lon":5.3815,"is_reserved":false,"is_disabled":false,"rental_uris":{"android":"levelo://app?vid=5bbcd2f3-be5f-45bd-b4a5-6aad5ec279d4","ios":"levelo://app?vid=5bbcd2f3-be5f-45bd-b4a5-6aad5ec279d4"},"vehicle_type_id":"4","last_reported":1731986517,"current_range_meters":36800,"station_id":"ce4bgt12rcd13ifvqce0","pricing_plan_id":"cebpf4jnsgd1na2vs0mg"},{"bike_id":"e6e635eb-b5ad-43ca-8877-6b05cff2731c","system_id":"levelo_inurba_marseille","lat":43.31282,"lon":5.40187,"is_reserved":false,"is_disabled":false,"rental_uris":{"android":"levelo://app?vid=e6e635eb-b5ad-43ca-8877-6b05cff2731c","ios":"levelo://app?vid=e6e635eb-b5ad-43ca-8877-6b05cff2731c"},"vehicle_type_id":"4","last_reported":1731986517,"current_range_meters":6000,"station_id":"ce4bh092rcd13ifvqd30","pricing_plan_id":"cebpf4jnsgd1na2vs0mg"},{"bike_id":"eb1e7623-eb75-43ae-978e-e4a9a5dcf249","system_id":"levelo_inurba_marseille","lat":43.31329,"lon":5.39693,"is_reserved":false,"is_disabled":false,"rental_uris":{"android":"levelo://app?vid=eb1e7623-eb75-43ae-978e-e4a9a5dcf249","ios":"levelo://app?vid=eb1e7623-eb75-43ae-978e-e4a9a5dcf249"},"vehicle_type_id":"4","last_reported":1731986517,"current_range_meters":39200,"station_id":"ce4bgvp2rcd13ifvqcu0","pricing_plan_id":"cebpf4jnsgd1na2vs0mg"},{"bike_id":"466cc262-7358-4083-9e23-47328789012d","system_id":"levelo_inurba_marseille","lat":43.25086,"lon":5.39519,"is_reserved":false,"is_disabled":false,"rental_uris":{"android":"levelo://app?vid=466cc262-7358-4083-9e23-47328789012d","ios":"levelo://app?vid=466cc262-7358-4083-9e23-47328789012d"},"vehicle_type_id":"4","last_reported":1731986517,"current_range_meters":25600,"station_id":"ce4bhm12rcd13ifvqgkg","pricing_plan_id":"cebpf4jnsgd1na2vs0mg"},{"bike_id":"4538fb2f-731f-426f-9f31-46287da0303d","system_id":"levelo_inurba_marseille","lat":43.307937,"lon":5.381601,"is_reserved":false,"is_disabled":false,"rental_uris":{"android":"levelo://app?vid=4538fb2f-731f-426f-9f31-46287da0303d","ios":"levelo://app?vid=4538fb2f-731f-426f-9f31-46287da0303d"},"vehicle_type_id":"4","last_reported":1731986517,"current_range_meters":37600,"station_id":"ce4bgt12rcd13ifvqce0","pricing_plan_id":"cebpf4jnsgd1na2vs0mg"},{"bike_id":"674e0260-0455-4930-8b6c-62e8c0816f63","system_id":"levelo_inurba_marseille","lat":43.287019,"lon":5.37392,"is_reserved":false,"is_disabled":false,"rental_uris":{"android":"levelo://app?vid=674e0260-0455-4930-8b6c-62e8c0816f63","ios":"levelo://app?vid=674e0260-0455-4930-8b6c-62e8c0816f63"},"vehicle_type_id":"4","last_reported":1731986517,"current_range_meters":32400,"station_id":"ce4bh3p2rcd13ifvqdq0","pricing_plan_id":"cebpf4jnsgd1na2vs0mg"},{"bike_id":"9a343297-082e-434e-b3b0-8ef68da2cc8a","system_id":"levelo_inurba_marseille","lat":43.29881,"lon":5.39745,"is_reserved":false,"is_disabled":false,"rental_uris":{"android":"levelo://app?vid=9a343297-082e-434e-b3b0-8ef68da2cc8a","ios":"levelo://app?vid=9a343297-082e-434e-b3b0-8ef68da2cc8a"},"vehicle_type_id":"4","last_reported":1731986517,"current_range_meters":23200,"station_id":"ce4bh0h2rcd13ifvqd50","pricing_plan_id":"cebpf4jnsgd1na2vs0mg"},{"bike_id":"cd515c9f-49db-4a47-a4fc-67d85e1d0404","system_id":"levelo_inurba_marseille","lat":43.31374,"lon":5.38495,"is_reserved":false,"is_disabled":false,"rental_uris":{"android":"levelo://app?vid=cd515c9f-49db-4a47-a4fc-67d85e1d0404","ios":"levelo://app?vid=cd515c9f-49db-4a47-a4fc-67d85e1d0404"},"vehicle_type_id":"4","last_reported":1731986517,"current_range_meters":17200,"station_id":"ce4bgt92rcd13ifvqcf0","pricing_plan_id":"cebpf4jnsgd1na2vs0mg"},{"bike_id":"ccdd101a-56eb-4bf3-a021-299108acbe65","system_id":"levelo_inurba_marseille","lat":43.28413,"lon":5.34988,"is_reserved":false,"is_disabled":false,"rental_uris":{"android":"levelo://app?vid=ccdd101a-56eb-4bf3-a021-299108acbe65","ios":"levelo://app?vid=ccdd101a-56eb-4bf3-a021-299108acbe65"},"vehicle_type_id":"4","last_reported":1731986517,"current_range_meters":9200,"station_id":"ce4bhbh2rcd13ifvqepg","pricing_plan_id":"cebpf4jnsgd1na2vs0mg"},{"bike_id":"4a8bedd5-13ef-41b7-ab94-06d26984acbc","system_id":"levelo_inurba_marseille","lat":43.28008,"lon":5.38841,"is_reserved":false,"is_disabled":false,"rental_uris":{"android":"levelo://app?vid=4a8bedd5-13ef-41b7-ab94-06d26984acbc","ios":"levelo://app?vid=4a8bedd5-13ef-41b7-ab94-06d26984acbc"},"vehicle_type_id":"4","last_reported":1731986517,"current_range_meters":10000,"station_id":"ce4bhg12rcd13ifvqf80","pricing_plan_id":"cebpf4jnsgd1na2vs0mg"},{"bike_id":"0c21866d-64a6-48bd-84ec-2cdb016bb953","system_id":"levelo_inurba_marseille","lat":43.24397,"lon":5.37066,"is_reserved":false,"is_disabled":true,"rental_uris":{"android":"levelo://app?vid=0c21866d-64a6-48bd-84ec-2cdb016bb953","ios":"levelo://app?vid=0c21866d-64a6-48bd-84ec-2cdb016bb953"},"vehicle_type_id":"4","last_reported":1731986517,"current_range_meters":400,"station_id":"ce4bhhh2rcd13ifvqfk0","pricing_plan_id":"cebpf4jnsgd1na2vs0mg"},{"bike_id":"9259f49b-4b91-43eb-905a-8db55884b4a4","system_id":"levelo_inurba_marseille","lat":43.304206,"lon":5.397495,"is_reserved":false,"is_disabled":false,"rental_uris":{"android":"levelo://app?vid=9259f49b-4b91-43eb-905a-8db55884b4a4","ios":"levelo://app?vid=9259f49b-4b91-43eb-905a-8db55884b4a4"},"vehicle_type_id":"4","last_reported":1731986517,"current_range_meters":38800,"station_id":"ce4bh092rcd13ifvqd20","pricing_plan_id":"cebpf4jnsgd1na2vs0mg"},{"bike_id":"8d9c7874-6ecd-4ea0-a9e8-ef53041c8d83","system_id":"levelo_inurba_marseille","lat":43.31354,"lon":5.38496,"is_reserved":false,"is_disabled":true,"rental_uris":{"android":"levelo://app?vid=8d9c7874-6ecd-4ea0-a9e8-ef53041c8d83","ios":"levelo://app?vid=8d9c7874-6ecd-4ea0-a9e8-ef53041c8d83"},"vehicle_type_id":"4","last_reported":1731986517,"current_range_meters":37600,"station_id":"ce4bgt92rcd13ifvqcf0","pricing_plan_id":"cebpf4jnsgd1na2vs0mg"},{"bike_id":"1f8e31eb-4609-4ceb-8188-fd61d64a2da3","system_id":"levelo_inurba_marseille","lat":43.284579,"lon":5.358828,"is_reserved":false,"is_disabled":false,"rental_uris":{"android":"levelo://app?vid=1f8e31eb-4609-4ceb-8188-fd61d64a2da3","ios":"levelo://app?vid=1f8e31eb-4609-4ceb-8188-fd61d64a2da3"},"vehicle_type_id":"4","last_reported":1731986517,"current_range_meters":36000,"station_id":"ce4bhah2rcd13ifvqei0","pricing_plan_id":"cebpf4jnsgd1na2vs0mg"},{"bike_id":"d6e54eb8-b569-4670-b12b-fc7e345ccec9","system_id":"levelo_inurba_marseille","lat":43.297299,"lon":5.376843,"is_reserved":false,"is_disabled":true,"rental_uris":{"android":"levelo://app?vid=d6e54eb8-b569-4670-b12b-fc7e345ccec9","ios":"levelo://app?vid=d6e54eb8-b569-4670-b12b-fc7e345ccec9"},"vehicle_type_id":"4","last_reported":1731986517,"current_range_meters":38000,"station_id":"ce4bgkh2rcd13ifvqbl0","pricing_plan_id":"cebpf4jnsgd1na2vs0mg"},{"bike_id":"9b080be9-42c3-48e1-85b1-7c5a72fc04c0","system_id":"levelo_inurba_marseille","lat":43.26562,"lon":5.39004,"is_reserved":false,"is_disabled":false,"rental_uris":{"android":"levelo://app?vid=9b080be9-42c3-48e1-85b1-7c5a72fc04c0","ios":"levelo://app?vid=9b080be9-42c3-48e1-85b1-7c5a72fc04c0"},"vehicle_type_id":"4","last_reported":1731986517,"current_range_meters":35600,"station_id":"ce4bhe12rcd13ifvqf30","pricing_plan_id":"cebpf4jnsgd1na2vs0mg"},{"bike_id":"40b0ef0c-acc3-454b-afd8-f688938e10f4","system_id":"levelo_inurba_marseille","lat":43.29006,"lon":5.35603,"is_reserved":false,"is_disabled":false,"rental_uris":{"android":"levelo://app?vid=40b0ef0c-acc3-454b-afd8-f688938e10f4","ios":"levelo://app?vid=40b0ef0c-acc3-454b-afd8-f688938e10f4"},"vehicle_type_id":"4","last_reported":1731986517,"current_range_meters":38000,"station_id":"ce4bhb92rcd13ifvqen0","pricing_plan_id":"cebpf4jnsgd1na2vs0mg"},{"bike_id":"d1c620a0-0e82-425e-9eb3-ab24e3f74289","system_id":"levelo_inurba_marseille","lat":43.27074,"lon":5.42278,"is_reserved":false,"is_disabled":false,"rental_uris":{"android":"levelo://app?vid=d1c620a0-0e82-425e-9eb3-ab24e3f74289","ios":"levelo://app?vid=d1c620a0-0e82-425e-9eb3-ab24e3f74289"},"vehicle_type_id":"4","last_reported":1731986517,"current_range_meters":11600,"station_id":"ce4bhk92rcd13ifvqgb0","pricing_plan_id":"cebpf4jnsgd1na2vs0mg"},{"bike_id":"259149ad-c421-466a-ad0c-fd16e04ce6fa","system_id":"levelo_inurba_marseille","lat":43.28452,"lon":5.35888,"is_reserved":false,"is_disabled":false,"rental_uris":{"android":"levelo://app?vid=259149ad-c421-466a-ad0c-fd16e04ce6fa","ios":"levelo://app?vid=259149ad-c421-466a-ad0c-fd16e04ce6fa"},"vehicle_type_id":"4","last_reported":1731986517,"current_range_meters":28000,"station_id":"ce4bhah2rcd13ifvqei0","pricing_plan_id":"cebpf4jnsgd1na2vs0mg"},{"bike_id":"a359d6fa-a488-4138-99b4-1b76a9ba4cf0","system_id":"levelo_inurba_marseille","lat":43.28,"lon":5.39793,"is_reserved":false,"is_disabled":false,"rental_uris":{"android":"levelo://app?vid=a359d6fa-a488-4138-99b4-1b76a9ba4cf0","ios":"levelo://app?vid=a359d6fa-a488-4138-99b4-1b76a9ba4cf0"},"vehicle_type_id":"4","last_reported":1731986517,"current_range_meters":22000,"station_id":"ce4bhih2rcd13ifvqfs0","pricing_plan_id":"cebpf4jnsgd1na2vs0mg"},{"bike_id":"cc94800f-8f00-4fa2-8321-7ffb60c60a1c","system_id":"levelo_inurba_marseille","lat":43.2844,"lon":5.35899,"is_reserved":false,"is_disabled":false,"rental_uris":{"android":"levelo://app?vid=cc94800f-8f00-4fa2-8321-7ffb60c60a1c","ios":"levelo://app?vid=cc94800f-8f00-4fa2-8321-7ffb60c60a1c"},"vehicle_type_id":"4","last_reported":1731986517,"current_range_meters":27200,"station_id":"ce4bhah2rcd13ifvqei0","pricing_plan_id":"cebpf4jnsgd1na2vs0mg"},{"bike_id":"38ebe37d-de79-4977-8492-009f6a25b7be","system_id":"levelo_inurba_marseille","lat":43.28713,"lon":5.39996,"is_reserved":false,"is_disabled":true,"rental_uris":{"android":"levelo://app?vid=38ebe37d-de79-4977-8492-009f6a25b7be","ios":"levelo://app?vid=38ebe37d-de79-4977-8492-009f6a25b7be"},"vehicle_type_id":"4","last_reported":1731986517,"current_range_meters":21600,"station_id":"ce4bho92rcd13ifvqh3g","pricing_plan_id":"cebpf4jnsgd1na2vs0mg"},{"bike_id":"801dea25-03bf-4f11-a8a7-9c85139f31aa","system_id":"levelo_inurba_marseille","lat":43.25083,"lon":5.39506,"is_reserved":false,"is_disabled":false,"rental_uris":{"android":"levelo://app?vid=801dea25-03bf-4f11-a8a7-9c85139f31aa","ios":"levelo://app?vid=801dea25-03bf-4f11-a8a7-9c85139f31aa"},"vehicle_type_id":"4","last_reported":1731986517,"current_range_meters":39200,"station_id":"ce4bhm12rcd13ifvqgkg","pricing_plan_id":"cebpf4jnsgd1na2vs0mg"},{"bike_id":"aabe0731-f219-4b98-a033-144026e4ab17","system_id":"levelo_inurba_marseille","lat":43.29761,"lon":5.37101,"is_reserved":false,"is_disabled":false,"rental_uris":{"android":"levelo://app?vid=aabe0731-f219-4b98-a033-144026e4ab17","ios":"levelo://app?vid=aabe0731-f219-4b98-a033-144026e4ab17"},"vehicle_type_id":"4","last_reported":1731986517,"current_range_meters":27200,"station_id":"ce4bgop2rcd13ifvqc1g","pricing_plan_id":"cebpf4jnsgd1na2vs0mg"},{"bike_id":"0b733133-03c9-4766-961e-92b775b50bbc","system_id":"levelo_inurba_marseille","lat":43.28192,"lon":5.44259,"is_reserved":false,"is_disabled":true,"rental_uris":{"android":"levelo://app?vid=0b733133-03c9-4766-961e-92b775b50bbc","ios":"levelo://app?vid=0b733133-03c9-4766-961e-92b775b50bbc"},"vehicle_type_id":"4","last_reported":1731986517,"current_range_meters":0,"station_id":"","pricing_plan_id":"cebpf4jnsgd1na2vs0mg"},{"bike_id":"74eb70e9-b94e-49a5-9a48-368b4be133db","system_id":"levelo_inurba_marseille","lat":43.30804,"lon":5.43524,"is_reserved":false,"is_disabled":false,"rental_uris":{"android":"levelo://app?vid=74eb70e9-b94e-49a5-9a48-368b4be133db","ios":"levelo://app?vid=74eb70e9-b94e-49a5-9a48-368b4be133db"},"vehicle_type_id":"4","last_reported":1731986517,"current_range_meters":39200,"station_id":"ce4bhph2rcd13ifvqheg","pricing_plan_id":"cebpf4jnsgd1na2vs0mg"},{"bike_id":"4cba050b-d851-4ee5-8ce0-ea7f25d9c27b","system_id":"levelo_inurba_marseille","lat":43.27496,"lon":5.42452,"is_reserved":false,"is_disabled":true,"rental_uris":{"android":"levelo://app?vid=4cba050b-d851-4ee5-8ce0-ea7f25d9c27b","ios":"levelo://app?vid=4cba050b-d851-4ee5-8ce0-ea7f25d9c27b"},"vehicle_type_id":"4","last_reported":1731986517,"current_range_meters":37600,"station_id":"ce4bhn92rcd13ifvqgrg","pricing_plan_id":"cebpf4jnsgd1na2vs0mg"},{"bike_id":"9db7024c-b22d-4087-a30c-ba8f27a72aca","system_id":"levelo_inurba_marseille","lat":43.28108,"lon":5.37827,"is_reserved":false,"is_disabled":false,"rental_uris":{"android":"levelo://app?vid=9db7024c-b22d-4087-a30c-ba8f27a72aca","ios":"levelo://app?vid=9db7024c-b22d-4087-a30c-ba8f27a72aca"},"vehicle_type_id":"4","last_reported":1731986517,"current_range_meters":24000,"station_id":"ce4bha12rcd13ifvqee0","pricing_plan_id":"cebpf4jnsgd1na2vs0mg"},{"bike_id":"4fe51916-8041-44ec-9491-ff2894214ecc","system_id":"levelo_inurba_marseille","lat":43.28346,"lon":5.3811,"is_reserved":false,"is_disabled":false,"rental_uris":{"android":"levelo://app?vid=4fe51916-8041-44ec-9491-ff2894214ecc","ios":"levelo://app?vid=4fe51916-8041-44ec-9491-ff2894214ecc"},"vehicle_type_id":"4","last_reported":1731986517,"current_range_meters":26000,"station_id":"ce4bh412rcd13ifvqdr0","pricing_plan_id":"cebpf4jnsgd1na2vs0mg"},{"bike_id":"6c2dd7f5-7f3e-4bb8-81f0-79c964fbb591","system_id":"levelo_inurba_marseille","lat":43.28273,"lon":5.35064,"is_reserved":false,"is_disabled":false,"rental_uris":{"android":"levelo://app?vid=6c2dd7f5-7f3e-4bb8-81f0-79c964fbb591","ios":"levelo://app?vid=6c2dd7f5-7f3e-4bb8-81f0-79c964fbb591"},"vehicle_type_id":"4","last_reported":1731986517,"current_range_meters":39200,"station_id":"ce4bhbp2rcd13ifvqerg","pricing_plan_id":"cebpf4jnsgd1na2vs0mg"},{"bike_id":"11927cd9-60af-4070-9f51-eb87d5ebd285","system_id":"levelo_inurba_marseille","lat":43.24808,"lon":5.37457,"is_reserved":false,"is_disabled":false,"rental_uris":{"android":"levelo://app?vid=11927cd9-60af-4070-9f51-eb87d5ebd285","ios":"levelo://app?vid=11927cd9-60af-4070-9f51-eb87d5ebd285"},"vehicle_type_id":"4","last_reported":1731986517,"current_range_meters":10800,"station_id":"ce4bhgh2rcd13ifvqfb0","pricing_plan_id":"cebpf4jnsgd1na2vs0mg"},{"bike_id":"9082f350-f064-4220-a24a-7c400d315f3b","system_id":"levelo_inurba_marseille","lat":43.24074,"lon":5.37745,"is_reserved":false,"is_disabled":false,"rental_uris":{"android":"levelo://app?vid=9082f350-f064-4220-a24a-7c400d315f3b","ios":"levelo://app?vid=9082f350-f064-4220-a24a-7c400d315f3b"},"vehicle_type_id":"4","last_reported":1731986517,"current_range_meters":38000,"station_id":"ce4bhnp2rcd13ifvqgvg","pricing_plan_id":"cebpf4jnsgd1na2vs0mg"},{"bike_id":"b1d7f5ad-ff48-400d-b7ef-e34013d555c6","system_id":"levelo_inurba_marseille","lat":43.31327,"lon":5.39697,"is_reserved":false,"is_disabled":false,"rental_uris":{"android":"levelo://app?vid=b1d7f5ad-ff48-400d-b7ef-e34013d555c6","ios":"levelo://app?vid=b1d7f5ad-ff48-400d-b7ef-e34013d555c6"},"vehicle_type_id":"4","last_reported":1731986517,"current_range_meters":7200,"station_id":"ce4bgvp2rcd13ifvqcu0","pricing_plan_id":"cebpf4jnsgd1na2vs0mg"},{"bike_id":"10ba5291-dc90-4cec-9eef-6ba60230d798","system_id":"levelo_inurba_marseille","lat":43.31067,"lon":5.38346,"is_reserved":false,"is_disabled":false,"rental_uris":{"android":"levelo://app?vid=10ba5291-dc90-4cec-9eef-6ba60230d798","ios":"levelo://app?vid=10ba5291-dc90-4cec-9eef-6ba60230d798"},"vehicle_type_id":"4","last_reported":1731986517,"current_range_meters":36400,"station_id":"ce4bgv92rcd13ifvqcr0","pricing_plan_id":"cebpf4jnsgd1na2vs0mg"},{"bike_id":"2b838322-cf6d-4a0f-bea5-aa1944be233b","system_id":"levelo_inurba_marseille","lat":43.3089,"lon":5.39643,"is_reserved":false,"is_disabled":false,"rental_uris":{"android":"levelo://app?vid=2b838322-cf6d-4a0f-bea5-aa1944be233b","ios":"levelo://app?vid=2b838322-cf6d-4a0f-bea5-aa1944be233b"},"vehicle_type_id":"4","last_reported":1731986517,"current_range_meters":28800,"station_id":"ce4bh012rcd13ifvqcv0","pricing_plan_id":"cebpf4jnsgd1na2vs0mg"},{"bike_id":"ec6cb356-e15a-42b9-8cc2-86d49b84eef6","system_id":"levelo_inurba_marseille","lat":43.28407,"lon":5.3751,"is_reserved":false,"is_disabled":false,"rental_uris":{"android":"levelo://app?vid=ec6cb356-e15a-42b9-8cc2-86d49b84eef6","ios":"levelo://app?vid=ec6cb356-e15a-42b9-8cc2-86d49b84eef6"},"vehicle_type_id":"4","last_reported":1731986517,"current_range_meters":32400,"station_id":"ce4bh412rcd13ifvqds0","pricing_plan_id":"cebpf4jnsgd1na2vs0mg"},{"bike_id":"71324b49-1f17-4af6-89f7-e3218a4d4e19","system_id":"levelo_inurba_marseille","lat":43.24068,"lon":5.37759,"is_reserved":false,"is_disabled":false,"rental_uris":{"android":"levelo://app?vid=71324b49-1f17-4af6-89f7-e3218a4d4e19","ios":"levelo://app?vid=71324b49-1f17-4af6-89f7-e3218a4d4e19"},"vehicle_type_id":"4","last_reported":1731986517,"current_range_meters":39200,"station_id":"ce4bhnp2rcd13ifvqgvg","pricing_plan_id":"cebpf4jnsgd1na2vs0mg"},{"bike_id":"6799c54c-4cd6-4d25-a1cb-a4067a584a72","system_id":"levelo_inurba_marseille","lat":43.33724,"lon":5.3918,"is_reserved":false,"is_disabled":false,"rental_uris":{"android":"levelo://app?vid=6799c54c-4cd6-4d25-a1cb-a4067a584a72","ios":"levelo://app?vid=6799c54c-4cd6-4d25-a1cb-a4067a584a72"},"vehicle_type_id":"4","last_reported":1731986517,"current_range_meters":16000,"station_id":"ce4bhr92rcd13ifvqhsg","pricing_plan_id":"cebpf4jnsgd1na2vs0mg"},{"bike_id":"9fb0acf0-02ee-43e1-8a36-3f564bbba08b","system_id":"levelo_inurba_marseille","lat":43.3236,"lon":5.38878,"is_reserved":false,"is_disabled":false,"rental_uris":{"android":"levelo://app?vid=9fb0acf0-02ee-43e1-8a36-3f564bbba08b","ios":"levelo://app?vid=9fb0acf0-02ee-43e1-8a36-3f564bbba08b"},"vehicle_type_id":"4","last_reported":1731986517,"current_range_meters":19200,"station_id":"ce4bhqp2rcd13ifvqhog","pricing_plan_id":"cebpf4jnsgd1na2vs0mg"},{"bike_id":"20d43469-0b35-4110-9c40-be0f1a781705","system_id":"levelo_inurba_marseille","lat":43.26208,"lon":5.3744,"is_reserved":false,"is_disabled":false,"rental_uris":{"android":"levelo://app?vid=20d43469-0b35-4110-9c40-be0f1a781705","ios":"levelo://app?vid=20d43469-0b35-4110-9c40-be0f1a781705"},"vehicle_type_id":"4","last_reported":1731986517,"current_range_meters":28800,"station_id":"ce4bhgp2rcd13ifvqfc0","pricing_plan_id":"cebpf4jnsgd1na2vs0mg"},{"bike_id":"8cdf5ae8-9ef9-4e04-847c-7d210ae183df","system_id":"levelo_inurba_marseille","lat":43.29209,"lon":5.39317,"is_reserved":false,"is_disabled":false,"rental_uris":{"android":"levelo://app?vid=8cdf5ae8-9ef9-4e04-847c-7d210ae183df","ios":"levelo://app?vid=8cdf5ae8-9ef9-4e04-847c-7d210ae183df"},"vehicle_type_id":"4","last_reported":1731986517,"current_range_meters":9600,"station_id":"ce4bh192rcd13ifvqdd0","pricing_plan_id":"cebpf4jnsgd1na2vs0mg"},{"bike_id":"b8fe101f-4f4e-4b49-b7e4-89017c6de4d4","system_id":"levelo_inurba_marseille","lat":43.30244,"lon":5.39487,"is_reserved":false,"is_disabled":false,"rental_uris":{"android":"levelo://app?vid=b8fe101f-4f4e-4b49-b7e4-89017c6de4d4","ios":"levelo://app?vid=b8fe101f-4f4e-4b49-b7e4-89017c6de4d4"},"vehicle_type_id":"4","last_reported":1731986517,"current_range_meters":38000,"station_id":"ce4bh0p2rcd13ifvqd70","pricing_plan_id":"cebpf4jnsgd1na2vs0mg"},{"bike_id":"21912918-454d-42a5-9ac4-c0126b3a9ff4","system_id":"levelo_inurba_marseille","lat":43.29878,"lon":5.39754,"is_reserved":false,"is_disabled":false,"rental_uris":{"android":"levelo://app?vid=21912918-454d-42a5-9ac4-c0126b3a9ff4","ios":"levelo://app?vid=21912918-454d-42a5-9ac4-c0126b3a9ff4"},"vehicle_type_id":"4","last_reported":1731986517,"current_range_meters":9200,"station_id":"ce4bh0h2rcd13ifvqd50","pricing_plan_id":"cebpf4jnsgd1na2vs0mg"},{"bike_id":"9f1dfffb-1213-4f6e-84d3-a2f0789a9ef3","system_id":"levelo_inurba_marseille","lat":43.27619,"lon":5.35872,"is_reserved":false,"is_disabled":true,"rental_uris":{"android":"levelo://app?vid=9f1dfffb-1213-4f6e-84d3-a2f0789a9ef3","ios":"levelo://app?vid=9f1dfffb-1213-4f6e-84d3-a2f0789a9ef3"},"vehicle_type_id":"4","last_reported":1731986517,"current_range_meters":0,"station_id":"","pricing_plan_id":"cebpf4jnsgd1na2vs0mg"},{"bike_id":"8dfe3502-1a44-41d0-93ec-2f8847296f61","system_id":"levelo_inurba_marseille","lat":43.29188,"lon":5.35802,"is_reserved":false,"is_disabled":true,"rental_uris":{"android":"levelo://app?vid=8dfe3502-1a44-41d0-93ec-2f8847296f61","ios":"levelo://app?vid=8dfe3502-1a44-41d0-93ec-2f8847296f61"},"vehicle_type_id":"4","last_reported":1731986517,"current_range_meters":37600,"station_id":"ce4bhb12rcd13ifvqel0","pricing_plan_id":"cebpf4jnsgd1na2vs0mg"},{"bike_id":"954054ad-77ac-46c3-a1b5-c8fc266a522b","system_id":"levelo_inurba_marseille","lat":43.31718,"lon":5.42404,"is_reserved":false,"is_disabled":false,"rental_uris":{"android":"levelo://app?vid=954054ad-77ac-46c3-a1b5-c8fc266a522b","ios":"levelo://app?vid=954054ad-77ac-46c3-a1b5-c8fc266a522b"},"vehicle_type_id":"4","last_reported":1731986517,"current_range_meters":39200,"station_id":"ce4bhp92rcd13ifvqhbg","pricing_plan_id":"cebpf4jnsgd1na2vs0mg"},{"bike_id":"a6ee1dcb-4edc-42e6-9da7-66850f6eb400","system_id":"levelo_inurba_marseille","lat":43.30777,"lon":5.37658,"is_reserved":false,"is_disabled":false,"rental_uris":{"android":"levelo://app?vid=a6ee1dcb-4edc-42e6-9da7-66850f6eb400","ios":"levelo://app?vid=a6ee1dcb-4edc-42e6-9da7-66850f6eb400"},"vehicle_type_id":"4","last_reported":1731986517,"current_range_meters":39200,"station_id":"ce4bgv92rcd13ifvqcq0","pricing_plan_id":"cebpf4jnsgd1na2vs0mg"},{"bike_id":"3d8a906b-bc54-409f-946c-a9fd907f86c0","system_id":"levelo_inurba_marseille","lat":43.28448,"lon":5.35876,"is_reserved":false,"is_disabled":false,"rental_uris":{"android":"levelo://app?vid=3d8a906b-bc54-409f-946c-a9fd907f86c0","ios":"levelo://app?vid=3d8a906b-bc54-409f-946c-a9fd907f86c0"},"vehicle_type_id":"4","last_reported":1731986517,"current_range_meters":32400,"station_id":"ce4bhah2rcd13ifvqei0","pricing_plan_id":"cebpf4jnsgd1na2vs0mg"},{"bike_id":"349eccbc-c382-43e7-9593-9ce510178580","system_id":"levelo_inurba_marseille","lat":43.29788,"lon":5.39353,"is_reserved":false,"is_disabled":false,"rental_uris":{"android":"levelo://app?vid=349eccbc-c382-43e7-9593-9ce510178580","ios":"levelo://app?vid=349eccbc-c382-43e7-9593-9ce510178580"},"vehicle_type_id":"4","last_reported":1731986517,"current_range_meters":38400,"station_id":"chh1huq6cuj3fo74tm60","pricing_plan_id":"cebpf4jnsgd1na2vs0mg"},{"bike_id":"2d983866-913c-4390-ae48-1873d10c9730","system_id":"levelo_inurba_marseille","lat":43.24812,"lon":5.37457,"is_reserved":false,"is_disabled":true,"rental_uris":{"android":"levelo://app?vid=2d983866-913c-4390-ae48-1873d10c9730","ios":"levelo://app?vid=2d983866-913c-4390-ae48-1873d10c9730"},"vehicle_type_id":"4","last_reported":1731986517,"current_range_meters":19200,"station_id":"ce4bhgh2rcd13ifvqfb0","pricing_plan_id":"cebpf4jnsgd1na2vs0mg"},{"bike_id":"e76ea728-70ee-4ad2-ae17-fef8537d957e","system_id":"levelo_inurba_marseille","lat":43.287132,"lon":5.379362,"is_reserved":false,"is_disabled":false,"rental_uris":{"android":"levelo://app?vid=e76ea728-70ee-4ad2-ae17-fef8537d957e","ios":"levelo://app?vid=e76ea728-70ee-4ad2-ae17-fef8537d957e"},"vehicle_type_id":"4","last_reported":1731986517,"current_range_meters":36000,"station_id":"ce4bh9p2rcd13ifvqec0","pricing_plan_id":"cebpf4jnsgd1na2vs0mg"},{"bike_id":"6206c203-9987-4880-9ff1-b729e39e03d6","system_id":"levelo_inurba_marseille","lat":43.30891,"lon":5.39637,"is_reserved":false,"is_disabled":false,"rental_uris":{"android":"levelo://app?vid=6206c203-9987-4880-9ff1-b729e39e03d6","ios":"levelo://app?vid=6206c203-9987-4880-9ff1-b729e39e03d6"},"vehicle_type_id":"4","last_reported":1731986517,"current_range_meters":38800,"station_id":"ce4bh012rcd13ifvqcv0","pricing_plan_id":"cebpf4jnsgd1na2vs0mg"},{"bike_id":"17393cb2-db73-4496-9a82-390c1530af48","system_id":"levelo_inurba_marseille","lat":43.29283,"lon":5.40163,"is_reserved":false,"is_disabled":false,"rental_uris":{"android":"levelo://app?vid=17393cb2-db73-4496-9a82-390c1530af48","ios":"levelo://app?vid=17393cb2-db73-4496-9a82-390c1530af48"},"vehicle_type_id":"4","last_reported":1731986517,"current_range_meters":29600,"station_id":"ce4bh312rcd13ifvqdk0","pricing_plan_id":"cebpf4jnsgd1na2vs0mg"},{"bike_id":"37d60d93-8316-4ddc-b2ac-057e596bc0b2","system_id":"levelo_inurba_marseille","lat":43.28,"lon":5.40007,"is_reserved":false,"is_disabled":false,"rental_uris":{"android":"levelo://app?vid=37d60d93-8316-4ddc-b2ac-057e596bc0b2","ios":"levelo://app?vid=37d60d93-8316-4ddc-b2ac-057e596bc0b2"},"vehicle_type_id":"4","last_reported":1731986517,"current_range_meters":37600,"station_id":"ce4bho92rcd13ifvqh4g","pricing_plan_id":"cebpf4jnsgd1na2vs0mg"},{"bike_id":"f79190c6-35dc-4941-bea5-7c7a7c911d36","system_id":"levelo_inurba_marseille","lat":43.251204,"lon":5.403205,"is_reserved":false,"is_disabled":false,"rental_uris":{"android":"levelo://app?vid=f79190c6-35dc-4941-bea5-7c7a7c911d36","ios":"levelo://app?vid=f79190c6-35dc-4941-bea5-7c7a7c911d36"},"vehicle_type_id":"4","last_reported":1731986517,"current_range_meters":38400,"station_id":"ce4bhlh2rcd13ifvqgig","pricing_plan_id":"cebpf4jnsgd1na2vs0mg"},{"bike_id":"63437fd1-6f50-4e77-a820-dcbc60915f76","system_id":"levelo_inurba_marseille","lat":43.24653,"lon":5.38896,"is_reserved":false,"is_disabled":false,"rental_uris":{"android":"levelo://app?vid=63437fd1-6f50-4e77-a820-dcbc60915f76","ios":"levelo://app?vid=63437fd1-6f50-4e77-a820-dcbc60915f76"},"vehicle_type_id":"4","last_reported":1731986517,"current_range_meters":6800,"station_id":"ce4bhg12rcd13ifvqf60","pricing_plan_id":"cebpf4jnsgd1na2vs0mg"},{"bike_id":"e372228f-bd5c-45de-ba4b-570bdb2e4ab7","system_id":"levelo_inurba_marseille","lat":43.31175,"lon":5.38718,"is_reserved":false,"is_disabled":false,"rental_uris":{"android":"levelo://app?vid=e372228f-bd5c-45de-ba4b-570bdb2e4ab7","ios":"levelo://app?vid=e372228f-bd5c-45de-ba4b-570bdb2e4ab7"},"vehicle_type_id":"4","last_reported":1731986517,"current_range_meters":33200,"station_id":"ce4bgv12rcd13ifvqcp0","pricing_plan_id":"cebpf4jnsgd1na2vs0mg"},{"bike_id":"3f2535ef-a383-4045-9ba4-aa662bf8b063","system_id":"levelo_inurba_marseille","lat":43.29901,"lon":5.43672,"is_reserved":false,"is_disabled":false,"rental_uris":{"android":"levelo://app?vid=3f2535ef-a383-4045-9ba4-aa662bf8b063","ios":"levelo://app?vid=3f2535ef-a383-4045-9ba4-aa662bf8b063"},"vehicle_type_id":"4","last_reported":1731986517,"current_range_meters":38400,"station_id":"ce4bhpp2rcd13ifvqhfg","pricing_plan_id":"cebpf4jnsgd1na2vs0mg"},{"bike_id":"4430c7fe-75c4-4750-ade5-2860cae79f17","system_id":"levelo_inurba_marseille","lat":43.23155,"lon":5.43699,"is_reserved":false,"is_disabled":false,"rental_uris":{"android":"levelo://app?vid=4430c7fe-75c4-4750-ade5-2860cae79f17","ios":"levelo://app?vid=4430c7fe-75c4-4750-ade5-2860cae79f17"},"vehicle_type_id":"4","last_reported":1731986517,"current_range_meters":10000,"station_id":"ce4bhmp2rcd13ifvqgog","pricing_plan_id":"cebpf4jnsgd1na2vs0mg"},{"bike_id":"0a19bd26-923f-4569-8b5c-594feb737769","system_id":"levelo_inurba_marseille","lat":43.29864,"lon":5.39747,"is_reserved":false,"is_disabled":false,"rental_uris":{"android":"levelo://app?vid=0a19bd26-923f-4569-8b5c-594feb737769","ios":"levelo://app?vid=0a19bd26-923f-4569-8b5c-594feb737769"},"vehicle_type_id":"4","last_reported":1731986517,"current_range_meters":36400,"station_id":"ce4bh0h2rcd13ifvqd50","pricing_plan_id":"cebpf4jnsgd1na2vs0mg"},{"bike_id":"e264033a-f915-4b27-a08a-2f42cfcf052a","system_id":"levelo_inurba_marseille","lat":43.337444,"lon":5.374475,"is_reserved":false,"is_disabled":false,"rental_uris":{"android":"levelo://app?vid=e264033a-f915-4b27-a08a-2f42cfcf052a","ios":"levelo://app?vid=e264033a-f915-4b27-a08a-2f42cfcf052a"},"vehicle_type_id":"4","last_reported":1731986517,"current_range_meters":35200,"station_id":"","pricing_plan_id":"cebpf4jnsgd1na2vs0mg"},{"bike_id":"affc6a42-c87f-4640-9297-4a4ea6bc3ad3","system_id":"levelo_inurba_marseille","lat":43.29553,"lon":5.42286,"is_reserved":false,"is_disabled":false,"rental_uris":{"android":"levelo://app?vid=affc6a42-c87f-4640-9297-4a4ea6bc3ad3","ios":"levelo://app?vid=affc6a42-c87f-4640-9297-4a4ea6bc3ad3"},"vehicle_type_id":"4","last_reported":1731986517,"current_range_meters":38800,"station_id":"ce4bhph2rcd13ifvqhdg","pricing_plan_id":"cebpf4jnsgd1na2vs0mg"},{"bike_id":"167bfcb2-34bc-4fde-9708-323115ef71c3","system_id":"levelo_inurba_marseille","lat":43.28023,"lon":5.38682,"is_reserved":false,"is_disabled":false,"rental_uris":{"android":"levelo://app?vid=167bfcb2-34bc-4fde-9708-323115ef71c3","ios":"levelo://app?vid=167bfcb2-34bc-4fde-9708-323115ef71c3"},"vehicle_type_id":"4","last_reported":1731986517,"current_range_meters":26800,"station_id":"ce4bhq92rcd13ifvqhjg","pricing_plan_id":"cebpf4jnsgd1na2vs0mg"},{"bike_id":"df900be8-2c12-453f-bc2b-7090adc12272","system_id":"levelo_inurba_marseille","lat":43.3013,"lon":5.38786,"is_reserved":false,"is_disabled":true,"rental_uris":{"android":"levelo://app?vid=df900be8-2c12-453f-bc2b-7090adc12272","ios":"levelo://app?vid=df900be8-2c12-453f-bc2b-7090adc12272"},"vehicle_type_id":"4","last_reported":1731986517,"current_range_meters":24000,"station_id":"ce4bghh2rcd13ifvqb60","pricing_plan_id":"cebpf4jnsgd1na2vs0mg"},{"bike_id":"123862ba-68e2-48f6-a477-31ab9dae8bd5","system_id":"levelo_inurba_marseille","lat":43.337444,"lon":5.374475,"is_reserved":false,"is_disabled":true,"rental_uris":{"android":"levelo://app?vid=123862ba-68e2-48f6-a477-31ab9dae8bd5","ios":"levelo://app?vid=123862ba-68e2-48f6-a477-31ab9dae8bd5"},"vehicle_type_id":"4","last_reported":1731986517,"current_range_meters":17600,"station_id":"","pricing_plan_id":"cebpf4jnsgd1na2vs0mg"},{"bike_id":"25ddf417-8230-4dbc-b38a-2b2cb1ba9d73","system_id":"levelo_inurba_marseille","lat":43.30284,"lon":5.37699,"is_reserved":false,"is_disabled":true,"rental_uris":{"android":"levelo://app?vid=25ddf417-8230-4dbc-b38a-2b2cb1ba9d73","ios":"levelo://app?vid=25ddf417-8230-4dbc-b38a-2b2cb1ba9d73"},"vehicle_type_id":"4","last_reported":1731986517,"current_range_meters":12800,"station_id":"ce4bguh2rcd13ifvqcj0","pricing_plan_id":"cebpf4jnsgd1na2vs0mg"},{"bike_id":"203aeef1-141c-4fdd-8aad-facad2087071","system_id":"levelo_inurba_marseille","lat":43.33757,"lon":5.37432,"is_reserved":false,"is_disabled":false,"rental_uris":{"android":"levelo://app?vid=203aeef1-141c-4fdd-8aad-facad2087071","ios":"levelo://app?vid=203aeef1-141c-4fdd-8aad-facad2087071"},"vehicle_type_id":"4","last_reported":1731986517,"current_range_meters":24000,"station_id":"","pricing_plan_id":"cebpf4jnsgd1na2vs0mg"},{"bike_id":"51dcb5e6-5cc9-45a5-af48-1babf7a4bb11","system_id":"levelo_inurba_marseille","lat":43.297862,"lon":5.393355,"is_reserved":false,"is_disabled":false,"rental_uris":{"android":"levelo://app?vid=51dcb5e6-5cc9-45a5-af48-1babf7a4bb11","ios":"levelo://app?vid=51dcb5e6-5cc9-45a5-af48-1babf7a4bb11"},"vehicle_type_id":"4","last_reported":1731986517,"current_range_meters":39200,"station_id":"chh1huq6cuj3fo74tm60","pricing_plan_id":"cebpf4jnsgd1na2vs0mg"},{"bike_id":"a18e743f-f904-45c8-9217-5413d7928a28","system_id":"levelo_inurba_marseille","lat":43.30444,"lon":5.389,"is_reserved":false,"is_disabled":false,"rental_uris":{"android":"levelo://app?vid=a18e743f-f904-45c8-9217-5413d7928a28","ios":"levelo://app?vid=a18e743f-f904-45c8-9217-5413d7928a28"},"vehicle_type_id":"4","last_reported":1731986517,"current_range_meters":29600,"station_id":"ce4bgk12rcd13ifvqbi0","pricing_plan_id":"cebpf4jnsgd1na2vs0mg"},{"bike_id":"015475d9-9369-4060-8bef-8b2a0db4bfee","system_id":"levelo_inurba_marseille","lat":43.29783,"lon":5.39353,"is_reserved":false,"is_disabled":false,"rental_uris":{"android":"levelo://app?vid=015475d9-9369-4060-8bef-8b2a0db4bfee","ios":"levelo://app?vid=015475d9-9369-4060-8bef-8b2a0db4bfee"},"vehicle_type_id":"4","last_reported":1731986517,"current_range_meters":38000,"station_id":"chh1huq6cuj3fo74tm60","pricing_plan_id":"cebpf4jnsgd1na2vs0mg"},{"bike_id":"f71dd268-05c9-40a4-8d18-b119b5d6e1bc","system_id":"levelo_inurba_marseille","lat":43.29963,"lon":5.41337,"is_reserved":false,"is_disabled":false,"rental_uris":{"android":"levelo://app?vid=f71dd268-05c9-40a4-8d18-b119b5d6e1bc","ios":"levelo://app?vid=f71dd268-05c9-40a4-8d18-b119b5d6e1bc"},"vehicle_type_id":"4","last_reported":1731986517,"current_range_meters":39200,"station_id":"ce4bhp12rcd13ifvqh9g","pricing_plan_id":"cebpf4jnsgd1na2vs0mg"},{"bike_id":"ad888319-f56f-47b8-bde8-b312b6e6a8ed","system_id":"levelo_inurba_marseille","lat":43.310713,"lon":5.3835,"is_reserved":false,"is_disabled":false,"rental_uris":{"android":"levelo://app?vid=ad888319-f56f-47b8-bde8-b312b6e6a8ed","ios":"levelo://app?vid=ad888319-f56f-47b8-bde8-b312b6e6a8ed"},"vehicle_type_id":"4","last_reported":1731986517,"current_range_meters":11600,"station_id":"ce4bgv92rcd13ifvqcr0","pricing_plan_id":"cebpf4jnsgd1na2vs0mg"},{"bike_id":"8cba7125-46f9-447b-a79d-2a02b1acb87f","system_id":"levelo_inurba_marseille","lat":43.28665,"lon":5.36353,"is_reserved":false,"is_disabled":false,"rental_uris":{"android":"levelo://app?vid=8cba7125-46f9-447b-a79d-2a02b1acb87f","ios":"levelo://app?vid=8cba7125-46f9-447b-a79d-2a02b1acb87f"},"vehicle_type_id":"4","last_reported":1731986517,"current_range_meters":31200,"station_id":"ce4bhah2rcd13ifvqej0","pricing_plan_id":"cebpf4jnsgd1na2vs0mg"},{"bike_id":"209e8e34-a4ed-447a-8612-74dbc4ddea10","system_id":"levelo_inurba_marseille","lat":43.30801,"lon":5.43515,"is_reserved":false,"is_disabled":false,"rental_uris":{"android":"levelo://app?vid=209e8e34-a4ed-447a-8612-74dbc4ddea10","ios":"levelo://app?vid=209e8e34-a4ed-447a-8612-74dbc4ddea10"},"vehicle_type_id":"4","last_reported":1731986517,"current_range_meters":19600,"station_id":"ce4bhph2rcd13ifvqheg","pricing_plan_id":"cebpf4jnsgd1na2vs0mg"},{"bike_id":"823fd9d0-b179-4061-97f6-a356d6b83f31","system_id":"levelo_inurba_marseille","lat":43.31329,"lon":5.39687,"is_reserved":false,"is_disabled":false,"rental_uris":{"android":"levelo://app?vid=823fd9d0-b179-4061-97f6-a356d6b83f31","ios":"levelo://app?vid=823fd9d0-b179-4061-97f6-a356d6b83f31"},"vehicle_type_id":"4","last_reported":1731986517,"current_range_meters":38000,"station_id":"ce4bgvp2rcd13ifvqcu0","pricing_plan_id":"cebpf4jnsgd1na2vs0mg"},{"bike_id":"674671a9-ba1c-4a0d-a2d0-d1670faad228","system_id":"levelo_inurba_marseille","lat":43.31082,"lon":5.42438,"is_reserved":false,"is_disabled":false,"rental_uris":{"android":"levelo://app?vid=674671a9-ba1c-4a0d-a2d0-d1670faad228","ios":"levelo://app?vid=674671a9-ba1c-4a0d-a2d0-d1670faad228"},"vehicle_type_id":"4","last_reported":1731986517,"current_range_meters":38800,"station_id":"ce4bhp92rcd13ifvqhag","pricing_plan_id":"cebpf4jnsgd1na2vs0mg"},{"bike_id":"902520de-201d-40c5-b252-e084c9103587","system_id":"levelo_inurba_marseille","lat":43.29698,"lon":5.36606,"is_reserved":false,"is_disabled":false,"rental_uris":{"android":"levelo://app?vid=902520de-201d-40c5-b252-e084c9103587","ios":"levelo://app?vid=902520de-201d-40c5-b252-e084c9103587"},"vehicle_type_id":"4","last_reported":1731986517,"current_range_meters":32800,"station_id":"ce4bgn12rcd13ifvqbt0","pricing_plan_id":"cebpf4jnsgd1na2vs0mg"},{"bike_id":"e1c45b81-f6d8-4231-9324-1addebd1a764","system_id":"levelo_inurba_marseille","lat":43.31009,"lon":5.38203,"is_reserved":false,"is_disabled":false,"rental_uris":{"android":"levelo://app?vid=e1c45b81-f6d8-4231-9324-1addebd1a764","ios":"levelo://app?vid=e1c45b81-f6d8-4231-9324-1addebd1a764"},"vehicle_type_id":"4","last_reported":1731986517,"current_range_meters":38800,"station_id":"","pricing_plan_id":"cebpf4jnsgd1na2vs0mg"},{"bike_id":"c2fea496-5ac2-4b2c-b8a1-985a65037288","system_id":"levelo_inurba_marseille","lat":43.29785,"lon":5.39346,"is_reserved":false,"is_disabled":false,"rental_uris":{"android":"levelo://app?vid=c2fea496-5ac2-4b2c-b8a1-985a65037288","ios":"levelo://app?vid=c2fea496-5ac2-4b2c-b8a1-985a65037288"},"vehicle_type_id":"4","last_reported":1731986517,"current_range_meters":39200,"station_id":"chh1huq6cuj3fo74tm60","pricing_plan_id":"cebpf4jnsgd1na2vs0mg"},{"bike_id":"e4a5532d-23c6-44a1-8a40-ea77917bd499","system_id":"levelo_inurba_marseille","lat":43.30142,"lon":5.39877,"is_reserved":false,"is_disabled":false,"rental_uris":{"android":"levelo://app?vid=e4a5532d-23c6-44a1-8a40-ea77917bd499","ios":"levelo://app?vid=e4a5532d-23c6-44a1-8a40-ea77917bd499"},"vehicle_type_id":"4","last_reported":1731986517,"current_range_meters":30400,"station_id":"ce4bh0h2rcd13ifvqd40","pricing_plan_id":"cebpf4jnsgd1na2vs0mg"},{"bike_id":"754ef339-4206-4391-a29c-4a3441435511","system_id":"levelo_inurba_marseille","lat":43.28459,"lon":5.35869,"is_reserved":false,"is_disabled":false,"rental_uris":{"android":"levelo://app?vid=754ef339-4206-4391-a29c-4a3441435511","ios":"levelo://app?vid=754ef339-4206-4391-a29c-4a3441435511"},"vehicle_type_id":"4","last_reported":1731986517,"current_range_meters":38800,"station_id":"ce4bhah2rcd13ifvqei0","pricing_plan_id":"cebpf4jnsgd1na2vs0mg"},{"bike_id":"bb82ad52-6bd0-462c-bba2-bd4fc68462b2","system_id":"levelo_inurba_marseille","lat":43.29619,"lon":5.37719,"is_reserved":false,"is_disabled":false,"rental_uris":{"android":"levelo://app?vid=bb82ad52-6bd0-462c-bba2-bd4fc68462b2","ios":"levelo://app?vid=bb82ad52-6bd0-462c-bba2-bd4fc68462b2"},"vehicle_type_id":"4","last_reported":1731986517,"current_range_meters":38800,"station_id":"ce4bgi92rcd13ifvqb90","pricing_plan_id":"cebpf4jnsgd1na2vs0mg"},{"bike_id":"0320cf1b-d4b4-41c8-aef1-67408d86cef1","system_id":"levelo_inurba_marseille","lat":43.30933,"lon":5.401428,"is_reserved":false,"is_disabled":false,"rental_uris":{"android":"levelo://app?vid=0320cf1b-d4b4-41c8-aef1-67408d86cef1","ios":"levelo://app?vid=0320cf1b-d4b4-41c8-aef1-67408d86cef1"},"vehicle_type_id":"4","last_reported":1731986517,"current_range_meters":37600,"station_id":"ce4bgvp2rcd13ifvqct0","pricing_plan_id":"cebpf4jnsgd1na2vs0mg"},{"bike_id":"a0f51239-5e6a-4316-ab9c-da4d980015bc","system_id":"levelo_inurba_marseille","lat":43.322867,"lon":5.382678,"is_reserved":false,"is_disabled":false,"rental_uris":{"android":"levelo://app?vid=a0f51239-5e6a-4316-ab9c-da4d980015bc","ios":"levelo://app?vid=a0f51239-5e6a-4316-ab9c-da4d980015bc"},"vehicle_type_id":"4","last_reported":1731986517,"current_range_meters":8000,"station_id":"ce4bhr12rcd13ifvqhqg","pricing_plan_id":"cebpf4jnsgd1na2vs0mg"},{"bike_id":"746c26b3-b945-4191-b394-93c5195805c3","system_id":"levelo_inurba_marseille","lat":43.27946,"lon":5.41045,"is_reserved":false,"is_disabled":false,"rental_uris":{"android":"levelo://app?vid=746c26b3-b945-4191-b394-93c5195805c3","ios":"levelo://app?vid=746c26b3-b945-4191-b394-93c5195805c3"},"vehicle_type_id":"4","last_reported":1731986517,"current_range_meters":11600,"station_id":"ce4bhnp2rcd13ifvqh0g","pricing_plan_id":"cebpf4jnsgd1na2vs0mg"},{"bike_id":"1a70c7dd-62bc-47a3-bbc1-a51d2652e9c2","system_id":"levelo_inurba_marseille","lat":43.28705,"lon":5.37395,"is_reserved":false,"is_disabled":false,"rental_uris":{"android":"levelo://app?vid=1a70c7dd-62bc-47a3-bbc1-a51d2652e9c2","ios":"levelo://app?vid=1a70c7dd-62bc-47a3-bbc1-a51d2652e9c2"},"vehicle_type_id":"4","last_reported":1731986517,"current_range_meters":12000,"station_id":"ce4bh3p2rcd13ifvqdq0","pricing_plan_id":"cebpf4jnsgd1na2vs0mg"},{"bike_id":"75420037-a1a0-44de-85e1-44ce9ad329ea","system_id":"levelo_inurba_marseille","lat":43.28456,"lon":5.35889,"is_reserved":false,"is_disabled":false,"rental_uris":{"android":"levelo://app?vid=75420037-a1a0-44de-85e1-44ce9ad329ea","ios":"levelo://app?vid=75420037-a1a0-44de-85e1-44ce9ad329ea"},"vehicle_type_id":"4","last_reported":1731986517,"current_range_meters":35200,"station_id":"ce4bhah2rcd13ifvqei0","pricing_plan_id":"cebpf4jnsgd1na2vs0mg"},{"bike_id":"5ed0dcf0-c2ca-47d5-8497-b51c5d83f101","system_id":"levelo_inurba_marseille","lat":43.2669,"lon":5.38273,"is_reserved":false,"is_disabled":true,"rental_uris":{"android":"levelo://app?vid=5ed0dcf0-c2ca-47d5-8497-b51c5d83f101","ios":"levelo://app?vid=5ed0dcf0-c2ca-47d5-8497-b51c5d83f101"},"vehicle_type_id":"4","last_reported":1731986517,"current_range_meters":37600,"station_id":"ce4bhg92rcd13ifvqf90","pricing_plan_id":"cebpf4jnsgd1na2vs0mg"},{"bike_id":"a5f40ea5-7a6d-40e8-9ed2-dadf14185e08","system_id":"levelo_inurba_marseille","lat":43.2871,"lon":5.39988,"is_reserved":false,"is_disabled":false,"rental_uris":{"android":"levelo://app?vid=a5f40ea5-7a6d-40e8-9ed2-dadf14185e08","ios":"levelo://app?vid=a5f40ea5-7a6d-40e8-9ed2-dadf14185e08"},"vehicle_type_id":"4","last_reported":1731986517,"current_range_meters":38000,"station_id":"ce4bho92rcd13ifvqh3g","pricing_plan_id":"cebpf4jnsgd1na2vs0mg"},{"bike_id":"02715229-b658-4fa1-8848-506ff3ca2609","system_id":"levelo_inurba_marseille","lat":43.24648,"lon":5.38893,"is_reserved":false,"is_disabled":false,"rental_uris":{"android":"levelo://app?vid=02715229-b658-4fa1-8848-506ff3ca2609","ios":"levelo://app?vid=02715229-b658-4fa1-8848-506ff3ca2609"},"vehicle_type_id":"4","last_reported":1731986517,"current_range_meters":17200,"station_id":"ce4bhg12rcd13ifvqf60","pricing_plan_id":"cebpf4jnsgd1na2vs0mg"},{"bike_id":"d5123f1a-5f5a-4c94-8dfa-9f68ab7bd305","system_id":"levelo_inurba_marseille","lat":43.28436,"lon":5.3918,"is_reserved":false,"is_disabled":false,"rental_uris":{"android":"levelo://app?vid=d5123f1a-5f5a-4c94-8dfa-9f68ab7bd305","ios":"levelo://app?vid=d5123f1a-5f5a-4c94-8dfa-9f68ab7bd305"},"vehicle_type_id":"4","last_reported":1731986517,"current_range_meters":12000,"station_id":"ce4bhoh2rcd13ifvqh5g","pricing_plan_id":"cebpf4jnsgd1na2vs0mg"},{"bike_id":"a5381f1c-1612-4c36-a55d-36fa2c1efaa0","system_id":"levelo_inurba_marseille","lat":43.28703,"lon":5.39991,"is_reserved":false,"is_disabled":false,"rental_uris":{"android":"levelo://app?vid=a5381f1c-1612-4c36-a55d-36fa2c1efaa0","ios":"levelo://app?vid=a5381f1c-1612-4c36-a55d-36fa2c1efaa0"},"vehicle_type_id":"4","last_reported":1731986517,"current_range_meters":38800,"station_id":"ce4bho92rcd13ifvqh3g","pricing_plan_id":"cebpf4jnsgd1na2vs0mg"},{"bike_id":"299e7824-d49f-4345-b8e0-56b3d080343f","system_id":"levelo_inurba_marseille","lat":43.29784,"lon":5.39347,"is_reserved":false,"is_disabled":false,"rental_uris":{"android":"levelo://app?vid=299e7824-d49f-4345-b8e0-56b3d080343f","ios":"levelo://app?vid=299e7824-d49f-4345-b8e0-56b3d080343f"},"vehicle_type_id":"4","last_reported":1731986517,"current_range_meters":38000,"station_id":"chh1huq6cuj3fo74tm60","pricing_plan_id":"cebpf4jnsgd1na2vs0mg"},{"bike_id":"129aabad-c987-475e-90f3-2bfaf3bf8a5a","system_id":"levelo_inurba_marseille","lat":43.30885,"lon":5.39642,"is_reserved":false,"is_disabled":false,"rental_uris":{"android":"levelo://app?vid=129aabad-c987-475e-90f3-2bfaf3bf8a5a","ios":"levelo://app?vid=129aabad-c987-475e-90f3-2bfaf3bf8a5a"},"vehicle_type_id":"4","last_reported":1731986517,"current_range_meters":24000,"station_id":"ce4bh012rcd13ifvqcv0","pricing_plan_id":"cebpf4jnsgd1na2vs0mg"},{"bike_id":"61c64098-e628-4190-886a-4fa410d3393e","system_id":"levelo_inurba_marseille","lat":43.25868,"lon":5.39898,"is_reserved":false,"is_disabled":false,"rental_uris":{"android":"levelo://app?vid=61c64098-e628-4190-886a-4fa410d3393e","ios":"levelo://app?vid=61c64098-e628-4190-886a-4fa410d3393e"},"vehicle_type_id":"4","last_reported":1731986517,"current_range_meters":28800,"station_id":"ce4bhl92rcd13ifvqghg","pricing_plan_id":"cebpf4jnsgd1na2vs0mg"},{"bike_id":"8d377374-9775-4f46-9ae2-a53fea7dcb6a","system_id":"levelo_inurba_marseille","lat":43.30779,"lon":5.3765,"is_reserved":false,"is_disabled":false,"rental_uris":{"android":"levelo://app?vid=8d377374-9775-4f46-9ae2-a53fea7dcb6a","ios":"levelo://app?vid=8d377374-9775-4f46-9ae2-a53fea7dcb6a"},"vehicle_type_id":"4","last_reported":1731986517,"current_range_meters":27600,"station_id":"ce4bgv92rcd13ifvqcq0","pricing_plan_id":"cebpf4jnsgd1na2vs0mg"},{"bike_id":"f0e2f4e5-f602-4a1c-ba1a-aa1d1150f28c","system_id":"levelo_inurba_marseille","lat":43.29636,"lon":5.40602,"is_reserved":false,"is_disabled":false,"rental_uris":{"android":"levelo://app?vid=f0e2f4e5-f602-4a1c-ba1a-aa1d1150f28c","ios":"levelo://app?vid=f0e2f4e5-f602-4a1c-ba1a-aa1d1150f28c"},"vehicle_type_id":"4","last_reported":1731986517,"current_range_meters":38800,"station_id":"ce4bh0h2rcd13ifvqd60","pricing_plan_id":"cebpf4jnsgd1na2vs0mg"},{"bike_id":"85ea1e6a-e3ed-4c94-8b0a-6d7f6e67794e","system_id":"levelo_inurba_marseille","lat":43.31168,"lon":5.38714,"is_reserved":false,"is_disabled":false,"rental_uris":{"android":"levelo://app?vid=85ea1e6a-e3ed-4c94-8b0a-6d7f6e67794e","ios":"levelo://app?vid=85ea1e6a-e3ed-4c94-8b0a-6d7f6e67794e"},"vehicle_type_id":"4","last_reported":1731986517,"current_range_meters":39200,"station_id":"ce4bgv12rcd13ifvqcp0","pricing_plan_id":"cebpf4jnsgd1na2vs0mg"},{"bike_id":"628384db-a629-44bc-856e-9d5ee504cce9","system_id":"levelo_inurba_marseille","lat":43.25002,"lon":5.38921,"is_reserved":false,"is_disabled":true,"rental_uris":{"android":"levelo://app?vid=628384db-a629-44bc-856e-9d5ee504cce9","ios":"levelo://app?vid=628384db-a629-44bc-856e-9d5ee504cce9"},"vehicle_type_id":"4","last_reported":1731986517,"current_range_meters":38800,"station_id":"ce4bhgp2rcd13ifvqfd0","pricing_plan_id":"cebpf4jnsgd1na2vs0mg"},{"bike_id":"2c98f310-de06-47e1-8a5f-d38938934c83","system_id":"levelo_inurba_marseille","lat":43.23184,"lon":5.39986,"is_reserved":false,"is_disabled":false,"rental_uris":{"android":"levelo://app?vid=2c98f310-de06-47e1-8a5f-d38938934c83","ios":"levelo://app?vid=2c98f310-de06-47e1-8a5f-d38938934c83"},"vehicle_type_id":"4","last_reported":1731986517,"current_range_meters":38000,"station_id":"ce4bhn12rcd13ifvqgqg","pricing_plan_id":"cebpf4jnsgd1na2vs0mg"},{"bike_id":"23135125-383a-4861-98de-64bbe8a2d094","system_id":"levelo_inurba_marseille","lat":43.30919,"lon":5.4014,"is_reserved":false,"is_disabled":false,"rental_uris":{"android":"levelo://app?vid=23135125-383a-4861-98de-64bbe8a2d094","ios":"levelo://app?vid=23135125-383a-4861-98de-64bbe8a2d094"},"vehicle_type_id":"4","last_reported":1731986517,"current_range_meters":11200,"station_id":"ce4bgvp2rcd13ifvqct0","pricing_plan_id":"cebpf4jnsgd1na2vs0mg"},{"bike_id":"3f32c9d6-8aed-4b6d-92f4-88b3106e6e04","system_id":"levelo_inurba_marseille","lat":43.25857,"lon":5.39906,"is_reserved":false,"is_disabled":true,"rental_uris":{"android":"levelo://app?vid=3f32c9d6-8aed-4b6d-92f4-88b3106e6e04","ios":"levelo://app?vid=3f32c9d6-8aed-4b6d-92f4-88b3106e6e04"},"vehicle_type_id":"4","last_reported":1731986517,"current_range_meters":9600,"station_id":"ce4bhl92rcd13ifvqghg","pricing_plan_id":"cebpf4jnsgd1na2vs0mg"},{"bike_id":"59282a02-6b4b-4617-b658-ff49c6291b10","system_id":"levelo_inurba_marseille","lat":43.28455,"lon":5.35885,"is_reserved":false,"is_disabled":false,"rental_uris":{"android":"levelo://app?vid=59282a02-6b4b-4617-b658-ff49c6291b10","ios":"levelo://app?vid=59282a02-6b4b-4617-b658-ff49c6291b10"},"vehicle_type_id":"4","last_reported":1731986517,"current_range_meters":11600,"station_id":"ce4bhah2rcd13ifvqei0","pricing_plan_id":"cebpf4jnsgd1na2vs0mg"},{"bike_id":"2b8b53f8-f97f-4dd6-b14d-6db5bb088c15","system_id":"levelo_inurba_marseille","lat":43.304158,"lon":5.412883,"is_reserved":false,"is_disabled":false,"rental_uris":{"android":"levelo://app?vid=2b8b53f8-f97f-4dd6-b14d-6db5bb088c15","ios":"levelo://app?vid=2b8b53f8-f97f-4dd6-b14d-6db5bb088c15"},"vehicle_type_id":"4","last_reported":1731986517,"current_range_meters":38800,"station_id":"ce4bhop2rcd13ifvqh8g","pricing_plan_id":"cebpf4jnsgd1na2vs0mg"},{"bike_id":"7c5ea3a8-a728-4c0b-a06a-05abd113adfd","system_id":"levelo_inurba_marseille","lat":43.25816,"lon":5.39432,"is_reserved":false,"is_disabled":false,"rental_uris":{"android":"levelo://app?vid=7c5ea3a8-a728-4c0b-a06a-05abd113adfd","ios":"levelo://app?vid=7c5ea3a8-a728-4c0b-a06a-05abd113adfd"},"vehicle_type_id":"4","last_reported":1731986517,"current_range_meters":38800,"station_id":"ce4bhip2rcd13ifvqft0","pricing_plan_id":"cebpf4jnsgd1na2vs0mg"},{"bike_id":"89f50497-216a-4e8a-bc30-e170101d8b54","system_id":"levelo_inurba_marseille","lat":43.29536,"lon":5.39037,"is_reserved":false,"is_disabled":false,"rental_uris":{"android":"levelo://app?vid=89f50497-216a-4e8a-bc30-e170101d8b54","ios":"levelo://app?vid=89f50497-216a-4e8a-bc30-e170101d8b54"},"vehicle_type_id":"4","last_reported":1731986517,"current_range_meters":12800,"station_id":"ce4bh3p2rcd13ifvqdp0","pricing_plan_id":"cebpf4jnsgd1na2vs0mg"},{"bike_id":"49e7624e-103a-42f5-a246-ce17656f0975","system_id":"levelo_inurba_marseille","lat":43.26029,"lon":5.3755,"is_reserved":false,"is_disabled":false,"rental_uris":{"android":"levelo://app?vid=49e7624e-103a-42f5-a246-ce17656f0975","ios":"levelo://app?vid=49e7624e-103a-42f5-a246-ce17656f0975"},"vehicle_type_id":"4","last_reported":1731986517,"current_range_meters":38800,"station_id":"ce4bhgh2rcd13ifvqfa0","pricing_plan_id":"cebpf4jnsgd1na2vs0mg"},{"bike_id":"a85b175d-9581-4ea4-a1d4-a3a58a9d1149","system_id":"levelo_inurba_marseille","lat":43.29251,"lon":5.40907,"is_reserved":false,"is_disabled":false,"rental_uris":{"android":"levelo://app?vid=a85b175d-9581-4ea4-a1d4-a3a58a9d1149","ios":"levelo://app?vid=a85b175d-9581-4ea4-a1d4-a3a58a9d1149"},"vehicle_type_id":"4","last_reported":1731986517,"current_range_meters":30400,"station_id":"ce4bh192rcd13ifvqdc0","pricing_plan_id":"cebpf4jnsgd1na2vs0mg"},{"bike_id":"4de41581-3b4d-48da-b235-99669862c70a","system_id":"levelo_inurba_marseille","lat":43.296095,"lon":5.377118,"is_reserved":false,"is_disabled":true,"rental_uris":{"android":"levelo://app?vid=4de41581-3b4d-48da-b235-99669862c70a","ios":"levelo://app?vid=4de41581-3b4d-48da-b235-99669862c70a"},"vehicle_type_id":"4","last_reported":1731986517,"current_range_meters":32000,"station_id":"ce4bgi92rcd13ifvqb90","pricing_plan_id":"cebpf4jnsgd1na2vs0mg"},{"bike_id":"f601eb27-d188-4854-ba73-090ddc3b0023","system_id":"levelo_inurba_marseille","lat":43.27174,"lon":5.40995,"is_reserved":false,"is_disabled":false,"rental_uris":{"android":"levelo://app?vid=f601eb27-d188-4854-ba73-090ddc3b0023","ios":"levelo://app?vid=f601eb27-d188-4854-ba73-090ddc3b0023"},"vehicle_type_id":"4","last_reported":1731986517,"current_range_meters":16400,"station_id":"ce4bhl12rcd13ifvqgf0","pricing_plan_id":"cebpf4jnsgd1na2vs0mg"},{"bike_id":"b0222684-7565-40dc-91a5-328b5ec85c70","system_id":"levelo_inurba_marseille","lat":43.28074,"lon":5.39648,"is_reserved":false,"is_disabled":false,"rental_uris":{"android":"levelo://app?vid=b0222684-7565-40dc-91a5-328b5ec85c70","ios":"levelo://app?vid=b0222684-7565-40dc-91a5-328b5ec85c70"},"vehicle_type_id":"4","last_reported":1731986517,"current_range_meters":39200,"station_id":"ce4bho12rcd13ifvqh2g","pricing_plan_id":"cebpf4jnsgd1na2vs0mg"},{"bike_id":"fcae7cf1-a7d3-4668-b3bc-06de5e18f103","system_id":"levelo_inurba_marseille","lat":43.25866,"lon":5.39896,"is_reserved":false,"is_disabled":false,"rental_uris":{"android":"levelo://app?vid=fcae7cf1-a7d3-4668-b3bc-06de5e18f103","ios":"levelo://app?vid=fcae7cf1-a7d3-4668-b3bc-06de5e18f103"},"vehicle_type_id":"4","last_reported":1731986517,"current_range_meters":33200,"station_id":"ce4bhl92rcd13ifvqghg","pricing_plan_id":"cebpf4jnsgd1na2vs0mg"},{"bike_id":"f4b89e3e-303f-4caf-bcc8-90e28cd64704","system_id":"levelo_inurba_marseille","lat":43.28457,"lon":5.3588,"is_reserved":false,"is_disabled":false,"rental_uris":{"android":"levelo://app?vid=f4b89e3e-303f-4caf-bcc8-90e28cd64704","ios":"levelo://app?vid=f4b89e3e-303f-4caf-bcc8-90e28cd64704"},"vehicle_type_id":"4","last_reported":1731986517,"current_range_meters":10000,"station_id":"ce4bhah2rcd13ifvqei0","pricing_plan_id":"cebpf4jnsgd1na2vs0mg"},{"bike_id":"c6fd0b05-4384-48a2-b8db-c70316ff4241","system_id":"levelo_inurba_marseille","lat":43.29791,"lon":5.39377,"is_reserved":false,"is_disabled":false,"rental_uris":{"android":"levelo://app?vid=c6fd0b05-4384-48a2-b8db-c70316ff4241","ios":"levelo://app?vid=c6fd0b05-4384-48a2-b8db-c70316ff4241"},"vehicle_type_id":"4","last_reported":1731986517,"current_range_meters":38800,"station_id":"chh1huq6cuj3fo74tm60","pricing_plan_id":"cebpf4jnsgd1na2vs0mg"},{"bike_id":"2b230e21-05b5-46a3-b9c5-f6223e5aaf4f","system_id":"levelo_inurba_marseille","lat":43.3171,"lon":5.43708,"is_reserved":false,"is_disabled":false,"rental_uris":{"android":"levelo://app?vid=2b230e21-05b5-46a3-b9c5-f6223e5aaf4f","ios":"levelo://app?vid=2b230e21-05b5-46a3-b9c5-f6223e5aaf4f"},"vehicle_type_id":"4","last_reported":1731986517,"current_range_meters":38000,"station_id":"ce4bhp92rcd13ifvqhcg","pricing_plan_id":"cebpf4jnsgd1na2vs0mg"},{"bike_id":"e03ee57d-d6f5-4e29-99df-e78e89cfc6cd","system_id":"levelo_inurba_marseille","lat":43.309302,"lon":5.401415,"is_reserved":false,"is_disabled":false,"rental_uris":{"android":"levelo://app?vid=e03ee57d-d6f5-4e29-99df-e78e89cfc6cd","ios":"levelo://app?vid=e03ee57d-d6f5-4e29-99df-e78e89cfc6cd"},"vehicle_type_id":"4","last_reported":1731986517,"current_range_meters":38800,"station_id":"ce4bgvp2rcd13ifvqct0","pricing_plan_id":"cebpf4jnsgd1na2vs0mg"},{"bike_id":"ca02af96-9ec2-4895-b85f-dcec16a8f966","system_id":"levelo_inurba_marseille","lat":43.23186,"lon":5.39982,"is_reserved":false,"is_disabled":false,"rental_uris":{"android":"levelo://app?vid=ca02af96-9ec2-4895-b85f-dcec16a8f966","ios":"levelo://app?vid=ca02af96-9ec2-4895-b85f-dcec16a8f966"},"vehicle_type_id":"4","last_reported":1731986517,"current_range_meters":12800,"station_id":"ce4bhn12rcd13ifvqgqg","pricing_plan_id":"cebpf4jnsgd1na2vs0mg"},{"bike_id":"4ff195aa-0e94-4780-a4e9-74e0f4125314","system_id":"levelo_inurba_marseille","lat":43.297859,"lon":5.393515,"is_reserved":false,"is_disabled":true,"rental_uris":{"android":"levelo://app?vid=4ff195aa-0e94-4780-a4e9-74e0f4125314","ios":"levelo://app?vid=4ff195aa-0e94-4780-a4e9-74e0f4125314"},"vehicle_type_id":"4","last_reported":1731986517,"current_range_meters":36400,"station_id":"chh1huq6cuj3fo74tm60","pricing_plan_id":"cebpf4jnsgd1na2vs0mg"},