{"last_updated":1769897543,"ttl":60,"version":"2.2","data":{"bikes":[{"bike_id":"f8861002-c2d1-4382-86d1-5d946b173330","system_id":"levelo_inurba_marseille","lat":43.21745,"lon":5.34603,"is_reserved":false,"is_disabled":false,"rental_uris":{"android":"levelo://app?vid=f8861002-c2d1-4382-86d1-5d946b173330","ios":"levelo://app?vid=f8861002-c2d1-4382-86d1-5d946b173330"},"vehicle_type_id":"4","last_reported":1769897544,"current_range_meters":2800,"station_id":"st_cvj6r9ubvosntc0bgbag","pricing_plan_id":"cebpf4jnsgd1na2vs0mg"},{"bike_id":"3a795183-32ba-4ad0-9275-1ac3f252a81b","system_id":"levelo_inurba_marseille","lat":43.2801,"lon":5.41671,"is_reserved":false,"is_disabled":false,"rental_uris":{"android":"levelo://app?vid=3a795183-32ba-4ad0-9275-1ac3f252a81b","ios":"levelo://app?vid=3a795183-32ba-4ad0-9275-1ac3f252a81b"},"vehicle_type_id":"4","last_reported":1769897544,"current_range_meters":2800,"station_id":"ce4bho12rcd13ifvqh1g","pricing_plan_id":"cebpf4jnsgd1na2vs0mg"},{"bike_id":"a7de27ea-8634-4ae6-a2ec-1856a5abc228","system_id":"levelo_inurba_marseille","lat":43.22943,"lon":5.35386,"is_reserved":false,"is_disabled":false,"rental_uris":{"android":"levelo://app?vid=a7de27ea-8634-4ae6-a2ec-1856a5abc228","ios":"levelo://app?vid=a7de27ea-8634-4ae6-a2ec-1856a5abc228"},"vehicle_type_id":"4","last_reported":1769897544,"current_range_meters":2800,"station_id":"cpo3532slgdg3j2ikp40","pricing_plan_id":"cebpf4jnsgd1na2vs0mg"},{"bike_id":"cc3cfa52-86a4-4529-bc22-f797aba0641d","system_id":"levelo_inurba_marseille","lat":43.31091,"lon":5.37772,"is_reserved":false,"is_disabled":false,"rental_uris":{"android":"levelo://app?vid=cc3cfa52-86a4-4529-bc22-f797aba0641d","ios":"levelo://app?vid=cc3cfa52-86a4-4529-bc22-f797aba0641d"},"vehicle_type_id":"4","last_reported":1769897544,"current_range_meters":2800,"station_id":"ce4bgt92rcd13ifvqcg0","pricing_plan_id":"cebpf4jnsgd1na2vs0mg"},{"bike_id":"94842764-1da0-47c3-981d-a8a494b1c082","system_id":"levelo_inurba_marseille","lat":43.24628,"lon":5.38916,"is_reserved":false,"is_disabled":false,"rental_uris":{"android":"levelo://app?vid=94842764-1da0-47c3-981d-a8a494b1c082","ios":"levelo://app?vid=94842764-1da0-47c3-981d-a8a494b1c082"},"vehicle_type_id":"4","last_reported":1769897544,"current_range_meters":2800,"station_id":"ce4bhg12rcd13ifvqf60","pricing_plan_id":"cebpf4jnsgd1na2vs0mg"},{"bike_id":"d278f49b-79cb-49d4-9147-2a87ca70efd2","system_id":"levelo_inurba_marseille","lat":43.2466,"lon":5.38884,"is_reserved":false,"is_disabled":false,"rental_uris":{"android":"levelo://app?vid=d278f49b-79cb-49d4-9147-2a87ca70efd2","ios":"levelo://app?vid=d278f49b-79cb-49d4-9147-2a87ca70efd2"},"vehicle_type_id":"4","last_reported":1769897544,"current_range_meters":2800,"station_id":"ce4bhg12rcd13ifvqf60","pricing_plan_id":"cebpf4jnsgd1na2vs0mg"},{"bike_id":"66c76971-021f-497e-8d79-ee99d65fdb67","system_id":"levelo_inurba_marseille","lat":43.2558,"lon":5.38234,"is_reserved":false,"is_disabled":false,"rental_uris":{"android":"levelo://app?vid=66c76971-021f-497e-8d79-ee99d65fdb67","ios":"levelo://app?vid=66c76971-021f-497e-8d79-ee99d65fdb67"},"vehicle_type_id":"4","last_reported":1769897544,"current_range_meters":3200,"station_id":"ce4bhih2rcd13ifvqfs0","pricing_plan_id":"cebpf4jnsgd1na2vs0mg"},{"bike_id":"b864ecbc-5a09-445e-bbfb-ad118d8a3cb3","system_id":"levelo_inurba_marseille","lat":43.29792,"lon":5.42788,"is_reserved":false,"is_disabled":false,"rental_uris":{"android":"levelo://app?vid=b864ecbc-5a09-445e-bbfb-ad118d8a3cb3","ios":"levelo://app?vid=b864ecbc-5a09-445e-bbfb-ad118d8a3cb3"},"vehicle_type_id":"4","last_reported":1769897544,"current_range_meters":3200,"station_id":"st_d3md5207bmas73dh9klg","pricing_plan_id":"cebpf4jnsgd1na2vs0mg"},{"bike_id":"3c07e8db-1d64-4b7a-879d-8b774c3d7e0c","system_id":"levelo_inurba_marseille","lat":43.27381,"lon":5.36262,"is_reserved":false,"is_disabled":false,"rental_uris":{"android":"levelo://app?vid=3c07e8db-1d64-4b7a-879d-8b774c3d7e0c","ios":"levelo://app?vid=3c07e8db-1d64-4b7a-879d-8b774c3d7e0c"},"vehicle_type_id":"4","last_reported":1769897544,"current_range_meters":3200,"station_id":"ce4bhbh2rcd13ifvqeo0","pricing_plan_id":"cebpf4jnsgd1na2vs0mg"},{"bike_id":"81747057-4817-4880-9021-8411c8f0d736","system_id":"levelo_inurba_marseille","lat":43.30959,"lon":5.39042,"is_reserved":false,"is_disabled":false,"rental_uris":{"android":"levelo://app?vid=81747057-4817-4880-9021-8411c8f0d736","ios":"levelo://app?vid=81747057-4817-4880-9021-8411c8f0d736"},"vehicle_type_id":"4","last_reported":1769897544,"current_range_meters":3200,"station_id":"ce4bgup2rcd13ifvqco0","pricing_plan_id":"cebpf4jnsgd1na2vs0mg"},{"bike_id":"97cd5e3e-9242-4d1a-bf92-abba63d9cb46","system_id":"levelo_inurba_marseille","lat":43.28059,"lon":5.36949,"is_reserved":false,"is_disabled":false,"rental_uris":{"android":"levelo://app?vid=97cd5e3e-9242-4d1a-bf92-abba63d9cb46","ios":"levelo://app?vid=97cd5e3e-9242-4d1a-bf92-abba63d9cb46"},"vehicle_type_id":"4","last_reported":1769897544,"current_range_meters":3200,"station_id":"ce4bha12rcd13ifvqef0","pricing_plan_id":"cebpf4jnsgd1na2vs0mg"},{"bike_id":"c2029e8e-62e9-40bd-90c8-2d85b607b409","system_id":"levelo_inurba_marseille","lat":43.29783,"lon":5.4278,"is_reserved":false,"is_disabled":false,"rental_uris":{"android":"levelo://app?vid=c2029e8e-62e9-40bd-90c8-2d85b607b409","ios":"levelo://app?vid=c2029e8e-62e9-40bd-90c8-2d85b607b409"},"vehicle_type_id":"4","last_reported":1769897544,"current_range_meters":3600,"station_id":"st_d3md5207bmas73dh9klg","pricing_plan_id":"cebpf4jnsgd1na2vs0mg"},{"bike_id":"d57877dd-bf49-46b8-a311-0229d9330d0c","system_id":"levelo_inurba_marseille","lat":43.307338,"lon":5.424534,"is_reserved":false,"is_disabled":false,"rental_uris":{"android":"levelo://app?vid=d57877dd-bf49-46b8-a311-0229d9330d0c","ios":"levelo://app?vid=d57877dd-bf49-46b8-a311-0229d9330d0c"},"vehicle_type_id":"4","last_reported":1769897544,"current_range_meters":3600,"station_id":"st_cvj6ca6bvosntc0bfgr0","pricing_plan_id":"cebpf4jnsgd1na2vs0mg"},{"bike_id":"51f85ae2-9b5f-40bb-bbb3-6050ad983feb","system_id":"levelo_inurba_marseille","lat":43.250923,"lon":5.395157,"is_reserved":false,"is_disabled":false,"rental_uris":{"android":"levelo://app?vid=51f85ae2-9b5f-40bb-bbb3-6050ad983feb","ios":"levelo://app?vid=51f85ae2-9b5f-40bb-bbb3-6050ad983feb"},"vehicle_type_id":"4","last_reported":1769897544,"current_range_meters":3600,"station_id":"ce4bhm12rcd13ifvqgkg","pricing_plan_id":"cebpf4jnsgd1na2vs0mg"},{"bike_id":"facf5c8d-7adf-4b26-81c3-f2dd54937001","system_id":"levelo_inurba_marseille","lat":43.22542,"lon":5.34833,"is_reserved":false,"is_disabled":false,"rental_uris":{"android":"levelo://app?vid=facf5c8d-7adf-4b26-81c3-f2dd54937001","ios":"levelo://app?vid=facf5c8d-7adf-4b26-81c3-f2dd54937001"},"vehicle_type_id":"4","last_reported":1769897544,"current_range_meters":3600,"station_id":"st_cvj5dfep6f1abm77gieg","pricing_plan_id":"cebpf4jnsgd1na2vs0mg"},{"bike_id":"b98bcdfd-abd9-4de1-85fe-a3f97350d459","system_id":"levelo_inurba_marseille","lat":43.31747,"lon":5.4242,"is_reserved":false,"is_disabled":false,"rental_uris":{"android":"levelo://app?vid=b98bcdfd-abd9-4de1-85fe-a3f97350d459","ios":"levelo://app?vid=b98bcdfd-abd9-4de1-85fe-a3f97350d459"},"vehicle_type_id":"4","last_reported":1769897544,"current_range_meters":3600,"station_id":"ce4bhp92rcd13ifvqhbg","pricing_plan_id":"cebpf4jnsgd1na2vs0mg"},{"bike_id":"9678333c-6b02-40d1-932a-35065a4b02ac","system_id":"levelo_inurba_marseille","lat":43.292935,"lon":5.374632,"is_reserved":false,"is_disabled":false,"rental_uris":{"android":"levelo://app?vid=9678333c-6b02-40d1-932a-35065a4b02ac","ios":"levelo://app?vid=9678333c-6b02-40d1-932a-35065a4b02ac"},"vehicle_type_id":"4","last_reported":1769897544,"current_range_meters":3600,"station_id":"ce4bgj12rcd13ifvqbc0","pricing_plan_id":"cebpf4jnsgd1na2vs0mg"},{"bike_id":"b3808154-86af-47d0-966c-f1cc0984587d","system_id":"levelo_inurba_marseille","lat":43.33827,"lon":5.37485,"is_reserved":false,"is_disabled":false,"rental_uris":{"android":"levelo://app?vid=b3808154-86af-47d0-966c-f1cc0984587d","ios":"levelo://app?vid=b3808154-86af-47d0-966c-f1cc0984587d"},"vehicle_type_id":"4","last_reported":1769897544,"current_range_meters":3600,"station_id":"","pricing_plan_id":"cebpf4jnsgd1na2vs0mg"},{"bike_id":"b8538ea1-5c66-4a72-881d-32abab5c79f9","system_id":"levelo_inurba_marseille","lat":43.24203,"lon":5.39744,"is_reserved":false,"is_disabled":false,"rental_uris":{"android":"levelo://app?vid=b8538ea1-5c66-4a72-881d-32abab5c79f9","ios":"levelo://app?vid=b8538ea1-5c66-4a72-881d-32abab5c79f9"},"vehicle_type_id":"4","last_reported":1769897544,"current_range_meters":4000,"station_id":"ce4bhn12rcd13ifvqgpg","pricing_plan_id":"cebpf4jnsgd1na2vs0mg"},{"bike_id":"4578bb0a-a496-4315-9e86-5a0c2df65bd4","system_id":"levelo_inurba_marseille","lat":43.24679,"lon":5.38178,"is_reserved":false,"is_disabled":false,"rental_uris":{"android":"levelo://app?vid=4578bb0a-a496-4315-9e86-5a0c2df65bd4","ios":"levelo://app?vid=4578bb0a-a496-4315-9e86-5a0c2df65bd4"},"vehicle_type_id":"4","last_reported":1769897544,"current_range_meters":4000,"station_id":"ce4bhih2rcd13ifvqfr0","pricing_plan_id":"cebpf4jnsgd1na2vs0mg"},{"bike_id":"e703e95b-29d0-45e1-801b-f3b45a83114a","system_id":"levelo_inurba_marseille","lat":43.29207,"lon":5.40012,"is_reserved":false,"is_disabled":false,"rental_uris":{"android":"levelo://app?vid=e703e95b-29d0-45e1-801b-f3b45a83114a","ios":"levelo://app?vid=e703e95b-29d0-45e1-801b-f3b45a83114a"},"vehicle_type_id":"4","last_reported":1769897544,"current_range_meters":4000,"station_id":"","pricing_plan_id":"cebpf4jnsgd1na2vs0mg"},{"bike_id":"1ae2d96d-59b0-469c-b070-5c6aa648ad29","system_id":"levelo_inurba_marseille","lat":43.24173,"lon":5.36415,"is_reserved":false,"is_disabled":false,"rental_uris":{"android":"levelo://app?vid=1ae2d96d-59b0-469c-b070-5c6aa648ad29","ios":"levelo://app?vid=1ae2d96d-59b0-469c-b070-5c6aa648ad29"},"vehicle_type_id":"4","last_reported":1769897544,"current_range_meters":4000,"station_id":"cpo36qri1sfpv3e86is0","pricing_plan_id":"cebpf4jnsgd1na2vs0mg"},{"bike_id":"8d7523bb-dce8-48a4-b80d-353c218352ae","system_id":"levelo_inurba_marseille","lat":43.30953,"lon":5.39046,"is_reserved":false,"is_disabled":false,"rental_uris":{"android":"levelo://app?vid=8d7523bb-dce8-48a4-b80d-353c218352ae","ios":"levelo://app?vid=8d7523bb-dce8-48a4-b80d-353c218352ae"},"vehicle_type_id":"4","last_reported":1769897544,"current_range_meters":4000,"station_id":"ce4bgup2rcd13ifvqco0","pricing_plan_id":"cebpf4jnsgd1na2vs0mg"},{"bike_id":"169e268b-5fcc-439a-85a8-5d0f835d65db","system_id":"levelo_inurba_marseille","lat":43.255,"lon":5.37663,"is_reserved":false,"is_disabled":false,"rental_uris":{"android":"levelo://app?vid=169e268b-5fcc-439a-85a8-5d0f835d65db","ios":"levelo://app?vid=169e268b-5fcc-439a-85a8-5d0f835d65db"},"vehicle_type_id":"4","last_reported":1769897544,"current_range_meters":4400,"station_id":"ce4bhh12rcd13ifvqff0","pricing_plan_id":"cebpf4jnsgd1na2vs0mg"},{"bike_id":"e0529776-2176-417f-8dfc-c2549a882463","system_id":"levelo_inurba_marseille","lat":43.28106,"lon":5.37856,"is_reserved":false,"is_disabled":false,"rental_uris":{"android":"levelo://app?vid=e0529776-2176-417f-8dfc-c2549a882463","ios":"levelo://app?vid=e0529776-2176-417f-8dfc-c2549a882463"},"vehicle_type_id":"4","last_reported":1769897544,"current_range_meters":4400,"station_id":"ce4bha12rcd13ifvqee0","pricing_plan_id":"cebpf4jnsgd1na2vs0mg"},{"bike_id":"9ea50bad-0329-4ce7-bb1b-0c14d81fc6e4","system_id":"levelo_inurba_marseille","lat":43.24672,"lon":5.43153,"is_reserved":false,"is_disabled":false,"rental_uris":{"android":"levelo://app?vid=9ea50bad-0329-4ce7-bb1b-0c14d81fc6e4","ios":"levelo://app?vid=9ea50bad-0329-4ce7-bb1b-0c14d81fc6e4"},"vehicle_type_id":"4","last_reported":1769897544,"current_range_meters":4400,"station_id":"st_d2m6c4gdas8pm72e190g","pricing_plan_id":"cebpf4jnsgd1na2vs0mg"},{"bike_id":"90717d58-a322-438b-926d-ee255aa382bf","system_id":"levelo_inurba_marseille","lat":43.23803,"lon":5.36634,"is_reserved":false,"is_disabled":false,"rental_uris":{"android":"levelo://app?vid=90717d58-a322-438b-926d-ee255aa382bf","ios":"levelo://app?vid=90717d58-a322-438b-926d-ee255aa382bf"},"vehicle_type_id":"4","last_reported":1769897544,"current_range_meters":4400,"station_id":"st_d3nk18o9ro0c73en2l3g","pricing_plan_id":"cebpf4jnsgd1na2vs0mg"},{"bike_id":"baf248f9-5742-46ff-b3e8-5fa5e1b7ff48","system_id":"levelo_inurba_marseille","lat":43.30245,"lon":5.40025,"is_reserved":false,"is_disabled":true,"rental_uris":{"android":"levelo://app?vid=baf248f9-5742-46ff-b3e8-5fa5e1b7ff48","ios":"levelo://app?vid=baf248f9-5742-46ff-b3e8-5fa5e1b7ff48"},"vehicle_type_id":"4","last_reported":1769897544,"current_range_meters":4400,"station_id":"","pricing_plan_id":"cebpf4jnsgd1na2vs0mg"},{"bike_id":"a633dcb8-69cc-416a-ac75-271c195c29ed","system_id":"levelo_inurba_marseille","lat":43.25528,"lon":5.37608,"is_reserved":false,"is_disabled":false,"rental_uris":{"android":"levelo://app?vid=a633dcb8-69cc-416a-ac75-271c195c29ed","ios":"levelo://app?vid=a633dcb8-69cc-416a-ac75-271c195c29ed"},"vehicle_type_id":"4","last_reported":1769897544,"current_range_meters":4400,"station_id":"ce4bhh12rcd13ifvqff0","pricing_plan_id":"cebpf4jnsgd1na2vs0mg"},{"bike_id":"57a24675-eacf-447b-b4d7-4910ab25f751","system_id":"levelo_inurba_marseille","lat":43.27393,"lon":5.36297,"is_reserved":false,"is_disabled":false,"rental_uris":{"android":"levelo://app?vid=57a24675-eacf-447b-b4d7-4910ab25f751","ios":"levelo://app?vid=57a24675-eacf-447b-b4d7-4910ab25f751"},"vehicle_type_id":"4","last_reported":1769897544,"current_range_meters":4400,"station_id":"ce4bhbh2rcd13ifvqeo0","pricing_plan_id":"cebpf4jnsgd1na2vs0mg"},{"bike_id":"69bd550d-bae4-47b4-8ea1-fdf2613d9cd6","system_id":"levelo_inurba_marseille","lat":43.239614,"lon":5.366411,"is_reserved":false,"is_disabled":false,"rental_uris":{"android":"levelo://app?vid=69bd550d-bae4-47b4-8ea1-fdf2613d9cd6","ios":"levelo://app?vid=69bd550d-bae4-47b4-8ea1-fdf2613d9cd6"},"vehicle_type_id":"4","last_reported":1769897544,"current_range_meters":4400,"station_id":"ce4bhi12rcd13ifvqfp0","pricing_plan_id":"cebpf4jnsgd1na2vs0mg"},{"bike_id":"abdf906c-1d02-4d03-a8b9-85b3b5a13392","system_id":"levelo_inurba_marseille","lat":43.31521,"lon":5.3726,"is_reserved":false,"is_disabled":false,"rental_uris":{"android":"levelo://app?vid=abdf906c-1d02-4d03-a8b9-85b3b5a13392","ios":"levelo://app?vid=abdf906c-1d02-4d03-a8b9-85b3b5a13392"},"vehicle_type_id":"4","last_reported":1769897544,"current_range_meters":4400,"station_id":"ce4bgt12rcd13ifvqcd0","pricing_plan_id":"cebpf4jnsgd1na2vs0mg"},{"bike_id":"da430813-1e4c-4d0a-b07d-976b86d0c6c6","system_id":"levelo_inurba_marseille","lat":43.25339,"lon":5.42178,"is_reserved":false,"is_disabled":false,"rental_uris":{"android":"levelo://app?vid=da430813-1e4c-4d0a-b07d-976b86d0c6c6","ios":"levelo://app?vid=da430813-1e4c-4d0a-b07d-976b86d0c6c6"},"vehicle_type_id":"4","last_reported":1769897544,"current_range_meters":4400,"station_id":"st_d2m65c5bi1j21697t3ng","pricing_plan_id":"cebpf4jnsgd1na2vs0mg"},{"bike_id":"daabb4b2-63e3-4bdd-84e8-1ee47954f299","system_id":"levelo_inurba_marseille","lat":43.3248,"lon":5.36583,"is_reserved":false,"is_disabled":false,"rental_uris":{"android":"levelo://app?vid=daabb4b2-63e3-4bdd-84e8-1ee47954f299","ios":"levelo://app?vid=daabb4b2-63e3-4bdd-84e8-1ee47954f299"},"vehicle_type_id":"4","last_reported":1769897544,"current_range_meters":4400,"station_id":"ce4bhs12rcd13ifvqhvg","pricing_plan_id":"cebpf4jnsgd1na2vs0mg"},{"bike_id":"0d5b16e7-e10f-4749-b6e0-dea831f5862f","system_id":"levelo_inurba_marseille","lat":43.23959,"lon":5.3663,"is_reserved":false,"is_disabled":false,"rental_uris":{"android":"levelo://app?vid=0d5b16e7-e10f-4749-b6e0-dea831f5862f","ios":"levelo://app?vid=0d5b16e7-e10f-4749-b6e0-dea831f5862f"},"vehicle_type_id":"4","last_reported":1769897544,"current_range_meters":4400,"station_id":"ce4bhi12rcd13ifvqfp0","pricing_plan_id":"cebpf4jnsgd1na2vs0mg"},{"bike_id":"a10fd5ac-f488-49bb-9865-a9b9fcb4d879","system_id":"levelo_inurba_marseille","lat":43.32386,"lon":5.37438,"is_reserved":false,"is_disabled":false,"rental_uris":{"android":"levelo://app?vid=a10fd5ac-f488-49bb-9865-a9b9fcb4d879","ios":"levelo://app?vid=a10fd5ac-f488-49bb-9865-a9b9fcb4d879"},"vehicle_type_id":"4","last_reported":1769897544,"current_range_meters":4800,"station_id":"","pricing_plan_id":"cebpf4jnsgd1na2vs0mg"},{"bike_id":"dabc9a84-d3b6-4f5a-bc3f-8c96f11325da","system_id":"levelo_inurba_marseille","lat":43.27076,"lon":5.40282,"is_reserved":false,"is_disabled":false,"rental_uris":{"android":"levelo://app?vid=dabc9a84-d3b6-4f5a-bc3f-8c96f11325da","ios":"levelo://app?vid=dabc9a84-d3b6-4f5a-bc3f-8c96f11325da"},"vehicle_type_id":"4","last_reported":1769897544,"current_range_meters":4800,"station_id":"ce4bhk92rcd13ifvqgc0","pricing_plan_id":"cebpf4jnsgd1na2vs0mg"},{"bike_id":"f955b312-f85f-4776-bb87-c1f9bceb8274","system_id":"levelo_inurba_marseille","lat":43.22555,"lon":5.41633,"is_reserved":false,"is_disabled":false,"rental_uris":{"android":"levelo://app?vid=f955b312-f85f-4776-bb87-c1f9bceb8274","ios":"levelo://app?vid=f955b312-f85f-4776-bb87-c1f9bceb8274"},"vehicle_type_id":"4","last_reported":1769897544,"current_range_meters":4800,"station_id":"st_d2o4gvlbi1j2169b742g","pricing_plan_id":"cebpf4jnsgd1na2vs0mg"},{"bike_id":"8d188f9d-fdcb-410f-afd4-c72876609968","system_id":"levelo_inurba_marseille","lat":43.2465,"lon":5.38893,"is_reserved":false,"is_disabled":false,"rental_uris":{"android":"levelo://app?vid=8d188f9d-fdcb-410f-afd4-c72876609968","ios":"levelo://app?vid=8d188f9d-fdcb-410f-afd4-c72876609968"},"vehicle_type_id":"4","last_reported":1769897544,"current_range_meters":4800,"station_id":"ce4bhg12rcd13ifvqf60","pricing_plan_id":"cebpf4jnsgd1na2vs0mg"},{"bike_id":"658afd91-c693-4dbc-8a13-2319a767c279","system_id":"levelo_inurba_marseille","lat":43.31274,"lon":5.3901,"is_reserved":false,"is_disabled":false,"rental_uris":{"android":"levelo://app?vid=658afd91-c693-4dbc-8a13-2319a767c279","ios":"levelo://app?vid=658afd91-c693-4dbc-8a13-2319a767c279"},"vehicle_type_id":"4","last_reported":1769897544,"current_range_meters":4800,"station_id":"","pricing_plan_id":"cebpf4jnsgd1na2vs0mg"},{"bike_id":"86c4b073-d2a1-4bc5-ba41-2d65e35e6bd4","system_id":"levelo_inurba_marseille","lat":43.3089,"lon":5.40136,"is_reserved":false,"is_disabled":false,"rental_uris":{"android":"levelo://app?vid=86c4b073-d2a1-4bc5-ba41-2d65e35e6bd4","ios":"levelo://app?vid=86c4b073-d2a1-4bc5-ba41-2d65e35e6bd4"},"vehicle_type_id":"4","last_reported":1769897544,"current_range_meters":4800,"station_id":"ce4bgvp2rcd13ifvqct0","pricing_plan_id":"cebpf4jnsgd1na2vs0mg"},{"bike_id":"2118e989-9bd5-4208-aef3-62860e5c21cf","system_id":"levelo_inurba_marseille","lat":43.29726,"lon":5.37698,"is_reserved":false,"is_disabled":false,"rental_uris":{"android":"levelo://app?vid=2118e989-9bd5-4208-aef3-62860e5c21cf","ios":"levelo://app?vid=2118e989-9bd5-4208-aef3-62860e5c21cf"},"vehicle_type_id":"4","last_reported":1769897544,"current_range_meters":4800,"station_id":"ce4bgkh2rcd13ifvqbl0","pricing_plan_id":"cebpf4jnsgd1na2vs0mg"},{"bike_id":"f99c0e56-a861-4817-a5cc-7aa9138a394f","system_id":"levelo_inurba_marseille","lat":43.27068,"lon":5.38275,"is_reserved":false,"is_disabled":false,"rental_uris":{"android":"levelo://app?vid=f99c0e56-a861-4817-a5cc-7aa9138a394f","ios":"levelo://app?vid=f99c0e56-a861-4817-a5cc-7aa9138a394f"},"vehicle_type_id":"4","last_reported":1769897544,"current_range_meters":5600,"station_id":"st_d3n2fo6cfp8s73cte1j0","pricing_plan_id":"cebpf4jnsgd1na2vs0mg"},{"bike_id":"55e12a44-5227-40a5-8cea-0722c92ca3fa","system_id":"levelo_inurba_marseille","lat":43.28617,"lon":5.35099,"is_reserved":false,"is_disabled":false,"rental_uris":{"android":"levelo://app?vid=55e12a44-5227-40a5-8cea-0722c92ca3fa","ios":"levelo://app?vid=55e12a44-5227-40a5-8cea-0722c92ca3fa"},"vehicle_type_id":"4","last_reported":1769897544,"current_range_meters":5600,"station_id":"ce4bhch2rcd13ifvqeug","pricing_plan_id":"cebpf4jnsgd1na2vs0mg"},{"bike_id":"4561b101-df9b-4a07-8c08-785ae7c91c29","system_id":"levelo_inurba_marseille","lat":43.30041,"lon":5.38396,"is_reserved":false,"is_disabled":false,"rental_uris":{"android":"levelo://app?vid=4561b101-df9b-4a07-8c08-785ae7c91c29","ios":"levelo://app?vid=4561b101-df9b-4a07-8c08-785ae7c91c29"},"vehicle_type_id":"4","last_reported":1769897544,"current_range_meters":5600,"station_id":"","pricing_plan_id":"cebpf4jnsgd1na2vs0mg"},{"bike_id":"02143fc1-15d6-4ae6-972c-c8f4025a62d9","system_id":"levelo_inurba_marseille","lat":43.23205,"lon":5.3558,"is_reserved":false,"is_disabled":false,"rental_uris":{"android":"levelo://app?vid=02143fc1-15d6-4ae6-972c-c8f4025a62d9","ios":"levelo://app?vid=02143fc1-15d6-4ae6-972c-c8f4025a62d9"},"vehicle_type_id":"4","last_reported":1769897544,"current_range_meters":5600,"station_id":"ce4bhu92rcd13ifvqi70","pricing_plan_id":"cebpf4jnsgd1na2vs0mg"},{"bike_id":"24463bdf-362a-44c7-a065-1582958089af","system_id":"levelo_inurba_marseille","lat":43.30229,"lon":5.39481,"is_reserved":false,"is_disabled":false,"rental_uris":{"android":"levelo://app?vid=24463bdf-362a-44c7-a065-1582958089af","ios":"levelo://app?vid=24463bdf-362a-44c7-a065-1582958089af"},"vehicle_type_id":"4","last_reported":1769897544,"current_range_meters":5600,"station_id":"ce4bh0p2rcd13ifvqd70","pricing_plan_id":"cebpf4jnsgd1na2vs0mg"},{"bike_id":"f4d6efa2-00bd-44bb-b3f9-95bebe7bedd2","system_id":"levelo_inurba_marseille","lat":43.30169,"lon":5.37945,"is_reserved":false,"is_disabled":false,"rental_uris":{"android":"levelo://app?vid=f4d6efa2-00bd-44bb-b3f9-95bebe7bedd2","ios":"levelo://app?vid=f4d6efa2-00bd-44bb-b3f9-95bebe7bedd2"},"vehicle_type_id":"4","last_reported":1769897544,"current_range_meters":5600,"station_id":"","pricing_plan_id":"cebpf4jnsgd1na2vs0mg"},{"bike_id":"66fbdd2d-d295-4a38-8223-be8014f40cff","system_id":"levelo_inurba_marseille","lat":43.29887,"lon":5.38899,"is_reserved":false,"is_disabled":false,"rental_uris":{"android":"levelo://app?vid=66fbdd2d-d295-4a38-8223-be8014f40cff","ios":"levelo://app?vid=66fbdd2d-d295-4a38-8223-be8014f40cff"},"vehicle_type_id":"4","last_reported":1769897544,"current_range_meters":5600,"station_id":"ce4bh392rcd13ifvqdl0","pricing_plan_id":"cebpf4jnsgd1na2vs0mg"},{"bike_id":"667f7189-0ff0-4468-a821-96f30d95245d","system_id":"levelo_inurba_marseille","lat":43.29911,"lon":5.43671,"is_reserved":false,"is_disabled":false,"rental_uris":{"android":"levelo://app?vid=667f7189-0ff0-4468-a821-96f30d95245d","ios":"levelo://app?vid=667f7189-0ff0-4468-a821-96f30d95245d"},"vehicle_type_id":"4","last_reported":1769897544,"current_range_meters":6000,"station_id":"ce4bhpp2rcd13ifvqhfg","pricing_plan_id":"cebpf4jnsgd1na2vs0mg"},{"bike_id":"7a4412cf-c498-4121-be46-049419c026d4","system_id":"levelo_inurba_marseille","lat":43.27937,"lon":5.4104,"is_reserved":false,"is_disabled":false,"rental_uris":{"android":"levelo://app?vid=7a4412cf-c498-4121-be46-049419c026d4","ios":"levelo://app?vid=7a4412cf-c498-4121-be46-049419c026d4"},"vehicle_type_id":"4","last_reported":1769897544,"current_range_meters":6000,"station_id":"ce4bhnp2rcd13ifvqh0g","pricing_plan_id":"cebpf4jnsgd1na2vs0mg"},{"bike_id":"880586ef-6fbd-48f3-a326-6ebac57e39cd","system_id":"levelo_inurba_marseille","lat":43.25568,"lon":5.37644,"is_reserved":false,"is_disabled":false,"rental_uris":{"android":"levelo://app?vid=880586ef-6fbd-48f3-a326-6ebac57e39cd","ios":"levelo://app?vid=880586ef-6fbd-48f3-a326-6ebac57e39cd"},"vehicle_type_id":"4","last_reported":1769897544,"current_range_meters":6000,"station_id":"","pricing_plan_id":"cebpf4jnsgd1na2vs0mg"},{"bike_id":"5590ef6a-cc59-43b0-8516-177f0b3902b5","system_id":"levelo_inurba_marseille","lat":43.31171,"lon":5.38717,"is_reserved":false,"is_disabled":false,"rental_uris":{"android":"levelo://app?vid=5590ef6a-cc59-43b0-8516-177f0b3902b5","ios":"levelo://app?vid=5590ef6a-cc59-43b0-8516-177f0b3902b5"},"vehicle_type_id":"4","last_reported":1769897544,"current_range_meters":6000,"station_id":"ce4bgv12rcd13ifvqcp0","pricing_plan_id":"cebpf4jnsgd1na2vs0mg"},{"bike_id":"0fa8fafe-2680-41a4-95b1-88881925a052","system_id":"levelo_inurba_marseille","lat":43.307338,"lon":5.424342,"is_reserved":false,"is_disabled":false,"rental_uris":{"android":"levelo://app?vid=0fa8fafe-2680-41a4-95b1-88881925a052","ios":"levelo://app?vid=0fa8fafe-2680-41a4-95b1-88881925a052"},"vehicle_type_id":"4","last_reported":1769897544,"current_range_meters":6000,"station_id":"st_cvj6ca6bvosntc0bfgr0","pricing_plan_id":"cebpf4jnsgd1na2vs0mg"},{"bike_id":"0b5940d7-1ca8-42d9-bb5c-cb53b6826b27","system_id":"levelo_inurba_marseille","lat":43.27983,"lon":5.3869,"is_reserved":false,"is_disabled":false,"rental_uris":{"android":"levelo://app?vid=0b5940d7-1ca8-42d9-bb5c-cb53b6826b27","ios":"levelo://app?vid=0b5940d7-1ca8-42d9-bb5c-cb53b6826b27"},"vehicle_type_id":"4","last_reported":1769897544,"current_range_meters":6000,"station_id":"ce4bhg12rcd13ifvqf80","pricing_plan_id":"cebpf4jnsgd1na2vs0mg"},{"bike_id":"0e04e9c5-b4f0-4cdb-beb2-46317c8e77e0","system_id":"levelo_inurba_marseille","lat":43.21741,"lon":5.34601,"is_reserved":false,"is_disabled":false,"rental_uris":{"android":"levelo://app?vid=0e04e9c5-b4f0-4cdb-beb2-46317c8e77e0","ios":"levelo://app?vid=0e04e9c5-b4f0-4cdb-beb2-46317c8e77e0"},"vehicle_type_id":"4","last_reported":1769897544,"current_range_meters":6000,"station_id":"st_cvj6r9ubvosntc0bgbag","pricing_plan_id":"cebpf4jnsgd1na2vs0mg"},{"bike_id":"e0a954d6-819c-4021-8d0c-f1ef581b8ddb","system_id":"levelo_inurba_marseille","lat":43.29301,"lon":5.38454,"is_reserved":false,"is_disabled":true,"rental_uris":{"android":"levelo://app?vid=e0a954d6-819c-4021-8d0c-f1ef581b8ddb","ios":"levelo://app?vid=e0a954d6-819c-4021-8d0c-f1ef581b8ddb"},"vehicle_type_id":"4","last_reported":1769897544,"current_range_meters":6000,"station_id":"ce4bh692rcd13ifvqea0","pricing_plan_id":"cebpf4jnsgd1na2vs0mg"},{"bike_id":"db89fefb-6011-4017-8d46-077ffa4c12c9","system_id":"levelo_inurba_marseille","lat":43.29655,"lon":5.366,"is_reserved":false,"is_disabled":false,"rental_uris":{"android":"levelo://app?vid=db89fefb-6011-4017-8d46-077ffa4c12c9","ios":"levelo://app?vid=db89fefb-6011-4017-8d46-077ffa4c12c9"},"vehicle_type_id":"4","last_reported":1769897544,"current_range_meters":6000,"station_id":"","pricing_plan_id":"cebpf4jnsgd1na2vs0mg"},{"bike_id":"7797dc2d-6e0b-483a-8264-6f6e91d913f9","system_id":"levelo_inurba_marseille","lat":43.28546,"lon":5.38469,"is_reserved":false,"is_disabled":false,"rental_uris":{"android":"levelo://app?vid=7797dc2d-6e0b-483a-8264-6f6e91d913f9","ios":"levelo://app?vid=7797dc2d-6e0b-483a-8264-6f6e91d913f9"},"vehicle_type_id":"4","last_reported":1769897544,"current_range_meters":6000,"station_id":"","pricing_plan_id":"cebpf4jnsgd1na2vs0mg"},{"bike_id":"18a9cd35-a391-4204-9862-934b42050b06","system_id":"levelo_inurba_marseille","lat":43.257194,"lon":5.411182,"is_reserved":false,"is_disabled":false,"rental_uris":{"android":"levelo://app?vid=18a9cd35-a391-4204-9862-934b42050b06","ios":"levelo://app?vid=18a9cd35-a391-4204-9862-934b42050b06"},"vehicle_type_id":"4","last_reported":1769897544,"current_range_meters":6000,"station_id":"ce4bhkp2rcd13ifvqgd0","pricing_plan_id":"cebpf4jnsgd1na2vs0mg"},{"bike_id":"4cad1348-59d5-4475-bf02-9720c9be6205","system_id":"levelo_inurba_marseille","lat":43.23978,"lon":5.36628,"is_reserved":false,"is_disabled":false,"rental_uris":{"android":"levelo://app?vid=4cad1348-59d5-4475-bf02-9720c9be6205","ios":"levelo://app?vid=4cad1348-59d5-4475-bf02-9720c9be6205"},"vehicle_type_id":"4","last_reported":1769897544,"current_range_meters":6000,"station_id":"ce4bhi12rcd13ifvqfp0","pricing_plan_id":"cebpf4jnsgd1na2vs0mg"},{"bike_id":"b559b272-5796-43b3-908a-ffbd6751cf49","system_id":"levelo_inurba_marseille","lat":43.2405,"lon":5.36728,"is_reserved":false,"is_disabled":false,"rental_uris":{"android":"levelo://app?vid=b559b272-5796-43b3-908a-ffbd6751cf49","ios":"levelo://app?vid=b559b272-5796-43b3-908a-ffbd6751cf49"},"vehicle_type_id":"4","last_reported":1769897544,"current_range_meters":6000,"station_id":"","pricing_plan_id":"cebpf4jnsgd1na2vs0mg"},{"bike_id":"e45ac16e-7b41-4cac-88f9-e1454c3aed56","system_id":"levelo_inurba_marseille","lat":43.28421,"lon":5.35005,"is_reserved":false,"is_disabled":false,"rental_uris":{"android":"levelo://app?vid=e45ac16e-7b41-4cac-88f9-e1454c3aed56","ios":"levelo://app?vid=e45ac16e-7b41-4cac-88f9-e1454c3aed56"},"vehicle_type_id":"4","last_reported":1769897544,"current_range_meters":6000,"station_id":"ce4bhbh2rcd13ifvqepg","pricing_plan_id":"cebpf4jnsgd1na2vs0mg"},{"bike_id":"e063da5b-4820-4962-b1c8-99eec874281e","system_id":"levelo_inurba_marseille","lat":43.23199,"lon":5.40002,"is_reserved":false,"is_disabled":true,"rental_uris":{"android":"levelo://app?vid=e063da5b-4820-4962-b1c8-99eec874281e","ios":"levelo://app?vid=e063da5b-4820-4962-b1c8-99eec874281e"},"vehicle_type_id":"4","last_reported":1769897544,"current_range_meters":6400,"station_id":"ce4bhn12rcd13ifvqgqg","pricing_plan_id":"cebpf4jnsgd1na2vs0mg"},{"bike_id":"93a91355-bf30-4000-bf05-ad7ea1e0e038","system_id":"levelo_inurba_marseille","lat":43.29308,"lon":5.37153,"is_reserved":false,"is_disabled":false,"rental_uris":{"android":"levelo://app?vid=93a91355-bf30-4000-bf05-ad7ea1e0e038","ios":"levelo://app?vid=93a91355-bf30-4000-bf05-ad7ea1e0e038"},"vehicle_type_id":"4","last_reported":1769897544,"current_range_meters":6400,"station_id":"ce4bgh92rcd13ifvqb40","pricing_plan_id":"cebpf4jnsgd1na2vs0mg"},{"bike_id":"6259a571-4c97-41bc-9e30-1f15710670c6","system_id":"levelo_inurba_marseille","lat":43.2468,"lon":5.40106,"is_reserved":false,"is_disabled":false,"rental_uris":{"android":"levelo://app?vid=6259a571-4c97-41bc-9e30-1f15710670c6","ios":"levelo://app?vid=6259a571-4c97-41bc-9e30-1f15710670c6"},"vehicle_type_id":"4","last_reported":1769897544,"current_range_meters":6400,"station_id":"","pricing_plan_id":"cebpf4jnsgd1na2vs0mg"},{"bike_id":"5abc080c-3e03-4e4f-a57b-7e52d2fdadbf","system_id":"levelo_inurba_marseille","lat":43.29263,"lon":5.37612,"is_reserved":false,"is_disabled":false,"rental_uris":{"android":"levelo://app?vid=5abc080c-3e03-4e4f-a57b-7e52d2fdadbf","ios":"levelo://app?vid=5abc080c-3e03-4e4f-a57b-7e52d2fdadbf"},"vehicle_type_id":"4","last_reported":1769897544,"current_range_meters":6400,"station_id":"ce4bgi12rcd13ifvqb80","pricing_plan_id":"cebpf4jnsgd1na2vs0mg"},{"bike_id":"fd0924a1-005f-4230-b4d1-6e8409283367","system_id":"levelo_inurba_marseille","lat":43.23074,"lon":5.35495,"is_reserved":false,"is_disabled":false,"rental_uris":{"android":"levelo://app?vid=fd0924a1-005f-4230-b4d1-6e8409283367","ios":"levelo://app?vid=fd0924a1-005f-4230-b4d1-6e8409283367"},"vehicle_type_id":"4","last_reported":1769897544,"current_range_meters":6400,"station_id":"cpo3342slgdg3j2ifvpg","pricing_plan_id":"cebpf4jnsgd1na2vs0mg"},{"bike_id":"e87070e1-26a1-4140-845f-8a9de8448f4c","system_id":"levelo_inurba_marseille","lat":43.29546,"lon":5.38553,"is_reserved":false,"is_disabled":false,"rental_uris":{"android":"levelo://app?vid=e87070e1-26a1-4140-845f-8a9de8448f4c","ios":"levelo://app?vid=e87070e1-26a1-4140-845f-8a9de8448f4c"},"vehicle_type_id":"4","last_reported":1769897544,"current_range_meters":6400,"station_id":"ce4bgih2rcd13ifvqba0","pricing_plan_id":"cebpf4jnsgd1na2vs0mg"},{"bike_id":"126f0f08-61cc-4a91-b5e4-336294f6c642","system_id":"levelo_inurba_marseille","lat":43.28409,"lon":5.34982,"is_reserved":false,"is_disabled":false,"rental_uris":{"android":"levelo://app?vid=126f0f08-61cc-4a91-b5e4-336294f6c642","ios":"levelo://app?vid=126f0f08-61cc-4a91-b5e4-336294f6c642"},"vehicle_type_id":"4","last_reported":1769897544,"current_range_meters":6400,"station_id":"ce4bhbh2rcd13ifvqepg","pricing_plan_id":"cebpf4jnsgd1na2vs0mg"},{"bike_id":"bec9adc5-b234-40d6-82a5-6fe45c0e1bd0","system_id":"levelo_inurba_marseille","lat":43.29817,"lon":5.441,"is_reserved":false,"is_disabled":false,"rental_uris":{"android":"levelo://app?vid=bec9adc5-b234-40d6-82a5-6fe45c0e1bd0","ios":"levelo://app?vid=bec9adc5-b234-40d6-82a5-6fe45c0e1bd0"},"vehicle_type_id":"4","last_reported":1769897544,"current_range_meters":6400,"station_id":"","pricing_plan_id":"cebpf4jnsgd1na2vs0mg"},{"bike_id":"1e6e9fcd-377f-4a83-a467-d5b81de873c8","system_id":"levelo_inurba_marseille","lat":43.28251,"lon":5.39081,"is_reserved":false,"is_disabled":false,"rental_uris":{"android":"levelo://app?vid=1e6e9fcd-377f-4a83-a467-d5b81de873c8","ios":"levelo://app?vid=1e6e9fcd-377f-4a83-a467-d5b81de873c8"},"vehicle_type_id":"4","last_reported":1769897544,"current_range_meters":6800,"station_id":"ce4bhn92rcd13ifvqgsg","pricing_plan_id":"cebpf4jnsgd1na2vs0mg"},{"bike_id":"22deb83d-56c8-4892-8f7a-fa7716b1b4e3","system_id":"levelo_inurba_marseille","lat":43.28463,"lon":5.35884,"is_reserved":false,"is_disabled":false,"rental_uris":{"android":"levelo://app?vid=22deb83d-56c8-4892-8f7a-fa7716b1b4e3","ios":"levelo://app?vid=22deb83d-56c8-4892-8f7a-fa7716b1b4e3"},"vehicle_type_id":"4","last_reported":1769897544,"current_range_meters":6800,"station_id":"ce4bhah2rcd13ifvqei0","pricing_plan_id":"cebpf4jnsgd1na2vs0mg"},{"bike_id":"a591b198-ffd8-42c1-96f8-07f7188eff82","system_id":"levelo_inurba_marseille","lat":43.25594,"lon":5.38249,"is_reserved":false,"is_disabled":false,"rental_uris":{"android":"levelo://app?vid=a591b198-ffd8-42c1-96f8-07f7188eff82","ios":"levelo://app?vid=a591b198-ffd8-42c1-96f8-07f7188eff82"},"vehicle_type_id":"4","last_reported":1769897544,"current_range_meters":6800,"station_id":"ce4bhih2rcd13ifvqfs0","pricing_plan_id":"cebpf4jnsgd1na2vs0mg"},{"bike_id":"1b187523-973b-43bd-a56f-a5d6c41d569b","system_id":"levelo_inurba_marseille","lat":43.29817,"lon":5.44072,"is_reserved":false,"is_disabled":false,"rental_uris":{"android":"levelo://app?vid=1b187523-973b-43bd-a56f-a5d6c41d569b","ios":"levelo://app?vid=1b187523-973b-43bd-a56f-a5d6c41d569b"},"vehicle_type_id":"4","last_reported":1769897544,"current_range_meters":6800,"station_id":"st_d3jp68qikq2c7381ktn0","pricing_plan_id":"cebpf4jnsgd1na2vs0mg"},{"bike_id":"51487434-2c5b-44ec-b6f1-b2d802fd5baf","system_id":"levelo_inurba_marseille","lat":43.295842,"lon":5.367472,"is_reserved":false,"is_disabled":false,"rental_uris":{"android":"levelo://app?vid=51487434-2c5b-44ec-b6f1-b2d802fd5baf","ios":"levelo://app?vid=51487434-2c5b-44ec-b6f1-b2d802fd5baf"},"vehicle_type_id":"4","last_reported":1769897544,"current_range_meters":6800,"station_id":"ce4bgph2rcd13ifvqc2g","pricing_plan_id":"cebpf4jnsgd1na2vs0mg"},{"bike_id":"318133aa-3b05-4452-b847-cf5a32021652","system_id":"levelo_inurba_marseille","lat":43.25106,"lon":5.39495,"is_reserved":false,"is_disabled":false,"rental_uris":{"android":"levelo://app?vid=318133aa-3b05-4452-b847-cf5a32021652","ios":"levelo://app?vid=318133aa-3b05-4452-b847-cf5a32021652"},"vehicle_type_id":"4","last_reported":1769897544,"current_range_meters":6800,"station_id":"ce4bhm12rcd13ifvqgkg","pricing_plan_id":"cebpf4jnsgd1na2vs0mg"},{"bike_id":"80e85d4a-6876-4a01-aa65-1d986fc27bc6","system_id":"levelo_inurba_marseille","lat":43.29279,"lon":5.38447,"is_reserved":false,"is_disabled":false,"rental_uris":{"android":"levelo://app?vid=80e85d4a-6876-4a01-aa65-1d986fc27bc6","ios":"levelo://app?vid=80e85d4a-6876-4a01-aa65-1d986fc27bc6"},"vehicle_type_id":"4","last_reported":1769897544,"current_range_meters":6800,"station_id":"ce4bh692rcd13ifvqea0","pricing_plan_id":"cebpf4jnsgd1na2vs0mg"},{"bike_id":"a4c4467a-de4f-4b56-8893-ebacb492a7a6","system_id":"levelo_inurba_marseille","lat":43.25346,"lon":5.42179,"is_reserved":false,"is_disabled":false,"rental_uris":{"android":"levelo://app?vid=a4c4467a-de4f-4b56-8893-ebacb492a7a6","ios":"levelo://app?vid=a4c4467a-de4f-4b56-8893-ebacb492a7a6"},"vehicle_type_id":"4","last_reported":1769897544,"current_range_meters":6800,"station_id":"st_d2m65c5bi1j21697t3ng","pricing_plan_id":"cebpf4jnsgd1na2vs0mg"},{"bike_id":"77619699-b354-480e-91d4-1d10d13baf79","system_id":"levelo_inurba_marseille","lat":43.30896,"lon":5.39638,"is_reserved":false,"is_disabled":false,"rental_uris":{"android":"levelo://app?vid=77619699-b354-480e-91d4-1d10d13baf79","ios":"levelo://app?vid=77619699-b354-480e-91d4-1d10d13baf79"},"vehicle_type_id":"4","last_reported":1769897544,"current_range_meters":6800,"station_id":"ce4bh012rcd13ifvqcv0","pricing_plan_id":"cebpf4jnsgd1na2vs0mg"},{"bike_id":"eae001be-3b34-469f-b5f5-7615da95a4ed","system_id":"levelo_inurba_marseille","lat":43.27823,"lon":5.40698,"is_reserved":false,"is_disabled":false,"rental_uris":{"android":"levelo://app?vid=eae001be-3b34-469f-b5f5-7615da95a4ed","ios":"levelo://app?vid=eae001be-3b34-469f-b5f5-7615da95a4ed"},"vehicle_type_id":"4","last_reported":1769897544,"current_range_meters":7200,"station_id":"ce4bhnh2rcd13ifvqgtg","pricing_plan_id":"cebpf4jnsgd1na2vs0mg"},{"bike_id":"9b0b72ce-8292-47cd-b165-f4a28fe1cfff","system_id":"levelo_inurba_marseille","lat":43.28519,"lon":5.38503,"is_reserved":false,"is_disabled":true,"rental_uris":{"android":"levelo://app?vid=9b0b72ce-8292-47cd-b165-f4a28fe1cfff","ios":"levelo://app?vid=9b0b72ce-8292-47cd-b165-f4a28fe1cfff"},"vehicle_type_id":"4","last_reported":1769897544,"current_range_meters":7200,"station_id":"ce4bh8p2rcd13ifvqeb0","pricing_plan_id":"cebpf4jnsgd1na2vs0mg"},{"bike_id":"097d3826-f1ab-4ba6-b835-18323d7ef4d7","system_id":"levelo_inurba_marseille","lat":43.24565,"lon":5.39518,"is_reserved":false,"is_disabled":false,"rental_uris":{"android":"levelo://app?vid=097d3826-f1ab-4ba6-b835-18323d7ef4d7","ios":"levelo://app?vid=097d3826-f1ab-4ba6-b835-18323d7ef4d7"},"vehicle_type_id":"4","last_reported":1769897544,"current_range_meters":7200,"station_id":"ce4bhlp2rcd13ifvqgjg","pricing_plan_id":"cebpf4jnsgd1na2vs0mg"},{"bike_id":"a8f57f70-acfc-420e-90e9-80b5fb4e7a51","system_id":"levelo_inurba_marseille","lat":43.29622,"lon":5.37167,"is_reserved":false,"is_disabled":false,"rental_uris":{"android":"levelo://app?vid=a8f57f70-acfc-420e-90e9-80b5fb4e7a51","ios":"levelo://app?vid=a8f57f70-acfc-420e-90e9-80b5fb4e7a51"},"vehicle_type_id":"4","last_reported":1769897544,"current_range_meters":7200,"station_id":"ce4bgnh2rcd13ifvqc0g","pricing_plan_id":"cebpf4jnsgd1na2vs0mg"},{"bike_id":"9378c7cb-4c3a-475f-ba28-80a4781f7ffa","system_id":"levelo_inurba_marseille","lat":43.29756,"lon":5.42783,"is_reserved":false,"is_disabled":false,"rental_uris":{"android":"levelo://app?vid=9378c7cb-4c3a-475f-ba28-80a4781f7ffa","ios":"levelo://app?vid=9378c7cb-4c3a-475f-ba28-80a4781f7ffa"},"vehicle_type_id":"4","last_reported":1769897544,"current_range_meters":7200,"station_id":"st_d3md5207bmas73dh9klg","pricing_plan_id":"cebpf4jnsgd1na2vs0mg"},{"bike_id":"055d8d39-c891-472e-8a0d-a9ee39d8b8c7","system_id":"levelo_inurba_marseille","lat":43.33156,"lon":5.37688,"is_reserved":false,"is_disabled":true,"rental_uris":{"android":"levelo://app?vid=055d8d39-c891-472e-8a0d-a9ee39d8b8c7","ios":"levelo://app?vid=055d8d39-c891-472e-8a0d-a9ee39d8b8c7"},"vehicle_type_id":"4","last_reported":1769897544,"current_range_meters":7200,"station_id":"st_d46cu089ee8s73dldbu0","pricing_plan_id":"cebpf4jnsgd1na2vs0mg"},{"bike_id":"b27a0d4f-f345-47b9-b9a8-196c40313931","system_id":"levelo_inurba_marseille","lat":43.28423,"lon":5.34993,"is_reserved":false,"is_disabled":false,"rental_uris":{"android":"levelo://app?vid=b27a0d4f-f345-47b9-b9a8-196c40313931","ios":"levelo://app?vid=b27a0d4f-f345-47b9-b9a8-196c40313931"},"vehicle_type_id":"4","last_reported":1769897544,"current_range_meters":7200,"station_id":"ce4bhbh2rcd13ifvqepg","pricing_plan_id":"cebpf4jnsgd1na2vs0mg"},{"bike_id":"b0381d5e-d46d-42e8-8ed1-5261cc8eee88","system_id":"levelo_inurba_marseille","lat":43.29047,"lon":5.38645,"is_reserved":false,"is_disabled":false,"rental_uris":{"android":"levelo://app?vid=b0381d5e-d46d-42e8-8ed1-5261cc8eee88","ios":"levelo://app?vid=b0381d5e-d46d-42e8-8ed1-5261cc8eee88"},"vehicle_type_id":"4","last_reported":1769897544,"current_range_meters":7200,"station_id":"ce4bh4p2rcd13ifvqe0g","pricing_plan_id":"cebpf4jnsgd1na2vs0mg"},{"bike_id":"18d24a81-9b0c-4bd9-9c2a-fb9012b51e00","system_id":"levelo_inurba_marseille","lat":43.29289,"lon":5.37177,"is_reserved":false,"is_disabled":false,"rental_uris":{"android":"levelo://app?vid=18d24a81-9b0c-4bd9-9c2a-fb9012b51e00","ios":"levelo://app?vid=18d24a81-9b0c-4bd9-9c2a-fb9012b51e00"},"vehicle_type_id":"4","last_reported":1769897544,"current_range_meters":7200,"station_id":"ce4bgh92rcd13ifvqb40","pricing_plan_id":"cebpf4jnsgd1na2vs0mg"},{"bike_id":"a5d15d36-7335-4138-81e7-7fb19eee922a","system_id":"levelo_inurba_marseille","lat":43.28852,"lon":5.393249,"is_reserved":false,"is_disabled":false,"rental_uris":{"android":"levelo://app?vid=a5d15d36-7335-4138-81e7-7fb19eee922a","ios":"levelo://app?vid=a5d15d36-7335-4138-81e7-7fb19eee922a"},"vehicle_type_id":"4","last_reported":1769897544,"current_range_meters":7200,"station_id":"ce4bh2p2rcd13ifvqdi0","pricing_plan_id":"cebpf4jnsgd1na2vs0mg"},{"bike_id":"d4d18011-2bf0-4a2b-a896-7a5c21af3b9d","system_id":"levelo_inurba_marseille","lat":43.28487,"lon":5.48383,"is_reserved":false,"is_disabled":false,"rental_uris":{"android":"levelo://app?vid=d4d18011-2bf0-4a2b-a896-7a5c21af3b9d","ios":"levelo://app?vid=d4d18011-2bf0-4a2b-a896-7a5c21af3b9d"},"vehicle_type_id":"4","last_reported":1769897544,"current_range_meters":7200,"station_id":"st_d3svhcjqgbts73a3dn0g","pricing_plan_id":"cebpf4jnsgd1na2vs0mg"},{"bike_id":"835e3868-2bda-4ef1-bc28-793075d336af","system_id":"levelo_inurba_marseille","lat":43.33165,"lon":5.37681,"is_reserved":false,"is_disabled":false,"rental_uris":{"android":"levelo://app?vid=835e3868-2bda-4ef1-bc28-793075d336af","ios":"levelo://app?vid=835e3868-2bda-4ef1-bc28-793075d336af"},"vehicle_type_id":"4","last_reported":1769897544,"current_range_meters":7200,"station_id":"st_d46cu089ee8s73dldbu0","pricing_plan_id":"cebpf4jnsgd1na2vs0mg"},{"bike_id":"1a97e377-0881-49ff-8152-6d006ac9f409","system_id":"levelo_inurba_marseille","lat":43.29265,"lon":5.38448,"is_reserved":false,"is_disabled":false,"rental_uris":{"android":"levelo://app?vid=1a97e377-0881-49ff-8152-6d006ac9f409","ios":"levelo://app?vid=1a97e377-0881-49ff-8152-6d006ac9f409"},"vehicle_type_id":"4","last_reported":1769897544,"current_range_meters":7200,"station_id":"ce4bh692rcd13ifvqea0","pricing_plan_id":"cebpf4jnsgd1na2vs0mg"},{"bike_id":"90e2df5d-b699-4b05-8f44-5befba4f3919","system_id":"levelo_inurba_marseille","lat":43.28724,"lon":5.36093,"is_reserved":false,"is_disabled":false,"rental_uris":{"android":"levelo://app?vid=90e2df5d-b699-4b05-8f44-5befba4f3919","ios":"levelo://app?vid=90e2df5d-b699-4b05-8f44-5befba4f3919"},"vehicle_type_id":"4","last_reported":1769897544,"current_range_meters":7200,"station_id":"cki0cbj6b192h4jlfktg","pricing_plan_id":"cebpf4jnsgd1na2vs0mg"},{"bike_id":"5be20501-8e04-4673-9119-891aadf1acc1","system_id":"levelo_inurba_marseille","lat":43.28518,"lon":5.484,"is_reserved":false,"is_disabled":false,"rental_uris":{"android":"levelo://app?vid=5be20501-8e04-4673-9119-891aadf1acc1","ios":"levelo://app?vid=5be20501-8e04-4673-9119-891aadf1acc1"},"vehicle_type_id":"4","last_reported":1769897544,"current_range_meters":7200,"station_id":"st_d3svhcjqgbts73a3dn0g","pricing_plan_id":"cebpf4jnsgd1na2vs0mg"},{"bike_id":"1f7b8b6d-e79f-4d5a-80ba-1168600653c7","system_id":"levelo_inurba_marseille","lat":43.23201,"lon":5.35546,"is_reserved":false,"is_disabled":false,"rental_uris":{"android":"levelo://app?vid=1f7b8b6d-e79f-4d5a-80ba-1168600653c7","ios":"levelo://app?vid=1f7b8b6d-e79f-4d5a-80ba-1168600653c7"},"vehicle_type_id":"4","last_reported":1769897544,"current_range_meters":7200,"station_id":"ce4bhu92rcd13ifvqi70","pricing_plan_id":"cebpf4jnsgd1na2vs0mg"},{"bike_id":"0e681b67-3fdf-40b6-b942-590e1536d0c5","system_id":"levelo_inurba_marseille","lat":43.24409,"lon":5.37088,"is_reserved":false,"is_disabled":false,"rental_uris":{"android":"levelo://app?vid=0e681b67-3fdf-40b6-b942-590e1536d0c5","ios":"levelo://app?vid=0e681b67-3fdf-40b6-b942-590e1536d0c5"},"vehicle_type_id":"4","last_reported":1769897544,"current_range_meters":7200,"station_id":"ce4bhhh2rcd13ifvqfk0","pricing_plan_id":"cebpf4jnsgd1na2vs0mg"},{"bike_id":"d5e67bfe-03c5-4643-9903-6eac267b87da","system_id":"levelo_inurba_marseille","lat":43.24012,"lon":5.37838,"is_reserved":false,"is_disabled":false,"rental_uris":{"android":"levelo://app?vid=d5e67bfe-03c5-4643-9903-6eac267b87da","ios":"levelo://app?vid=d5e67bfe-03c5-4643-9903-6eac267b87da"},"vehicle_type_id":"4","last_reported":1769897544,"current_range_meters":7200,"station_id":"","pricing_plan_id":"cebpf4jnsgd1na2vs0mg"},{"bike_id":"ab27f336-3751-4243-9a7b-b039f20fb5e9","system_id":"levelo_inurba_marseille","lat":43.284871,"lon":5.390483,"is_reserved":false,"is_disabled":false,"rental_uris":{"android":"levelo://app?vid=ab27f336-3751-4243-9a7b-b039f20fb5e9","ios":"levelo://app?vid=ab27f336-3751-4243-9a7b-b039f20fb5e9"},"vehicle_type_id":"4","last_reported":1769897544,"current_range_meters":7200,"station_id":"ce4bhnp2rcd13ifvqh0g","pricing_plan_id":"cebpf4jnsgd1na2vs0mg"},{"bike_id":"0cea18e1-7804-464d-aed3-57a22381afa0","system_id":"levelo_inurba_marseille","lat":43.29875,"lon":5.39732,"is_reserved":false,"is_disabled":false,"rental_uris":{"android":"levelo://app?vid=0cea18e1-7804-464d-aed3-57a22381afa0","ios":"levelo://app?vid=0cea18e1-7804-464d-aed3-57a22381afa0"},"vehicle_type_id":"4","last_reported":1769897544,"current_range_meters":8000,"station_id":"ce4bh0h2rcd13ifvqd50","pricing_plan_id":"cebpf4jnsgd1na2vs0mg"},{"bike_id":"e66c0050-63ae-4842-902f-7ed4f4ed8737","system_id":"levelo_inurba_marseille","lat":43.225563,"lon":5.416244,"is_reserved":false,"is_disabled":false,"rental_uris":{"android":"levelo://app?vid=e66c0050-63ae-4842-902f-7ed4f4ed8737","ios":"levelo://app?vid=e66c0050-63ae-4842-902f-7ed4f4ed8737"},"vehicle_type_id":"4","last_reported":1769897544,"current_range_meters":8000,"station_id":"st_d2o4gvlbi1j2169b742g","pricing_plan_id":"cebpf4jnsgd1na2vs0mg"},{"bike_id":"91b963cd-8dda-4d61-bf3b-55460be209e3","system_id":"levelo_inurba_marseille","lat":43.29612,"lon":5.38111,"is_reserved":false,"is_disabled":false,"rental_uris":{"android":"levelo://app?vid=91b963cd-8dda-4d61-bf3b-55460be209e3","ios":"levelo://app?vid=91b963cd-8dda-4d61-bf3b-55460be209e3"},"vehicle_type_id":"4","last_reported":1769897544,"current_range_meters":8000,"station_id":"ce4bgl12rcd13ifvqbo0","pricing_plan_id":"cebpf4jnsgd1na2vs0mg"},{"bike_id":"1b262235-a4c8-42b2-9b62-c37b9e14300f","system_id":"levelo_inurba_marseille","lat":43.27811,"lon":5.40724,"is_reserved":false,"is_disabled":false,"rental_uris":{"android":"levelo://app?vid=1b262235-a4c8-42b2-9b62-c37b9e14300f","ios":"levelo://app?vid=1b262235-a4c8-42b2-9b62-c37b9e14300f"},"vehicle_type_id":"4","last_reported":1769897544,"current_range_meters":8000,"station_id":"ce4bhnh2rcd13ifvqgtg","pricing_plan_id":"cebpf4jnsgd1na2vs0mg"},{"bike_id":"4ae21097-68ff-4a44-bcb7-3e142e11d517","system_id":"levelo_inurba_marseille","lat":43.24182,"lon":5.36408,"is_reserved":false,"is_disabled":false,"rental_uris":{"android":"levelo://app?vid=4ae21097-68ff-4a44-bcb7-3e142e11d517","ios":"levelo://app?vid=4ae21097-68ff-4a44-bcb7-3e142e11d517"},"vehicle_type_id":"4","last_reported":1769897544,"current_range_meters":8000,"station_id":"cpo36qri1sfpv3e86is0","pricing_plan_id":"cebpf4jnsgd1na2vs0mg"},{"bike_id":"272c4cb9-cbc3-4191-aad4-33313dcfb218","system_id":"levelo_inurba_marseille","lat":43.30238,"lon":5.38082,"is_reserved":false,"is_disabled":false,"rental_uris":{"android":"levelo://app?vid=272c4cb9-cbc3-4191-aad4-33313dcfb218","ios":"levelo://app?vid=272c4cb9-cbc3-4191-aad4-33313dcfb218"},"vehicle_type_id":"4","last_reported":1769897544,"current_range_meters":8000,"station_id":"","pricing_plan_id":"cebpf4jnsgd1na2vs0mg"},{"bike_id":"7e4d0348-c090-4100-bdfd-53d3c76acb31","system_id":"levelo_inurba_marseille","lat":43.24816,"lon":5.37465,"is_reserved":false,"is_disabled":false,"rental_uris":{"android":"levelo://app?vid=7e4d0348-c090-4100-bdfd-53d3c76acb31","ios":"levelo://app?vid=7e4d0348-c090-4100-bdfd-53d3c76acb31"},"vehicle_type_id":"4","last_reported":1769897544,"current_range_meters":8000,"station_id":"ce4bhgh2rcd13ifvqfb0","pricing_plan_id":"cebpf4jnsgd1na2vs0mg"},{"bike_id":"7725ea14-335e-4d54-91ac-40d50e39e00e","system_id":"levelo_inurba_marseille","lat":43.23185,"lon":5.39994,"is_reserved":false,"is_disabled":false,"rental_uris":{"android":"levelo://app?vid=7725ea14-335e-4d54-91ac-40d50e39e00e","ios":"levelo://app?vid=7725ea14-335e-4d54-91ac-40d50e39e00e"},"vehicle_type_id":"4","last_reported":1769897544,"current_range_meters":8000,"station_id":"ce4bhn12rcd13ifvqgqg","pricing_plan_id":"cebpf4jnsgd1na2vs0mg"},{"bike_id":"ea996b6a-e4df-4475-a81a-600ad94271b6","system_id":"levelo_inurba_marseille","lat":43.302831,"lon":5.397931,"is_reserved":false,"is_disabled":false,"rental_uris":{"android":"levelo://app?vid=ea996b6a-e4df-4475-a81a-600ad94271b6","ios":"levelo://app?vid=ea996b6a-e4df-4475-a81a-600ad94271b6"},"vehicle_type_id":"4","last_reported":1769897544,"current_range_meters":8000,"station_id":"","pricing_plan_id":"cebpf4jnsgd1na2vs0mg"},{"bike_id":"bcd58453-c6d3-458d-8c23-f0e115fa2945","system_id":"levelo_inurba_marseille","lat":43.28864,"lon":5.4251,"is_reserved":false,"is_disabled":false,"rental_uris":{"android":"levelo://app?vid=bcd58453-c6d3-458d-8c23-f0e115fa2945","ios":"levelo://app?vid=bcd58453-c6d3-458d-8c23-f0e115fa2945"},"vehicle_type_id":"4","last_reported":1769897544,"current_range_meters":8000,"station_id":"st_d3b462108ojc7389ooeg","pricing_plan_id":"cebpf4jnsgd1na2vs0mg"},{"bike_id":"3a9d9d6b-764f-4558-a4a3-5611921af6a1","system_id":"levelo_inurba_marseille","lat":43.27954,"lon":5.41048,"is_reserved":false,"is_disabled":false,"rental_uris":{"android":"levelo://app?vid=3a9d9d6b-764f-4558-a4a3-5611921af6a1","ios":"levelo://app?vid=3a9d9d6b-764f-4558-a4a3-5611921af6a1"},"vehicle_type_id":"4","last_reported":1769897544,"current_range_meters":8000,"station_id":"ce4bhnp2rcd13ifvqh0g","pricing_plan_id":"cebpf4jnsgd1na2vs0mg"},{"bike_id":"7cf56b5d-4513-486d-9216-3f938f14c405","system_id":"levelo_inurba_marseille","lat":43.243948,"lon":5.370691,"is_reserved":false,"is_disabled":false,"rental_uris":{"android":"levelo://app?vid=7cf56b5d-4513-486d-9216-3f938f14c405","ios":"levelo://app?vid=7cf56b5d-4513-486d-9216-3f938f14c405"},"vehicle_type_id":"4","last_reported":1769897544,"current_range_meters":8000,"station_id":"ce4bhhh2rcd13ifvqfk0","pricing_plan_id":"cebpf4jnsgd1na2vs0mg"},{"bike_id":"0ab8e9dc-7dd0-48e8-954b-0ec31f90f154","system_id":"levelo_inurba_marseille","lat":43.292656,"lon":5.384395,"is_reserved":false,"is_disabled":false,"rental_uris":{"android":"levelo://app?vid=0ab8e9dc-7dd0-48e8-954b-0ec31f90f154","ios":"levelo://app?vid=0ab8e9dc-7dd0-48e8-954b-0ec31f90f154"},"vehicle_type_id":"4","last_reported":1769897544,"current_range_meters":8000,"station_id":"ce4bhoh2rcd13ifvqh5g","pricing_plan_id":"cebpf4jnsgd1na2vs0mg"},{"bike_id":"9a51c59d-9df1-4272-bf8a-962f7f317a04","system_id":"levelo_inurba_marseille","lat":43.25489,"lon":5.37641,"is_reserved":false,"is_disabled":false,"rental_uris":{"android":"levelo://app?vid=9a51c59d-9df1-4272-bf8a-962f7f317a04","ios":"levelo://app?vid=9a51c59d-9df1-4272-bf8a-962f7f317a04"},"vehicle_type_id":"4","last_reported":1769897544,"current_range_meters":8000,"station_id":"ce4bhh12rcd13ifvqff0","pricing_plan_id":"cebpf4jnsgd1na2vs0mg"},{"bike_id":"8a25a112-bffb-4bc9-b86f-e44087c71e58","system_id":"levelo_inurba_marseille","lat":43.28242,"lon":5.39084,"is_reserved":false,"is_disabled":false,"rental_uris":{"android":"levelo://app?vid=8a25a112-bffb-4bc9-b86f-e44087c71e58","ios":"levelo://app?vid=8a25a112-bffb-4bc9-b86f-e44087c71e58"},"vehicle_type_id":"4","last_reported":1769897544,"current_range_meters":8000,"station_id":"ce4bhn92rcd13ifvqgsg","pricing_plan_id":"cebpf4jnsgd1na2vs0mg"},{"bike_id":"e2bce0e5-c739-4939-9e60-5d1a18c005a4","system_id":"levelo_inurba_marseille","lat":43.27955,"lon":5.41052,"is_reserved":false,"is_disabled":false,"rental_uris":{"android":"levelo://app?vid=e2bce0e5-c739-4939-9e60-5d1a18c005a4","ios":"levelo://app?vid=e2bce0e5-c739-4939-9e60-5d1a18c005a4"},"vehicle_type_id":"4","last_reported":1769897544,"current_range_meters":8000,"station_id":"","pricing_plan_id":"cebpf4jnsgd1na2vs0mg"},{"bike_id":"74856cd2-f709-469e-b628-27ee18812e7c","system_id":"levelo_inurba_marseille","lat":43.281542,"lon":5.426345,"is_reserved":false,"is_disabled":false,"rental_uris":{"android":"levelo://app?vid=74856cd2-f709-469e-b628-27ee18812e7c","ios":"levelo://app?vid=74856cd2-f709-469e-b628-27ee18812e7c"},"vehicle_type_id":"4","last_reported":1769897544,"current_range_meters":8000,"station_id":"ce4bhnh2rcd13ifvqgug","pricing_plan_id":"cebpf4jnsgd1na2vs0mg"},{"bike_id":"ed8ccf73-5784-4f14-8e66-4eb80bb8e4be","system_id":"levelo_inurba_marseille","lat":43.31227,"lon":5.36845,"is_reserved":false,"is_disabled":false,"rental_uris":{"android":"levelo://app?vid=ed8ccf73-5784-4f14-8e66-4eb80bb8e4be","ios":"levelo://app?vid=ed8ccf73-5784-4f14-8e66-4eb80bb8e4be"},"vehicle_type_id":"4","last_reported":1769897544,"current_range_meters":8000,"station_id":"ce4bgl92rcd13ifvqbq0","pricing_plan_id":"cebpf4jnsgd1na2vs0mg"},{"bike_id":"d3215a18-ac25-47b2-bc57-dcaef897eb36","system_id":"levelo_inurba_marseille","lat":43.31389,"lon":5.38581,"is_reserved":false,"is_disabled":false,"rental_uris":{"android":"levelo://app?vid=d3215a18-ac25-47b2-bc57-dcaef897eb36","ios":"levelo://app?vid=d3215a18-ac25-47b2-bc57-dcaef897eb36"},"vehicle_type_id":"4","last_reported":1769897544,"current_range_meters":8400,"station_id":"","pricing_plan_id":"cebpf4jnsgd1na2vs0mg"},{"bike_id":"a0f4c4d9-b17d-4551-87f4-b3e192df9153","system_id":"levelo_inurba_marseille","lat":43.23038,"lon":5.35484,"is_reserved":false,"is_disabled":false,"rental_uris":{"android":"levelo://app?vid=a0f4c4d9-b17d-4551-87f4-b3e192df9153","ios":"levelo://app?vid=a0f4c4d9-b17d-4551-87f4-b3e192df9153"},"vehicle_type_id":"4","last_reported":1769897544,"current_range_meters":8400,"station_id":"cpo3342slgdg3j2ifvpg","pricing_plan_id":"cebpf4jnsgd1na2vs0mg"},{"bike_id":"1cdce8d3-c523-4d89-8d8b-802fa91e5cb7","system_id":"levelo_inurba_marseille","lat":43.29935,"lon":5.36552,"is_reserved":false,"is_disabled":false,"rental_uris":{"android":"levelo://app?vid=1cdce8d3-c523-4d89-8d8b-802fa91e5cb7","ios":"levelo://app?vid=1cdce8d3-c523-4d89-8d8b-802fa91e5cb7"},"vehicle_type_id":"4","last_reported":1769897544,"current_range_meters":8400,"station_id":"ce4bgm92rcd13ifvqbr0","pricing_plan_id":"cebpf4jnsgd1na2vs0mg"},{"bike_id":"fb793f9e-27c8-4aa6-9e5b-d172f980944b","system_id":"levelo_inurba_marseille","lat":43.27953,"lon":5.41045,"is_reserved":false,"is_disabled":true,"rental_uris":{"android":"levelo://app?vid=fb793f9e-27c8-4aa6-9e5b-d172f980944b","ios":"levelo://app?vid=fb793f9e-27c8-4aa6-9e5b-d172f980944b"},"vehicle_type_id":"4","last_reported":1769897544,"current_range_meters":8400,"station_id":"ce4bhnp2rcd13ifvqh0g","pricing_plan_id":"cebpf4jnsgd1na2vs0mg"},{"bike_id":"12a2fd95-d1c0-4783-819e-a2120934d51e","system_id":"levelo_inurba_marseille","lat":43.23959,"lon":5.36634,"is_reserved":false,"is_disabled":false,"rental_uris":{"android":"levelo://app?vid=12a2fd95-d1c0-4783-819e-a2120934d51e","ios":"levelo://app?vid=12a2fd95-d1c0-4783-819e-a2120934d51e"},"vehicle_type_id":"4","last_reported":1769897544,"current_range_meters":8400,"station_id":"ce4bhi12rcd13ifvqfp0","pricing_plan_id":"cebpf4jnsgd1na2vs0mg"},{"bike_id":"f47b5364-d86e-414e-a4d7-612bcf40da53","system_id":"levelo_inurba_marseille","lat":43.24173,"lon":5.36413,"is_reserved":false,"is_disabled":false,"rental_uris":{"android":"levelo://app?vid=f47b5364-d86e-414e-a4d7-612bcf40da53","ios":"levelo://app?vid=f47b5364-d86e-414e-a4d7-612bcf40da53"},"vehicle_type_id":"4","last_reported":1769897544,"current_range_meters":8400,"station_id":"cpo36qri1sfpv3e86is0","pricing_plan_id":"cebpf4jnsgd1na2vs0mg"},{"bike_id":"d0765df0-cc90-4cba-8b79-61ce95080b49","system_id":"levelo_inurba_marseille","lat":43.22574,"lon":5.4166,"is_reserved":false,"is_disabled":false,"rental_uris":{"android":"levelo://app?vid=d0765df0-cc90-4cba-8b79-61ce95080b49","ios":"levelo://app?vid=d0765df0-cc90-4cba-8b79-61ce95080b49"},"vehicle_type_id":"4","last_reported":1769897544,"current_range_meters":8400,"station_id":"st_d2o4gvlbi1j2169b742g","pricing_plan_id":"cebpf4jnsgd1na2vs0mg"},{"bike_id":"38b77181-b3ce-4754-b533-7792bcc3267e","system_id":"levelo_inurba_marseille","lat":43.27386,"lon":5.36271,"is_reserved":false,"is_disabled":false,"rental_uris":{"android":"levelo://app?vid=38b77181-b3ce-4754-b533-7792bcc3267e","ios":"levelo://app?vid=38b77181-b3ce-4754-b533-7792bcc3267e"},"vehicle_type_id":"4","last_reported":1769897544,"current_range_meters":8400,"station_id":"ce4bhbh2rcd13ifvqeo0","pricing_plan_id":"cebpf4jnsgd1na2vs0mg"},{"bike_id":"16fde6d1-f51a-48e7-a728-f69430b0136e","system_id":"levelo_inurba_marseille","lat":43.24393,"lon":5.37069,"is_reserved":false,"is_disabled":false,"rental_uris":{"android":"levelo://app?vid=16fde6d1-f51a-48e7-a728-f69430b0136e","ios":"levelo://app?vid=16fde6d1-f51a-48e7-a728-f69430b0136e"},"vehicle_type_id":"4","last_reported":1769897544,"current_range_meters":8400,"station_id":"ce4bhhh2rcd13ifvqfk0","pricing_plan_id":"cebpf4jnsgd1na2vs0mg"},{"bike_id":"fd887aca-98e1-464f-84ac-e7817b808a75","system_id":"levelo_inurba_marseille","lat":43.24392,"lon":5.37066,"is_reserved":false,"is_disabled":false,"rental_uris":{"android":"levelo://app?vid=fd887aca-98e1-464f-84ac-e7817b808a75","ios":"levelo://app?vid=fd887aca-98e1-464f-84ac-e7817b808a75"},"vehicle_type_id":"4","last_reported":1769897544,"current_range_meters":8400,"station_id":"ce4bhhh2rcd13ifvqfk0","pricing_plan_id":"cebpf4jnsgd1na2vs0mg"},{"bike_id":"27727500-371c-4c0f-9936-b3e5d218633e","system_id":"levelo_inurba_marseille","lat":43.25492,"lon":5.37641,"is_reserved":false,"is_disabled":false,"rental_uris":{"android":"levelo://app?vid=27727500-371c-4c0f-9936-b3e5d218633e","ios":"levelo://app?vid=27727500-371c-4c0f-9936-b3e5d218633e"},"vehicle_type_id":"4","last_reported":1769897544,"current_range_meters":8400,"station_id":"ce4bhh12rcd13ifvqff0","pricing_plan_id":"cebpf4jnsgd1na2vs0mg"},{"bike_id":"6e03fe2f-50a3-47c4-a420-c4e2641b5dd0","system_id":"levelo_inurba_marseille","lat":43.29542,"lon":5.38557,"is_reserved":false,"is_disabled":false,"rental_uris":{"android":"levelo://app?vid=6e03fe2f-50a3-47c4-a420-c4e2641b5dd0","ios":"levelo://app?vid=6e03fe2f-50a3-47c4-a420-c4e2641b5dd0"},"vehicle_type_id":"4","last_reported":1769897544,"current_range_meters":8400,"station_id":"ce4bgih2rcd13ifvqba0","pricing_plan_id":"cebpf4jnsgd1na2vs0mg"},{"bike_id":"b6aa1398-594b-4b16-935f-0f4d91531fa6","system_id":"levelo_inurba_marseille","lat":43.30284,"lon":5.37228,"is_reserved":false,"is_disabled":false,"rental_uris":{"android":"levelo://app?vid=b6aa1398-594b-4b16-935f-0f4d91531fa6","ios":"levelo://app?vid=b6aa1398-594b-4b16-935f-0f4d91531fa6"},"vehicle_type_id":"4","last_reported":1769897544,"current_range_meters":8400,"station_id":"","pricing_plan_id":"cebpf4jnsgd1na2vs0mg"},{"bike_id":"26bd2557-3046-4212-82fc-da1fdbd42b2c","system_id":"levelo_inurba_marseille","lat":43.337444,"lon":5.374475,"is_reserved":false,"is_disabled":false,"rental_uris":{"android":"levelo://app?vid=26bd2557-3046-4212-82fc-da1fdbd42b2c","ios":"levelo://app?vid=26bd2557-3046-4212-82fc-da1fdbd42b2c"},"vehicle_type_id":"4","last_reported":1769897544,"current_range_meters":8400,"station_id":"","pricing_plan_id":"cebpf4jnsgd1na2vs0mg"},{"bike_id":"06377c5b-0730-4581-b84f-2d4582a84835","system_id":"levelo_inurba_marseille","lat":43.29253,"lon":5.38458,"is_reserved":false,"is_disabled":false,"rental_uris":{"android":"levelo://app?vid=06377c5b-0730-4581-b84f-2d4582a84835","ios":"levelo://app?vid=06377c5b-0730-4581-b84f-2d4582a84835"},"vehicle_type_id":"4","last_reported":1769897544,"current_range_meters":8400,"station_id":"ce4bh692rcd13ifvqea0","pricing_plan_id":"cebpf4jnsgd1na2vs0mg"},{"bike_id":"f74d4c3d-96e9-4afd-9bc9-921171cd5c0f","system_id":"levelo_inurba_marseille","lat":43.27813,"lon":5.40718,"is_reserved":false,"is_disabled":false,"rental_uris":{"android":"levelo://app?vid=f74d4c3d-96e9-4afd-9bc9-921171cd5c0f","ios":"levelo://app?vid=f74d4c3d-96e9-4afd-9bc9-921171cd5c0f"},"vehicle_type_id":"4","last_reported":1769897544,"current_range_meters":8400,"station_id":"ce4bhnh2rcd13ifvqgtg","pricing_plan_id":"cebpf4jnsgd1na2vs0mg"},{"bike_id":"b03ab5a4-d3c5-450c-91d5-d39ab6afb4e3","system_id":"levelo_inurba_marseille","lat":43.287,"lon":5.37387,"is_reserved":false,"is_disabled":false,"rental_uris":{"android":"levelo://app?vid=b03ab5a4-d3c5-450c-91d5-d39ab6afb4e3","ios":"levelo://app?vid=b03ab5a4-d3c5-450c-91d5-d39ab6afb4e3"},"vehicle_type_id":"4","last_reported":1769897544,"current_range_meters":8400,"station_id":"ce4bh3p2rcd13ifvqdq0","pricing_plan_id":"cebpf4jnsgd1na2vs0mg"},{"bike_id":"984d051a-47d7-4d6c-a90c-41b0aa8855bb","system_id":"levelo_inurba_marseille","lat":43.32464,"lon":5.36612,"is_reserved":false,"is_disabled":false,"rental_uris":{"android":"levelo://app?vid=984d051a-47d7-4d6c-a90c-41b0aa8855bb","ios":"levelo://app?vid=984d051a-47d7-4d6c-a90c-41b0aa8855bb"},"vehicle_type_id":"4","last_reported":1769897544,"current_range_meters":8400,"station_id":"ce4bhs12rcd13ifvqhvg","pricing_plan_id":"cebpf4jnsgd1na2vs0mg"},{"bike_id":"837f081a-e646-4c00-93df-f959748be000","system_id":"levelo_inurba_marseille","lat":43.24693,"lon":5.38163,"is_reserved":false,"is_disabled":false,"rental_uris":{"android":"levelo://app?vid=837f081a-e646-4c00-93df-f959748be000","ios":"levelo://app?vid=837f081a-e646-4c00-93df-f959748be000"},"vehicle_type_id":"4","last_reported":1769897544,"current_range_meters":8400,"station_id":"ce4bhih2rcd13ifvqfr0","pricing_plan_id":"cebpf4jnsgd1na2vs0mg"},{"bike_id":"7bd46305-b209-4807-8a44-605f196b92c2","system_id":"levelo_inurba_marseille","lat":43.2843,"lon":5.37521,"is_reserved":false,"is_disabled":false,"rental_uris":{"android":"levelo://app?vid=7bd46305-b209-4807-8a44-605f196b92c2","ios":"levelo://app?vid=7bd46305-b209-4807-8a44-605f196b92c2"},"vehicle_type_id":"4","last_reported":1769897544,"current_range_meters":8800,"station_id":"ce4bh412rcd13ifvqds0","pricing_plan_id":"cebpf4jnsgd1na2vs0mg"},{"bike_id":"5b4c0c7a-c0c9-4273-96c2-faded5f9cc26","system_id":"levelo_inurba_marseille","lat":43.27956,"lon":5.41039,"is_reserved":false,"is_disabled":false,"rental_uris":{"android":"levelo://app?vid=5b4c0c7a-c0c9-4273-96c2-faded5f9cc26","ios":"levelo://app?vid=5b4c0c7a-c0c9-4273-96c2-faded5f9cc26"},"vehicle_type_id":"4","last_reported":1769897544,"current_range_meters":8800,"station_id":"ce4bhnp2rcd13ifvqh0g","pricing_plan_id":"cebpf4jnsgd1na2vs0mg"},{"bike_id":"cbfde2d3-df0a-49db-93c4-81c5397a2860","system_id":"levelo_inurba_marseille","lat":43.29513,"lon":5.38002,"is_reserved":false,"is_disabled":false,"rental_uris":{"android":"levelo://app?vid=cbfde2d3-df0a-49db-93c4-81c5397a2860","ios":"levelo://app?vid=cbfde2d3-df0a-49db-93c4-81c5397a2860"},"vehicle_type_id":"4","last_reported":1769897544,"current_range_meters":8800,"station_id":"","pricing_plan_id":"cebpf4jnsgd1na2vs0mg"},{"bike_id":"667a8115-c025-4bf7-9ff4-f5acd84dd723","system_id":"levelo_inurba_marseille","lat":43.29807,"lon":5.44057,"is_reserved":false,"is_disabled":false,"rental_uris":{"android":"levelo://app?vid=667a8115-c025-4bf7-9ff4-f5acd84dd723","ios":"levelo://app?vid=667a8115-c025-4bf7-9ff4-f5acd84dd723"},"vehicle_type_id":"4","last_reported":1769897544,"current_range_meters":8800,"station_id":"st_d3jp68qikq2c7381ktn0","pricing_plan_id":"cebpf4jnsgd1na2vs0mg"},{"bike_id":"cda423b0-114c-4365-aeb1-89fb80c8de39","system_id":"levelo_inurba_marseille","lat":43.24808,"lon":5.37461,"is_reserved":false,"is_disabled":false,"rental_uris":{"android":"levelo://app?vid=cda423b0-114c-4365-aeb1-89fb80c8de39","ios":"levelo://app?vid=cda423b0-114c-4365-aeb1-89fb80c8de39"},"vehicle_type_id":"4","last_reported":1769897544,"current_range_meters":8800,"station_id":"ce4bhgh2rcd13ifvqfb0","pricing_plan_id":"cebpf4jnsgd1na2vs0mg"},{"bike_id":"8999d26c-420d-4d01-819b-5bed6ba174a6","system_id":"levelo_inurba_marseille","lat":43.29899,"lon":5.38384,"is_reserved":false,"is_disabled":false,"rental_uris":{"android":"levelo://app?vid=8999d26c-420d-4d01-819b-5bed6ba174a6","ios":"levelo://app?vid=8999d26c-420d-4d01-819b-5bed6ba174a6"},"vehicle_type_id":"4","last_reported":1769897544,"current_range_meters":8800,"station_id":"","pricing_plan_id":"cebpf4jnsgd1na2vs0mg"},{"bike_id":"9c85555e-ecc5-4b77-9721-4173af578739","system_id":"levelo_inurba_marseille","lat":43.32104,"lon":5.3677,"is_reserved":false,"is_disabled":false,"rental_uris":{"android":"levelo://app?vid=9c85555e-ecc5-4b77-9721-4173af578739","ios":"levelo://app?vid=9c85555e-ecc5-4b77-9721-4173af578739"},"vehicle_type_id":"4","last_reported":1769897544,"current_range_meters":8800,"station_id":"ce4bhrh2rcd13ifvqhug","pricing_plan_id":"cebpf4jnsgd1na2vs0mg"},{"bike_id":"f63ad825-b273-458f-bf2e-2ef630e3fede","system_id":"levelo_inurba_marseille","lat":43.22557,"lon":5.41629,"is_reserved":false,"is_disabled":false,"rental_uris":{"android":"levelo://app?vid=f63ad825-b273-458f-bf2e-2ef630e3fede","ios":"levelo://app?vid=f63ad825-b273-458f-bf2e-2ef630e3fede"},"vehicle_type_id":"4","last_reported":1769897544,"current_range_meters":8800,"station_id":"st_d2o4gvlbi1j2169b742g","pricing_plan_id":"cebpf4jnsgd1na2vs0mg"},{"bike_id":"1b85baa8-054d-452c-96ac-e14de5f87229","system_id":"levelo_inurba_marseille","lat":43.26615,"lon":5.40399,"is_reserved":false,"is_disabled":false,"rental_uris":{"android":"levelo://app?vid=1b85baa8-054d-452c-96ac-e14de5f87229","ios":"levelo://app?vid=1b85baa8-054d-452c-96ac-e14de5f87229"},"vehicle_type_id":"4","last_reported":1769897544,"current_range_meters":8800,"station_id":"","pricing_plan_id":"cebpf4jnsgd1na2vs0mg"},{"bike_id":"04fa0867-8282-4879-9030-93444fcd234b","system_id":"levelo_inurba_marseille","lat":43.29958,"lon":5.38496,"is_reserved":false,"is_disabled":false,"rental_uris":{"android":"levelo://app?vid=04fa0867-8282-4879-9030-93444fcd234b","ios":"levelo://app?vid=04fa0867-8282-4879-9030-93444fcd234b"},"vehicle_type_id":"4","last_reported":1769897544,"current_range_meters":8800,"station_id":"ce4bgj92rcd13ifvqbd0","pricing_plan_id":"cebpf4jnsgd1na2vs0mg"},{"bike_id":"d93f14c7-2352-47e6-8667-ef12cf410128","system_id":"levelo_inurba_marseille","lat":43.31162,"lon":5.38712,"is_reserved":false,"is_disabled":false,"rental_uris":{"android":"levelo://app?vid=d93f14c7-2352-47e6-8667-ef12cf410128","ios":"levelo://app?vid=d93f14c7-2352-47e6-8667-ef12cf410128"},"vehicle_type_id":"4","last_reported":1769897544,"current_range_meters":8800,"station_id":"ce4bgv12rcd13ifvqcp0","pricing_plan_id":"cebpf4jnsgd1na2vs0mg"},{"bike_id":"f973d1ec-f118-4c4f-8306-b65dfb7e2f13","system_id":"levelo_inurba_marseille","lat":43.28429,"lon":5.38993,"is_reserved":false,"is_disabled":false,"rental_uris":{"android":"levelo://app?vid=f973d1ec-f118-4c4f-8306-b65dfb7e2f13","ios":"levelo://app?vid=f973d1ec-f118-4c4f-8306-b65dfb7e2f13"},"vehicle_type_id":"4","last_reported":1769897544,"current_range_meters":8800,"station_id":"","pricing_plan_id":"cebpf4jnsgd1na2vs0mg"},{"bike_id":"15b4783f-966c-4f97-8878-41f925f60737","system_id":"levelo_inurba_marseille","lat":43.30203,"lon":5.39476,"is_reserved":false,"is_disabled":false,"rental_uris":{"android":"levelo://app?vid=15b4783f-966c-4f97-8878-41f925f60737","ios":"levelo://app?vid=15b4783f-966c-4f97-8878-41f925f60737"},"vehicle_type_id":"4","last_reported":1769897544,"current_range_meters":8800,"station_id":"ce4bh0p2rcd13ifvqd70","pricing_plan_id":"cebpf4jnsgd1na2vs0mg"},{"bike_id":"2c9d9ec4-87d2-4a0f-9375-615bf9c41c46","system_id":"levelo_inurba_marseille","lat":43.261928,"lon":5.374558,"is_reserved":false,"is_disabled":false,"rental_uris":{"android":"levelo://app?vid=2c9d9ec4-87d2-4a0f-9375-615bf9c41c46","ios":"levelo://app?vid=2c9d9ec4-87d2-4a0f-9375-615bf9c41c46"},"vehicle_type_id":"4","last_reported":1769897544,"current_range_meters":8800,"station_id":"ce4bhgp2rcd13ifvqfc0","pricing_plan_id":"cebpf4jnsgd1na2vs0mg"},{"bike_id":"767dc731-f365-45e9-b7a0-0144ed9ff9a5","system_id":"levelo_inurba_marseille","lat":43.31178,"lon":5.36879,"is_reserved":false,"is_disabled":false,"rental_uris":{"android":"levelo://app?vid=767dc731-f365-45e9-b7a0-0144ed9ff9a5","ios":"levelo://app?vid=767dc731-f365-45e9-b7a0-0144ed9ff9a5"},"vehicle_type_id":"4","last_reported":1769897544,"current_range_meters":8800,"station_id":"","pricing_plan_id":"cebpf4jnsgd1na2vs0mg"},{"bike_id":"be49d0c5-9745-420f-a05d-5f3504bec438","system_id":"levelo_inurba_marseille","lat":43.291,"lon":5.37181,"is_reserved":false,"is_disabled":false,"rental_uris":{"android":"levelo://app?vid=be49d0c5-9745-420f-a05d-5f3504bec438","ios":"levelo://app?vid=be49d0c5-9745-420f-a05d-5f3504bec438"},"vehicle_type_id":"4","last_reported":1769897544,"current_range_meters":8800,"station_id":"ce4bh5p2rcd13ifvqe4g","pricing_plan_id":"cebpf4jnsgd1na2vs0mg"},{"bike_id":"1b66b988-980e-4a67-85f9-95de820b03bb","system_id":"levelo_inurba_marseille","lat":43.3108,"lon":5.38339,"is_reserved":false,"is_disabled":false,"rental_uris":{"android":"levelo://app?vid=1b66b988-980e-4a67-85f9-95de820b03bb","ios":"levelo://app?vid=1b66b988-980e-4a67-85f9-95de820b03bb"},"vehicle_type_id":"4","last_reported":1769897544,"current_range_meters":8800,"station_id":"ce4bgv92rcd13ifvqcr0","pricing_plan_id":"cebpf4jnsgd1na2vs0mg"},{"bike_id":"fdd2fa3c-e616-4a70-8908-7dce39319097","system_id":"levelo_inurba_marseille","lat":43.3107,"lon":5.38352,"is_reserved":false,"is_disabled":false,"rental_uris":{"android":"levelo://app?vid=fdd2fa3c-e616-4a70-8908-7dce39319097","ios":"levelo://app?vid=fdd2fa3c-e616-4a70-8908-7dce39319097"},"vehicle_type_id":"4","last_reported":1769897544,"current_range_meters":8800,"station_id":"ce4bgv92rcd13ifvqcr0","pricing_plan_id":"cebpf4jnsgd1na2vs0mg"},{"bike_id":"9c2cc992-186a-4b4e-a8c4-2416ec14609e","system_id":"levelo_inurba_marseille","lat":43.25874,"lon":5.39914,"is_reserved":false,"is_disabled":false,"rental_uris":{"android":"levelo://app?vid=9c2cc992-186a-4b4e-a8c4-2416ec14609e","ios":"levelo://app?vid=9c2cc992-186a-4b4e-a8c4-2416ec14609e"},"vehicle_type_id":"4","last_reported":1769897544,"current_range_meters":8800,"station_id":"ce4bhl92rcd13ifvqghg","pricing_plan_id":"cebpf4jnsgd1na2vs0mg"},{"bike_id":"282b4c58-6430-4481-adf2-6fc926d2a7c4","system_id":"levelo_inurba_marseille","lat":43.23195,"lon":5.3556,"is_reserved":false,"is_disabled":false,"rental_uris":{"android":"levelo://app?vid=282b4c58-6430-4481-adf2-6fc926d2a7c4","ios":"levelo://app?vid=282b4c58-6430-4481-adf2-6fc926d2a7c4"},"vehicle_type_id":"4","last_reported":1769897544,"current_range_meters":8800,"station_id":"ce4bhu92rcd13ifvqi70","pricing_plan_id":"cebpf4jnsgd1na2vs0mg"},{"bike_id":"16ff074f-bc01-46e6-afd4-16d11e14e883","system_id":"levelo_inurba_marseille","lat":43.30602,"lon":5.37229,"is_reserved":false,"is_disabled":false,"rental_uris":{"android":"levelo://app?vid=16ff074f-bc01-46e6-afd4-16d11e14e883","ios":"levelo://app?vid=16ff074f-bc01-46e6-afd4-16d11e14e883"},"vehicle_type_id":"4","last_reported":1769897544,"current_range_meters":8800,"station_id":"ce4bgqh2rcd13ifvqc4g","pricing_plan_id":"cebpf4jnsgd1na2vs0mg"},{"bike_id":"17f7a6ee-3ea2-47b2-a6b2-af428a254ad3","system_id":"levelo_inurba_marseille","lat":43.28625,"lon":5.35114,"is_reserved":false,"is_disabled":false,"rental_uris":{"android":"levelo://app?vid=17f7a6ee-3ea2-47b2-a6b2-af428a254ad3","ios":"levelo://app?vid=17f7a6ee-3ea2-47b2-a6b2-af428a254ad3"},"vehicle_type_id":"4","last_reported":1769897544,"current_range_meters":8800,"station_id":"ce4bhch2rcd13ifvqeug","pricing_plan_id":"cebpf4jnsgd1na2vs0mg"},{"bike_id":"0b595329-88a5-4dab-8a2c-b70bbda22e84","system_id":"levelo_inurba_marseille","lat":43.27962,"lon":5.41037,"is_reserved":false,"is_disabled":false,"rental_uris":{"android":"levelo://app?vid=0b595329-88a5-4dab-8a2c-b70bbda22e84","ios":"levelo://app?vid=0b595329-88a5-4dab-8a2c-b70bbda22e84"},"vehicle_type_id":"4","last_reported":1769897544,"current_range_meters":8800,"station_id":"ce4bhnp2rcd13ifvqh0g","pricing_plan_id":"cebpf4jnsgd1na2vs0mg"},{"bike_id":"fb24d3d1-fd60-4775-b723-157c13e8fff0","system_id":"levelo_inurba_marseille","lat":43.2552,"lon":5.37652,"is_reserved":false,"is_disabled":false,"rental_uris":{"android":"levelo://app?vid=fb24d3d1-fd60-4775-b723-157c13e8fff0","ios":"levelo://app?vid=fb24d3d1-fd60-4775-b723-157c13e8fff0"},"vehicle_type_id":"4","last_reported":1769897544,"current_range_meters":8800,"station_id":"ce4bhh12rcd13ifvqff0","pricing_plan_id":"cebpf4jnsgd1na2vs0mg"},{"bike_id":"75e7e0f4-e18b-4bc3-90c8-b9bce55601cb","system_id":"levelo_inurba_marseille","lat":43.25351,"lon":5.42162,"is_reserved":false,"is_disabled":false,"rental_uris":{"android":"levelo://app?vid=75e7e0f4-e18b-4bc3-90c8-b9bce55601cb","ios":"levelo://app?vid=75e7e0f4-e18b-4bc3-90c8-b9bce55601cb"},"vehicle_type_id":"4","last_reported":1769897544,"current_range_meters":8800,"station_id":"st_d2m65c5bi1j21697t3ng","pricing_plan_id":"cebpf4jnsgd1na2vs0mg"},{"bike_id":"ee39f90f-3222-4732-9961-b784c72f0999","system_id":"levelo_inurba_marseille","lat":43.23198,"lon":5.35546,"is_reserved":false,"is_disabled":false,"rental_uris":{"android":"levelo://app?vid=ee39f90f-3222-4732-9961-b784c72f0999","ios":"levelo://app?vid=ee39f90f-3222-4732-9961-b784c72f0999"},"vehicle_type_id":"4","last_reported":1769897544,"current_range_meters":8800,"station_id":"ce4bhu92rcd13ifvqi70","pricing_plan_id":"cebpf4jnsgd1na2vs0mg"},{"bike_id":"04da1df6-4b42-4515-bc71-2524c0008b6a","system_id":"levelo_inurba_marseille","lat":43.27447,"lon":5.43613,"is_reserved":false,"is_disabled":false,"rental_uris":{"android":"levelo://app?vid=04da1df6-4b42-4515-bc71-2524c0008b6a","ios":"levelo://app?vid=04da1df6-4b42-4515-bc71-2524c0008b6a"},"vehicle_type_id":"4","last_reported":1769897544,"current_range_meters":9200,"station_id":"","pricing_plan_id":"cebpf4jnsgd1na2vs0mg"},{"bike_id":"0a1300ad-2f14-46b7-8956-d36a4a430b42","system_id":"levelo_inurba_marseille","lat":43.24804,"lon":5.37447,"is_reserved":false,"is_disabled":false,"rental_uris":{"android":"levelo://app?vid=0a1300ad-2f14-46b7-8956-d36a4a430b42","ios":"levelo://app?vid=0a1300ad-2f14-46b7-8956-d36a4a430b42"},"vehicle_type_id":"4","last_reported":1769897544,"current_range_meters":9200,"station_id":"ce4bhgh2rcd13ifvqfb0","pricing_plan_id":"cebpf4jnsgd1na2vs0mg"},{"bike_id":"6b68bd06-02fc-46d3-a60c-06258ba9ca62","system_id":"levelo_inurba_marseille","lat":43.29533,"lon":5.3905,"is_reserved":false,"is_disabled":false,"rental_uris":{"android":"levelo://app?vid=6b68bd06-02fc-46d3-a60c-06258ba9ca62","ios":"levelo://app?vid=6b68bd06-02fc-46d3-a60c-06258ba9ca62"},"vehicle_type_id":"4","last_reported":1769897544,"current_range_meters":9200,"station_id":"ce4bh3p2rcd13ifvqdp0","pricing_plan_id":"cebpf4jnsgd1na2vs0mg"},{"bike_id":"3471e8e7-8da3-45e0-a561-cdc2e5b04adf","system_id":"levelo_inurba_marseille","lat":43.24666,"lon":5.43136,"is_reserved":false,"is_disabled":false,"rental_uris":{"android":"levelo://app?vid=3471e8e7-8da3-45e0-a561-cdc2e5b04adf","ios":"levelo://app?vid=3471e8e7-8da3-45e0-a561-cdc2e5b04adf"},"vehicle_type_id":"4","last_reported":1769897544,"current_range_meters":9200,"station_id":"st_d2m6c4gdas8pm72e190g","pricing_plan_id":"cebpf4jnsgd1na2vs0mg"},{"bike_id":"3609c2a4-1b5f-4ae5-b441-bc3b23fde7e3","system_id":"levelo_inurba_marseille","lat":43.29208,"lon":5.37166,"is_reserved":false,"is_disabled":false,"rental_uris":{"android":"levelo://app?vid=3609c2a4-1b5f-4ae5-b441-bc3b23fde7e3","ios":"levelo://app?vid=3609c2a4-1b5f-4ae5-b441-bc3b23fde7e3"},"vehicle_type_id":"4","last_reported":1769897544,"current_range_meters":9200,"station_id":"ce4bha92rcd13ifvqeh0","pricing_plan_id":"cebpf4jnsgd1na2vs0mg"},{"bike_id":"0541ad53-c1bf-4cf5-876b-2a19fe47b261","system_id":"levelo_inurba_marseille","lat":43.32121,"lon":5.36817,"is_reserved":false,"is_disabled":false,"rental_uris":{"android":"levelo://app?vid=0541ad53-c1bf-4cf5-876b-2a19fe47b261","ios":"levelo://app?vid=0541ad53-c1bf-4cf5-876b-2a19fe47b261"},"vehicle_type_id":"4","last_reported":1769897544,"current_range_meters":9200,"station_id":"ce4bhrh2rcd13ifvqhug","pricing_plan_id":"cebpf4jnsgd1na2vs0mg"},{"bike_id":"cb7d77c4-8fb9-48d0-9202-244484fbc72e","system_id":"levelo_inurba_marseille","lat":43.29805,"lon":5.38087,"is_reserved":false,"is_disabled":false,"rental_uris":{"android":"levelo://app?vid=cb7d77c4-8fb9-48d0-9202-244484fbc72e","ios":"levelo://app?vid=cb7d77c4-8fb9-48d0-9202-244484fbc72e"},"vehicle_type_id":"4","last_reported":1769897544,"current_range_meters":9200,"station_id":"ce4bgip2rcd13ifvqbb0","pricing_plan_id":"cebpf4jnsgd1na2vs0mg"},{"bike_id":"7296b1cd-b884-46fd-9da9-7b4b58614661","system_id":"levelo_inurba_marseille","lat":43.32364,"lon":5.36746,"is_reserved":false,"is_disabled":false,"rental_uris":{"android":"levelo://app?vid=7296b1cd-b884-46fd-9da9-7b4b58614661","ios":"levelo://app?vid=7296b1cd-b884-46fd-9da9-7b4b58614661"},"vehicle_type_id":"4","last_reported":1769897544,"current_range_meters":9200,"station_id":"ce4bhsh2rcd13ifvqi2g","pricing_plan_id":"cebpf4jnsgd1na2vs0mg"},{"bike_id":"89da0557-2c6e-4998-90ca-afc2b5a8c88d","system_id":"levelo_inurba_marseille","lat":43.27957,"lon":5.41057,"is_reserved":false,"is_disabled":false,"rental_uris":{"android":"levelo://app?vid=89da0557-2c6e-4998-90ca-afc2b5a8c88d","ios":"levelo://app?vid=89da0557-2c6e-4998-90ca-afc2b5a8c88d"},"vehicle_type_id":"4","last_reported":1769897544,"current_range_meters":9200,"station_id":"ce4bhnp2rcd13ifvqh0g","pricing_plan_id":"cebpf4jnsgd1na2vs0mg"},{"bike_id":"d8ae7e69-6981-441e-ba5f-a9c08108182c","system_id":"levelo_inurba_marseille","lat":43.25499,"lon":5.37686,"is_reserved":false,"is_disabled":false,"rental_uris":{"android":"levelo://app?vid=d8ae7e69-6981-441e-ba5f-a9c08108182c","ios":"levelo://app?vid=d8ae7e69-6981-441e-ba5f-a9c08108182c"},"vehicle_type_id":"4","last_reported":1769897544,"current_range_meters":9200,"station_id":"ce4bhh12rcd13ifvqff0","pricing_plan_id":"cebpf4jnsgd1na2vs0mg"},{"bike_id":"967e1832-468e-48d4-b164-1bb5ff385d3e","system_id":"levelo_inurba_marseille","lat":43.24645,"lon":5.43138,"is_reserved":false,"is_disabled":false,"rental_uris":{"android":"levelo://app?vid=967e1832-468e-48d4-b164-1bb5ff385d3e","ios":"levelo://app?vid=967e1832-468e-48d4-b164-1bb5ff385d3e"},"vehicle_type_id":"4","last_reported":1769897544,"current_range_meters":9200,"station_id":"st_d2m6c4gdas8pm72e190g","pricing_plan_id":"cebpf4jnsgd1na2vs0mg"},{"bike_id":"b4fbeb64-1fb9-4178-ae15-4108561043c9","system_id":"levelo_inurba_marseille","lat":43.24642,"lon":5.38914,"is_reserved":false,"is_disabled":false,"rental_uris":{"android":"levelo://app?vid=b4fbeb64-1fb9-4178-ae15-4108561043c9","ios":"levelo://app?vid=b4fbeb64-1fb9-4178-ae15-4108561043c9"},"vehicle_type_id":"4","last_reported":1769897544,"current_range_meters":9600,"station_id":"ce4bhg12rcd13ifvqf60","pricing_plan_id":"cebpf4jnsgd1na2vs0mg"},{"bike_id":"87a354e2-aacd-4ec9-ade6-6f6c8860ce28","system_id":"levelo_inurba_marseille","lat":43.28025,"lon":5.3692,"is_reserved":false,"is_disabled":false,"rental_uris":{"android":"levelo://app?vid=87a354e2-aacd-4ec9-ade6-6f6c8860ce28","ios":"levelo://app?vid=87a354e2-aacd-4ec9-ade6-6f6c8860ce28"},"vehicle_type_id":"4","last_reported":1769897544,"current_range_meters":9600,"station_id":"ce4bha12rcd13ifvqef0","pricing_plan_id":"cebpf4jnsgd1na2vs0mg"},{"bike_id":"1b9e7bf5-f399-4b7a-935f-44d1badb48a9","system_id":"levelo_inurba_marseille","lat":43.292661,"lon":5.384371,"is_reserved":false,"is_disabled":false,"rental_uris":{"android":"levelo://app?vid=1b9e7bf5-f399-4b7a-935f-44d1badb48a9","ios":"levelo://app?vid=1b9e7bf5-f399-4b7a-935f-44d1badb48a9"},"vehicle_type_id":"4","last_reported":1769897544,"current_range_meters":9600,"station_id":"ce4bh3p2rcd13ifvqdp0","pricing_plan_id":"cebpf4jnsgd1na2vs0mg"},{"bike_id":"7538f3bc-c504-457b-8867-886447e19dda","system_id":"levelo_inurba_marseille","lat":43.27988,"lon":5.36902,"is_reserved":false,"is_disabled":false,"rental_uris":{"android":"levelo://app?vid=7538f3bc-c504-457b-8867-886447e19dda","ios":"levelo://app?vid=7538f3bc-c504-457b-8867-886447e19dda"},"vehicle_type_id":"4","last_reported":1769897544,"current_range_meters":9600,"station_id":"","pricing_plan_id":"cebpf4jnsgd1na2vs0mg"},{"bike_id":"a5fa5eb4-dba4-4657-ad87-40acdd8b2f31","system_id":"levelo_inurba_marseille","lat":43.31088,"lon":5.4245,"is_reserved":false,"is_disabled":false,"rental_uris":{"android":"levelo://app?vid=a5fa5eb4-dba4-4657-ad87-40acdd8b2f31","ios":"levelo://app?vid=a5fa5eb4-dba4-4657-ad87-40acdd8b2f31"},"vehicle_type_id":"4","last_reported":1769897544,"current_range_meters":9600,"station_id":"ce4bhp92rcd13ifvqhag","pricing_plan_id":"cebpf4jnsgd1na2vs0mg"},{"bike_id":"692c7a43-943c-4d75-9c0c-883b6786a702","system_id":"levelo_inurba_marseille","lat":43.292687,"lon":5.384537,"is_reserved":false,"is_disabled":false,"rental_uris":{"android":"levelo://app?vid=692c7a43-943c-4d75-9c0c-883b6786a702","ios":"levelo://app?vid=692c7a43-943c-4d75-9c0c-883b6786a702"},"vehicle_type_id":"4","last_reported":1769897544,"current_range_meters":9600,"station_id":"ce4bh692rcd13ifvqea0","pricing_plan_id":"cebpf4jnsgd1na2vs0mg"},{"bike_id":"0b827358-b37a-4809-aaab-164320eae13f","system_id":"levelo_inurba_marseille","lat":43.30264,"lon":5.40082,"is_reserved":false,"is_disabled":false,"rental_uris":{"android":"levelo://app?vid=0b827358-b37a-4809-aaab-164320eae13f","ios":"levelo://app?vid=0b827358-b37a-4809-aaab-164320eae13f"},"vehicle_type_id":"4","last_reported":1769897544,"current_range_meters":9600,"station_id":"ce4bgvh2rcd13ifvqcs0","pricing_plan_id":"cebpf4jnsgd1na2vs0mg"},{"bike_id":"0d3373e8-bcec-4eb6-8583-396c7354fa06","system_id":"levelo_inurba_marseille","lat":43.29246,"lon":5.37587,"is_reserved":false,"is_disabled":false,"rental_uris":{"android":"levelo://app?vid=0d3373e8-bcec-4eb6-8583-396c7354fa06","ios":"levelo://app?vid=0d3373e8-bcec-4eb6-8583-396c7354fa06"},"vehicle_type_id":"4","last_reported":1769897544,"current_range_meters":9600,"station_id":"ce4bgi12rcd13ifvqb80","pricing_plan_id":"cebpf4jnsgd1na2vs0mg"},{"bike_id":"93e60425-8aae-4f4b-b447-57ef8147db67","system_id":"levelo_inurba_marseille","lat":43.28481,"lon":5.48419,"is_reserved":false,"is_disabled":false,"rental_uris":{"android":"levelo://app?vid=93e60425-8aae-4f4b-b447-57ef8147db67","ios":"levelo://app?vid=93e60425-8aae-4f4b-b447-57ef8147db67"},"vehicle_type_id":"4","last_reported":1769897544,"current_range_meters":9600,"station_id":"st_d3svhcjqgbts73a3dn0g","pricing_plan_id":"cebpf4jnsgd1na2vs0mg"},{"bike_id":"94dc4ea4-8afe-49be-8c24-144fdf1722a8","system_id":"levelo_inurba_marseille","lat":43.24559,"lon":5.39543,"is_reserved":false,"is_disabled":false,"rental_uris":{"android":"levelo://app?vid=94dc4ea4-8afe-49be-8c24-144fdf1722a8","ios":"levelo://app?vid=94dc4ea4-8afe-49be-8c24-144fdf1722a8"},"vehicle_type_id":"4","last_reported":1769897544,"current_range_meters":9600,"station_id":"ce4bhlp2rcd13ifvqgjg","pricing_plan_id":"cebpf4jnsgd1na2vs0mg"},{"bike_id":"a9976113-461f-4068-baa6-28ae0013e332","system_id":"levelo_inurba_marseille","lat":43.25347,"lon":5.42164,"is_reserved":false,"is_disabled":false,"rental_uris":{"android":"levelo://app?vid=a9976113-461f-4068-baa6-28ae0013e332","ios":"levelo://app?vid=a9976113-461f-4068-baa6-28ae0013e332"},"vehicle_type_id":"4","last_reported":1769897544,"current_range_meters":9600,"station_id":"st_d2m65c5bi1j21697t3ng","pricing_plan_id":"cebpf4jnsgd1na2vs0mg"},{"bike_id":"2b052603-1775-4258-80ad-ae63b6286ef5","system_id":"levelo_inurba_marseille","lat":43.29749,"lon":5.35911,"is_reserved":false,"is_disabled":true,"rental_uris":{"android":"levelo://app?vid=2b052603-1775-4258-80ad-ae63b6286ef5","ios":"levelo://app?vid=2b052603-1775-4258-80ad-ae63b6286ef5"},"vehicle_type_id":"4","last_reported":1769897544,"current_range_meters":9600,"station_id":"","pricing_plan_id":"cebpf4jnsgd1na2vs0mg"},{"bike_id":"fef69268-649b-47e7-8506-c54d12be9f6f","system_id":"levelo_inurba_marseille","lat":43.29003,"lon":5.35603,"is_reserved":false,"is_disabled":false,"rental_uris":{"android":"levelo://app?vid=fef69268-649b-47e7-8506-c54d12be9f6f","ios":"levelo://app?vid=fef69268-649b-47e7-8506-c54d12be9f6f"},"vehicle_type_id":"4","last_reported":1769897544,"current_range_meters":9600,"station_id":"ce4bhb92rcd13ifvqen0","pricing_plan_id":"cebpf4jnsgd1na2vs0mg"},{"bike_id":"28e1f2e8-c658-4382-8c75-8f49d867f883","system_id":"levelo_inurba_marseille","lat":43.30931,"lon":5.40151,"is_reserved":false,"is_disabled":false,"rental_uris":{"android":"levelo://app?vid=28e1f2e8-c658-4382-8c75-8f49d867f883","ios":"levelo://app?vid=28e1f2e8-c658-4382-8c75-8f49d867f883"},"vehicle_type_id":"4","last_reported":1769897544,"current_range_meters":9600,"station_id":"ce4bgvp2rcd13ifvqct0","pricing_plan_id":"cebpf4jnsgd1na2vs0mg"},{"bike_id":"8a7fee3a-0ea8-44aa-be3e-3950f4f7dcc0","system_id":"levelo_inurba_marseille","lat":43.29274,"lon":5.38471,"is_reserved":false,"is_disabled":false,"rental_uris":{"android":"levelo://app?vid=8a7fee3a-0ea8-44aa-be3e-3950f4f7dcc0","ios":"levelo://app?vid=8a7fee3a-0ea8-44aa-be3e-3950f4f7dcc0"},"vehicle_type_id":"4","last_reported":1769897544,"current_range_meters":9600,"station_id":"ce4bh692rcd13ifvqea0","pricing_plan_id":"cebpf4jnsgd1na2vs0mg"},{"bike_id":"54321d2d-6456-4527-8eb0-2a0419375a1b","system_id":"levelo_inurba_marseille","lat":43.24669,"lon":5.38171,"is_reserved":false,"is_disabled":false,"rental_uris":{"android":"levelo://app?vid=54321d2d-6456-4527-8eb0-2a0419375a1b","ios":"levelo://app?vid=54321d2d-6456-4527-8eb0-2a0419375a1b"},"vehicle_type_id":"4","last_reported":1769897544,"current_range_meters":9600,"station_id":"ce4bhih2rcd13ifvqfr0","pricing_plan_id":"cebpf4jnsgd1na2vs0mg"},{"bike_id":"58982c61-2f00-4e02-b620-223b4d372a1d","system_id":"levelo_inurba_marseille","lat":43.25574,"lon":5.38227,"is_reserved":false,"is_disabled":false,"rental_uris":{"android":"levelo://app?vid=58982c61-2f00-4e02-b620-223b4d372a1d","ios":"levelo://app?vid=58982c61-2f00-4e02-b620-223b4d372a1d"},"vehicle_type_id":"4","last_reported":1769897544,"current_range_meters":9600,"station_id":"ce4bhih2rcd13ifvqfs0","pricing_plan_id":"cebpf4jnsgd1na2vs0mg"},{"bike_id":"a825a34e-c66c-4578-9dd4-68f63a09f21e","system_id":"levelo_inurba_marseille","lat":43.27383,"lon":5.36266,"is_reserved":false,"is_disabled":false,"rental_uris":{"android":"levelo://app?vid=a825a34e-c66c-4578-9dd4-68f63a09f21e","ios":"levelo://app?vid=a825a34e-c66c-4578-9dd4-68f63a09f21e"},"vehicle_type_id":"4","last_reported":1769897544,"current_range_meters":10000,"station_id":"ce4bhbh2rcd13ifvqeo0","pricing_plan_id":"cebpf4jnsgd1na2vs0mg"},{"bike_id":"d431d2dc-fe64-4d55-be3e-18b6291747e9","system_id":"levelo_inurba_marseille","lat":43.23055,"lon":5.35471,"is_reserved":false,"is_disabled":false,"rental_uris":{"android":"levelo://app?vid=d431d2dc-fe64-4d55-be3e-18b6291747e9","ios":"levelo://app?vid=d431d2dc-fe64-4d55-be3e-18b6291747e9"},"vehicle_type_id":"4","last_reported":1769897544,"current_range_meters":10000,"station_id":"cpo3342slgdg3j2ifvpg","pricing_plan_id":"cebpf4jnsgd1na2vs0mg"},{"bike_id":"33073528-1e22-401a-900c-0ca191a8c4cf","system_id":"levelo_inurba_marseille","lat":43.22558,"lon":5.41673,"is_reserved":false,"is_disabled":false,"rental_uris":{"android":"levelo://app?vid=33073528-1e22-401a-900c-0ca191a8c4cf","ios":"levelo://app?vid=33073528-1e22-401a-900c-0ca191a8c4cf"},"vehicle_type_id":"4","last_reported":1769897544,"current_range_meters":10000,"station_id":"st_d2o4gvlbi1j2169b742g","pricing_plan_id":"cebpf4jnsgd1na2vs0mg"},{"bike_id":"5e1c4385-fefc-40d8-9043-9539df7efdd8","system_id":"levelo_inurba_marseille","lat":43.337444,"lon":5.374475,"is_reserved":false,"is_disabled":false,"rental_uris":{"android":"levelo://app?vid=5e1c4385-fefc-40d8-9043-9539df7efdd8","ios":"levelo://app?vid=5e1c4385-fefc-40d8-9043-9539df7efdd8"},"vehicle_type_id":"4","last_reported":1769897544,"current_range_meters":10000,"station_id":"ce4bhbp2rcd13ifvqesg","pricing_plan_id":"cebpf4jnsgd1na2vs0mg"},{"bike_id":"4c50b102-00aa-40e2-83bd-5e90d2e54b17","system_id":"levelo_inurba_marseille","lat":43.279956,"lon":5.400054,"is_reserved":false,"is_disabled":false,"rental_uris":{"android":"levelo://app?vid=4c50b102-00aa-40e2-83bd-5e90d2e54b17","ios":"levelo://app?vid=4c50b102-00aa-40e2-83bd-5e90d2e54b17"},"vehicle_type_id":"4","last_reported":1769897544,"current_range_meters":10000,"station_id":"ce4bho92rcd13ifvqh4g","pricing_plan_id":"cebpf4jnsgd1na2vs0mg"},{"bike_id":"4ad2da66-d00a-4006-af72-87c62567c87f","system_id":"levelo_inurba_marseille","lat":43.31039,"lon":5.38611,"is_reserved":false,"is_disabled":false,"rental_uris":{"android":"levelo://app?vid=4ad2da66-d00a-4006-af72-87c62567c87f","ios":"levelo://app?vid=4ad2da66-d00a-4006-af72-87c62567c87f"},"vehicle_type_id":"4","last_reported":1769897544,"current_range_meters":10000,"station_id":"","pricing_plan_id":"cebpf4jnsgd1na2vs0mg"},{"bike_id":"3bdfdbfd-4a2c-4cef-a1ef-828fe31f005e","system_id":"levelo_inurba_marseille","lat":43.241679,"lon":5.363943,"is_reserved":false,"is_disabled":false,"rental_uris":{"android":"levelo://app?vid=3bdfdbfd-4a2c-4cef-a1ef-828fe31f005e","ios":"levelo://app?vid=3bdfdbfd-4a2c-4cef-a1ef-828fe31f005e"},"vehicle_type_id":"4","last_reported":1769897544,"current_range_meters":10000,"station_id":"cpo36qri1sfpv3e86is0","pricing_plan_id":"cebpf4jnsgd1na2vs0mg"},{"bike_id":"8955a00b-cb7d-4c6b-bd4d-640663902a3f","system_id":"levelo_inurba_marseille","lat":43.29601,"lon":5.38147,"is_reserved":false,"is_disabled":false,"rental_uris":{"android":"levelo://app?vid=8955a00b-cb7d-4c6b-bd4d-640663902a3f","ios":"levelo://app?vid=8955a00b-cb7d-4c6b-bd4d-640663902a3f"},"vehicle_type_id":"4","last_reported":1769897544,"current_range_meters":10000,"station_id":"ce4bgl12rcd13ifvqbo0","pricing_plan_id":"cebpf4jnsgd1na2vs0mg"},{"bike_id":"bfe9137b-04f2-4da0-a6ab-3cb1bedb8523","system_id":"levelo_inurba_marseille","lat":43.27523,"lon":5.3775,"is_reserved":false,"is_disabled":false,"rental_uris":{"android":"levelo://app?vid=bfe9137b-04f2-4da0-a6ab-3cb1bedb8523","ios":"levelo://app?vid=bfe9137b-04f2-4da0-a6ab-3cb1bedb8523"},"vehicle_type_id":"4","last_reported":1769897544,"current_range_meters":10000,"station_id":"","pricing_plan_id":"cebpf4jnsgd1na2vs0mg"},{"bike_id":"e82f026f-90ce-4b16-9626-16e237d64f88","system_id":"levelo_inurba_marseille","lat":43.27965,"lon":5.43643,"is_reserved":false,"is_disabled":false,"rental_uris":{"android":"levelo://app?vid=e82f026f-90ce-4b16-9626-16e237d64f88","ios":"levelo://app?vid=e82f026f-90ce-4b16-9626-16e237d64f88"},"vehicle_type_id":"4","last_reported":1769897544,"current_range_meters":10000,"station_id":"","pricing_plan_id":"cebpf4jnsgd1na2vs0mg"},{"bike_id":"27b23e62-94fe-425d-8c2e-1ed932d48b71","system_id":"levelo_inurba_marseille","lat":43.23153,"lon":5.43703,"is_reserved":false,"is_disabled":false,"rental_uris":{"android":"levelo://app?vid=27b23e62-94fe-425d-8c2e-1ed932d48b71","ios":"levelo://app?vid=27b23e62-94fe-425d-8c2e-1ed932d48b71"},"vehicle_type_id":"4","last_reported":1769897544,"current_range_meters":10000,"station_id":"ce4bhmp2rcd13ifvqgog","pricing_plan_id":"cebpf4jnsgd1na2vs0mg"},{"bike_id":"4074f7c4-cf6b-4373-aeb2-a1af8e763b39","system_id":"levelo_inurba_marseille","lat":43.31507,"lon":5.3729,"is_reserved":false,"is_disabled":false,"rental_uris":{"android":"levelo://app?vid=4074f7c4-cf6b-4373-aeb2-a1af8e763b39","ios":"levelo://app?vid=4074f7c4-cf6b-4373-aeb2-a1af8e763b39"},"vehicle_type_id":"4","last_reported":1769897544,"current_range_meters":10000,"station_id":"ce4bgt12rcd13ifvqcd0","pricing_plan_id":"cebpf4jnsgd1na2vs0mg"},{"bike_id":"f1afd73d-ec70-4dba-ac5d-df0bb8cc8cb8","system_id":"levelo_inurba_marseille","lat":43.24651,"lon":5.43177,"is_reserved":false,"is_disabled":false,"rental_uris":{"android":"levelo://app?vid=f1afd73d-ec70-4dba-ac5d-df0bb8cc8cb8","ios":"levelo://app?vid=f1afd73d-ec70-4dba-ac5d-df0bb8cc8cb8"},"vehicle_type_id":"4","last_reported":1769897544,"current_range_meters":10800,"station_id":"st_d2m6c4gdas8pm72e190g","pricing_plan_id":"cebpf4jnsgd1na2vs0mg"},{"bike_id":"8ab25c42-f58b-4efd-8611-9b99e4fd92cd","system_id":"levelo_inurba_marseille","lat":43.30355,"lon":5.40434,"is_reserved":false,"is_disabled":false,"rental_uris":{"android":"levelo://app?vid=8ab25c42-f58b-4efd-8611-9b99e4fd92cd","ios":"levelo://app?vid=8ab25c42-f58b-4efd-8611-9b99e4fd92cd"},"vehicle_type_id":"4","last_reported":1769897544,"current_range_meters":10800,"station_id":"ce4bh012rcd13ifvqd10","pricing_plan_id":"cebpf4jnsgd1na2vs0mg"},{"bike_id":"414c5a26-6221-4a83-a117-3d6e5b43843c","system_id":"levelo_inurba_marseille","lat":43.28705,"lon":5.37395,"is_reserved":false,"is_disabled":false,"rental_uris":{"android":"levelo://app?vid=414c5a26-6221-4a83-a117-3d6e5b43843c","ios":"levelo://app?vid=414c5a26-6221-4a83-a117-3d6e5b43843c"},"vehicle_type_id":"4","last_reported":1769897544,"current_range_meters":10800,"station_id":"ce4bh3p2rcd13ifvqdq0","pricing_plan_id":"cebpf4jnsgd1na2vs0mg"},{"bike_id":"3c9bc6df-6dc5-4749-8484-3a081a572fd1","system_id":"levelo_inurba_marseille","lat":43.26694,"lon":5.38267,"is_reserved":false,"is_disabled":false,"rental_uris":{"android":"levelo://app?vid=3c9bc6df-6dc5-4749-8484-3a081a572fd1","ios":"levelo://app?vid=3c9bc6df-6dc5-4749-8484-3a081a572fd1"},"vehicle_type_id":"4","last_reported":1769897544,"current_range_meters":10800,"station_id":"ce4bhg92rcd13ifvqf90","pricing_plan_id":"cebpf4jnsgd1na2vs0mg"},{"bike_id":"d2ee53f1-49b6-44a6-a171-d364ff8162cf","system_id":"levelo_inurba_marseille","lat":43.3339,"lon":5.43101,"is_reserved":false,"is_disabled":false,"rental_uris":{"android":"levelo://app?vid=d2ee53f1-49b6-44a6-a171-d364ff8162cf","ios":"levelo://app?vid=d2ee53f1-49b6-44a6-a171-d364ff8162cf"},"vehicle_type_id":"4","last_reported":1769897544,"current_range_meters":10800,"station_id":"","pricing_plan_id":"cebpf4jnsgd1na2vs0mg"},{"bike_id":"cb16a0fb-a0f9-4601-ab2a-91a6d88760fa","system_id":"levelo_inurba_marseille","lat":43.2656,"lon":5.403,"is_reserved":false,"is_disabled":false,"rental_uris":{"android":"levelo://app?vid=cb16a0fb-a0f9-4601-ab2a-91a6d88760fa","ios":"levelo://app?vid=cb16a0fb-a0f9-4601-ab2a-91a6d88760fa"},"vehicle_type_id":"4","last_reported":1769897544,"current_range_meters":10800,"station_id":"ce4bhmp2rcd13ifvqgng","pricing_plan_id":"cebpf4jnsgd1na2vs0mg"},{"bike_id":"770f2f22-15f8-4987-b971-690af65785ff","system_id":"levelo_inurba_marseille","lat":43.2657,"lon":5.40325,"is_reserved":false,"is_disabled":false,"rental_uris":{"android":"levelo://app?vid=770f2f22-15f8-4987-b971-690af65785ff","ios":"levelo://app?vid=770f2f22-15f8-4987-b971-690af65785ff"},"vehicle_type_id":"4","last_reported":1769897544,"current_range_meters":10800,"station_id":"ce4bhmp2rcd13ifvqgng","pricing_plan_id":"cebpf4jnsgd1na2vs0mg"},{"bike_id":"7083ffa4-0961-46e8-9233-cd33a7d9fd22","system_id":"levelo_inurba_marseille","lat":43.30209,"lon":5.39482,"is_reserved":false,"is_disabled":false,"rental_uris":{"android":"levelo://app?vid=7083ffa4-0961-46e8-9233-cd33a7d9fd22","ios":"levelo://app?vid=7083ffa4-0961-46e8-9233-cd33a7d9fd22"},"vehicle_type_id":"4","last_reported":1769897544,"current_range_meters":10800,"station_id":"ce4bh0p2rcd13ifvqd70","pricing_plan_id":"cebpf4jnsgd1na2vs0mg"},{"bike_id":"36959ff4-69f0-42bb-bb47-b1f1ee86eedd","system_id":"levelo_inurba_marseille","lat":43.30963,"lon":5.39074,"is_reserved":false,"is_disabled":false,"rental_uris":{"android":"levelo://app?vid=36959ff4-69f0-42bb-bb47-b1f1ee86eedd","ios":"levelo://app?vid=36959ff4-69f0-42bb-bb47-b1f1ee86eedd"},"vehicle_type_id":"4","last_reported":1769897544,"current_range_meters":10800,"station_id":"ce4bgup2rcd13ifvqco0","pricing_plan_id":"cebpf4jnsgd1na2vs0mg"},{"bike_id":"988398a3-7ea1-401c-9290-5cadcd4b0590","system_id":"levelo_inurba_marseille","lat":43.25024,"lon":5.38942,"is_reserved":false,"is_disabled":false,"rental_uris":{"android":"levelo://app?vid=988398a3-7ea1-401c-9290-5cadcd4b0590","ios":"levelo://app?vid=988398a3-7ea1-401c-9290-5cadcd4b0590"},"vehicle_type_id":"4","last_reported":1769897544,"current_range_meters":10800,"station_id":"ce4bhgp2rcd13ifvqfd0","pricing_plan_id":"cebpf4jnsgd1na2vs0mg"},{"bike_id":"b26b7a51-932a-4045-96ca-602fdf1f8264","system_id":"levelo_inurba_marseille","lat":43.23071,"lon":5.35498,"is_reserved":false,"is_disabled":false,"rental_uris":{"android":"levelo://app?vid=b26b7a51-932a-4045-96ca-602fdf1f8264","ios":"levelo://app?vid=b26b7a51-932a-4045-96ca-602fdf1f8264"},"vehicle_type_id":"4","last_reported":1769897544,"current_range_meters":10800,"station_id":"cpo3342slgdg3j2ifvpg","pricing_plan_id":"cebpf4jnsgd1na2vs0mg"},{"bike_id":"d6fd3dc6-4a1a-42ff-a99a-2a4b414e13ca","system_id":"levelo_inurba_marseille","lat":43.25335,"lon":5.42175,"is_reserved":false,"is_disabled":false,"rental_uris":{"android":"levelo://app?vid=d6fd3dc6-4a1a-42ff-a99a-2a4b414e13ca","ios":"levelo://app?vid=d6fd3dc6-4a1a-42ff-a99a-2a4b414e13ca"},"vehicle_type_id":"4","last_reported":1769897544,"current_range_meters":10800,"station_id":"st_d2m65c5bi1j21697t3ng","pricing_plan_id":"cebpf4jnsgd1na2vs0mg"},{"bike_id":"c0289a6d-61c6-4bc2-837b-b956781f96f3","system_id":"levelo_inurba_marseille","lat":43.29777,"lon":5.38172,"is_reserved":false,"is_disabled":false,"rental_uris":{"android":"levelo://app?vid=c0289a6d-61c6-4bc2-837b-b956781f96f3","ios":"levelo://app?vid=c0289a6d-61c6-4bc2-837b-b956781f96f3"},"vehicle_type_id":"4","last_reported":1769897544,"current_range_meters":11200,"station_id":"","pricing_plan_id":"cebpf4jnsgd1na2vs0mg"},{"bike_id":"fcc56630-d6aa-427a-9b6b-6381e911d09d","system_id":"levelo_inurba_marseille","lat":43.27943,"lon":5.41059,"is_reserved":false,"is_disabled":false,"rental_uris":{"android":"levelo://app?vid=fcc56630-d6aa-427a-9b6b-6381e911d09d","ios":"levelo://app?vid=fcc56630-d6aa-427a-9b6b-6381e911d09d"},"vehicle_type_id":"4","last_reported":1769897544,"current_range_meters":11200,"station_id":"ce4bhnp2rcd13ifvqh0g","pricing_plan_id":"cebpf4jnsgd1na2vs0mg"},{"bike_id":"c80f4e19-c866-48f3-a324-75dc35bb5982","system_id":"levelo_inurba_marseille","lat":43.29543,"lon":5.38538,"is_reserved":false,"is_disabled":false,"rental_uris":{"android":"levelo://app?vid=c80f4e19-c866-48f3-a324-75dc35bb5982","ios":"levelo://app?vid=c80f4e19-c866-48f3-a324-75dc35bb5982"},"vehicle_type_id":"4","last_reported":1769897544,"current_range_meters":11200,"station_id":"","pricing_plan_id":"cebpf4jnsgd1na2vs0mg"},{"bike_id":"598ec0e8-009d-406d-bae1-dedddf86833b","system_id":"levelo_inurba_marseille","lat":43.3124,"lon":5.36898,"is_reserved":false,"is_disabled":false,"rental_uris":{"android":"levelo://app?vid=598ec0e8-009d-406d-bae1-dedddf86833b","ios":"levelo://app?vid=598ec0e8-009d-406d-bae1-dedddf86833b"},"vehicle_type_id":"4","last_reported":1769897544,"current_range_meters":11200,"station_id":"ce4bgl92rcd13ifvqbq0","pricing_plan_id":"cebpf4jnsgd1na2vs0mg"},{"bike_id":"7f899a2a-34be-4343-93b0-3844bda58dd5","system_id":"levelo_inurba_marseille","lat":43.3093,"lon":5.4015,"is_reserved":false,"is_disabled":false,"rental_uris":{"android":"levelo://app?vid=7f899a2a-34be-4343-93b0-3844bda58dd5","ios":"levelo://app?vid=7f899a2a-34be-4343-93b0-3844bda58dd5"},"vehicle_type_id":"4","last_reported":1769897544,"current_range_meters":11200,"station_id":"ce4bgvp2rcd13ifvqct0","pricing_plan_id":"cebpf4jnsgd1na2vs0mg"},{"bike_id":"6324e847-1938-4e7e-af5e-4c627daba90f","system_id":"levelo_inurba_marseille","lat":43.29518,"lon":5.39022,"is_reserved":false,"is_disabled":false,"rental_uris":{"android":"levelo://app?vid=6324e847-1938-4e7e-af5e-4c627daba90f","ios":"levelo://app?vid=6324e847-1938-4e7e-af5e-4c627daba90f"},"vehicle_type_id":"4","last_reported":1769897544,"current_range_meters":11200,"station_id":"ce4bh3p2rcd13ifvqdp0","pricing_plan_id":"cebpf4jnsgd1na2vs0mg"},