{"last_updated":1700427947,"ttl":30,"version":"2.2","data":{"bikes":[{"bike_id":"499162d6-7fad-44c8-91f8-355c834834f6","system_id":"levelo_inurba_marseille","lat":43.313391,"lon":5.36706,"is_reserved":false,"is_disabled":false,"rental_uris":{"android":"levelo://app?vid=499162d6-7fad-44c8-91f8-355c834834f6","ios":"levelo://app?vid=499162d6-7fad-44c8-91f8-355c834834f6"},"vehicle_type_id":"4","last_reported":1700427947,"current_range_meters":26400,"station_id":"ce4bgr92rcd13ifvqc6g","pricing_plan_id":"free"},{"bike_id":"c943dc38-7e50-4df2-b04e-f41a21b6ad29","system_id":"levelo_inurba_marseille","lat":43.312239,"lon":5.368562,"is_reserved":false,"is_disabled":false,"rental_uris":{"android":"levelo://app?vid=c943dc38-7e50-4df2-b04e-f41a21b6ad29","ios":"levelo://app?vid=c943dc38-7e50-4df2-b04e-f41a21b6ad29"},"vehicle_type_id":"4","last_reported":1700427947,"current_range_meters":0,"station_id":"ce4bgl92rcd13ifvqbq0","pricing_plan_id":"free"},{"bike_id":"b0e7a7d8-38c5-46ed-b115-329ace4c7102","system_id":"levelo_inurba_marseille","lat":43.30888,"lon":5.37191,"is_reserved":false,"is_disabled":false,"rental_uris":{"android":"levelo://app?vid=b0e7a7d8-38c5-46ed-b115-329ace4c7102","ios":"levelo://app?vid=b0e7a7d8-38c5-46ed-b115-329ace4c7102"},"vehicle_type_id":"4","last_reported":1700427947,"current_range_meters":28400,"station_id":"ce4bguh2rcd13ifvqckg","pricing_plan_id":"free"},{"bike_id":"3475d204-43b6-43d9-b615-ca1d0d58200e","system_id":"levelo_inurba_marseille","lat":43.30679,"lon":5.3679,"is_reserved":false,"is_disabled":false,"rental_uris":{"android":"levelo://app?vid=3475d204-43b6-43d9-b615-ca1d0d58200e","ios":"levelo://app?vid=3475d204-43b6-43d9-b615-ca1d0d58200e"},"vehicle_type_id":"4","last_reported":1700427947,"current_range_meters":9600,"station_id":"","pricing_plan_id":"free"},{"bike_id":"c5f847b1-3f16-41c4-91e1-7052432100be","system_id":"levelo_inurba_marseille","lat":43.305712,"lon":5.365641,"is_reserved":false,"is_disabled":false,"rental_uris":{"android":"levelo://app?vid=c5f847b1-3f16-41c4-91e1-7052432100be","ios":"levelo://app?vid=c5f847b1-3f16-41c4-91e1-7052432100be"},"vehicle_type_id":"4","last_reported":1700427947,"current_range_meters":26400,"station_id":"ce4bgs12rcd13ifvqcag","pricing_plan_id":"free"},{"bike_id":"09ccbac6-0f01-4cfb-8bb8-da5484277d5c","system_id":"levelo_inurba_marseille","lat":43.319575,"lon":5.371125,"is_reserved":false,"is_disabled":false,"rental_uris":{"android":"levelo://app?vid=09ccbac6-0f01-4cfb-8bb8-da5484277d5c","ios":"levelo://app?vid=09ccbac6-0f01-4cfb-8bb8-da5484277d5c"},"vehicle_type_id":"4","last_reported":1700427947,"current_range_meters":0,"station_id":"","pricing_plan_id":"free"},{"bike_id":"e91ae537-b6a7-4ab6-9a69-341665df72cc","system_id":"levelo_inurba_marseille","lat":43.311125,"lon":5.377624,"is_reserved":false,"is_disabled":false,"rental_uris":{"android":"levelo://app?vid=e91ae537-b6a7-4ab6-9a69-341665df72cc","ios":"levelo://app?vid=e91ae537-b6a7-4ab6-9a69-341665df72cc"},"vehicle_type_id":"4","last_reported":1700427947,"current_range_meters":26400,"station_id":"ce4bgt92rcd13ifvqcg0","pricing_plan_id":"free"},{"bike_id":"a9016652-419c-46d7-a165-7fb1bf1c1846","system_id":"levelo_inurba_marseille","lat":43.311125,"lon":5.377624,"is_reserved":false,"is_disabled":false,"rental_uris":{"android":"levelo://app?vid=a9016652-419c-46d7-a165-7fb1bf1c1846","ios":"levelo://app?vid=a9016652-419c-46d7-a165-7fb1bf1c1846"},"vehicle_type_id":"4","last_reported":1700427947,"current_range_meters":27200,"station_id":"ce4bgt92rcd13ifvqcg0","pricing_plan_id":"free"},{"bike_id":"7dbf0beb-f63c-4573-a8f2-c30c140d0813","system_id":"levelo_inurba_marseille","lat":43.308159,"lon":5.376468,"is_reserved":false,"is_disabled":false,"rental_uris":{"android":"levelo://app?vid=7dbf0beb-f63c-4573-a8f2-c30c140d0813","ios":"levelo://app?vid=7dbf0beb-f63c-4573-a8f2-c30c140d0813"},"vehicle_type_id":"4","last_reported":1700427947,"current_range_meters":9600,"station_id":"ce4bgv92rcd13ifvqcq0","pricing_plan_id":"free"},{"bike_id":"cf78f610-5f62-405d-a0f6-0091093a3fef","system_id":"levelo_inurba_marseille","lat":43.307945,"lon":5.376487,"is_reserved":false,"is_disabled":false,"rental_uris":{"android":"levelo://app?vid=cf78f610-5f62-405d-a0f6-0091093a3fef","ios":"levelo://app?vid=cf78f610-5f62-405d-a0f6-0091093a3fef"},"vehicle_type_id":"4","last_reported":1700427947,"current_range_meters":0,"station_id":"ce4bgv92rcd13ifvqcq0","pricing_plan_id":"free"},{"bike_id":"ce26aae4-93bc-4eb3-82b8-63d32d85f758","system_id":"levelo_inurba_marseille","lat":43.31533,"lon":5.38039,"is_reserved":false,"is_disabled":false,"rental_uris":{"android":"levelo://app?vid=ce26aae4-93bc-4eb3-82b8-63d32d85f758","ios":"levelo://app?vid=ce26aae4-93bc-4eb3-82b8-63d32d85f758"},"vehicle_type_id":"4","last_reported":1700427947,"current_range_meters":800,"station_id":"ce4bhsp2rcd13ifvqi50","pricing_plan_id":"free"},{"bike_id":"3a722b20-8d9a-4ed7-bed2-82edca53ad10","system_id":"levelo_inurba_marseille","lat":43.324771,"lon":5.36557,"is_reserved":false,"is_disabled":false,"rental_uris":{"android":"levelo://app?vid=3a722b20-8d9a-4ed7-bed2-82edca53ad10","ios":"levelo://app?vid=3a722b20-8d9a-4ed7-bed2-82edca53ad10"},"vehicle_type_id":"4","last_reported":1700427947,"current_range_meters":17600,"station_id":"ce4bhs12rcd13ifvqhvg","pricing_plan_id":"free"},{"bike_id":"cb9aaf1e-c165-4477-b766-07ed6f860aa9","system_id":"levelo_inurba_marseille","lat":43.31994,"lon":5.38152,"is_reserved":false,"is_disabled":false,"rental_uris":{"android":"levelo://app?vid=cb9aaf1e-c165-4477-b766-07ed6f860aa9","ios":"levelo://app?vid=cb9aaf1e-c165-4477-b766-07ed6f860aa9"},"vehicle_type_id":"4","last_reported":1700427947,"current_range_meters":800,"station_id":"ce4bhr12rcd13ifvqhpg","pricing_plan_id":"free"},{"bike_id":"b86bd29c-7dae-4d1a-900b-90742660a871","system_id":"levelo_inurba_marseille","lat":43.319924,"lon":5.381573,"is_reserved":false,"is_disabled":false,"rental_uris":{"android":"levelo://app?vid=b86bd29c-7dae-4d1a-900b-90742660a871","ios":"levelo://app?vid=b86bd29c-7dae-4d1a-900b-90742660a871"},"vehicle_type_id":"4","last_reported":1700427947,"current_range_meters":24400,"station_id":"ce4bhr12rcd13ifvqhpg","pricing_plan_id":"free"},{"bike_id":"38e7561f-341a-4b31-9fe8-9303ec26abd7","system_id":"levelo_inurba_marseille","lat":43.319935,"lon":5.381699,"is_reserved":false,"is_disabled":false,"rental_uris":{"android":"levelo://app?vid=38e7561f-341a-4b31-9fe8-9303ec26abd7","ios":"levelo://app?vid=38e7561f-341a-4b31-9fe8-9303ec26abd7"},"vehicle_type_id":"4","last_reported":1700427947,"current_range_meters":14000,"station_id":"ce4bhr12rcd13ifvqhpg","pricing_plan_id":"free"},{"bike_id":"f88f70f6-5dec-47e8-88d7-7536575375c3","system_id":"levelo_inurba_marseille","lat":43.31997,"lon":5.38164,"is_reserved":false,"is_disabled":false,"rental_uris":{"android":"levelo://app?vid=f88f70f6-5dec-47e8-88d7-7536575375c3","ios":"levelo://app?vid=f88f70f6-5dec-47e8-88d7-7536575375c3"},"vehicle_type_id":"4","last_reported":1700427947,"current_range_meters":23600,"station_id":"ce4bhr12rcd13ifvqhpg","pricing_plan_id":"free"},{"bike_id":"6cddd180-464e-4ee4-8db2-9f7d22d9ebae","system_id":"levelo_inurba_marseille","lat":43.299724,"lon":5.371829,"is_reserved":false,"is_disabled":false,"rental_uris":{"android":"levelo://app?vid=6cddd180-464e-4ee4-8db2-9f7d22d9ebae","ios":"levelo://app?vid=6cddd180-464e-4ee4-8db2-9f7d22d9ebae"},"vehicle_type_id":"4","last_reported":1700427947,"current_range_meters":21600,"station_id":"ce4bgr92rcd13ifvqc7g","pricing_plan_id":"free"},{"bike_id":"9e15c35c-917c-4bdb-b14a-0891dee87ba9","system_id":"levelo_inurba_marseille","lat":43.30527,"lon":5.38333,"is_reserved":false,"is_disabled":false,"rental_uris":{"android":"levelo://app?vid=9e15c35c-917c-4bdb-b14a-0891dee87ba9","ios":"levelo://app?vid=9e15c35c-917c-4bdb-b14a-0891dee87ba9"},"vehicle_type_id":"4","last_reported":1700427947,"current_range_meters":400,"station_id":"","pricing_plan_id":"free"},{"bike_id":"5da9dea2-bd9f-4746-b637-56e44ea9e587","system_id":"levelo_inurba_marseille","lat":43.298489,"lon":5.362942,"is_reserved":false,"is_disabled":false,"rental_uris":{"android":"levelo://app?vid=5da9dea2-bd9f-4746-b637-56e44ea9e587","ios":"levelo://app?vid=5da9dea2-bd9f-4746-b637-56e44ea9e587"},"vehicle_type_id":"4","last_reported":1700427947,"current_range_meters":0,"station_id":"","pricing_plan_id":"free"},{"bike_id":"0dc63073-f7a4-4522-a1b3-aa89746693bc","system_id":"levelo_inurba_marseille","lat":43.311735,"lon":5.38708,"is_reserved":false,"is_disabled":false,"rental_uris":{"android":"levelo://app?vid=0dc63073-f7a4-4522-a1b3-aa89746693bc","ios":"levelo://app?vid=0dc63073-f7a4-4522-a1b3-aa89746693bc"},"vehicle_type_id":"4","last_reported":1700427947,"current_range_meters":2400,"station_id":"ce4bgv12rcd13ifvqcp0","pricing_plan_id":"free"},{"bike_id":"8b3677d2-ba45-46d5-8680-59b39c3c55a8","system_id":"levelo_inurba_marseille","lat":43.31165,"lon":5.38712,"is_reserved":false,"is_disabled":false,"rental_uris":{"android":"levelo://app?vid=8b3677d2-ba45-46d5-8680-59b39c3c55a8","ios":"levelo://app?vid=8b3677d2-ba45-46d5-8680-59b39c3c55a8"},"vehicle_type_id":"4","last_reported":1700427947,"current_range_meters":0,"station_id":"ce4bgv12rcd13ifvqcp0","pricing_plan_id":"free"},{"bike_id":"4bfed5e0-8d2d-4aac-b233-c7d8cf5f1c05","system_id":"levelo_inurba_marseille","lat":43.311722,"lon":5.387247,"is_reserved":false,"is_disabled":false,"rental_uris":{"android":"levelo://app?vid=4bfed5e0-8d2d-4aac-b233-c7d8cf5f1c05","ios":"levelo://app?vid=4bfed5e0-8d2d-4aac-b233-c7d8cf5f1c05"},"vehicle_type_id":"4","last_reported":1700427947,"current_range_meters":20400,"station_id":"ce4bgv12rcd13ifvqcp0","pricing_plan_id":"free"},{"bike_id":"85d9be66-04ae-47c9-bfcb-ef444be36bf9","system_id":"levelo_inurba_marseille","lat":43.311722,"lon":5.387247,"is_reserved":false,"is_disabled":false,"rental_uris":{"android":"levelo://app?vid=85d9be66-04ae-47c9-bfcb-ef444be36bf9","ios":"levelo://app?vid=85d9be66-04ae-47c9-bfcb-ef444be36bf9"},"vehicle_type_id":"4","last_reported":1700427947,"current_range_meters":13200,"station_id":"ce4bgv12rcd13ifvqcp0","pricing_plan_id":"free"},{"bike_id":"c8725501-4b55-4c9f-96e8-0849f4a16d4c","system_id":"levelo_inurba_marseille","lat":43.311722,"lon":5.387247,"is_reserved":false,"is_disabled":false,"rental_uris":{"android":"levelo://app?vid=c8725501-4b55-4c9f-96e8-0849f4a16d4c","ios":"levelo://app?vid=c8725501-4b55-4c9f-96e8-0849f4a16d4c"},"vehicle_type_id":"4","last_reported":1700427947,"current_range_meters":5600,"station_id":"ce4bgv12rcd13ifvqcp0","pricing_plan_id":"free"},{"bike_id":"96f889c7-720d-4fb5-aa27-276a7a5f0e89","system_id":"levelo_inurba_marseille","lat":43.311722,"lon":5.387247,"is_reserved":false,"is_disabled":false,"rental_uris":{"android":"levelo://app?vid=96f889c7-720d-4fb5-aa27-276a7a5f0e89","ios":"levelo://app?vid=96f889c7-720d-4fb5-aa27-276a7a5f0e89"},"vehicle_type_id":"4","last_reported":1700427947,"current_range_meters":30400,"station_id":"ce4bgv12rcd13ifvqcp0","pricing_plan_id":"free"},{"bike_id":"401d4e72-6e5b-4cf3-9a42-d3b1f2ab0649","system_id":"levelo_inurba_marseille","lat":43.311722,"lon":5.387247,"is_reserved":false,"is_disabled":false,"rental_uris":{"android":"levelo://app?vid=401d4e72-6e5b-4cf3-9a42-d3b1f2ab0649","ios":"levelo://app?vid=401d4e72-6e5b-4cf3-9a42-d3b1f2ab0649"},"vehicle_type_id":"4","last_reported":1700427947,"current_range_meters":2000,"station_id":"ce4bgv12rcd13ifvqcp0","pricing_plan_id":"free"},{"bike_id":"60f23f6f-5743-400c-a70c-3ca142ef29f0","system_id":"levelo_inurba_marseille","lat":43.311722,"lon":5.387247,"is_reserved":false,"is_disabled":false,"rental_uris":{"android":"levelo://app?vid=60f23f6f-5743-400c-a70c-3ca142ef29f0","ios":"levelo://app?vid=60f23f6f-5743-400c-a70c-3ca142ef29f0"},"vehicle_type_id":"4","last_reported":1700427947,"current_range_meters":14400,"station_id":"ce4bgv12rcd13ifvqcp0","pricing_plan_id":"free"},{"bike_id":"1dc0dbc9-a05b-4919-9a64-72cefc142915","system_id":"levelo_inurba_marseille","lat":43.311722,"lon":5.387247,"is_reserved":false,"is_disabled":false,"rental_uris":{"android":"levelo://app?vid=1dc0dbc9-a05b-4919-9a64-72cefc142915","ios":"levelo://app?vid=1dc0dbc9-a05b-4919-9a64-72cefc142915"},"vehicle_type_id":"4","last_reported":1700427947,"current_range_meters":19200,"station_id":"ce4bgv12rcd13ifvqcp0","pricing_plan_id":"free"},{"bike_id":"cd93f441-2d5d-4170-830b-cc944c55bac6","system_id":"levelo_inurba_marseille","lat":43.311722,"lon":5.387247,"is_reserved":false,"is_disabled":false,"rental_uris":{"android":"levelo://app?vid=cd93f441-2d5d-4170-830b-cc944c55bac6","ios":"levelo://app?vid=cd93f441-2d5d-4170-830b-cc944c55bac6"},"vehicle_type_id":"4","last_reported":1700427947,"current_range_meters":22000,"station_id":"ce4bgv12rcd13ifvqcp0","pricing_plan_id":"free"},{"bike_id":"968f4f7b-37af-48de-87ce-50d7ef1a7b79","system_id":"levelo_inurba_marseille","lat":43.328371,"lon":5.366909,"is_reserved":false,"is_disabled":false,"rental_uris":{"android":"levelo://app?vid=968f4f7b-37af-48de-87ce-50d7ef1a7b79","ios":"levelo://app?vid=968f4f7b-37af-48de-87ce-50d7ef1a7b79"},"vehicle_type_id":"4","last_reported":1700427947,"current_range_meters":18400,"station_id":"ce4bhs92rcd13ifvqi0g","pricing_plan_id":"free"},{"bike_id":"800a1342-faab-459c-8c88-cbeaec705f5e","system_id":"levelo_inurba_marseille","lat":43.328371,"lon":5.366909,"is_reserved":false,"is_disabled":false,"rental_uris":{"android":"levelo://app?vid=800a1342-faab-459c-8c88-cbeaec705f5e","ios":"levelo://app?vid=800a1342-faab-459c-8c88-cbeaec705f5e"},"vehicle_type_id":"4","last_reported":1700427947,"current_range_meters":19200,"station_id":"ce4bhs92rcd13ifvqi0g","pricing_plan_id":"free"},{"bike_id":"e5c30010-bab4-4fba-b633-780bc1a27fa9","system_id":"levelo_inurba_marseille","lat":43.32831,"lon":5.36679,"is_reserved":false,"is_disabled":false,"rental_uris":{"android":"levelo://app?vid=e5c30010-bab4-4fba-b633-780bc1a27fa9","ios":"levelo://app?vid=e5c30010-bab4-4fba-b633-780bc1a27fa9"},"vehicle_type_id":"4","last_reported":1700427947,"current_range_meters":4000,"station_id":"ce4bhs92rcd13ifvqi0g","pricing_plan_id":"free"},{"bike_id":"2a07802c-16d5-4104-9ab3-93ca6dd62601","system_id":"levelo_inurba_marseille","lat":43.29601,"lon":5.368027,"is_reserved":false,"is_disabled":false,"rental_uris":{"android":"levelo://app?vid=2a07802c-16d5-4104-9ab3-93ca6dd62601","ios":"levelo://app?vid=2a07802c-16d5-4104-9ab3-93ca6dd62601"},"vehicle_type_id":"4","last_reported":1700427947,"current_range_meters":25200,"station_id":"","pricing_plan_id":"free"},{"bike_id":"6fcdea1c-a2df-4074-bfc6-253a07f31655","system_id":"levelo_inurba_marseille","lat":43.299028,"lon":5.381509,"is_reserved":false,"is_disabled":false,"rental_uris":{"android":"levelo://app?vid=6fcdea1c-a2df-4074-bfc6-253a07f31655","ios":"levelo://app?vid=6fcdea1c-a2df-4074-bfc6-253a07f31655"},"vehicle_type_id":"4","last_reported":1700427947,"current_range_meters":22000,"station_id":"ce4bgj12rcd13ifvqbc0","pricing_plan_id":"free"},{"bike_id":"700f8aea-1766-4c1d-96ab-b024bb36fe1b","system_id":"levelo_inurba_marseille","lat":43.309589,"lon":5.390258,"is_reserved":false,"is_disabled":false,"rental_uris":{"android":"levelo://app?vid=700f8aea-1766-4c1d-96ab-b024bb36fe1b","ios":"levelo://app?vid=700f8aea-1766-4c1d-96ab-b024bb36fe1b"},"vehicle_type_id":"4","last_reported":1700427947,"current_range_meters":16800,"station_id":"ce4bgup2rcd13ifvqco0","pricing_plan_id":"free"},{"bike_id":"67ffd28a-0325-489b-a10f-d90500122751","system_id":"levelo_inurba_marseille","lat":43.295748,"lon":5.37522,"is_reserved":false,"is_disabled":false,"rental_uris":{"android":"levelo://app?vid=67ffd28a-0325-489b-a10f-d90500122751","ios":"levelo://app?vid=67ffd28a-0325-489b-a10f-d90500122751"},"vehicle_type_id":"4","last_reported":1700427947,"current_range_meters":30800,"station_id":"ce4bgh92rcd13ifvqb50","pricing_plan_id":"free"},{"bike_id":"3e3e92fe-39b7-4933-99ff-3747b28b5d69","system_id":"levelo_inurba_marseille","lat":43.328154,"lon":5.380034,"is_reserved":false,"is_disabled":false,"rental_uris":{"android":"levelo://app?vid=3e3e92fe-39b7-4933-99ff-3747b28b5d69","ios":"levelo://app?vid=3e3e92fe-39b7-4933-99ff-3747b28b5d69"},"vehicle_type_id":"4","last_reported":1700427947,"current_range_meters":4800,"station_id":"","pricing_plan_id":"free"},{"bike_id":"8421227c-8f84-4811-a314-08c39cd7b360","system_id":"levelo_inurba_marseille","lat":43.295748,"lon":5.37522,"is_reserved":false,"is_disabled":false,"rental_uris":{"android":"levelo://app?vid=8421227c-8f84-4811-a314-08c39cd7b360","ios":"levelo://app?vid=8421227c-8f84-4811-a314-08c39cd7b360"},"vehicle_type_id":"4","last_reported":1700427947,"current_range_meters":400,"station_id":"ce4bgh92rcd13ifvqb50","pricing_plan_id":"free"},{"bike_id":"d4b0984f-bc9f-42b4-b8d7-c73b6b2ac0a0","system_id":"levelo_inurba_marseille","lat":43.299717,"lon":5.384845,"is_reserved":false,"is_disabled":false,"rental_uris":{"android":"levelo://app?vid=d4b0984f-bc9f-42b4-b8d7-c73b6b2ac0a0","ios":"levelo://app?vid=d4b0984f-bc9f-42b4-b8d7-c73b6b2ac0a0"},"vehicle_type_id":"4","last_reported":1700427947,"current_range_meters":1600,"station_id":"ce4bgj92rcd13ifvqbd0","pricing_plan_id":"free"},{"bike_id":"e145a3f7-00ac-4f8f-bfe5-435bc38ccaf7","system_id":"levelo_inurba_marseille","lat":43.293801,"lon":5.363066,"is_reserved":false,"is_disabled":false,"rental_uris":{"android":"levelo://app?vid=e145a3f7-00ac-4f8f-bfe5-435bc38ccaf7","ios":"levelo://app?vid=e145a3f7-00ac-4f8f-bfe5-435bc38ccaf7"},"vehicle_type_id":"4","last_reported":1700427947,"current_range_meters":22400,"station_id":"","pricing_plan_id":"free"},{"bike_id":"489990f3-8349-455a-830c-7dc558db125e","system_id":"levelo_inurba_marseille","lat":43.32366,"lon":5.38882,"is_reserved":false,"is_disabled":false,"rental_uris":{"android":"levelo://app?vid=489990f3-8349-455a-830c-7dc558db125e","ios":"levelo://app?vid=489990f3-8349-455a-830c-7dc558db125e"},"vehicle_type_id":"4","last_reported":1700427947,"current_range_meters":0,"station_id":"ce4bhqp2rcd13ifvqhog","pricing_plan_id":"free"},{"bike_id":"ded2c6f4-4716-438a-bf1b-5350d6e982db","system_id":"levelo_inurba_marseille","lat":43.32367,"lon":5.388836,"is_reserved":false,"is_disabled":false,"rental_uris":{"android":"levelo://app?vid=ded2c6f4-4716-438a-bf1b-5350d6e982db","ios":"levelo://app?vid=ded2c6f4-4716-438a-bf1b-5350d6e982db"},"vehicle_type_id":"4","last_reported":1700427947,"current_range_meters":25200,"station_id":"ce4bhqp2rcd13ifvqhog","pricing_plan_id":"free"},{"bike_id":"58c99be4-5c7d-4af2-aeeb-e918f6f42c6a","system_id":"levelo_inurba_marseille","lat":43.32367,"lon":5.388836,"is_reserved":false,"is_disabled":false,"rental_uris":{"android":"levelo://app?vid=58c99be4-5c7d-4af2-aeeb-e918f6f42c6a","ios":"levelo://app?vid=58c99be4-5c7d-4af2-aeeb-e918f6f42c6a"},"vehicle_type_id":"4","last_reported":1700427947,"current_range_meters":10400,"station_id":"ce4bhqp2rcd13ifvqhog","pricing_plan_id":"free"},{"bike_id":"8ab48bda-fdb7-405a-b50d-8f56062387c2","system_id":"levelo_inurba_marseille","lat":43.32366,"lon":5.38887,"is_reserved":false,"is_disabled":false,"rental_uris":{"android":"levelo://app?vid=8ab48bda-fdb7-405a-b50d-8f56062387c2","ios":"levelo://app?vid=8ab48bda-fdb7-405a-b50d-8f56062387c2"},"vehicle_type_id":"4","last_reported":1700427947,"current_range_meters":5200,"station_id":"ce4bhqp2rcd13ifvqhog","pricing_plan_id":"free"},{"bike_id":"4eef38cc-64cf-4f4d-8d5b-99bd9d3b1b37","system_id":"levelo_inurba_marseille","lat":43.293161,"lon":5.371215,"is_reserved":false,"is_disabled":false,"rental_uris":{"android":"levelo://app?vid=4eef38cc-64cf-4f4d-8d5b-99bd9d3b1b37","ios":"levelo://app?vid=4eef38cc-64cf-4f4d-8d5b-99bd9d3b1b37"},"vehicle_type_id":"4","last_reported":1700427947,"current_range_meters":23200,"station_id":"ce4bgh92rcd13ifvqb40","pricing_plan_id":"free"},{"bike_id":"2875ea85-2ffc-4e4c-afe5-8ddf9789dbe8","system_id":"levelo_inurba_marseille","lat":43.293259,"lon":5.371586,"is_reserved":false,"is_disabled":false,"rental_uris":{"android":"levelo://app?vid=2875ea85-2ffc-4e4c-afe5-8ddf9789dbe8","ios":"levelo://app?vid=2875ea85-2ffc-4e4c-afe5-8ddf9789dbe8"},"vehicle_type_id":"4","last_reported":1700427947,"current_range_meters":7200,"station_id":"ce4bgh92rcd13ifvqb40","pricing_plan_id":"free"},{"bike_id":"359ce12e-3a2e-4e53-b7ae-6000416cae97","system_id":"levelo_inurba_marseille","lat":43.29271,"lon":5.36837,"is_reserved":false,"is_disabled":false,"rental_uris":{"android":"levelo://app?vid=359ce12e-3a2e-4e53-b7ae-6000416cae97","ios":"levelo://app?vid=359ce12e-3a2e-4e53-b7ae-6000416cae97"},"vehicle_type_id":"4","last_reported":1700427947,"current_range_meters":29200,"station_id":"ce4bhbp2rcd13ifvqesg","pricing_plan_id":"free"},{"bike_id":"897c0ac2-d4f2-46f6-95d9-df6cc90bbc21","system_id":"levelo_inurba_marseille","lat":43.305994,"lon":5.393687,"is_reserved":false,"is_disabled":false,"rental_uris":{"android":"levelo://app?vid=897c0ac2-d4f2-46f6-95d9-df6cc90bbc21","ios":"levelo://app?vid=897c0ac2-d4f2-46f6-95d9-df6cc90bbc21"},"vehicle_type_id":"4","last_reported":1700427947,"current_range_meters":6800,"station_id":"ce4bh0p2rcd13ifvqd80","pricing_plan_id":"free"},{"bike_id":"310ab7a0-1218-48ce-9874-28d10cfa1ea1","system_id":"levelo_inurba_marseille","lat":43.2936,"lon":5.37835,"is_reserved":false,"is_disabled":false,"rental_uris":{"android":"levelo://app?vid=310ab7a0-1218-48ce-9874-28d10cfa1ea1","ios":"levelo://app?vid=310ab7a0-1218-48ce-9874-28d10cfa1ea1"},"vehicle_type_id":"4","last_reported":1700427947,"current_range_meters":28000,"station_id":"ce4bgjh2rcd13ifvqbf0","pricing_plan_id":"free"},{"bike_id":"8a0426f6-bf93-4161-af84-be9383d246dc","system_id":"levelo_inurba_marseille","lat":43.293671,"lon":5.378532,"is_reserved":false,"is_disabled":false,"rental_uris":{"android":"levelo://app?vid=8a0426f6-bf93-4161-af84-be9383d246dc","ios":"levelo://app?vid=8a0426f6-bf93-4161-af84-be9383d246dc"},"vehicle_type_id":"4","last_reported":1700427947,"current_range_meters":0,"station_id":"ce4bgjh2rcd13ifvqbf0","pricing_plan_id":"free"},{"bike_id":"ea8b8b40-6f33-4e7b-b2cf-e840c0bc9fcb","system_id":"levelo_inurba_marseille","lat":43.292311,"lon":5.360731,"is_reserved":false,"is_disabled":false,"rental_uris":{"android":"levelo://app?vid=ea8b8b40-6f33-4e7b-b2cf-e840c0bc9fcb","ios":"levelo://app?vid=ea8b8b40-6f33-4e7b-b2cf-e840c0bc9fcb"},"vehicle_type_id":"4","last_reported":1700427947,"current_range_meters":30400,"station_id":"ce4bhbh2rcd13ifvqeqg","pricing_plan_id":"free"},{"bike_id":"710078d4-ff47-451c-ae52-41da47a6188e","system_id":"levelo_inurba_marseille","lat":43.292594,"lon":5.376194,"is_reserved":false,"is_disabled":false,"rental_uris":{"android":"levelo://app?vid=710078d4-ff47-451c-ae52-41da47a6188e","ios":"levelo://app?vid=710078d4-ff47-451c-ae52-41da47a6188e"},"vehicle_type_id":"4","last_reported":1700427947,"current_range_meters":31200,"station_id":"ce4bgi12rcd13ifvqb80","pricing_plan_id":"free"},{"bike_id":"3d61ade6-4ce7-441c-b09f-f6e62c69a03a","system_id":"levelo_inurba_marseille","lat":43.29257,"lon":5.37619,"is_reserved":false,"is_disabled":false,"rental_uris":{"android":"levelo://app?vid=3d61ade6-4ce7-441c-b09f-f6e62c69a03a","ios":"levelo://app?vid=3d61ade6-4ce7-441c-b09f-f6e62c69a03a"},"vehicle_type_id":"4","last_reported":1700427947,"current_range_meters":22800,"station_id":"ce4bgi12rcd13ifvqb80","pricing_plan_id":"free"},{"bike_id":"02352ebb-8525-4921-8631-8fb4409f42f2","system_id":"levelo_inurba_marseille","lat":43.291994,"lon":5.357886,"is_reserved":false,"is_disabled":false,"rental_uris":{"android":"levelo://app?vid=02352ebb-8525-4921-8631-8fb4409f42f2","ios":"levelo://app?vid=02352ebb-8525-4921-8631-8fb4409f42f2"},"vehicle_type_id":"4","last_reported":1700427947,"current_range_meters":0,"station_id":"ce4bhb12rcd13ifvqel0","pricing_plan_id":"free"},{"bike_id":"e0d419e7-8958-4db3-8f11-3e87709cf30f","system_id":"levelo_inurba_marseille","lat":43.30891,"lon":5.396437,"is_reserved":false,"is_disabled":false,"rental_uris":{"android":"levelo://app?vid=e0d419e7-8958-4db3-8f11-3e87709cf30f","ios":"levelo://app?vid=e0d419e7-8958-4db3-8f11-3e87709cf30f"},"vehicle_type_id":"4","last_reported":1700427947,"current_range_meters":0,"station_id":"ce4bh012rcd13ifvqcv0","pricing_plan_id":"free"},{"bike_id":"301daaf9-b32b-4328-a8e3-fcfae7c37a1c","system_id":"levelo_inurba_marseille","lat":43.30886,"lon":5.39651,"is_reserved":false,"is_disabled":false,"rental_uris":{"android":"levelo://app?vid=301daaf9-b32b-4328-a8e3-fcfae7c37a1c","ios":"levelo://app?vid=301daaf9-b32b-4328-a8e3-fcfae7c37a1c"},"vehicle_type_id":"4","last_reported":1700427947,"current_range_meters":8000,"station_id":"ce4bh012rcd13ifvqcv0","pricing_plan_id":"free"},{"bike_id":"67d392c9-b41b-4c0b-a0ce-dc3f20077ebd","system_id":"levelo_inurba_marseille","lat":43.311198,"lon":5.397253,"is_reserved":false,"is_disabled":false,"rental_uris":{"android":"levelo://app?vid=67d392c9-b41b-4c0b-a0ce-dc3f20077ebd","ios":"levelo://app?vid=67d392c9-b41b-4c0b-a0ce-dc3f20077ebd"},"vehicle_type_id":"4","last_reported":1700427947,"current_range_meters":9200,"station_id":"","pricing_plan_id":"free"},{"bike_id":"86105f36-e454-4cf6-ad3b-dd2c2748f1db","system_id":"levelo_inurba_marseille","lat":43.30209,"lon":5.39467,"is_reserved":false,"is_disabled":false,"rental_uris":{"android":"levelo://app?vid=86105f36-e454-4cf6-ad3b-dd2c2748f1db","ios":"levelo://app?vid=86105f36-e454-4cf6-ad3b-dd2c2748f1db"},"vehicle_type_id":"4","last_reported":1700427947,"current_range_meters":0,"station_id":"ce4bh0p2rcd13ifvqd70","pricing_plan_id":"free"},{"bike_id":"6d2fe1c8-f215-49ad-b1a6-2f0e24c936b1","system_id":"levelo_inurba_marseille","lat":43.290624,"lon":5.359245,"is_reserved":false,"is_disabled":false,"rental_uris":{"android":"levelo://app?vid=6d2fe1c8-f215-49ad-b1a6-2f0e24c936b1","ios":"levelo://app?vid=6d2fe1c8-f215-49ad-b1a6-2f0e24c936b1"},"vehicle_type_id":"4","last_reported":1700427947,"current_range_meters":20800,"station_id":"ce4bha92rcd13ifvqeg0","pricing_plan_id":"free"},{"bike_id":"a7d763ed-49cd-4e36-8d66-ccdfd277b99e","system_id":"levelo_inurba_marseille","lat":43.29102,"lon":5.355745,"is_reserved":false,"is_disabled":false,"rental_uris":{"android":"levelo://app?vid=a7d763ed-49cd-4e36-8d66-ccdfd277b99e","ios":"levelo://app?vid=a7d763ed-49cd-4e36-8d66-ccdfd277b99e"},"vehicle_type_id":"4","last_reported":1700427947,"current_range_meters":0,"station_id":"","pricing_plan_id":"free"},{"bike_id":"96985b75-9492-4cd1-bd98-4dbaadb89765","system_id":"levelo_inurba_marseille","lat":43.289445,"lon":5.366308,"is_reserved":false,"is_disabled":false,"rental_uris":{"android":"levelo://app?vid=96985b75-9492-4cd1-bd98-4dbaadb89765","ios":"levelo://app?vid=96985b75-9492-4cd1-bd98-4dbaadb89765"},"vehicle_type_id":"4","last_reported":1700427947,"current_range_meters":0,"station_id":"ce4bhap2rcd13ifvqek0","pricing_plan_id":"free"},{"bike_id":"31b27753-e928-4f26-8dc9-f87a851ee624","system_id":"levelo_inurba_marseille","lat":43.29052,"lon":5.37763,"is_reserved":false,"is_disabled":false,"rental_uris":{"android":"levelo://app?vid=31b27753-e928-4f26-8dc9-f87a851ee624","ios":"levelo://app?vid=31b27753-e928-4f26-8dc9-f87a851ee624"},"vehicle_type_id":"4","last_reported":1700427947,"current_range_meters":0,"station_id":"","pricing_plan_id":"free"},{"bike_id":"3c291475-9d31-4f94-b7b6-43ad5a2cf747","system_id":"levelo_inurba_marseille","lat":43.292689,"lon":5.384454,"is_reserved":false,"is_disabled":false,"rental_uris":{"android":"levelo://app?vid=3c291475-9d31-4f94-b7b6-43ad5a2cf747","ios":"levelo://app?vid=3c291475-9d31-4f94-b7b6-43ad5a2cf747"},"vehicle_type_id":"4","last_reported":1700427947,"current_range_meters":0,"station_id":"ce4bh692rcd13ifvqea0","pricing_plan_id":"free"},{"bike_id":"dfc53f3f-080e-4d97-91ba-cf140c791733","system_id":"levelo_inurba_marseille","lat":43.304296,"lon":5.397513,"is_reserved":false,"is_disabled":false,"rental_uris":{"android":"levelo://app?vid=dfc53f3f-080e-4d97-91ba-cf140c791733","ios":"levelo://app?vid=dfc53f3f-080e-4d97-91ba-cf140c791733"},"vehicle_type_id":"4","last_reported":1700427947,"current_range_meters":25600,"station_id":"ce4bh092rcd13ifvqd20","pricing_plan_id":"free"},{"bike_id":"32cd991c-97e6-4cf2-8579-724976d8ed55","system_id":"levelo_inurba_marseille","lat":43.297938,"lon":5.39342,"is_reserved":false,"is_disabled":false,"rental_uris":{"android":"levelo://app?vid=32cd991c-97e6-4cf2-8579-724976d8ed55","ios":"levelo://app?vid=32cd991c-97e6-4cf2-8579-724976d8ed55"},"vehicle_type_id":"4","last_reported":1700427947,"current_range_meters":0,"station_id":"chh1huq6cuj3fo74tm60","pricing_plan_id":"free"},{"bike_id":"f9de8736-4325-4db3-a4fb-25c347f1f588","system_id":"levelo_inurba_marseille","lat":43.297815,"lon":5.393548,"is_reserved":false,"is_disabled":false,"rental_uris":{"android":"levelo://app?vid=f9de8736-4325-4db3-a4fb-25c347f1f588","ios":"levelo://app?vid=f9de8736-4325-4db3-a4fb-25c347f1f588"},"vehicle_type_id":"4","last_reported":1700427947,"current_range_meters":7600,"station_id":"chh1huq6cuj3fo74tm60","pricing_plan_id":"free"},{"bike_id":"7bf396bb-a80b-4d8a-b525-9e26e5547bfd","system_id":"levelo_inurba_marseille","lat":43.29027,"lon":5.38137,"is_reserved":false,"is_disabled":false,"rental_uris":{"android":"levelo://app?vid=7bf396bb-a80b-4d8a-b525-9e26e5547bfd","ios":"levelo://app?vid=7bf396bb-a80b-4d8a-b525-9e26e5547bfd"},"vehicle_type_id":"4","last_reported":1700427947,"current_range_meters":0,"station_id":"ce4bh4p2rcd13ifvqe1g","pricing_plan_id":"free"},{"bike_id":"5d34bbf2-8d04-4849-a779-8b194c788b01","system_id":"levelo_inurba_marseille","lat":43.28856,"lon":5.358371,"is_reserved":false,"is_disabled":false,"rental_uris":{"android":"levelo://app?vid=5d34bbf2-8d04-4849-a779-8b194c788b01","ios":"levelo://app?vid=5d34bbf2-8d04-4849-a779-8b194c788b01"},"vehicle_type_id":"4","last_reported":1700427947,"current_range_meters":23200,"station_id":"ce4bhb12rcd13ifvqem0","pricing_plan_id":"free"},{"bike_id":"07202f70-50d7-46f0-a5bd-59712659d6a0","system_id":"levelo_inurba_marseille","lat":43.31251,"lon":5.40162,"is_reserved":false,"is_disabled":false,"rental_uris":{"android":"levelo://app?vid=07202f70-50d7-46f0-a5bd-59712659d6a0","ios":"levelo://app?vid=07202f70-50d7-46f0-a5bd-59712659d6a0"},"vehicle_type_id":"4","last_reported":1700427947,"current_range_meters":9600,"station_id":"","pricing_plan_id":"free"},{"bike_id":"159a2e4c-ed06-40ad-b899-3656805d9245","system_id":"levelo_inurba_marseille","lat":43.30927,"lon":5.40141,"is_reserved":false,"is_disabled":false,"rental_uris":{"android":"levelo://app?vid=159a2e4c-ed06-40ad-b899-3656805d9245","ios":"levelo://app?vid=159a2e4c-ed06-40ad-b899-3656805d9245"},"vehicle_type_id":"4","last_reported":1700427947,"current_range_meters":0,"station_id":"ce4bgvp2rcd13ifvqct0","pricing_plan_id":"free"},{"bike_id":"b787e0e8-880c-45dc-85f7-70077fba6894","system_id":"levelo_inurba_marseille","lat":43.33744,"lon":5.37472,"is_reserved":false,"is_disabled":false,"rental_uris":{"android":"levelo://app?vid=b787e0e8-880c-45dc-85f7-70077fba6894","ios":"levelo://app?vid=b787e0e8-880c-45dc-85f7-70077fba6894"},"vehicle_type_id":"4","last_reported":1700427947,"current_range_meters":22000,"station_id":"","pricing_plan_id":"free"},{"bike_id":"46509513-12f0-4bae-91ab-3b5bb7ed22cf","system_id":"levelo_inurba_marseille","lat":43.337711,"lon":5.374299,"is_reserved":false,"is_disabled":false,"rental_uris":{"android":"levelo://app?vid=46509513-12f0-4bae-91ab-3b5bb7ed22cf","ios":"levelo://app?vid=46509513-12f0-4bae-91ab-3b5bb7ed22cf"},"vehicle_type_id":"4","last_reported":1700427947,"current_range_meters":18000,"station_id":"","pricing_plan_id":"free"},{"bike_id":"473d2011-ae75-4743-87c2-eb53e5b85a28","system_id":"levelo_inurba_marseille","lat":43.337853,"lon":5.374286,"is_reserved":false,"is_disabled":false,"rental_uris":{"android":"levelo://app?vid=473d2011-ae75-4743-87c2-eb53e5b85a28","ios":"levelo://app?vid=473d2011-ae75-4743-87c2-eb53e5b85a28"},"vehicle_type_id":"4","last_reported":1700427947,"current_range_meters":20000,"station_id":"","pricing_plan_id":"free"},{"bike_id":"3735b4ac-0725-41ac-a50d-dab88529fdf7","system_id":"levelo_inurba_marseille","lat":43.28727,"lon":5.36078,"is_reserved":false,"is_disabled":false,"rental_uris":{"android":"levelo://app?vid=3735b4ac-0725-41ac-a50d-dab88529fdf7","ios":"levelo://app?vid=3735b4ac-0725-41ac-a50d-dab88529fdf7"},"vehicle_type_id":"4","last_reported":1700427947,"current_range_meters":20400,"station_id":"cki0cbj6b192h4jlfktg","pricing_plan_id":"free"},{"bike_id":"668a58be-3b97-49b0-8ecb-a2d5b16ce93b","system_id":"levelo_inurba_marseille","lat":43.28668,"lon":5.3635,"is_reserved":false,"is_disabled":false,"rental_uris":{"android":"levelo://app?vid=668a58be-3b97-49b0-8ecb-a2d5b16ce93b","ios":"levelo://app?vid=668a58be-3b97-49b0-8ecb-a2d5b16ce93b"},"vehicle_type_id":"4","last_reported":1700427947,"current_range_meters":28000,"station_id":"ce4bhah2rcd13ifvqej0","pricing_plan_id":"free"},{"bike_id":"5b01443f-8c47-4964-ac12-42904e4ed6ec","system_id":"levelo_inurba_marseille","lat":43.298681,"lon":5.397225,"is_reserved":false,"is_disabled":false,"rental_uris":{"android":"levelo://app?vid=5b01443f-8c47-4964-ac12-42904e4ed6ec","ios":"levelo://app?vid=5b01443f-8c47-4964-ac12-42904e4ed6ec"},"vehicle_type_id":"4","last_reported":1700427947,"current_range_meters":2400,"station_id":"ce4bh0h2rcd13ifvqd50","pricing_plan_id":"free"},{"bike_id":"8b2690bd-1934-4450-8f3c-64198629d8b8","system_id":"levelo_inurba_marseille","lat":43.287185,"lon":5.379373,"is_reserved":false,"is_disabled":false,"rental_uris":{"android":"levelo://app?vid=8b2690bd-1934-4450-8f3c-64198629d8b8","ios":"levelo://app?vid=8b2690bd-1934-4450-8f3c-64198629d8b8"},"vehicle_type_id":"4","last_reported":1700427947,"current_range_meters":20800,"station_id":"ce4bh9p2rcd13ifvqec0","pricing_plan_id":"free"},{"bike_id":"82f0bec1-510e-4e11-b022-4e2ec4798ad3","system_id":"levelo_inurba_marseille","lat":43.3165,"lon":5.40437,"is_reserved":false,"is_disabled":false,"rental_uris":{"android":"levelo://app?vid=82f0bec1-510e-4e11-b022-4e2ec4798ad3","ios":"levelo://app?vid=82f0bec1-510e-4e11-b022-4e2ec4798ad3"},"vehicle_type_id":"4","last_reported":1700427947,"current_range_meters":12800,"station_id":"ce4bh012rcd13ifvqd00","pricing_plan_id":"free"},{"bike_id":"509eb662-b451-4a45-8c25-27d79823d125","system_id":"levelo_inurba_marseille","lat":43.316517,"lon":5.404375,"is_reserved":false,"is_disabled":false,"rental_uris":{"android":"levelo://app?vid=509eb662-b451-4a45-8c25-27d79823d125","ios":"levelo://app?vid=509eb662-b451-4a45-8c25-27d79823d125"},"vehicle_type_id":"4","last_reported":1700427947,"current_range_meters":10800,"station_id":"ce4bh012rcd13ifvqd00","pricing_plan_id":"free"},{"bike_id":"80bf4d36-95c0-4529-afc9-bbd963d6aff8","system_id":"levelo_inurba_marseille","lat":43.316517,"lon":5.404375,"is_reserved":false,"is_disabled":false,"rental_uris":{"android":"levelo://app?vid=80bf4d36-95c0-4529-afc9-bbd963d6aff8","ios":"levelo://app?vid=80bf4d36-95c0-4529-afc9-bbd963d6aff8"},"vehicle_type_id":"4","last_reported":1700427947,"current_range_meters":16000,"station_id":"ce4bh012rcd13ifvqd00","pricing_plan_id":"free"},{"bike_id":"00b41d3c-ed6d-46db-97c5-b987bb4dec40","system_id":"levelo_inurba_marseille","lat":43.291994,"lon":5.392907,"is_reserved":false,"is_disabled":false,"rental_uris":{"android":"levelo://app?vid=00b41d3c-ed6d-46db-97c5-b987bb4dec40","ios":"levelo://app?vid=00b41d3c-ed6d-46db-97c5-b987bb4dec40"},"vehicle_type_id":"4","last_reported":1700427947,"current_range_meters":23600,"station_id":"ce4bh192rcd13ifvqdd0","pricing_plan_id":"free"},{"bike_id":"cbc80459-b41e-4cea-a4fc-4b9c019bcf84","system_id":"levelo_inurba_marseille","lat":43.291994,"lon":5.392907,"is_reserved":false,"is_disabled":false,"rental_uris":{"android":"levelo://app?vid=cbc80459-b41e-4cea-a4fc-4b9c019bcf84","ios":"levelo://app?vid=cbc80459-b41e-4cea-a4fc-4b9c019bcf84"},"vehicle_type_id":"4","last_reported":1700427947,"current_range_meters":0,"station_id":"ce4bh192rcd13ifvqdd0","pricing_plan_id":"free"},{"bike_id":"62263b49-9d00-49df-af57-9e369e9ecb19","system_id":"levelo_inurba_marseille","lat":43.291994,"lon":5.392907,"is_reserved":false,"is_disabled":false,"rental_uris":{"android":"levelo://app?vid=62263b49-9d00-49df-af57-9e369e9ecb19","ios":"levelo://app?vid=62263b49-9d00-49df-af57-9e369e9ecb19"},"vehicle_type_id":"4","last_reported":1700427947,"current_range_meters":14400,"station_id":"ce4bh192rcd13ifvqdd0","pricing_plan_id":"free"},{"bike_id":"9b155546-ab5d-4787-8b96-e81792389df3","system_id":"levelo_inurba_marseille","lat":43.294314,"lon":5.397498,"is_reserved":false,"is_disabled":false,"rental_uris":{"android":"levelo://app?vid=9b155546-ab5d-4787-8b96-e81792389df3","ios":"levelo://app?vid=9b155546-ab5d-4787-8b96-e81792389df3"},"vehicle_type_id":"4","last_reported":1700427947,"current_range_meters":4800,"station_id":"ce4bh3h2rcd13ifvqdo0","pricing_plan_id":"free"},{"bike_id":"abaff342-1ad0-46f7-93d6-5af34e7fd688","system_id":"levelo_inurba_marseille","lat":43.284538,"lon":5.358657,"is_reserved":false,"is_disabled":false,"rental_uris":{"android":"levelo://app?vid=abaff342-1ad0-46f7-93d6-5af34e7fd688","ios":"levelo://app?vid=abaff342-1ad0-46f7-93d6-5af34e7fd688"},"vehicle_type_id":"4","last_reported":1700427947,"current_range_meters":13600,"station_id":"ce4bhah2rcd13ifvqei0","pricing_plan_id":"free"},{"bike_id":"8f6b8969-53e8-419c-be97-380429f41620","system_id":"levelo_inurba_marseille","lat":43.284534,"lon":5.358662,"is_reserved":false,"is_disabled":false,"rental_uris":{"android":"levelo://app?vid=8f6b8969-53e8-419c-be97-380429f41620","ios":"levelo://app?vid=8f6b8969-53e8-419c-be97-380429f41620"},"vehicle_type_id":"4","last_reported":1700427947,"current_range_meters":27600,"station_id":"ce4bhah2rcd13ifvqei0","pricing_plan_id":"free"},{"bike_id":"38a9956c-e9e2-49db-bda6-2d7b54a9aa53","system_id":"levelo_inurba_marseille","lat":43.286116,"lon":5.351024,"is_reserved":false,"is_disabled":false,"rental_uris":{"android":"levelo://app?vid=38a9956c-e9e2-49db-bda6-2d7b54a9aa53","ios":"levelo://app?vid=38a9956c-e9e2-49db-bda6-2d7b54a9aa53"},"vehicle_type_id":"4","last_reported":1700427947,"current_range_meters":31200,"station_id":"ce4bhch2rcd13ifvqeug","pricing_plan_id":"free"},{"bike_id":"f16c7963-22c6-4c10-9d93-914892954d35","system_id":"levelo_inurba_marseille","lat":43.31324,"lon":5.40711,"is_reserved":false,"is_disabled":false,"rental_uris":{"android":"levelo://app?vid=f16c7963-22c6-4c10-9d93-914892954d35","ios":"levelo://app?vid=f16c7963-22c6-4c10-9d93-914892954d35"},"vehicle_type_id":"4","last_reported":1700427947,"current_range_meters":13600,"station_id":"","pricing_plan_id":"free"},{"bike_id":"5f153f02-c4c9-456b-aa48-aeca587f3139","system_id":"levelo_inurba_marseille","lat":43.28464,"lon":5.37849,"is_reserved":false,"is_disabled":false,"rental_uris":{"android":"levelo://app?vid=5f153f02-c4c9-456b-aa48-aeca587f3139","ios":"levelo://app?vid=5f153f02-c4c9-456b-aa48-aeca587f3139"},"vehicle_type_id":"4","last_reported":1700427947,"current_range_meters":3600,"station_id":"","pricing_plan_id":"free"},{"bike_id":"5974ad3b-da81-42ca-a08b-1b3632a47afa","system_id":"levelo_inurba_marseille","lat":43.33237,"lon":5.3985,"is_reserved":false,"is_disabled":false,"rental_uris":{"android":"levelo://app?vid=5974ad3b-da81-42ca-a08b-1b3632a47afa","ios":"levelo://app?vid=5974ad3b-da81-42ca-a08b-1b3632a47afa"},"vehicle_type_id":"4","last_reported":1700427947,"current_range_meters":0,"station_id":"","pricing_plan_id":"free"},{"bike_id":"b1877c78-b424-4e30-8ba7-dbea28a2dc3e","system_id":"levelo_inurba_marseille","lat":43.297946,"lon":5.404063,"is_reserved":false,"is_disabled":false,"rental_uris":{"android":"levelo://app?vid=b1877c78-b424-4e30-8ba7-dbea28a2dc3e","ios":"levelo://app?vid=b1877c78-b424-4e30-8ba7-dbea28a2dc3e"},"vehicle_type_id":"4","last_reported":1700427947,"current_range_meters":23600,"station_id":"ce4bh112rcd13ifvqd90","pricing_plan_id":"free"},{"bike_id":"b7da9083-5fd6-4f00-b4cf-3e929d01706e","system_id":"levelo_inurba_marseille","lat":43.283498,"lon":5.380948,"is_reserved":false,"is_disabled":false,"rental_uris":{"android":"levelo://app?vid=b7da9083-5fd6-4f00-b4cf-3e929d01706e","ios":"levelo://app?vid=b7da9083-5fd6-4f00-b4cf-3e929d01706e"},"vehicle_type_id":"4","last_reported":1700427947,"current_range_meters":28400,"station_id":"ce4bh412rcd13ifvqdr0","pricing_plan_id":"free"},{"bike_id":"e373b641-ec8e-43f7-98e4-595310f3069e","system_id":"levelo_inurba_marseille","lat":43.289363,"lon":5.396322,"is_reserved":false,"is_disabled":false,"rental_uris":{"android":"levelo://app?vid=e373b641-ec8e-43f7-98e4-595310f3069e","ios":"levelo://app?vid=e373b641-ec8e-43f7-98e4-595310f3069e"},"vehicle_type_id":"4","last_reported":1700427947,"current_range_meters":2000,"station_id":"ce4bh3h2rcd13ifvqdn0","pricing_plan_id":"free"},{"bike_id":"b594f2fb-24ab-4217-99a7-0e9168fa59d5","system_id":"levelo_inurba_marseille","lat":43.289363,"lon":5.396322,"is_reserved":false,"is_disabled":false,"rental_uris":{"android":"levelo://app?vid=b594f2fb-24ab-4217-99a7-0e9168fa59d5","ios":"levelo://app?vid=b594f2fb-24ab-4217-99a7-0e9168fa59d5"},"vehicle_type_id":"4","last_reported":1700427947,"current_range_meters":15200,"station_id":"ce4bh3h2rcd13ifvqdn0","pricing_plan_id":"free"},{"bike_id":"f5263637-4e20-441f-85d6-56c16367d9b1","system_id":"levelo_inurba_marseille","lat":43.28274,"lon":5.35069,"is_reserved":false,"is_disabled":false,"rental_uris":{"android":"levelo://app?vid=f5263637-4e20-441f-85d6-56c16367d9b1","ios":"levelo://app?vid=f5263637-4e20-441f-85d6-56c16367d9b1"},"vehicle_type_id":"4","last_reported":1700427947,"current_range_meters":20000,"station_id":"ce4bhbp2rcd13ifvqerg","pricing_plan_id":"free"},{"bike_id":"6493c972-2e32-42a4-ba33-a39a1ddb1432","system_id":"levelo_inurba_marseille","lat":43.282688,"lon":5.350641,"is_reserved":false,"is_disabled":false,"rental_uris":{"android":"levelo://app?vid=6493c972-2e32-42a4-ba33-a39a1ddb1432","ios":"levelo://app?vid=6493c972-2e32-42a4-ba33-a39a1ddb1432"},"vehicle_type_id":"4","last_reported":1700427947,"current_range_meters":30800,"station_id":"ce4bhbp2rcd13ifvqerg","pricing_plan_id":"free"},{"bike_id":"b1c66fbc-007b-44eb-916a-e4ccf40d421e","system_id":"levelo_inurba_marseille","lat":43.290412,"lon":5.399633,"is_reserved":false,"is_disabled":false,"rental_uris":{"android":"levelo://app?vid=b1c66fbc-007b-44eb-916a-e4ccf40d421e","ios":"levelo://app?vid=b1c66fbc-007b-44eb-916a-e4ccf40d421e"},"vehicle_type_id":"4","last_reported":1700427947,"current_range_meters":0,"station_id":"ce4bh392rcd13ifvqdm0","pricing_plan_id":"free"},{"bike_id":"e78a5ab7-932c-43c7-8dfb-ad0830b9b28e","system_id":"levelo_inurba_marseille","lat":43.281044,"lon":5.378308,"is_reserved":false,"is_disabled":false,"rental_uris":{"android":"levelo://app?vid=e78a5ab7-932c-43c7-8dfb-ad0830b9b28e","ios":"levelo://app?vid=e78a5ab7-932c-43c7-8dfb-ad0830b9b28e"},"vehicle_type_id":"4","last_reported":1700427947,"current_range_meters":12800,"station_id":"ce4bha12rcd13ifvqee0","pricing_plan_id":"free"},{"bike_id":"04afa565-9629-40d9-9d9b-d300eadd9e72","system_id":"levelo_inurba_marseille","lat":43.281044,"lon":5.378308,"is_reserved":false,"is_disabled":false,"rental_uris":{"android":"levelo://app?vid=04afa565-9629-40d9-9d9b-d300eadd9e72","ios":"levelo://app?vid=04afa565-9629-40d9-9d9b-d300eadd9e72"},"vehicle_type_id":"4","last_reported":1700427947,"current_range_meters":16800,"station_id":"ce4bha12rcd13ifvqee0","pricing_plan_id":"free"},{"bike_id":"ccf9b17e-2fb6-47d5-b5cb-73ea08fcb6e5","system_id":"levelo_inurba_marseille","lat":43.28575,"lon":5.39498,"is_reserved":false,"is_disabled":false,"rental_uris":{"android":"levelo://app?vid=ccf9b17e-2fb6-47d5-b5cb-73ea08fcb6e5","ios":"levelo://app?vid=ccf9b17e-2fb6-47d5-b5cb-73ea08fcb6e5"},"vehicle_type_id":"4","last_reported":1700427947,"current_range_meters":0,"station_id":"ce4bh292rcd13ifvqdg0","pricing_plan_id":"free"},{"bike_id":"361858fb-fc77-41da-b2c5-9fa7892cbf85","system_id":"levelo_inurba_marseille","lat":43.285742,"lon":5.395004,"is_reserved":false,"is_disabled":false,"rental_uris":{"android":"levelo://app?vid=361858fb-fc77-41da-b2c5-9fa7892cbf85","ios":"levelo://app?vid=361858fb-fc77-41da-b2c5-9fa7892cbf85"},"vehicle_type_id":"4","last_reported":1700427947,"current_range_meters":7600,"station_id":"ce4bh292rcd13ifvqdg0","pricing_plan_id":"free"},{"bike_id":"5d9d48ea-daba-4f97-9219-33a746cb030b","system_id":"levelo_inurba_marseille","lat":43.304143,"lon":5.412893,"is_reserved":false,"is_disabled":false,"rental_uris":{"android":"levelo://app?vid=5d9d48ea-daba-4f97-9219-33a746cb030b","ios":"levelo://app?vid=5d9d48ea-daba-4f97-9219-33a746cb030b"},"vehicle_type_id":"4","last_reported":1700427947,"current_range_meters":2000,"station_id":"ce4bhop2rcd13ifvqh8g","pricing_plan_id":"free"},{"bike_id":"a73e4f69-14a5-4eea-833c-0b5ca431ae90","system_id":"levelo_inurba_marseille","lat":43.304188,"lon":5.412904,"is_reserved":false,"is_disabled":false,"rental_uris":{"android":"levelo://app?vid=a73e4f69-14a5-4eea-833c-0b5ca431ae90","ios":"levelo://app?vid=a73e4f69-14a5-4eea-833c-0b5ca431ae90"},"vehicle_type_id":"4","last_reported":1700427947,"current_range_meters":30800,"station_id":"ce4bhop2rcd13ifvqh8g","pricing_plan_id":"free"},{"bike_id":"71eaa71a-f2cf-48ab-a273-05166976badc","system_id":"levelo_inurba_marseille","lat":43.279087,"lon":5.380114,"is_reserved":false,"is_disabled":false,"rental_uris":{"android":"levelo://app?vid=71eaa71a-f2cf-48ab-a273-05166976badc","ios":"levelo://app?vid=71eaa71a-f2cf-48ab-a273-05166976badc"},"vehicle_type_id":"4","last_reported":1700427947,"current_range_meters":23200,"station_id":"ce4bhf92rcd13ifvqf50","pricing_plan_id":"free"},{"bike_id":"81b8e324-48e8-43c4-a9ef-3759cbf406ed","system_id":"levelo_inurba_marseille","lat":43.279087,"lon":5.380114,"is_reserved":false,"is_disabled":false,"rental_uris":{"android":"levelo://app?vid=81b8e324-48e8-43c4-a9ef-3759cbf406ed","ios":"levelo://app?vid=81b8e324-48e8-43c4-a9ef-3759cbf406ed"},"vehicle_type_id":"4","last_reported":1700427947,"current_range_meters":30400,"station_id":"ce4bhf92rcd13ifvqf50","pricing_plan_id":"free"},{"bike_id":"4ec484dd-ca09-4d83-b286-e1992031050b","system_id":"levelo_inurba_marseille","lat":43.292569,"lon":5.409107,"is_reserved":false,"is_disabled":false,"rental_uris":{"android":"levelo://app?vid=4ec484dd-ca09-4d83-b286-e1992031050b","ios":"levelo://app?vid=4ec484dd-ca09-4d83-b286-e1992031050b"},"vehicle_type_id":"4","last_reported":1700427947,"current_range_meters":25600,"station_id":"ce4bh192rcd13ifvqdc0","pricing_plan_id":"free"},{"bike_id":"0bda960f-b88d-4ba0-a75e-1fc8cc09d4a4","system_id":"levelo_inurba_marseille","lat":43.27559,"lon":5.36028,"is_reserved":false,"is_disabled":false,"rental_uris":{"android":"levelo://app?vid=0bda960f-b88d-4ba0-a75e-1fc8cc09d4a4","ios":"levelo://app?vid=0bda960f-b88d-4ba0-a75e-1fc8cc09d4a4"},"vehicle_type_id":"4","last_reported":1700427947,"current_range_meters":12000,"station_id":"","pricing_plan_id":"free"},{"bike_id":"8c69b603-8a22-457a-9c65-5ead6ab43d89","system_id":"levelo_inurba_marseille","lat":43.280784,"lon":5.396622,"is_reserved":false,"is_disabled":false,"rental_uris":{"android":"levelo://app?vid=8c69b603-8a22-457a-9c65-5ead6ab43d89","ios":"levelo://app?vid=8c69b603-8a22-457a-9c65-5ead6ab43d89"},"vehicle_type_id":"4","last_reported":1700427947,"current_range_meters":28000,"station_id":"ce4bho12rcd13ifvqh2g","pricing_plan_id":"free"},{"bike_id":"d4b4098b-3108-4693-bbcc-ac1187aecdac","system_id":"levelo_inurba_marseille","lat":43.2808,"lon":5.3966,"is_reserved":false,"is_disabled":false,"rental_uris":{"android":"levelo://app?vid=d4b4098b-3108-4693-bbcc-ac1187aecdac","ios":"levelo://app?vid=d4b4098b-3108-4693-bbcc-ac1187aecdac"},"vehicle_type_id":"4","last_reported":1700427947,"current_range_meters":0,"station_id":"ce4bho12rcd13ifvqh2g","pricing_plan_id":"free"},{"bike_id":"8e97420c-f368-4679-aebd-6fa9d8ab1f29","system_id":"levelo_inurba_marseille","lat":43.273782,"lon":5.362504,"is_reserved":false,"is_disabled":false,"rental_uris":{"android":"levelo://app?vid=8e97420c-f368-4679-aebd-6fa9d8ab1f29","ios":"levelo://app?vid=8e97420c-f368-4679-aebd-6fa9d8ab1f29"},"vehicle_type_id":"4","last_reported":1700427947,"current_range_meters":31200,"station_id":"ce4bhbh2rcd13ifvqeo0","pricing_plan_id":"free"},{"bike_id":"01ed7991-eaca-4c39-b3f9-40b4ebe9e070","system_id":"levelo_inurba_marseille","lat":43.273775,"lon":5.362517,"is_reserved":false,"is_disabled":false,"rental_uris":{"android":"levelo://app?vid=01ed7991-eaca-4c39-b3f9-40b4ebe9e070","ios":"levelo://app?vid=01ed7991-eaca-4c39-b3f9-40b4ebe9e070"},"vehicle_type_id":"4","last_reported":1700427947,"current_range_meters":31200,"station_id":"ce4bhbh2rcd13ifvqeo0","pricing_plan_id":"free"},{"bike_id":"82253a86-1b2a-4dab-bd68-3e684d56fb66","system_id":"levelo_inurba_marseille","lat":43.33612,"lon":5.410321,"is_reserved":false,"is_disabled":false,"rental_uris":{"android":"levelo://app?vid=82253a86-1b2a-4dab-bd68-3e684d56fb66","ios":"levelo://app?vid=82253a86-1b2a-4dab-bd68-3e684d56fb66"},"vehicle_type_id":"4","last_reported":1700427947,"current_range_meters":7200,"station_id":"ce4bhqh2rcd13ifvqhmg","pricing_plan_id":"free"},{"bike_id":"5a9e9cf0-a54b-46e3-b6d6-4dc50a093f1f","system_id":"levelo_inurba_marseille","lat":43.27643,"lon":5.38887,"is_reserved":false,"is_disabled":false,"rental_uris":{"android":"levelo://app?vid=5a9e9cf0-a54b-46e3-b6d6-4dc50a093f1f","ios":"levelo://app?vid=5a9e9cf0-a54b-46e3-b6d6-4dc50a093f1f"},"vehicle_type_id":"4","last_reported":1700427947,"current_range_meters":0,"station_id":"ce4bhi12rcd13ifvqfo0","pricing_plan_id":"free"},{"bike_id":"d4fa6e09-b2f8-486c-bd6d-cda66c2d8764","system_id":"levelo_inurba_marseille","lat":43.279952,"lon":5.400085,"is_reserved":false,"is_disabled":false,"rental_uris":{"android":"levelo://app?vid=d4fa6e09-b2f8-486c-bd6d-cda66c2d8764","ios":"levelo://app?vid=d4fa6e09-b2f8-486c-bd6d-cda66c2d8764"},"vehicle_type_id":"4","last_reported":1700427947,"current_range_meters":16400,"station_id":"ce4bho92rcd13ifvqh4g","pricing_plan_id":"free"},{"bike_id":"b5ed9e53-12f2-4ca4-8008-330c09fa3187","system_id":"levelo_inurba_marseille","lat":43.27998,"lon":5.40006,"is_reserved":false,"is_disabled":false,"rental_uris":{"android":"levelo://app?vid=b5ed9e53-12f2-4ca4-8008-330c09fa3187","ios":"levelo://app?vid=b5ed9e53-12f2-4ca4-8008-330c09fa3187"},"vehicle_type_id":"4","last_reported":1700427947,"current_range_meters":0,"station_id":"ce4bho92rcd13ifvqh4g","pricing_plan_id":"free"},{"bike_id":"8f64ab4c-e41b-42bc-8b04-fd401c60b361","system_id":"levelo_inurba_marseille","lat":43.279952,"lon":5.400085,"is_reserved":false,"is_disabled":false,"rental_uris":{"android":"levelo://app?vid=8f64ab4c-e41b-42bc-8b04-fd401c60b361","ios":"levelo://app?vid=8f64ab4c-e41b-42bc-8b04-fd401c60b361"},"vehicle_type_id":"4","last_reported":1700427947,"current_range_meters":31200,"station_id":"ce4bho92rcd13ifvqh4g","pricing_plan_id":"free"},{"bike_id":"09598e6a-b738-4f12-ac60-d1462555796f","system_id":"levelo_inurba_marseille","lat":43.279952,"lon":5.400085,"is_reserved":false,"is_disabled":false,"rental_uris":{"android":"levelo://app?vid=09598e6a-b738-4f12-ac60-d1462555796f","ios":"levelo://app?vid=09598e6a-b738-4f12-ac60-d1462555796f"},"vehicle_type_id":"4","last_reported":1700427947,"current_range_meters":25200,"station_id":"ce4bho92rcd13ifvqh4g","pricing_plan_id":"free"},{"bike_id":"26e38500-cf06-412c-84c9-f57ade123ddf","system_id":"levelo_inurba_marseille","lat":43.27995,"lon":5.40017,"is_reserved":false,"is_disabled":false,"rental_uris":{"android":"levelo://app?vid=26e38500-cf06-412c-84c9-f57ade123ddf","ios":"levelo://app?vid=26e38500-cf06-412c-84c9-f57ade123ddf"},"vehicle_type_id":"4","last_reported":1700427947,"current_range_meters":32000,"station_id":"ce4bho92rcd13ifvqh4g","pricing_plan_id":"free"},{"bike_id":"130d76e3-8fce-46cb-8cc7-0c8a4297873b","system_id":"levelo_inurba_marseille","lat":43.310785,"lon":5.424305,"is_reserved":false,"is_disabled":false,"rental_uris":{"android":"levelo://app?vid=130d76e3-8fce-46cb-8cc7-0c8a4297873b","ios":"levelo://app?vid=130d76e3-8fce-46cb-8cc7-0c8a4297873b"},"vehicle_type_id":"4","last_reported":1700427947,"current_range_meters":27600,"station_id":"ce4bhp92rcd13ifvqhag","pricing_plan_id":"free"},{"bike_id":"1dcde93e-9989-4ef7-ba37-9a69f9a4abe3","system_id":"levelo_inurba_marseille","lat":43.304096,"lon":5.425385,"is_reserved":false,"is_disabled":false,"rental_uris":{"android":"levelo://app?vid=1dcde93e-9989-4ef7-ba37-9a69f9a4abe3","ios":"levelo://app?vid=1dcde93e-9989-4ef7-ba37-9a69f9a4abe3"},"vehicle_type_id":"4","last_reported":1700427947,"current_range_meters":14800,"station_id":"ce4bhoh2rcd13ifvqh6g","pricing_plan_id":"free"},{"bike_id":"78ed1994-6a4d-4937-a848-a352dc9268c0","system_id":"levelo_inurba_marseille","lat":43.295511,"lon":5.422926,"is_reserved":false,"is_disabled":false,"rental_uris":{"android":"levelo://app?vid=78ed1994-6a4d-4937-a848-a352dc9268c0","ios":"levelo://app?vid=78ed1994-6a4d-4937-a848-a352dc9268c0"},"vehicle_type_id":"4","last_reported":1700427947,"current_range_meters":22800,"station_id":"ce4bhph2rcd13ifvqhdg","pricing_plan_id":"free"},{"bike_id":"f8f5619a-a183-461d-b100-453fb972fcd4","system_id":"levelo_inurba_marseille","lat":43.272118,"lon":5.391758,"is_reserved":false,"is_disabled":false,"rental_uris":{"android":"levelo://app?vid=f8f5619a-a183-461d-b100-453fb972fcd4","ios":"levelo://app?vid=f8f5619a-a183-461d-b100-453fb972fcd4"},"vehicle_type_id":"4","last_reported":1700427947,"current_range_meters":18000,"station_id":"ce4bhhp2rcd13ifvqfm0","pricing_plan_id":"free"},{"bike_id":"291d7c38-ad21-44ef-9c24-9c484687f26a","system_id":"levelo_inurba_marseille","lat":43.272116,"lon":5.391763,"is_reserved":false,"is_disabled":false,"rental_uris":{"android":"levelo://app?vid=291d7c38-ad21-44ef-9c24-9c484687f26a","ios":"levelo://app?vid=291d7c38-ad21-44ef-9c24-9c484687f26a"},"vehicle_type_id":"4","last_reported":1700427947,"current_range_meters":11600,"station_id":"ce4bhhp2rcd13ifvqfm0","pricing_plan_id":"free"},{"bike_id":"f0ed4531-078e-42fb-a007-3ed80505eb54","system_id":"levelo_inurba_marseille","lat":43.271891,"lon":5.392412,"is_reserved":false,"is_disabled":false,"rental_uris":{"android":"levelo://app?vid=f0ed4531-078e-42fb-a007-3ed80505eb54","ios":"levelo://app?vid=f0ed4531-078e-42fb-a007-3ed80505eb54"},"vehicle_type_id":"4","last_reported":1700427947,"current_range_meters":2000,"station_id":"","pricing_plan_id":"free"},{"bike_id":"5e1e74ef-1191-4f88-abc2-8533ac447e59","system_id":"levelo_inurba_marseille","lat":43.278128,"lon":5.407195,"is_reserved":false,"is_disabled":false,"rental_uris":{"android":"levelo://app?vid=5e1e74ef-1191-4f88-abc2-8533ac447e59","ios":"levelo://app?vid=5e1e74ef-1191-4f88-abc2-8533ac447e59"},"vehicle_type_id":"4","last_reported":1700427947,"current_range_meters":12400,"station_id":"ce4bhnh2rcd13ifvqgtg","pricing_plan_id":"free"},{"bike_id":"f9b41168-33d8-4a01-9cfe-c6147526c6af","system_id":"levelo_inurba_marseille","lat":43.278128,"lon":5.407195,"is_reserved":false,"is_disabled":false,"rental_uris":{"android":"levelo://app?vid=f9b41168-33d8-4a01-9cfe-c6147526c6af","ios":"levelo://app?vid=f9b41168-33d8-4a01-9cfe-c6147526c6af"},"vehicle_type_id":"4","last_reported":1700427947,"current_range_meters":12400,"station_id":"ce4bhnh2rcd13ifvqgtg","pricing_plan_id":"free"},{"bike_id":"e93711b2-3ed8-41b2-af7d-27f4a424297a","system_id":"levelo_inurba_marseille","lat":43.278128,"lon":5.407195,"is_reserved":false,"is_disabled":false,"rental_uris":{"android":"levelo://app?vid=e93711b2-3ed8-41b2-af7d-27f4a424297a","ios":"levelo://app?vid=e93711b2-3ed8-41b2-af7d-27f4a424297a"},"vehicle_type_id":"4","last_reported":1700427947,"current_range_meters":18000,"station_id":"ce4bhnh2rcd13ifvqgtg","pricing_plan_id":"free"},{"bike_id":"4e904388-8315-42a3-823e-b01ae258624d","system_id":"levelo_inurba_marseille","lat":43.278128,"lon":5.407195,"is_reserved":false,"is_disabled":false,"rental_uris":{"android":"levelo://app?vid=4e904388-8315-42a3-823e-b01ae258624d","ios":"levelo://app?vid=4e904388-8315-42a3-823e-b01ae258624d"},"vehicle_type_id":"4","last_reported":1700427947,"current_range_meters":0,"station_id":"ce4bhnh2rcd13ifvqgtg","pricing_plan_id":"free"},{"bike_id":"66f767e0-a748-496e-ba84-88e846b80a5d","system_id":"levelo_inurba_marseille","lat":43.26952,"lon":5.38627,"is_reserved":false,"is_disabled":false,"rental_uris":{"android":"levelo://app?vid=66f767e0-a748-496e-ba84-88e846b80a5d","ios":"levelo://app?vid=66f767e0-a748-496e-ba84-88e846b80a5d"},"vehicle_type_id":"4","last_reported":1700427947,"current_range_meters":0,"station_id":"ce4bhh92rcd13ifvqfh0","pricing_plan_id":"free"},{"bike_id":"139753b1-0b83-4c3a-80f1-5052bac15461","system_id":"levelo_inurba_marseille","lat":43.271043,"lon":5.393374,"is_reserved":false,"is_disabled":false,"rental_uris":{"android":"levelo://app?vid=139753b1-0b83-4c3a-80f1-5052bac15461","ios":"levelo://app?vid=139753b1-0b83-4c3a-80f1-5052bac15461"},"vehicle_type_id":"4","last_reported":1700427947,"current_range_meters":9600,"station_id":"","pricing_plan_id":"free"},{"bike_id":"f0cca9cd-1a5e-4c1a-be31-2b3cdd41e738","system_id":"levelo_inurba_marseille","lat":43.27942,"lon":5.4104,"is_reserved":false,"is_disabled":false,"rental_uris":{"android":"levelo://app?vid=f0cca9cd-1a5e-4c1a-be31-2b3cdd41e738","ios":"levelo://app?vid=f0cca9cd-1a5e-4c1a-be31-2b3cdd41e738"},"vehicle_type_id":"4","last_reported":1700427947,"current_range_meters":19600,"station_id":"ce4bhnp2rcd13ifvqh0g","pricing_plan_id":"free"},{"bike_id":"eda35713-2d91-4d45-8887-2178060c317d","system_id":"levelo_inurba_marseille","lat":43.279465,"lon":5.410561,"is_reserved":false,"is_disabled":false,"rental_uris":{"android":"levelo://app?vid=eda35713-2d91-4d45-8887-2178060c317d","ios":"levelo://app?vid=eda35713-2d91-4d45-8887-2178060c317d"},"vehicle_type_id":"4","last_reported":1700427947,"current_range_meters":22400,"station_id":"ce4bhnp2rcd13ifvqh0g","pricing_plan_id":"free"},{"bike_id":"f7905eb1-cfd3-4740-88f3-e81e127b08c0","system_id":"levelo_inurba_marseille","lat":43.26683,"lon":5.38268,"is_reserved":false,"is_disabled":false,"rental_uris":{"android":"levelo://app?vid=f7905eb1-cfd3-4740-88f3-e81e127b08c0","ios":"levelo://app?vid=f7905eb1-cfd3-4740-88f3-e81e127b08c0"},"vehicle_type_id":"4","last_reported":1700427947,"current_range_meters":14800,"station_id":"ce4bhg92rcd13ifvqf90","pricing_plan_id":"free"},{"bike_id":"b56140dd-ce54-41cb-95ce-ed1dbb05caaf","system_id":"levelo_inurba_marseille","lat":43.265559,"lon":5.372881,"is_reserved":false,"is_disabled":false,"rental_uris":{"android":"levelo://app?vid=b56140dd-ce54-41cb-95ce-ed1dbb05caaf","ios":"levelo://app?vid=b56140dd-ce54-41cb-95ce-ed1dbb05caaf"},"vehicle_type_id":"4","last_reported":1700427947,"current_range_meters":0,"station_id":"ce4bhg12rcd13ifvqf70","pricing_plan_id":"free"},{"bike_id":"c7758cb2-2a45-4f89-aa5c-0e391d845c76","system_id":"levelo_inurba_marseille","lat":43.326053,"lon":5.429943,"is_reserved":false,"is_disabled":false,"rental_uris":{"android":"levelo://app?vid=c7758cb2-2a45-4f89-aa5c-0e391d845c76","ios":"levelo://app?vid=c7758cb2-2a45-4f89-aa5c-0e391d845c76"},"vehicle_type_id":"4","last_reported":1700427947,"current_range_meters":0,"station_id":"","pricing_plan_id":"free"},{"bike_id":"42871d3b-8c03-490f-baf1-f4b57c44a331","system_id":"levelo_inurba_marseille","lat":43.326174,"lon":5.430584,"is_reserved":false,"is_disabled":false,"rental_uris":{"android":"levelo://app?vid=42871d3b-8c03-490f-baf1-f4b57c44a331","ios":"levelo://app?vid=42871d3b-8c03-490f-baf1-f4b57c44a331"},"vehicle_type_id":"4","last_reported":1700427947,"current_range_meters":16800,"station_id":"","pricing_plan_id":"free"},{"bike_id":"546d030a-f861-473b-8a04-4c4c19fdbd7a","system_id":"levelo_inurba_marseille","lat":43.27996,"lon":5.416624,"is_reserved":false,"is_disabled":false,"rental_uris":{"android":"levelo://app?vid=546d030a-f861-473b-8a04-4c4c19fdbd7a","ios":"levelo://app?vid=546d030a-f861-473b-8a04-4c4c19fdbd7a"},"vehicle_type_id":"4","last_reported":1700427947,"current_range_meters":4800,"station_id":"ce4bho12rcd13ifvqh1g","pricing_plan_id":"free"},{"bike_id":"430b37fc-7a8b-442b-8989-cf57d8b4df6c","system_id":"levelo_inurba_marseille","lat":43.27996,"lon":5.416624,"is_reserved":false,"is_disabled":false,"rental_uris":{"android":"levelo://app?vid=430b37fc-7a8b-442b-8989-cf57d8b4df6c","ios":"levelo://app?vid=430b37fc-7a8b-442b-8989-cf57d8b4df6c"},"vehicle_type_id":"4","last_reported":1700427947,"current_range_meters":0,"station_id":"ce4bho12rcd13ifvqh1g","pricing_plan_id":"free"},{"bike_id":"87a6878c-3d21-4a6e-af61-fcb7168fae7f","system_id":"levelo_inurba_marseille","lat":43.27996,"lon":5.416624,"is_reserved":false,"is_disabled":false,"rental_uris":{"android":"levelo://app?vid=87a6878c-3d21-4a6e-af61-fcb7168fae7f","ios":"levelo://app?vid=87a6878c-3d21-4a6e-af61-fcb7168fae7f"},"vehicle_type_id":"4","last_reported":1700427947,"current_range_meters":32000,"station_id":"ce4bho12rcd13ifvqh1g","pricing_plan_id":"free"},{"bike_id":"87be04d4-b68d-4ca4-bc75-5865077b920f","system_id":"levelo_inurba_marseille","lat":43.288473,"lon":5.426338,"is_reserved":false,"is_disabled":false,"rental_uris":{"android":"levelo://app?vid=87be04d4-b68d-4ca4-bc75-5865077b920f","ios":"levelo://app?vid=87be04d4-b68d-4ca4-bc75-5865077b920f"},"vehicle_type_id":"4","last_reported":1700427947,"current_range_meters":1200,"station_id":"","pricing_plan_id":"free"},{"bike_id":"f7fbcf96-85d5-481b-bec9-968b3ef5bdaf","system_id":"levelo_inurba_marseille","lat":43.308,"lon":5.43526,"is_reserved":false,"is_disabled":false,"rental_uris":{"android":"levelo://app?vid=f7fbcf96-85d5-481b-bec9-968b3ef5bdaf","ios":"levelo://app?vid=f7fbcf96-85d5-481b-bec9-968b3ef5bdaf"},"vehicle_type_id":"4","last_reported":1700427947,"current_range_meters":0,"station_id":"ce4bhph2rcd13ifvqheg","pricing_plan_id":"free"},{"bike_id":"3cb4b355-a6c6-410c-9364-d909c43f14e8","system_id":"levelo_inurba_marseille","lat":43.267959,"lon":5.402685,"is_reserved":false,"is_disabled":false,"rental_uris":{"android":"levelo://app?vid=3cb4b355-a6c6-410c-9364-d909c43f14e8","ios":"levelo://app?vid=3cb4b355-a6c6-410c-9364-d909c43f14e8"},"vehicle_type_id":"4","last_reported":1700427947,"current_range_meters":16000,"station_id":"ce501612rcd8frsf0b60","pricing_plan_id":"free"},{"bike_id":"0b463117-91af-43f2-b5ca-fcb25ffe9061","system_id":"levelo_inurba_marseille","lat":43.26801,"lon":5.40268,"is_reserved":false,"is_disabled":false,"rental_uris":{"android":"levelo://app?vid=0b463117-91af-43f2-b5ca-fcb25ffe9061","ios":"levelo://app?vid=0b463117-91af-43f2-b5ca-fcb25ffe9061"},"vehicle_type_id":"4","last_reported":1700427947,"current_range_meters":0,"station_id":"ce501612rcd8frsf0b60","pricing_plan_id":"free"},{"bike_id":"74ce853b-0d8b-42c9-81c8-17a7564a4b34","system_id":"levelo_inurba_marseille","lat":43.31725,"lon":5.43786,"is_reserved":false,"is_disabled":false,"rental_uris":{"android":"levelo://app?vid=74ce853b-0d8b-42c9-81c8-17a7564a4b34","ios":"levelo://app?vid=74ce853b-0d8b-42c9-81c8-17a7564a4b34"},"vehicle_type_id":"4","last_reported":1700427947,"current_range_meters":13200,"station_id":"","pricing_plan_id":"free"},{"bike_id":"899bf2e4-d437-43aa-9d87-9b33de90f3da","system_id":"levelo_inurba_marseille","lat":43.298768,"lon":5.43643,"is_reserved":false,"is_disabled":false,"rental_uris":{"android":"levelo://app?vid=899bf2e4-d437-43aa-9d87-9b33de90f3da","ios":"levelo://app?vid=899bf2e4-d437-43aa-9d87-9b33de90f3da"},"vehicle_type_id":"4","last_reported":1700427947,"current_range_meters":26400,"station_id":"ce4bhpp2rcd13ifvqhfg","pricing_plan_id":"free"},{"bike_id":"04aae268-835a-4433-a037-0574dea6082b","system_id":"levelo_inurba_marseille","lat":43.275028,"lon":5.424534,"is_reserved":false,"is_disabled":false,"rental_uris":{"android":"levelo://app?vid=04aae268-835a-4433-a037-0574dea6082b","ios":"levelo://app?vid=04aae268-835a-4433-a037-0574dea6082b"},"vehicle_type_id":"4","last_reported":1700427947,"current_range_meters":24400,"station_id":"ce4bhn92rcd13ifvqgrg","pricing_plan_id":"free"},{"bike_id":"2ecabcc4-313b-4f75-87c1-f27f727a7ce3","system_id":"levelo_inurba_marseille","lat":43.255803,"lon":5.382303,"is_reserved":false,"is_disabled":false,"rental_uris":{"android":"levelo://app?vid=2ecabcc4-313b-4f75-87c1-f27f727a7ce3","ios":"levelo://app?vid=2ecabcc4-313b-4f75-87c1-f27f727a7ce3"},"vehicle_type_id":"4","last_reported":1700427947,"current_range_meters":19600,"station_id":"ce4bhih2rcd13ifvqfs0","pricing_plan_id":"free"},{"bike_id":"912e3ad7-7842-4669-bedf-186d6ab56cc0","system_id":"levelo_inurba_marseille","lat":43.258224,"lon":5.394369,"is_reserved":false,"is_disabled":false,"rental_uris":{"android":"levelo://app?vid=912e3ad7-7842-4669-bedf-186d6ab56cc0","ios":"levelo://app?vid=912e3ad7-7842-4669-bedf-186d6ab56cc0"},"vehicle_type_id":"4","last_reported":1700427947,"current_range_meters":26000,"station_id":"ce4bhip2rcd13ifvqft0","pricing_plan_id":"free"},{"bike_id":"9697303c-ef48-4edd-ae7a-ee91d22e0a79","system_id":"levelo_inurba_marseille","lat":43.270721,"lon":5.422764,"is_reserved":false,"is_disabled":false,"rental_uris":{"android":"levelo://app?vid=9697303c-ef48-4edd-ae7a-ee91d22e0a79","ios":"levelo://app?vid=9697303c-ef48-4edd-ae7a-ee91d22e0a79"},"vehicle_type_id":"4","last_reported":1700427947,"current_range_meters":9600,"station_id":"ce4bhk92rcd13ifvqgb0","pricing_plan_id":"free"},{"bike_id":"a71f2627-bcf9-4eb5-8e90-012e27c2ba42","system_id":"levelo_inurba_marseille","lat":43.258658,"lon":5.398935,"is_reserved":false,"is_disabled":false,"rental_uris":{"android":"levelo://app?vid=a71f2627-bcf9-4eb5-8e90-012e27c2ba42","ios":"levelo://app?vid=a71f2627-bcf9-4eb5-8e90-012e27c2ba42"},"vehicle_type_id":"4","last_reported":1700427947,"current_range_meters":28400,"station_id":"ce4bhl92rcd13ifvqghg","pricing_plan_id":"free"},{"bike_id":"653a93dc-fdc8-45b7-9661-c0469e70ba2a","system_id":"levelo_inurba_marseille","lat":43.259009,"lon":5.40929,"is_reserved":false,"is_disabled":false,"rental_uris":{"android":"levelo://app?vid=653a93dc-fdc8-45b7-9661-c0469e70ba2a","ios":"levelo://app?vid=653a93dc-fdc8-45b7-9661-c0469e70ba2a"},"vehicle_type_id":"4","last_reported":1700427947,"current_range_meters":0,"station_id":"ce4bhm92rcd13ifvqglg","pricing_plan_id":"free"},{"bike_id":"a9abb6a4-befb-4a40-9046-6f8e118eead0","system_id":"levelo_inurba_marseille","lat":43.250009,"lon":5.389195,"is_reserved":false,"is_disabled":false,"rental_uris":{"android":"levelo://app?vid=a9abb6a4-befb-4a40-9046-6f8e118eead0","ios":"levelo://app?vid=a9abb6a4-befb-4a40-9046-6f8e118eead0"},"vehicle_type_id":"4","last_reported":1700427947,"current_range_meters":6400,"station_id":"ce4bhgp2rcd13ifvqfd0","pricing_plan_id":"free"},{"bike_id":"ec579043-386b-4cc4-aa67-a0abaefe3d37","system_id":"levelo_inurba_marseille","lat":43.250009,"lon":5.389195,"is_reserved":false,"is_disabled":false,"rental_uris":{"android":"levelo://app?vid=ec579043-386b-4cc4-aa67-a0abaefe3d37","ios":"levelo://app?vid=ec579043-386b-4cc4-aa67-a0abaefe3d37"},"vehicle_type_id":"4","last_reported":1700427947,"current_range_meters":18800,"station_id":"ce4bhgp2rcd13ifvqfd0","pricing_plan_id":"free"},{"bike_id":"f12b5072-5f95-422a-8996-e444b1dd3858","system_id":"levelo_inurba_marseille","lat":43.250009,"lon":5.389195,"is_reserved":false,"is_disabled":false,"rental_uris":{"android":"levelo://app?vid=f12b5072-5f95-422a-8996-e444b1dd3858","ios":"levelo://app?vid=f12b5072-5f95-422a-8996-e444b1dd3858"},"vehicle_type_id":"4","last_reported":1700427947,"current_range_meters":31200,"station_id":"ce4bhgp2rcd13ifvqfd0","pricing_plan_id":"free"},{"bike_id":"d62e58d7-98fc-40db-a3a3-de5ed877e021","system_id":"levelo_inurba_marseille","lat":43.250023,"lon":5.38919,"is_reserved":false,"is_disabled":false,"rental_uris":{"android":"levelo://app?vid=d62e58d7-98fc-40db-a3a3-de5ed877e021","ios":"levelo://app?vid=d62e58d7-98fc-40db-a3a3-de5ed877e021"},"vehicle_type_id":"4","last_reported":1700427947,"current_range_meters":9200,"station_id":"ce4bhgp2rcd13ifvqfd0","pricing_plan_id":"free"},{"bike_id":"e4d34eeb-11ab-4160-8bb6-57c64b4f5f01","system_id":"levelo_inurba_marseille","lat":43.250023,"lon":5.38919,"is_reserved":false,"is_disabled":false,"rental_uris":{"android":"levelo://app?vid=e4d34eeb-11ab-4160-8bb6-57c64b4f5f01","ios":"levelo://app?vid=e4d34eeb-11ab-4160-8bb6-57c64b4f5f01"},"vehicle_type_id":"4","last_reported":1700427947,"current_range_meters":4800,"station_id":"ce4bhgp2rcd13ifvqfd0","pricing_plan_id":"free"},{"bike_id":"a8de8240-35e7-4bae-aafe-17b152381e60","system_id":"levelo_inurba_marseille","lat":43.250023,"lon":5.38919,"is_reserved":false,"is_disabled":false,"rental_uris":{"android":"levelo://app?vid=a8de8240-35e7-4bae-aafe-17b152381e60","ios":"levelo://app?vid=a8de8240-35e7-4bae-aafe-17b152381e60"},"vehicle_type_id":"4","last_reported":1700427947,"current_range_meters":13200,"station_id":"ce4bhgp2rcd13ifvqfd0","pricing_plan_id":"free"},{"bike_id":"9acf1963-0352-44de-9e8f-7a80248a87dc","system_id":"levelo_inurba_marseille","lat":43.248103,"lon":5.374574,"is_reserved":false,"is_disabled":false,"rental_uris":{"android":"levelo://app?vid=9acf1963-0352-44de-9e8f-7a80248a87dc","ios":"levelo://app?vid=9acf1963-0352-44de-9e8f-7a80248a87dc"},"vehicle_type_id":"4","last_reported":1700427947,"current_range_meters":31200,"station_id":"ce4bhgh2rcd13ifvqfb0","pricing_plan_id":"free"},{"bike_id":"7c74b218-c1f9-443d-9001-e633277c2aa9","system_id":"levelo_inurba_marseille","lat":43.2479,"lon":5.374457,"is_reserved":false,"is_disabled":false,"rental_uris":{"android":"levelo://app?vid=7c74b218-c1f9-443d-9001-e633277c2aa9","ios":"levelo://app?vid=7c74b218-c1f9-443d-9001-e633277c2aa9"},"vehicle_type_id":"4","last_reported":1700427947,"current_range_meters":31200,"station_id":"ce4bhgh2rcd13ifvqfb0","pricing_plan_id":"free"},{"bike_id":"907e137e-ebc6-4a0e-90d7-cfdfa8eb2e83","system_id":"levelo_inurba_marseille","lat":43.248082,"lon":5.374567,"is_reserved":false,"is_disabled":false,"rental_uris":{"android":"levelo://app?vid=907e137e-ebc6-4a0e-90d7-cfdfa8eb2e83","ios":"levelo://app?vid=907e137e-ebc6-4a0e-90d7-cfdfa8eb2e83"},"vehicle_type_id":"4","last_reported":1700427947,"current_range_meters":31200,"station_id":"ce4bhgh2rcd13ifvqfb0","pricing_plan_id":"free"},{"bike_id":"a85e29fc-7ee8-4eb3-bef6-24cff50af86e","system_id":"levelo_inurba_marseille","lat":43.2479,"lon":5.374457,"is_reserved":false,"is_disabled":false,"rental_uris":{"android":"levelo://app?vid=a85e29fc-7ee8-4eb3-bef6-24cff50af86e","ios":"levelo://app?vid=a85e29fc-7ee8-4eb3-bef6-24cff50af86e"},"vehicle_type_id":"4","last_reported":1700427947,"current_range_meters":29600,"station_id":"ce4bhgh2rcd13ifvqfb0","pricing_plan_id":"free"},{"bike_id":"e7250885-d4c4-4bac-a245-b9b2224cdc57","system_id":"levelo_inurba_marseille","lat":43.2479,"lon":5.374457,"is_reserved":false,"is_disabled":false,"rental_uris":{"android":"levelo://app?vid=e7250885-d4c4-4bac-a245-b9b2224cdc57","ios":"levelo://app?vid=e7250885-d4c4-4bac-a245-b9b2224cdc57"},"vehicle_type_id":"4","last_reported":1700427947,"current_range_meters":30400,"station_id":"ce4bhgh2rcd13ifvqfb0","pricing_plan_id":"free"},{"bike_id":"5d95ca0c-ba50-4dbf-aa8a-ad8152190254","system_id":"levelo_inurba_marseille","lat":43.2479,"lon":5.374457,"is_reserved":false,"is_disabled":false,"rental_uris":{"android":"levelo://app?vid=5d95ca0c-ba50-4dbf-aa8a-ad8152190254","ios":"levelo://app?vid=5d95ca0c-ba50-4dbf-aa8a-ad8152190254"},"vehicle_type_id":"4","last_reported":1700427947,"current_range_meters":30400,"station_id":"ce4bhgh2rcd13ifvqfb0","pricing_plan_id":"free"},{"bike_id":"cbebf4c9-fefa-462f-aa69-dbf5f7335c79","system_id":"levelo_inurba_marseille","lat":43.2479,"lon":5.374457,"is_reserved":false,"is_disabled":false,"rental_uris":{"android":"levelo://app?vid=cbebf4c9-fefa-462f-aa69-dbf5f7335c79","ios":"levelo://app?vid=cbebf4c9-fefa-462f-aa69-dbf5f7335c79"},"vehicle_type_id":"4","last_reported":1700427947,"current_range_meters":30000,"station_id":"ce4bhgh2rcd13ifvqfb0","pricing_plan_id":"free"},{"bike_id":"a929d054-2199-4126-86bd-04826661fb29","system_id":"levelo_inurba_marseille","lat":43.2479,"lon":5.374457,"is_reserved":false,"is_disabled":false,"rental_uris":{"android":"levelo://app?vid=a929d054-2199-4126-86bd-04826661fb29","ios":"levelo://app?vid=a929d054-2199-4126-86bd-04826661fb29"},"vehicle_type_id":"4","last_reported":1700427947,"current_range_meters":31200,"station_id":"ce4bhgh2rcd13ifvqfb0","pricing_plan_id":"free"},{"bike_id":"a1efa6fc-89b2-4657-95b8-6d44c04f19ba","system_id":"levelo_inurba_marseille","lat":43.24666,"lon":5.3816,"is_reserved":false,"is_disabled":false,"rental_uris":{"android":"levelo://app?vid=a1efa6fc-89b2-4657-95b8-6d44c04f19ba","ios":"levelo://app?vid=a1efa6fc-89b2-4657-95b8-6d44c04f19ba"},"vehicle_type_id":"4","last_reported":1700427947,"current_range_meters":14800,"station_id":"ce4bhih2rcd13ifvqfr0","pricing_plan_id":"free"},{"bike_id":"a54acd97-457e-4c98-a0b6-15e8ede8a34e","system_id":"levelo_inurba_marseille","lat":43.24665,"lon":5.38154,"is_reserved":false,"is_disabled":false,"rental_uris":{"android":"levelo://app?vid=a54acd97-457e-4c98-a0b6-15e8ede8a34e","ios":"levelo://app?vid=a54acd97-457e-4c98-a0b6-15e8ede8a34e"},"vehicle_type_id":"4","last_reported":1700427947,"current_range_meters":10000,"station_id":"ce4bhih2rcd13ifvqfr0","pricing_plan_id":"free"},{"bike_id":"208c8aa6-25a0-44b3-8d99-567e224800fb","system_id":"levelo_inurba_marseille","lat":43.25102,"lon":5.403214,"is_reserved":false,"is_disabled":false,"rental_uris":{"android":"levelo://app?vid=208c8aa6-25a0-44b3-8d99-567e224800fb","ios":"levelo://app?vid=208c8aa6-25a0-44b3-8d99-567e224800fb"},"vehicle_type_id":"4","last_reported":1700427947,"current_range_meters":20800,"station_id":"ce4bhlh2rcd13ifvqgig","pricing_plan_id":"free"},{"bike_id":"b282cacc-2eb9-4943-98d7-dd5b554d7fca","system_id":"levelo_inurba_marseille","lat":43.25117,"lon":5.40319,"is_reserved":false,"is_disabled":false,"rental_uris":{"android":"levelo://app?vid=b282cacc-2eb9-4943-98d7-dd5b554d7fca","ios":"levelo://app?vid=b282cacc-2eb9-4943-98d7-dd5b554d7fca"},"vehicle_type_id":"4","last_reported":1700427947,"current_range_meters":0,"station_id":"ce4bhlh2rcd13ifvqgig","pricing_plan_id":"free"},{"bike_id":"43122df3-e7f0-41f0-a6f2-e05e2466a58e","system_id":"levelo_inurba_marseille","lat":43.24661,"lon":5.38165,"is_reserved":false,"is_disabled":false,"rental_uris":{"android":"levelo://app?vid=43122df3-e7f0-41f0-a6f2-e05e2466a58e","ios":"levelo://app?vid=43122df3-e7f0-41f0-a6f2-e05e2466a58e"},"vehicle_type_id":"4","last_reported":1700427947,"current_range_meters":3200,"station_id":"ce4bhih2rcd13ifvqfr0","pricing_plan_id":"free"},{"bike_id":"afba5a92-1e58-4c85-895e-4bc18e81cf01","system_id":"levelo_inurba_marseille","lat":43.24693,"lon":5.382096,"is_reserved":false,"is_disabled":false,"rental_uris":{"android":"levelo://app?vid=afba5a92-1e58-4c85-895e-4bc18e81cf01","ios":"levelo://app?vid=afba5a92-1e58-4c85-895e-4bc18e81cf01"},"vehicle_type_id":"4","last_reported":1700427947,"current_range_meters":7600,"station_id":"ce4bhih2rcd13ifvqfr0","pricing_plan_id":"free"},{"bike_id":"a65b14fe-b76a-49c8-8af2-80784a81288f","system_id":"levelo_inurba_marseille","lat":43.25102,"lon":5.403214,"is_reserved":false,"is_disabled":false,"rental_uris":{"android":"levelo://app?vid=a65b14fe-b76a-49c8-8af2-80784a81288f","ios":"levelo://app?vid=a65b14fe-b76a-49c8-8af2-80784a81288f"},"vehicle_type_id":"4","last_reported":1700427947,"current_range_meters":6400,"station_id":"ce4bhlh2rcd13ifvqgig","pricing_plan_id":"free"},{"bike_id":"f3cc259b-9767-4b5e-a1ff-28a5b7679f9d","system_id":"levelo_inurba_marseille","lat":43.25102,"lon":5.403214,"is_reserved":false,"is_disabled":false,"rental_uris":{"android":"levelo://app?vid=f3cc259b-9767-4b5e-a1ff-28a5b7679f9d","ios":"levelo://app?vid=f3cc259b-9767-4b5e-a1ff-28a5b7679f9d"},"vehicle_type_id":"4","last_reported":1700427947,"current_range_meters":18400,"station_id":"ce4bhlh2rcd13ifvqgig","pricing_plan_id":"free"},{"bike_id":"bc119960-00e1-4c4b-aee3-68bd35ca74ac","system_id":"levelo_inurba_marseille","lat":43.25102,"lon":5.403214,"is_reserved":false,"is_disabled":false,"rental_uris":{"android":"levelo://app?vid=bc119960-00e1-4c4b-aee3-68bd35ca74ac","ios":"levelo://app?vid=bc119960-00e1-4c4b-aee3-68bd35ca74ac"},"vehicle_type_id":"4","last_reported":1700427947,"current_range_meters":12400,"station_id":"ce4bhlh2rcd13ifvqgig","pricing_plan_id":"free"},{"bike_id":"b6e680b5-6ba4-400e-85cc-fdb7bed090f7","system_id":"levelo_inurba_marseille","lat":43.246467,"lon":5.388984,"is_reserved":false,"is_disabled":false,"rental_uris":{"android":"levelo://app?vid=b6e680b5-6ba4-400e-85cc-fdb7bed090f7","ios":"levelo://app?vid=b6e680b5-6ba4-400e-85cc-fdb7bed090f7"},"vehicle_type_id":"4","last_reported":1700427947,"current_range_meters":29200,"station_id":"ce4bhg12rcd13ifvqf60","pricing_plan_id":"free"},{"bike_id":"48551b10-7a07-44d3-8793-398c73779585","system_id":"levelo_inurba_marseille","lat":43.246467,"lon":5.388984,"is_reserved":false,"is_disabled":false,"rental_uris":{"android":"levelo://app?vid=48551b10-7a07-44d3-8793-398c73779585","ios":"levelo://app?vid=48551b10-7a07-44d3-8793-398c73779585"},"vehicle_type_id":"4","last_reported":1700427947,"current_range_meters":25600,"station_id":"ce4bhg12rcd13ifvqf60","pricing_plan_id":"free"},{"bike_id":"b64792e5-672c-4a02-a153-14d9a7b1fbcd","system_id":"levelo_inurba_marseille","lat":43.245581,"lon":5.395069,"is_reserved":false,"is_disabled":false,"rental_uris":{"android":"levelo://app?vid=b64792e5-672c-4a02-a153-14d9a7b1fbcd","ios":"levelo://app?vid=b64792e5-672c-4a02-a153-14d9a7b1fbcd"},"vehicle_type_id":"4","last_reported":1700427947,"current_range_meters":11200,"station_id":"ce4bhlp2rcd13ifvqgjg","pricing_plan_id":"free"},{"bike_id":"349e7ca2-225d-41f3-91d8-feca0eadad04","system_id":"levelo_inurba_marseille","lat":43.245581,"lon":5.395069,"is_reserved":false,"is_disabled":false,"rental_uris":{"android":"levelo://app?vid=349e7ca2-225d-41f3-91d8-feca0eadad04","ios":"levelo://app?vid=349e7ca2-225d-41f3-91d8-feca0eadad04"},"vehicle_type_id":"4","last_reported":1700427947,"current_range_meters":13600,"station_id":"ce4bhlp2rcd13ifvqgjg","pricing_plan_id":"free"},{"bike_id":"af70494d-24d1-4052-860f-3b2a355d915b","system_id":"levelo_inurba_marseille","lat":43.240623,"lon":5.377642,"is_reserved":false,"is_disabled":false,"rental_uris":{"android":"levelo://app?vid=af70494d-24d1-4052-860f-3b2a355d915b","ios":"levelo://app?vid=af70494d-24d1-4052-860f-3b2a355d915b"},"vehicle_type_id":"4","last_reported":1700427947,"current_range_meters":12000,"station_id":"ce4bhnp2rcd13ifvqgvg","pricing_plan_id":"free"},{"bike_id":"10754a0b-8195-408d-973e-5779814a3bab","system_id":"levelo_inurba_marseille","lat":43.240623,"lon":5.377642,"is_reserved":false,"is_disabled":false,"rental_uris":{"android":"levelo://app?vid=10754a0b-8195-408d-973e-5779814a3bab","ios":"levelo://app?vid=10754a0b-8195-408d-973e-5779814a3bab"},"vehicle_type_id":"4","last_reported":1700427947,"current_range_meters":24400,"station_id":"ce4bhnp2rcd13ifvqgvg","pricing_plan_id":"free"},{"bike_id":"d1161103-e87d-40cc-b115-1ba7c43ae4f9","system_id":"levelo_inurba_marseille","lat":43.240623,"lon":5.377642,"is_reserved":false,"is_disabled":false,"rental_uris":{"android":"levelo://app?vid=d1161103-e87d-40cc-b115-1ba7c43ae4f9","ios":"levelo://app?vid=d1161103-e87d-40cc-b115-1ba7c43ae4f9"},"vehicle_type_id":"4","last_reported":1700427947,"current_range_meters":28400,"station_id":"ce4bhnp2rcd13ifvqgvg","pricing_plan_id":"free"},{"bike_id":"cfa9521a-cea9-4edf-9f2a-1422ddb7ac10","system_id":"levelo_inurba_marseille","lat":43.240623,"lon":5.377642,"is_reserved":false,"is_disabled":false,"rental_uris":{"android":"levelo://app?vid=cfa9521a-cea9-4edf-9f2a-1422ddb7ac10","ios":"levelo://app?vid=cfa9521a-cea9-4edf-9f2a-1422ddb7ac10"},"vehicle_type_id":"4","last_reported":1700427947,"current_range_meters":30400,"station_id":"ce4bhnp2rcd13ifvqgvg","pricing_plan_id":"free"},{"bike_id":"33cb4995-2f44-44df-bb6b-4d73bc352569","system_id":"levelo_inurba_marseille","lat":43.239588,"lon":5.366238,"is_reserved":false,"is_disabled":false,"rental_uris":{"android":"levelo://app?vid=33cb4995-2f44-44df-bb6b-4d73bc352569","ios":"levelo://app?vid=33cb4995-2f44-44df-bb6b-4d73bc352569"},"vehicle_type_id":"4","last_reported":1700427947,"current_range_meters":15600,"station_id":"ce4bhi12rcd13ifvqfp0","pricing_plan_id":"free"},{"bike_id":"8872c7b8-c4a3-4750-b6cf-f9bc2db8b393","system_id":"levelo_inurba_marseille","lat":43.239588,"lon":5.366238,"is_reserved":false,"is_disabled":false,"rental_uris":{"android":"levelo://app?vid=8872c7b8-c4a3-4750-b6cf-f9bc2db8b393","ios":"levelo://app?vid=8872c7b8-c4a3-4750-b6cf-f9bc2db8b393"},"vehicle_type_id":"4","last_reported":1700427947,"current_range_meters":27200,"station_id":"ce4bhi12rcd13ifvqfp0","pricing_plan_id":"free"},{"bike_id":"8eab7e84-1847-40e3-8e05-13b79ecc7a07","system_id":"levelo_inurba_marseille","lat":43.239588,"lon":5.366238,"is_reserved":false,"is_disabled":false,"rental_uris":{"android":"levelo://app?vid=8eab7e84-1847-40e3-8e05-13b79ecc7a07","ios":"levelo://app?vid=8eab7e84-1847-40e3-8e05-13b79ecc7a07"},"vehicle_type_id":"4","last_reported":1700427947,"current_range_meters":29200,"station_id":"ce4bhi12rcd13ifvqfp0","pricing_plan_id":"free"},{"bike_id":"1916ba89-348a-46de-862f-002e26a606b7","system_id":"levelo_inurba_marseille","lat":43.24186,"lon":5.397295,"is_reserved":false,"is_disabled":false,"rental_uris":{"android":"levelo://app?vid=1916ba89-348a-46de-862f-002e26a606b7","ios":"levelo://app?vid=1916ba89-348a-46de-862f-002e26a606b7"},"vehicle_type_id":"4","last_reported":1700427947,"current_range_meters":4800,"station_id":"ce4bhn12rcd13ifvqgpg","pricing_plan_id":"free"},{"bike_id":"1e4c8235-2661-4216-9b37-2498240d8932","system_id":"levelo_inurba_marseille","lat":43.24177,"lon":5.39726,"is_reserved":false,"is_disabled":false,"rental_uris":{"android":"levelo://app?vid=1e4c8235-2661-4216-9b37-2498240d8932","ios":"levelo://app?vid=1e4c8235-2661-4216-9b37-2498240d8932"},"vehicle_type_id":"4","last_reported":1700427947,"current_range_meters":14400,"station_id":"ce4bhn12rcd13ifvqgpg","pricing_plan_id":"free"},{"bike_id":"4370869b-0c59-4e1b-b4c7-59bf3a7bc50e","system_id":"levelo_inurba_marseille","lat":43.241782,"lon":5.397264,"is_reserved":false,"is_disabled":false,"rental_uris":{"android":"levelo://app?vid=4370869b-0c59-4e1b-b4c7-59bf3a7bc50e","ios":"levelo://app?vid=4370869b-0c59-4e1b-b4c7-59bf3a7bc50e"},"vehicle_type_id":"4","last_reported":1700427947,"current_range_meters":11600,"station_id":"ce4bhn12rcd13ifvqgpg","pricing_plan_id":"free"},{"bike_id":"1ff1404d-a5fd-4baa-b0f6-1aa090c9ce89","system_id":"levelo_inurba_marseille","lat":43.241782,"lon":5.397261,"is_reserved":false,"is_disabled":false,"rental_uris":{"android":"levelo://app?vid=1ff1404d-a5fd-4baa-b0f6-1aa090c9ce89","ios":"levelo://app?vid=1ff1404d-a5fd-4baa-b0f6-1aa090c9ce89"},"vehicle_type_id":"4","last_reported":1700427947,"current_range_meters":26400,"station_id":"ce4bhn12rcd13ifvqgpg","pricing_plan_id":"free"},{"bike_id":"d3bc3970-a23d-4c70-8ce5-c0a1f16e8dd0","system_id":"levelo_inurba_marseille","lat":43.231923,"lon":5.355545,"is_reserved":false,"is_disabled":false,"rental_uris":{"android":"levelo://app?vid=d3bc3970-a23d-4c70-8ce5-c0a1f16e8dd0","ios":"levelo://app?vid=d3bc3970-a23d-4c70-8ce5-c0a1f16e8dd0"},"vehicle_type_id":"4","last_reported":1700427947,"current_range_meters":21600,"station_id":"ce4bhu92rcd13ifvqi70","pricing_plan_id":"free"},{"bike_id":"c7d71dd3-1e23-47a1-af8a-ee349e4bdae4","system_id":"levelo_inurba_marseille","lat":43.231919,"lon":5.355532,"is_reserved":false,"is_disabled":false,"rental_uris":{"android":"levelo://app?vid=c7d71dd3-1e23-47a1-af8a-ee349e4bdae4","ios":"levelo://app?vid=c7d71dd3-1e23-47a1-af8a-ee349e4bdae4"},"vehicle_type_id":"4","last_reported":1700427947,"current_range_meters":27600,"station_id":"ce4bhu92rcd13ifvqi70","pricing_plan_id":"free"},{"bike_id":"af1ded82-d209-4511-aea5-36860ab15eac","system_id":"levelo_inurba_marseille","lat":43.231794,"lon":5.400052,"is_reserved":false,"is_disabled":false,"rental_uris":{"android":"levelo://app?vid=af1ded82-d209-4511-aea5-36860ab15eac","ios":"levelo://app?vid=af1ded82-d209-4511-aea5-36860ab15eac"},"vehicle_type_id":"4","last_reported":1700427947,"current_range_meters":30400,"station_id":"ce4bhn12rcd13ifvqgqg","pricing_plan_id":"free"},{"bike_id":"9886a500-d50e-4074-b619-a72aa0119469","system_id":"levelo_inurba_marseille","lat":43.231794,"lon":5.400052,"is_reserved":false,"is_disabled":false,"rental_uris":{"android":"levelo://app?vid=9886a500-d50e-4074-b619-a72aa0119469","ios":"levelo://app?vid=9886a500-d50e-4074-b619-a72aa0119469"},"vehicle_type_id":"4","last_reported":1700427947,"current_range_meters":25600,"station_id":"ce4bhn12rcd13ifvqgqg","pricing_plan_id":"free"},{"bike_id":"578b4586-6567-48cd-8cd7-2cf4e852f792","system_id":"levelo_inurba_marseille","lat":43.231793,"lon":5.400044,"is_reserved":false,"is_disabled":false,"rental_uris":{"android":"levelo://app?vid=578b4586-6567-48cd-8cd7-2cf4e852f792","ios":"levelo://app?vid=578b4586-6567-48cd-8cd7-2cf4e852f792"},"vehicle_type_id":"4","last_reported":1700427947,"current_range_meters":15200,"station_id":"ce4bhn12rcd13ifvqgqg","pricing_plan_id":"free"},{"bike_id":"7a97123b-e1f7-4f9a-8649-9d01ae56d041","system_id":"levelo_inurba_marseille","lat":43.231793,"lon":5.400044,"is_reserved":false,"is_disabled":false,"rental_uris":{"android":"levelo://app?vid=7a97123b-e1f7-4f9a-8649-9d01ae56d041","ios":"levelo://app?vid=7a97123b-e1f7-4f9a-8649-9d01ae56d041"},"vehicle_type_id":"4","last_reported":1700427947,"current_range_meters":31200,"station_id":"ce4bhn12rcd13ifvqgqg","pricing_plan_id":"free"},{"bike_id":"837a4e28-a2c9-4a55-a3de-d83edae6e4cd","system_id":"levelo_inurba_marseille","lat":43.231793,"lon":5.400044,"is_reserved":false,"is_disabled":false,"rental_uris":{"android":"levelo://app?vid=837a4e28-a2c9-4a55-a3de-d83edae6e4cd","ios":"levelo://app?vid=837a4e28-a2c9-4a55-a3de-d83edae6e4cd"},"vehicle_type_id":"4","last_reported":1700427947,"current_range_meters":12000,"station_id":"ce4bhn12rcd13ifvqgqg","pricing_plan_id":"free"},{"bike_id":"0b3c1854-60b2-42b0-8026-80ecda6982f6","system_id":"levelo_inurba_marseille","lat":43.231793,"lon":5.400044,"is_reserved":false,"is_disabled":false,"rental_uris":{"android":"levelo://app?vid=0b3c1854-60b2-42b0-8026-80ecda6982f6","ios":"levelo://app?vid=0b3c1854-60b2-42b0-8026-80ecda6982f6"},"vehicle_type_id":"4","last_reported":1700427947,"current_range_meters":16400,"station_id":"ce4bhn12rcd13ifvqgqg","pricing_plan_id":"free"},{"bike_id":"09359cfe-f956-4400-b72c-135c3266b6ba","system_id":"levelo_inurba_marseille","lat":43.231793,"lon":5.400044,"is_reserved":false,"is_disabled":false,"rental_uris":{"android":"levelo://app?vid=09359cfe-f956-4400-b72c-135c3266b6ba","ios":"levelo://app?vid=09359cfe-f956-4400-b72c-135c3266b6ba"},"vehicle_type_id":"4","last_reported":1700427947,"current_range_meters":6800,"station_id":"ce4bhn12rcd13ifvqgqg","pricing_plan_id":"free"},{"bike_id":"bc57395b-fe92-4868-812b-705163e4facb","system_id":"levelo_inurba_marseille","lat":43.231562,"lon":5.436933,"is_reserved":false,"is_disabled":false,"rental_uris":{"android":"levelo://app?vid=bc57395b-fe92-4868-812b-705163e4facb","ios":"levelo://app?vid=bc57395b-fe92-4868-812b-705163e4facb"},"vehicle_type_id":"4","last_reported":1700427947,"current_range_meters":24800,"station_id":"ce4bhmp2rcd13ifvqgog","pricing_plan_id":"free"},{"bike_id":"910ae0c6-1690-485c-8734-3a112e2e02b4","system_id":"levelo_inurba_marseille","lat":43.231562,"lon":5.436933,"is_reserved":false,"is_disabled":false,"rental_uris":{"android":"levelo://app?vid=910ae0c6-1690-485c-8734-3a112e2e02b4","ios":"levelo://app?vid=910ae0c6-1690-485c-8734-3a112e2e02b4"},"vehicle_type_id":"4","last_reported":1700427947,"current_range_meters":24800,"station_id":"ce4bhmp2rcd13ifvqgog","pricing_plan_id":"free"},{"bike_id":"aa00fa58-aed4-4693-a908-f6c5d3454ce6","system_id":"levelo_inurba_marseille","lat":43.231562,"lon":5.436933,"is_reserved":false,"is_disabled":false,"rental_uris":{"android":"levelo://app?vid=aa00fa58-aed4-4693-a908-f6c5d3454ce6","ios":"levelo://app?vid=aa00fa58-aed4-4693-a908-f6c5d3454ce6"},"vehicle_type_id":"4","last_reported":1700427947,"current_range_meters":26000,"station_id":"ce4bhmp2rcd13ifvqgog","pricing_plan_id":"free"}]}}