{"last_updated":1773683529,"ttl":60,"version":"2.2","data":{"bikes":[{"bike_id":"28108d5f-f5c6-437f-ba05-690931523ec3","system_id":"levelo_inurba_marseille","lat":43.25706,"lon":5.41157,"is_reserved":false,"is_disabled":false,"rental_uris":{"android":"levelo://app?vid=28108d5f-f5c6-437f-ba05-690931523ec3","ios":"levelo://app?vid=28108d5f-f5c6-437f-ba05-690931523ec3"},"vehicle_type_id":"4","last_reported":1773683529,"current_range_meters":28800,"station_id":"ce4bhkp2rcd13ifvqgd0","pricing_plan_id":"cebpf4jnsgd1na2vs0mg"},{"bike_id":"989290ef-54e6-4e48-ad5f-fe8235ed930c","system_id":"levelo_inurba_marseille","lat":43.29624,"lon":5.37151,"is_reserved":false,"is_disabled":false,"rental_uris":{"android":"levelo://app?vid=989290ef-54e6-4e48-ad5f-fe8235ed930c","ios":"levelo://app?vid=989290ef-54e6-4e48-ad5f-fe8235ed930c"},"vehicle_type_id":"4","last_reported":1773683529,"current_range_meters":11200,"station_id":"ce4bgnh2rcd13ifvqc0g","pricing_plan_id":"cebpf4jnsgd1na2vs0mg"},{"bike_id":"0112cc81-8438-4648-bea3-a8efd1c38e40","system_id":"levelo_inurba_marseille","lat":43.30879,"lon":5.39659,"is_reserved":false,"is_disabled":true,"rental_uris":{"android":"levelo://app?vid=0112cc81-8438-4648-bea3-a8efd1c38e40","ios":"levelo://app?vid=0112cc81-8438-4648-bea3-a8efd1c38e40"},"vehicle_type_id":"4","last_reported":1773683529,"current_range_meters":1600,"station_id":"ce4bh012rcd13ifvqcv0","pricing_plan_id":"cebpf4jnsgd1na2vs0mg"},{"bike_id":"a4ca7329-3ac2-44ac-9c8b-c3829e8c8f46","system_id":"levelo_inurba_marseille","lat":43.28467,"lon":5.39006,"is_reserved":false,"is_disabled":true,"rental_uris":{"android":"levelo://app?vid=a4ca7329-3ac2-44ac-9c8b-c3829e8c8f46","ios":"levelo://app?vid=a4ca7329-3ac2-44ac-9c8b-c3829e8c8f46"},"vehicle_type_id":"4","last_reported":1773683529,"current_range_meters":4400,"station_id":"","pricing_plan_id":"cebpf4jnsgd1na2vs0mg"},{"bike_id":"79ee3a76-161d-42e4-b558-375f2cb1b0bb","system_id":"levelo_inurba_marseille","lat":43.28283,"lon":5.35084,"is_reserved":false,"is_disabled":false,"rental_uris":{"android":"levelo://app?vid=79ee3a76-161d-42e4-b558-375f2cb1b0bb","ios":"levelo://app?vid=79ee3a76-161d-42e4-b558-375f2cb1b0bb"},"vehicle_type_id":"4","last_reported":1773683529,"current_range_meters":8400,"station_id":"ce4bhbp2rcd13ifvqerg","pricing_plan_id":"cebpf4jnsgd1na2vs0mg"},{"bike_id":"0af203fb-c1fe-4f43-a9a2-b6b372ffe20c","system_id":"levelo_inurba_marseille","lat":43.28444,"lon":5.48433,"is_reserved":false,"is_disabled":false,"rental_uris":{"android":"levelo://app?vid=0af203fb-c1fe-4f43-a9a2-b6b372ffe20c","ios":"levelo://app?vid=0af203fb-c1fe-4f43-a9a2-b6b372ffe20c"},"vehicle_type_id":"4","last_reported":1773683529,"current_range_meters":18000,"station_id":"","pricing_plan_id":"cebpf4jnsgd1na2vs0mg"},{"bike_id":"0ecd47cf-a7b9-4223-8093-c6087cb3bd4a","system_id":"levelo_inurba_marseille","lat":43.28414,"lon":5.34971,"is_reserved":false,"is_disabled":false,"rental_uris":{"android":"levelo://app?vid=0ecd47cf-a7b9-4223-8093-c6087cb3bd4a","ios":"levelo://app?vid=0ecd47cf-a7b9-4223-8093-c6087cb3bd4a"},"vehicle_type_id":"4","last_reported":1773683529,"current_range_meters":18800,"station_id":"ce4bhbh2rcd13ifvqepg","pricing_plan_id":"cebpf4jnsgd1na2vs0mg"},{"bike_id":"fa05944a-25c4-4c7a-aaf9-d8f832bd3a59","system_id":"levelo_inurba_marseille","lat":43.30735,"lon":5.42443,"is_reserved":false,"is_disabled":false,"rental_uris":{"android":"levelo://app?vid=fa05944a-25c4-4c7a-aaf9-d8f832bd3a59","ios":"levelo://app?vid=fa05944a-25c4-4c7a-aaf9-d8f832bd3a59"},"vehicle_type_id":"4","last_reported":1773683529,"current_range_meters":19200,"station_id":"st_cvj6ca6bvosntc0bfgr0","pricing_plan_id":"cebpf4jnsgd1na2vs0mg"},{"bike_id":"ee3a78bd-9b7f-41d0-9f1d-2dcc5ec6f6cf","system_id":"levelo_inurba_marseille","lat":43.27309,"lon":5.39091,"is_reserved":false,"is_disabled":false,"rental_uris":{"android":"levelo://app?vid=ee3a78bd-9b7f-41d0-9f1d-2dcc5ec6f6cf","ios":"levelo://app?vid=ee3a78bd-9b7f-41d0-9f1d-2dcc5ec6f6cf"},"vehicle_type_id":"4","last_reported":1773683529,"current_range_meters":38000,"station_id":"ce4bhgp2rcd13ifvqfe0","pricing_plan_id":"cebpf4jnsgd1na2vs0mg"},{"bike_id":"3983afc1-ba19-4db7-a28e-c4b0e6316e8a","system_id":"levelo_inurba_marseille","lat":43.29268,"lon":5.38433,"is_reserved":false,"is_disabled":false,"rental_uris":{"android":"levelo://app?vid=3983afc1-ba19-4db7-a28e-c4b0e6316e8a","ios":"levelo://app?vid=3983afc1-ba19-4db7-a28e-c4b0e6316e8a"},"vehicle_type_id":"4","last_reported":1773683529,"current_range_meters":27200,"station_id":"ce4bh692rcd13ifvqea0","pricing_plan_id":"cebpf4jnsgd1na2vs0mg"},{"bike_id":"7e113368-8b43-4dc9-a7d3-1b200ce7f912","system_id":"levelo_inurba_marseille","lat":43.27067,"lon":5.38305,"is_reserved":false,"is_disabled":false,"rental_uris":{"android":"levelo://app?vid=7e113368-8b43-4dc9-a7d3-1b200ce7f912","ios":"levelo://app?vid=7e113368-8b43-4dc9-a7d3-1b200ce7f912"},"vehicle_type_id":"4","last_reported":1773683529,"current_range_meters":28400,"station_id":"st_d3n2fo6cfp8s73cte1j0","pricing_plan_id":"cebpf4jnsgd1na2vs0mg"},{"bike_id":"b117ada9-6051-4ec8-af9c-fcb23f39ec91","system_id":"levelo_inurba_marseille","lat":43.29263,"lon":5.38452,"is_reserved":false,"is_disabled":false,"rental_uris":{"android":"levelo://app?vid=b117ada9-6051-4ec8-af9c-fcb23f39ec91","ios":"levelo://app?vid=b117ada9-6051-4ec8-af9c-fcb23f39ec91"},"vehicle_type_id":"4","last_reported":1773683529,"current_range_meters":12000,"station_id":"ce4bh692rcd13ifvqea0","pricing_plan_id":"cebpf4jnsgd1na2vs0mg"},{"bike_id":"6f7d91e0-d8ff-4289-b721-5ac744a4b9bc","system_id":"levelo_inurba_marseille","lat":43.25124,"lon":5.4029,"is_reserved":false,"is_disabled":false,"rental_uris":{"android":"levelo://app?vid=6f7d91e0-d8ff-4289-b721-5ac744a4b9bc","ios":"levelo://app?vid=6f7d91e0-d8ff-4289-b721-5ac744a4b9bc"},"vehicle_type_id":"4","last_reported":1773683529,"current_range_meters":30800,"station_id":"ce4bhlh2rcd13ifvqgig","pricing_plan_id":"cebpf4jnsgd1na2vs0mg"},{"bike_id":"9b90fc99-5ad3-4599-9271-4436dfc71249","system_id":"levelo_inurba_marseille","lat":43.33765,"lon":5.37472,"is_reserved":false,"is_disabled":true,"rental_uris":{"android":"levelo://app?vid=9b90fc99-5ad3-4599-9271-4436dfc71249","ios":"levelo://app?vid=9b90fc99-5ad3-4599-9271-4436dfc71249"},"vehicle_type_id":"4","last_reported":1773683529,"current_range_meters":0,"station_id":"","pricing_plan_id":"cebpf4jnsgd1na2vs0mg"},{"bike_id":"7b857d81-d04a-4d3b-9391-e58842da83da","system_id":"levelo_inurba_marseille","lat":43.27799,"lon":5.4074,"is_reserved":false,"is_disabled":false,"rental_uris":{"android":"levelo://app?vid=7b857d81-d04a-4d3b-9391-e58842da83da","ios":"levelo://app?vid=7b857d81-d04a-4d3b-9391-e58842da83da"},"vehicle_type_id":"4","last_reported":1773683529,"current_range_meters":6800,"station_id":"ce4bhnh2rcd13ifvqgtg","pricing_plan_id":"cebpf4jnsgd1na2vs0mg"},{"bike_id":"4a4664ab-f777-4ebc-8cd0-daa91faf6694","system_id":"levelo_inurba_marseille","lat":43.27363,"lon":5.36235,"is_reserved":false,"is_disabled":false,"rental_uris":{"android":"levelo://app?vid=4a4664ab-f777-4ebc-8cd0-daa91faf6694","ios":"levelo://app?vid=4a4664ab-f777-4ebc-8cd0-daa91faf6694"},"vehicle_type_id":"4","last_reported":1773683529,"current_range_meters":34800,"station_id":"ce4bhbh2rcd13ifvqeo0","pricing_plan_id":"cebpf4jnsgd1na2vs0mg"},{"bike_id":"978a4c15-7738-4ac7-b950-093dc28561d0","system_id":"levelo_inurba_marseille","lat":43.2978,"lon":5.37096,"is_reserved":false,"is_disabled":true,"rental_uris":{"android":"levelo://app?vid=978a4c15-7738-4ac7-b950-093dc28561d0","ios":"levelo://app?vid=978a4c15-7738-4ac7-b950-093dc28561d0"},"vehicle_type_id":"4","last_reported":1773683529,"current_range_meters":39200,"station_id":"ce4bgop2rcd13ifvqc1g","pricing_plan_id":"cebpf4jnsgd1na2vs0mg"},{"bike_id":"b1e4bd73-4fa6-4553-a749-cfe2bc4b6838","system_id":"levelo_inurba_marseille","lat":43.28347,"lon":5.3811,"is_reserved":false,"is_disabled":false,"rental_uris":{"android":"levelo://app?vid=b1e4bd73-4fa6-4553-a749-cfe2bc4b6838","ios":"levelo://app?vid=b1e4bd73-4fa6-4553-a749-cfe2bc4b6838"},"vehicle_type_id":"4","last_reported":1773683529,"current_range_meters":9600,"station_id":"ce4bh412rcd13ifvqdr0","pricing_plan_id":"cebpf4jnsgd1na2vs0mg"},{"bike_id":"4a8d7a43-5dbb-42a2-b5ca-8c6627ac6666","system_id":"levelo_inurba_marseille","lat":43.30175,"lon":5.3665,"is_reserved":false,"is_disabled":false,"rental_uris":{"android":"levelo://app?vid=4a8d7a43-5dbb-42a2-b5ca-8c6627ac6666","ios":"levelo://app?vid=4a8d7a43-5dbb-42a2-b5ca-8c6627ac6666"},"vehicle_type_id":"4","last_reported":1773683529,"current_range_meters":39200,"station_id":"ce4bgrh2rcd13ifvqc8g","pricing_plan_id":"cebpf4jnsgd1na2vs0mg"},{"bike_id":"415bfeb9-0e2a-46f9-9790-98c7da8b8cbf","system_id":"levelo_inurba_marseille","lat":43.30264,"lon":5.3961,"is_reserved":false,"is_disabled":true,"rental_uris":{"android":"levelo://app?vid=415bfeb9-0e2a-46f9-9790-98c7da8b8cbf","ios":"levelo://app?vid=415bfeb9-0e2a-46f9-9790-98c7da8b8cbf"},"vehicle_type_id":"4","last_reported":1773683529,"current_range_meters":0,"station_id":"","pricing_plan_id":"cebpf4jnsgd1na2vs0mg"},{"bike_id":"29e43977-ef6d-49b4-8dac-e1d069a3dbc6","system_id":"levelo_inurba_marseille","lat":43.30886,"lon":5.37178,"is_reserved":false,"is_disabled":false,"rental_uris":{"android":"levelo://app?vid=29e43977-ef6d-49b4-8dac-e1d069a3dbc6","ios":"levelo://app?vid=29e43977-ef6d-49b4-8dac-e1d069a3dbc6"},"vehicle_type_id":"4","last_reported":1773683529,"current_range_meters":24000,"station_id":"ce4bguh2rcd13ifvqckg","pricing_plan_id":"cebpf4jnsgd1na2vs0mg"},{"bike_id":"7d5b997f-5115-45cd-8ced-c8507a994f25","system_id":"levelo_inurba_marseille","lat":43.30175,"lon":5.36664,"is_reserved":false,"is_disabled":false,"rental_uris":{"android":"levelo://app?vid=7d5b997f-5115-45cd-8ced-c8507a994f25","ios":"levelo://app?vid=7d5b997f-5115-45cd-8ced-c8507a994f25"},"vehicle_type_id":"4","last_reported":1773683529,"current_range_meters":9600,"station_id":"ce4bgrh2rcd13ifvqc8g","pricing_plan_id":"cebpf4jnsgd1na2vs0mg"},{"bike_id":"3acb816e-1f68-4780-8294-a90df833ac59","system_id":"levelo_inurba_marseille","lat":43.21746,"lon":5.34598,"is_reserved":false,"is_disabled":false,"rental_uris":{"android":"levelo://app?vid=3acb816e-1f68-4780-8294-a90df833ac59","ios":"levelo://app?vid=3acb816e-1f68-4780-8294-a90df833ac59"},"vehicle_type_id":"4","last_reported":1773683529,"current_range_meters":10800,"station_id":"st_cvj6r9ubvosntc0bgbag","pricing_plan_id":"cebpf4jnsgd1na2vs0mg"},{"bike_id":"9e348f3b-5976-4ec4-ad95-6ee7139fb7fe","system_id":"levelo_inurba_marseille","lat":43.31532,"lon":5.38046,"is_reserved":false,"is_disabled":false,"rental_uris":{"android":"levelo://app?vid=9e348f3b-5976-4ec4-ad95-6ee7139fb7fe","ios":"levelo://app?vid=9e348f3b-5976-4ec4-ad95-6ee7139fb7fe"},"vehicle_type_id":"4","last_reported":1773683529,"current_range_meters":8400,"station_id":"ce4bhsp2rcd13ifvqi50","pricing_plan_id":"cebpf4jnsgd1na2vs0mg"},{"bike_id":"f7b4a7b1-1af9-42f8-bfb3-60cc558d1746","system_id":"levelo_inurba_marseille","lat":43.25478,"lon":5.37979,"is_reserved":false,"is_disabled":false,"rental_uris":{"android":"levelo://app?vid=f7b4a7b1-1af9-42f8-bfb3-60cc558d1746","ios":"levelo://app?vid=f7b4a7b1-1af9-42f8-bfb3-60cc558d1746"},"vehicle_type_id":"4","last_reported":1773683529,"current_range_meters":39200,"station_id":"","pricing_plan_id":"cebpf4jnsgd1na2vs0mg"},{"bike_id":"3da27fab-f707-4d6f-8b10-883081079bc6","system_id":"levelo_inurba_marseille","lat":43.27373,"lon":5.36235,"is_reserved":false,"is_disabled":false,"rental_uris":{"android":"levelo://app?vid=3da27fab-f707-4d6f-8b10-883081079bc6","ios":"levelo://app?vid=3da27fab-f707-4d6f-8b10-883081079bc6"},"vehicle_type_id":"4","last_reported":1773683529,"current_range_meters":38800,"station_id":"ce4bhbh2rcd13ifvqeo0","pricing_plan_id":"cebpf4jnsgd1na2vs0mg"},{"bike_id":"49b111dd-fb15-4df7-a5ff-224f274e0845","system_id":"levelo_inurba_marseille","lat":43.29987,"lon":5.38474,"is_reserved":false,"is_disabled":false,"rental_uris":{"android":"levelo://app?vid=49b111dd-fb15-4df7-a5ff-224f274e0845","ios":"levelo://app?vid=49b111dd-fb15-4df7-a5ff-224f274e0845"},"vehicle_type_id":"4","last_reported":1773683529,"current_range_meters":28000,"station_id":"ce4bgj92rcd13ifvqbd0","pricing_plan_id":"cebpf4jnsgd1na2vs0mg"},{"bike_id":"db657f0a-2eb1-43fd-817e-df7c7be8fd2e","system_id":"levelo_inurba_marseille","lat":43.26583,"lon":5.40319,"is_reserved":false,"is_disabled":false,"rental_uris":{"android":"levelo://app?vid=db657f0a-2eb1-43fd-817e-df7c7be8fd2e","ios":"levelo://app?vid=db657f0a-2eb1-43fd-817e-df7c7be8fd2e"},"vehicle_type_id":"4","last_reported":1773683529,"current_range_meters":35600,"station_id":"ce4bhmp2rcd13ifvqgng","pricing_plan_id":"cebpf4jnsgd1na2vs0mg"},{"bike_id":"6b378b69-0380-4204-b071-ad21b6910bb1","system_id":"levelo_inurba_marseille","lat":43.26943,"lon":5.40253,"is_reserved":false,"is_disabled":false,"rental_uris":{"android":"levelo://app?vid=6b378b69-0380-4204-b071-ad21b6910bb1","ios":"levelo://app?vid=6b378b69-0380-4204-b071-ad21b6910bb1"},"vehicle_type_id":"4","last_reported":1773683529,"current_range_meters":16400,"station_id":"cjm6bp8fraef2m0cb0m0","pricing_plan_id":"cebpf4jnsgd1na2vs0mg"},{"bike_id":"7e55300e-c6ce-4cea-b352-04866308b200","system_id":"levelo_inurba_marseille","lat":43.29556,"lon":5.42281,"is_reserved":false,"is_disabled":false,"rental_uris":{"android":"levelo://app?vid=7e55300e-c6ce-4cea-b352-04866308b200","ios":"levelo://app?vid=7e55300e-c6ce-4cea-b352-04866308b200"},"vehicle_type_id":"4","last_reported":1773683529,"current_range_meters":19600,"station_id":"ce4bhph2rcd13ifvqhdg","pricing_plan_id":"cebpf4jnsgd1na2vs0mg"},{"bike_id":"8a39bd95-653a-47cf-989d-cd8f1fe2ee04","system_id":"levelo_inurba_marseille","lat":43.29843,"lon":5.36271,"is_reserved":false,"is_disabled":false,"rental_uris":{"android":"levelo://app?vid=8a39bd95-653a-47cf-989d-cd8f1fe2ee04","ios":"levelo://app?vid=8a39bd95-653a-47cf-989d-cd8f1fe2ee04"},"vehicle_type_id":"4","last_reported":1773683529,"current_range_meters":38400,"station_id":"ce4bgpp2rcd13ifvqc3g","pricing_plan_id":"cebpf4jnsgd1na2vs0mg"},{"bike_id":"b992d013-31c6-40e6-b76c-ffb49d136524","system_id":"levelo_inurba_marseille","lat":43.32373,"lon":5.38886,"is_reserved":false,"is_disabled":false,"rental_uris":{"android":"levelo://app?vid=b992d013-31c6-40e6-b76c-ffb49d136524","ios":"levelo://app?vid=b992d013-31c6-40e6-b76c-ffb49d136524"},"vehicle_type_id":"4","last_reported":1773683529,"current_range_meters":38000,"station_id":"ce4bhqp2rcd13ifvqhog","pricing_plan_id":"cebpf4jnsgd1na2vs0mg"},{"bike_id":"b2cf1815-9c26-4da3-8c5c-f507a757643a","system_id":"levelo_inurba_marseille","lat":43.2955,"lon":5.38532,"is_reserved":false,"is_disabled":false,"rental_uris":{"android":"levelo://app?vid=b2cf1815-9c26-4da3-8c5c-f507a757643a","ios":"levelo://app?vid=b2cf1815-9c26-4da3-8c5c-f507a757643a"},"vehicle_type_id":"4","last_reported":1773683529,"current_range_meters":34000,"station_id":"ce4bgih2rcd13ifvqba0","pricing_plan_id":"cebpf4jnsgd1na2vs0mg"},{"bike_id":"95335745-9338-4a1d-a429-0f72ada4d5ca","system_id":"levelo_inurba_marseille","lat":43.2637,"lon":5.41082,"is_reserved":false,"is_disabled":false,"rental_uris":{"android":"levelo://app?vid=95335745-9338-4a1d-a429-0f72ada4d5ca","ios":"levelo://app?vid=95335745-9338-4a1d-a429-0f72ada4d5ca"},"vehicle_type_id":"4","last_reported":1773683529,"current_range_meters":25200,"station_id":"st_d4e5ca6na9uc73bfl5fg","pricing_plan_id":"cebpf4jnsgd1na2vs0mg"},{"bike_id":"4f89041b-b0e1-4f23-966a-123b8a20d401","system_id":"levelo_inurba_marseille","lat":43.25934,"lon":5.40916,"is_reserved":false,"is_disabled":false,"rental_uris":{"android":"levelo://app?vid=4f89041b-b0e1-4f23-966a-123b8a20d401","ios":"levelo://app?vid=4f89041b-b0e1-4f23-966a-123b8a20d401"},"vehicle_type_id":"4","last_reported":1773683529,"current_range_meters":6000,"station_id":"ce4bhm92rcd13ifvqglg","pricing_plan_id":"cebpf4jnsgd1na2vs0mg"},{"bike_id":"014fbe6d-acef-4024-b919-caaae3fc7ea1","system_id":"levelo_inurba_marseille","lat":43.28619,"lon":5.35101,"is_reserved":false,"is_disabled":false,"rental_uris":{"android":"levelo://app?vid=014fbe6d-acef-4024-b919-caaae3fc7ea1","ios":"levelo://app?vid=014fbe6d-acef-4024-b919-caaae3fc7ea1"},"vehicle_type_id":"4","last_reported":1773683529,"current_range_meters":28000,"station_id":"ce4bhch2rcd13ifvqeug","pricing_plan_id":"cebpf4jnsgd1na2vs0mg"},{"bike_id":"50c7323a-e0d3-40d7-bb52-3835c1efc8eb","system_id":"levelo_inurba_marseille","lat":43.26202,"lon":5.37934,"is_reserved":false,"is_disabled":false,"rental_uris":{"android":"levelo://app?vid=50c7323a-e0d3-40d7-bb52-3835c1efc8eb","ios":"levelo://app?vid=50c7323a-e0d3-40d7-bb52-3835c1efc8eb"},"vehicle_type_id":"4","last_reported":1773683529,"current_range_meters":36400,"station_id":"ce4bhjp2rcd13ifvqg90","pricing_plan_id":"cebpf4jnsgd1na2vs0mg"},{"bike_id":"d0dab2fa-d617-4c19-a612-133b45b47130","system_id":"levelo_inurba_marseille","lat":43.23177,"lon":5.35553,"is_reserved":false,"is_disabled":false,"rental_uris":{"android":"levelo://app?vid=d0dab2fa-d617-4c19-a612-133b45b47130","ios":"levelo://app?vid=d0dab2fa-d617-4c19-a612-133b45b47130"},"vehicle_type_id":"4","last_reported":1773683529,"current_range_meters":20000,"station_id":"ce4bhu92rcd13ifvqi70","pricing_plan_id":"cebpf4jnsgd1na2vs0mg"},{"bike_id":"491ba74c-a458-433d-a534-dfa81b7720cd","system_id":"levelo_inurba_marseille","lat":43.21763,"lon":5.34585,"is_reserved":false,"is_disabled":false,"rental_uris":{"android":"levelo://app?vid=491ba74c-a458-433d-a534-dfa81b7720cd","ios":"levelo://app?vid=491ba74c-a458-433d-a534-dfa81b7720cd"},"vehicle_type_id":"4","last_reported":1773683529,"current_range_meters":9200,"station_id":"st_cvj6r9ubvosntc0bgbag","pricing_plan_id":"cebpf4jnsgd1na2vs0mg"},{"bike_id":"fdf866ca-9a01-40b6-8b5d-7ed716ee6f5e","system_id":"levelo_inurba_marseille","lat":43.30738,"lon":5.42426,"is_reserved":false,"is_disabled":false,"rental_uris":{"android":"levelo://app?vid=fdf866ca-9a01-40b6-8b5d-7ed716ee6f5e","ios":"levelo://app?vid=fdf866ca-9a01-40b6-8b5d-7ed716ee6f5e"},"vehicle_type_id":"4","last_reported":1773683529,"current_range_meters":38800,"station_id":"st_cvj6ca6bvosntc0bfgr0","pricing_plan_id":"cebpf4jnsgd1na2vs0mg"},{"bike_id":"6a66164b-9aa3-4c95-8e0d-43ad6a93591e","system_id":"levelo_inurba_marseille","lat":43.25487,"lon":5.37661,"is_reserved":false,"is_disabled":false,"rental_uris":{"android":"levelo://app?vid=6a66164b-9aa3-4c95-8e0d-43ad6a93591e","ios":"levelo://app?vid=6a66164b-9aa3-4c95-8e0d-43ad6a93591e"},"vehicle_type_id":"4","last_reported":1773683529,"current_range_meters":39200,"station_id":"ce4bhh12rcd13ifvqff0","pricing_plan_id":"cebpf4jnsgd1na2vs0mg"},{"bike_id":"c2d75a77-7dda-428e-bdbd-a97c9d7e2102","system_id":"levelo_inurba_marseille","lat":43.27083,"lon":5.38303,"is_reserved":false,"is_disabled":true,"rental_uris":{"android":"levelo://app?vid=c2d75a77-7dda-428e-bdbd-a97c9d7e2102","ios":"levelo://app?vid=c2d75a77-7dda-428e-bdbd-a97c9d7e2102"},"vehicle_type_id":"4","last_reported":1773683529,"current_range_meters":35200,"station_id":"st_d3n2fo6cfp8s73cte1j0","pricing_plan_id":"cebpf4jnsgd1na2vs0mg"},{"bike_id":"ac40b5fa-b1ef-4408-b617-03499d457b36","system_id":"levelo_inurba_marseille","lat":43.32287,"lon":5.38281,"is_reserved":false,"is_disabled":false,"rental_uris":{"android":"levelo://app?vid=ac40b5fa-b1ef-4408-b617-03499d457b36","ios":"levelo://app?vid=ac40b5fa-b1ef-4408-b617-03499d457b36"},"vehicle_type_id":"4","last_reported":1773683529,"current_range_meters":32400,"station_id":"ce4bhr12rcd13ifvqhqg","pricing_plan_id":"cebpf4jnsgd1na2vs0mg"},{"bike_id":"12bb0608-da9d-4e04-8f31-0e077a96fffb","system_id":"levelo_inurba_marseille","lat":43.2558,"lon":5.3826,"is_reserved":false,"is_disabled":false,"rental_uris":{"android":"levelo://app?vid=12bb0608-da9d-4e04-8f31-0e077a96fffb","ios":"levelo://app?vid=12bb0608-da9d-4e04-8f31-0e077a96fffb"},"vehicle_type_id":"4","last_reported":1773683529,"current_range_meters":27600,"station_id":"ce4bhih2rcd13ifvqfs0","pricing_plan_id":"cebpf4jnsgd1na2vs0mg"},{"bike_id":"ef124b6c-1864-4cf0-9457-14566d1138f0","system_id":"levelo_inurba_marseille","lat":43.2637,"lon":5.41085,"is_reserved":false,"is_disabled":false,"rental_uris":{"android":"levelo://app?vid=ef124b6c-1864-4cf0-9457-14566d1138f0","ios":"levelo://app?vid=ef124b6c-1864-4cf0-9457-14566d1138f0"},"vehicle_type_id":"4","last_reported":1773683529,"current_range_meters":25600,"station_id":"st_d4e5ca6na9uc73bfl5fg","pricing_plan_id":"cebpf4jnsgd1na2vs0mg"},{"bike_id":"87961bc8-b9ec-434a-9714-7ea7cf0235a9","system_id":"levelo_inurba_marseille","lat":43.33775,"lon":5.37448,"is_reserved":false,"is_disabled":false,"rental_uris":{"android":"levelo://app?vid=87961bc8-b9ec-434a-9714-7ea7cf0235a9","ios":"levelo://app?vid=87961bc8-b9ec-434a-9714-7ea7cf0235a9"},"vehicle_type_id":"4","last_reported":1773683529,"current_range_meters":11600,"station_id":"","pricing_plan_id":"cebpf4jnsgd1na2vs0mg"},{"bike_id":"1dbc2359-923d-4f88-a168-a5102060bfcb","system_id":"levelo_inurba_marseille","lat":43.28284,"lon":5.35084,"is_reserved":false,"is_disabled":false,"rental_uris":{"android":"levelo://app?vid=1dbc2359-923d-4f88-a168-a5102060bfcb","ios":"levelo://app?vid=1dbc2359-923d-4f88-a168-a5102060bfcb"},"vehicle_type_id":"4","last_reported":1773683529,"current_range_meters":14400,"station_id":"ce4bhbp2rcd13ifvqerg","pricing_plan_id":"cebpf4jnsgd1na2vs0mg"},{"bike_id":"4cf6668f-81f2-4636-a077-1eb27f4cf010","system_id":"levelo_inurba_marseille","lat":43.28416,"lon":5.34998,"is_reserved":false,"is_disabled":true,"rental_uris":{"android":"levelo://app?vid=4cf6668f-81f2-4636-a077-1eb27f4cf010","ios":"levelo://app?vid=4cf6668f-81f2-4636-a077-1eb27f4cf010"},"vehicle_type_id":"4","last_reported":1773683529,"current_range_meters":0,"station_id":"ce4bhbh2rcd13ifvqepg","pricing_plan_id":"cebpf4jnsgd1na2vs0mg"},{"bike_id":"e37be8f6-aeb4-43b7-8dd0-e63345507d14","system_id":"levelo_inurba_marseille","lat":43.3035,"lon":5.41881,"is_reserved":false,"is_disabled":false,"rental_uris":{"android":"levelo://app?vid=e37be8f6-aeb4-43b7-8dd0-e63345507d14","ios":"levelo://app?vid=e37be8f6-aeb4-43b7-8dd0-e63345507d14"},"vehicle_type_id":"4","last_reported":1773683529,"current_range_meters":36800,"station_id":"ce4bhop2rcd13ifvqh7g","pricing_plan_id":"cebpf4jnsgd1na2vs0mg"},{"bike_id":"5dedbb18-e988-4c62-a1b7-6082fc58ac3f","system_id":"levelo_inurba_marseille","lat":43.25086,"lon":5.39505,"is_reserved":false,"is_disabled":false,"rental_uris":{"android":"levelo://app?vid=5dedbb18-e988-4c62-a1b7-6082fc58ac3f","ios":"levelo://app?vid=5dedbb18-e988-4c62-a1b7-6082fc58ac3f"},"vehicle_type_id":"4","last_reported":1773683529,"current_range_meters":3600,"station_id":"ce4bhm12rcd13ifvqgkg","pricing_plan_id":"cebpf4jnsgd1na2vs0mg"},{"bike_id":"9f9c6d64-6666-4638-b798-d7a30a16e44d","system_id":"levelo_inurba_marseille","lat":43.28417,"lon":5.34995,"is_reserved":false,"is_disabled":false,"rental_uris":{"android":"levelo://app?vid=9f9c6d64-6666-4638-b798-d7a30a16e44d","ios":"levelo://app?vid=9f9c6d64-6666-4638-b798-d7a30a16e44d"},"vehicle_type_id":"4","last_reported":1773683529,"current_range_meters":16000,"station_id":"ce4bhbh2rcd13ifvqepg","pricing_plan_id":"cebpf4jnsgd1na2vs0mg"},{"bike_id":"7d0d6579-73dd-45b7-81e1-90af3d6ef163","system_id":"levelo_inurba_marseille","lat":43.22572,"lon":5.41643,"is_reserved":false,"is_disabled":false,"rental_uris":{"android":"levelo://app?vid=7d0d6579-73dd-45b7-81e1-90af3d6ef163","ios":"levelo://app?vid=7d0d6579-73dd-45b7-81e1-90af3d6ef163"},"vehicle_type_id":"4","last_reported":1773683529,"current_range_meters":8400,"station_id":"st_d2o4gvlbi1j2169b742g","pricing_plan_id":"cebpf4jnsgd1na2vs0mg"},{"bike_id":"7883c089-5159-4a04-96e1-a061f9111335","system_id":"levelo_inurba_marseille","lat":43.28346,"lon":5.3811,"is_reserved":false,"is_disabled":false,"rental_uris":{"android":"levelo://app?vid=7883c089-5159-4a04-96e1-a061f9111335","ios":"levelo://app?vid=7883c089-5159-4a04-96e1-a061f9111335"},"vehicle_type_id":"4","last_reported":1773683529,"current_range_meters":25200,"station_id":"ce4bh412rcd13ifvqdr0","pricing_plan_id":"cebpf4jnsgd1na2vs0mg"},{"bike_id":"de3e3c75-ed7d-45f7-830a-1f53c5325eae","system_id":"levelo_inurba_marseille","lat":43.28151,"lon":5.4262,"is_reserved":false,"is_disabled":false,"rental_uris":{"android":"levelo://app?vid=de3e3c75-ed7d-45f7-830a-1f53c5325eae","ios":"levelo://app?vid=de3e3c75-ed7d-45f7-830a-1f53c5325eae"},"vehicle_type_id":"4","last_reported":1773683529,"current_range_meters":22400,"station_id":"ce4bhnh2rcd13ifvqgug","pricing_plan_id":"cebpf4jnsgd1na2vs0mg"},{"bike_id":"6ca7a704-a1a3-4423-b087-5da6ef70e14e","system_id":"levelo_inurba_marseille","lat":43.29095,"lon":5.38146,"is_reserved":false,"is_disabled":true,"rental_uris":{"android":"levelo://app?vid=6ca7a704-a1a3-4423-b087-5da6ef70e14e","ios":"levelo://app?vid=6ca7a704-a1a3-4423-b087-5da6ef70e14e"},"vehicle_type_id":"4","last_reported":1773683529,"current_range_meters":0,"station_id":"ce4bh512rcd13ifvqe2g","pricing_plan_id":"cebpf4jnsgd1na2vs0mg"},{"bike_id":"6bd46585-7360-490f-b2a6-8e61e6304105","system_id":"levelo_inurba_marseille","lat":43.29747,"lon":5.4269,"is_reserved":false,"is_disabled":false,"rental_uris":{"android":"levelo://app?vid=6bd46585-7360-490f-b2a6-8e61e6304105","ios":"levelo://app?vid=6bd46585-7360-490f-b2a6-8e61e6304105"},"vehicle_type_id":"4","last_reported":1773683529,"current_range_meters":13600,"station_id":"","pricing_plan_id":"cebpf4jnsgd1na2vs0mg"},{"bike_id":"4c177e21-a8fe-4f57-a94f-d114f72249f7","system_id":"levelo_inurba_marseille","lat":43.31858,"lon":5.3697,"is_reserved":false,"is_disabled":false,"rental_uris":{"android":"levelo://app?vid=4c177e21-a8fe-4f57-a94f-d114f72249f7","ios":"levelo://app?vid=4c177e21-a8fe-4f57-a94f-d114f72249f7"},"vehicle_type_id":"4","last_reported":1773683529,"current_range_meters":35600,"station_id":"","pricing_plan_id":"cebpf4jnsgd1na2vs0mg"},{"bike_id":"d09ce630-b354-4d66-a022-b2cca0032465","system_id":"levelo_inurba_marseille","lat":43.29759,"lon":5.38115,"is_reserved":false,"is_disabled":true,"rental_uris":{"android":"levelo://app?vid=d09ce630-b354-4d66-a022-b2cca0032465","ios":"levelo://app?vid=d09ce630-b354-4d66-a022-b2cca0032465"},"vehicle_type_id":"4","last_reported":1773683529,"current_range_meters":2000,"station_id":"","pricing_plan_id":"cebpf4jnsgd1na2vs0mg"},{"bike_id":"022b5c41-0403-42dc-b165-343ac95ee5ad","system_id":"levelo_inurba_marseille","lat":43.33138,"lon":5.39246,"is_reserved":false,"is_disabled":false,"rental_uris":{"android":"levelo://app?vid=022b5c41-0403-42dc-b165-343ac95ee5ad","ios":"levelo://app?vid=022b5c41-0403-42dc-b165-343ac95ee5ad"},"vehicle_type_id":"4","last_reported":1773683529,"current_range_meters":34800,"station_id":"","pricing_plan_id":"cebpf4jnsgd1na2vs0mg"},{"bike_id":"b25c4ab7-8abd-47d1-9868-b9aac8eb0220","system_id":"levelo_inurba_marseille","lat":43.28978,"lon":5.37845,"is_reserved":false,"is_disabled":false,"rental_uris":{"android":"levelo://app?vid=b25c4ab7-8abd-47d1-9868-b9aac8eb0220","ios":"levelo://app?vid=b25c4ab7-8abd-47d1-9868-b9aac8eb0220"},"vehicle_type_id":"4","last_reported":1773683529,"current_range_meters":7200,"station_id":"ce4bh9p2rcd13ifvqed0","pricing_plan_id":"cebpf4jnsgd1na2vs0mg"},{"bike_id":"03b1b92a-d21f-4b09-ad20-c80e5eee47a1","system_id":"levelo_inurba_marseille","lat":43.29871,"lon":5.3628,"is_reserved":false,"is_disabled":false,"rental_uris":{"android":"levelo://app?vid=03b1b92a-d21f-4b09-ad20-c80e5eee47a1","ios":"levelo://app?vid=03b1b92a-d21f-4b09-ad20-c80e5eee47a1"},"vehicle_type_id":"4","last_reported":1773683529,"current_range_meters":38400,"station_id":"ce4bgpp2rcd13ifvqc3g","pricing_plan_id":"cebpf4jnsgd1na2vs0mg"},{"bike_id":"90006b8d-6aa9-4ebe-9082-e177c10b421a","system_id":"levelo_inurba_marseille","lat":43.31279,"lon":5.37105,"is_reserved":false,"is_disabled":false,"rental_uris":{"android":"levelo://app?vid=90006b8d-6aa9-4ebe-9082-e177c10b421a","ios":"levelo://app?vid=90006b8d-6aa9-4ebe-9082-e177c10b421a"},"vehicle_type_id":"4","last_reported":1773683529,"current_range_meters":35600,"station_id":"","pricing_plan_id":"cebpf4jnsgd1na2vs0mg"},{"bike_id":"584f7aa0-b582-45fa-adcb-d34128f4ce54","system_id":"levelo_inurba_marseille","lat":43.28122,"lon":5.40591,"is_reserved":false,"is_disabled":true,"rental_uris":{"android":"levelo://app?vid=584f7aa0-b582-45fa-adcb-d34128f4ce54","ios":"levelo://app?vid=584f7aa0-b582-45fa-adcb-d34128f4ce54"},"vehicle_type_id":"4","last_reported":1773683529,"current_range_meters":7200,"station_id":"","pricing_plan_id":"cebpf4jnsgd1na2vs0mg"},{"bike_id":"7517fa86-d451-4907-a9dc-fc9996d36076","system_id":"levelo_inurba_marseille","lat":43.26566,"lon":5.39003,"is_reserved":false,"is_disabled":false,"rental_uris":{"android":"levelo://app?vid=7517fa86-d451-4907-a9dc-fc9996d36076","ios":"levelo://app?vid=7517fa86-d451-4907-a9dc-fc9996d36076"},"vehicle_type_id":"4","last_reported":1773683529,"current_range_meters":28400,"station_id":"ce4bhe12rcd13ifvqf30","pricing_plan_id":"cebpf4jnsgd1na2vs0mg"},{"bike_id":"8ae3cd93-1df5-4c86-a3cd-ea1407ea9258","system_id":"levelo_inurba_marseille","lat":43.30757,"lon":5.4242,"is_reserved":false,"is_disabled":false,"rental_uris":{"android":"levelo://app?vid=8ae3cd93-1df5-4c86-a3cd-ea1407ea9258","ios":"levelo://app?vid=8ae3cd93-1df5-4c86-a3cd-ea1407ea9258"},"vehicle_type_id":"4","last_reported":1773683529,"current_range_meters":30800,"station_id":"st_cvj6ca6bvosntc0bfgr0","pricing_plan_id":"cebpf4jnsgd1na2vs0mg"},{"bike_id":"0bd699b8-0f51-4e7d-b635-e29484ca415b","system_id":"levelo_inurba_marseille","lat":43.25562,"lon":5.38221,"is_reserved":false,"is_disabled":false,"rental_uris":{"android":"levelo://app?vid=0bd699b8-0f51-4e7d-b635-e29484ca415b","ios":"levelo://app?vid=0bd699b8-0f51-4e7d-b635-e29484ca415b"},"vehicle_type_id":"4","last_reported":1773683529,"current_range_meters":18800,"station_id":"ce4bhih2rcd13ifvqfs0","pricing_plan_id":"cebpf4jnsgd1na2vs0mg"},{"bike_id":"a1a487e0-263f-4bcb-a083-313a46d262d6","system_id":"levelo_inurba_marseille","lat":43.29116,"lon":5.43276,"is_reserved":false,"is_disabled":true,"rental_uris":{"android":"levelo://app?vid=a1a487e0-263f-4bcb-a083-313a46d262d6","ios":"levelo://app?vid=a1a487e0-263f-4bcb-a083-313a46d262d6"},"vehicle_type_id":"4","last_reported":1773683529,"current_range_meters":20800,"station_id":"","pricing_plan_id":"cebpf4jnsgd1na2vs0mg"},{"bike_id":"075f30c4-9adf-4c08-818b-71bccb3f17d4","system_id":"levelo_inurba_marseille","lat":43.28926,"lon":5.38395,"is_reserved":false,"is_disabled":false,"rental_uris":{"android":"levelo://app?vid=075f30c4-9adf-4c08-818b-71bccb3f17d4","ios":"levelo://app?vid=075f30c4-9adf-4c08-818b-71bccb3f17d4"},"vehicle_type_id":"4","last_reported":1773683529,"current_range_meters":11200,"station_id":"ce4bh612rcd13ifvqe6g","pricing_plan_id":"cebpf4jnsgd1na2vs0mg"},{"bike_id":"ddd64a40-0275-4ca7-a97f-2eff5d3e514a","system_id":"levelo_inurba_marseille","lat":43.28485,"lon":5.48391,"is_reserved":false,"is_disabled":false,"rental_uris":{"android":"levelo://app?vid=ddd64a40-0275-4ca7-a97f-2eff5d3e514a","ios":"levelo://app?vid=ddd64a40-0275-4ca7-a97f-2eff5d3e514a"},"vehicle_type_id":"4","last_reported":1773683529,"current_range_meters":8400,"station_id":"","pricing_plan_id":"cebpf4jnsgd1na2vs0mg"},{"bike_id":"74c79828-da54-44c9-a334-428320bcd64e","system_id":"levelo_inurba_marseille","lat":43.30546,"lon":5.36705,"is_reserved":false,"is_disabled":false,"rental_uris":{"android":"levelo://app?vid=74c79828-da54-44c9-a334-428320bcd64e","ios":"levelo://app?vid=74c79828-da54-44c9-a334-428320bcd64e"},"vehicle_type_id":"4","last_reported":1773683529,"current_range_meters":38400,"station_id":"ce4bgrp2rcd13ifvqc9g","pricing_plan_id":"cebpf4jnsgd1na2vs0mg"},{"bike_id":"be7ccf41-b430-4cd7-97e6-0402ebf8903b","system_id":"levelo_inurba_marseille","lat":43.29037,"lon":5.38666,"is_reserved":false,"is_disabled":false,"rental_uris":{"android":"levelo://app?vid=be7ccf41-b430-4cd7-97e6-0402ebf8903b","ios":"levelo://app?vid=be7ccf41-b430-4cd7-97e6-0402ebf8903b"},"vehicle_type_id":"4","last_reported":1773683529,"current_range_meters":20400,"station_id":"ce4bh4p2rcd13ifvqe0g","pricing_plan_id":"cebpf4jnsgd1na2vs0mg"},{"bike_id":"1a2ad8e0-25f4-4b1d-a268-792ddb756ae5","system_id":"levelo_inurba_marseille","lat":43.33558,"lon":5.37479,"is_reserved":false,"is_disabled":false,"rental_uris":{"android":"levelo://app?vid=1a2ad8e0-25f4-4b1d-a268-792ddb756ae5","ios":"levelo://app?vid=1a2ad8e0-25f4-4b1d-a268-792ddb756ae5"},"vehicle_type_id":"4","last_reported":1773683529,"current_range_meters":14000,"station_id":"st_d46tts09ee8s73dlu43g","pricing_plan_id":"cebpf4jnsgd1na2vs0mg"},{"bike_id":"5dea7ece-1d9b-471d-a08a-4a42d6f62761","system_id":"levelo_inurba_marseille","lat":43.28618,"lon":5.35103,"is_reserved":false,"is_disabled":false,"rental_uris":{"android":"levelo://app?vid=5dea7ece-1d9b-471d-a08a-4a42d6f62761","ios":"levelo://app?vid=5dea7ece-1d9b-471d-a08a-4a42d6f62761"},"vehicle_type_id":"4","last_reported":1773683529,"current_range_meters":33200,"station_id":"ce4bhch2rcd13ifvqeug","pricing_plan_id":"cebpf4jnsgd1na2vs0mg"},{"bike_id":"a81cc48d-fcc5-49d9-a903-9e13600c09b8","system_id":"levelo_inurba_marseille","lat":43.2307,"lon":5.35511,"is_reserved":false,"is_disabled":false,"rental_uris":{"android":"levelo://app?vid=a81cc48d-fcc5-49d9-a903-9e13600c09b8","ios":"levelo://app?vid=a81cc48d-fcc5-49d9-a903-9e13600c09b8"},"vehicle_type_id":"4","last_reported":1773683529,"current_range_meters":32400,"station_id":"cpo3342slgdg3j2ifvpg","pricing_plan_id":"cebpf4jnsgd1na2vs0mg"},{"bike_id":"e5a797cb-e1fa-46f1-827d-4528129adf92","system_id":"levelo_inurba_marseille","lat":43.24645,"lon":5.38915,"is_reserved":false,"is_disabled":false,"rental_uris":{"android":"levelo://app?vid=e5a797cb-e1fa-46f1-827d-4528129adf92","ios":"levelo://app?vid=e5a797cb-e1fa-46f1-827d-4528129adf92"},"vehicle_type_id":"4","last_reported":1773683529,"current_range_meters":4400,"station_id":"ce4bhg12rcd13ifvqf60","pricing_plan_id":"cebpf4jnsgd1na2vs0mg"},{"bike_id":"a3fd6c51-3981-4db6-94c7-b61b54eb3e24","system_id":"levelo_inurba_marseille","lat":43.25831,"lon":5.39446,"is_reserved":false,"is_disabled":false,"rental_uris":{"android":"levelo://app?vid=a3fd6c51-3981-4db6-94c7-b61b54eb3e24","ios":"levelo://app?vid=a3fd6c51-3981-4db6-94c7-b61b54eb3e24"},"vehicle_type_id":"4","last_reported":1773683529,"current_range_meters":10800,"station_id":"ce4bhip2rcd13ifvqft0","pricing_plan_id":"cebpf4jnsgd1na2vs0mg"},{"bike_id":"57a03870-bf15-4b25-a7c6-2a317332b63d","system_id":"levelo_inurba_marseille","lat":43.23184,"lon":5.39993,"is_reserved":false,"is_disabled":false,"rental_uris":{"android":"levelo://app?vid=57a03870-bf15-4b25-a7c6-2a317332b63d","ios":"levelo://app?vid=57a03870-bf15-4b25-a7c6-2a317332b63d"},"vehicle_type_id":"4","last_reported":1773683529,"current_range_meters":10800,"station_id":"ce4bhn12rcd13ifvqgqg","pricing_plan_id":"cebpf4jnsgd1na2vs0mg"},{"bike_id":"d0a4ccca-bbc4-478a-a356-3a2283a6e360","system_id":"levelo_inurba_marseille","lat":43.25136,"lon":5.40302,"is_reserved":false,"is_disabled":false,"rental_uris":{"android":"levelo://app?vid=d0a4ccca-bbc4-478a-a356-3a2283a6e360","ios":"levelo://app?vid=d0a4ccca-bbc4-478a-a356-3a2283a6e360"},"vehicle_type_id":"4","last_reported":1773683529,"current_range_meters":20000,"station_id":"ce4bhlh2rcd13ifvqgig","pricing_plan_id":"cebpf4jnsgd1na2vs0mg"},{"bike_id":"bdec54a5-5da7-49bc-8086-b0bbd36a6232","system_id":"levelo_inurba_marseille","lat":43.28707,"lon":5.39961,"is_reserved":false,"is_disabled":false,"rental_uris":{"android":"levelo://app?vid=bdec54a5-5da7-49bc-8086-b0bbd36a6232","ios":"levelo://app?vid=bdec54a5-5da7-49bc-8086-b0bbd36a6232"},"vehicle_type_id":"4","last_reported":1773683529,"current_range_meters":32800,"station_id":"ce4bho92rcd13ifvqh3g","pricing_plan_id":"cebpf4jnsgd1na2vs0mg"},{"bike_id":"fce7cbbb-7e40-4345-96fd-5af6a4f99936","system_id":"levelo_inurba_marseille","lat":43.23768,"lon":5.36657,"is_reserved":false,"is_disabled":false,"rental_uris":{"android":"levelo://app?vid=fce7cbbb-7e40-4345-96fd-5af6a4f99936","ios":"levelo://app?vid=fce7cbbb-7e40-4345-96fd-5af6a4f99936"},"vehicle_type_id":"4","last_reported":1773683529,"current_range_meters":11600,"station_id":"st_d3nk18o9ro0c73en2l3g","pricing_plan_id":"cebpf4jnsgd1na2vs0mg"},{"bike_id":"389fde50-a832-4ded-94d2-0e3862ffe9b2","system_id":"levelo_inurba_marseille","lat":43.29264,"lon":5.38427,"is_reserved":false,"is_disabled":false,"rental_uris":{"android":"levelo://app?vid=389fde50-a832-4ded-94d2-0e3862ffe9b2","ios":"levelo://app?vid=389fde50-a832-4ded-94d2-0e3862ffe9b2"},"vehicle_type_id":"4","last_reported":1773683529,"current_range_meters":28000,"station_id":"ce4bh692rcd13ifvqea0","pricing_plan_id":"cebpf4jnsgd1na2vs0mg"},{"bike_id":"e842dc60-ab62-4379-a0ed-030031db5b1e","system_id":"levelo_inurba_marseille","lat":43.21195,"lon":5.35065,"is_reserved":false,"is_disabled":false,"rental_uris":{"android":"levelo://app?vid=e842dc60-ab62-4379-a0ed-030031db5b1e","ios":"levelo://app?vid=e842dc60-ab62-4379-a0ed-030031db5b1e"},"vehicle_type_id":"4","last_reported":1773683529,"current_range_meters":10000,"station_id":"st_cvj6sg6p6f1abm77japg","pricing_plan_id":"cebpf4jnsgd1na2vs0mg"},{"bike_id":"70014854-acff-49ca-9046-c49e81b9ca34","system_id":"levelo_inurba_marseille","lat":43.21753,"lon":5.34615,"is_reserved":false,"is_disabled":false,"rental_uris":{"android":"levelo://app?vid=70014854-acff-49ca-9046-c49e81b9ca34","ios":"levelo://app?vid=70014854-acff-49ca-9046-c49e81b9ca34"},"vehicle_type_id":"4","last_reported":1773683529,"current_range_meters":25200,"station_id":"st_cvj6r9ubvosntc0bgbag","pricing_plan_id":"cebpf4jnsgd1na2vs0mg"},{"bike_id":"6b58c736-8eab-4f3b-9ba9-b34b79d2fcdd","system_id":"levelo_inurba_marseille","lat":43.28265,"lon":5.35088,"is_reserved":false,"is_disabled":false,"rental_uris":{"android":"levelo://app?vid=6b58c736-8eab-4f3b-9ba9-b34b79d2fcdd","ios":"levelo://app?vid=6b58c736-8eab-4f3b-9ba9-b34b79d2fcdd"},"vehicle_type_id":"4","last_reported":1773683529,"current_range_meters":38000,"station_id":"ce4bhbp2rcd13ifvqerg","pricing_plan_id":"cebpf4jnsgd1na2vs0mg"},{"bike_id":"31ce9954-543d-4113-bd8d-3529bb240084","system_id":"levelo_inurba_marseille","lat":43.29921,"lon":5.37471,"is_reserved":false,"is_disabled":false,"rental_uris":{"android":"levelo://app?vid=31ce9954-543d-4113-bd8d-3529bb240084","ios":"levelo://app?vid=31ce9954-543d-4113-bd8d-3529bb240084"},"vehicle_type_id":"4","last_reported":1773683529,"current_range_meters":30800,"station_id":"ce4bgjh2rcd13ifvqbg0","pricing_plan_id":"cebpf4jnsgd1na2vs0mg"},{"bike_id":"dd262ad1-703d-4925-a9a5-ca312081395b","system_id":"levelo_inurba_marseille","lat":43.31503,"lon":5.37358,"is_reserved":false,"is_disabled":true,"rental_uris":{"android":"levelo://app?vid=dd262ad1-703d-4925-a9a5-ca312081395b","ios":"levelo://app?vid=dd262ad1-703d-4925-a9a5-ca312081395b"},"vehicle_type_id":"4","last_reported":1773683529,"current_range_meters":33200,"station_id":"ce4bgt12rcd13ifvqcd0","pricing_plan_id":"cebpf4jnsgd1na2vs0mg"},{"bike_id":"177dde7b-d2de-4c6f-a770-315c66758692","system_id":"levelo_inurba_marseille","lat":43.28482,"lon":5.48394,"is_reserved":false,"is_disabled":false,"rental_uris":{"android":"levelo://app?vid=177dde7b-d2de-4c6f-a770-315c66758692","ios":"levelo://app?vid=177dde7b-d2de-4c6f-a770-315c66758692"},"vehicle_type_id":"4","last_reported":1773683529,"current_range_meters":31200,"station_id":"","pricing_plan_id":"cebpf4jnsgd1na2vs0mg"},{"bike_id":"6f54e01c-8e88-4d8b-ae33-a3d8388a376b","system_id":"levelo_inurba_marseille","lat":43.24998,"lon":5.38922,"is_reserved":false,"is_disabled":false,"rental_uris":{"android":"levelo://app?vid=6f54e01c-8e88-4d8b-ae33-a3d8388a376b","ios":"levelo://app?vid=6f54e01c-8e88-4d8b-ae33-a3d8388a376b"},"vehicle_type_id":"4","last_reported":1773683529,"current_range_meters":24800,"station_id":"ce4bhgp2rcd13ifvqfd0","pricing_plan_id":"cebpf4jnsgd1na2vs0mg"},{"bike_id":"bc1bb0c9-2e91-4561-a7e8-897b8784beb2","system_id":"levelo_inurba_marseille","lat":43.29151,"lon":5.39915,"is_reserved":false,"is_disabled":false,"rental_uris":{"android":"levelo://app?vid=bc1bb0c9-2e91-4561-a7e8-897b8784beb2","ios":"levelo://app?vid=bc1bb0c9-2e91-4561-a7e8-897b8784beb2"},"vehicle_type_id":"4","last_reported":1773683529,"current_range_meters":4800,"station_id":"","pricing_plan_id":"cebpf4jnsgd1na2vs0mg"},{"bike_id":"c78aba10-451a-4fdf-a6eb-44e505951594","system_id":"levelo_inurba_marseille","lat":43.28605,"lon":5.39902,"is_reserved":false,"is_disabled":false,"rental_uris":{"android":"levelo://app?vid=c78aba10-451a-4fdf-a6eb-44e505951594","ios":"levelo://app?vid=c78aba10-451a-4fdf-a6eb-44e505951594"},"vehicle_type_id":"4","last_reported":1773683529,"current_range_meters":31200,"station_id":"st_d4a7ka997mjs738ck50g","pricing_plan_id":"cebpf4jnsgd1na2vs0mg"},{"bike_id":"43918b9b-ff13-4bbb-ac03-aa8307d32985","system_id":"levelo_inurba_marseille","lat":43.23202,"lon":5.35533,"is_reserved":false,"is_disabled":false,"rental_uris":{"android":"levelo://app?vid=43918b9b-ff13-4bbb-ac03-aa8307d32985","ios":"levelo://app?vid=43918b9b-ff13-4bbb-ac03-aa8307d32985"},"vehicle_type_id":"4","last_reported":1773683529,"current_range_meters":27600,"station_id":"ce4bhu92rcd13ifvqi70","pricing_plan_id":"cebpf4jnsgd1na2vs0mg"},{"bike_id":"f4b7fd6d-fc43-40a0-9444-97cda83baecc","system_id":"levelo_inurba_marseille","lat":43.28488,"lon":5.48388,"is_reserved":false,"is_disabled":false,"rental_uris":{"android":"levelo://app?vid=f4b7fd6d-fc43-40a0-9444-97cda83baecc","ios":"levelo://app?vid=f4b7fd6d-fc43-40a0-9444-97cda83baecc"},"vehicle_type_id":"4","last_reported":1773683529,"current_range_meters":25200,"station_id":"","pricing_plan_id":"cebpf4jnsgd1na2vs0mg"},{"bike_id":"ad5d6575-373a-4626-b109-e5e54a834cdc","system_id":"levelo_inurba_marseille","lat":43.30918,"lon":5.40157,"is_reserved":false,"is_disabled":true,"rental_uris":{"android":"levelo://app?vid=ad5d6575-373a-4626-b109-e5e54a834cdc","ios":"levelo://app?vid=ad5d6575-373a-4626-b109-e5e54a834cdc"},"vehicle_type_id":"4","last_reported":1773683529,"current_range_meters":27600,"station_id":"ce4bgvp2rcd13ifvqct0","pricing_plan_id":"cebpf4jnsgd1na2vs0mg"},{"bike_id":"d58d57bd-80ea-4c5b-a92a-abc50566c259","system_id":"levelo_inurba_marseille","lat":43.29801,"lon":5.38084,"is_reserved":false,"is_disabled":false,"rental_uris":{"android":"levelo://app?vid=d58d57bd-80ea-4c5b-a92a-abc50566c259","ios":"levelo://app?vid=d58d57bd-80ea-4c5b-a92a-abc50566c259"},"vehicle_type_id":"4","last_reported":1773683529,"current_range_meters":23200,"station_id":"ce4bgip2rcd13ifvqbb0","pricing_plan_id":"cebpf4jnsgd1na2vs0mg"},{"bike_id":"b7bee241-fab1-4e25-8da0-596edc67d8ab","system_id":"levelo_inurba_marseille","lat":43.25571,"lon":5.38252,"is_reserved":false,"is_disabled":false,"rental_uris":{"android":"levelo://app?vid=b7bee241-fab1-4e25-8da0-596edc67d8ab","ios":"levelo://app?vid=b7bee241-fab1-4e25-8da0-596edc67d8ab"},"vehicle_type_id":"4","last_reported":1773683529,"current_range_meters":14400,"station_id":"ce4bhih2rcd13ifvqfs0","pricing_plan_id":"cebpf4jnsgd1na2vs0mg"},{"bike_id":"9da53ada-b42c-4023-810e-049971ee9047","system_id":"levelo_inurba_marseille","lat":43.25337,"lon":5.42165,"is_reserved":false,"is_disabled":false,"rental_uris":{"android":"levelo://app?vid=9da53ada-b42c-4023-810e-049971ee9047","ios":"levelo://app?vid=9da53ada-b42c-4023-810e-049971ee9047"},"vehicle_type_id":"4","last_reported":1773683529,"current_range_meters":4400,"station_id":"st_d2m65c5bi1j21697t3ng","pricing_plan_id":"cebpf4jnsgd1na2vs0mg"},{"bike_id":"0c9ac576-7fb8-430f-bd40-d48f76425b40","system_id":"levelo_inurba_marseille","lat":43.28418,"lon":5.34977,"is_reserved":false,"is_disabled":false,"rental_uris":{"android":"levelo://app?vid=0c9ac576-7fb8-430f-bd40-d48f76425b40","ios":"levelo://app?vid=0c9ac576-7fb8-430f-bd40-d48f76425b40"},"vehicle_type_id":"4","last_reported":1773683529,"current_range_meters":4400,"station_id":"ce4bhbh2rcd13ifvqepg","pricing_plan_id":"cebpf4jnsgd1na2vs0mg"},{"bike_id":"e6dc01d5-f235-488b-9e79-25129e463609","system_id":"levelo_inurba_marseille","lat":43.27819,"lon":5.40708,"is_reserved":false,"is_disabled":false,"rental_uris":{"android":"levelo://app?vid=e6dc01d5-f235-488b-9e79-25129e463609","ios":"levelo://app?vid=e6dc01d5-f235-488b-9e79-25129e463609"},"vehicle_type_id":"4","last_reported":1773683529,"current_range_meters":20400,"station_id":"ce4bhnh2rcd13ifvqgtg","pricing_plan_id":"cebpf4jnsgd1na2vs0mg"},{"bike_id":"49fc7284-9e84-4e41-b11a-a6f445433570","system_id":"levelo_inurba_marseille","lat":43.28081,"lon":5.39655,"is_reserved":false,"is_disabled":true,"rental_uris":{"android":"levelo://app?vid=49fc7284-9e84-4e41-b11a-a6f445433570","ios":"levelo://app?vid=49fc7284-9e84-4e41-b11a-a6f445433570"},"vehicle_type_id":"4","last_reported":1773683529,"current_range_meters":30800,"station_id":"ce4bho12rcd13ifvqh2g","pricing_plan_id":"cebpf4jnsgd1na2vs0mg"},{"bike_id":"299a9473-cfc8-4515-b5e5-68ca9f46f623","system_id":"levelo_inurba_marseille","lat":43.28714,"lon":5.37946,"is_reserved":false,"is_disabled":true,"rental_uris":{"android":"levelo://app?vid=299a9473-cfc8-4515-b5e5-68ca9f46f623","ios":"levelo://app?vid=299a9473-cfc8-4515-b5e5-68ca9f46f623"},"vehicle_type_id":"4","last_reported":1773683529,"current_range_meters":28400,"station_id":"ce4bh9p2rcd13ifvqec0","pricing_plan_id":"cebpf4jnsgd1na2vs0mg"},{"bike_id":"69a4e2c6-e554-480e-83a2-ef8949494013","system_id":"levelo_inurba_marseille","lat":43.28461,"lon":5.35898,"is_reserved":false,"is_disabled":false,"rental_uris":{"android":"levelo://app?vid=69a4e2c6-e554-480e-83a2-ef8949494013","ios":"levelo://app?vid=69a4e2c6-e554-480e-83a2-ef8949494013"},"vehicle_type_id":"4","last_reported":1773683529,"current_range_meters":38800,"station_id":"ce4bhah2rcd13ifvqei0","pricing_plan_id":"cebpf4jnsgd1na2vs0mg"},{"bike_id":"1f487b11-fe62-48c6-bc95-ef78a3a9fd4e","system_id":"levelo_inurba_marseille","lat":43.30738,"lon":5.42445,"is_reserved":false,"is_disabled":false,"rental_uris":{"android":"levelo://app?vid=1f487b11-fe62-48c6-bc95-ef78a3a9fd4e","ios":"levelo://app?vid=1f487b11-fe62-48c6-bc95-ef78a3a9fd4e"},"vehicle_type_id":"4","last_reported":1773683529,"current_range_meters":38800,"station_id":"st_cvj6ca6bvosntc0bfgr0","pricing_plan_id":"cebpf4jnsgd1na2vs0mg"},{"bike_id":"406c358a-9090-4248-af13-e868f1030fd7","system_id":"levelo_inurba_marseille","lat":43.21739,"lon":5.34615,"is_reserved":false,"is_disabled":false,"rental_uris":{"android":"levelo://app?vid=406c358a-9090-4248-af13-e868f1030fd7","ios":"levelo://app?vid=406c358a-9090-4248-af13-e868f1030fd7"},"vehicle_type_id":"4","last_reported":1773683529,"current_range_meters":14000,"station_id":"st_cvj6r9ubvosntc0bgbag","pricing_plan_id":"cebpf4jnsgd1na2vs0mg"},{"bike_id":"34257e2b-5da9-4af1-bdd7-664aa8db6834","system_id":"levelo_inurba_marseille","lat":43.23207,"lon":5.3556,"is_reserved":false,"is_disabled":false,"rental_uris":{"android":"levelo://app?vid=34257e2b-5da9-4af1-bdd7-664aa8db6834","ios":"levelo://app?vid=34257e2b-5da9-4af1-bdd7-664aa8db6834"},"vehicle_type_id":"4","last_reported":1773683529,"current_range_meters":33600,"station_id":"ce4bhu92rcd13ifvqi70","pricing_plan_id":"cebpf4jnsgd1na2vs0mg"},{"bike_id":"288bcbf7-3a52-4b2b-9af2-61f8cf367965","system_id":"levelo_inurba_marseille","lat":43.25733,"lon":5.41097,"is_reserved":false,"is_disabled":false,"rental_uris":{"android":"levelo://app?vid=288bcbf7-3a52-4b2b-9af2-61f8cf367965","ios":"levelo://app?vid=288bcbf7-3a52-4b2b-9af2-61f8cf367965"},"vehicle_type_id":"4","last_reported":1773683529,"current_range_meters":33200,"station_id":"ce4bhkp2rcd13ifvqgd0","pricing_plan_id":"cebpf4jnsgd1na2vs0mg"},{"bike_id":"fec66160-eca4-4055-a135-94a62af705e8","system_id":"levelo_inurba_marseille","lat":43.25006,"lon":5.38939,"is_reserved":false,"is_disabled":false,"rental_uris":{"android":"levelo://app?vid=fec66160-eca4-4055-a135-94a62af705e8","ios":"levelo://app?vid=fec66160-eca4-4055-a135-94a62af705e8"},"vehicle_type_id":"4","last_reported":1773683529,"current_range_meters":8400,"station_id":"ce4bhgp2rcd13ifvqfd0","pricing_plan_id":"cebpf4jnsgd1na2vs0mg"},{"bike_id":"491cd09c-e0c2-44f1-852f-8525d428457d","system_id":"levelo_inurba_marseille","lat":43.3109,"lon":5.42434,"is_reserved":false,"is_disabled":false,"rental_uris":{"android":"levelo://app?vid=491cd09c-e0c2-44f1-852f-8525d428457d","ios":"levelo://app?vid=491cd09c-e0c2-44f1-852f-8525d428457d"},"vehicle_type_id":"4","last_reported":1773683529,"current_range_meters":20800,"station_id":"ce4bhp92rcd13ifvqhag","pricing_plan_id":"cebpf4jnsgd1na2vs0mg"},{"bike_id":"a98b5f2c-b0cd-4413-9994-42d906aa83dd","system_id":"levelo_inurba_marseille","lat":43.29526,"lon":5.39037,"is_reserved":false,"is_disabled":true,"rental_uris":{"android":"levelo://app?vid=a98b5f2c-b0cd-4413-9994-42d906aa83dd","ios":"levelo://app?vid=a98b5f2c-b0cd-4413-9994-42d906aa83dd"},"vehicle_type_id":"4","last_reported":1773683529,"current_range_meters":22000,"station_id":"ce4bh3p2rcd13ifvqdp0","pricing_plan_id":"cebpf4jnsgd1na2vs0mg"},{"bike_id":"8efb579a-a563-4156-bc48-a4542721ceab","system_id":"levelo_inurba_marseille","lat":43.23197,"lon":5.35562,"is_reserved":false,"is_disabled":false,"rental_uris":{"android":"levelo://app?vid=8efb579a-a563-4156-bc48-a4542721ceab","ios":"levelo://app?vid=8efb579a-a563-4156-bc48-a4542721ceab"},"vehicle_type_id":"4","last_reported":1773683529,"current_range_meters":16800,"station_id":"ce4bhu92rcd13ifvqi70","pricing_plan_id":"cebpf4jnsgd1na2vs0mg"},{"bike_id":"067111e1-87af-4e75-b8ed-7f42a447af4d","system_id":"levelo_inurba_marseille","lat":43.26952,"lon":5.40246,"is_reserved":false,"is_disabled":false,"rental_uris":{"android":"levelo://app?vid=067111e1-87af-4e75-b8ed-7f42a447af4d","ios":"levelo://app?vid=067111e1-87af-4e75-b8ed-7f42a447af4d"},"vehicle_type_id":"4","last_reported":1773683529,"current_range_meters":39200,"station_id":"cjm6bp8fraef2m0cb0m0","pricing_plan_id":"cebpf4jnsgd1na2vs0mg"},{"bike_id":"c0b4aa80-9841-4bda-b5b2-d13b8bb7c50f","system_id":"levelo_inurba_marseille","lat":43.32659,"lon":5.40987,"is_reserved":false,"is_disabled":false,"rental_uris":{"android":"levelo://app?vid=c0b4aa80-9841-4bda-b5b2-d13b8bb7c50f","ios":"levelo://app?vid=c0b4aa80-9841-4bda-b5b2-d13b8bb7c50f"},"vehicle_type_id":"4","last_reported":1773683529,"current_range_meters":37600,"station_id":"ce4bhpp2rcd13ifvqhgg","pricing_plan_id":"cebpf4jnsgd1na2vs0mg"},{"bike_id":"9c528212-0db7-442e-98cb-d9233c05e6e1","system_id":"levelo_inurba_marseille","lat":43.29959,"lon":5.41327,"is_reserved":false,"is_disabled":false,"rental_uris":{"android":"levelo://app?vid=9c528212-0db7-442e-98cb-d9233c05e6e1","ios":"levelo://app?vid=9c528212-0db7-442e-98cb-d9233c05e6e1"},"vehicle_type_id":"4","last_reported":1773683529,"current_range_meters":38000,"station_id":"ce4bhp12rcd13ifvqh9g","pricing_plan_id":"cebpf4jnsgd1na2vs0mg"},{"bike_id":"e59ffb01-b028-44ab-a5e5-5d8f6dba3aee","system_id":"levelo_inurba_marseille","lat":43.29793,"lon":5.37078,"is_reserved":false,"is_disabled":false,"rental_uris":{"android":"levelo://app?vid=e59ffb01-b028-44ab-a5e5-5d8f6dba3aee","ios":"levelo://app?vid=e59ffb01-b028-44ab-a5e5-5d8f6dba3aee"},"vehicle_type_id":"4","last_reported":1773683529,"current_range_meters":37600,"station_id":"ce4bgop2rcd13ifvqc1g","pricing_plan_id":"cebpf4jnsgd1na2vs0mg"},{"bike_id":"ca335a85-78dd-4bc8-9e22-8cb9035dee1c","system_id":"levelo_inurba_marseille","lat":43.3038,"lon":5.42483,"is_reserved":false,"is_disabled":false,"rental_uris":{"android":"levelo://app?vid=ca335a85-78dd-4bc8-9e22-8cb9035dee1c","ios":"levelo://app?vid=ca335a85-78dd-4bc8-9e22-8cb9035dee1c"},"vehicle_type_id":"4","last_reported":1773683529,"current_range_meters":9200,"station_id":"ce4bhoh2rcd13ifvqh6g","pricing_plan_id":"cebpf4jnsgd1na2vs0mg"},{"bike_id":"73d4826f-170c-4f3a-a1fb-56e4f9c51b74","system_id":"levelo_inurba_marseille","lat":43.28675,"lon":5.3865,"is_reserved":false,"is_disabled":true,"rental_uris":{"android":"levelo://app?vid=73d4826f-170c-4f3a-a1fb-56e4f9c51b74","ios":"levelo://app?vid=73d4826f-170c-4f3a-a1fb-56e4f9c51b74"},"vehicle_type_id":"4","last_reported":1773683529,"current_range_meters":24800,"station_id":"ce4bh492rcd13ifvqdug","pricing_plan_id":"cebpf4jnsgd1na2vs0mg"},{"bike_id":"d2f4767c-f1af-44a0-b249-e2823c6db238","system_id":"levelo_inurba_marseille","lat":43.29624,"lon":5.37168,"is_reserved":false,"is_disabled":false,"rental_uris":{"android":"levelo://app?vid=d2f4767c-f1af-44a0-b249-e2823c6db238","ios":"levelo://app?vid=d2f4767c-f1af-44a0-b249-e2823c6db238"},"vehicle_type_id":"4","last_reported":1773683529,"current_range_meters":34800,"station_id":"ce4bgnh2rcd13ifvqc0g","pricing_plan_id":"cebpf4jnsgd1na2vs0mg"},{"bike_id":"eb1d1e5d-c035-4be2-ab4f-714082cc667f","system_id":"levelo_inurba_marseille","lat":43.25097,"lon":5.39524,"is_reserved":false,"is_disabled":false,"rental_uris":{"android":"levelo://app?vid=eb1d1e5d-c035-4be2-ab4f-714082cc667f","ios":"levelo://app?vid=eb1d1e5d-c035-4be2-ab4f-714082cc667f"},"vehicle_type_id":"4","last_reported":1773683529,"current_range_meters":17200,"station_id":"ce4bhm12rcd13ifvqgkg","pricing_plan_id":"cebpf4jnsgd1na2vs0mg"},{"bike_id":"cf3d27ef-91c6-429a-962e-d10a32a01938","system_id":"levelo_inurba_marseille","lat":43.29817,"lon":5.44069,"is_reserved":false,"is_disabled":false,"rental_uris":{"android":"levelo://app?vid=cf3d27ef-91c6-429a-962e-d10a32a01938","ios":"levelo://app?vid=cf3d27ef-91c6-429a-962e-d10a32a01938"},"vehicle_type_id":"4","last_reported":1773683529,"current_range_meters":8000,"station_id":"st_d3jp68qikq2c7381ktn0","pricing_plan_id":"cebpf4jnsgd1na2vs0mg"},{"bike_id":"6d0a1d1d-62d9-4b05-b15c-9b1404f11361","system_id":"levelo_inurba_marseille","lat":43.25525,"lon":5.37643,"is_reserved":false,"is_disabled":false,"rental_uris":{"android":"levelo://app?vid=6d0a1d1d-62d9-4b05-b15c-9b1404f11361","ios":"levelo://app?vid=6d0a1d1d-62d9-4b05-b15c-9b1404f11361"},"vehicle_type_id":"4","last_reported":1773683529,"current_range_meters":36400,"station_id":"ce4bhh12rcd13ifvqff0","pricing_plan_id":"cebpf4jnsgd1na2vs0mg"},{"bike_id":"68c57307-3b43-4297-9176-92154ebd2039","system_id":"levelo_inurba_marseille","lat":43.29017,"lon":5.38639,"is_reserved":false,"is_disabled":false,"rental_uris":{"android":"levelo://app?vid=68c57307-3b43-4297-9176-92154ebd2039","ios":"levelo://app?vid=68c57307-3b43-4297-9176-92154ebd2039"},"vehicle_type_id":"4","last_reported":1773683529,"current_range_meters":6800,"station_id":"ce4bh4p2rcd13ifvqe0g","pricing_plan_id":"cebpf4jnsgd1na2vs0mg"},{"bike_id":"ff3c80d4-6915-439d-8d4f-2189798176f6","system_id":"levelo_inurba_marseille","lat":43.29926,"lon":5.36538,"is_reserved":false,"is_disabled":false,"rental_uris":{"android":"levelo://app?vid=ff3c80d4-6915-439d-8d4f-2189798176f6","ios":"levelo://app?vid=ff3c80d4-6915-439d-8d4f-2189798176f6"},"vehicle_type_id":"4","last_reported":1773683529,"current_range_meters":6800,"station_id":"ce4bgm92rcd13ifvqbr0","pricing_plan_id":"cebpf4jnsgd1na2vs0mg"},{"bike_id":"1fc1c4a6-4b47-4a80-9c5a-da29ffdeeb8a","system_id":"levelo_inurba_marseille","lat":43.28253,"lon":5.35074,"is_reserved":false,"is_disabled":false,"rental_uris":{"android":"levelo://app?vid=1fc1c4a6-4b47-4a80-9c5a-da29ffdeeb8a","ios":"levelo://app?vid=1fc1c4a6-4b47-4a80-9c5a-da29ffdeeb8a"},"vehicle_type_id":"4","last_reported":1773683529,"current_range_meters":6400,"station_id":"ce4bhbp2rcd13ifvqerg","pricing_plan_id":"cebpf4jnsgd1na2vs0mg"},{"bike_id":"274d9226-e4a6-4b9c-a0ed-ca25ec988c62","system_id":"levelo_inurba_marseille","lat":43.29027,"lon":5.38639,"is_reserved":false,"is_disabled":false,"rental_uris":{"android":"levelo://app?vid=274d9226-e4a6-4b9c-a0ed-ca25ec988c62","ios":"levelo://app?vid=274d9226-e4a6-4b9c-a0ed-ca25ec988c62"},"vehicle_type_id":"4","last_reported":1773683529,"current_range_meters":24800,"station_id":"ce4bh4p2rcd13ifvqe0g","pricing_plan_id":"cebpf4jnsgd1na2vs0mg"},{"bike_id":"88bd1de4-947e-43e7-996f-b3a6c434223c","system_id":"levelo_inurba_marseille","lat":43.25844,"lon":5.39489,"is_reserved":false,"is_disabled":true,"rental_uris":{"android":"levelo://app?vid=88bd1de4-947e-43e7-996f-b3a6c434223c","ios":"levelo://app?vid=88bd1de4-947e-43e7-996f-b3a6c434223c"},"vehicle_type_id":"4","last_reported":1773683529,"current_range_meters":32800,"station_id":"","pricing_plan_id":"cebpf4jnsgd1na2vs0mg"},{"bike_id":"05f50eb5-8d59-44ce-ba20-2d5c1a8a4c7b","system_id":"levelo_inurba_marseille","lat":43.31717,"lon":5.4241,"is_reserved":false,"is_disabled":false,"rental_uris":{"android":"levelo://app?vid=05f50eb5-8d59-44ce-ba20-2d5c1a8a4c7b","ios":"levelo://app?vid=05f50eb5-8d59-44ce-ba20-2d5c1a8a4c7b"},"vehicle_type_id":"4","last_reported":1773683529,"current_range_meters":16400,"station_id":"ce4bhp92rcd13ifvqhbg","pricing_plan_id":"cebpf4jnsgd1na2vs0mg"},{"bike_id":"fb32a1c0-e487-43ab-b761-dcce914aad54","system_id":"levelo_inurba_marseille","lat":43.25126,"lon":5.40326,"is_reserved":false,"is_disabled":false,"rental_uris":{"android":"levelo://app?vid=fb32a1c0-e487-43ab-b761-dcce914aad54","ios":"levelo://app?vid=fb32a1c0-e487-43ab-b761-dcce914aad54"},"vehicle_type_id":"4","last_reported":1773683529,"current_range_meters":39200,"station_id":"ce4bhlh2rcd13ifvqgig","pricing_plan_id":"cebpf4jnsgd1na2vs0mg"},{"bike_id":"a5213470-22ea-4f16-b423-41069635802b","system_id":"levelo_inurba_marseille","lat":43.31257,"lon":5.40169,"is_reserved":false,"is_disabled":false,"rental_uris":{"android":"levelo://app?vid=a5213470-22ea-4f16-b423-41069635802b","ios":"levelo://app?vid=a5213470-22ea-4f16-b423-41069635802b"},"vehicle_type_id":"4","last_reported":1773683529,"current_range_meters":22400,"station_id":"ce4bh092rcd13ifvqd30","pricing_plan_id":"cebpf4jnsgd1na2vs0mg"},{"bike_id":"e2098bbb-5ace-4a72-920f-fe2cf19bc462","system_id":"levelo_inurba_marseille","lat":43.28151,"lon":5.42641,"is_reserved":false,"is_disabled":false,"rental_uris":{"android":"levelo://app?vid=e2098bbb-5ace-4a72-920f-fe2cf19bc462","ios":"levelo://app?vid=e2098bbb-5ace-4a72-920f-fe2cf19bc462"},"vehicle_type_id":"4","last_reported":1773683529,"current_range_meters":38800,"station_id":"ce4bhnh2rcd13ifvqgug","pricing_plan_id":"cebpf4jnsgd1na2vs0mg"},{"bike_id":"58f111c3-d4d8-401b-b1de-be436e4b63d6","system_id":"levelo_inurba_marseille","lat":43.23185,"lon":5.39981,"is_reserved":false,"is_disabled":false,"rental_uris":{"android":"levelo://app?vid=58f111c3-d4d8-401b-b1de-be436e4b63d6","ios":"levelo://app?vid=58f111c3-d4d8-401b-b1de-be436e4b63d6"},"vehicle_type_id":"4","last_reported":1773683529,"current_range_meters":28400,"station_id":"ce4bhn12rcd13ifvqgqg","pricing_plan_id":"cebpf4jnsgd1na2vs0mg"},{"bike_id":"e6d9e185-de29-413a-8517-3942df1a652a","system_id":"levelo_inurba_marseille","lat":43.29831,"lon":5.36314,"is_reserved":false,"is_disabled":false,"rental_uris":{"android":"levelo://app?vid=e6d9e185-de29-413a-8517-3942df1a652a","ios":"levelo://app?vid=e6d9e185-de29-413a-8517-3942df1a652a"},"vehicle_type_id":"4","last_reported":1773683529,"current_range_meters":39200,"station_id":"ce4bgpp2rcd13ifvqc3g","pricing_plan_id":"cebpf4jnsgd1na2vs0mg"},{"bike_id":"41483cd8-6eff-42a2-9100-3d0c1cb29351","system_id":"levelo_inurba_marseille","lat":43.26486,"lon":5.39574,"is_reserved":false,"is_disabled":false,"rental_uris":{"android":"levelo://app?vid=41483cd8-6eff-42a2-9100-3d0c1cb29351","ios":"levelo://app?vid=41483cd8-6eff-42a2-9100-3d0c1cb29351"},"vehicle_type_id":"4","last_reported":1773683529,"current_range_meters":8400,"station_id":"ce4bhi12rcd13ifvqfq0","pricing_plan_id":"cebpf4jnsgd1na2vs0mg"},{"bike_id":"74c7d16a-3108-4ed6-b3c2-5a7c2eaa7c43","system_id":"levelo_inurba_marseille","lat":43.28101,"lon":5.37843,"is_reserved":false,"is_disabled":false,"rental_uris":{"android":"levelo://app?vid=74c7d16a-3108-4ed6-b3c2-5a7c2eaa7c43","ios":"levelo://app?vid=74c7d16a-3108-4ed6-b3c2-5a7c2eaa7c43"},"vehicle_type_id":"4","last_reported":1773683529,"current_range_meters":33200,"station_id":"ce4bha12rcd13ifvqee0","pricing_plan_id":"cebpf4jnsgd1na2vs0mg"},{"bike_id":"ffd2aa79-124b-40e3-b74b-93a25fcdb83f","system_id":"levelo_inurba_marseille","lat":43.2319,"lon":5.39992,"is_reserved":false,"is_disabled":false,"rental_uris":{"android":"levelo://app?vid=ffd2aa79-124b-40e3-b74b-93a25fcdb83f","ios":"levelo://app?vid=ffd2aa79-124b-40e3-b74b-93a25fcdb83f"},"vehicle_type_id":"4","last_reported":1773683529,"current_range_meters":33600,"station_id":"ce4bhn12rcd13ifvqgqg","pricing_plan_id":"cebpf4jnsgd1na2vs0mg"},{"bike_id":"40450e44-cc9d-407c-957a-1aeb6f187932","system_id":"levelo_inurba_marseille","lat":43.22562,"lon":5.41633,"is_reserved":false,"is_disabled":false,"rental_uris":{"android":"levelo://app?vid=40450e44-cc9d-407c-957a-1aeb6f187932","ios":"levelo://app?vid=40450e44-cc9d-407c-957a-1aeb6f187932"},"vehicle_type_id":"4","last_reported":1773683529,"current_range_meters":6800,"station_id":"st_d2o4gvlbi1j2169b742g","pricing_plan_id":"cebpf4jnsgd1na2vs0mg"},{"bike_id":"e24aa91d-22b2-440b-bc6d-25ab2b336b7a","system_id":"levelo_inurba_marseille","lat":43.23195,"lon":5.35509,"is_reserved":false,"is_disabled":false,"rental_uris":{"android":"levelo://app?vid=e24aa91d-22b2-440b-bc6d-25ab2b336b7a","ios":"levelo://app?vid=e24aa91d-22b2-440b-bc6d-25ab2b336b7a"},"vehicle_type_id":"4","last_reported":1773683529,"current_range_meters":39200,"station_id":"ce4bhu92rcd13ifvqi70","pricing_plan_id":"cebpf4jnsgd1na2vs0mg"},{"bike_id":"eaa5390d-2d68-4739-8254-52f983e127b1","system_id":"levelo_inurba_marseille","lat":43.28482,"lon":5.48408,"is_reserved":false,"is_disabled":false,"rental_uris":{"android":"levelo://app?vid=eaa5390d-2d68-4739-8254-52f983e127b1","ios":"levelo://app?vid=eaa5390d-2d68-4739-8254-52f983e127b1"},"vehicle_type_id":"4","last_reported":1773683529,"current_range_meters":20000,"station_id":"","pricing_plan_id":"cebpf4jnsgd1na2vs0mg"},{"bike_id":"749c36a6-74d8-40e2-958b-0b8179aad8b2","system_id":"levelo_inurba_marseille","lat":43.32233,"lon":5.38437,"is_reserved":false,"is_disabled":false,"rental_uris":{"android":"levelo://app?vid=749c36a6-74d8-40e2-958b-0b8179aad8b2","ios":"levelo://app?vid=749c36a6-74d8-40e2-958b-0b8179aad8b2"},"vehicle_type_id":"4","last_reported":1773683529,"current_range_meters":19200,"station_id":"ce4bhr12rcd13ifvqhqg","pricing_plan_id":"cebpf4jnsgd1na2vs0mg"},{"bike_id":"eba7007a-22fe-4603-b600-e6d79c47801e","system_id":"levelo_inurba_marseille","lat":43.27209,"lon":5.4099,"is_reserved":false,"is_disabled":false,"rental_uris":{"android":"levelo://app?vid=eba7007a-22fe-4603-b600-e6d79c47801e","ios":"levelo://app?vid=eba7007a-22fe-4603-b600-e6d79c47801e"},"vehicle_type_id":"4","last_reported":1773683529,"current_range_meters":28000,"station_id":"ce4bhl12rcd13ifvqgf0","pricing_plan_id":"cebpf4jnsgd1na2vs0mg"},{"bike_id":"963aea0f-edfd-42fe-bb5c-9e3909fc1c6c","system_id":"levelo_inurba_marseille","lat":43.25578,"lon":5.38249,"is_reserved":false,"is_disabled":false,"rental_uris":{"android":"levelo://app?vid=963aea0f-edfd-42fe-bb5c-9e3909fc1c6c","ios":"levelo://app?vid=963aea0f-edfd-42fe-bb5c-9e3909fc1c6c"},"vehicle_type_id":"4","last_reported":1773683529,"current_range_meters":39200,"station_id":"ce4bhih2rcd13ifvqfs0","pricing_plan_id":"cebpf4jnsgd1na2vs0mg"},{"bike_id":"8aaf525a-2438-4977-86b2-70256683bfeb","system_id":"levelo_inurba_marseille","lat":43.28528,"lon":5.44142,"is_reserved":false,"is_disabled":false,"rental_uris":{"android":"levelo://app?vid=8aaf525a-2438-4977-86b2-70256683bfeb","ios":"levelo://app?vid=8aaf525a-2438-4977-86b2-70256683bfeb"},"vehicle_type_id":"4","last_reported":1773683529,"current_range_meters":31200,"station_id":"st_d3j3df2ikq2c7380ej80","pricing_plan_id":"cebpf4jnsgd1na2vs0mg"},{"bike_id":"85384336-ec8c-4d14-8cf7-dd1704f5ada9","system_id":"levelo_inurba_marseille","lat":43.28416,"lon":5.3498,"is_reserved":false,"is_disabled":false,"rental_uris":{"android":"levelo://app?vid=85384336-ec8c-4d14-8cf7-dd1704f5ada9","ios":"levelo://app?vid=85384336-ec8c-4d14-8cf7-dd1704f5ada9"},"vehicle_type_id":"4","last_reported":1773683529,"current_range_meters":35600,"station_id":"ce4bhbh2rcd13ifvqepg","pricing_plan_id":"cebpf4jnsgd1na2vs0mg"},{"bike_id":"3a8872ac-5abe-4b33-9dc6-78b380db140a","system_id":"levelo_inurba_marseille","lat":43.307936,"lon":5.381642,"is_reserved":false,"is_disabled":false,"rental_uris":{"android":"levelo://app?vid=3a8872ac-5abe-4b33-9dc6-78b380db140a","ios":"levelo://app?vid=3a8872ac-5abe-4b33-9dc6-78b380db140a"},"vehicle_type_id":"4","last_reported":1773683529,"current_range_meters":16800,"station_id":"ce4bgt12rcd13ifvqce0","pricing_plan_id":"cebpf4jnsgd1na2vs0mg"},{"bike_id":"a49d2dd6-b197-4b63-9ef5-4a2d828cbf24","system_id":"levelo_inurba_marseille","lat":43.29758,"lon":5.42782,"is_reserved":false,"is_disabled":false,"rental_uris":{"android":"levelo://app?vid=a49d2dd6-b197-4b63-9ef5-4a2d828cbf24","ios":"levelo://app?vid=a49d2dd6-b197-4b63-9ef5-4a2d828cbf24"},"vehicle_type_id":"4","last_reported":1773683529,"current_range_meters":24800,"station_id":"st_d3md5207bmas73dh9klg","pricing_plan_id":"cebpf4jnsgd1na2vs0mg"},{"bike_id":"e3fbff3a-10a0-4a3b-99c5-5f6809545e95","system_id":"levelo_inurba_marseille","lat":43.21744,"lon":5.34602,"is_reserved":false,"is_disabled":false,"rental_uris":{"android":"levelo://app?vid=e3fbff3a-10a0-4a3b-99c5-5f6809545e95","ios":"levelo://app?vid=e3fbff3a-10a0-4a3b-99c5-5f6809545e95"},"vehicle_type_id":"4","last_reported":1773683529,"current_range_meters":27200,"station_id":"st_cvj6r9ubvosntc0bgbag","pricing_plan_id":"cebpf4jnsgd1na2vs0mg"},{"bike_id":"592a7547-d375-47f5-a92c-507aad4780b8","system_id":"levelo_inurba_marseille","lat":43.22553,"lon":5.41681,"is_reserved":false,"is_disabled":false,"rental_uris":{"android":"levelo://app?vid=592a7547-d375-47f5-a92c-507aad4780b8","ios":"levelo://app?vid=592a7547-d375-47f5-a92c-507aad4780b8"},"vehicle_type_id":"4","last_reported":1773683529,"current_range_meters":32800,"station_id":"st_d2o4gvlbi1j2169b742g","pricing_plan_id":"cebpf4jnsgd1na2vs0mg"},{"bike_id":"d7c36880-a1e8-42c9-b6f4-a0adf8e737db","system_id":"levelo_inurba_marseille","lat":43.24182,"lon":5.39725,"is_reserved":false,"is_disabled":false,"rental_uris":{"android":"levelo://app?vid=d7c36880-a1e8-42c9-b6f4-a0adf8e737db","ios":"levelo://app?vid=d7c36880-a1e8-42c9-b6f4-a0adf8e737db"},"vehicle_type_id":"4","last_reported":1773683529,"current_range_meters":12000,"station_id":"ce4bhn12rcd13ifvqgpg","pricing_plan_id":"cebpf4jnsgd1na2vs0mg"},{"bike_id":"66238237-b0ff-4d4c-9fd0-1d54f6552b47","system_id":"levelo_inurba_marseille","lat":43.21739,"lon":5.3461,"is_reserved":false,"is_disabled":false,"rental_uris":{"android":"levelo://app?vid=66238237-b0ff-4d4c-9fd0-1d54f6552b47","ios":"levelo://app?vid=66238237-b0ff-4d4c-9fd0-1d54f6552b47"},"vehicle_type_id":"4","last_reported":1773683529,"current_range_meters":10000,"station_id":"st_cvj6r9ubvosntc0bgbag","pricing_plan_id":"cebpf4jnsgd1na2vs0mg"},{"bike_id":"4ce7e85d-2f41-47d0-a55a-10d1eb9f4142","system_id":"levelo_inurba_marseille","lat":43.24463,"lon":5.42543,"is_reserved":false,"is_disabled":false,"rental_uris":{"android":"levelo://app?vid=4ce7e85d-2f41-47d0-a55a-10d1eb9f4142","ios":"levelo://app?vid=4ce7e85d-2f41-47d0-a55a-10d1eb9f4142"},"vehicle_type_id":"4","last_reported":1773683529,"current_range_meters":6000,"station_id":"st_d4a3vfp97mjs738cd8kg","pricing_plan_id":"cebpf4jnsgd1na2vs0mg"},{"bike_id":"d413a79d-3be2-4799-aa48-0d98567636b0","system_id":"levelo_inurba_marseille","lat":43.28099,"lon":5.37846,"is_reserved":false,"is_disabled":false,"rental_uris":{"android":"levelo://app?vid=d413a79d-3be2-4799-aa48-0d98567636b0","ios":"levelo://app?vid=d413a79d-3be2-4799-aa48-0d98567636b0"},"vehicle_type_id":"4","last_reported":1773683529,"current_range_meters":7200,"station_id":"ce4bha12rcd13ifvqee0","pricing_plan_id":"cebpf4jnsgd1na2vs0mg"},{"bike_id":"06183524-46ef-4418-bda6-799d99f45d4a","system_id":"levelo_inurba_marseille","lat":43.25495,"lon":5.37647,"is_reserved":false,"is_disabled":false,"rental_uris":{"android":"levelo://app?vid=06183524-46ef-4418-bda6-799d99f45d4a","ios":"levelo://app?vid=06183524-46ef-4418-bda6-799d99f45d4a"},"vehicle_type_id":"4","last_reported":1773683529,"current_range_meters":20400,"station_id":"ce4bhh12rcd13ifvqff0","pricing_plan_id":"cebpf4jnsgd1na2vs0mg"},{"bike_id":"72e248b9-3433-4c84-9cdf-83a90cf0f4a9","system_id":"levelo_inurba_marseille","lat":43.29193,"lon":5.39291,"is_reserved":false,"is_disabled":true,"rental_uris":{"android":"levelo://app?vid=72e248b9-3433-4c84-9cdf-83a90cf0f4a9","ios":"levelo://app?vid=72e248b9-3433-4c84-9cdf-83a90cf0f4a9"},"vehicle_type_id":"4","last_reported":1773683529,"current_range_meters":10800,"station_id":"ce4bh192rcd13ifvqdd0","pricing_plan_id":"cebpf4jnsgd1na2vs0mg"},{"bike_id":"52519249-3b0d-4202-8277-c4917b19c2d3","system_id":"levelo_inurba_marseille","lat":43.30951,"lon":5.39034,"is_reserved":false,"is_disabled":true,"rental_uris":{"android":"levelo://app?vid=52519249-3b0d-4202-8277-c4917b19c2d3","ios":"levelo://app?vid=52519249-3b0d-4202-8277-c4917b19c2d3"},"vehicle_type_id":"4","last_reported":1773683529,"current_range_meters":39200,"station_id":"ce4bgup2rcd13ifvqco0","pricing_plan_id":"cebpf4jnsgd1na2vs0mg"},{"bike_id":"8aafbcd1-e0fe-4ef4-b089-a98b4c86c0ee","system_id":"levelo_inurba_marseille","lat":43.26192,"lon":5.37445,"is_reserved":false,"is_disabled":true,"rental_uris":{"android":"levelo://app?vid=8aafbcd1-e0fe-4ef4-b089-a98b4c86c0ee","ios":"levelo://app?vid=8aafbcd1-e0fe-4ef4-b089-a98b4c86c0ee"},"vehicle_type_id":"4","last_reported":1773683529,"current_range_meters":25600,"station_id":"ce4bhgp2rcd13ifvqfc0","pricing_plan_id":"cebpf4jnsgd1na2vs0mg"},{"bike_id":"1d87baf7-4472-4b8a-8168-674f85eba66b","system_id":"levelo_inurba_marseille","lat":43.22816,"lon":5.4346,"is_reserved":false,"is_disabled":false,"rental_uris":{"android":"levelo://app?vid=1d87baf7-4472-4b8a-8168-674f85eba66b","ios":"levelo://app?vid=1d87baf7-4472-4b8a-8168-674f85eba66b"},"vehicle_type_id":"4","last_reported":1773683529,"current_range_meters":16400,"station_id":"","pricing_plan_id":"cebpf4jnsgd1na2vs0mg"},{"bike_id":"24d38df8-802b-48fe-8c7d-7cc3349f4378","system_id":"levelo_inurba_marseille","lat":43.25521,"lon":5.37649,"is_reserved":false,"is_disabled":true,"rental_uris":{"android":"levelo://app?vid=24d38df8-802b-48fe-8c7d-7cc3349f4378","ios":"levelo://app?vid=24d38df8-802b-48fe-8c7d-7cc3349f4378"},"vehicle_type_id":"4","last_reported":1773683529,"current_range_meters":1200,"station_id":"ce4bhh12rcd13ifvqff0","pricing_plan_id":"cebpf4jnsgd1na2vs0mg"},{"bike_id":"b3e8b3aa-26db-449c-8162-0ed85a2bc616","system_id":"levelo_inurba_marseille","lat":43.32017,"lon":5.41415,"is_reserved":false,"is_disabled":false,"rental_uris":{"android":"levelo://app?vid=b3e8b3aa-26db-449c-8162-0ed85a2bc616","ios":"levelo://app?vid=b3e8b3aa-26db-449c-8162-0ed85a2bc616"},"vehicle_type_id":"4","last_reported":1773683529,"current_range_meters":20800,"station_id":"","pricing_plan_id":"cebpf4jnsgd1na2vs0mg"},{"bike_id":"98e96bcf-b0d8-4db5-8263-21bc514e80fa","system_id":"levelo_inurba_marseille","lat":43.29293,"lon":5.37454,"is_reserved":false,"is_disabled":false,"rental_uris":{"android":"levelo://app?vid=98e96bcf-b0d8-4db5-8263-21bc514e80fa","ios":"levelo://app?vid=98e96bcf-b0d8-4db5-8263-21bc514e80fa"},"vehicle_type_id":"4","last_reported":1773683529,"current_range_meters":38400,"station_id":"ce4bgi12rcd13ifvqb70","pricing_plan_id":"cebpf4jnsgd1na2vs0mg"},{"bike_id":"7cf4be83-26ac-4c93-9356-1166c34c70ba","system_id":"levelo_inurba_marseille","lat":43.33019,"lon":5.41271,"is_reserved":false,"is_disabled":false,"rental_uris":{"android":"levelo://app?vid=7cf4be83-26ac-4c93-9356-1166c34c70ba","ios":"levelo://app?vid=7cf4be83-26ac-4c93-9356-1166c34c70ba"},"vehicle_type_id":"4","last_reported":1773683529,"current_range_meters":9600,"station_id":"","pricing_plan_id":"cebpf4jnsgd1na2vs0mg"},{"bike_id":"d03f9bdb-4ab4-4e1f-ae03-3cffd5c48c8d","system_id":"levelo_inurba_marseille","lat":43.22914,"lon":5.35431,"is_reserved":false,"is_disabled":false,"rental_uris":{"android":"levelo://app?vid=d03f9bdb-4ab4-4e1f-ae03-3cffd5c48c8d","ios":"levelo://app?vid=d03f9bdb-4ab4-4e1f-ae03-3cffd5c48c8d"},"vehicle_type_id":"4","last_reported":1773683529,"current_range_meters":39200,"station_id":"cpo3532slgdg3j2ikp40","pricing_plan_id":"cebpf4jnsgd1na2vs0mg"},{"bike_id":"2e660e13-ebfc-4778-8634-18e61b993917","system_id":"levelo_inurba_marseille","lat":43.25858,"lon":5.39916,"is_reserved":false,"is_disabled":false,"rental_uris":{"android":"levelo://app?vid=2e660e13-ebfc-4778-8634-18e61b993917","ios":"levelo://app?vid=2e660e13-ebfc-4778-8634-18e61b993917"},"vehicle_type_id":"4","last_reported":1773683529,"current_range_meters":40000,"station_id":"ce4bhl92rcd13ifvqghg","pricing_plan_id":"cebpf4jnsgd1na2vs0mg"},{"bike_id":"56c70eac-ec2d-4946-9fc8-5c455933283a","system_id":"levelo_inurba_marseille","lat":43.29623,"lon":5.3844,"is_reserved":false,"is_disabled":false,"rental_uris":{"android":"levelo://app?vid=56c70eac-ec2d-4946-9fc8-5c455933283a","ios":"levelo://app?vid=56c70eac-ec2d-4946-9fc8-5c455933283a"},"vehicle_type_id":"4","last_reported":1773683529,"current_range_meters":7200,"station_id":"","pricing_plan_id":"cebpf4jnsgd1na2vs0mg"},{"bike_id":"ac32d1ce-eadb-41fb-af36-758f0f8d5898","system_id":"levelo_inurba_marseille","lat":43.29932,"lon":5.4367,"is_reserved":false,"is_disabled":false,"rental_uris":{"android":"levelo://app?vid=ac32d1ce-eadb-41fb-af36-758f0f8d5898","ios":"levelo://app?vid=ac32d1ce-eadb-41fb-af36-758f0f8d5898"},"vehicle_type_id":"4","last_reported":1773683529,"current_range_meters":19200,"station_id":"","pricing_plan_id":"cebpf4jnsgd1na2vs0mg"},{"bike_id":"1198f1b9-8957-4684-bf55-f1a4bb0e08bb","system_id":"levelo_inurba_marseille","lat":43.29836,"lon":5.36259,"is_reserved":false,"is_disabled":false,"rental_uris":{"android":"levelo://app?vid=1198f1b9-8957-4684-bf55-f1a4bb0e08bb","ios":"levelo://app?vid=1198f1b9-8957-4684-bf55-f1a4bb0e08bb"},"vehicle_type_id":"4","last_reported":1773683529,"current_range_meters":39200,"station_id":"ce4bgpp2rcd13ifvqc3g","pricing_plan_id":"cebpf4jnsgd1na2vs0mg"},{"bike_id":"0aa11af6-4a66-4b65-b781-8959dd3e1b05","system_id":"levelo_inurba_marseille","lat":43.2991,"lon":5.38077,"is_reserved":false,"is_disabled":false,"rental_uris":{"android":"levelo://app?vid=0aa11af6-4a66-4b65-b781-8959dd3e1b05","ios":"levelo://app?vid=0aa11af6-4a66-4b65-b781-8959dd3e1b05"},"vehicle_type_id":"4","last_reported":1773683529,"current_range_meters":27600,"station_id":"","pricing_plan_id":"cebpf4jnsgd1na2vs0mg"},{"bike_id":"54085eea-b686-48b9-ae66-b885fe5f1a9c","system_id":"levelo_inurba_marseille","lat":43.26222,"lon":5.40457,"is_reserved":false,"is_disabled":false,"rental_uris":{"android":"levelo://app?vid=54085eea-b686-48b9-ae66-b885fe5f1a9c","ios":"levelo://app?vid=54085eea-b686-48b9-ae66-b885fe5f1a9c"},"vehicle_type_id":"4","last_reported":1773683529,"current_range_meters":20000,"station_id":"ce4bhmh2rcd13ifvqgmg","pricing_plan_id":"cebpf4jnsgd1na2vs0mg"},{"bike_id":"3893f38a-c31c-4d59-9ae2-654c3c101610","system_id":"levelo_inurba_marseille","lat":43.24549,"lon":5.3952,"is_reserved":false,"is_disabled":false,"rental_uris":{"android":"levelo://app?vid=3893f38a-c31c-4d59-9ae2-654c3c101610","ios":"levelo://app?vid=3893f38a-c31c-4d59-9ae2-654c3c101610"},"vehicle_type_id":"4","last_reported":1773683529,"current_range_meters":25200,"station_id":"ce4bhlp2rcd13ifvqgjg","pricing_plan_id":"cebpf4jnsgd1na2vs0mg"},{"bike_id":"3ad2d07b-2a95-4783-92af-97fdbdee89d5","system_id":"levelo_inurba_marseille","lat":43.26574,"lon":5.39021,"is_reserved":false,"is_disabled":false,"rental_uris":{"android":"levelo://app?vid=3ad2d07b-2a95-4783-92af-97fdbdee89d5","ios":"levelo://app?vid=3ad2d07b-2a95-4783-92af-97fdbdee89d5"},"vehicle_type_id":"4","last_reported":1773683529,"current_range_meters":39200,"station_id":"ce4bhe12rcd13ifvqf30","pricing_plan_id":"cebpf4jnsgd1na2vs0mg"},{"bike_id":"08d4a1a9-8ec3-491e-a781-bec56beeb082","system_id":"levelo_inurba_marseille","lat":43.232,"lon":5.3554,"is_reserved":false,"is_disabled":false,"rental_uris":{"android":"levelo://app?vid=08d4a1a9-8ec3-491e-a781-bec56beeb082","ios":"levelo://app?vid=08d4a1a9-8ec3-491e-a781-bec56beeb082"},"vehicle_type_id":"4","last_reported":1773683529,"current_range_meters":23200,"station_id":"ce4bhu92rcd13ifvqi70","pricing_plan_id":"cebpf4jnsgd1na2vs0mg"},{"bike_id":"070475bf-1a52-421a-820b-baec73f3c197","system_id":"levelo_inurba_marseille","lat":43.26615,"lon":5.38985,"is_reserved":false,"is_disabled":false,"rental_uris":{"android":"levelo://app?vid=070475bf-1a52-421a-820b-baec73f3c197","ios":"levelo://app?vid=070475bf-1a52-421a-820b-baec73f3c197"},"vehicle_type_id":"4","last_reported":1773683529,"current_range_meters":38800,"station_id":"","pricing_plan_id":"cebpf4jnsgd1na2vs0mg"},{"bike_id":"4208a751-b9c8-452a-88cd-c588f3f7258c","system_id":"levelo_inurba_marseille","lat":43.3012,"lon":5.43124,"is_reserved":false,"is_disabled":false,"rental_uris":{"android":"levelo://app?vid=4208a751-b9c8-452a-88cd-c588f3f7258c","ios":"levelo://app?vid=4208a751-b9c8-452a-88cd-c588f3f7258c"},"vehicle_type_id":"4","last_reported":1773683529,"current_range_meters":28000,"station_id":"st_d3js3co5814s73ftftug","pricing_plan_id":"cebpf4jnsgd1na2vs0mg"},{"bike_id":"c5301128-1c98-473f-b471-0306f238104d","system_id":"levelo_inurba_marseille","lat":43.25516,"lon":5.3765,"is_reserved":false,"is_disabled":false,"rental_uris":{"android":"levelo://app?vid=c5301128-1c98-473f-b471-0306f238104d","ios":"levelo://app?vid=c5301128-1c98-473f-b471-0306f238104d"},"vehicle_type_id":"4","last_reported":1773683529,"current_range_meters":36800,"station_id":"ce4bhh12rcd13ifvqff0","pricing_plan_id":"cebpf4jnsgd1na2vs0mg"},{"bike_id":"c8f5ec7e-ccc6-49f8-b39a-2f757784a180","system_id":"levelo_inurba_marseille","lat":43.31432,"lon":5.37336,"is_reserved":false,"is_disabled":false,"rental_uris":{"android":"levelo://app?vid=c8f5ec7e-ccc6-49f8-b39a-2f757784a180","ios":"levelo://app?vid=c8f5ec7e-ccc6-49f8-b39a-2f757784a180"},"vehicle_type_id":"4","last_reported":1773683529,"current_range_meters":8000,"station_id":"","pricing_plan_id":"cebpf4jnsgd1na2vs0mg"},{"bike_id":"d7060c91-fdc6-453f-bbef-664116895c02","system_id":"levelo_inurba_marseille","lat":43.2678,"lon":5.39415,"is_reserved":false,"is_disabled":false,"rental_uris":{"android":"levelo://app?vid=d7060c91-fdc6-453f-bbef-664116895c02","ios":"levelo://app?vid=d7060c91-fdc6-453f-bbef-664116895c02"},"vehicle_type_id":"4","last_reported":1773683529,"current_range_meters":27600,"station_id":"ce4bhh12rcd13ifvqfg0","pricing_plan_id":"cebpf4jnsgd1na2vs0mg"},{"bike_id":"c4c6a35d-3c4f-4065-91e1-5115e8f7ec26","system_id":"levelo_inurba_marseille","lat":43.27559,"lon":5.38365,"is_reserved":false,"is_disabled":false,"rental_uris":{"android":"levelo://app?vid=c4c6a35d-3c4f-4065-91e1-5115e8f7ec26","ios":"levelo://app?vid=c4c6a35d-3c4f-4065-91e1-5115e8f7ec26"},"vehicle_type_id":"4","last_reported":1773683529,"current_range_meters":6800,"station_id":"","pricing_plan_id":"cebpf4jnsgd1na2vs0mg"},{"bike_id":"bcddf199-548b-4144-aa72-ca5b4d52d0b4","system_id":"levelo_inurba_marseille","lat":43.26211,"lon":5.37933,"is_reserved":false,"is_disabled":false,"rental_uris":{"android":"levelo://app?vid=bcddf199-548b-4144-aa72-ca5b4d52d0b4","ios":"levelo://app?vid=bcddf199-548b-4144-aa72-ca5b4d52d0b4"},"vehicle_type_id":"4","last_reported":1773683529,"current_range_meters":39200,"station_id":"ce4bhjp2rcd13ifvqg90","pricing_plan_id":"cebpf4jnsgd1na2vs0mg"},{"bike_id":"23e678b2-1f77-49cd-b6e6-b676bf50bd0d","system_id":"levelo_inurba_marseille","lat":43.2835,"lon":5.38109,"is_reserved":false,"is_disabled":true,"rental_uris":{"android":"levelo://app?vid=23e678b2-1f77-49cd-b6e6-b676bf50bd0d","ios":"levelo://app?vid=23e678b2-1f77-49cd-b6e6-b676bf50bd0d"},"vehicle_type_id":"4","last_reported":1773683529,"current_range_meters":38400,"station_id":"ce4bh412rcd13ifvqdr0","pricing_plan_id":"cebpf4jnsgd1na2vs0mg"},{"bike_id":"e2a03a7f-5648-4f9b-ac20-b0e493b7b350","system_id":"levelo_inurba_marseille","lat":43.32356,"lon":5.36771,"is_reserved":false,"is_disabled":false,"rental_uris":{"android":"levelo://app?vid=e2a03a7f-5648-4f9b-ac20-b0e493b7b350","ios":"levelo://app?vid=e2a03a7f-5648-4f9b-ac20-b0e493b7b350"},"vehicle_type_id":"4","last_reported":1773683529,"current_range_meters":40000,"station_id":"ce4bhsh2rcd13ifvqi2g","pricing_plan_id":"cebpf4jnsgd1na2vs0mg"},{"bike_id":"8a1d8a84-dedf-4250-ac8b-7e13c0e1c9b3","system_id":"levelo_inurba_marseille","lat":43.3372,"lon":5.39182,"is_reserved":false,"is_disabled":false,"rental_uris":{"android":"levelo://app?vid=8a1d8a84-dedf-4250-ac8b-7e13c0e1c9b3","ios":"levelo://app?vid=8a1d8a84-dedf-4250-ac8b-7e13c0e1c9b3"},"vehicle_type_id":"4","last_reported":1773683529,"current_range_meters":22000,"station_id":"ce4bhr92rcd13ifvqhsg","pricing_plan_id":"cebpf4jnsgd1na2vs0mg"},{"bike_id":"ddfa8bc2-a2ab-4f06-ba77-074bccd79449","system_id":"levelo_inurba_marseille","lat":43.27375,"lon":5.36241,"is_reserved":false,"is_disabled":false,"rental_uris":{"android":"levelo://app?vid=ddfa8bc2-a2ab-4f06-ba77-074bccd79449","ios":"levelo://app?vid=ddfa8bc2-a2ab-4f06-ba77-074bccd79449"},"vehicle_type_id":"4","last_reported":1773683529,"current_range_meters":8800,"station_id":"ce4bhbh2rcd13ifvqeo0","pricing_plan_id":"cebpf4jnsgd1na2vs0mg"},{"bike_id":"9c2486c2-e062-4581-a21f-f081ce0fb87f","system_id":"levelo_inurba_marseille","lat":43.29805,"lon":5.44067,"is_reserved":false,"is_disabled":false,"rental_uris":{"android":"levelo://app?vid=9c2486c2-e062-4581-a21f-f081ce0fb87f","ios":"levelo://app?vid=9c2486c2-e062-4581-a21f-f081ce0fb87f"},"vehicle_type_id":"4","last_reported":1773683529,"current_range_meters":15200,"station_id":"st_d3jp68qikq2c7381ktn0","pricing_plan_id":"cebpf4jnsgd1na2vs0mg"},{"bike_id":"3f484f2e-0b76-41f3-9fe3-3db907fd108c","system_id":"levelo_inurba_marseille","lat":43.24805,"lon":5.37442,"is_reserved":false,"is_disabled":false,"rental_uris":{"android":"levelo://app?vid=3f484f2e-0b76-41f3-9fe3-3db907fd108c","ios":"levelo://app?vid=3f484f2e-0b76-41f3-9fe3-3db907fd108c"},"vehicle_type_id":"4","last_reported":1773683529,"current_range_meters":26000,"station_id":"ce4bhgh2rcd13ifvqfb0","pricing_plan_id":"cebpf4jnsgd1na2vs0mg"},{"bike_id":"d16e763f-79d5-42e7-ba74-3980825e63fc","system_id":"levelo_inurba_marseille","lat":43.25084,"lon":5.39509,"is_reserved":false,"is_disabled":false,"rental_uris":{"android":"levelo://app?vid=d16e763f-79d5-42e7-ba74-3980825e63fc","ios":"levelo://app?vid=d16e763f-79d5-42e7-ba74-3980825e63fc"},"vehicle_type_id":"4","last_reported":1773683529,"current_range_meters":3600,"station_id":"ce4bhm12rcd13ifvqgkg","pricing_plan_id":"cebpf4jnsgd1na2vs0mg"},{"bike_id":"57a423db-8929-4509-ac08-b3b87a99ddd9","system_id":"levelo_inurba_marseille","lat":43.31712,"lon":5.42417,"is_reserved":false,"is_disabled":false,"rental_uris":{"android":"levelo://app?vid=57a423db-8929-4509-ac08-b3b87a99ddd9","ios":"levelo://app?vid=57a423db-8929-4509-ac08-b3b87a99ddd9"},"vehicle_type_id":"4","last_reported":1773683529,"current_range_meters":38800,"station_id":"ce4bhp92rcd13ifvqhbg","pricing_plan_id":"cebpf4jnsgd1na2vs0mg"},{"bike_id":"2549d3e1-f693-492a-81e4-d55cbdc452bd","system_id":"levelo_inurba_marseille","lat":43.27012,"lon":5.40101,"is_reserved":false,"is_disabled":false,"rental_uris":{"android":"levelo://app?vid=2549d3e1-f693-492a-81e4-d55cbdc452bd","ios":"levelo://app?vid=2549d3e1-f693-492a-81e4-d55cbdc452bd"},"vehicle_type_id":"4","last_reported":1773683529,"current_range_meters":33200,"station_id":"","pricing_plan_id":"cebpf4jnsgd1na2vs0mg"},{"bike_id":"dac3c991-8e17-4f14-be1b-aa9862518a59","system_id":"levelo_inurba_marseille","lat":43.25007,"lon":5.38923,"is_reserved":false,"is_disabled":false,"rental_uris":{"android":"levelo://app?vid=dac3c991-8e17-4f14-be1b-aa9862518a59","ios":"levelo://app?vid=dac3c991-8e17-4f14-be1b-aa9862518a59"},"vehicle_type_id":"4","last_reported":1773683529,"current_range_meters":30000,"station_id":"ce4bhgp2rcd13ifvqfd0","pricing_plan_id":"cebpf4jnsgd1na2vs0mg"},{"bike_id":"c0df7ba3-2d87-4f16-80a9-72202eef7207","system_id":"levelo_inurba_marseille","lat":43.31675,"lon":5.40494,"is_reserved":false,"is_disabled":false,"rental_uris":{"android":"levelo://app?vid=c0df7ba3-2d87-4f16-80a9-72202eef7207","ios":"levelo://app?vid=c0df7ba3-2d87-4f16-80a9-72202eef7207"},"vehicle_type_id":"4","last_reported":1773683529,"current_range_meters":3200,"station_id":"ce4bh012rcd13ifvqd00","pricing_plan_id":"cebpf4jnsgd1na2vs0mg"},{"bike_id":"d7435bde-7ace-4f4f-88d3-08e0c5541bf5","system_id":"levelo_inurba_marseille","lat":43.298,"lon":5.38138,"is_reserved":false,"is_disabled":true,"rental_uris":{"android":"levelo://app?vid=d7435bde-7ace-4f4f-88d3-08e0c5541bf5","ios":"levelo://app?vid=d7435bde-7ace-4f4f-88d3-08e0c5541bf5"},"vehicle_type_id":"4","last_reported":1773683529,"current_range_meters":24000,"station_id":"ce4bgip2rcd13ifvqbb0","pricing_plan_id":"cebpf4jnsgd1na2vs0mg"},{"bike_id":"8ad87f05-a69d-4520-86d1-ec7e53219f7d","system_id":"levelo_inurba_marseille","lat":43.27999,"lon":5.41669,"is_reserved":false,"is_disabled":false,"rental_uris":{"android":"levelo://app?vid=8ad87f05-a69d-4520-86d1-ec7e53219f7d","ios":"levelo://app?vid=8ad87f05-a69d-4520-86d1-ec7e53219f7d"},"vehicle_type_id":"4","last_reported":1773683529,"current_range_meters":30400,"station_id":"ce4bho12rcd13ifvqh1g","pricing_plan_id":"cebpf4jnsgd1na2vs0mg"},{"bike_id":"0105f821-befb-4b88-877b-bfb9a09ae874","system_id":"levelo_inurba_marseille","lat":43.29281,"lon":5.38441,"is_reserved":false,"is_disabled":false,"rental_uris":{"android":"levelo://app?vid=0105f821-befb-4b88-877b-bfb9a09ae874","ios":"levelo://app?vid=0105f821-befb-4b88-877b-bfb9a09ae874"},"vehicle_type_id":"4","last_reported":1773683529,"current_range_meters":8400,"station_id":"ce4bh692rcd13ifvqea0","pricing_plan_id":"cebpf4jnsgd1na2vs0mg"},{"bike_id":"af302f6c-8c6f-4ace-b011-ac7f02160942","system_id":"levelo_inurba_marseille","lat":43.24993,"lon":5.38891,"is_reserved":false,"is_disabled":true,"rental_uris":{"android":"levelo://app?vid=af302f6c-8c6f-4ace-b011-ac7f02160942","ios":"levelo://app?vid=af302f6c-8c6f-4ace-b011-ac7f02160942"},"vehicle_type_id":"4","last_reported":1773683529,"current_range_meters":28800,"station_id":"ce4bhgp2rcd13ifvqfd0","pricing_plan_id":"cebpf4jnsgd1na2vs0mg"},{"bike_id":"7f22dd13-9c58-4cd6-91ef-21f6afafc313","system_id":"levelo_inurba_marseille","lat":43.29269,"lon":5.38438,"is_reserved":false,"is_disabled":false,"rental_uris":{"android":"levelo://app?vid=7f22dd13-9c58-4cd6-91ef-21f6afafc313","ios":"levelo://app?vid=7f22dd13-9c58-4cd6-91ef-21f6afafc313"},"vehicle_type_id":"4","last_reported":1773683529,"current_range_meters":32400,"station_id":"ce4bh692rcd13ifvqea0","pricing_plan_id":"cebpf4jnsgd1na2vs0mg"},{"bike_id":"b7d7dd75-3996-448a-8686-bbd99bb29353","system_id":"levelo_inurba_marseille","lat":43.28424,"lon":5.34977,"is_reserved":false,"is_disabled":false,"rental_uris":{"android":"levelo://app?vid=b7d7dd75-3996-448a-8686-bbd99bb29353","ios":"levelo://app?vid=b7d7dd75-3996-448a-8686-bbd99bb29353"},"vehicle_type_id":"4","last_reported":1773683529,"current_range_meters":26000,"station_id":"ce4bhbh2rcd13ifvqepg","pricing_plan_id":"cebpf4jnsgd1na2vs0mg"},{"bike_id":"63ac7fc0-00b3-4fb5-aba5-0afcd7429a92","system_id":"levelo_inurba_marseille","lat":43.31786,"lon":5.44402,"is_reserved":false,"is_disabled":false,"rental_uris":{"android":"levelo://app?vid=63ac7fc0-00b3-4fb5-aba5-0afcd7429a92","ios":"levelo://app?vid=63ac7fc0-00b3-4fb5-aba5-0afcd7429a92"},"vehicle_type_id":"4","last_reported":1773683529,"current_range_meters":25200,"station_id":"","pricing_plan_id":"cebpf4jnsgd1na2vs0mg"},{"bike_id":"a8ccaa89-c8ad-46e6-bf26-60f0ccbb81e1","system_id":"levelo_inurba_marseille","lat":43.31724,"lon":5.42406,"is_reserved":false,"is_disabled":false,"rental_uris":{"android":"levelo://app?vid=a8ccaa89-c8ad-46e6-bf26-60f0ccbb81e1","ios":"levelo://app?vid=a8ccaa89-c8ad-46e6-bf26-60f0ccbb81e1"},"vehicle_type_id":"4","last_reported":1773683529,"current_range_meters":33600,"station_id":"ce4bhp92rcd13ifvqhbg","pricing_plan_id":"cebpf4jnsgd1na2vs0mg"},{"bike_id":"cecc6ab6-baa9-4f04-8738-c14aac04a878","system_id":"levelo_inurba_marseille","lat":43.26367,"lon":5.41064,"is_reserved":false,"is_disabled":false,"rental_uris":{"android":"levelo://app?vid=cecc6ab6-baa9-4f04-8738-c14aac04a878","ios":"levelo://app?vid=cecc6ab6-baa9-4f04-8738-c14aac04a878"},"vehicle_type_id":"4","last_reported":1773683529,"current_range_meters":18800,"station_id":"st_d4e5ca6na9uc73bfl5fg","pricing_plan_id":"cebpf4jnsgd1na2vs0mg"},{"bike_id":"c55d0759-6a9a-4ba9-93ef-f7bf75ffc049","system_id":"levelo_inurba_marseille","lat":43.28612,"lon":5.39868,"is_reserved":false,"is_disabled":false,"rental_uris":{"android":"levelo://app?vid=c55d0759-6a9a-4ba9-93ef-f7bf75ffc049","ios":"levelo://app?vid=c55d0759-6a9a-4ba9-93ef-f7bf75ffc049"},"vehicle_type_id":"4","last_reported":1773683529,"current_range_meters":20000,"station_id":"st_d4a7ka997mjs738ck50g","pricing_plan_id":"cebpf4jnsgd1na2vs0mg"},{"bike_id":"0b733207-6002-4d57-86ef-1b760243792a","system_id":"levelo_inurba_marseille","lat":43.2948,"lon":5.43287,"is_reserved":false,"is_disabled":false,"rental_uris":{"android":"levelo://app?vid=0b733207-6002-4d57-86ef-1b760243792a","ios":"levelo://app?vid=0b733207-6002-4d57-86ef-1b760243792a"},"vehicle_type_id":"4","last_reported":1773683529,"current_range_meters":23200,"station_id":"st_d3j5ugp08ojc73fj9d10","pricing_plan_id":"cebpf4jnsgd1na2vs0mg"},{"bike_id":"524b8939-b893-4d7c-9390-15f31467693d","system_id":"levelo_inurba_marseille","lat":43.27206,"lon":5.39164,"is_reserved":false,"is_disabled":true,"rental_uris":{"android":"levelo://app?vid=524b8939-b893-4d7c-9390-15f31467693d","ios":"levelo://app?vid=524b8939-b893-4d7c-9390-15f31467693d"},"vehicle_type_id":"4","last_reported":1773683529,"current_range_meters":32000,"station_id":"ce4bhhp2rcd13ifvqfm0","pricing_plan_id":"cebpf4jnsgd1na2vs0mg"},{"bike_id":"6dc58443-ffb0-4107-a4e2-9c08ad9432d1","system_id":"levelo_inurba_marseille","lat":43.29692,"lon":5.37231,"is_reserved":false,"is_disabled":false,"rental_uris":{"android":"levelo://app?vid=6dc58443-ffb0-4107-a4e2-9c08ad9432d1","ios":"levelo://app?vid=6dc58443-ffb0-4107-a4e2-9c08ad9432d1"},"vehicle_type_id":"4","last_reported":1773683529,"current_range_meters":33200,"station_id":"","pricing_plan_id":"cebpf4jnsgd1na2vs0mg"},{"bike_id":"bd926d19-32b6-4550-a084-cd5c645cfdda","system_id":"levelo_inurba_marseille","lat":43.29262,"lon":5.40899,"is_reserved":false,"is_disabled":false,"rental_uris":{"android":"levelo://app?vid=bd926d19-32b6-4550-a084-cd5c645cfdda","ios":"levelo://app?vid=bd926d19-32b6-4550-a084-cd5c645cfdda"},"vehicle_type_id":"4","last_reported":1773683529,"current_range_meters":25600,"station_id":"ce4bh192rcd13ifvqdc0","pricing_plan_id":"cebpf4jnsgd1na2vs0mg"},{"bike_id":"830e471c-a762-44ae-a1cb-7b16951aff80","system_id":"levelo_inurba_marseille","lat":43.31875,"lon":5.36845,"is_reserved":false,"is_disabled":false,"rental_uris":{"android":"levelo://app?vid=830e471c-a762-44ae-a1cb-7b16951aff80","ios":"levelo://app?vid=830e471c-a762-44ae-a1cb-7b16951aff80"},"vehicle_type_id":"4","last_reported":1773683529,"current_range_meters":30800,"station_id":"ce4bhrh2rcd13ifvqhug","pricing_plan_id":"cebpf4jnsgd1na2vs0mg"},{"bike_id":"f2848cf2-3575-4d15-8bc5-e4b8c35bc5e0","system_id":"levelo_inurba_marseille","lat":43.27885,"lon":5.35405,"is_reserved":false,"is_disabled":true,"rental_uris":{"android":"levelo://app?vid=f2848cf2-3575-4d15-8bc5-e4b8c35bc5e0","ios":"levelo://app?vid=f2848cf2-3575-4d15-8bc5-e4b8c35bc5e0"},"vehicle_type_id":"4","last_reported":1773683529,"current_range_meters":0,"station_id":"","pricing_plan_id":"cebpf4jnsgd1na2vs0mg"},{"bike_id":"cb59cd2d-cd04-4bbb-ba75-60bbb036df9c","system_id":"levelo_inurba_marseille","lat":43.24647,"lon":5.38891,"is_reserved":false,"is_disabled":false,"rental_uris":{"android":"levelo://app?vid=cb59cd2d-cd04-4bbb-ba75-60bbb036df9c","ios":"levelo://app?vid=cb59cd2d-cd04-4bbb-ba75-60bbb036df9c"},"vehicle_type_id":"4","last_reported":1773683529,"current_range_meters":19600,"station_id":"ce4bhg12rcd13ifvqf60","pricing_plan_id":"cebpf4jnsgd1na2vs0mg"},{"bike_id":"b4edc908-c4fb-4bee-a3fe-b137f18dfc3b","system_id":"levelo_inurba_marseille","lat":43.29835,"lon":5.36262,"is_reserved":false,"is_disabled":false,"rental_uris":{"android":"levelo://app?vid=b4edc908-c4fb-4bee-a3fe-b137f18dfc3b","ios":"levelo://app?vid=b4edc908-c4fb-4bee-a3fe-b137f18dfc3b"},"vehicle_type_id":"4","last_reported":1773683529,"current_range_meters":30000,"station_id":"ce4bgpp2rcd13ifvqc3g","pricing_plan_id":"cebpf4jnsgd1na2vs0mg"},{"bike_id":"6b6827d2-291d-4b7c-9ef4-9cab50cb3fd3","system_id":"levelo_inurba_marseille","lat":43.297049,"lon":5.376897,"is_reserved":false,"is_disabled":false,"rental_uris":{"android":"levelo://app?vid=6b6827d2-291d-4b7c-9ef4-9cab50cb3fd3","ios":"levelo://app?vid=6b6827d2-291d-4b7c-9ef4-9cab50cb3fd3"},"vehicle_type_id":"4","last_reported":1773683529,"current_range_meters":22000,"station_id":"","pricing_plan_id":"cebpf4jnsgd1na2vs0mg"},{"bike_id":"e696727d-a632-4b5f-b8b6-cfe4cbf5b17c","system_id":"levelo_inurba_marseille","lat":43.28534,"lon":5.44097,"is_reserved":false,"is_disabled":false,"rental_uris":{"android":"levelo://app?vid=e696727d-a632-4b5f-b8b6-cfe4cbf5b17c","ios":"levelo://app?vid=e696727d-a632-4b5f-b8b6-cfe4cbf5b17c"},"vehicle_type_id":"4","last_reported":1773683529,"current_range_meters":22800,"station_id":"st_d3j3df2ikq2c7380ej80","pricing_plan_id":"cebpf4jnsgd1na2vs0mg"},{"bike_id":"b964b90b-ccd7-4e02-a64c-a9440085e210","system_id":"levelo_inurba_marseille","lat":43.28421,"lon":5.34999,"is_reserved":false,"is_disabled":false,"rental_uris":{"android":"levelo://app?vid=b964b90b-ccd7-4e02-a64c-a9440085e210","ios":"levelo://app?vid=b964b90b-ccd7-4e02-a64c-a9440085e210"},"vehicle_type_id":"4","last_reported":1773683529,"current_range_meters":34000,"station_id":"ce4bhbh2rcd13ifvqepg","pricing_plan_id":"cebpf4jnsgd1na2vs0mg"},{"bike_id":"58ec71f2-0dd8-4ba4-b28b-87d966f279d1","system_id":"levelo_inurba_marseille","lat":43.28841,"lon":5.3583,"is_reserved":false,"is_disabled":true,"rental_uris":{"android":"levelo://app?vid=58ec71f2-0dd8-4ba4-b28b-87d966f279d1","ios":"levelo://app?vid=58ec71f2-0dd8-4ba4-b28b-87d966f279d1"},"vehicle_type_id":"4","last_reported":1773683529,"current_range_meters":0,"station_id":"ce4bhb12rcd13ifvqem0","pricing_plan_id":"cebpf4jnsgd1na2vs0mg"},{"bike_id":"68975ca1-b9f0-4ce2-aa2a-57757e365cb3","system_id":"levelo_inurba_marseille","lat":43.29307,"lon":5.37202,"is_reserved":false,"is_disabled":false,"rental_uris":{"android":"levelo://app?vid=68975ca1-b9f0-4ce2-aa2a-57757e365cb3","ios":"levelo://app?vid=68975ca1-b9f0-4ce2-aa2a-57757e365cb3"},"vehicle_type_id":"4","last_reported":1773683529,"current_range_meters":32800,"station_id":"ce4bgh92rcd13ifvqb40","pricing_plan_id":"cebpf4jnsgd1na2vs0mg"},{"bike_id":"ca8f52d3-d135-4143-9c0b-adc23479a34d","system_id":"levelo_inurba_marseille","lat":43.30632,"lon":5.40119,"is_reserved":false,"is_disabled":false,"rental_uris":{"android":"levelo://app?vid=ca8f52d3-d135-4143-9c0b-adc23479a34d","ios":"levelo://app?vid=ca8f52d3-d135-4143-9c0b-adc23479a34d"},"vehicle_type_id":"4","last_reported":1773683529,"current_range_meters":9600,"station_id":"ce4bh112rcd13ifvqda0","pricing_plan_id":"cebpf4jnsgd1na2vs0mg"},{"bike_id":"ce3b7363-e21c-4274-8521-4d2d3b2f962c","system_id":"levelo_inurba_marseille","lat":43.32531,"lon":5.41474,"is_reserved":false,"is_disabled":true,"rental_uris":{"android":"levelo://app?vid=ce3b7363-e21c-4274-8521-4d2d3b2f962c","ios":"levelo://app?vid=ce3b7363-e21c-4274-8521-4d2d3b2f962c"},"vehicle_type_id":"4","last_reported":1773683529,"current_range_meters":10800,"station_id":"ce4bhq12rcd13ifvqhhg","pricing_plan_id":"cebpf4jnsgd1na2vs0mg"},{"bike_id":"f878482d-c249-42ad-b540-a1c47c56f5b6","system_id":"levelo_inurba_marseille","lat":43.255,"lon":5.37643,"is_reserved":false,"is_disabled":false,"rental_uris":{"android":"levelo://app?vid=f878482d-c249-42ad-b540-a1c47c56f5b6","ios":"levelo://app?vid=f878482d-c249-42ad-b540-a1c47c56f5b6"},"vehicle_type_id":"4","last_reported":1773683529,"current_range_meters":13600,"station_id":"ce4bhh12rcd13ifvqff0","pricing_plan_id":"cebpf4jnsgd1na2vs0mg"},{"bike_id":"2584145d-b399-4efa-b62c-6d4eb4c5544d","system_id":"levelo_inurba_marseille","lat":43.28346,"lon":5.38104,"is_reserved":false,"is_disabled":false,"rental_uris":{"android":"levelo://app?vid=2584145d-b399-4efa-b62c-6d4eb4c5544d","ios":"levelo://app?vid=2584145d-b399-4efa-b62c-6d4eb4c5544d"},"vehicle_type_id":"4","last_reported":1773683529,"current_range_meters":9600,"station_id":"ce4bh412rcd13ifvqdr0","pricing_plan_id":"cebpf4jnsgd1na2vs0mg"},{"bike_id":"b5a17987-4f81-4dd4-98c8-357ddfd3458a","system_id":"levelo_inurba_marseille","lat":43.2946,"lon":5.39699,"is_reserved":false,"is_disabled":false,"rental_uris":{"android":"levelo://app?vid=b5a17987-4f81-4dd4-98c8-357ddfd3458a","ios":"levelo://app?vid=b5a17987-4f81-4dd4-98c8-357ddfd3458a"},"vehicle_type_id":"4","last_reported":1773683529,"current_range_meters":32800,"station_id":"","pricing_plan_id":"cebpf4jnsgd1na2vs0mg"},{"bike_id":"dc0ead8f-aa7c-4a0f-af00-a2485a87400f","system_id":"levelo_inurba_marseille","lat":43.326,"lon":5.37495,"is_reserved":false,"is_disabled":false,"rental_uris":{"android":"levelo://app?vid=dc0ead8f-aa7c-4a0f-af00-a2485a87400f","ios":"levelo://app?vid=dc0ead8f-aa7c-4a0f-af00-a2485a87400f"},"vehicle_type_id":"4","last_reported":1773683529,"current_range_meters":38000,"station_id":"","pricing_plan_id":"cebpf4jnsgd1na2vs0mg"},{"bike_id":"982fb134-e446-419d-9270-671113a634db","system_id":"levelo_inurba_marseille","lat":43.32463,"lon":5.37409,"is_reserved":false,"is_disabled":false,"rental_uris":{"android":"levelo://app?vid=982fb134-e446-419d-9270-671113a634db","ios":"levelo://app?vid=982fb134-e446-419d-9270-671113a634db"},"vehicle_type_id":"4","last_reported":1773683529,"current_range_meters":39200,"station_id":"","pricing_plan_id":"cebpf4jnsgd1na2vs0mg"},{"bike_id":"afc0ccbe-e34b-45cf-b565-e79ae5b516f8","system_id":"levelo_inurba_marseille","lat":43.23189,"lon":5.39989,"is_reserved":false,"is_disabled":false,"rental_uris":{"android":"levelo://app?vid=afc0ccbe-e34b-45cf-b565-e79ae5b516f8","ios":"levelo://app?vid=afc0ccbe-e34b-45cf-b565-e79ae5b516f8"},"vehicle_type_id":"4","last_reported":1773683529,"current_range_meters":21600,"station_id":"ce4bhn12rcd13ifvqgqg","pricing_plan_id":"cebpf4jnsgd1na2vs0mg"},{"bike_id":"50ac61a1-d765-4376-9cfe-ddf2014bc0c3","system_id":"levelo_inurba_marseille","lat":43.30906,"lon":5.36861,"is_reserved":false,"is_disabled":true,"rental_uris":{"android":"levelo://app?vid=50ac61a1-d765-4376-9cfe-ddf2014bc0c3","ios":"levelo://app?vid=50ac61a1-d765-4376-9cfe-ddf2014bc0c3"},"vehicle_type_id":"4","last_reported":1773683529,"current_range_meters":29600,"station_id":"ce4bgn92rcd13ifvqbvg","pricing_plan_id":"cebpf4jnsgd1na2vs0mg"},{"bike_id":"9f3a7746-1b2a-439b-92e9-2158bd7677e0","system_id":"levelo_inurba_marseille","lat":43.31098,"lon":5.3714,"is_reserved":false,"is_disabled":false,"rental_uris":{"android":"levelo://app?vid=9f3a7746-1b2a-439b-92e9-2158bd7677e0","ios":"levelo://app?vid=9f3a7746-1b2a-439b-92e9-2158bd7677e0"},"vehicle_type_id":"4","last_reported":1773683529,"current_range_meters":29600,"station_id":"st_d4kl2rp97mjs73e7tdfg","pricing_plan_id":"cebpf4jnsgd1na2vs0mg"},{"bike_id":"9c117c9d-bb60-41e0-a1c7-cefaca7e9679","system_id":"levelo_inurba_marseille","lat":43.24652,"lon":5.38896,"is_reserved":false,"is_disabled":true,"rental_uris":{"android":"levelo://app?vid=9c117c9d-bb60-41e0-a1c7-cefaca7e9679","ios":"levelo://app?vid=9c117c9d-bb60-41e0-a1c7-cefaca7e9679"},"vehicle_type_id":"4","last_reported":1773683529,"current_range_meters":0,"station_id":"ce4bhg12rcd13ifvqf60","pricing_plan_id":"cebpf4jnsgd1na2vs0mg"},