{"last_updated":1723752532,"ttl":30,"version":"2.2","data":{"bikes":[{"bike_id":"42a78529-4601-4739-b2af-e4b9f11cb40e","system_id":"levelo_inurba_marseille","lat":43.313391,"lon":5.36706,"is_reserved":false,"is_disabled":false,"rental_uris":{"android":"levelo://app?vid=42a78529-4601-4739-b2af-e4b9f11cb40e","ios":"levelo://app?vid=42a78529-4601-4739-b2af-e4b9f11cb40e"},"vehicle_type_id":"4","last_reported":1723752532,"current_range_meters":12800,"station_id":"ce4bgr92rcd13ifvqc6g","pricing_plan_id":"cebpf4jnsgd1na2vs0mg"},{"bike_id":"c2d5dfa2-00eb-4174-b172-4cec1a5d7dc2","system_id":"levelo_inurba_marseille","lat":43.305712,"lon":5.365641,"is_reserved":false,"is_disabled":false,"rental_uris":{"android":"levelo://app?vid=c2d5dfa2-00eb-4174-b172-4cec1a5d7dc2","ios":"levelo://app?vid=c2d5dfa2-00eb-4174-b172-4cec1a5d7dc2"},"vehicle_type_id":"4","last_reported":1723752532,"current_range_meters":26400,"station_id":"ce4bgs12rcd13ifvqcag","pricing_plan_id":"cebpf4jnsgd1na2vs0mg"},{"bike_id":"d355eb32-0cc4-420b-a094-90c493de9fe1","system_id":"levelo_inurba_marseille","lat":43.312239,"lon":5.368562,"is_reserved":false,"is_disabled":false,"rental_uris":{"android":"levelo://app?vid=d355eb32-0cc4-420b-a094-90c493de9fe1","ios":"levelo://app?vid=d355eb32-0cc4-420b-a094-90c493de9fe1"},"vehicle_type_id":"4","last_reported":1723752532,"current_range_meters":21600,"station_id":"ce4bgl92rcd13ifvqbq0","pricing_plan_id":"cebpf4jnsgd1na2vs0mg"},{"bike_id":"d112b498-833e-4023-bf93-6ac7cddb2868","system_id":"levelo_inurba_marseille","lat":43.312239,"lon":5.368562,"is_reserved":false,"is_disabled":false,"rental_uris":{"android":"levelo://app?vid=d112b498-833e-4023-bf93-6ac7cddb2868","ios":"levelo://app?vid=d112b498-833e-4023-bf93-6ac7cddb2868"},"vehicle_type_id":"4","last_reported":1723752532,"current_range_meters":15200,"station_id":"ce4bgl92rcd13ifvqbq0","pricing_plan_id":"cebpf4jnsgd1na2vs0mg"},{"bike_id":"bc00a9ad-0f74-4d97-981b-dc991b0e219c","system_id":"levelo_inurba_marseille","lat":43.312239,"lon":5.368562,"is_reserved":false,"is_disabled":false,"rental_uris":{"android":"levelo://app?vid=bc00a9ad-0f74-4d97-981b-dc991b0e219c","ios":"levelo://app?vid=bc00a9ad-0f74-4d97-981b-dc991b0e219c"},"vehicle_type_id":"4","last_reported":1723752532,"current_range_meters":22800,"station_id":"ce4bgl92rcd13ifvqbq0","pricing_plan_id":"cebpf4jnsgd1na2vs0mg"},{"bike_id":"84630644-e930-46c8-8cd4-e646656b0341","system_id":"levelo_inurba_marseille","lat":43.312239,"lon":5.368562,"is_reserved":false,"is_disabled":false,"rental_uris":{"android":"levelo://app?vid=84630644-e930-46c8-8cd4-e646656b0341","ios":"levelo://app?vid=84630644-e930-46c8-8cd4-e646656b0341"},"vehicle_type_id":"4","last_reported":1723752532,"current_range_meters":14400,"station_id":"ce4bgl92rcd13ifvqbq0","pricing_plan_id":"cebpf4jnsgd1na2vs0mg"},{"bike_id":"dcb841ed-47d7-4d15-843a-4211f161842f","system_id":"levelo_inurba_marseille","lat":43.309076,"lon":5.368465,"is_reserved":false,"is_disabled":false,"rental_uris":{"android":"levelo://app?vid=dcb841ed-47d7-4d15-843a-4211f161842f","ios":"levelo://app?vid=dcb841ed-47d7-4d15-843a-4211f161842f"},"vehicle_type_id":"4","last_reported":1723752532,"current_range_meters":28400,"station_id":"ce4bgn92rcd13ifvqbvg","pricing_plan_id":"cebpf4jnsgd1na2vs0mg"},{"bike_id":"5d6dce7b-fe36-4273-8d59-ab3ffbe4b21d","system_id":"levelo_inurba_marseille","lat":43.31478,"lon":5.37313,"is_reserved":false,"is_disabled":false,"rental_uris":{"android":"levelo://app?vid=5d6dce7b-fe36-4273-8d59-ab3ffbe4b21d","ios":"levelo://app?vid=5d6dce7b-fe36-4273-8d59-ab3ffbe4b21d"},"vehicle_type_id":"4","last_reported":1723752532,"current_range_meters":26400,"station_id":"ce4bgt12rcd13ifvqcd0","pricing_plan_id":"cebpf4jnsgd1na2vs0mg"},{"bike_id":"3e050d3a-161d-4d16-9581-977de80e4bb8","system_id":"levelo_inurba_marseille","lat":43.3148,"lon":5.37314,"is_reserved":false,"is_disabled":false,"rental_uris":{"android":"levelo://app?vid=3e050d3a-161d-4d16-9581-977de80e4bb8","ios":"levelo://app?vid=3e050d3a-161d-4d16-9581-977de80e4bb8"},"vehicle_type_id":"4","last_reported":1723752532,"current_range_meters":13600,"station_id":"ce4bgt12rcd13ifvqcd0","pricing_plan_id":"cebpf4jnsgd1na2vs0mg"},{"bike_id":"18c75d90-df5b-48a2-8061-c625cba7fca8","system_id":"levelo_inurba_marseille","lat":43.30537,"lon":5.367345,"is_reserved":false,"is_disabled":false,"rental_uris":{"android":"levelo://app?vid=18c75d90-df5b-48a2-8061-c625cba7fca8","ios":"levelo://app?vid=18c75d90-df5b-48a2-8061-c625cba7fca8"},"vehicle_type_id":"4","last_reported":1723752532,"current_range_meters":14400,"station_id":"ce4bgrp2rcd13ifvqc9g","pricing_plan_id":"cebpf4jnsgd1na2vs0mg"},{"bike_id":"07dd6fa9-cbba-4b51-aa06-cbec038486b1","system_id":"levelo_inurba_marseille","lat":43.30537,"lon":5.367345,"is_reserved":false,"is_disabled":false,"rental_uris":{"android":"levelo://app?vid=07dd6fa9-cbba-4b51-aa06-cbec038486b1","ios":"levelo://app?vid=07dd6fa9-cbba-4b51-aa06-cbec038486b1"},"vehicle_type_id":"4","last_reported":1723752532,"current_range_meters":19600,"station_id":"ce4bgrp2rcd13ifvqc9g","pricing_plan_id":"cebpf4jnsgd1na2vs0mg"},{"bike_id":"cfef3502-6d1d-4605-b3a6-9301c4fdfea2","system_id":"levelo_inurba_marseille","lat":43.30542,"lon":5.36699,"is_reserved":false,"is_disabled":false,"rental_uris":{"android":"levelo://app?vid=cfef3502-6d1d-4605-b3a6-9301c4fdfea2","ios":"levelo://app?vid=cfef3502-6d1d-4605-b3a6-9301c4fdfea2"},"vehicle_type_id":"4","last_reported":1723752532,"current_range_meters":16800,"station_id":"ce4bgrp2rcd13ifvqc9g","pricing_plan_id":"cebpf4jnsgd1na2vs0mg"},{"bike_id":"4b77b45a-64ff-4ec9-b0a4-3b2037dad8b2","system_id":"levelo_inurba_marseille","lat":43.305368,"lon":5.367343,"is_reserved":false,"is_disabled":false,"rental_uris":{"android":"levelo://app?vid=4b77b45a-64ff-4ec9-b0a4-3b2037dad8b2","ios":"levelo://app?vid=4b77b45a-64ff-4ec9-b0a4-3b2037dad8b2"},"vehicle_type_id":"4","last_reported":1723752532,"current_range_meters":18000,"station_id":"ce4bgrp2rcd13ifvqc9g","pricing_plan_id":"cebpf4jnsgd1na2vs0mg"},{"bike_id":"ddfbfd7e-6ee0-4733-afa0-8b6efd919e60","system_id":"levelo_inurba_marseille","lat":43.305368,"lon":5.367343,"is_reserved":false,"is_disabled":false,"rental_uris":{"android":"levelo://app?vid=ddfbfd7e-6ee0-4733-afa0-8b6efd919e60","ios":"levelo://app?vid=ddfbfd7e-6ee0-4733-afa0-8b6efd919e60"},"vehicle_type_id":"4","last_reported":1723752532,"current_range_meters":24800,"station_id":"ce4bgrp2rcd13ifvqc9g","pricing_plan_id":"cebpf4jnsgd1na2vs0mg"},{"bike_id":"16a5d581-6cc3-4dfa-8364-468859c65c8e","system_id":"levelo_inurba_marseille","lat":43.305368,"lon":5.367343,"is_reserved":false,"is_disabled":false,"rental_uris":{"android":"levelo://app?vid=16a5d581-6cc3-4dfa-8364-468859c65c8e","ios":"levelo://app?vid=16a5d581-6cc3-4dfa-8364-468859c65c8e"},"vehicle_type_id":"4","last_reported":1723752532,"current_range_meters":23600,"station_id":"ce4bgrp2rcd13ifvqc9g","pricing_plan_id":"cebpf4jnsgd1na2vs0mg"},{"bike_id":"1cc254b8-63e8-4b59-8986-33ee6f9a16bc","system_id":"levelo_inurba_marseille","lat":43.305368,"lon":5.367343,"is_reserved":false,"is_disabled":false,"rental_uris":{"android":"levelo://app?vid=1cc254b8-63e8-4b59-8986-33ee6f9a16bc","ios":"levelo://app?vid=1cc254b8-63e8-4b59-8986-33ee6f9a16bc"},"vehicle_type_id":"4","last_reported":1723752532,"current_range_meters":22000,"station_id":"ce4bgrp2rcd13ifvqc9g","pricing_plan_id":"cebpf4jnsgd1na2vs0mg"},{"bike_id":"22863854-25f0-41d4-99cc-9a4c00fead21","system_id":"levelo_inurba_marseille","lat":43.305989,"lon":5.37225,"is_reserved":false,"is_disabled":false,"rental_uris":{"android":"levelo://app?vid=22863854-25f0-41d4-99cc-9a4c00fead21","ios":"levelo://app?vid=22863854-25f0-41d4-99cc-9a4c00fead21"},"vehicle_type_id":"4","last_reported":1723752532,"current_range_meters":27200,"station_id":"ce4bgqh2rcd13ifvqc4g","pricing_plan_id":"cebpf4jnsgd1na2vs0mg"},{"bike_id":"f1608324-220a-4e97-a0ce-bba2c2554fc6","system_id":"levelo_inurba_marseille","lat":43.305989,"lon":5.37225,"is_reserved":false,"is_disabled":false,"rental_uris":{"android":"levelo://app?vid=f1608324-220a-4e97-a0ce-bba2c2554fc6","ios":"levelo://app?vid=f1608324-220a-4e97-a0ce-bba2c2554fc6"},"vehicle_type_id":"4","last_reported":1723752532,"current_range_meters":26800,"station_id":"ce4bgqh2rcd13ifvqc4g","pricing_plan_id":"cebpf4jnsgd1na2vs0mg"},{"bike_id":"a035af3d-ae93-42ff-81d3-3f85425c20d2","system_id":"levelo_inurba_marseille","lat":43.305989,"lon":5.37225,"is_reserved":false,"is_disabled":false,"rental_uris":{"android":"levelo://app?vid=a035af3d-ae93-42ff-81d3-3f85425c20d2","ios":"levelo://app?vid=a035af3d-ae93-42ff-81d3-3f85425c20d2"},"vehicle_type_id":"4","last_reported":1723752532,"current_range_meters":30400,"station_id":"ce4bgqh2rcd13ifvqc4g","pricing_plan_id":"cebpf4jnsgd1na2vs0mg"},{"bike_id":"ed5872e2-fe12-4b5e-b23a-b818f2a7ea40","system_id":"levelo_inurba_marseille","lat":43.305989,"lon":5.37225,"is_reserved":false,"is_disabled":false,"rental_uris":{"android":"levelo://app?vid=ed5872e2-fe12-4b5e-b23a-b818f2a7ea40","ios":"levelo://app?vid=ed5872e2-fe12-4b5e-b23a-b818f2a7ea40"},"vehicle_type_id":"4","last_reported":1723752532,"current_range_meters":15200,"station_id":"ce4bgqh2rcd13ifvqc4g","pricing_plan_id":"cebpf4jnsgd1na2vs0mg"},{"bike_id":"e1e420e8-330d-4ed2-b787-64adde2f2113","system_id":"levelo_inurba_marseille","lat":43.305989,"lon":5.37225,"is_reserved":false,"is_disabled":false,"rental_uris":{"android":"levelo://app?vid=e1e420e8-330d-4ed2-b787-64adde2f2113","ios":"levelo://app?vid=e1e420e8-330d-4ed2-b787-64adde2f2113"},"vehicle_type_id":"4","last_reported":1723752532,"current_range_meters":21600,"station_id":"ce4bgqh2rcd13ifvqc4g","pricing_plan_id":"cebpf4jnsgd1na2vs0mg"},{"bike_id":"dd01014e-b68a-4422-83bc-36ce40a44ea4","system_id":"levelo_inurba_marseille","lat":43.305989,"lon":5.37225,"is_reserved":false,"is_disabled":false,"rental_uris":{"android":"levelo://app?vid=dd01014e-b68a-4422-83bc-36ce40a44ea4","ios":"levelo://app?vid=dd01014e-b68a-4422-83bc-36ce40a44ea4"},"vehicle_type_id":"4","last_reported":1723752532,"current_range_meters":16800,"station_id":"ce4bgqh2rcd13ifvqc4g","pricing_plan_id":"cebpf4jnsgd1na2vs0mg"},{"bike_id":"8641847b-9493-46f4-b3a0-fa60cc513f2f","system_id":"levelo_inurba_marseille","lat":43.311131,"lon":5.377651,"is_reserved":false,"is_disabled":false,"rental_uris":{"android":"levelo://app?vid=8641847b-9493-46f4-b3a0-fa60cc513f2f","ios":"levelo://app?vid=8641847b-9493-46f4-b3a0-fa60cc513f2f"},"vehicle_type_id":"4","last_reported":1723752532,"current_range_meters":24800,"station_id":"ce4bgt92rcd13ifvqcg0","pricing_plan_id":"cebpf4jnsgd1na2vs0mg"},{"bike_id":"be070d50-8bdc-417b-9786-9c1f41f6efc3","system_id":"levelo_inurba_marseille","lat":43.311125,"lon":5.377624,"is_reserved":false,"is_disabled":false,"rental_uris":{"android":"levelo://app?vid=be070d50-8bdc-417b-9786-9c1f41f6efc3","ios":"levelo://app?vid=be070d50-8bdc-417b-9786-9c1f41f6efc3"},"vehicle_type_id":"4","last_reported":1723752532,"current_range_meters":0,"station_id":"ce4bgt92rcd13ifvqcg0","pricing_plan_id":"cebpf4jnsgd1na2vs0mg"},{"bike_id":"e9beed7a-cfd0-4b53-b684-caf36f6ab1a3","system_id":"levelo_inurba_marseille","lat":43.311224,"lon":5.377738,"is_reserved":false,"is_disabled":false,"rental_uris":{"android":"levelo://app?vid=e9beed7a-cfd0-4b53-b684-caf36f6ab1a3","ios":"levelo://app?vid=e9beed7a-cfd0-4b53-b684-caf36f6ab1a3"},"vehicle_type_id":"4","last_reported":1723752532,"current_range_meters":4800,"station_id":"","pricing_plan_id":"cebpf4jnsgd1na2vs0mg"},{"bike_id":"7be836fa-f2e4-4475-885e-e28e2674ada4","system_id":"levelo_inurba_marseille","lat":43.311125,"lon":5.377624,"is_reserved":false,"is_disabled":false,"rental_uris":{"android":"levelo://app?vid=7be836fa-f2e4-4475-885e-e28e2674ada4","ios":"levelo://app?vid=7be836fa-f2e4-4475-885e-e28e2674ada4"},"vehicle_type_id":"4","last_reported":1723752532,"current_range_meters":14000,"station_id":"ce4bgt92rcd13ifvqcg0","pricing_plan_id":"cebpf4jnsgd1na2vs0mg"},{"bike_id":"a2e9f448-6470-40c0-9d47-5f8a989e1e44","system_id":"levelo_inurba_marseille","lat":43.311173,"lon":5.377763,"is_reserved":false,"is_disabled":false,"rental_uris":{"android":"levelo://app?vid=a2e9f448-6470-40c0-9d47-5f8a989e1e44","ios":"levelo://app?vid=a2e9f448-6470-40c0-9d47-5f8a989e1e44"},"vehicle_type_id":"4","last_reported":1723752532,"current_range_meters":22400,"station_id":"ce4bgt92rcd13ifvqcg0","pricing_plan_id":"cebpf4jnsgd1na2vs0mg"},{"bike_id":"0af347d4-ed95-4995-b4d4-6becd6506f3b","system_id":"levelo_inurba_marseille","lat":43.31118,"lon":5.37777,"is_reserved":false,"is_disabled":false,"rental_uris":{"android":"levelo://app?vid=0af347d4-ed95-4995-b4d4-6becd6506f3b","ios":"levelo://app?vid=0af347d4-ed95-4995-b4d4-6becd6506f3b"},"vehicle_type_id":"4","last_reported":1723752532,"current_range_meters":16400,"station_id":"ce4bgt92rcd13ifvqcg0","pricing_plan_id":"cebpf4jnsgd1na2vs0mg"},{"bike_id":"e7794531-6bb5-4d44-97a6-21323a9b4537","system_id":"levelo_inurba_marseille","lat":43.311125,"lon":5.377624,"is_reserved":false,"is_disabled":false,"rental_uris":{"android":"levelo://app?vid=e7794531-6bb5-4d44-97a6-21323a9b4537","ios":"levelo://app?vid=e7794531-6bb5-4d44-97a6-21323a9b4537"},"vehicle_type_id":"4","last_reported":1723752532,"current_range_meters":22800,"station_id":"ce4bgt92rcd13ifvqcg0","pricing_plan_id":"cebpf4jnsgd1na2vs0mg"},{"bike_id":"d0804f19-9e42-4178-bce6-b9cd61543870","system_id":"levelo_inurba_marseille","lat":43.311125,"lon":5.377624,"is_reserved":false,"is_disabled":false,"rental_uris":{"android":"levelo://app?vid=d0804f19-9e42-4178-bce6-b9cd61543870","ios":"levelo://app?vid=d0804f19-9e42-4178-bce6-b9cd61543870"},"vehicle_type_id":"4","last_reported":1723752532,"current_range_meters":4000,"station_id":"ce4bgt92rcd13ifvqcg0","pricing_plan_id":"cebpf4jnsgd1na2vs0mg"},{"bike_id":"f18fec8e-4251-4eef-8f67-0ef89eac4341","system_id":"levelo_inurba_marseille","lat":43.3112,"lon":5.37793,"is_reserved":false,"is_disabled":false,"rental_uris":{"android":"levelo://app?vid=f18fec8e-4251-4eef-8f67-0ef89eac4341","ios":"levelo://app?vid=f18fec8e-4251-4eef-8f67-0ef89eac4341"},"vehicle_type_id":"4","last_reported":1723752532,"current_range_meters":15200,"station_id":"ce4bgt92rcd13ifvqcg0","pricing_plan_id":"cebpf4jnsgd1na2vs0mg"},{"bike_id":"60f77d94-cbd2-4916-bf56-631358580472","system_id":"levelo_inurba_marseille","lat":43.307945,"lon":5.376487,"is_reserved":false,"is_disabled":false,"rental_uris":{"android":"levelo://app?vid=60f77d94-cbd2-4916-bf56-631358580472","ios":"levelo://app?vid=60f77d94-cbd2-4916-bf56-631358580472"},"vehicle_type_id":"4","last_reported":1723752532,"current_range_meters":20400,"station_id":"ce4bgv92rcd13ifvqcq0","pricing_plan_id":"cebpf4jnsgd1na2vs0mg"},{"bike_id":"909b3e9c-7d45-42ff-9c44-4da415d40128","system_id":"levelo_inurba_marseille","lat":43.30778,"lon":5.37661,"is_reserved":false,"is_disabled":false,"rental_uris":{"android":"levelo://app?vid=909b3e9c-7d45-42ff-9c44-4da415d40128","ios":"levelo://app?vid=909b3e9c-7d45-42ff-9c44-4da415d40128"},"vehicle_type_id":"4","last_reported":1723752532,"current_range_meters":30800,"station_id":"ce4bgv92rcd13ifvqcq0","pricing_plan_id":"cebpf4jnsgd1na2vs0mg"},{"bike_id":"f917f5e7-7f59-432d-b49b-a47b5f4619cc","system_id":"levelo_inurba_marseille","lat":43.317075,"lon":5.377367,"is_reserved":false,"is_disabled":false,"rental_uris":{"android":"levelo://app?vid=f917f5e7-7f59-432d-b49b-a47b5f4619cc","ios":"levelo://app?vid=f917f5e7-7f59-432d-b49b-a47b5f4619cc"},"vehicle_type_id":"4","last_reported":1723752532,"current_range_meters":31200,"station_id":"ce4bgth2rcd13ifvqch0","pricing_plan_id":"cebpf4jnsgd1na2vs0mg"},{"bike_id":"71281239-3c13-4275-b73c-72e781b5f84a","system_id":"levelo_inurba_marseille","lat":43.317075,"lon":5.377367,"is_reserved":false,"is_disabled":false,"rental_uris":{"android":"levelo://app?vid=71281239-3c13-4275-b73c-72e781b5f84a","ios":"levelo://app?vid=71281239-3c13-4275-b73c-72e781b5f84a"},"vehicle_type_id":"4","last_reported":1723752532,"current_range_meters":24800,"station_id":"ce4bgth2rcd13ifvqch0","pricing_plan_id":"cebpf4jnsgd1na2vs0mg"},{"bike_id":"953b9600-5683-4bd9-a085-88635320162e","system_id":"levelo_inurba_marseille","lat":43.317075,"lon":5.377367,"is_reserved":false,"is_disabled":false,"rental_uris":{"android":"levelo://app?vid=953b9600-5683-4bd9-a085-88635320162e","ios":"levelo://app?vid=953b9600-5683-4bd9-a085-88635320162e"},"vehicle_type_id":"4","last_reported":1723752532,"current_range_meters":29200,"station_id":"ce4bgth2rcd13ifvqch0","pricing_plan_id":"cebpf4jnsgd1na2vs0mg"},{"bike_id":"9a68bd0b-0b14-469a-b948-b8ed04c9a5cd","system_id":"levelo_inurba_marseille","lat":43.317075,"lon":5.377367,"is_reserved":false,"is_disabled":false,"rental_uris":{"android":"levelo://app?vid=9a68bd0b-0b14-469a-b948-b8ed04c9a5cd","ios":"levelo://app?vid=9a68bd0b-0b14-469a-b948-b8ed04c9a5cd"},"vehicle_type_id":"4","last_reported":1723752532,"current_range_meters":25600,"station_id":"ce4bgth2rcd13ifvqch0","pricing_plan_id":"cebpf4jnsgd1na2vs0mg"},{"bike_id":"0859da30-11a9-48c3-b392-6e92b3850c22","system_id":"levelo_inurba_marseille","lat":43.314811,"lon":5.373103,"is_reserved":false,"is_disabled":false,"rental_uris":{"android":"levelo://app?vid=0859da30-11a9-48c3-b392-6e92b3850c22","ios":"levelo://app?vid=0859da30-11a9-48c3-b392-6e92b3850c22"},"vehicle_type_id":"4","last_reported":1723752532,"current_range_meters":0,"station_id":"ce4bgt12rcd13ifvqcd0","pricing_plan_id":"cebpf4jnsgd1na2vs0mg"},{"bike_id":"1805568c-9aec-44c8-9ca9-f1536fe89dae","system_id":"levelo_inurba_marseille","lat":43.30304,"lon":5.368987,"is_reserved":false,"is_disabled":false,"rental_uris":{"android":"levelo://app?vid=1805568c-9aec-44c8-9ca9-f1536fe89dae","ios":"levelo://app?vid=1805568c-9aec-44c8-9ca9-f1536fe89dae"},"vehicle_type_id":"4","last_reported":1723752532,"current_range_meters":19200,"station_id":"ce4bgqh2rcd13ifvqc5g","pricing_plan_id":"cebpf4jnsgd1na2vs0mg"},{"bike_id":"03e53526-afe4-40b4-8ffa-eb96f994a777","system_id":"levelo_inurba_marseille","lat":43.301939,"lon":5.366286,"is_reserved":false,"is_disabled":false,"rental_uris":{"android":"levelo://app?vid=03e53526-afe4-40b4-8ffa-eb96f994a777","ios":"levelo://app?vid=03e53526-afe4-40b4-8ffa-eb96f994a777"},"vehicle_type_id":"4","last_reported":1723752532,"current_range_meters":28800,"station_id":"ce4bgrh2rcd13ifvqc8g","pricing_plan_id":"cebpf4jnsgd1na2vs0mg"},{"bike_id":"5797a3cb-2806-4df3-a0ab-805c340c8ff4","system_id":"levelo_inurba_marseille","lat":43.303046,"lon":5.368981,"is_reserved":false,"is_disabled":false,"rental_uris":{"android":"levelo://app?vid=5797a3cb-2806-4df3-a0ab-805c340c8ff4","ios":"levelo://app?vid=5797a3cb-2806-4df3-a0ab-805c340c8ff4"},"vehicle_type_id":"4","last_reported":1723752532,"current_range_meters":8000,"station_id":"ce4bgqh2rcd13ifvqc5g","pricing_plan_id":"cebpf4jnsgd1na2vs0mg"},{"bike_id":"9c7655d5-a2ac-4bd2-975d-f5c037f7c8ad","system_id":"levelo_inurba_marseille","lat":43.30304,"lon":5.368987,"is_reserved":false,"is_disabled":false,"rental_uris":{"android":"levelo://app?vid=9c7655d5-a2ac-4bd2-975d-f5c037f7c8ad","ios":"levelo://app?vid=9c7655d5-a2ac-4bd2-975d-f5c037f7c8ad"},"vehicle_type_id":"4","last_reported":1723752532,"current_range_meters":12400,"station_id":"ce4bgqh2rcd13ifvqc5g","pricing_plan_id":"cebpf4jnsgd1na2vs0mg"},{"bike_id":"f119f568-d0a7-44ba-9c86-b5b2dc1fbe46","system_id":"levelo_inurba_marseille","lat":43.30304,"lon":5.368987,"is_reserved":false,"is_disabled":false,"rental_uris":{"android":"levelo://app?vid=f119f568-d0a7-44ba-9c86-b5b2dc1fbe46","ios":"levelo://app?vid=f119f568-d0a7-44ba-9c86-b5b2dc1fbe46"},"vehicle_type_id":"4","last_reported":1723752532,"current_range_meters":10400,"station_id":"ce4bgqh2rcd13ifvqc5g","pricing_plan_id":"cebpf4jnsgd1na2vs0mg"},{"bike_id":"507eada9-be27-4ef8-9a8e-825854a9dc4e","system_id":"levelo_inurba_marseille","lat":43.30303,"lon":5.36896,"is_reserved":false,"is_disabled":false,"rental_uris":{"android":"levelo://app?vid=507eada9-be27-4ef8-9a8e-825854a9dc4e","ios":"levelo://app?vid=507eada9-be27-4ef8-9a8e-825854a9dc4e"},"vehicle_type_id":"4","last_reported":1723752532,"current_range_meters":30000,"station_id":"ce4bgqh2rcd13ifvqc5g","pricing_plan_id":"cebpf4jnsgd1na2vs0mg"},{"bike_id":"44aa78e8-5eaf-4476-b095-d3660ebb0c6b","system_id":"levelo_inurba_marseille","lat":43.315289,"lon":5.380349,"is_reserved":false,"is_disabled":false,"rental_uris":{"android":"levelo://app?vid=44aa78e8-5eaf-4476-b095-d3660ebb0c6b","ios":"levelo://app?vid=44aa78e8-5eaf-4476-b095-d3660ebb0c6b"},"vehicle_type_id":"4","last_reported":1723752532,"current_range_meters":26000,"station_id":"ce4bhsp2rcd13ifvqi50","pricing_plan_id":"cebpf4jnsgd1na2vs0mg"},{"bike_id":"36645872-4a1c-40ae-8a5e-322c115ae647","system_id":"levelo_inurba_marseille","lat":43.301939,"lon":5.366286,"is_reserved":false,"is_disabled":false,"rental_uris":{"android":"levelo://app?vid=36645872-4a1c-40ae-8a5e-322c115ae647","ios":"levelo://app?vid=36645872-4a1c-40ae-8a5e-322c115ae647"},"vehicle_type_id":"4","last_reported":1723752532,"current_range_meters":17200,"station_id":"ce4bgrh2rcd13ifvqc8g","pricing_plan_id":"cebpf4jnsgd1na2vs0mg"},{"bike_id":"ccaa83ec-b559-4241-a6fc-7530d19e4d72","system_id":"levelo_inurba_marseille","lat":43.301939,"lon":5.366286,"is_reserved":false,"is_disabled":false,"rental_uris":{"android":"levelo://app?vid=ccaa83ec-b559-4241-a6fc-7530d19e4d72","ios":"levelo://app?vid=ccaa83ec-b559-4241-a6fc-7530d19e4d72"},"vehicle_type_id":"4","last_reported":1723752532,"current_range_meters":26800,"station_id":"ce4bgrh2rcd13ifvqc8g","pricing_plan_id":"cebpf4jnsgd1na2vs0mg"},{"bike_id":"c963dfc5-e880-4196-a1cb-ac22f6737334","system_id":"levelo_inurba_marseille","lat":43.301939,"lon":5.366286,"is_reserved":false,"is_disabled":false,"rental_uris":{"android":"levelo://app?vid=c963dfc5-e880-4196-a1cb-ac22f6737334","ios":"levelo://app?vid=c963dfc5-e880-4196-a1cb-ac22f6737334"},"vehicle_type_id":"4","last_reported":1723752532,"current_range_meters":20800,"station_id":"ce4bgrh2rcd13ifvqc8g","pricing_plan_id":"cebpf4jnsgd1na2vs0mg"},{"bike_id":"50c8c3dc-3a97-4188-8ebd-1a1ddbef9cf9","system_id":"levelo_inurba_marseille","lat":43.30122,"lon":5.365613,"is_reserved":false,"is_disabled":false,"rental_uris":{"android":"levelo://app?vid=50c8c3dc-3a97-4188-8ebd-1a1ddbef9cf9","ios":"levelo://app?vid=50c8c3dc-3a97-4188-8ebd-1a1ddbef9cf9"},"vehicle_type_id":"4","last_reported":1723752532,"current_range_meters":0,"station_id":"","pricing_plan_id":"cebpf4jnsgd1na2vs0mg"},{"bike_id":"f5216d6e-26db-4d3a-94a4-36be5da01dd0","system_id":"levelo_inurba_marseille","lat":43.324771,"lon":5.36557,"is_reserved":false,"is_disabled":false,"rental_uris":{"android":"levelo://app?vid=f5216d6e-26db-4d3a-94a4-36be5da01dd0","ios":"levelo://app?vid=f5216d6e-26db-4d3a-94a4-36be5da01dd0"},"vehicle_type_id":"4","last_reported":1723752532,"current_range_meters":4800,"station_id":"ce4bhs12rcd13ifvqhvg","pricing_plan_id":"cebpf4jnsgd1na2vs0mg"},{"bike_id":"d02a65c8-afb2-4683-8db0-05ec3d1197c9","system_id":"levelo_inurba_marseille","lat":43.308012,"lon":5.381511,"is_reserved":false,"is_disabled":false,"rental_uris":{"android":"levelo://app?vid=d02a65c8-afb2-4683-8db0-05ec3d1197c9","ios":"levelo://app?vid=d02a65c8-afb2-4683-8db0-05ec3d1197c9"},"vehicle_type_id":"4","last_reported":1723752532,"current_range_meters":20000,"station_id":"ce4bgt12rcd13ifvqce0","pricing_plan_id":"cebpf4jnsgd1na2vs0mg"},{"bike_id":"2988d394-d2c1-4eeb-833e-665d056eec1f","system_id":"levelo_inurba_marseille","lat":43.308012,"lon":5.381511,"is_reserved":false,"is_disabled":false,"rental_uris":{"android":"levelo://app?vid=2988d394-d2c1-4eeb-833e-665d056eec1f","ios":"levelo://app?vid=2988d394-d2c1-4eeb-833e-665d056eec1f"},"vehicle_type_id":"4","last_reported":1723752532,"current_range_meters":23600,"station_id":"ce4bgt12rcd13ifvqce0","pricing_plan_id":"cebpf4jnsgd1na2vs0mg"},{"bike_id":"c8bbeca8-5c14-49a0-ba06-0b74dc56305c","system_id":"levelo_inurba_marseille","lat":43.304606,"lon":5.379026,"is_reserved":false,"is_disabled":false,"rental_uris":{"android":"levelo://app?vid=c8bbeca8-5c14-49a0-ba06-0b74dc56305c","ios":"levelo://app?vid=c8bbeca8-5c14-49a0-ba06-0b74dc56305c"},"vehicle_type_id":"4","last_reported":1723752532,"current_range_meters":30800,"station_id":"ce4bgup2rcd13ifvqcn0","pricing_plan_id":"cebpf4jnsgd1na2vs0mg"},{"bike_id":"747ff467-fc62-4924-9714-08e87f7e47af","system_id":"levelo_inurba_marseille","lat":43.324771,"lon":5.36557,"is_reserved":false,"is_disabled":false,"rental_uris":{"android":"levelo://app?vid=747ff467-fc62-4924-9714-08e87f7e47af","ios":"levelo://app?vid=747ff467-fc62-4924-9714-08e87f7e47af"},"vehicle_type_id":"4","last_reported":1723752532,"current_range_meters":16800,"station_id":"ce4bhs12rcd13ifvqhvg","pricing_plan_id":"cebpf4jnsgd1na2vs0mg"},{"bike_id":"a61a23c9-b3b4-4b71-9669-7a9aabda7293","system_id":"levelo_inurba_marseille","lat":43.304606,"lon":5.379026,"is_reserved":false,"is_disabled":false,"rental_uris":{"android":"levelo://app?vid=a61a23c9-b3b4-4b71-9669-7a9aabda7293","ios":"levelo://app?vid=a61a23c9-b3b4-4b71-9669-7a9aabda7293"},"vehicle_type_id":"4","last_reported":1723752532,"current_range_meters":9200,"station_id":"ce4bgup2rcd13ifvqcn0","pricing_plan_id":"cebpf4jnsgd1na2vs0mg"},{"bike_id":"2537a458-0791-4876-aed3-6d6e4fae2abf","system_id":"levelo_inurba_marseille","lat":43.304606,"lon":5.379026,"is_reserved":false,"is_disabled":false,"rental_uris":{"android":"levelo://app?vid=2537a458-0791-4876-aed3-6d6e4fae2abf","ios":"levelo://app?vid=2537a458-0791-4876-aed3-6d6e4fae2abf"},"vehicle_type_id":"4","last_reported":1723752532,"current_range_meters":26400,"station_id":"ce4bgup2rcd13ifvqcn0","pricing_plan_id":"cebpf4jnsgd1na2vs0mg"},{"bike_id":"9916a15a-2397-4a36-9dfb-6009315d1729","system_id":"levelo_inurba_marseille","lat":43.324771,"lon":5.36557,"is_reserved":false,"is_disabled":false,"rental_uris":{"android":"levelo://app?vid=9916a15a-2397-4a36-9dfb-6009315d1729","ios":"levelo://app?vid=9916a15a-2397-4a36-9dfb-6009315d1729"},"vehicle_type_id":"4","last_reported":1723752532,"current_range_meters":27200,"station_id":"ce4bhs12rcd13ifvqhvg","pricing_plan_id":"cebpf4jnsgd1na2vs0mg"},{"bike_id":"e189099c-fbcf-4a03-b10e-059a2c260e35","system_id":"levelo_inurba_marseille","lat":43.304606,"lon":5.379026,"is_reserved":false,"is_disabled":false,"rental_uris":{"android":"levelo://app?vid=e189099c-fbcf-4a03-b10e-059a2c260e35","ios":"levelo://app?vid=e189099c-fbcf-4a03-b10e-059a2c260e35"},"vehicle_type_id":"4","last_reported":1723752532,"current_range_meters":31200,"station_id":"ce4bgup2rcd13ifvqcn0","pricing_plan_id":"cebpf4jnsgd1na2vs0mg"},{"bike_id":"844dfa7c-2a73-4d84-8cf0-713071085201","system_id":"levelo_inurba_marseille","lat":43.324771,"lon":5.36557,"is_reserved":false,"is_disabled":false,"rental_uris":{"android":"levelo://app?vid=844dfa7c-2a73-4d84-8cf0-713071085201","ios":"levelo://app?vid=844dfa7c-2a73-4d84-8cf0-713071085201"},"vehicle_type_id":"4","last_reported":1723752532,"current_range_meters":21600,"station_id":"ce4bhs12rcd13ifvqhvg","pricing_plan_id":"cebpf4jnsgd1na2vs0mg"},{"bike_id":"787b3dbc-ce7e-46d2-b2a1-e0d84d29d9df","system_id":"levelo_inurba_marseille","lat":43.324771,"lon":5.36557,"is_reserved":false,"is_disabled":false,"rental_uris":{"android":"levelo://app?vid=787b3dbc-ce7e-46d2-b2a1-e0d84d29d9df","ios":"levelo://app?vid=787b3dbc-ce7e-46d2-b2a1-e0d84d29d9df"},"vehicle_type_id":"4","last_reported":1723752532,"current_range_meters":13600,"station_id":"ce4bhs12rcd13ifvqhvg","pricing_plan_id":"cebpf4jnsgd1na2vs0mg"},{"bike_id":"f9ad0309-7f53-4d9b-9ddf-f24ce78ffb0d","system_id":"levelo_inurba_marseille","lat":43.324771,"lon":5.36557,"is_reserved":false,"is_disabled":false,"rental_uris":{"android":"levelo://app?vid=f9ad0309-7f53-4d9b-9ddf-f24ce78ffb0d","ios":"levelo://app?vid=f9ad0309-7f53-4d9b-9ddf-f24ce78ffb0d"},"vehicle_type_id":"4","last_reported":1723752532,"current_range_meters":5600,"station_id":"ce4bhs12rcd13ifvqhvg","pricing_plan_id":"cebpf4jnsgd1na2vs0mg"},{"bike_id":"e0db9e20-c00b-4152-9cc3-ec9856a09a94","system_id":"levelo_inurba_marseille","lat":43.324771,"lon":5.36557,"is_reserved":false,"is_disabled":false,"rental_uris":{"android":"levelo://app?vid=e0db9e20-c00b-4152-9cc3-ec9856a09a94","ios":"levelo://app?vid=e0db9e20-c00b-4152-9cc3-ec9856a09a94"},"vehicle_type_id":"4","last_reported":1723752532,"current_range_meters":16000,"station_id":"ce4bhs12rcd13ifvqhvg","pricing_plan_id":"cebpf4jnsgd1na2vs0mg"},{"bike_id":"b83bb2e9-52aa-4fdb-a21f-a0c2d28522b3","system_id":"levelo_inurba_marseille","lat":43.324771,"lon":5.36557,"is_reserved":false,"is_disabled":false,"rental_uris":{"android":"levelo://app?vid=b83bb2e9-52aa-4fdb-a21f-a0c2d28522b3","ios":"levelo://app?vid=b83bb2e9-52aa-4fdb-a21f-a0c2d28522b3"},"vehicle_type_id":"4","last_reported":1723752532,"current_range_meters":6000,"station_id":"ce4bhs12rcd13ifvqhvg","pricing_plan_id":"cebpf4jnsgd1na2vs0mg"},{"bike_id":"994ba6f9-8732-4564-8903-245ebfcbcb0a","system_id":"levelo_inurba_marseille","lat":43.324771,"lon":5.36557,"is_reserved":false,"is_disabled":false,"rental_uris":{"android":"levelo://app?vid=994ba6f9-8732-4564-8903-245ebfcbcb0a","ios":"levelo://app?vid=994ba6f9-8732-4564-8903-245ebfcbcb0a"},"vehicle_type_id":"4","last_reported":1723752532,"current_range_meters":3200,"station_id":"ce4bhs12rcd13ifvqhvg","pricing_plan_id":"cebpf4jnsgd1na2vs0mg"},{"bike_id":"cec0e1d1-f2de-4ac4-a2f9-8f9aa8b5056f","system_id":"levelo_inurba_marseille","lat":43.304606,"lon":5.379026,"is_reserved":false,"is_disabled":false,"rental_uris":{"android":"levelo://app?vid=cec0e1d1-f2de-4ac4-a2f9-8f9aa8b5056f","ios":"levelo://app?vid=cec0e1d1-f2de-4ac4-a2f9-8f9aa8b5056f"},"vehicle_type_id":"4","last_reported":1723752532,"current_range_meters":9600,"station_id":"ce4bgup2rcd13ifvqcn0","pricing_plan_id":"cebpf4jnsgd1na2vs0mg"},{"bike_id":"bbfd279d-69b8-4a7a-97a9-61e7aa5ebbba","system_id":"levelo_inurba_marseille","lat":43.304606,"lon":5.379026,"is_reserved":false,"is_disabled":false,"rental_uris":{"android":"levelo://app?vid=bbfd279d-69b8-4a7a-97a9-61e7aa5ebbba","ios":"levelo://app?vid=bbfd279d-69b8-4a7a-97a9-61e7aa5ebbba"},"vehicle_type_id":"4","last_reported":1723752532,"current_range_meters":28000,"station_id":"ce4bgup2rcd13ifvqcn0","pricing_plan_id":"cebpf4jnsgd1na2vs0mg"},{"bike_id":"301b8677-78ae-4fa0-8bff-f61e6fe4843a","system_id":"levelo_inurba_marseille","lat":43.324771,"lon":5.36557,"is_reserved":false,"is_disabled":false,"rental_uris":{"android":"levelo://app?vid=301b8677-78ae-4fa0-8bff-f61e6fe4843a","ios":"levelo://app?vid=301b8677-78ae-4fa0-8bff-f61e6fe4843a"},"vehicle_type_id":"4","last_reported":1723752532,"current_range_meters":14800,"station_id":"ce4bhs12rcd13ifvqhvg","pricing_plan_id":"cebpf4jnsgd1na2vs0mg"},{"bike_id":"13e655d3-c4a9-454b-bbc7-ca10820467fa","system_id":"levelo_inurba_marseille","lat":43.32482,"lon":5.36555,"is_reserved":false,"is_disabled":false,"rental_uris":{"android":"levelo://app?vid=13e655d3-c4a9-454b-bbc7-ca10820467fa","ios":"levelo://app?vid=13e655d3-c4a9-454b-bbc7-ca10820467fa"},"vehicle_type_id":"4","last_reported":1723752532,"current_range_meters":0,"station_id":"ce4bhs12rcd13ifvqhvg","pricing_plan_id":"cebpf4jnsgd1na2vs0mg"},{"bike_id":"44680a61-b1de-4b9c-b689-2ab765a147aa","system_id":"levelo_inurba_marseille","lat":43.324771,"lon":5.36557,"is_reserved":false,"is_disabled":false,"rental_uris":{"android":"levelo://app?vid=44680a61-b1de-4b9c-b689-2ab765a147aa","ios":"levelo://app?vid=44680a61-b1de-4b9c-b689-2ab765a147aa"},"vehicle_type_id":"4","last_reported":1723752532,"current_range_meters":32000,"station_id":"ce4bhs12rcd13ifvqhvg","pricing_plan_id":"cebpf4jnsgd1na2vs0mg"},{"bike_id":"bdf61be6-6755-4df3-ae77-6b81cc7b98f5","system_id":"levelo_inurba_marseille","lat":43.324771,"lon":5.36557,"is_reserved":false,"is_disabled":false,"rental_uris":{"android":"levelo://app?vid=bdf61be6-6755-4df3-ae77-6b81cc7b98f5","ios":"levelo://app?vid=bdf61be6-6755-4df3-ae77-6b81cc7b98f5"},"vehicle_type_id":"4","last_reported":1723752532,"current_range_meters":31200,"station_id":"ce4bhs12rcd13ifvqhvg","pricing_plan_id":"cebpf4jnsgd1na2vs0mg"},{"bike_id":"bdcd1bbb-a7ca-49d9-b904-5586917b4ca7","system_id":"levelo_inurba_marseille","lat":43.302784,"lon":5.377158,"is_reserved":false,"is_disabled":false,"rental_uris":{"android":"levelo://app?vid=bdcd1bbb-a7ca-49d9-b904-5586917b4ca7","ios":"levelo://app?vid=bdcd1bbb-a7ca-49d9-b904-5586917b4ca7"},"vehicle_type_id":"4","last_reported":1723752532,"current_range_meters":30000,"station_id":"ce4bguh2rcd13ifvqcj0","pricing_plan_id":"cebpf4jnsgd1na2vs0mg"},{"bike_id":"2a0481dc-9b2b-4b3c-a770-3ed234f995a1","system_id":"levelo_inurba_marseille","lat":43.319935,"lon":5.381699,"is_reserved":false,"is_disabled":false,"rental_uris":{"android":"levelo://app?vid=2a0481dc-9b2b-4b3c-a770-3ed234f995a1","ios":"levelo://app?vid=2a0481dc-9b2b-4b3c-a770-3ed234f995a1"},"vehicle_type_id":"4","last_reported":1723752532,"current_range_meters":20800,"station_id":"ce4bhr12rcd13ifvqhpg","pricing_plan_id":"cebpf4jnsgd1na2vs0mg"},{"bike_id":"5b7511a3-e350-49eb-b303-6a6517490594","system_id":"levelo_inurba_marseille","lat":43.310804,"lon":5.38359,"is_reserved":false,"is_disabled":false,"rental_uris":{"android":"levelo://app?vid=5b7511a3-e350-49eb-b303-6a6517490594","ios":"levelo://app?vid=5b7511a3-e350-49eb-b303-6a6517490594"},"vehicle_type_id":"4","last_reported":1723752532,"current_range_meters":5200,"station_id":"ce4bgv92rcd13ifvqcr0","pricing_plan_id":"cebpf4jnsgd1na2vs0mg"},{"bike_id":"62e4b5bf-f60d-4a00-a4cf-52b889a083b0","system_id":"levelo_inurba_marseille","lat":43.310804,"lon":5.38359,"is_reserved":false,"is_disabled":false,"rental_uris":{"android":"levelo://app?vid=62e4b5bf-f60d-4a00-a4cf-52b889a083b0","ios":"levelo://app?vid=62e4b5bf-f60d-4a00-a4cf-52b889a083b0"},"vehicle_type_id":"4","last_reported":1723752532,"current_range_meters":0,"station_id":"ce4bgv92rcd13ifvqcr0","pricing_plan_id":"cebpf4jnsgd1na2vs0mg"},{"bike_id":"2c20bed0-c31e-4b7e-8320-aa4652e452c6","system_id":"levelo_inurba_marseille","lat":43.30143,"lon":5.37413,"is_reserved":false,"is_disabled":false,"rental_uris":{"android":"levelo://app?vid=2c20bed0-c31e-4b7e-8320-aa4652e452c6","ios":"levelo://app?vid=2c20bed0-c31e-4b7e-8320-aa4652e452c6"},"vehicle_type_id":"4","last_reported":1723752532,"current_range_meters":31200,"station_id":"ce4bgs92rcd13ifvqcc0","pricing_plan_id":"cebpf4jnsgd1na2vs0mg"},{"bike_id":"17c06962-f8fd-41ae-8f74-b29b8a85bff2","system_id":"levelo_inurba_marseille","lat":43.310804,"lon":5.38359,"is_reserved":false,"is_disabled":false,"rental_uris":{"android":"levelo://app?vid=17c06962-f8fd-41ae-8f74-b29b8a85bff2","ios":"levelo://app?vid=17c06962-f8fd-41ae-8f74-b29b8a85bff2"},"vehicle_type_id":"4","last_reported":1723752532,"current_range_meters":0,"station_id":"ce4bgv92rcd13ifvqcr0","pricing_plan_id":"cebpf4jnsgd1na2vs0mg"},{"bike_id":"992ac6a6-0ae4-43ba-8101-fe5e973e7426","system_id":"levelo_inurba_marseille","lat":43.310804,"lon":5.38359,"is_reserved":false,"is_disabled":false,"rental_uris":{"android":"levelo://app?vid=992ac6a6-0ae4-43ba-8101-fe5e973e7426","ios":"levelo://app?vid=992ac6a6-0ae4-43ba-8101-fe5e973e7426"},"vehicle_type_id":"4","last_reported":1723752532,"current_range_meters":4000,"station_id":"ce4bgv92rcd13ifvqcr0","pricing_plan_id":"cebpf4jnsgd1na2vs0mg"},{"bike_id":"e5a3ed2e-a89a-4d03-a6e7-72a986f38d2a","system_id":"levelo_inurba_marseille","lat":43.302784,"lon":5.377158,"is_reserved":false,"is_disabled":false,"rental_uris":{"android":"levelo://app?vid=e5a3ed2e-a89a-4d03-a6e7-72a986f38d2a","ios":"levelo://app?vid=e5a3ed2e-a89a-4d03-a6e7-72a986f38d2a"},"vehicle_type_id":"4","last_reported":1723752532,"current_range_meters":28400,"station_id":"ce4bguh2rcd13ifvqcj0","pricing_plan_id":"cebpf4jnsgd1na2vs0mg"},{"bike_id":"d6fcfb94-e607-418f-8ae1-e734943c02ef","system_id":"levelo_inurba_marseille","lat":43.302784,"lon":5.377158,"is_reserved":false,"is_disabled":false,"rental_uris":{"android":"levelo://app?vid=d6fcfb94-e607-418f-8ae1-e734943c02ef","ios":"levelo://app?vid=d6fcfb94-e607-418f-8ae1-e734943c02ef"},"vehicle_type_id":"4","last_reported":1723752532,"current_range_meters":10400,"station_id":"ce4bguh2rcd13ifvqcj0","pricing_plan_id":"cebpf4jnsgd1na2vs0mg"},{"bike_id":"bd9d33e1-7f09-474f-adc8-beaed7ecefce","system_id":"levelo_inurba_marseille","lat":43.302784,"lon":5.377158,"is_reserved":false,"is_disabled":false,"rental_uris":{"android":"levelo://app?vid=bd9d33e1-7f09-474f-adc8-beaed7ecefce","ios":"levelo://app?vid=bd9d33e1-7f09-474f-adc8-beaed7ecefce"},"vehicle_type_id":"4","last_reported":1723752532,"current_range_meters":13600,"station_id":"ce4bguh2rcd13ifvqcj0","pricing_plan_id":"cebpf4jnsgd1na2vs0mg"},{"bike_id":"efa48288-afff-4d19-a16f-9f507a21dcd2","system_id":"levelo_inurba_marseille","lat":43.302784,"lon":5.377158,"is_reserved":false,"is_disabled":false,"rental_uris":{"android":"levelo://app?vid=efa48288-afff-4d19-a16f-9f507a21dcd2","ios":"levelo://app?vid=efa48288-afff-4d19-a16f-9f507a21dcd2"},"vehicle_type_id":"4","last_reported":1723752532,"current_range_meters":28000,"station_id":"ce4bguh2rcd13ifvqcj0","pricing_plan_id":"cebpf4jnsgd1na2vs0mg"},{"bike_id":"a52d3d15-b0f1-4d1d-8c4b-724d747f6fad","system_id":"levelo_inurba_marseille","lat":43.30143,"lon":5.37413,"is_reserved":false,"is_disabled":false,"rental_uris":{"android":"levelo://app?vid=a52d3d15-b0f1-4d1d-8c4b-724d747f6fad","ios":"levelo://app?vid=a52d3d15-b0f1-4d1d-8c4b-724d747f6fad"},"vehicle_type_id":"4","last_reported":1723752532,"current_range_meters":31200,"station_id":"ce4bgs92rcd13ifvqcc0","pricing_plan_id":"cebpf4jnsgd1na2vs0mg"},{"bike_id":"f12f6e93-a43a-466d-ac83-8542086100b4","system_id":"levelo_inurba_marseille","lat":43.301429,"lon":5.37413,"is_reserved":false,"is_disabled":false,"rental_uris":{"android":"levelo://app?vid=f12f6e93-a43a-466d-ac83-8542086100b4","ios":"levelo://app?vid=f12f6e93-a43a-466d-ac83-8542086100b4"},"vehicle_type_id":"4","last_reported":1723752532,"current_range_meters":12400,"station_id":"ce4bgs92rcd13ifvqcc0","pricing_plan_id":"cebpf4jnsgd1na2vs0mg"},{"bike_id":"05a06412-04c5-4ce3-a2cd-976c65aa5b06","system_id":"levelo_inurba_marseille","lat":43.319935,"lon":5.381699,"is_reserved":false,"is_disabled":false,"rental_uris":{"android":"levelo://app?vid=05a06412-04c5-4ce3-a2cd-976c65aa5b06","ios":"levelo://app?vid=05a06412-04c5-4ce3-a2cd-976c65aa5b06"},"vehicle_type_id":"4","last_reported":1723752532,"current_range_meters":23600,"station_id":"ce4bhr12rcd13ifvqhpg","pricing_plan_id":"cebpf4jnsgd1na2vs0mg"},{"bike_id":"f2cfe0a4-0fe6-46da-a82f-d03c9b38b9fd","system_id":"levelo_inurba_marseille","lat":43.319935,"lon":5.381699,"is_reserved":false,"is_disabled":false,"rental_uris":{"android":"levelo://app?vid=f2cfe0a4-0fe6-46da-a82f-d03c9b38b9fd","ios":"levelo://app?vid=f2cfe0a4-0fe6-46da-a82f-d03c9b38b9fd"},"vehicle_type_id":"4","last_reported":1723752532,"current_range_meters":31200,"station_id":"ce4bhr12rcd13ifvqhpg","pricing_plan_id":"cebpf4jnsgd1na2vs0mg"},{"bike_id":"0552c5bf-52b1-4aa0-8f79-9c0ffcf0f7cf","system_id":"levelo_inurba_marseille","lat":43.319935,"lon":5.381699,"is_reserved":false,"is_disabled":false,"rental_uris":{"android":"levelo://app?vid=0552c5bf-52b1-4aa0-8f79-9c0ffcf0f7cf","ios":"levelo://app?vid=0552c5bf-52b1-4aa0-8f79-9c0ffcf0f7cf"},"vehicle_type_id":"4","last_reported":1723752532,"current_range_meters":23600,"station_id":"ce4bhr12rcd13ifvqhpg","pricing_plan_id":"cebpf4jnsgd1na2vs0mg"},{"bike_id":"b46b1b62-4cf9-40c6-8920-ce4555f4ccf3","system_id":"levelo_inurba_marseille","lat":43.30576,"lon":5.38196,"is_reserved":false,"is_disabled":false,"rental_uris":{"android":"levelo://app?vid=b46b1b62-4cf9-40c6-8920-ce4555f4ccf3","ios":"levelo://app?vid=b46b1b62-4cf9-40c6-8920-ce4555f4ccf3"},"vehicle_type_id":"4","last_reported":1723752532,"current_range_meters":24000,"station_id":"","pricing_plan_id":"cebpf4jnsgd1na2vs0mg"},{"bike_id":"c7bf449c-11e3-4d42-bb37-1a89b598c2c3","system_id":"levelo_inurba_marseille","lat":43.313571,"lon":5.384829,"is_reserved":false,"is_disabled":false,"rental_uris":{"android":"levelo://app?vid=c7bf449c-11e3-4d42-bb37-1a89b598c2c3","ios":"levelo://app?vid=c7bf449c-11e3-4d42-bb37-1a89b598c2c3"},"vehicle_type_id":"4","last_reported":1723752532,"current_range_meters":6800,"station_id":"ce4bgt92rcd13ifvqcf0","pricing_plan_id":"cebpf4jnsgd1na2vs0mg"},{"bike_id":"d9914c9a-4acf-4bf7-95c4-c6f57fbb7a67","system_id":"levelo_inurba_marseille","lat":43.313571,"lon":5.384829,"is_reserved":false,"is_disabled":false,"rental_uris":{"android":"levelo://app?vid=d9914c9a-4acf-4bf7-95c4-c6f57fbb7a67","ios":"levelo://app?vid=d9914c9a-4acf-4bf7-95c4-c6f57fbb7a67"},"vehicle_type_id":"4","last_reported":1723752532,"current_range_meters":28000,"station_id":"ce4bgt92rcd13ifvqcf0","pricing_plan_id":"cebpf4jnsgd1na2vs0mg"},{"bike_id":"4f4d9a0a-ed3e-4112-b3f5-156c10b23413","system_id":"levelo_inurba_marseille","lat":43.313571,"lon":5.384829,"is_reserved":false,"is_disabled":false,"rental_uris":{"android":"levelo://app?vid=4f4d9a0a-ed3e-4112-b3f5-156c10b23413","ios":"levelo://app?vid=4f4d9a0a-ed3e-4112-b3f5-156c10b23413"},"vehicle_type_id":"4","last_reported":1723752532,"current_range_meters":17600,"station_id":"ce4bgt92rcd13ifvqcf0","pricing_plan_id":"cebpf4jnsgd1na2vs0mg"},{"bike_id":"17e0a8b7-5aaa-44e2-9dbe-5188f17cbf66","system_id":"levelo_inurba_marseille","lat":43.31355,"lon":5.38501,"is_reserved":false,"is_disabled":false,"rental_uris":{"android":"levelo://app?vid=17e0a8b7-5aaa-44e2-9dbe-5188f17cbf66","ios":"levelo://app?vid=17e0a8b7-5aaa-44e2-9dbe-5188f17cbf66"},"vehicle_type_id":"4","last_reported":1723752532,"current_range_meters":6000,"station_id":"ce4bgt92rcd13ifvqcf0","pricing_plan_id":"cebpf4jnsgd1na2vs0mg"},{"bike_id":"b60c3de7-795a-41ed-aa13-a41432f0f9c7","system_id":"levelo_inurba_marseille","lat":43.299209,"lon":5.365547,"is_reserved":false,"is_disabled":false,"rental_uris":{"android":"levelo://app?vid=b60c3de7-795a-41ed-aa13-a41432f0f9c7","ios":"levelo://app?vid=b60c3de7-795a-41ed-aa13-a41432f0f9c7"},"vehicle_type_id":"4","last_reported":1723752532,"current_range_meters":22000,"station_id":"ce4bgm92rcd13ifvqbr0","pricing_plan_id":"cebpf4jnsgd1na2vs0mg"},{"bike_id":"67dbdda0-5113-4fa6-9495-43583e6c1497","system_id":"levelo_inurba_marseille","lat":43.313162,"lon":5.386192,"is_reserved":false,"is_disabled":false,"rental_uris":{"android":"levelo://app?vid=67dbdda0-5113-4fa6-9495-43583e6c1497","ios":"levelo://app?vid=67dbdda0-5113-4fa6-9495-43583e6c1497"},"vehicle_type_id":"4","last_reported":1723752532,"current_range_meters":21600,"station_id":"","pricing_plan_id":"cebpf4jnsgd1na2vs0mg"},{"bike_id":"abf95f12-5746-44c7-bd95-5c084fe9d1e7","system_id":"levelo_inurba_marseille","lat":43.305331,"lon":5.384238,"is_reserved":false,"is_disabled":false,"rental_uris":{"android":"levelo://app?vid=abf95f12-5746-44c7-bd95-5c084fe9d1e7","ios":"levelo://app?vid=abf95f12-5746-44c7-bd95-5c084fe9d1e7"},"vehicle_type_id":"4","last_reported":1723752532,"current_range_meters":6800,"station_id":"","pricing_plan_id":"cebpf4jnsgd1na2vs0mg"},{"bike_id":"04885308-9765-46ed-9ce5-08b084a01573","system_id":"levelo_inurba_marseille","lat":43.298433,"lon":5.362774,"is_reserved":false,"is_disabled":false,"rental_uris":{"android":"levelo://app?vid=04885308-9765-46ed-9ce5-08b084a01573","ios":"levelo://app?vid=04885308-9765-46ed-9ce5-08b084a01573"},"vehicle_type_id":"4","last_reported":1723752532,"current_range_meters":28800,"station_id":"ce4bgpp2rcd13ifvqc3g","pricing_plan_id":"cebpf4jnsgd1na2vs0mg"},{"bike_id":"6622da98-77d6-4979-84bf-64bee6e89712","system_id":"levelo_inurba_marseille","lat":43.305364,"lon":5.384119,"is_reserved":false,"is_disabled":false,"rental_uris":{"android":"levelo://app?vid=6622da98-77d6-4979-84bf-64bee6e89712","ios":"levelo://app?vid=6622da98-77d6-4979-84bf-64bee6e89712"},"vehicle_type_id":"4","last_reported":1723752532,"current_range_meters":31200,"station_id":"ce4bgg92rcd13ifvqb30","pricing_plan_id":"cebpf4jnsgd1na2vs0mg"},{"bike_id":"c08dc808-5d4e-43e4-bc37-aee579e0ac73","system_id":"levelo_inurba_marseille","lat":43.299284,"lon":5.374906,"is_reserved":false,"is_disabled":false,"rental_uris":{"android":"levelo://app?vid=c08dc808-5d4e-43e4-bc37-aee579e0ac73","ios":"levelo://app?vid=c08dc808-5d4e-43e4-bc37-aee579e0ac73"},"vehicle_type_id":"4","last_reported":1723752532,"current_range_meters":20400,"station_id":"ce4bgjh2rcd13ifvqbg0","pricing_plan_id":"cebpf4jnsgd1na2vs0mg"},{"bike_id":"6aec0658-e0dc-44d5-9ad0-fae46922d54f","system_id":"levelo_inurba_marseille","lat":43.305245,"lon":5.384285,"is_reserved":false,"is_disabled":false,"rental_uris":{"android":"levelo://app?vid=6aec0658-e0dc-44d5-9ad0-fae46922d54f","ios":"levelo://app?vid=6aec0658-e0dc-44d5-9ad0-fae46922d54f"},"vehicle_type_id":"4","last_reported":1723752532,"current_range_meters":20800,"station_id":"ce4bgg92rcd13ifvqb30","pricing_plan_id":"cebpf4jnsgd1na2vs0mg"},{"bike_id":"3782859f-627a-4378-941a-fd82badcb252","system_id":"levelo_inurba_marseille","lat":43.299243,"lon":5.37481,"is_reserved":false,"is_disabled":false,"rental_uris":{"android":"levelo://app?vid=3782859f-627a-4378-941a-fd82badcb252","ios":"levelo://app?vid=3782859f-627a-4378-941a-fd82badcb252"},"vehicle_type_id":"4","last_reported":1723752532,"current_range_meters":20400,"station_id":"ce4bgjh2rcd13ifvqbg0","pricing_plan_id":"cebpf4jnsgd1na2vs0mg"},{"bike_id":"ed37e321-0fbd-4c16-8062-6dd6ad59d9f3","system_id":"levelo_inurba_marseille","lat":43.299243,"lon":5.37481,"is_reserved":false,"is_disabled":false,"rental_uris":{"android":"levelo://app?vid=ed37e321-0fbd-4c16-8062-6dd6ad59d9f3","ios":"levelo://app?vid=ed37e321-0fbd-4c16-8062-6dd6ad59d9f3"},"vehicle_type_id":"4","last_reported":1723752532,"current_range_meters":18400,"station_id":"ce4bgjh2rcd13ifvqbg0","pricing_plan_id":"cebpf4jnsgd1na2vs0mg"},{"bike_id":"fd23fb12-523c-414f-9428-a278f97ddf9c","system_id":"levelo_inurba_marseille","lat":43.311722,"lon":5.387247,"is_reserved":false,"is_disabled":false,"rental_uris":{"android":"levelo://app?vid=fd23fb12-523c-414f-9428-a278f97ddf9c","ios":"levelo://app?vid=fd23fb12-523c-414f-9428-a278f97ddf9c"},"vehicle_type_id":"4","last_reported":1723752532,"current_range_meters":13200,"station_id":"ce4bgv12rcd13ifvqcp0","pricing_plan_id":"cebpf4jnsgd1na2vs0mg"},{"bike_id":"c5508284-c6ae-4674-bfa1-d2f93b6054f5","system_id":"levelo_inurba_marseille","lat":43.299243,"lon":5.37481,"is_reserved":false,"is_disabled":false,"rental_uris":{"android":"levelo://app?vid=c5508284-c6ae-4674-bfa1-d2f93b6054f5","ios":"levelo://app?vid=c5508284-c6ae-4674-bfa1-d2f93b6054f5"},"vehicle_type_id":"4","last_reported":1723752532,"current_range_meters":15200,"station_id":"ce4bgjh2rcd13ifvqbg0","pricing_plan_id":"cebpf4jnsgd1na2vs0mg"},{"bike_id":"c7f0eeac-1716-46dd-af09-8592bd1dc3eb","system_id":"levelo_inurba_marseille","lat":43.299243,"lon":5.374807,"is_reserved":false,"is_disabled":false,"rental_uris":{"android":"levelo://app?vid=c7f0eeac-1716-46dd-af09-8592bd1dc3eb","ios":"levelo://app?vid=c7f0eeac-1716-46dd-af09-8592bd1dc3eb"},"vehicle_type_id":"4","last_reported":1723752532,"current_range_meters":20000,"station_id":"ce4bgjh2rcd13ifvqbg0","pricing_plan_id":"cebpf4jnsgd1na2vs0mg"},{"bike_id":"a3fe6ff3-53f9-41ae-a557-86a7b0e1a29e","system_id":"levelo_inurba_marseille","lat":43.299243,"lon":5.374807,"is_reserved":false,"is_disabled":false,"rental_uris":{"android":"levelo://app?vid=a3fe6ff3-53f9-41ae-a557-86a7b0e1a29e","ios":"levelo://app?vid=a3fe6ff3-53f9-41ae-a557-86a7b0e1a29e"},"vehicle_type_id":"4","last_reported":1723752532,"current_range_meters":27200,"station_id":"ce4bgjh2rcd13ifvqbg0","pricing_plan_id":"cebpf4jnsgd1na2vs0mg"},{"bike_id":"a8327544-4028-4b83-8a77-4fbdf7c3d810","system_id":"levelo_inurba_marseille","lat":43.301556,"lon":5.380782,"is_reserved":false,"is_disabled":false,"rental_uris":{"android":"levelo://app?vid=a8327544-4028-4b83-8a77-4fbdf7c3d810","ios":"levelo://app?vid=a8327544-4028-4b83-8a77-4fbdf7c3d810"},"vehicle_type_id":"4","last_reported":1723752532,"current_range_meters":12400,"station_id":"","pricing_plan_id":"cebpf4jnsgd1na2vs0mg"},{"bike_id":"5b93402f-563b-47b6-b621-08a5349d4927","system_id":"levelo_inurba_marseille","lat":43.29783,"lon":5.37101,"is_reserved":false,"is_disabled":false,"rental_uris":{"android":"levelo://app?vid=5b93402f-563b-47b6-b621-08a5349d4927","ios":"levelo://app?vid=5b93402f-563b-47b6-b621-08a5349d4927"},"vehicle_type_id":"4","last_reported":1723752532,"current_range_meters":14400,"station_id":"ce4bgop2rcd13ifvqc1g","pricing_plan_id":"cebpf4jnsgd1na2vs0mg"},{"bike_id":"19bb504b-ca3e-473a-8611-439d16af6f5c","system_id":"levelo_inurba_marseille","lat":43.297774,"lon":5.370875,"is_reserved":false,"is_disabled":false,"rental_uris":{"android":"levelo://app?vid=19bb504b-ca3e-473a-8611-439d16af6f5c","ios":"levelo://app?vid=19bb504b-ca3e-473a-8611-439d16af6f5c"},"vehicle_type_id":"4","last_reported":1723752532,"current_range_meters":24400,"station_id":"ce4bgop2rcd13ifvqc1g","pricing_plan_id":"cebpf4jnsgd1na2vs0mg"},{"bike_id":"93eada3b-a0ce-4689-aa08-a8093bf2a509","system_id":"levelo_inurba_marseille","lat":43.297794,"lon":5.370888,"is_reserved":false,"is_disabled":false,"rental_uris":{"android":"levelo://app?vid=93eada3b-a0ce-4689-aa08-a8093bf2a509","ios":"levelo://app?vid=93eada3b-a0ce-4689-aa08-a8093bf2a509"},"vehicle_type_id":"4","last_reported":1723752532,"current_range_meters":10000,"station_id":"ce4bgop2rcd13ifvqc1g","pricing_plan_id":"cebpf4jnsgd1na2vs0mg"},{"bike_id":"1899b9a9-2917-4623-ad8d-ac9c1179a318","system_id":"levelo_inurba_marseille","lat":43.322925,"lon":5.382555,"is_reserved":false,"is_disabled":false,"rental_uris":{"android":"levelo://app?vid=1899b9a9-2917-4623-ad8d-ac9c1179a318","ios":"levelo://app?vid=1899b9a9-2917-4623-ad8d-ac9c1179a318"},"vehicle_type_id":"4","last_reported":1723752532,"current_range_meters":27600,"station_id":"ce4bhr12rcd13ifvqhqg","pricing_plan_id":"cebpf4jnsgd1na2vs0mg"},{"bike_id":"96e8e184-dca9-4791-822b-5ee5f3e47cf8","system_id":"levelo_inurba_marseille","lat":43.32286,"lon":5.38275,"is_reserved":false,"is_disabled":false,"rental_uris":{"android":"levelo://app?vid=96e8e184-dca9-4791-822b-5ee5f3e47cf8","ios":"levelo://app?vid=96e8e184-dca9-4791-822b-5ee5f3e47cf8"},"vehicle_type_id":"4","last_reported":1723752532,"current_range_meters":26400,"station_id":"ce4bhr12rcd13ifvqhqg","pricing_plan_id":"cebpf4jnsgd1na2vs0mg"},{"bike_id":"62034c6e-8339-4b8c-b8ff-07d0e1cb2e5c","system_id":"levelo_inurba_marseille","lat":43.322872,"lon":5.382756,"is_reserved":false,"is_disabled":false,"rental_uris":{"android":"levelo://app?vid=62034c6e-8339-4b8c-b8ff-07d0e1cb2e5c","ios":"levelo://app?vid=62034c6e-8339-4b8c-b8ff-07d0e1cb2e5c"},"vehicle_type_id":"4","last_reported":1723752532,"current_range_meters":20000,"station_id":"ce4bhr12rcd13ifvqhqg","pricing_plan_id":"cebpf4jnsgd1na2vs0mg"},{"bike_id":"9f252c98-de7a-4a8e-9bfa-8a289f57526f","system_id":"levelo_inurba_marseille","lat":43.297794,"lon":5.370888,"is_reserved":false,"is_disabled":false,"rental_uris":{"android":"levelo://app?vid=9f252c98-de7a-4a8e-9bfa-8a289f57526f","ios":"levelo://app?vid=9f252c98-de7a-4a8e-9bfa-8a289f57526f"},"vehicle_type_id":"4","last_reported":1723752532,"current_range_meters":29600,"station_id":"ce4bgop2rcd13ifvqc1g","pricing_plan_id":"cebpf4jnsgd1na2vs0mg"},{"bike_id":"6aedd08f-232a-4f3c-9f3e-ac76a70f94d5","system_id":"levelo_inurba_marseille","lat":43.322872,"lon":5.382756,"is_reserved":false,"is_disabled":false,"rental_uris":{"android":"levelo://app?vid=6aedd08f-232a-4f3c-9f3e-ac76a70f94d5","ios":"levelo://app?vid=6aedd08f-232a-4f3c-9f3e-ac76a70f94d5"},"vehicle_type_id":"4","last_reported":1723752532,"current_range_meters":25600,"station_id":"ce4bhr12rcd13ifvqhqg","pricing_plan_id":"cebpf4jnsgd1na2vs0mg"},{"bike_id":"32f6cec8-0fa3-483d-89b5-687982e90d20","system_id":"levelo_inurba_marseille","lat":43.322872,"lon":5.382756,"is_reserved":false,"is_disabled":false,"rental_uris":{"android":"levelo://app?vid=32f6cec8-0fa3-483d-89b5-687982e90d20","ios":"levelo://app?vid=32f6cec8-0fa3-483d-89b5-687982e90d20"},"vehicle_type_id":"4","last_reported":1723752532,"current_range_meters":16000,"station_id":"ce4bhr12rcd13ifvqhqg","pricing_plan_id":"cebpf4jnsgd1na2vs0mg"},{"bike_id":"74c0cb5a-9951-4661-8039-5cf861ae0704","system_id":"levelo_inurba_marseille","lat":43.297268,"lon":5.368778,"is_reserved":false,"is_disabled":false,"rental_uris":{"android":"levelo://app?vid=74c0cb5a-9951-4661-8039-5cf861ae0704","ios":"levelo://app?vid=74c0cb5a-9951-4661-8039-5cf861ae0704"},"vehicle_type_id":"4","last_reported":1723752532,"current_range_meters":30800,"station_id":"","pricing_plan_id":"cebpf4jnsgd1na2vs0mg"},{"bike_id":"ba534199-60e8-4041-844e-9fd4d30b3eb3","system_id":"levelo_inurba_marseille","lat":43.297164,"lon":5.36877,"is_reserved":false,"is_disabled":false,"rental_uris":{"android":"levelo://app?vid=ba534199-60e8-4041-844e-9fd4d30b3eb3","ios":"levelo://app?vid=ba534199-60e8-4041-844e-9fd4d30b3eb3"},"vehicle_type_id":"4","last_reported":1723752532,"current_range_meters":23200,"station_id":"","pricing_plan_id":"cebpf4jnsgd1na2vs0mg"},{"bike_id":"c551fa67-52c6-4ef6-b8db-7d27ab1c3cab","system_id":"levelo_inurba_marseille","lat":43.2968,"lon":5.37291,"is_reserved":false,"is_disabled":false,"rental_uris":{"android":"levelo://app?vid=c551fa67-52c6-4ef6-b8db-7d27ab1c3cab","ios":"levelo://app?vid=c551fa67-52c6-4ef6-b8db-7d27ab1c3cab"},"vehicle_type_id":"4","last_reported":1723752532,"current_range_meters":24000,"station_id":"ce4bgk12rcd13ifvqbj0","pricing_plan_id":"cebpf4jnsgd1na2vs0mg"},{"bike_id":"468d4b90-2058-48bb-a931-04827b3cb8f3","system_id":"levelo_inurba_marseille","lat":43.322133,"lon":5.38563,"is_reserved":false,"is_disabled":false,"rental_uris":{"android":"levelo://app?vid=468d4b90-2058-48bb-a931-04827b3cb8f3","ios":"levelo://app?vid=468d4b90-2058-48bb-a931-04827b3cb8f3"},"vehicle_type_id":"4","last_reported":1723752532,"current_range_meters":28800,"station_id":"","pricing_plan_id":"cebpf4jnsgd1na2vs0mg"},{"bike_id":"4861d65a-6b84-4f10-a1ae-a4e2c24323fb","system_id":"levelo_inurba_marseille","lat":43.32369,"lon":5.38425,"is_reserved":false,"is_disabled":false,"rental_uris":{"android":"levelo://app?vid=4861d65a-6b84-4f10-a1ae-a4e2c24323fb","ios":"levelo://app?vid=4861d65a-6b84-4f10-a1ae-a4e2c24323fb"},"vehicle_type_id":"4","last_reported":1723752532,"current_range_meters":24000,"station_id":"","pricing_plan_id":"cebpf4jnsgd1na2vs0mg"},{"bike_id":"ae051e73-b05e-492b-b995-17a4fb88880c","system_id":"levelo_inurba_marseille","lat":43.29573,"lon":5.367355,"is_reserved":false,"is_disabled":false,"rental_uris":{"android":"levelo://app?vid=ae051e73-b05e-492b-b995-17a4fb88880c","ios":"levelo://app?vid=ae051e73-b05e-492b-b995-17a4fb88880c"},"vehicle_type_id":"4","last_reported":1723752532,"current_range_meters":15600,"station_id":"ce4bgph2rcd13ifvqc2g","pricing_plan_id":"cebpf4jnsgd1na2vs0mg"},{"bike_id":"27de7344-b19d-4642-8bb3-4d33a24ab704","system_id":"levelo_inurba_marseille","lat":43.29573,"lon":5.367355,"is_reserved":false,"is_disabled":false,"rental_uris":{"android":"levelo://app?vid=27de7344-b19d-4642-8bb3-4d33a24ab704","ios":"levelo://app?vid=27de7344-b19d-4642-8bb3-4d33a24ab704"},"vehicle_type_id":"4","last_reported":1723752532,"current_range_meters":19600,"station_id":"ce4bgph2rcd13ifvqc2g","pricing_plan_id":"cebpf4jnsgd1na2vs0mg"},{"bike_id":"bda570b4-aa30-4c9b-91b9-364ba18bd273","system_id":"levelo_inurba_marseille","lat":43.29573,"lon":5.367355,"is_reserved":false,"is_disabled":false,"rental_uris":{"android":"levelo://app?vid=bda570b4-aa30-4c9b-91b9-364ba18bd273","ios":"levelo://app?vid=bda570b4-aa30-4c9b-91b9-364ba18bd273"},"vehicle_type_id":"4","last_reported":1723752532,"current_range_meters":28800,"station_id":"ce4bgph2rcd13ifvqc2g","pricing_plan_id":"cebpf4jnsgd1na2vs0mg"},{"bike_id":"2c640212-d521-44d4-bbbe-db218cda4b8f","system_id":"levelo_inurba_marseille","lat":43.296131,"lon":5.370773,"is_reserved":false,"is_disabled":false,"rental_uris":{"android":"levelo://app?vid=2c640212-d521-44d4-bbbe-db218cda4b8f","ios":"levelo://app?vid=2c640212-d521-44d4-bbbe-db218cda4b8f"},"vehicle_type_id":"4","last_reported":1723752532,"current_range_meters":26400,"station_id":"ce4bgnh2rcd13ifvqc0g","pricing_plan_id":"cebpf4jnsgd1na2vs0mg"},{"bike_id":"030f8a3f-37dc-48ee-8d76-cdb2a03295bd","system_id":"levelo_inurba_marseille","lat":43.29573,"lon":5.367355,"is_reserved":false,"is_disabled":false,"rental_uris":{"android":"levelo://app?vid=030f8a3f-37dc-48ee-8d76-cdb2a03295bd","ios":"levelo://app?vid=030f8a3f-37dc-48ee-8d76-cdb2a03295bd"},"vehicle_type_id":"4","last_reported":1723752532,"current_range_meters":14400,"station_id":"ce4bgph2rcd13ifvqc2g","pricing_plan_id":"cebpf4jnsgd1na2vs0mg"},{"bike_id":"726943a9-0b8e-4838-b7d1-c3f424f54058","system_id":"levelo_inurba_marseille","lat":43.29573,"lon":5.367355,"is_reserved":false,"is_disabled":false,"rental_uris":{"android":"levelo://app?vid=726943a9-0b8e-4838-b7d1-c3f424f54058","ios":"levelo://app?vid=726943a9-0b8e-4838-b7d1-c3f424f54058"},"vehicle_type_id":"4","last_reported":1723752532,"current_range_meters":14800,"station_id":"ce4bgph2rcd13ifvqc2g","pricing_plan_id":"cebpf4jnsgd1na2vs0mg"},{"bike_id":"56c9c0d5-bcc8-4fa7-a809-d94ba6f08e36","system_id":"levelo_inurba_marseille","lat":43.296935,"lon":5.376544,"is_reserved":false,"is_disabled":false,"rental_uris":{"android":"levelo://app?vid=56c9c0d5-bcc8-4fa7-a809-d94ba6f08e36","ios":"levelo://app?vid=56c9c0d5-bcc8-4fa7-a809-d94ba6f08e36"},"vehicle_type_id":"4","last_reported":1723752532,"current_range_meters":32000,"station_id":"ce4bgkh2rcd13ifvqbl0","pricing_plan_id":"cebpf4jnsgd1na2vs0mg"},{"bike_id":"209d82bf-a0a5-4fbc-ab01-bb3cf716a79a","system_id":"levelo_inurba_marseille","lat":43.32885,"lon":5.35906,"is_reserved":false,"is_disabled":false,"rental_uris":{"android":"levelo://app?vid=209d82bf-a0a5-4fbc-ab01-bb3cf716a79a","ios":"levelo://app?vid=209d82bf-a0a5-4fbc-ab01-bb3cf716a79a"},"vehicle_type_id":"4","last_reported":1723752532,"current_range_meters":18800,"station_id":"","pricing_plan_id":"cebpf4jnsgd1na2vs0mg"},{"bike_id":"c0604c18-a45e-4392-a9cc-cf0707d73627","system_id":"levelo_inurba_marseille","lat":43.296921,"lon":5.376579,"is_reserved":false,"is_disabled":false,"rental_uris":{"android":"levelo://app?vid=c0604c18-a45e-4392-a9cc-cf0707d73627","ios":"levelo://app?vid=c0604c18-a45e-4392-a9cc-cf0707d73627"},"vehicle_type_id":"4","last_reported":1723752532,"current_range_meters":6400,"station_id":"ce4bgkh2rcd13ifvqbl0","pricing_plan_id":"cebpf4jnsgd1na2vs0mg"},{"bike_id":"836a5817-41dd-42cd-86aa-3fa85ef4da23","system_id":"levelo_inurba_marseille","lat":43.299028,"lon":5.381509,"is_reserved":false,"is_disabled":false,"rental_uris":{"android":"levelo://app?vid=836a5817-41dd-42cd-86aa-3fa85ef4da23","ios":"levelo://app?vid=836a5817-41dd-42cd-86aa-3fa85ef4da23"},"vehicle_type_id":"4","last_reported":1723752532,"current_range_meters":29600,"station_id":"ce4bgj12rcd13ifvqbc0","pricing_plan_id":"cebpf4jnsgd1na2vs0mg"},{"bike_id":"9fccf30e-435a-44fb-9d6b-c2f825eaa3d3","system_id":"levelo_inurba_marseille","lat":43.309589,"lon":5.390258,"is_reserved":false,"is_disabled":false,"rental_uris":{"android":"levelo://app?vid=9fccf30e-435a-44fb-9d6b-c2f825eaa3d3","ios":"levelo://app?vid=9fccf30e-435a-44fb-9d6b-c2f825eaa3d3"},"vehicle_type_id":"4","last_reported":1723752532,"current_range_meters":28400,"station_id":"ce4bgup2rcd13ifvqco0","pricing_plan_id":"cebpf4jnsgd1na2vs0mg"},{"bike_id":"db054416-262c-4661-9c94-94cf0d983f9c","system_id":"levelo_inurba_marseille","lat":43.299028,"lon":5.381509,"is_reserved":false,"is_disabled":false,"rental_uris":{"android":"levelo://app?vid=db054416-262c-4661-9c94-94cf0d983f9c","ios":"levelo://app?vid=db054416-262c-4661-9c94-94cf0d983f9c"},"vehicle_type_id":"4","last_reported":1723752532,"current_range_meters":31200,"station_id":"ce4bgj12rcd13ifvqbc0","pricing_plan_id":"cebpf4jnsgd1na2vs0mg"},{"bike_id":"3c3d515b-5317-44b0-97c1-f9ccbbdefdac","system_id":"levelo_inurba_marseille","lat":43.296935,"lon":5.376544,"is_reserved":false,"is_disabled":false,"rental_uris":{"android":"levelo://app?vid=3c3d515b-5317-44b0-97c1-f9ccbbdefdac","ios":"levelo://app?vid=3c3d515b-5317-44b0-97c1-f9ccbbdefdac"},"vehicle_type_id":"4","last_reported":1723752532,"current_range_meters":24800,"station_id":"ce4bgkh2rcd13ifvqbl0","pricing_plan_id":"cebpf4jnsgd1na2vs0mg"},{"bike_id":"4ba398cb-c71d-4b37-87d2-c1616002bcef","system_id":"levelo_inurba_marseille","lat":43.299028,"lon":5.381509,"is_reserved":false,"is_disabled":false,"rental_uris":{"android":"levelo://app?vid=4ba398cb-c71d-4b37-87d2-c1616002bcef","ios":"levelo://app?vid=4ba398cb-c71d-4b37-87d2-c1616002bcef"},"vehicle_type_id":"4","last_reported":1723752532,"current_range_meters":15600,"station_id":"ce4bgj12rcd13ifvqbc0","pricing_plan_id":"cebpf4jnsgd1na2vs0mg"},{"bike_id":"27e0792d-abe4-476f-aa00-33c8c3205d00","system_id":"levelo_inurba_marseille","lat":43.309589,"lon":5.390258,"is_reserved":false,"is_disabled":false,"rental_uris":{"android":"levelo://app?vid=27e0792d-abe4-476f-aa00-33c8c3205d00","ios":"levelo://app?vid=27e0792d-abe4-476f-aa00-33c8c3205d00"},"vehicle_type_id":"4","last_reported":1723752532,"current_range_meters":26400,"station_id":"ce4bgup2rcd13ifvqco0","pricing_plan_id":"cebpf4jnsgd1na2vs0mg"},{"bike_id":"a2df2ae7-57be-46e5-aed6-4f5f173e86d0","system_id":"levelo_inurba_marseille","lat":43.309589,"lon":5.390258,"is_reserved":false,"is_disabled":false,"rental_uris":{"android":"levelo://app?vid=a2df2ae7-57be-46e5-aed6-4f5f173e86d0","ios":"levelo://app?vid=a2df2ae7-57be-46e5-aed6-4f5f173e86d0"},"vehicle_type_id":"4","last_reported":1723752532,"current_range_meters":9600,"station_id":"ce4bgup2rcd13ifvqco0","pricing_plan_id":"cebpf4jnsgd1na2vs0mg"},{"bike_id":"dd60d82e-39c0-45ca-8067-d0df336987b0","system_id":"levelo_inurba_marseille","lat":43.299028,"lon":5.381509,"is_reserved":false,"is_disabled":false,"rental_uris":{"android":"levelo://app?vid=dd60d82e-39c0-45ca-8067-d0df336987b0","ios":"levelo://app?vid=dd60d82e-39c0-45ca-8067-d0df336987b0"},"vehicle_type_id":"4","last_reported":1723752532,"current_range_meters":31200,"station_id":"ce4bgj12rcd13ifvqbc0","pricing_plan_id":"cebpf4jnsgd1na2vs0mg"},{"bike_id":"8deb223b-0888-4e76-809d-b630cc62d3bb","system_id":"levelo_inurba_marseille","lat":43.309589,"lon":5.390258,"is_reserved":false,"is_disabled":false,"rental_uris":{"android":"levelo://app?vid=8deb223b-0888-4e76-809d-b630cc62d3bb","ios":"levelo://app?vid=8deb223b-0888-4e76-809d-b630cc62d3bb"},"vehicle_type_id":"4","last_reported":1723752532,"current_range_meters":9200,"station_id":"ce4bgup2rcd13ifvqco0","pricing_plan_id":"cebpf4jnsgd1na2vs0mg"},{"bike_id":"3fd75c90-c39c-4ac2-96b2-d62369bbc6dd","system_id":"levelo_inurba_marseille","lat":43.31754,"lon":5.39014,"is_reserved":false,"is_disabled":false,"rental_uris":{"android":"levelo://app?vid=3fd75c90-c39c-4ac2-96b2-d62369bbc6dd","ios":"levelo://app?vid=3fd75c90-c39c-4ac2-96b2-d62369bbc6dd"},"vehicle_type_id":"4","last_reported":1723752532,"current_range_meters":22000,"station_id":"ce4bhqp2rcd13ifvqhng","pricing_plan_id":"cebpf4jnsgd1na2vs0mg"},{"bike_id":"4ab5d0b2-c8a0-4186-874f-be740f17dddd","system_id":"levelo_inurba_marseille","lat":43.317557,"lon":5.390173,"is_reserved":false,"is_disabled":false,"rental_uris":{"android":"levelo://app?vid=4ab5d0b2-c8a0-4186-874f-be740f17dddd","ios":"levelo://app?vid=4ab5d0b2-c8a0-4186-874f-be740f17dddd"},"vehicle_type_id":"4","last_reported":1723752532,"current_range_meters":30400,"station_id":"ce4bhqp2rcd13ifvqhng","pricing_plan_id":"cebpf4jnsgd1na2vs0mg"},{"bike_id":"3eadd705-ee72-4764-b78a-dbf0c491cb26","system_id":"levelo_inurba_marseille","lat":43.31755,"lon":5.39021,"is_reserved":false,"is_disabled":false,"rental_uris":{"android":"levelo://app?vid=3eadd705-ee72-4764-b78a-dbf0c491cb26","ios":"levelo://app?vid=3eadd705-ee72-4764-b78a-dbf0c491cb26"},"vehicle_type_id":"4","last_reported":1723752532,"current_range_meters":20400,"station_id":"ce4bhqp2rcd13ifvqhng","pricing_plan_id":"cebpf4jnsgd1na2vs0mg"},{"bike_id":"17051b0d-e844-42ce-8d09-91aa8b916288","system_id":"levelo_inurba_marseille","lat":43.317557,"lon":5.390173,"is_reserved":false,"is_disabled":false,"rental_uris":{"android":"levelo://app?vid=17051b0d-e844-42ce-8d09-91aa8b916288","ios":"levelo://app?vid=17051b0d-e844-42ce-8d09-91aa8b916288"},"vehicle_type_id":"4","last_reported":1723752532,"current_range_meters":31200,"station_id":"ce4bhqp2rcd13ifvqhng","pricing_plan_id":"cebpf4jnsgd1na2vs0mg"},{"bike_id":"db019ba9-1d63-40a3-8077-d61cef282848","system_id":"levelo_inurba_marseille","lat":43.317557,"lon":5.390173,"is_reserved":false,"is_disabled":false,"rental_uris":{"android":"levelo://app?vid=db019ba9-1d63-40a3-8077-d61cef282848","ios":"levelo://app?vid=db019ba9-1d63-40a3-8077-d61cef282848"},"vehicle_type_id":"4","last_reported":1723752532,"current_range_meters":17200,"station_id":"ce4bhqp2rcd13ifvqhng","pricing_plan_id":"cebpf4jnsgd1na2vs0mg"},{"bike_id":"864dbf84-46a8-4a39-9e14-a484ee7bed9e","system_id":"levelo_inurba_marseille","lat":43.29747,"lon":5.37937,"is_reserved":false,"is_disabled":false,"rental_uris":{"android":"levelo://app?vid=864dbf84-46a8-4a39-9e14-a484ee7bed9e","ios":"levelo://app?vid=864dbf84-46a8-4a39-9e14-a484ee7bed9e"},"vehicle_type_id":"4","last_reported":1723752532,"current_range_meters":23200,"station_id":"","pricing_plan_id":"cebpf4jnsgd1na2vs0mg"},{"bike_id":"1bfb38ec-0715-42a0-b3b3-1e781030e6a5","system_id":"levelo_inurba_marseille","lat":43.295748,"lon":5.37522,"is_reserved":false,"is_disabled":false,"rental_uris":{"android":"levelo://app?vid=1bfb38ec-0715-42a0-b3b3-1e781030e6a5","ios":"levelo://app?vid=1bfb38ec-0715-42a0-b3b3-1e781030e6a5"},"vehicle_type_id":"4","last_reported":1723752532,"current_range_meters":0,"station_id":"ce4bgh92rcd13ifvqb50","pricing_plan_id":"cebpf4jnsgd1na2vs0mg"},{"bike_id":"bdd8cf69-57cc-4926-9f5f-426041d8381f","system_id":"levelo_inurba_marseille","lat":43.295748,"lon":5.37522,"is_reserved":false,"is_disabled":false,"rental_uris":{"android":"levelo://app?vid=bdd8cf69-57cc-4926-9f5f-426041d8381f","ios":"levelo://app?vid=bdd8cf69-57cc-4926-9f5f-426041d8381f"},"vehicle_type_id":"4","last_reported":1723752532,"current_range_meters":18400,"station_id":"ce4bgh92rcd13ifvqb50","pricing_plan_id":"cebpf4jnsgd1na2vs0mg"},{"bike_id":"093110c0-bf5a-47d7-9e5e-8eb7c2038eff","system_id":"levelo_inurba_marseille","lat":43.295748,"lon":5.37522,"is_reserved":false,"is_disabled":false,"rental_uris":{"android":"levelo://app?vid=093110c0-bf5a-47d7-9e5e-8eb7c2038eff","ios":"levelo://app?vid=093110c0-bf5a-47d7-9e5e-8eb7c2038eff"},"vehicle_type_id":"4","last_reported":1723752532,"current_range_meters":11200,"station_id":"ce4bgh92rcd13ifvqb50","pricing_plan_id":"cebpf4jnsgd1na2vs0mg"},{"bike_id":"926d5816-a2ec-4114-8a1e-0bad310d1c02","system_id":"levelo_inurba_marseille","lat":43.295748,"lon":5.37522,"is_reserved":false,"is_disabled":false,"rental_uris":{"android":"levelo://app?vid=926d5816-a2ec-4114-8a1e-0bad310d1c02","ios":"levelo://app?vid=926d5816-a2ec-4114-8a1e-0bad310d1c02"},"vehicle_type_id":"4","last_reported":1723752532,"current_range_meters":3200,"station_id":"ce4bgh92rcd13ifvqb50","pricing_plan_id":"cebpf4jnsgd1na2vs0mg"},{"bike_id":"e52439e7-44a8-40c2-a46d-5335d7e4ac20","system_id":"levelo_inurba_marseille","lat":43.295748,"lon":5.37522,"is_reserved":false,"is_disabled":false,"rental_uris":{"android":"levelo://app?vid=e52439e7-44a8-40c2-a46d-5335d7e4ac20","ios":"levelo://app?vid=e52439e7-44a8-40c2-a46d-5335d7e4ac20"},"vehicle_type_id":"4","last_reported":1723752532,"current_range_meters":25200,"station_id":"ce4bgh92rcd13ifvqb50","pricing_plan_id":"cebpf4jnsgd1na2vs0mg"},{"bike_id":"ba01a37f-86fb-4ad0-8b8a-750d04176f9a","system_id":"levelo_inurba_marseille","lat":43.304278,"lon":5.388868,"is_reserved":false,"is_disabled":false,"rental_uris":{"android":"levelo://app?vid=ba01a37f-86fb-4ad0-8b8a-750d04176f9a","ios":"levelo://app?vid=ba01a37f-86fb-4ad0-8b8a-750d04176f9a"},"vehicle_type_id":"4","last_reported":1723752532,"current_range_meters":30800,"station_id":"ce4bgk12rcd13ifvqbi0","pricing_plan_id":"cebpf4jnsgd1na2vs0mg"},{"bike_id":"b7ccb3a5-3714-4c14-8d4a-6da433d6135c","system_id":"levelo_inurba_marseille","lat":43.296263,"lon":5.377094,"is_reserved":false,"is_disabled":false,"rental_uris":{"android":"levelo://app?vid=b7ccb3a5-3714-4c14-8d4a-6da433d6135c","ios":"levelo://app?vid=b7ccb3a5-3714-4c14-8d4a-6da433d6135c"},"vehicle_type_id":"4","last_reported":1723752532,"current_range_meters":16000,"station_id":"ce4bgi92rcd13ifvqb90","pricing_plan_id":"cebpf4jnsgd1na2vs0mg"},{"bike_id":"08828d12-374a-4e1b-9d4d-986575c7daff","system_id":"levelo_inurba_marseille","lat":43.304278,"lon":5.388868,"is_reserved":false,"is_disabled":false,"rental_uris":{"android":"levelo://app?vid=08828d12-374a-4e1b-9d4d-986575c7daff","ios":"levelo://app?vid=08828d12-374a-4e1b-9d4d-986575c7daff"},"vehicle_type_id":"4","last_reported":1723752532,"current_range_meters":31200,"station_id":"ce4bgk12rcd13ifvqbi0","pricing_plan_id":"cebpf4jnsgd1na2vs0mg"},{"bike_id":"a3bed14a-a27b-410e-b6da-2728e5f6979f","system_id":"levelo_inurba_marseille","lat":43.304274,"lon":5.388873,"is_reserved":false,"is_disabled":false,"rental_uris":{"android":"levelo://app?vid=a3bed14a-a27b-410e-b6da-2728e5f6979f","ios":"levelo://app?vid=a3bed14a-a27b-410e-b6da-2728e5f6979f"},"vehicle_type_id":"4","last_reported":1723752532,"current_range_meters":31600,"station_id":"ce4bgk12rcd13ifvqbi0","pricing_plan_id":"cebpf4jnsgd1na2vs0mg"},{"bike_id":"0838220d-a56e-415a-b4ec-711fe6d1c3ef","system_id":"levelo_inurba_marseille","lat":43.304278,"lon":5.388868,"is_reserved":false,"is_disabled":false,"rental_uris":{"android":"levelo://app?vid=0838220d-a56e-415a-b4ec-711fe6d1c3ef","ios":"levelo://app?vid=0838220d-a56e-415a-b4ec-711fe6d1c3ef"},"vehicle_type_id":"4","last_reported":1723752532,"current_range_meters":21600,"station_id":"ce4bgk12rcd13ifvqbi0","pricing_plan_id":"cebpf4jnsgd1na2vs0mg"},{"bike_id":"549fcdb5-444a-4bc9-aeca-be6da404b280","system_id":"levelo_inurba_marseille","lat":43.29569,"lon":5.37524,"is_reserved":false,"is_disabled":false,"rental_uris":{"android":"levelo://app?vid=549fcdb5-444a-4bc9-aeca-be6da404b280","ios":"levelo://app?vid=549fcdb5-444a-4bc9-aeca-be6da404b280"},"vehicle_type_id":"4","last_reported":1723752532,"current_range_meters":6400,"station_id":"ce4bgh92rcd13ifvqb50","pricing_plan_id":"cebpf4jnsgd1na2vs0mg"},{"bike_id":"83f7f9ac-edde-4899-8277-641438842db1","system_id":"levelo_inurba_marseille","lat":43.304278,"lon":5.388868,"is_reserved":false,"is_disabled":false,"rental_uris":{"android":"levelo://app?vid=83f7f9ac-edde-4899-8277-641438842db1","ios":"levelo://app?vid=83f7f9ac-edde-4899-8277-641438842db1"},"vehicle_type_id":"4","last_reported":1723752532,"current_range_meters":19200,"station_id":"ce4bgk12rcd13ifvqbi0","pricing_plan_id":"cebpf4jnsgd1na2vs0mg"},{"bike_id":"0dbdec1c-084e-4fcb-8bdd-e8f1330c105c","system_id":"levelo_inurba_marseille","lat":43.304274,"lon":5.388873,"is_reserved":false,"is_disabled":false,"rental_uris":{"android":"levelo://app?vid=0dbdec1c-084e-4fcb-8bdd-e8f1330c105c","ios":"levelo://app?vid=0dbdec1c-084e-4fcb-8bdd-e8f1330c105c"},"vehicle_type_id":"4","last_reported":1723752532,"current_range_meters":20400,"station_id":"ce4bgk12rcd13ifvqbi0","pricing_plan_id":"cebpf4jnsgd1na2vs0mg"},{"bike_id":"bad7d291-b5b6-48e8-8afe-a29a4081680b","system_id":"levelo_inurba_marseille","lat":43.298037,"lon":5.381066,"is_reserved":false,"is_disabled":false,"rental_uris":{"android":"levelo://app?vid=bad7d291-b5b6-48e8-8afe-a29a4081680b","ios":"levelo://app?vid=bad7d291-b5b6-48e8-8afe-a29a4081680b"},"vehicle_type_id":"4","last_reported":1723752532,"current_range_meters":27600,"station_id":"ce4bgip2rcd13ifvqbb0","pricing_plan_id":"cebpf4jnsgd1na2vs0mg"},{"bike_id":"00ecd813-fa8f-40e1-b9db-9f62b6e72bbf","system_id":"levelo_inurba_marseille","lat":43.296277,"lon":5.377108,"is_reserved":false,"is_disabled":false,"rental_uris":{"android":"levelo://app?vid=00ecd813-fa8f-40e1-b9db-9f62b6e72bbf","ios":"levelo://app?vid=00ecd813-fa8f-40e1-b9db-9f62b6e72bbf"},"vehicle_type_id":"4","last_reported":1723752532,"current_range_meters":0,"station_id":"ce4bgi92rcd13ifvqb90","pricing_plan_id":"cebpf4jnsgd1na2vs0mg"},{"bike_id":"720aba61-401a-4169-966e-211dfe0a92ed","system_id":"levelo_inurba_marseille","lat":43.296263,"lon":5.377094,"is_reserved":false,"is_disabled":false,"rental_uris":{"android":"levelo://app?vid=720aba61-401a-4169-966e-211dfe0a92ed","ios":"levelo://app?vid=720aba61-401a-4169-966e-211dfe0a92ed"},"vehicle_type_id":"4","last_reported":1723752532,"current_range_meters":16400,"station_id":"ce4bgi92rcd13ifvqb90","pricing_plan_id":"cebpf4jnsgd1na2vs0mg"},{"bike_id":"8875135f-ab58-4145-8858-6374db1d4e76","system_id":"levelo_inurba_marseille","lat":43.296077,"lon":5.377173,"is_reserved":false,"is_disabled":false,"rental_uris":{"android":"levelo://app?vid=8875135f-ab58-4145-8858-6374db1d4e76","ios":"levelo://app?vid=8875135f-ab58-4145-8858-6374db1d4e76"},"vehicle_type_id":"4","last_reported":1723752532,"current_range_meters":17200,"station_id":"ce4bgi92rcd13ifvqb90","pricing_plan_id":"cebpf4jnsgd1na2vs0mg"},{"bike_id":"a5736d26-24a4-4dae-8f24-1ad03f29198f","system_id":"levelo_inurba_marseille","lat":43.29539,"lon":5.37495,"is_reserved":false,"is_disabled":false,"rental_uris":{"android":"levelo://app?vid=a5736d26-24a4-4dae-8f24-1ad03f29198f","ios":"levelo://app?vid=a5736d26-24a4-4dae-8f24-1ad03f29198f"},"vehicle_type_id":"4","last_reported":1723752532,"current_range_meters":4400,"station_id":"ce4bgkp2rcd13ifvqbmg","pricing_plan_id":"cebpf4jnsgd1na2vs0mg"},{"bike_id":"038f2c50-46a6-43b0-b668-1faec322a8d1","system_id":"levelo_inurba_marseille","lat":43.29979,"lon":5.38486,"is_reserved":false,"is_disabled":false,"rental_uris":{"android":"levelo://app?vid=038f2c50-46a6-43b0-b668-1faec322a8d1","ios":"levelo://app?vid=038f2c50-46a6-43b0-b668-1faec322a8d1"},"vehicle_type_id":"4","last_reported":1723752532,"current_range_meters":9600,"station_id":"ce4bgj92rcd13ifvqbd0","pricing_plan_id":"cebpf4jnsgd1na2vs0mg"},{"bike_id":"f13aff0c-7eeb-4c09-9267-bf72315253cc","system_id":"levelo_inurba_marseille","lat":43.299717,"lon":5.384845,"is_reserved":false,"is_disabled":false,"rental_uris":{"android":"levelo://app?vid=f13aff0c-7eeb-4c09-9267-bf72315253cc","ios":"levelo://app?vid=f13aff0c-7eeb-4c09-9267-bf72315253cc"},"vehicle_type_id":"4","last_reported":1723752532,"current_range_meters":31200,"station_id":"ce4bgj92rcd13ifvqbd0","pricing_plan_id":"cebpf4jnsgd1na2vs0mg"},{"bike_id":"50ba1bcc-225e-4bd5-b659-bb2f02c0be6d","system_id":"levelo_inurba_marseille","lat":43.299243,"lon":5.374807,"is_reserved":false,"is_disabled":false,"rental_uris":{"android":"levelo://app?vid=50ba1bcc-225e-4bd5-b659-bb2f02c0be6d","ios":"levelo://app?vid=50ba1bcc-225e-4bd5-b659-bb2f02c0be6d"},"vehicle_type_id":"4","last_reported":1723752532,"current_range_meters":17200,"station_id":"ce4bgjh2rcd13ifvqbg0","pricing_plan_id":"cebpf4jnsgd1na2vs0mg"},{"bike_id":"f1a53f31-91c2-461b-9ddb-834101ea8076","system_id":"levelo_inurba_marseille","lat":43.29975,"lon":5.38487,"is_reserved":false,"is_disabled":false,"rental_uris":{"android":"levelo://app?vid=f1a53f31-91c2-461b-9ddb-834101ea8076","ios":"levelo://app?vid=f1a53f31-91c2-461b-9ddb-834101ea8076"},"vehicle_type_id":"4","last_reported":1723752532,"current_range_meters":800,"station_id":"ce4bgj92rcd13ifvqbd0","pricing_plan_id":"cebpf4jnsgd1na2vs0mg"},{"bike_id":"5d8a0386-412f-4fc4-9b46-3dafead10027","system_id":"levelo_inurba_marseille","lat":43.299767,"lon":5.384937,"is_reserved":false,"is_disabled":false,"rental_uris":{"android":"levelo://app?vid=5d8a0386-412f-4fc4-9b46-3dafead10027","ios":"levelo://app?vid=5d8a0386-412f-4fc4-9b46-3dafead10027"},"vehicle_type_id":"4","last_reported":1723752532,"current_range_meters":15200,"station_id":"ce4bgj92rcd13ifvqbd0","pricing_plan_id":"cebpf4jnsgd1na2vs0mg"},{"bike_id":"990b3da0-74ae-4b58-a4aa-934911c97ac4","system_id":"levelo_inurba_marseille","lat":43.295279,"lon":5.375048,"is_reserved":false,"is_disabled":false,"rental_uris":{"android":"levelo://app?vid=990b3da0-74ae-4b58-a4aa-934911c97ac4","ios":"levelo://app?vid=990b3da0-74ae-4b58-a4aa-934911c97ac4"},"vehicle_type_id":"4","last_reported":1723752532,"current_range_meters":3600,"station_id":"ce4bgkp2rcd13ifvqbmg","pricing_plan_id":"cebpf4jnsgd1na2vs0mg"},{"bike_id":"2d583bf6-f12c-43d1-99e0-e933380ee72c","system_id":"levelo_inurba_marseille","lat":43.299707,"lon":5.384859,"is_reserved":false,"is_disabled":false,"rental_uris":{"android":"levelo://app?vid=2d583bf6-f12c-43d1-99e0-e933380ee72c","ios":"levelo://app?vid=2d583bf6-f12c-43d1-99e0-e933380ee72c"},"vehicle_type_id":"4","last_reported":1723752532,"current_range_meters":31200,"station_id":"ce4bgj92rcd13ifvqbd0","pricing_plan_id":"cebpf4jnsgd1na2vs0mg"},{"bike_id":"43fea45d-cf29-4471-a37c-35d0f5e0c6e7","system_id":"levelo_inurba_marseille","lat":43.299707,"lon":5.384859,"is_reserved":false,"is_disabled":false,"rental_uris":{"android":"levelo://app?vid=43fea45d-cf29-4471-a37c-35d0f5e0c6e7","ios":"levelo://app?vid=43fea45d-cf29-4471-a37c-35d0f5e0c6e7"},"vehicle_type_id":"4","last_reported":1723752532,"current_range_meters":31200,"station_id":"ce4bgj92rcd13ifvqbd0","pricing_plan_id":"cebpf4jnsgd1na2vs0mg"},{"bike_id":"23775696-d642-47ab-90c4-eb60021de809","system_id":"levelo_inurba_marseille","lat":43.29971,"lon":5.3849,"is_reserved":false,"is_disabled":false,"rental_uris":{"android":"levelo://app?vid=23775696-d642-47ab-90c4-eb60021de809","ios":"levelo://app?vid=23775696-d642-47ab-90c4-eb60021de809"},"vehicle_type_id":"4","last_reported":1723752532,"current_range_meters":31200,"station_id":"ce4bgj92rcd13ifvqbd0","pricing_plan_id":"cebpf4jnsgd1na2vs0mg"},{"bike_id":"36d4d0dd-a9dd-4d3a-905b-e4880b5d397e","system_id":"levelo_inurba_marseille","lat":43.29972,"lon":5.38496,"is_reserved":false,"is_disabled":false,"rental_uris":{"android":"levelo://app?vid=36d4d0dd-a9dd-4d3a-905b-e4880b5d397e","ios":"levelo://app?vid=36d4d0dd-a9dd-4d3a-905b-e4880b5d397e"},"vehicle_type_id":"4","last_reported":1723752532,"current_range_meters":31200,"station_id":"ce4bgj92rcd13ifvqbd0","pricing_plan_id":"cebpf4jnsgd1na2vs0mg"},{"bike_id":"59be2b0f-9b03-4e79-b232-7bac17527b3d","system_id":"levelo_inurba_marseille","lat":43.299744,"lon":5.384998,"is_reserved":false,"is_disabled":false,"rental_uris":{"android":"levelo://app?vid=59be2b0f-9b03-4e79-b232-7bac17527b3d","ios":"levelo://app?vid=59be2b0f-9b03-4e79-b232-7bac17527b3d"},"vehicle_type_id":"4","last_reported":1723752532,"current_range_meters":26800,"station_id":"ce4bgj92rcd13ifvqbd0","pricing_plan_id":"cebpf4jnsgd1na2vs0mg"},{"bike_id":"43cbd206-f888-4af4-8d60-316bb76f52a5","system_id":"levelo_inurba_marseille","lat":43.29966,"lon":5.38495,"is_reserved":false,"is_disabled":false,"rental_uris":{"android":"levelo://app?vid=43cbd206-f888-4af4-8d60-316bb76f52a5","ios":"levelo://app?vid=43cbd206-f888-4af4-8d60-316bb76f52a5"},"vehicle_type_id":"4","last_reported":1723752532,"current_range_meters":17200,"station_id":"ce4bgj92rcd13ifvqbd0","pricing_plan_id":"cebpf4jnsgd1na2vs0mg"},{"bike_id":"0e953420-fabf-4752-89b9-e55ac05a939d","system_id":"levelo_inurba_marseille","lat":43.299645,"lon":5.384933,"is_reserved":false,"is_disabled":false,"rental_uris":{"android":"levelo://app?vid=0e953420-fabf-4752-89b9-e55ac05a939d","ios":"levelo://app?vid=0e953420-fabf-4752-89b9-e55ac05a939d"},"vehicle_type_id":"4","last_reported":1723752532,"current_range_meters":25600,"station_id":"ce4bgj92rcd13ifvqbd0","pricing_plan_id":"cebpf4jnsgd1na2vs0mg"},{"bike_id":"1939a003-7add-45b5-b5d9-c1cdc09e18a4","system_id":"levelo_inurba_marseille","lat":43.29964,"lon":5.38495,"is_reserved":false,"is_disabled":false,"rental_uris":{"android":"levelo://app?vid=1939a003-7add-45b5-b5d9-c1cdc09e18a4","ios":"levelo://app?vid=1939a003-7add-45b5-b5d9-c1cdc09e18a4"},"vehicle_type_id":"4","last_reported":1723752532,"current_range_meters":4800,"station_id":"ce4bgj92rcd13ifvqbd0","pricing_plan_id":"cebpf4jnsgd1na2vs0mg"},{"bike_id":"c91139bd-d537-43dd-b8a2-bb96b76ec282","system_id":"levelo_inurba_marseille","lat":43.295279,"lon":5.375048,"is_reserved":false,"is_disabled":false,"rental_uris":{"android":"levelo://app?vid=c91139bd-d537-43dd-b8a2-bb96b76ec282","ios":"levelo://app?vid=c91139bd-d537-43dd-b8a2-bb96b76ec282"},"vehicle_type_id":"4","last_reported":1723752532,"current_range_meters":6400,"station_id":"ce4bgkp2rcd13ifvqbmg","pricing_plan_id":"cebpf4jnsgd1na2vs0mg"},{"bike_id":"d58320c9-1670-4873-a537-1884d4aeefcf","system_id":"levelo_inurba_marseille","lat":43.299717,"lon":5.384845,"is_reserved":false,"is_disabled":false,"rental_uris":{"android":"levelo://app?vid=d58320c9-1670-4873-a537-1884d4aeefcf","ios":"levelo://app?vid=d58320c9-1670-4873-a537-1884d4aeefcf"},"vehicle_type_id":"4","last_reported":1723752532,"current_range_meters":10000,"station_id":"ce4bgj92rcd13ifvqbd0","pricing_plan_id":"cebpf4jnsgd1na2vs0mg"},{"bike_id":"22dafa58-84c0-49a8-a542-eb0344f420a9","system_id":"levelo_inurba_marseille","lat":43.29959,"lon":5.38502,"is_reserved":false,"is_disabled":false,"rental_uris":{"android":"levelo://app?vid=22dafa58-84c0-49a8-a542-eb0344f420a9","ios":"levelo://app?vid=22dafa58-84c0-49a8-a542-eb0344f420a9"},"vehicle_type_id":"4","last_reported":1723752532,"current_range_meters":8800,"station_id":"ce4bgj92rcd13ifvqbd0","pricing_plan_id":"cebpf4jnsgd1na2vs0mg"},{"bike_id":"344e7d63-aa02-48a7-b55a-c080c33d7748","system_id":"levelo_inurba_marseille","lat":43.29959,"lon":5.38503,"is_reserved":false,"is_disabled":false,"rental_uris":{"android":"levelo://app?vid=344e7d63-aa02-48a7-b55a-c080c33d7748","ios":"levelo://app?vid=344e7d63-aa02-48a7-b55a-c080c33d7748"},"vehicle_type_id":"4","last_reported":1723752532,"current_range_meters":24800,"station_id":"ce4bgj92rcd13ifvqbd0","pricing_plan_id":"cebpf4jnsgd1na2vs0mg"},{"bike_id":"041eedcc-61e8-4a94-a965-8697a73c81a4","system_id":"levelo_inurba_marseille","lat":43.29953,"lon":5.38497,"is_reserved":false,"is_disabled":false,"rental_uris":{"android":"levelo://app?vid=041eedcc-61e8-4a94-a965-8697a73c81a4","ios":"levelo://app?vid=041eedcc-61e8-4a94-a965-8697a73c81a4"},"vehicle_type_id":"4","last_reported":1723752532,"current_range_meters":15200,"station_id":"ce4bgj92rcd13ifvqbd0","pricing_plan_id":"cebpf4jnsgd1na2vs0mg"},{"bike_id":"9424e3a5-541c-4537-98ea-6a2f5af7daf5","system_id":"levelo_inurba_marseille","lat":43.29647,"lon":5.379753,"is_reserved":false,"is_disabled":false,"rental_uris":{"android":"levelo://app?vid=9424e3a5-541c-4537-98ea-6a2f5af7daf5","ios":"levelo://app?vid=9424e3a5-541c-4537-98ea-6a2f5af7daf5"},"vehicle_type_id":"4","last_reported":1723752532,"current_range_meters":15200,"station_id":"","pricing_plan_id":"cebpf4jnsgd1na2vs0mg"},{"bike_id":"9c781eb3-142e-4642-b06a-8dde1c26ac3d","system_id":"levelo_inurba_marseille","lat":43.3236,"lon":5.38874,"is_reserved":false,"is_disabled":false,"rental_uris":{"android":"levelo://app?vid=9c781eb3-142e-4642-b06a-8dde1c26ac3d","ios":"levelo://app?vid=9c781eb3-142e-4642-b06a-8dde1c26ac3d"},"vehicle_type_id":"4","last_reported":1723752532,"current_range_meters":4800,"station_id":"ce4bhqp2rcd13ifvqhog","pricing_plan_id":"cebpf4jnsgd1na2vs0mg"},{"bike_id":"80d03ceb-5aaa-42c4-89fa-e7704230b5bc","system_id":"levelo_inurba_marseille","lat":43.32368,"lon":5.38877,"is_reserved":false,"is_disabled":false,"rental_uris":{"android":"levelo://app?vid=80d03ceb-5aaa-42c4-89fa-e7704230b5bc","ios":"levelo://app?vid=80d03ceb-5aaa-42c4-89fa-e7704230b5bc"},"vehicle_type_id":"4","last_reported":1723752532,"current_range_meters":3600,"station_id":"ce4bhqp2rcd13ifvqhog","pricing_plan_id":"cebpf4jnsgd1na2vs0mg"},{"bike_id":"8f401e04-4a4d-4a89-89e8-753119c4158e","system_id":"levelo_inurba_marseille","lat":43.32358,"lon":5.38888,"is_reserved":false,"is_disabled":false,"rental_uris":{"android":"levelo://app?vid=8f401e04-4a4d-4a89-89e8-753119c4158e","ios":"levelo://app?vid=8f401e04-4a4d-4a89-89e8-753119c4158e"},"vehicle_type_id":"4","last_reported":1723752532,"current_range_meters":0,"station_id":"ce4bhqp2rcd13ifvqhog","pricing_plan_id":"cebpf4jnsgd1na2vs0mg"},{"bike_id":"0d595970-cc1d-441f-85df-eab93e02d00d","system_id":"levelo_inurba_marseille","lat":43.32363,"lon":5.38885,"is_reserved":false,"is_disabled":false,"rental_uris":{"android":"levelo://app?vid=0d595970-cc1d-441f-85df-eab93e02d00d","ios":"levelo://app?vid=0d595970-cc1d-441f-85df-eab93e02d00d"},"vehicle_type_id":"4","last_reported":1723752532,"current_range_meters":22400,"station_id":"ce4bhqp2rcd13ifvqhog","pricing_plan_id":"cebpf4jnsgd1na2vs0mg"},{"bike_id":"35c39432-0974-4acf-8cb7-2ec13f6061e0","system_id":"levelo_inurba_marseille","lat":43.32363,"lon":5.38886,"is_reserved":false,"is_disabled":false,"rental_uris":{"android":"levelo://app?vid=35c39432-0974-4acf-8cb7-2ec13f6061e0","ios":"levelo://app?vid=35c39432-0974-4acf-8cb7-2ec13f6061e0"},"vehicle_type_id":"4","last_reported":1723752532,"current_range_meters":24800,"station_id":"ce4bhqp2rcd13ifvqhog","pricing_plan_id":"cebpf4jnsgd1na2vs0mg"},{"bike_id":"91194db9-be2b-414f-b355-ba8ed74f883a","system_id":"levelo_inurba_marseille","lat":43.293298,"lon":5.370964,"is_reserved":false,"is_disabled":false,"rental_uris":{"android":"levelo://app?vid=91194db9-be2b-414f-b355-ba8ed74f883a","ios":"levelo://app?vid=91194db9-be2b-414f-b355-ba8ed74f883a"},"vehicle_type_id":"4","last_reported":1723752532,"current_range_meters":6000,"station_id":"","pricing_plan_id":"cebpf4jnsgd1na2vs0mg"},{"bike_id":"f789d103-e2d3-4af9-9180-2b5311428292","system_id":"levelo_inurba_marseille","lat":43.29601,"lon":5.381084,"is_reserved":false,"is_disabled":false,"rental_uris":{"android":"levelo://app?vid=f789d103-e2d3-4af9-9180-2b5311428292","ios":"levelo://app?vid=f789d103-e2d3-4af9-9180-2b5311428292"},"vehicle_type_id":"4","last_reported":1723752532,"current_range_meters":22000,"station_id":"ce4bgl12rcd13ifvqbo0","pricing_plan_id":"cebpf4jnsgd1na2vs0mg"},{"bike_id":"63655e6e-cf00-47cb-b407-18cd3301c76b","system_id":"levelo_inurba_marseille","lat":43.29595,"lon":5.381017,"is_reserved":false,"is_disabled":false,"rental_uris":{"android":"levelo://app?vid=63655e6e-cf00-47cb-b407-18cd3301c76b","ios":"levelo://app?vid=63655e6e-cf00-47cb-b407-18cd3301c76b"},"vehicle_type_id":"4","last_reported":1723752532,"current_range_meters":12000,"station_id":"ce4bgl12rcd13ifvqbo0","pricing_plan_id":"cebpf4jnsgd1na2vs0mg"},{"bike_id":"854ef2f0-9791-48e4-8fe7-1c6517cc4760","system_id":"levelo_inurba_marseille","lat":43.29601,"lon":5.381084,"is_reserved":false,"is_disabled":false,"rental_uris":{"android":"levelo://app?vid=854ef2f0-9791-48e4-8fe7-1c6517cc4760","ios":"levelo://app?vid=854ef2f0-9791-48e4-8fe7-1c6517cc4760"},"vehicle_type_id":"4","last_reported":1723752532,"current_range_meters":27200,"station_id":"ce4bgl12rcd13ifvqbo0","pricing_plan_id":"cebpf4jnsgd1na2vs0mg"},{"bike_id":"1f06946e-5115-4899-b4c0-5815c6116cf4","system_id":"levelo_inurba_marseille","lat":43.292749,"lon":5.368402,"is_reserved":false,"is_disabled":false,"rental_uris":{"android":"levelo://app?vid=1f06946e-5115-4899-b4c0-5815c6116cf4","ios":"levelo://app?vid=1f06946e-5115-4899-b4c0-5815c6116cf4"},"vehicle_type_id":"4","last_reported":1723752532,"current_range_meters":26400,"station_id":"ce4bhbp2rcd13ifvqesg","pricing_plan_id":"cebpf4jnsgd1na2vs0mg"},{"bike_id":"986b68ee-6c01-4b04-bf82-f0322008c958","system_id":"levelo_inurba_marseille","lat":43.29281,"lon":5.36845,"is_reserved":false,"is_disabled":false,"rental_uris":{"android":"levelo://app?vid=986b68ee-6c01-4b04-bf82-f0322008c958","ios":"levelo://app?vid=986b68ee-6c01-4b04-bf82-f0322008c958"},"vehicle_type_id":"4","last_reported":1723752532,"current_range_meters":30800,"station_id":"ce4bhbp2rcd13ifvqesg","pricing_plan_id":"cebpf4jnsgd1na2vs0mg"},{"bike_id":"e31f87de-0680-4e61-af8d-3718c142fabb","system_id":"levelo_inurba_marseille","lat":43.293259,"lon":5.371586,"is_reserved":false,"is_disabled":false,"rental_uris":{"android":"levelo://app?vid=e31f87de-0680-4e61-af8d-3718c142fabb","ios":"levelo://app?vid=e31f87de-0680-4e61-af8d-3718c142fabb"},"vehicle_type_id":"4","last_reported":1723752532,"current_range_meters":9200,"station_id":"ce4bgh92rcd13ifvqb40","pricing_plan_id":"cebpf4jnsgd1na2vs0mg"},{"bike_id":"4140d889-aaf9-4b15-8a11-a581354b1510","system_id":"levelo_inurba_marseille","lat":43.293259,"lon":5.371586,"is_reserved":false,"is_disabled":false,"rental_uris":{"android":"levelo://app?vid=4140d889-aaf9-4b15-8a11-a581354b1510","ios":"levelo://app?vid=4140d889-aaf9-4b15-8a11-a581354b1510"},"vehicle_type_id":"4","last_reported":1723752532,"current_range_meters":14400,"station_id":"ce4bgh92rcd13ifvqb40","pricing_plan_id":"cebpf4jnsgd1na2vs0mg"},{"bike_id":"7f7fdc81-4277-41e1-8251-acf72142fbc5","system_id":"levelo_inurba_marseille","lat":43.293044,"lon":5.371733,"is_reserved":false,"is_disabled":false,"rental_uris":{"android":"levelo://app?vid=7f7fdc81-4277-41e1-8251-acf72142fbc5","ios":"levelo://app?vid=7f7fdc81-4277-41e1-8251-acf72142fbc5"},"vehicle_type_id":"4","last_reported":1723752532,"current_range_meters":13600,"station_id":"ce4bgh92rcd13ifvqb40","pricing_plan_id":"cebpf4jnsgd1na2vs0mg"},{"bike_id":"6a836cee-c2d7-47ad-848b-09313926110e","system_id":"levelo_inurba_marseille","lat":43.292749,"lon":5.368398,"is_reserved":false,"is_disabled":false,"rental_uris":{"android":"levelo://app?vid=6a836cee-c2d7-47ad-848b-09313926110e","ios":"levelo://app?vid=6a836cee-c2d7-47ad-848b-09313926110e"},"vehicle_type_id":"4","last_reported":1723752532,"current_range_meters":31200,"station_id":"ce4bhbp2rcd13ifvqesg","pricing_plan_id":"cebpf4jnsgd1na2vs0mg"},{"bike_id":"0162768d-c24c-4331-90ea-a94dd75787a3","system_id":"levelo_inurba_marseille","lat":43.292703,"lon":5.368439,"is_reserved":false,"is_disabled":false,"rental_uris":{"android":"levelo://app?vid=0162768d-c24c-4331-90ea-a94dd75787a3","ios":"levelo://app?vid=0162768d-c24c-4331-90ea-a94dd75787a3"},"vehicle_type_id":"4","last_reported":1723752532,"current_range_meters":14400,"station_id":"ce4bhbp2rcd13ifvqesg","pricing_plan_id":"cebpf4jnsgd1na2vs0mg"},{"bike_id":"11119d7c-b0b3-4186-b288-179cfbb71a5d","system_id":"levelo_inurba_marseille","lat":43.292749,"lon":5.368402,"is_reserved":false,"is_disabled":false,"rental_uris":{"android":"levelo://app?vid=11119d7c-b0b3-4186-b288-179cfbb71a5d","ios":"levelo://app?vid=11119d7c-b0b3-4186-b288-179cfbb71a5d"},"vehicle_type_id":"4","last_reported":1723752532,"current_range_meters":21600,"station_id":"ce4bhbp2rcd13ifvqesg","pricing_plan_id":"cebpf4jnsgd1na2vs0mg"},{"bike_id":"a7ea4348-6124-42be-96e3-b31ccda1476f","system_id":"levelo_inurba_marseille","lat":43.2927,"lon":5.36845,"is_reserved":false,"is_disabled":false,"rental_uris":{"android":"levelo://app?vid=a7ea4348-6124-42be-96e3-b31ccda1476f","ios":"levelo://app?vid=a7ea4348-6124-42be-96e3-b31ccda1476f"},"vehicle_type_id":"4","last_reported":1723752532,"current_range_meters":31200,"station_id":"ce4bhbp2rcd13ifvqesg","pricing_plan_id":"cebpf4jnsgd1na2vs0mg"},{"bike_id":"fa14b66d-662d-4f0e-a5c1-86db4158f114","system_id":"levelo_inurba_marseille","lat":43.292749,"lon":5.368402,"is_reserved":false,"is_disabled":false,"rental_uris":{"android":"levelo://app?vid=fa14b66d-662d-4f0e-a5c1-86db4158f114","ios":"levelo://app?vid=fa14b66d-662d-4f0e-a5c1-86db4158f114"},"vehicle_type_id":"4","last_reported":1723752532,"current_range_meters":31200,"station_id":"ce4bhbp2rcd13ifvqesg","pricing_plan_id":"cebpf4jnsgd1na2vs0mg"},{"bike_id":"f235984b-822a-4dc1-b14d-6523dc64d6e8","system_id":"levelo_inurba_marseille","lat":43.29295,"lon":5.37171,"is_reserved":false,"is_disabled":false,"rental_uris":{"android":"levelo://app?vid=f235984b-822a-4dc1-b14d-6523dc64d6e8","ios":"levelo://app?vid=f235984b-822a-4dc1-b14d-6523dc64d6e8"},"vehicle_type_id":"4","last_reported":1723752532,"current_range_meters":31200,"station_id":"ce4bgh92rcd13ifvqb40","pricing_plan_id":"cebpf4jnsgd1na2vs0mg"},{"bike_id":"b78457a2-3bf0-4040-b9c5-5f292396f0e0","system_id":"levelo_inurba_marseille","lat":43.29294,"lon":5.37168,"is_reserved":false,"is_disabled":false,"rental_uris":{"android":"levelo://app?vid=b78457a2-3bf0-4040-b9c5-5f292396f0e0","ios":"levelo://app?vid=b78457a2-3bf0-4040-b9c5-5f292396f0e0"},"vehicle_type_id":"4","last_reported":1723752532,"current_range_meters":15200,"station_id":"ce4bgh92rcd13ifvqb40","pricing_plan_id":"cebpf4jnsgd1na2vs0mg"},{"bike_id":"30e4ff50-ce80-4e86-a112-29057e198399","system_id":"levelo_inurba_marseille","lat":43.29304,"lon":5.37457,"is_reserved":false,"is_disabled":false,"rental_uris":{"android":"levelo://app?vid=30e4ff50-ce80-4e86-a112-29057e198399","ios":"levelo://app?vid=30e4ff50-ce80-4e86-a112-29057e198399"},"vehicle_type_id":"4","last_reported":1723752532,"current_range_meters":20000,"station_id":"ce4bgi12rcd13ifvqb70","pricing_plan_id":"cebpf4jnsgd1na2vs0mg"},{"bike_id":"493fa902-c766-4a5c-a113-3993765604be","system_id":"levelo_inurba_marseille","lat":43.29301,"lon":5.37445,"is_reserved":false,"is_disabled":false,"rental_uris":{"android":"levelo://app?vid=493fa902-c766-4a5c-a113-3993765604be","ios":"levelo://app?vid=493fa902-c766-4a5c-a113-3993765604be"},"vehicle_type_id":"4","last_reported":1723752532,"current_range_meters":21200,"station_id":"ce4bgi12rcd13ifvqb70","pricing_plan_id":"cebpf4jnsgd1na2vs0mg"},{"bike_id":"1ac82a3d-99f2-4264-b6fb-58374aea13b5","system_id":"levelo_inurba_marseille","lat":43.293009,"lon":5.374584,"is_reserved":false,"is_disabled":false,"rental_uris":{"android":"levelo://app?vid=1ac82a3d-99f2-4264-b6fb-58374aea13b5","ios":"levelo://app?vid=1ac82a3d-99f2-4264-b6fb-58374aea13b5"},"vehicle_type_id":"4","last_reported":1723752532,"current_range_meters":29600,"station_id":"ce4bgi12rcd13ifvqb70","pricing_plan_id":"cebpf4jnsgd1na2vs0mg"},{"bike_id":"e0b1b4d7-089a-45d6-8b72-a0f9b64fd18f","system_id":"levelo_inurba_marseille","lat":43.293009,"lon":5.374584,"is_reserved":false,"is_disabled":false,"rental_uris":{"android":"levelo://app?vid=e0b1b4d7-089a-45d6-8b72-a0f9b64fd18f","ios":"levelo://app?vid=e0b1b4d7-089a-45d6-8b72-a0f9b64fd18f"},"vehicle_type_id":"4","last_reported":1723752532,"current_range_meters":25600,"station_id":"ce4bgi12rcd13ifvqb70","pricing_plan_id":"cebpf4jnsgd1na2vs0mg"},{"bike_id":"c6bd1797-2e73-43c1-9996-8f7c81def308","system_id":"levelo_inurba_marseille","lat":43.292998,"lon":5.37458,"is_reserved":false,"is_disabled":false,"rental_uris":{"android":"levelo://app?vid=c6bd1797-2e73-43c1-9996-8f7c81def308","ios":"levelo://app?vid=c6bd1797-2e73-43c1-9996-8f7c81def308"},"vehicle_type_id":"4","last_reported":1723752532,"current_range_meters":1600,"station_id":"","pricing_plan_id":"cebpf4jnsgd1na2vs0mg"},{"bike_id":"00a05ffb-0800-4ba9-ac4c-3bd3ee30d6d0","system_id":"levelo_inurba_marseille","lat":43.293009,"lon":5.374584,"is_reserved":false,"is_disabled":false,"rental_uris":{"android":"levelo://app?vid=00a05ffb-0800-4ba9-ac4c-3bd3ee30d6d0","ios":"levelo://app?vid=00a05ffb-0800-4ba9-ac4c-3bd3ee30d6d0"},"vehicle_type_id":"4","last_reported":1723752532,"current_range_meters":6400,"station_id":"ce4bgi12rcd13ifvqb70","pricing_plan_id":"cebpf4jnsgd1na2vs0mg"},{"bike_id":"aca4191a-220c-4c2f-9f13-17da1796e711","system_id":"levelo_inurba_marseille","lat":43.293009,"lon":5.374584,"is_reserved":false,"is_disabled":false,"rental_uris":{"android":"levelo://app?vid=aca4191a-220c-4c2f-9f13-17da1796e711","ios":"levelo://app?vid=aca4191a-220c-4c2f-9f13-17da1796e711"},"vehicle_type_id":"4","last_reported":1723752532,"current_range_meters":18800,"station_id":"ce4bgi12rcd13ifvqb70","pricing_plan_id":"cebpf4jnsgd1na2vs0mg"},{"bike_id":"f9701169-f9d9-4251-93c7-4222eeb2ee26","system_id":"levelo_inurba_marseille","lat":43.293009,"lon":5.374584,"is_reserved":false,"is_disabled":false,"rental_uris":{"android":"levelo://app?vid=f9701169-f9d9-4251-93c7-4222eeb2ee26","ios":"levelo://app?vid=f9701169-f9d9-4251-93c7-4222eeb2ee26"},"vehicle_type_id":"4","last_reported":1723752532,"current_range_meters":26000,"station_id":"ce4bgi12rcd13ifvqb70","pricing_plan_id":"cebpf4jnsgd1na2vs0mg"},{"bike_id":"a82ef319-6c6b-4e81-b003-c5fcf80f0f34","system_id":"levelo_inurba_marseille","lat":43.293009,"lon":5.374584,"is_reserved":false,"is_disabled":false,"rental_uris":{"android":"levelo://app?vid=a82ef319-6c6b-4e81-b003-c5fcf80f0f34","ios":"levelo://app?vid=a82ef319-6c6b-4e81-b003-c5fcf80f0f34"},"vehicle_type_id":"4","last_reported":1723752532,"current_range_meters":7200,"station_id":"ce4bgi12rcd13ifvqb70","pricing_plan_id":"cebpf4jnsgd1na2vs0mg"},{"bike_id":"e76737e5-1433-478e-9ce6-c2c08c6f9df9","system_id":"levelo_inurba_marseille","lat":43.305994,"lon":5.393687,"is_reserved":false,"is_disabled":false,"rental_uris":{"android":"levelo://app?vid=e76737e5-1433-478e-9ce6-c2c08c6f9df9","ios":"levelo://app?vid=e76737e5-1433-478e-9ce6-c2c08c6f9df9"},"vehicle_type_id":"4","last_reported":1723752532,"current_range_meters":14800,"station_id":"ce4bh0p2rcd13ifvqd80","pricing_plan_id":"cebpf4jnsgd1na2vs0mg"},{"bike_id":"5a630f57-3854-474e-8dd9-69b867179203","system_id":"levelo_inurba_marseille","lat":43.305994,"lon":5.393687,"is_reserved":false,"is_disabled":false,"rental_uris":{"android":"levelo://app?vid=5a630f57-3854-474e-8dd9-69b867179203","ios":"levelo://app?vid=5a630f57-3854-474e-8dd9-69b867179203"},"vehicle_type_id":"4","last_reported":1723752532,"current_range_meters":29200,"station_id":"ce4bh0p2rcd13ifvqd80","pricing_plan_id":"cebpf4jnsgd1na2vs0mg"},{"bike_id":"6c31d5ae-b073-4581-acae-ba9368a91a75","system_id":"levelo_inurba_marseille","lat":43.305994,"lon":5.393687,"is_reserved":false,"is_disabled":false,"rental_uris":{"android":"levelo://app?vid=6c31d5ae-b073-4581-acae-ba9368a91a75","ios":"levelo://app?vid=6c31d5ae-b073-4581-acae-ba9368a91a75"},"vehicle_type_id":"4","last_reported":1723752532,"current_range_meters":25600,"station_id":"ce4bh0p2rcd13ifvqd80","pricing_plan_id":"cebpf4jnsgd1na2vs0mg"},{"bike_id":"9280a40a-1caa-4cc7-ba40-9ab1a35add4e","system_id":"levelo_inurba_marseille","lat":43.2936,"lon":5.37835,"is_reserved":false,"is_disabled":false,"rental_uris":{"android":"levelo://app?vid=9280a40a-1caa-4cc7-ba40-9ab1a35add4e","ios":"levelo://app?vid=9280a40a-1caa-4cc7-ba40-9ab1a35add4e"},"vehicle_type_id":"4","last_reported":1723752532,"current_range_meters":19200,"station_id":"ce4bgjh2rcd13ifvqbf0","pricing_plan_id":"cebpf4jnsgd1na2vs0mg"},{"bike_id":"1b94e338-110c-4769-af01-548ccbb39416","system_id":"levelo_inurba_marseille","lat":43.2936,"lon":5.37835,"is_reserved":false,"is_disabled":false,"rental_uris":{"android":"levelo://app?vid=1b94e338-110c-4769-af01-548ccbb39416","ios":"levelo://app?vid=1b94e338-110c-4769-af01-548ccbb39416"},"vehicle_type_id":"4","last_reported":1723752532,"current_range_meters":5600,"station_id":"ce4bgjh2rcd13ifvqbf0","pricing_plan_id":"cebpf4jnsgd1na2vs0mg"},{"bike_id":"cf0a7f35-974f-49a9-8186-9b63afbc8638","system_id":"levelo_inurba_marseille","lat":43.30644,"lon":5.39415,"is_reserved":false,"is_disabled":false,"rental_uris":{"android":"levelo://app?vid=cf0a7f35-974f-49a9-8186-9b63afbc8638","ios":"levelo://app?vid=cf0a7f35-974f-49a9-8186-9b63afbc8638"},"vehicle_type_id":"4","last_reported":1723752532,"current_range_meters":14400,"station_id":"","pricing_plan_id":"cebpf4jnsgd1na2vs0mg"},{"bike_id":"9e773359-877f-4a3e-8cb3-e8969eaebe50","system_id":"levelo_inurba_marseille","lat":43.2936,"lon":5.37835,"is_reserved":false,"is_disabled":false,"rental_uris":{"android":"levelo://app?vid=9e773359-877f-4a3e-8cb3-e8969eaebe50","ios":"levelo://app?vid=9e773359-877f-4a3e-8cb3-e8969eaebe50"},"vehicle_type_id":"4","last_reported":1723752532,"current_range_meters":30800,"station_id":"ce4bgjh2rcd13ifvqbf0","pricing_plan_id":"cebpf4jnsgd1na2vs0mg"},{"bike_id":"6b00fa46-fdcf-46c2-8ce7-86397f1544cb","system_id":"levelo_inurba_marseille","lat":43.291671,"lon":5.371575,"is_reserved":false,"is_disabled":false,"rental_uris":{"android":"levelo://app?vid=6b00fa46-fdcf-46c2-8ce7-86397f1544cb","ios":"levelo://app?vid=6b00fa46-fdcf-46c2-8ce7-86397f1544cb"},