{"last_updated":1717866436,"ttl":30,"version":"2.2","data":{"bikes":[{"bike_id":"8169be82-6bb5-4931-a232-b521e33d0fef","system_id":"levelo_inurba_marseille","lat":43.312239,"lon":5.368562,"is_reserved":false,"is_disabled":false,"rental_uris":{"android":"levelo://app?vid=8169be82-6bb5-4931-a232-b521e33d0fef","ios":"levelo://app?vid=8169be82-6bb5-4931-a232-b521e33d0fef"},"vehicle_type_id":"4","last_reported":1717866436,"current_range_meters":800,"station_id":"ce4bgl92rcd13ifvqbq0","pricing_plan_id":"cebpf4jnsgd1na2vs0mg"},{"bike_id":"a1bcaf41-5b13-49cf-bbc0-facce3942ddd","system_id":"levelo_inurba_marseille","lat":43.309076,"lon":5.368465,"is_reserved":false,"is_disabled":false,"rental_uris":{"android":"levelo://app?vid=a1bcaf41-5b13-49cf-bbc0-facce3942ddd","ios":"levelo://app?vid=a1bcaf41-5b13-49cf-bbc0-facce3942ddd"},"vehicle_type_id":"4","last_reported":1717866436,"current_range_meters":2400,"station_id":"ce4bgn92rcd13ifvqbvg","pricing_plan_id":"cebpf4jnsgd1na2vs0mg"},{"bike_id":"c25cd5b9-f867-49d4-80e7-24235df9d78f","system_id":"levelo_inurba_marseille","lat":43.309076,"lon":5.368465,"is_reserved":false,"is_disabled":false,"rental_uris":{"android":"levelo://app?vid=c25cd5b9-f867-49d4-80e7-24235df9d78f","ios":"levelo://app?vid=c25cd5b9-f867-49d4-80e7-24235df9d78f"},"vehicle_type_id":"4","last_reported":1717866436,"current_range_meters":3200,"station_id":"ce4bgn92rcd13ifvqbvg","pricing_plan_id":"cebpf4jnsgd1na2vs0mg"},{"bike_id":"63e60a8e-54fa-44af-8fdf-26434f8f9065","system_id":"levelo_inurba_marseille","lat":43.309076,"lon":5.368465,"is_reserved":false,"is_disabled":false,"rental_uris":{"android":"levelo://app?vid=63e60a8e-54fa-44af-8fdf-26434f8f9065","ios":"levelo://app?vid=63e60a8e-54fa-44af-8fdf-26434f8f9065"},"vehicle_type_id":"4","last_reported":1717866436,"current_range_meters":3600,"station_id":"ce4bgn92rcd13ifvqbvg","pricing_plan_id":"cebpf4jnsgd1na2vs0mg"},{"bike_id":"44fbacee-bfe9-4eca-9703-2744d2d57b0f","system_id":"levelo_inurba_marseille","lat":43.309076,"lon":5.368465,"is_reserved":false,"is_disabled":false,"rental_uris":{"android":"levelo://app?vid=44fbacee-bfe9-4eca-9703-2744d2d57b0f","ios":"levelo://app?vid=44fbacee-bfe9-4eca-9703-2744d2d57b0f"},"vehicle_type_id":"4","last_reported":1717866436,"current_range_meters":13600,"station_id":"ce4bgn92rcd13ifvqbvg","pricing_plan_id":"cebpf4jnsgd1na2vs0mg"},{"bike_id":"085feeae-cb36-4495-9743-872af1e4e0b3","system_id":"levelo_inurba_marseille","lat":43.309021,"lon":5.368405,"is_reserved":false,"is_disabled":false,"rental_uris":{"android":"levelo://app?vid=085feeae-cb36-4495-9743-872af1e4e0b3","ios":"levelo://app?vid=085feeae-cb36-4495-9743-872af1e4e0b3"},"vehicle_type_id":"4","last_reported":1717866436,"current_range_meters":10800,"station_id":"ce4bgn92rcd13ifvqbvg","pricing_plan_id":"cebpf4jnsgd1na2vs0mg"},{"bike_id":"45709d91-f1f9-434d-af40-83da594fd1d3","system_id":"levelo_inurba_marseille","lat":43.31489,"lon":5.37306,"is_reserved":false,"is_disabled":false,"rental_uris":{"android":"levelo://app?vid=45709d91-f1f9-434d-af40-83da594fd1d3","ios":"levelo://app?vid=45709d91-f1f9-434d-af40-83da594fd1d3"},"vehicle_type_id":"4","last_reported":1717866436,"current_range_meters":0,"station_id":"ce4bgt12rcd13ifvqcd0","pricing_plan_id":"cebpf4jnsgd1na2vs0mg"},{"bike_id":"54920558-7e07-4d53-ba4c-2ed30526977c","system_id":"levelo_inurba_marseille","lat":43.30891,"lon":5.37204,"is_reserved":false,"is_disabled":false,"rental_uris":{"android":"levelo://app?vid=54920558-7e07-4d53-ba4c-2ed30526977c","ios":"levelo://app?vid=54920558-7e07-4d53-ba4c-2ed30526977c"},"vehicle_type_id":"4","last_reported":1717866436,"current_range_meters":0,"station_id":"ce4bguh2rcd13ifvqckg","pricing_plan_id":"cebpf4jnsgd1na2vs0mg"},{"bike_id":"53295028-3f58-42d0-84d8-686ed73f20d0","system_id":"levelo_inurba_marseille","lat":43.31642,"lon":5.37414,"is_reserved":false,"is_disabled":false,"rental_uris":{"android":"levelo://app?vid=53295028-3f58-42d0-84d8-686ed73f20d0","ios":"levelo://app?vid=53295028-3f58-42d0-84d8-686ed73f20d0"},"vehicle_type_id":"4","last_reported":1717866436,"current_range_meters":6400,"station_id":"","pricing_plan_id":"cebpf4jnsgd1na2vs0mg"},{"bike_id":"6711a720-4be1-4766-9812-54d9f67bc267","system_id":"levelo_inurba_marseille","lat":43.318307,"lon":5.373727,"is_reserved":false,"is_disabled":false,"rental_uris":{"android":"levelo://app?vid=6711a720-4be1-4766-9812-54d9f67bc267","ios":"levelo://app?vid=6711a720-4be1-4766-9812-54d9f67bc267"},"vehicle_type_id":"4","last_reported":1717866436,"current_range_meters":10400,"station_id":"","pricing_plan_id":"cebpf4jnsgd1na2vs0mg"},{"bike_id":"c057150a-a38e-4223-a2cb-7af6664fb427","system_id":"levelo_inurba_marseille","lat":43.305368,"lon":5.367343,"is_reserved":false,"is_disabled":false,"rental_uris":{"android":"levelo://app?vid=c057150a-a38e-4223-a2cb-7af6664fb427","ios":"levelo://app?vid=c057150a-a38e-4223-a2cb-7af6664fb427"},"vehicle_type_id":"4","last_reported":1717866436,"current_range_meters":10000,"station_id":"ce4bgrp2rcd13ifvqc9g","pricing_plan_id":"cebpf4jnsgd1na2vs0mg"},{"bike_id":"6346f381-fec9-4271-aa61-8d45a76bfe42","system_id":"levelo_inurba_marseille","lat":43.309906,"lon":5.376605,"is_reserved":false,"is_disabled":false,"rental_uris":{"android":"levelo://app?vid=6346f381-fec9-4271-aa61-8d45a76bfe42","ios":"levelo://app?vid=6346f381-fec9-4271-aa61-8d45a76bfe42"},"vehicle_type_id":"4","last_reported":1717866436,"current_range_meters":24000,"station_id":"","pricing_plan_id":"cebpf4jnsgd1na2vs0mg"},{"bike_id":"30691aae-76d2-4a5d-b9f6-edd2acf3e136","system_id":"levelo_inurba_marseille","lat":43.30609,"lon":5.3722,"is_reserved":false,"is_disabled":false,"rental_uris":{"android":"levelo://app?vid=30691aae-76d2-4a5d-b9f6-edd2acf3e136","ios":"levelo://app?vid=30691aae-76d2-4a5d-b9f6-edd2acf3e136"},"vehicle_type_id":"4","last_reported":1717866436,"current_range_meters":29600,"station_id":"ce4bgqh2rcd13ifvqc4g","pricing_plan_id":"cebpf4jnsgd1na2vs0mg"},{"bike_id":"2e31485d-d29b-4c69-85b8-a05f751b3506","system_id":"levelo_inurba_marseille","lat":43.307945,"lon":5.376487,"is_reserved":false,"is_disabled":false,"rental_uris":{"android":"levelo://app?vid=2e31485d-d29b-4c69-85b8-a05f751b3506","ios":"levelo://app?vid=2e31485d-d29b-4c69-85b8-a05f751b3506"},"vehicle_type_id":"4","last_reported":1717866436,"current_range_meters":9600,"station_id":"ce4bgv92rcd13ifvqcq0","pricing_plan_id":"cebpf4jnsgd1na2vs0mg"},{"bike_id":"4bd38712-a9ba-42aa-9dbe-90fb12d136dc","system_id":"levelo_inurba_marseille","lat":43.307945,"lon":5.376487,"is_reserved":false,"is_disabled":false,"rental_uris":{"android":"levelo://app?vid=4bd38712-a9ba-42aa-9dbe-90fb12d136dc","ios":"levelo://app?vid=4bd38712-a9ba-42aa-9dbe-90fb12d136dc"},"vehicle_type_id":"4","last_reported":1717866436,"current_range_meters":28800,"station_id":"ce4bgv92rcd13ifvqcq0","pricing_plan_id":"cebpf4jnsgd1na2vs0mg"},{"bike_id":"7a47f840-aac7-4e62-a63f-08d6726051c6","system_id":"levelo_inurba_marseille","lat":43.317075,"lon":5.377367,"is_reserved":false,"is_disabled":false,"rental_uris":{"android":"levelo://app?vid=7a47f840-aac7-4e62-a63f-08d6726051c6","ios":"levelo://app?vid=7a47f840-aac7-4e62-a63f-08d6726051c6"},"vehicle_type_id":"4","last_reported":1717866436,"current_range_meters":0,"station_id":"ce4bgth2rcd13ifvqch0","pricing_plan_id":"cebpf4jnsgd1na2vs0mg"},{"bike_id":"b859d8b2-01b3-49d6-b955-2773384389d0","system_id":"levelo_inurba_marseille","lat":43.317075,"lon":5.377367,"is_reserved":false,"is_disabled":false,"rental_uris":{"android":"levelo://app?vid=b859d8b2-01b3-49d6-b955-2773384389d0","ios":"levelo://app?vid=b859d8b2-01b3-49d6-b955-2773384389d0"},"vehicle_type_id":"4","last_reported":1717866436,"current_range_meters":22400,"station_id":"ce4bgth2rcd13ifvqch0","pricing_plan_id":"cebpf4jnsgd1na2vs0mg"},{"bike_id":"a5e90eb9-7515-4034-8cb0-e04eba84f1d1","system_id":"levelo_inurba_marseille","lat":43.317075,"lon":5.377367,"is_reserved":false,"is_disabled":false,"rental_uris":{"android":"levelo://app?vid=a5e90eb9-7515-4034-8cb0-e04eba84f1d1","ios":"levelo://app?vid=a5e90eb9-7515-4034-8cb0-e04eba84f1d1"},"vehicle_type_id":"4","last_reported":1717866436,"current_range_meters":28800,"station_id":"ce4bgth2rcd13ifvqch0","pricing_plan_id":"cebpf4jnsgd1na2vs0mg"},{"bike_id":"6f583271-ec07-4720-983c-7cd3260c0f7e","system_id":"levelo_inurba_marseille","lat":43.315289,"lon":5.380349,"is_reserved":false,"is_disabled":false,"rental_uris":{"android":"levelo://app?vid=6f583271-ec07-4720-983c-7cd3260c0f7e","ios":"levelo://app?vid=6f583271-ec07-4720-983c-7cd3260c0f7e"},"vehicle_type_id":"4","last_reported":1717866436,"current_range_meters":26800,"station_id":"ce4bhsp2rcd13ifvqi50","pricing_plan_id":"cebpf4jnsgd1na2vs0mg"},{"bike_id":"d17d86d9-de45-4790-8aba-8ee3015147ff","system_id":"levelo_inurba_marseille","lat":43.303256,"lon":5.369053,"is_reserved":false,"is_disabled":false,"rental_uris":{"android":"levelo://app?vid=d17d86d9-de45-4790-8aba-8ee3015147ff","ios":"levelo://app?vid=d17d86d9-de45-4790-8aba-8ee3015147ff"},"vehicle_type_id":"4","last_reported":1717866436,"current_range_meters":800,"station_id":"ce4bgqh2rcd13ifvqc5g","pricing_plan_id":"cebpf4jnsgd1na2vs0mg"},{"bike_id":"37ca312a-6ca7-4c57-ae1c-6c10eb3e9331","system_id":"levelo_inurba_marseille","lat":43.303192,"lon":5.368828,"is_reserved":false,"is_disabled":false,"rental_uris":{"android":"levelo://app?vid=37ca312a-6ca7-4c57-ae1c-6c10eb3e9331","ios":"levelo://app?vid=37ca312a-6ca7-4c57-ae1c-6c10eb3e9331"},"vehicle_type_id":"4","last_reported":1717866436,"current_range_meters":0,"station_id":"ce4bgqh2rcd13ifvqc5g","pricing_plan_id":"cebpf4jnsgd1na2vs0mg"},{"bike_id":"adb42894-d96b-468b-9f73-3943b30b46a7","system_id":"levelo_inurba_marseille","lat":43.315289,"lon":5.380349,"is_reserved":false,"is_disabled":false,"rental_uris":{"android":"levelo://app?vid=adb42894-d96b-468b-9f73-3943b30b46a7","ios":"levelo://app?vid=adb42894-d96b-468b-9f73-3943b30b46a7"},"vehicle_type_id":"4","last_reported":1717866436,"current_range_meters":0,"station_id":"ce4bhsp2rcd13ifvqi50","pricing_plan_id":"cebpf4jnsgd1na2vs0mg"},{"bike_id":"b86fc848-836a-4eb2-846f-2577ccccd709","system_id":"levelo_inurba_marseille","lat":43.315289,"lon":5.380349,"is_reserved":false,"is_disabled":false,"rental_uris":{"android":"levelo://app?vid=b86fc848-836a-4eb2-846f-2577ccccd709","ios":"levelo://app?vid=b86fc848-836a-4eb2-846f-2577ccccd709"},"vehicle_type_id":"4","last_reported":1717866436,"current_range_meters":20000,"station_id":"ce4bhsp2rcd13ifvqi50","pricing_plan_id":"cebpf4jnsgd1na2vs0mg"},{"bike_id":"cf32ccf5-d3dd-4e49-89e2-b11810e2b4bc","system_id":"levelo_inurba_marseille","lat":43.30196,"lon":5.36627,"is_reserved":false,"is_disabled":false,"rental_uris":{"android":"levelo://app?vid=cf32ccf5-d3dd-4e49-89e2-b11810e2b4bc","ios":"levelo://app?vid=cf32ccf5-d3dd-4e49-89e2-b11810e2b4bc"},"vehicle_type_id":"4","last_reported":1717866436,"current_range_meters":21600,"station_id":"ce4bgrh2rcd13ifvqc8g","pricing_plan_id":"cebpf4jnsgd1na2vs0mg"},{"bike_id":"0927e05b-ebcc-4638-b539-716592f799d1","system_id":"levelo_inurba_marseille","lat":43.301939,"lon":5.366286,"is_reserved":false,"is_disabled":false,"rental_uris":{"android":"levelo://app?vid=0927e05b-ebcc-4638-b539-716592f799d1","ios":"levelo://app?vid=0927e05b-ebcc-4638-b539-716592f799d1"},"vehicle_type_id":"4","last_reported":1717866436,"current_range_meters":4800,"station_id":"ce4bgrh2rcd13ifvqc8g","pricing_plan_id":"cebpf4jnsgd1na2vs0mg"},{"bike_id":"395f9117-5a5b-4353-861b-01b30d5d0c99","system_id":"levelo_inurba_marseille","lat":43.301939,"lon":5.366286,"is_reserved":false,"is_disabled":false,"rental_uris":{"android":"levelo://app?vid=395f9117-5a5b-4353-861b-01b30d5d0c99","ios":"levelo://app?vid=395f9117-5a5b-4353-861b-01b30d5d0c99"},"vehicle_type_id":"4","last_reported":1717866436,"current_range_meters":0,"station_id":"ce4bgrh2rcd13ifvqc8g","pricing_plan_id":"cebpf4jnsgd1na2vs0mg"},{"bike_id":"25ef4f6f-9665-4a17-8fa6-478e814b122c","system_id":"levelo_inurba_marseille","lat":43.308012,"lon":5.381511,"is_reserved":false,"is_disabled":false,"rental_uris":{"android":"levelo://app?vid=25ef4f6f-9665-4a17-8fa6-478e814b122c","ios":"levelo://app?vid=25ef4f6f-9665-4a17-8fa6-478e814b122c"},"vehicle_type_id":"4","last_reported":1717866436,"current_range_meters":4400,"station_id":"ce4bgt12rcd13ifvqce0","pricing_plan_id":"cebpf4jnsgd1na2vs0mg"},{"bike_id":"4a3e58ae-2f47-49e2-9f3e-12df9fbcbd9d","system_id":"levelo_inurba_marseille","lat":43.324771,"lon":5.36557,"is_reserved":false,"is_disabled":false,"rental_uris":{"android":"levelo://app?vid=4a3e58ae-2f47-49e2-9f3e-12df9fbcbd9d","ios":"levelo://app?vid=4a3e58ae-2f47-49e2-9f3e-12df9fbcbd9d"},"vehicle_type_id":"4","last_reported":1717866436,"current_range_meters":15600,"station_id":"ce4bhs12rcd13ifvqhvg","pricing_plan_id":"cebpf4jnsgd1na2vs0mg"},{"bike_id":"829d35c6-a7dd-41b7-b814-c160f4a3da2d","system_id":"levelo_inurba_marseille","lat":43.324771,"lon":5.36557,"is_reserved":false,"is_disabled":false,"rental_uris":{"android":"levelo://app?vid=829d35c6-a7dd-41b7-b814-c160f4a3da2d","ios":"levelo://app?vid=829d35c6-a7dd-41b7-b814-c160f4a3da2d"},"vehicle_type_id":"4","last_reported":1717866436,"current_range_meters":11200,"station_id":"ce4bhs12rcd13ifvqhvg","pricing_plan_id":"cebpf4jnsgd1na2vs0mg"},{"bike_id":"6c832da4-a366-4689-8a66-26b5b067dbf4","system_id":"levelo_inurba_marseille","lat":43.32484,"lon":5.36558,"is_reserved":false,"is_disabled":false,"rental_uris":{"android":"levelo://app?vid=6c832da4-a366-4689-8a66-26b5b067dbf4","ios":"levelo://app?vid=6c832da4-a366-4689-8a66-26b5b067dbf4"},"vehicle_type_id":"4","last_reported":1717866436,"current_range_meters":20000,"station_id":"ce4bhs12rcd13ifvqhvg","pricing_plan_id":"cebpf4jnsgd1na2vs0mg"},{"bike_id":"0f648d3b-6ca0-4f2b-a90e-371b0f0e1eb5","system_id":"levelo_inurba_marseille","lat":43.324771,"lon":5.36557,"is_reserved":false,"is_disabled":false,"rental_uris":{"android":"levelo://app?vid=0f648d3b-6ca0-4f2b-a90e-371b0f0e1eb5","ios":"levelo://app?vid=0f648d3b-6ca0-4f2b-a90e-371b0f0e1eb5"},"vehicle_type_id":"4","last_reported":1717866436,"current_range_meters":17200,"station_id":"ce4bhs12rcd13ifvqhvg","pricing_plan_id":"cebpf4jnsgd1na2vs0mg"},{"bike_id":"3c9fe599-11ef-4904-ac9f-222bc966a693","system_id":"levelo_inurba_marseille","lat":43.30901,"lon":5.382824,"is_reserved":false,"is_disabled":false,"rental_uris":{"android":"levelo://app?vid=3c9fe599-11ef-4904-ac9f-222bc966a693","ios":"levelo://app?vid=3c9fe599-11ef-4904-ac9f-222bc966a693"},"vehicle_type_id":"4","last_reported":1717866436,"current_range_meters":3600,"station_id":"","pricing_plan_id":"cebpf4jnsgd1na2vs0mg"},{"bike_id":"f64dd03c-abf7-4f1c-b13c-beea30d81a95","system_id":"levelo_inurba_marseille","lat":43.32488,"lon":5.36566,"is_reserved":false,"is_disabled":false,"rental_uris":{"android":"levelo://app?vid=f64dd03c-abf7-4f1c-b13c-beea30d81a95","ios":"levelo://app?vid=f64dd03c-abf7-4f1c-b13c-beea30d81a95"},"vehicle_type_id":"4","last_reported":1717866436,"current_range_meters":3600,"station_id":"ce4bhs12rcd13ifvqhvg","pricing_plan_id":"cebpf4jnsgd1na2vs0mg"},{"bike_id":"1da78494-1735-469f-b994-675ba50d93c6","system_id":"levelo_inurba_marseille","lat":43.324771,"lon":5.36557,"is_reserved":false,"is_disabled":false,"rental_uris":{"android":"levelo://app?vid=1da78494-1735-469f-b994-675ba50d93c6","ios":"levelo://app?vid=1da78494-1735-469f-b994-675ba50d93c6"},"vehicle_type_id":"4","last_reported":1717866436,"current_range_meters":5200,"station_id":"ce4bhs12rcd13ifvqhvg","pricing_plan_id":"cebpf4jnsgd1na2vs0mg"},{"bike_id":"6b8cdf49-3aaa-46d6-91d0-bf55f01a5e46","system_id":"levelo_inurba_marseille","lat":43.324771,"lon":5.36557,"is_reserved":false,"is_disabled":false,"rental_uris":{"android":"levelo://app?vid=6b8cdf49-3aaa-46d6-91d0-bf55f01a5e46","ios":"levelo://app?vid=6b8cdf49-3aaa-46d6-91d0-bf55f01a5e46"},"vehicle_type_id":"4","last_reported":1717866436,"current_range_meters":2400,"station_id":"ce4bhs12rcd13ifvqhvg","pricing_plan_id":"cebpf4jnsgd1na2vs0mg"},{"bike_id":"c161ece4-2384-49b5-bec1-d5c5c4364289","system_id":"levelo_inurba_marseille","lat":43.302784,"lon":5.377158,"is_reserved":false,"is_disabled":false,"rental_uris":{"android":"levelo://app?vid=c161ece4-2384-49b5-bec1-d5c5c4364289","ios":"levelo://app?vid=c161ece4-2384-49b5-bec1-d5c5c4364289"},"vehicle_type_id":"4","last_reported":1717866436,"current_range_meters":10800,"station_id":"ce4bguh2rcd13ifvqcj0","pricing_plan_id":"cebpf4jnsgd1na2vs0mg"},{"bike_id":"a454c26a-82d2-43c5-9256-71987a94a541","system_id":"levelo_inurba_marseille","lat":43.324946,"lon":5.365577,"is_reserved":false,"is_disabled":false,"rental_uris":{"android":"levelo://app?vid=a454c26a-82d2-43c5-9256-71987a94a541","ios":"levelo://app?vid=a454c26a-82d2-43c5-9256-71987a94a541"},"vehicle_type_id":"4","last_reported":1717866436,"current_range_meters":0,"station_id":"ce4bhs12rcd13ifvqhvg","pricing_plan_id":"cebpf4jnsgd1na2vs0mg"},{"bike_id":"886c8414-1265-4d68-bd32-1c7fa47a135e","system_id":"levelo_inurba_marseille","lat":43.302784,"lon":5.377158,"is_reserved":false,"is_disabled":false,"rental_uris":{"android":"levelo://app?vid=886c8414-1265-4d68-bd32-1c7fa47a135e","ios":"levelo://app?vid=886c8414-1265-4d68-bd32-1c7fa47a135e"},"vehicle_type_id":"4","last_reported":1717866436,"current_range_meters":0,"station_id":"ce4bguh2rcd13ifvqcj0","pricing_plan_id":"cebpf4jnsgd1na2vs0mg"},{"bike_id":"8fd9107b-d77d-4b41-bade-8709f7ca622d","system_id":"levelo_inurba_marseille","lat":43.319935,"lon":5.381699,"is_reserved":false,"is_disabled":false,"rental_uris":{"android":"levelo://app?vid=8fd9107b-d77d-4b41-bade-8709f7ca622d","ios":"levelo://app?vid=8fd9107b-d77d-4b41-bade-8709f7ca622d"},"vehicle_type_id":"4","last_reported":1717866436,"current_range_meters":4000,"station_id":"ce4bhr12rcd13ifvqhpg","pricing_plan_id":"cebpf4jnsgd1na2vs0mg"},{"bike_id":"1c01d43f-b4c0-4270-b67e-339217787209","system_id":"levelo_inurba_marseille","lat":43.319935,"lon":5.381699,"is_reserved":false,"is_disabled":false,"rental_uris":{"android":"levelo://app?vid=1c01d43f-b4c0-4270-b67e-339217787209","ios":"levelo://app?vid=1c01d43f-b4c0-4270-b67e-339217787209"},"vehicle_type_id":"4","last_reported":1717866436,"current_range_meters":25600,"station_id":"ce4bhr12rcd13ifvqhpg","pricing_plan_id":"cebpf4jnsgd1na2vs0mg"},{"bike_id":"699c1570-326e-425c-bcac-af01ccfc73c6","system_id":"levelo_inurba_marseille","lat":43.32001,"lon":5.38153,"is_reserved":false,"is_disabled":false,"rental_uris":{"android":"levelo://app?vid=699c1570-326e-425c-bcac-af01ccfc73c6","ios":"levelo://app?vid=699c1570-326e-425c-bcac-af01ccfc73c6"},"vehicle_type_id":"4","last_reported":1717866436,"current_range_meters":4400,"station_id":"ce4bhr12rcd13ifvqhpg","pricing_plan_id":"cebpf4jnsgd1na2vs0mg"},{"bike_id":"7936f542-1bac-4c27-9a53-b5726bc3c1d5","system_id":"levelo_inurba_marseille","lat":43.319935,"lon":5.381699,"is_reserved":false,"is_disabled":false,"rental_uris":{"android":"levelo://app?vid=7936f542-1bac-4c27-9a53-b5726bc3c1d5","ios":"levelo://app?vid=7936f542-1bac-4c27-9a53-b5726bc3c1d5"},"vehicle_type_id":"4","last_reported":1717866436,"current_range_meters":6000,"station_id":"ce4bhr12rcd13ifvqhpg","pricing_plan_id":"cebpf4jnsgd1na2vs0mg"},{"bike_id":"ee585275-8577-4bb2-ab94-376772247dc5","system_id":"levelo_inurba_marseille","lat":43.313571,"lon":5.384829,"is_reserved":false,"is_disabled":false,"rental_uris":{"android":"levelo://app?vid=ee585275-8577-4bb2-ab94-376772247dc5","ios":"levelo://app?vid=ee585275-8577-4bb2-ab94-376772247dc5"},"vehicle_type_id":"4","last_reported":1717866436,"current_range_meters":29600,"station_id":"ce4bgt92rcd13ifvqcf0","pricing_plan_id":"cebpf4jnsgd1na2vs0mg"},{"bike_id":"ec3cd8e4-02f4-4c1a-867f-65af33be0e09","system_id":"levelo_inurba_marseille","lat":43.31369,"lon":5.385,"is_reserved":false,"is_disabled":false,"rental_uris":{"android":"levelo://app?vid=ec3cd8e4-02f4-4c1a-867f-65af33be0e09","ios":"levelo://app?vid=ec3cd8e4-02f4-4c1a-867f-65af33be0e09"},"vehicle_type_id":"4","last_reported":1717866436,"current_range_meters":6800,"station_id":"ce4bgt92rcd13ifvqcf0","pricing_plan_id":"cebpf4jnsgd1na2vs0mg"},{"bike_id":"60ea3f29-84e4-4762-80eb-9af7351bded2","system_id":"levelo_inurba_marseille","lat":43.311722,"lon":5.387247,"is_reserved":false,"is_disabled":false,"rental_uris":{"android":"levelo://app?vid=60ea3f29-84e4-4762-80eb-9af7351bded2","ios":"levelo://app?vid=60ea3f29-84e4-4762-80eb-9af7351bded2"},"vehicle_type_id":"4","last_reported":1717866436,"current_range_meters":21600,"station_id":"ce4bgv12rcd13ifvqcp0","pricing_plan_id":"cebpf4jnsgd1na2vs0mg"},{"bike_id":"956f63d1-b0a6-4d93-b1bf-90f25dc98e9d","system_id":"levelo_inurba_marseille","lat":43.299222,"lon":5.365554,"is_reserved":false,"is_disabled":false,"rental_uris":{"android":"levelo://app?vid=956f63d1-b0a6-4d93-b1bf-90f25dc98e9d","ios":"levelo://app?vid=956f63d1-b0a6-4d93-b1bf-90f25dc98e9d"},"vehicle_type_id":"4","last_reported":1717866436,"current_range_meters":4000,"station_id":"ce4bgm92rcd13ifvqbr0","pricing_plan_id":"cebpf4jnsgd1na2vs0mg"},{"bike_id":"5f7dbeb5-a623-4ec1-ae61-3951b397f435","system_id":"levelo_inurba_marseille","lat":43.299724,"lon":5.371829,"is_reserved":false,"is_disabled":false,"rental_uris":{"android":"levelo://app?vid=5f7dbeb5-a623-4ec1-ae61-3951b397f435","ios":"levelo://app?vid=5f7dbeb5-a623-4ec1-ae61-3951b397f435"},"vehicle_type_id":"4","last_reported":1717866436,"current_range_meters":1600,"station_id":"ce4bgr92rcd13ifvqc7g","pricing_plan_id":"cebpf4jnsgd1na2vs0mg"},{"bike_id":"7dfdb917-d721-4ab0-b825-050c09694fce","system_id":"levelo_inurba_marseille","lat":43.30094,"lon":5.37728,"is_reserved":false,"is_disabled":false,"rental_uris":{"android":"levelo://app?vid=7dfdb917-d721-4ab0-b825-050c09694fce","ios":"levelo://app?vid=7dfdb917-d721-4ab0-b825-050c09694fce"},"vehicle_type_id":"4","last_reported":1717866436,"current_range_meters":14000,"station_id":"","pricing_plan_id":"cebpf4jnsgd1na2vs0mg"},{"bike_id":"d84908b0-c59d-49f0-81a5-2a9a5cce73c0","system_id":"levelo_inurba_marseille","lat":43.30233,"lon":5.38079,"is_reserved":false,"is_disabled":false,"rental_uris":{"android":"levelo://app?vid=d84908b0-c59d-49f0-81a5-2a9a5cce73c0","ios":"levelo://app?vid=d84908b0-c59d-49f0-81a5-2a9a5cce73c0"},"vehicle_type_id":"4","last_reported":1717866436,"current_range_meters":16000,"station_id":"","pricing_plan_id":"cebpf4jnsgd1na2vs0mg"},{"bike_id":"a02bf929-4422-493f-a636-a8007bfdac1f","system_id":"levelo_inurba_marseille","lat":43.299243,"lon":5.374807,"is_reserved":false,"is_disabled":false,"rental_uris":{"android":"levelo://app?vid=a02bf929-4422-493f-a636-a8007bfdac1f","ios":"levelo://app?vid=a02bf929-4422-493f-a636-a8007bfdac1f"},"vehicle_type_id":"4","last_reported":1717866436,"current_range_meters":16400,"station_id":"ce4bgjh2rcd13ifvqbg0","pricing_plan_id":"cebpf4jnsgd1na2vs0mg"},{"bike_id":"639ec03d-4587-4451-aa8d-744be215f40d","system_id":"levelo_inurba_marseille","lat":43.311722,"lon":5.387247,"is_reserved":false,"is_disabled":false,"rental_uris":{"android":"levelo://app?vid=639ec03d-4587-4451-aa8d-744be215f40d","ios":"levelo://app?vid=639ec03d-4587-4451-aa8d-744be215f40d"},"vehicle_type_id":"4","last_reported":1717866436,"current_range_meters":0,"station_id":"ce4bgv12rcd13ifvqcp0","pricing_plan_id":"cebpf4jnsgd1na2vs0mg"},{"bike_id":"d9f624e6-3dab-4cc8-9eed-bfbbc90bb6d1","system_id":"levelo_inurba_marseille","lat":43.311722,"lon":5.387247,"is_reserved":false,"is_disabled":false,"rental_uris":{"android":"levelo://app?vid=d9f624e6-3dab-4cc8-9eed-bfbbc90bb6d1","ios":"levelo://app?vid=d9f624e6-3dab-4cc8-9eed-bfbbc90bb6d1"},"vehicle_type_id":"4","last_reported":1717866436,"current_range_meters":20000,"station_id":"ce4bgv12rcd13ifvqcp0","pricing_plan_id":"cebpf4jnsgd1na2vs0mg"},{"bike_id":"e6ef4207-11cd-47b4-b2af-d632f6258f0a","system_id":"levelo_inurba_marseille","lat":43.297794,"lon":5.370888,"is_reserved":false,"is_disabled":false,"rental_uris":{"android":"levelo://app?vid=e6ef4207-11cd-47b4-b2af-d632f6258f0a","ios":"levelo://app?vid=e6ef4207-11cd-47b4-b2af-d632f6258f0a"},"vehicle_type_id":"4","last_reported":1717866436,"current_range_meters":2400,"station_id":"ce4bgop2rcd13ifvqc1g","pricing_plan_id":"cebpf4jnsgd1na2vs0mg"},{"bike_id":"317125b0-c5da-407d-92a4-24072a6a62d1","system_id":"levelo_inurba_marseille","lat":43.292311,"lon":5.360731,"is_reserved":false,"is_disabled":false,"rental_uris":{"android":"levelo://app?vid=317125b0-c5da-407d-92a4-24072a6a62d1","ios":"levelo://app?vid=317125b0-c5da-407d-92a4-24072a6a62d1"},"vehicle_type_id":"4","last_reported":1717866436,"current_range_meters":0,"station_id":"ce4bhbh2rcd13ifvqeqg","pricing_plan_id":"cebpf4jnsgd1na2vs0mg"},{"bike_id":"782e46d7-0eff-49b9-b35d-196748ccb33f","system_id":"levelo_inurba_marseille","lat":43.322872,"lon":5.382756,"is_reserved":false,"is_disabled":false,"rental_uris":{"android":"levelo://app?vid=782e46d7-0eff-49b9-b35d-196748ccb33f","ios":"levelo://app?vid=782e46d7-0eff-49b9-b35d-196748ccb33f"},"vehicle_type_id":"4","last_reported":1717866436,"current_range_meters":21200,"station_id":"ce4bhr12rcd13ifvqhqg","pricing_plan_id":"cebpf4jnsgd1na2vs0mg"},{"bike_id":"b3999aff-636e-42d3-a03d-757c34b18a12","system_id":"levelo_inurba_marseille","lat":43.322872,"lon":5.382756,"is_reserved":false,"is_disabled":false,"rental_uris":{"android":"levelo://app?vid=b3999aff-636e-42d3-a03d-757c34b18a12","ios":"levelo://app?vid=b3999aff-636e-42d3-a03d-757c34b18a12"},"vehicle_type_id":"4","last_reported":1717866436,"current_range_meters":16000,"station_id":"ce4bhr12rcd13ifvqhqg","pricing_plan_id":"cebpf4jnsgd1na2vs0mg"},{"bike_id":"8573b21c-73b0-41cf-95bc-5857367daa49","system_id":"levelo_inurba_marseille","lat":43.322872,"lon":5.382756,"is_reserved":false,"is_disabled":false,"rental_uris":{"android":"levelo://app?vid=8573b21c-73b0-41cf-95bc-5857367daa49","ios":"levelo://app?vid=8573b21c-73b0-41cf-95bc-5857367daa49"},"vehicle_type_id":"4","last_reported":1717866436,"current_range_meters":31600,"station_id":"ce4bhr12rcd13ifvqhqg","pricing_plan_id":"cebpf4jnsgd1na2vs0mg"},{"bike_id":"6064687f-404b-4273-bc0f-3c7321187d62","system_id":"levelo_inurba_marseille","lat":43.297163,"lon":5.365866,"is_reserved":false,"is_disabled":false,"rental_uris":{"android":"levelo://app?vid=6064687f-404b-4273-bc0f-3c7321187d62","ios":"levelo://app?vid=6064687f-404b-4273-bc0f-3c7321187d62"},"vehicle_type_id":"4","last_reported":1717866436,"current_range_meters":24400,"station_id":"ce4bgn12rcd13ifvqbt0","pricing_plan_id":"cebpf4jnsgd1na2vs0mg"},{"bike_id":"f59bc642-0149-48ce-a06e-8f91296872ff","system_id":"levelo_inurba_marseille","lat":43.295838,"lon":5.367365,"is_reserved":false,"is_disabled":false,"rental_uris":{"android":"levelo://app?vid=f59bc642-0149-48ce-a06e-8f91296872ff","ios":"levelo://app?vid=f59bc642-0149-48ce-a06e-8f91296872ff"},"vehicle_type_id":"4","last_reported":1717866436,"current_range_meters":0,"station_id":"ce4bgph2rcd13ifvqc2g","pricing_plan_id":"cebpf4jnsgd1na2vs0mg"},{"bike_id":"9dda8878-9ad6-47cc-94b7-95fc09eddc47","system_id":"levelo_inurba_marseille","lat":43.29573,"lon":5.367355,"is_reserved":false,"is_disabled":false,"rental_uris":{"android":"levelo://app?vid=9dda8878-9ad6-47cc-94b7-95fc09eddc47","ios":"levelo://app?vid=9dda8878-9ad6-47cc-94b7-95fc09eddc47"},"vehicle_type_id":"4","last_reported":1717866436,"current_range_meters":2400,"station_id":"ce4bgph2rcd13ifvqc2g","pricing_plan_id":"cebpf4jnsgd1na2vs0mg"},{"bike_id":"03ef5909-e34e-4d84-9065-402c835e6997","system_id":"levelo_inurba_marseille","lat":43.297373,"lon":5.376975,"is_reserved":false,"is_disabled":false,"rental_uris":{"android":"levelo://app?vid=03ef5909-e34e-4d84-9065-402c835e6997","ios":"levelo://app?vid=03ef5909-e34e-4d84-9065-402c835e6997"},"vehicle_type_id":"4","last_reported":1717866436,"current_range_meters":26000,"station_id":"ce4bgkh2rcd13ifvqbl0","pricing_plan_id":"cebpf4jnsgd1na2vs0mg"},{"bike_id":"2a6f997a-a61f-499b-8bc3-6bfbafae7523","system_id":"levelo_inurba_marseille","lat":43.296921,"lon":5.376579,"is_reserved":false,"is_disabled":false,"rental_uris":{"android":"levelo://app?vid=2a6f997a-a61f-499b-8bc3-6bfbafae7523","ios":"levelo://app?vid=2a6f997a-a61f-499b-8bc3-6bfbafae7523"},"vehicle_type_id":"4","last_reported":1717866436,"current_range_meters":23200,"station_id":"ce4bgkh2rcd13ifvqbl0","pricing_plan_id":"cebpf4jnsgd1na2vs0mg"},{"bike_id":"5282babb-ca74-46fa-a82e-62e731b59104","system_id":"levelo_inurba_marseille","lat":43.317557,"lon":5.390173,"is_reserved":false,"is_disabled":false,"rental_uris":{"android":"levelo://app?vid=5282babb-ca74-46fa-a82e-62e731b59104","ios":"levelo://app?vid=5282babb-ca74-46fa-a82e-62e731b59104"},"vehicle_type_id":"4","last_reported":1717866436,"current_range_meters":12800,"station_id":"ce4bhqp2rcd13ifvqhng","pricing_plan_id":"cebpf4jnsgd1na2vs0mg"},{"bike_id":"8c738c00-411d-4826-ba3b-2fd99798a504","system_id":"levelo_inurba_marseille","lat":43.317557,"lon":5.390173,"is_reserved":false,"is_disabled":false,"rental_uris":{"android":"levelo://app?vid=8c738c00-411d-4826-ba3b-2fd99798a504","ios":"levelo://app?vid=8c738c00-411d-4826-ba3b-2fd99798a504"},"vehicle_type_id":"4","last_reported":1717866436,"current_range_meters":4000,"station_id":"ce4bhqp2rcd13ifvqhng","pricing_plan_id":"cebpf4jnsgd1na2vs0mg"},{"bike_id":"6aadcf4d-84e2-4da7-8440-b5e23d422893","system_id":"levelo_inurba_marseille","lat":43.317557,"lon":5.390173,"is_reserved":false,"is_disabled":false,"rental_uris":{"android":"levelo://app?vid=6aadcf4d-84e2-4da7-8440-b5e23d422893","ios":"levelo://app?vid=6aadcf4d-84e2-4da7-8440-b5e23d422893"},"vehicle_type_id":"4","last_reported":1717866436,"current_range_meters":24400,"station_id":"ce4bhqp2rcd13ifvqhng","pricing_plan_id":"cebpf4jnsgd1na2vs0mg"},{"bike_id":"7b5d00c5-69d7-4149-8d1b-4cfe5ae9e41a","system_id":"levelo_inurba_marseille","lat":43.317557,"lon":5.390173,"is_reserved":false,"is_disabled":false,"rental_uris":{"android":"levelo://app?vid=7b5d00c5-69d7-4149-8d1b-4cfe5ae9e41a","ios":"levelo://app?vid=7b5d00c5-69d7-4149-8d1b-4cfe5ae9e41a"},"vehicle_type_id":"4","last_reported":1717866436,"current_range_meters":31600,"station_id":"ce4bhqp2rcd13ifvqhng","pricing_plan_id":"cebpf4jnsgd1na2vs0mg"},{"bike_id":"b9d87df0-3040-4edd-9cb6-e5b374b31082","system_id":"levelo_inurba_marseille","lat":43.317696,"lon":5.390129,"is_reserved":false,"is_disabled":false,"rental_uris":{"android":"levelo://app?vid=b9d87df0-3040-4edd-9cb6-e5b374b31082","ios":"levelo://app?vid=b9d87df0-3040-4edd-9cb6-e5b374b31082"},"vehicle_type_id":"4","last_reported":1717866436,"current_range_meters":15200,"station_id":"","pricing_plan_id":"cebpf4jnsgd1na2vs0mg"},{"bike_id":"0d04ca28-4311-4049-8ab1-81d1b05e704a","system_id":"levelo_inurba_marseille","lat":43.298037,"lon":5.381066,"is_reserved":false,"is_disabled":false,"rental_uris":{"android":"levelo://app?vid=0d04ca28-4311-4049-8ab1-81d1b05e704a","ios":"levelo://app?vid=0d04ca28-4311-4049-8ab1-81d1b05e704a"},"vehicle_type_id":"4","last_reported":1717866436,"current_range_meters":400,"station_id":"ce4bgip2rcd13ifvqbb0","pricing_plan_id":"cebpf4jnsgd1na2vs0mg"},{"bike_id":"3b6c0b00-68b7-438b-84e4-185bfeca620a","system_id":"levelo_inurba_marseille","lat":43.295748,"lon":5.37522,"is_reserved":false,"is_disabled":false,"rental_uris":{"android":"levelo://app?vid=3b6c0b00-68b7-438b-84e4-185bfeca620a","ios":"levelo://app?vid=3b6c0b00-68b7-438b-84e4-185bfeca620a"},"vehicle_type_id":"4","last_reported":1717866436,"current_range_meters":0,"station_id":"ce4bgh92rcd13ifvqb50","pricing_plan_id":"cebpf4jnsgd1na2vs0mg"},{"bike_id":"2904823f-2cd5-4083-ae79-ffa1ca6bb8ed","system_id":"levelo_inurba_marseille","lat":43.29578,"lon":5.37516,"is_reserved":false,"is_disabled":false,"rental_uris":{"android":"levelo://app?vid=2904823f-2cd5-4083-ae79-ffa1ca6bb8ed","ios":"levelo://app?vid=2904823f-2cd5-4083-ae79-ffa1ca6bb8ed"},"vehicle_type_id":"4","last_reported":1717866436,"current_range_meters":400,"station_id":"ce4bgh92rcd13ifvqb50","pricing_plan_id":"cebpf4jnsgd1na2vs0mg"},{"bike_id":"ce579309-240a-4b44-b554-375409fc12e4","system_id":"levelo_inurba_marseille","lat":43.29577,"lon":5.37518,"is_reserved":false,"is_disabled":false,"rental_uris":{"android":"levelo://app?vid=ce579309-240a-4b44-b554-375409fc12e4","ios":"levelo://app?vid=ce579309-240a-4b44-b554-375409fc12e4"},"vehicle_type_id":"4","last_reported":1717866436,"current_range_meters":10000,"station_id":"","pricing_plan_id":"cebpf4jnsgd1na2vs0mg"},{"bike_id":"3416899b-089b-491b-8a53-4fd5dc0db07e","system_id":"levelo_inurba_marseille","lat":43.29591,"lon":5.37572,"is_reserved":false,"is_disabled":false,"rental_uris":{"android":"levelo://app?vid=3416899b-089b-491b-8a53-4fd5dc0db07e","ios":"levelo://app?vid=3416899b-089b-491b-8a53-4fd5dc0db07e"},"vehicle_type_id":"4","last_reported":1717866436,"current_range_meters":10400,"station_id":"","pricing_plan_id":"cebpf4jnsgd1na2vs0mg"},{"bike_id":"04d730e7-06e4-4d55-9cf8-cd10033b5035","system_id":"levelo_inurba_marseille","lat":43.29571,"lon":5.37526,"is_reserved":false,"is_disabled":false,"rental_uris":{"android":"levelo://app?vid=04d730e7-06e4-4d55-9cf8-cd10033b5035","ios":"levelo://app?vid=04d730e7-06e4-4d55-9cf8-cd10033b5035"},"vehicle_type_id":"4","last_reported":1717866436,"current_range_meters":11600,"station_id":"ce4bgh92rcd13ifvqb50","pricing_plan_id":"cebpf4jnsgd1na2vs0mg"},{"bike_id":"cef58573-3e44-4b97-bbfb-02d338ea838e","system_id":"levelo_inurba_marseille","lat":43.304278,"lon":5.388868,"is_reserved":false,"is_disabled":false,"rental_uris":{"android":"levelo://app?vid=cef58573-3e44-4b97-bbfb-02d338ea838e","ios":"levelo://app?vid=cef58573-3e44-4b97-bbfb-02d338ea838e"},"vehicle_type_id":"4","last_reported":1717866436,"current_range_meters":0,"station_id":"ce4bgk12rcd13ifvqbi0","pricing_plan_id":"cebpf4jnsgd1na2vs0mg"},{"bike_id":"762a1b97-6b89-4379-8858-9fe8311bee06","system_id":"levelo_inurba_marseille","lat":43.296263,"lon":5.377094,"is_reserved":false,"is_disabled":false,"rental_uris":{"android":"levelo://app?vid=762a1b97-6b89-4379-8858-9fe8311bee06","ios":"levelo://app?vid=762a1b97-6b89-4379-8858-9fe8311bee06"},"vehicle_type_id":"4","last_reported":1717866436,"current_range_meters":32000,"station_id":"ce4bgi92rcd13ifvqb90","pricing_plan_id":"cebpf4jnsgd1na2vs0mg"},{"bike_id":"dcfa2459-d518-4d82-84d0-c45e2653dead","system_id":"levelo_inurba_marseille","lat":43.29609,"lon":5.37733,"is_reserved":false,"is_disabled":false,"rental_uris":{"android":"levelo://app?vid=dcfa2459-d518-4d82-84d0-c45e2653dead","ios":"levelo://app?vid=dcfa2459-d518-4d82-84d0-c45e2653dead"},"vehicle_type_id":"4","last_reported":1717866436,"current_range_meters":7600,"station_id":"ce4bgi92rcd13ifvqb90","pricing_plan_id":"cebpf4jnsgd1na2vs0mg"},{"bike_id":"7bbcb1b4-ef5a-4bbd-b0c9-2ae4c79f55dd","system_id":"levelo_inurba_marseille","lat":43.296263,"lon":5.377094,"is_reserved":false,"is_disabled":false,"rental_uris":{"android":"levelo://app?vid=7bbcb1b4-ef5a-4bbd-b0c9-2ae4c79f55dd","ios":"levelo://app?vid=7bbcb1b4-ef5a-4bbd-b0c9-2ae4c79f55dd"},"vehicle_type_id":"4","last_reported":1717866436,"current_range_meters":31600,"station_id":"ce4bgi92rcd13ifvqb90","pricing_plan_id":"cebpf4jnsgd1na2vs0mg"},{"bike_id":"e122ac7f-7aae-406b-95af-7bfae7d9492b","system_id":"levelo_inurba_marseille","lat":43.29567,"lon":5.37638,"is_reserved":false,"is_disabled":false,"rental_uris":{"android":"levelo://app?vid=e122ac7f-7aae-406b-95af-7bfae7d9492b","ios":"levelo://app?vid=e122ac7f-7aae-406b-95af-7bfae7d9492b"},"vehicle_type_id":"4","last_reported":1717866436,"current_range_meters":0,"station_id":"ce4bhbh2rcd13ifvqepg","pricing_plan_id":"cebpf4jnsgd1na2vs0mg"},{"bike_id":"61388c8b-d639-4ae4-8ca7-68a70c0bc9bc","system_id":"levelo_inurba_marseille","lat":43.299724,"lon":5.384848,"is_reserved":false,"is_disabled":false,"rental_uris":{"android":"levelo://app?vid=61388c8b-d639-4ae4-8ca7-68a70c0bc9bc","ios":"levelo://app?vid=61388c8b-d639-4ae4-8ca7-68a70c0bc9bc"},"vehicle_type_id":"4","last_reported":1717866436,"current_range_meters":0,"station_id":"ce4bgj92rcd13ifvqbd0","pricing_plan_id":"cebpf4jnsgd1na2vs0mg"},{"bike_id":"c7f3988b-bfc1-46a3-a59d-6c73e00c54fb","system_id":"levelo_inurba_marseille","lat":43.299724,"lon":5.384848,"is_reserved":false,"is_disabled":false,"rental_uris":{"android":"levelo://app?vid=c7f3988b-bfc1-46a3-a59d-6c73e00c54fb","ios":"levelo://app?vid=c7f3988b-bfc1-46a3-a59d-6c73e00c54fb"},"vehicle_type_id":"4","last_reported":1717866436,"current_range_meters":8400,"station_id":"ce4bgj92rcd13ifvqbd0","pricing_plan_id":"cebpf4jnsgd1na2vs0mg"},{"bike_id":"2447c152-3ff5-415b-9f44-bef3dd4dbd66","system_id":"levelo_inurba_marseille","lat":43.299724,"lon":5.384848,"is_reserved":false,"is_disabled":false,"rental_uris":{"android":"levelo://app?vid=2447c152-3ff5-415b-9f44-bef3dd4dbd66","ios":"levelo://app?vid=2447c152-3ff5-415b-9f44-bef3dd4dbd66"},"vehicle_type_id":"4","last_reported":1717866436,"current_range_meters":11200,"station_id":"ce4bgj92rcd13ifvqbd0","pricing_plan_id":"cebpf4jnsgd1na2vs0mg"},{"bike_id":"4fdc45d7-7aa7-4531-aaf6-d2dedceca3b9","system_id":"levelo_inurba_marseille","lat":43.323678,"lon":5.388827,"is_reserved":false,"is_disabled":false,"rental_uris":{"android":"levelo://app?vid=4fdc45d7-7aa7-4531-aaf6-d2dedceca3b9","ios":"levelo://app?vid=4fdc45d7-7aa7-4531-aaf6-d2dedceca3b9"},"vehicle_type_id":"4","last_reported":1717866436,"current_range_meters":16800,"station_id":"ce4bhqp2rcd13ifvqhog","pricing_plan_id":"cebpf4jnsgd1na2vs0mg"},{"bike_id":"120032a2-8e5d-46ed-afc9-7f608ff7d951","system_id":"levelo_inurba_marseille","lat":43.32369,"lon":5.38883,"is_reserved":false,"is_disabled":false,"rental_uris":{"android":"levelo://app?vid=120032a2-8e5d-46ed-afc9-7f608ff7d951","ios":"levelo://app?vid=120032a2-8e5d-46ed-afc9-7f608ff7d951"},"vehicle_type_id":"4","last_reported":1717866436,"current_range_meters":20400,"station_id":"ce4bhqp2rcd13ifvqhog","pricing_plan_id":"cebpf4jnsgd1na2vs0mg"},{"bike_id":"9944fab0-5e32-476e-97e9-38567787c95b","system_id":"levelo_inurba_marseille","lat":43.32367,"lon":5.388836,"is_reserved":false,"is_disabled":false,"rental_uris":{"android":"levelo://app?vid=9944fab0-5e32-476e-97e9-38567787c95b","ios":"levelo://app?vid=9944fab0-5e32-476e-97e9-38567787c95b"},"vehicle_type_id":"4","last_reported":1717866436,"current_range_meters":16800,"station_id":"ce4bhqp2rcd13ifvqhog","pricing_plan_id":"cebpf4jnsgd1na2vs0mg"},{"bike_id":"7cb8bd6f-2e99-4563-9522-9ed8b6f9d778","system_id":"levelo_inurba_marseille","lat":43.32367,"lon":5.388836,"is_reserved":false,"is_disabled":false,"rental_uris":{"android":"levelo://app?vid=7cb8bd6f-2e99-4563-9522-9ed8b6f9d778","ios":"levelo://app?vid=7cb8bd6f-2e99-4563-9522-9ed8b6f9d778"},"vehicle_type_id":"4","last_reported":1717866436,"current_range_meters":10400,"station_id":"ce4bhqp2rcd13ifvqhog","pricing_plan_id":"cebpf4jnsgd1na2vs0mg"},{"bike_id":"3dde8037-0deb-466f-84c4-93f31a4fb0b3","system_id":"levelo_inurba_marseille","lat":43.29602,"lon":5.381084,"is_reserved":false,"is_disabled":false,"rental_uris":{"android":"levelo://app?vid=3dde8037-0deb-466f-84c4-93f31a4fb0b3","ios":"levelo://app?vid=3dde8037-0deb-466f-84c4-93f31a4fb0b3"},"vehicle_type_id":"4","last_reported":1717866436,"current_range_meters":19600,"station_id":"ce4bgl12rcd13ifvqbo0","pricing_plan_id":"cebpf4jnsgd1na2vs0mg"},{"bike_id":"315837c0-c8df-46d9-bd13-3577cb1d1e3b","system_id":"levelo_inurba_marseille","lat":43.29602,"lon":5.381084,"is_reserved":false,"is_disabled":false,"rental_uris":{"android":"levelo://app?vid=315837c0-c8df-46d9-bd13-3577cb1d1e3b","ios":"levelo://app?vid=315837c0-c8df-46d9-bd13-3577cb1d1e3b"},"vehicle_type_id":"4","last_reported":1717866436,"current_range_meters":0,"station_id":"ce4bgl12rcd13ifvqbo0","pricing_plan_id":"cebpf4jnsgd1na2vs0mg"},{"bike_id":"346990f6-4800-4541-b8e5-bba3536498ed","system_id":"levelo_inurba_marseille","lat":43.293249,"lon":5.371578,"is_reserved":false,"is_disabled":false,"rental_uris":{"android":"levelo://app?vid=346990f6-4800-4541-b8e5-bba3536498ed","ios":"levelo://app?vid=346990f6-4800-4541-b8e5-bba3536498ed"},"vehicle_type_id":"4","last_reported":1717866436,"current_range_meters":28000,"station_id":"ce4bgh92rcd13ifvqb40","pricing_plan_id":"cebpf4jnsgd1na2vs0mg"},{"bike_id":"8be50f2c-d99a-46e1-8798-5c1c2f618733","system_id":"levelo_inurba_marseille","lat":43.292749,"lon":5.368398,"is_reserved":false,"is_disabled":false,"rental_uris":{"android":"levelo://app?vid=8be50f2c-d99a-46e1-8798-5c1c2f618733","ios":"levelo://app?vid=8be50f2c-d99a-46e1-8798-5c1c2f618733"},"vehicle_type_id":"4","last_reported":1717866436,"current_range_meters":24400,"station_id":"ce4bhbp2rcd13ifvqesg","pricing_plan_id":"cebpf4jnsgd1na2vs0mg"},{"bike_id":"3d88a25e-5ce7-4b68-a31b-f99bf837feff","system_id":"levelo_inurba_marseille","lat":43.292749,"lon":5.368402,"is_reserved":false,"is_disabled":false,"rental_uris":{"android":"levelo://app?vid=3d88a25e-5ce7-4b68-a31b-f99bf837feff","ios":"levelo://app?vid=3d88a25e-5ce7-4b68-a31b-f99bf837feff"},"vehicle_type_id":"4","last_reported":1717866436,"current_range_meters":9600,"station_id":"ce4bhbp2rcd13ifvqesg","pricing_plan_id":"cebpf4jnsgd1na2vs0mg"},{"bike_id":"5a7d2361-abdc-42da-83b5-353896a842d8","system_id":"levelo_inurba_marseille","lat":43.29306,"lon":5.3746,"is_reserved":false,"is_disabled":false,"rental_uris":{"android":"levelo://app?vid=5a7d2361-abdc-42da-83b5-353896a842d8","ios":"levelo://app?vid=5a7d2361-abdc-42da-83b5-353896a842d8"},"vehicle_type_id":"4","last_reported":1717866436,"current_range_meters":0,"station_id":"ce4bgi12rcd13ifvqb70","pricing_plan_id":"cebpf4jnsgd1na2vs0mg"},{"bike_id":"e5328bf8-e87b-4617-a05b-867996e8f09b","system_id":"levelo_inurba_marseille","lat":43.293009,"lon":5.374584,"is_reserved":false,"is_disabled":false,"rental_uris":{"android":"levelo://app?vid=e5328bf8-e87b-4617-a05b-867996e8f09b","ios":"levelo://app?vid=e5328bf8-e87b-4617-a05b-867996e8f09b"},"vehicle_type_id":"4","last_reported":1717866436,"current_range_meters":0,"station_id":"ce4bgi12rcd13ifvqb70","pricing_plan_id":"cebpf4jnsgd1na2vs0mg"},{"bike_id":"184f8f94-a4f8-4199-92cb-d4054d0bda80","system_id":"levelo_inurba_marseille","lat":43.303002,"lon":5.392142,"is_reserved":false,"is_disabled":false,"rental_uris":{"android":"levelo://app?vid=184f8f94-a4f8-4199-92cb-d4054d0bda80","ios":"levelo://app?vid=184f8f94-a4f8-4199-92cb-d4054d0bda80"},"vehicle_type_id":"4","last_reported":1717866436,"current_range_meters":0,"station_id":"ce4bgkh2rcd13ifvqbk0","pricing_plan_id":"cebpf4jnsgd1na2vs0mg"},{"bike_id":"d28d6651-5c00-4bf1-b4e3-c84e03b4bebc","system_id":"levelo_inurba_marseille","lat":43.292282,"lon":5.361578,"is_reserved":false,"is_disabled":false,"rental_uris":{"android":"levelo://app?vid=d28d6651-5c00-4bf1-b4e3-c84e03b4bebc","ios":"levelo://app?vid=d28d6651-5c00-4bf1-b4e3-c84e03b4bebc"},"vehicle_type_id":"4","last_reported":1717866436,"current_range_meters":0,"station_id":"ce4bhbh2rcd13ifvqeqg","pricing_plan_id":"cebpf4jnsgd1na2vs0mg"},{"bike_id":"60eaf24e-3faf-482d-a228-4249e71afcb1","system_id":"levelo_inurba_marseille","lat":43.29229,"lon":5.36058,"is_reserved":false,"is_disabled":false,"rental_uris":{"android":"levelo://app?vid=60eaf24e-3faf-482d-a228-4249e71afcb1","ios":"levelo://app?vid=60eaf24e-3faf-482d-a228-4249e71afcb1"},"vehicle_type_id":"4","last_reported":1717866436,"current_range_meters":0,"station_id":"ce4bhbh2rcd13ifvqeqg","pricing_plan_id":"cebpf4jnsgd1na2vs0mg"},{"bike_id":"66c36b20-3f54-4867-97af-6a468444a8d4","system_id":"levelo_inurba_marseille","lat":43.292311,"lon":5.360731,"is_reserved":false,"is_disabled":false,"rental_uris":{"android":"levelo://app?vid=66c36b20-3f54-4867-97af-6a468444a8d4","ios":"levelo://app?vid=66c36b20-3f54-4867-97af-6a468444a8d4"},"vehicle_type_id":"4","last_reported":1717866436,"current_range_meters":0,"station_id":"ce4bhbh2rcd13ifvqeqg","pricing_plan_id":"cebpf4jnsgd1na2vs0mg"},{"bike_id":"66046e95-63a8-4a1d-816f-9b4258b9ca74","system_id":"levelo_inurba_marseille","lat":43.300933,"lon":5.390873,"is_reserved":false,"is_disabled":false,"rental_uris":{"android":"levelo://app?vid=66046e95-63a8-4a1d-816f-9b4258b9ca74","ios":"levelo://app?vid=66046e95-63a8-4a1d-816f-9b4258b9ca74"},"vehicle_type_id":"4","last_reported":1717866436,"current_range_meters":0,"station_id":"ce4bh192rcd13ifvqdb0","pricing_plan_id":"cebpf4jnsgd1na2vs0mg"},{"bike_id":"581d42c5-830e-40e2-92a1-7f4f03526822","system_id":"levelo_inurba_marseille","lat":43.3008,"lon":5.39084,"is_reserved":false,"is_disabled":false,"rental_uris":{"android":"levelo://app?vid=581d42c5-830e-40e2-92a1-7f4f03526822","ios":"levelo://app?vid=581d42c5-830e-40e2-92a1-7f4f03526822"},"vehicle_type_id":"4","last_reported":1717866436,"current_range_meters":0,"station_id":"","pricing_plan_id":"cebpf4jnsgd1na2vs0mg"},{"bike_id":"89cab554-7b38-4a0b-a000-2629e9413161","system_id":"levelo_inurba_marseille","lat":43.30085,"lon":5.390856,"is_reserved":false,"is_disabled":false,"rental_uris":{"android":"levelo://app?vid=89cab554-7b38-4a0b-a000-2629e9413161","ios":"levelo://app?vid=89cab554-7b38-4a0b-a000-2629e9413161"},"vehicle_type_id":"4","last_reported":1717866436,"current_range_meters":5600,"station_id":"ce4bh192rcd13ifvqdb0","pricing_plan_id":"cebpf4jnsgd1na2vs0mg"},{"bike_id":"0ccdd048-a3b1-4f8e-8788-18cb0b54da75","system_id":"levelo_inurba_marseille","lat":43.298764,"lon":5.388973,"is_reserved":false,"is_disabled":false,"rental_uris":{"android":"levelo://app?vid=0ccdd048-a3b1-4f8e-8788-18cb0b54da75","ios":"levelo://app?vid=0ccdd048-a3b1-4f8e-8788-18cb0b54da75"},"vehicle_type_id":"4","last_reported":1717866436,"current_range_meters":3200,"station_id":"ce4bh392rcd13ifvqdl0","pricing_plan_id":"cebpf4jnsgd1na2vs0mg"},{"bike_id":"0f83750f-e8b6-474a-bca3-5b2d61faa0c8","system_id":"levelo_inurba_marseille","lat":43.298764,"lon":5.388973,"is_reserved":false,"is_disabled":false,"rental_uris":{"android":"levelo://app?vid=0f83750f-e8b6-474a-bca3-5b2d61faa0c8","ios":"levelo://app?vid=0f83750f-e8b6-474a-bca3-5b2d61faa0c8"},"vehicle_type_id":"4","last_reported":1717866436,"current_range_meters":4400,"station_id":"ce4bh392rcd13ifvqdl0","pricing_plan_id":"cebpf4jnsgd1na2vs0mg"},{"bike_id":"3028c231-9e4f-4e9f-b0b3-2e7dc507a637","system_id":"levelo_inurba_marseille","lat":43.292005,"lon":5.357875,"is_reserved":false,"is_disabled":false,"rental_uris":{"android":"levelo://app?vid=3028c231-9e4f-4e9f-b0b3-2e7dc507a637","ios":"levelo://app?vid=3028c231-9e4f-4e9f-b0b3-2e7dc507a637"},"vehicle_type_id":"4","last_reported":1717866436,"current_range_meters":0,"station_id":"ce4bhb12rcd13ifvqel0","pricing_plan_id":"cebpf4jnsgd1na2vs0mg"},{"bike_id":"6f312ff6-bee9-4d2c-a7c7-8bc57ed1b3fb","system_id":"levelo_inurba_marseille","lat":43.313291,"lon":5.396838,"is_reserved":false,"is_disabled":false,"rental_uris":{"android":"levelo://app?vid=6f312ff6-bee9-4d2c-a7c7-8bc57ed1b3fb","ios":"levelo://app?vid=6f312ff6-bee9-4d2c-a7c7-8bc57ed1b3fb"},"vehicle_type_id":"4","last_reported":1717866436,"current_range_meters":23200,"station_id":"ce4bgvp2rcd13ifvqcu0","pricing_plan_id":"cebpf4jnsgd1na2vs0mg"},{"bike_id":"9ca37481-c191-4fdf-a71d-79ec86f14c69","system_id":"levelo_inurba_marseille","lat":43.291994,"lon":5.357886,"is_reserved":false,"is_disabled":false,"rental_uris":{"android":"levelo://app?vid=9ca37481-c191-4fdf-a71d-79ec86f14c69","ios":"levelo://app?vid=9ca37481-c191-4fdf-a71d-79ec86f14c69"},"vehicle_type_id":"4","last_reported":1717866436,"current_range_meters":1600,"station_id":"ce4bhb12rcd13ifvqel0","pricing_plan_id":"cebpf4jnsgd1na2vs0mg"},{"bike_id":"8bcc9018-cb56-4435-8969-bb5bb653653e","system_id":"levelo_inurba_marseille","lat":43.309038,"lon":5.396546,"is_reserved":false,"is_disabled":false,"rental_uris":{"android":"levelo://app?vid=8bcc9018-cb56-4435-8969-bb5bb653653e","ios":"levelo://app?vid=8bcc9018-cb56-4435-8969-bb5bb653653e"},"vehicle_type_id":"4","last_reported":1717866436,"current_range_meters":14800,"station_id":"ce4bh012rcd13ifvqcv0","pricing_plan_id":"cebpf4jnsgd1na2vs0mg"},{"bike_id":"dfcf4d0c-199d-4885-9ead-c0e6f915218e","system_id":"levelo_inurba_marseille","lat":43.313291,"lon":5.396838,"is_reserved":false,"is_disabled":false,"rental_uris":{"android":"levelo://app?vid=dfcf4d0c-199d-4885-9ead-c0e6f915218e","ios":"levelo://app?vid=dfcf4d0c-199d-4885-9ead-c0e6f915218e"},"vehicle_type_id":"4","last_reported":1717866436,"current_range_meters":10800,"station_id":"ce4bgvp2rcd13ifvqcu0","pricing_plan_id":"cebpf4jnsgd1na2vs0mg"},{"bike_id":"43ebd9ff-2284-454c-a923-313ba16d0633","system_id":"levelo_inurba_marseille","lat":43.29529,"lon":5.385581,"is_reserved":false,"is_disabled":false,"rental_uris":{"android":"levelo://app?vid=43ebd9ff-2284-454c-a923-313ba16d0633","ios":"levelo://app?vid=43ebd9ff-2284-454c-a923-313ba16d0633"},"vehicle_type_id":"4","last_reported":1717866436,"current_range_meters":10000,"station_id":"ce4bgih2rcd13ifvqba0","pricing_plan_id":"cebpf4jnsgd1na2vs0mg"},{"bike_id":"cd3f272f-b90d-476a-aa28-13456cbac3d3","system_id":"levelo_inurba_marseille","lat":43.29529,"lon":5.385581,"is_reserved":false,"is_disabled":false,"rental_uris":{"android":"levelo://app?vid=cd3f272f-b90d-476a-aa28-13456cbac3d3","ios":"levelo://app?vid=cd3f272f-b90d-476a-aa28-13456cbac3d3"},"vehicle_type_id":"4","last_reported":1717866436,"current_range_meters":6000,"station_id":"ce4bgih2rcd13ifvqba0","pricing_plan_id":"cebpf4jnsgd1na2vs0mg"},{"bike_id":"e4721b83-dac3-4448-a809-7494a4f9224c","system_id":"levelo_inurba_marseille","lat":43.29529,"lon":5.385581,"is_reserved":false,"is_disabled":false,"rental_uris":{"android":"levelo://app?vid=e4721b83-dac3-4448-a809-7494a4f9224c","ios":"levelo://app?vid=e4721b83-dac3-4448-a809-7494a4f9224c"},"vehicle_type_id":"4","last_reported":1717866436,"current_range_meters":14000,"station_id":"ce4bgih2rcd13ifvqba0","pricing_plan_id":"cebpf4jnsgd1na2vs0mg"},{"bike_id":"6042cc9b-09e9-4392-aaab-2f50f5ecd555","system_id":"levelo_inurba_marseille","lat":43.29529,"lon":5.385581,"is_reserved":false,"is_disabled":false,"rental_uris":{"android":"levelo://app?vid=6042cc9b-09e9-4392-aaab-2f50f5ecd555","ios":"levelo://app?vid=6042cc9b-09e9-4392-aaab-2f50f5ecd555"},"vehicle_type_id":"4","last_reported":1717866436,"current_range_meters":18000,"station_id":"ce4bgih2rcd13ifvqba0","pricing_plan_id":"cebpf4jnsgd1na2vs0mg"},{"bike_id":"4fce2736-e22f-4a4a-b67e-e3d156353dd9","system_id":"levelo_inurba_marseille","lat":43.290779,"lon":5.371482,"is_reserved":false,"is_disabled":false,"rental_uris":{"android":"levelo://app?vid=4fce2736-e22f-4a4a-b67e-e3d156353dd9","ios":"levelo://app?vid=4fce2736-e22f-4a4a-b67e-e3d156353dd9"},"vehicle_type_id":"4","last_reported":1717866436,"current_range_meters":13200,"station_id":"ce4bh5p2rcd13ifvqe4g","pricing_plan_id":"cebpf4jnsgd1na2vs0mg"},{"bike_id":"f8d57877-cfb5-464b-9624-73aebba965d0","system_id":"levelo_inurba_marseille","lat":43.290779,"lon":5.371482,"is_reserved":false,"is_disabled":false,"rental_uris":{"android":"levelo://app?vid=f8d57877-cfb5-464b-9624-73aebba965d0","ios":"levelo://app?vid=f8d57877-cfb5-464b-9624-73aebba965d0"},"vehicle_type_id":"4","last_reported":1717866436,"current_range_meters":28400,"station_id":"ce4bh5p2rcd13ifvqe4g","pricing_plan_id":"cebpf4jnsgd1na2vs0mg"},{"bike_id":"edbb074f-741e-4608-8218-f8596beec171","system_id":"levelo_inurba_marseille","lat":43.290664,"lon":5.371574,"is_reserved":false,"is_disabled":false,"rental_uris":{"android":"levelo://app?vid=edbb074f-741e-4608-8218-f8596beec171","ios":"levelo://app?vid=edbb074f-741e-4608-8218-f8596beec171"},"vehicle_type_id":"4","last_reported":1717866436,"current_range_meters":16400,"station_id":"ce4bh5p2rcd13ifvqe4g","pricing_plan_id":"cebpf4jnsgd1na2vs0mg"},{"bike_id":"6edcf5ea-73f0-45c0-8f43-e22386c322a8","system_id":"levelo_inurba_marseille","lat":43.309047,"lon":5.396551,"is_reserved":false,"is_disabled":false,"rental_uris":{"android":"levelo://app?vid=6edcf5ea-73f0-45c0-8f43-e22386c322a8","ios":"levelo://app?vid=6edcf5ea-73f0-45c0-8f43-e22386c322a8"},"vehicle_type_id":"4","last_reported":1717866436,"current_range_meters":1200,"station_id":"ce4bh012rcd13ifvqcv0","pricing_plan_id":"cebpf4jnsgd1na2vs0mg"},{"bike_id":"3ee39884-ff85-4c0c-bbf1-96a560010c5a","system_id":"levelo_inurba_marseille","lat":43.29059,"lon":5.37166,"is_reserved":false,"is_disabled":false,"rental_uris":{"android":"levelo://app?vid=3ee39884-ff85-4c0c-bbf1-96a560010c5a","ios":"levelo://app?vid=3ee39884-ff85-4c0c-bbf1-96a560010c5a"},"vehicle_type_id":"4","last_reported":1717866436,"current_range_meters":0,"station_id":"ce4bh5p2rcd13ifvqe4g","pricing_plan_id":"cebpf4jnsgd1na2vs0mg"},{"bike_id":"1941eece-4281-4e1a-b5a9-0d345ce189b5","system_id":"levelo_inurba_marseille","lat":43.294429,"lon":5.385799,"is_reserved":false,"is_disabled":false,"rental_uris":{"android":"levelo://app?vid=1941eece-4281-4e1a-b5a9-0d345ce189b5","ios":"levelo://app?vid=1941eece-4281-4e1a-b5a9-0d345ce189b5"},"vehicle_type_id":"4","last_reported":1717866436,"current_range_meters":0,"station_id":"","pricing_plan_id":"cebpf4jnsgd1na2vs0mg"},{"bike_id":"149356fa-cea6-4190-a429-35a0a525c74d","system_id":"levelo_inurba_marseille","lat":43.290631,"lon":5.359244,"is_reserved":false,"is_disabled":false,"rental_uris":{"android":"levelo://app?vid=149356fa-cea6-4190-a429-35a0a525c74d","ios":"levelo://app?vid=149356fa-cea6-4190-a429-35a0a525c74d"},"vehicle_type_id":"4","last_reported":1717866436,"current_range_meters":11200,"station_id":"ce4bha92rcd13ifvqeg0","pricing_plan_id":"cebpf4jnsgd1na2vs0mg"},{"bike_id":"0b8d6707-d04b-49ab-b5ae-56c07b083c3f","system_id":"levelo_inurba_marseille","lat":43.289184,"lon":5.366408,"is_reserved":false,"is_disabled":false,"rental_uris":{"android":"levelo://app?vid=0b8d6707-d04b-49ab-b5ae-56c07b083c3f","ios":"levelo://app?vid=0b8d6707-d04b-49ab-b5ae-56c07b083c3f"},"vehicle_type_id":"4","last_reported":1717866436,"current_range_meters":28800,"station_id":"ce4bhap2rcd13ifvqek0","pricing_plan_id":"cebpf4jnsgd1na2vs0mg"},{"bike_id":"4f8d0b33-38f4-4bf5-ba93-edc250415b9d","system_id":"levelo_inurba_marseille","lat":43.294153,"lon":5.386305,"is_reserved":false,"is_disabled":false,"rental_uris":{"android":"levelo://app?vid=4f8d0b33-38f4-4bf5-ba93-edc250415b9d","ios":"levelo://app?vid=4f8d0b33-38f4-4bf5-ba93-edc250415b9d"},"vehicle_type_id":"4","last_reported":1717866436,"current_range_meters":19600,"station_id":"ce4bh2h2rcd13ifvqdh0","pricing_plan_id":"cebpf4jnsgd1na2vs0mg"},{"bike_id":"4d0e7d11-39e3-48c9-8b2f-dcb3c4a3b545","system_id":"levelo_inurba_marseille","lat":43.290327,"lon":5.375711,"is_reserved":false,"is_disabled":false,"rental_uris":{"android":"levelo://app?vid=4d0e7d11-39e3-48c9-8b2f-dcb3c4a3b545","ios":"levelo://app?vid=4d0e7d11-39e3-48c9-8b2f-dcb3c4a3b545"},"vehicle_type_id":"4","last_reported":1717866436,"current_range_meters":400,"station_id":"ce4bh692rcd13ifvqe90","pricing_plan_id":"cebpf4jnsgd1na2vs0mg"},{"bike_id":"9beac4be-7c70-49f5-ae30-0cbf57989c45","system_id":"levelo_inurba_marseille","lat":43.29033,"lon":5.37546,"is_reserved":false,"is_disabled":false,"rental_uris":{"android":"levelo://app?vid=9beac4be-7c70-49f5-ae30-0cbf57989c45","ios":"levelo://app?vid=9beac4be-7c70-49f5-ae30-0cbf57989c45"},"vehicle_type_id":"4","last_reported":1717866436,"current_range_meters":17600,"station_id":"ce4bh692rcd13ifvqe90","pricing_plan_id":"cebpf4jnsgd1na2vs0mg"},{"bike_id":"0f9411c1-c9ab-4670-90f9-de58f6ebd348","system_id":"levelo_inurba_marseille","lat":43.294162,"lon":5.386292,"is_reserved":false,"is_disabled":false,"rental_uris":{"android":"levelo://app?vid=0f9411c1-c9ab-4670-90f9-de58f6ebd348","ios":"levelo://app?vid=0f9411c1-c9ab-4670-90f9-de58f6ebd348"},"vehicle_type_id":"4","last_reported":1717866436,"current_range_meters":14800,"station_id":"ce4bh2h2rcd13ifvqdh0","pricing_plan_id":"cebpf4jnsgd1na2vs0mg"},{"bike_id":"5958e171-a914-4fe4-a07b-d348a36bf6fa","system_id":"levelo_inurba_marseille","lat":43.28947,"lon":5.36633,"is_reserved":false,"is_disabled":false,"rental_uris":{"android":"levelo://app?vid=5958e171-a914-4fe4-a07b-d348a36bf6fa","ios":"levelo://app?vid=5958e171-a914-4fe4-a07b-d348a36bf6fa"},"vehicle_type_id":"4","last_reported":1717866436,"current_range_meters":19200,"station_id":"ce4bhap2rcd13ifvqek0","pricing_plan_id":"cebpf4jnsgd1na2vs0mg"},{"bike_id":"e57b3c7e-dfce-4e4b-88bd-2b1d030e9977","system_id":"levelo_inurba_marseille","lat":43.294162,"lon":5.386292,"is_reserved":false,"is_disabled":false,"rental_uris":{"android":"levelo://app?vid=e57b3c7e-dfce-4e4b-88bd-2b1d030e9977","ios":"levelo://app?vid=e57b3c7e-dfce-4e4b-88bd-2b1d030e9977"},"vehicle_type_id":"4","last_reported":1717866436,"current_range_meters":800,"station_id":"ce4bh2h2rcd13ifvqdh0","pricing_plan_id":"cebpf4jnsgd1na2vs0mg"},{"bike_id":"e3224166-aec2-4578-879e-6e8608012268","system_id":"levelo_inurba_marseille","lat":43.28945,"lon":5.36635,"is_reserved":false,"is_disabled":false,"rental_uris":{"android":"levelo://app?vid=e3224166-aec2-4578-879e-6e8608012268","ios":"levelo://app?vid=e3224166-aec2-4578-879e-6e8608012268"},"vehicle_type_id":"4","last_reported":1717866436,"current_range_meters":6400,"station_id":"ce4bhap2rcd13ifvqek0","pricing_plan_id":"cebpf4jnsgd1na2vs0mg"},{"bike_id":"006f055f-b37a-4529-8c7b-cb10c9d5be05","system_id":"levelo_inurba_marseille","lat":43.290319,"lon":5.375732,"is_reserved":false,"is_disabled":false,"rental_uris":{"android":"levelo://app?vid=006f055f-b37a-4529-8c7b-cb10c9d5be05","ios":"levelo://app?vid=006f055f-b37a-4529-8c7b-cb10c9d5be05"},"vehicle_type_id":"4","last_reported":1717866436,"current_range_meters":0,"station_id":"ce4bh692rcd13ifvqe90","pricing_plan_id":"cebpf4jnsgd1na2vs0mg"},{"bike_id":"d161dbc4-181f-4bcc-af41-01b2d0902214","system_id":"levelo_inurba_marseille","lat":43.2894,"lon":5.3664,"is_reserved":false,"is_disabled":false,"rental_uris":{"android":"levelo://app?vid=d161dbc4-181f-4bcc-af41-01b2d0902214","ios":"levelo://app?vid=d161dbc4-181f-4bcc-af41-01b2d0902214"},"vehicle_type_id":"4","last_reported":1717866436,"current_range_meters":17200,"station_id":"ce4bhap2rcd13ifvqek0","pricing_plan_id":"cebpf4jnsgd1na2vs0mg"},{"bike_id":"cf1df7b2-fd14-481c-a993-86435c8b274a","system_id":"levelo_inurba_marseille","lat":43.289741,"lon":5.378306,"is_reserved":false,"is_disabled":false,"rental_uris":{"android":"levelo://app?vid=cf1df7b2-fd14-481c-a993-86435c8b274a","ios":"levelo://app?vid=cf1df7b2-fd14-481c-a993-86435c8b274a"},"vehicle_type_id":"4","last_reported":1717866436,"current_range_meters":6000,"station_id":"ce4bh9p2rcd13ifvqed0","pricing_plan_id":"cebpf4jnsgd1na2vs0mg"},{"bike_id":"e2147445-80d7-482e-bbe6-22001511e30f","system_id":"levelo_inurba_marseille","lat":43.29573,"lon":5.367355,"is_reserved":false,"is_disabled":false,"rental_uris":{"android":"levelo://app?vid=e2147445-80d7-482e-bbe6-22001511e30f","ios":"levelo://app?vid=e2147445-80d7-482e-bbe6-22001511e30f"},"vehicle_type_id":"4","last_reported":1717866436,"current_range_meters":0,"station_id":"ce4bgph2rcd13ifvqc2g","pricing_plan_id":"cebpf4jnsgd1na2vs0mg"},{"bike_id":"ac526cd0-4537-4e91-85a6-b32d6e6998be","system_id":"levelo_inurba_marseille","lat":43.292644,"lon":5.384257,"is_reserved":false,"is_disabled":false,"rental_uris":{"android":"levelo://app?vid=ac526cd0-4537-4e91-85a6-b32d6e6998be","ios":"levelo://app?vid=ac526cd0-4537-4e91-85a6-b32d6e6998be"},"vehicle_type_id":"4","last_reported":1717866436,"current_range_meters":2800,"station_id":"ce4bh692rcd13ifvqea0","pricing_plan_id":"cebpf4jnsgd1na2vs0mg"},{"bike_id":"7f68ffff-6ac2-41f3-aeb6-446f2db28241","system_id":"levelo_inurba_marseille","lat":43.292642,"lon":5.384254,"is_reserved":false,"is_disabled":false,"rental_uris":{"android":"levelo://app?vid=7f68ffff-6ac2-41f3-aeb6-446f2db28241","ios":"levelo://app?vid=7f68ffff-6ac2-41f3-aeb6-446f2db28241"},"vehicle_type_id":"4","last_reported":1717866436,"current_range_meters":0,"station_id":"ce4bh692rcd13ifvqea0","pricing_plan_id":"cebpf4jnsgd1na2vs0mg"},{"bike_id":"365755b9-a1de-4fa9-bf84-90bb4de44a56","system_id":"levelo_inurba_marseille","lat":43.290103,"lon":5.356114,"is_reserved":false,"is_disabled":false,"rental_uris":{"android":"levelo://app?vid=365755b9-a1de-4fa9-bf84-90bb4de44a56","ios":"levelo://app?vid=365755b9-a1de-4fa9-bf84-90bb4de44a56"},"vehicle_type_id":"4","last_reported":1717866436,"current_range_meters":0,"station_id":"ce4bhb92rcd13ifvqen0","pricing_plan_id":"cebpf4jnsgd1na2vs0mg"},{"bike_id":"c511dc9b-e3f0-4d06-9132-5dfe953f551a","system_id":"levelo_inurba_marseille","lat":43.290104,"lon":5.356111,"is_reserved":false,"is_disabled":false,"rental_uris":{"android":"levelo://app?vid=c511dc9b-e3f0-4d06-9132-5dfe953f551a","ios":"levelo://app?vid=c511dc9b-e3f0-4d06-9132-5dfe953f551a"},"vehicle_type_id":"4","last_reported":1717866436,"current_range_meters":13600,"station_id":"ce4bhb92rcd13ifvqen0","pricing_plan_id":"cebpf4jnsgd1na2vs0mg"},{"bike_id":"a5b93771-abd5-41ee-9ef9-729b69e5cc30","system_id":"levelo_inurba_marseille","lat":43.29003,"lon":5.35614,"is_reserved":false,"is_disabled":false,"rental_uris":{"android":"levelo://app?vid=a5b93771-abd5-41ee-9ef9-729b69e5cc30","ios":"levelo://app?vid=a5b93771-abd5-41ee-9ef9-729b69e5cc30"},"vehicle_type_id":"4","last_reported":1717866436,"current_range_meters":0,"station_id":"ce4bhb92rcd13ifvqen0","pricing_plan_id":"cebpf4jnsgd1na2vs0mg"},{"bike_id":"bf9c47fb-b1c1-4e43-bfdb-01625c717c64","system_id":"levelo_inurba_marseille","lat":43.290104,"lon":5.356111,"is_reserved":false,"is_disabled":false,"rental_uris":{"android":"levelo://app?vid=bf9c47fb-b1c1-4e43-bfdb-01625c717c64","ios":"levelo://app?vid=bf9c47fb-b1c1-4e43-bfdb-01625c717c64"},"vehicle_type_id":"4","last_reported":1717866436,"current_range_meters":22400,"station_id":"ce4bhb92rcd13ifvqen0","pricing_plan_id":"cebpf4jnsgd1na2vs0mg"},{"bike_id":"ea26fa8b-1582-4ecf-8c34-f3fd344eb978","system_id":"levelo_inurba_marseille","lat":43.290104,"lon":5.356111,"is_reserved":false,"is_disabled":false,"rental_uris":{"android":"levelo://app?vid=ea26fa8b-1582-4ecf-8c34-f3fd344eb978","ios":"levelo://app?vid=ea26fa8b-1582-4ecf-8c34-f3fd344eb978"},"vehicle_type_id":"4","last_reported":1717866436,"current_range_meters":16800,"station_id":"ce4bhb92rcd13ifvqen0","pricing_plan_id":"cebpf4jnsgd1na2vs0mg"},{"bike_id":"393e32a5-8ef0-4e7b-b0a0-883fcb199591","system_id":"levelo_inurba_marseille","lat":43.290104,"lon":5.356111,"is_reserved":false,"is_disabled":false,"rental_uris":{"android":"levelo://app?vid=393e32a5-8ef0-4e7b-b0a0-883fcb199591","ios":"levelo://app?vid=393e32a5-8ef0-4e7b-b0a0-883fcb199591"},"vehicle_type_id":"4","last_reported":1717866436,"current_range_meters":6000,"station_id":"ce4bhb92rcd13ifvqen0","pricing_plan_id":"cebpf4jnsgd1na2vs0mg"},{"bike_id":"6bb4ad2d-47f7-4038-8d15-96919ce8359d","system_id":"levelo_inurba_marseille","lat":43.290104,"lon":5.356111,"is_reserved":false,"is_disabled":false,"rental_uris":{"android":"levelo://app?vid=6bb4ad2d-47f7-4038-8d15-96919ce8359d","ios":"levelo://app?vid=6bb4ad2d-47f7-4038-8d15-96919ce8359d"},"vehicle_type_id":"4","last_reported":1717866436,"current_range_meters":21200,"station_id":"ce4bhb92rcd13ifvqen0","pricing_plan_id":"cebpf4jnsgd1na2vs0mg"},{"bike_id":"e8bac341-7224-4350-9d44-266dbb2ac112","system_id":"levelo_inurba_marseille","lat":43.290104,"lon":5.356111,"is_reserved":false,"is_disabled":false,"rental_uris":{"android":"levelo://app?vid=e8bac341-7224-4350-9d44-266dbb2ac112","ios":"levelo://app?vid=e8bac341-7224-4350-9d44-266dbb2ac112"},"vehicle_type_id":"4","last_reported":1717866436,"current_range_meters":16800,"station_id":"ce4bhb92rcd13ifvqen0","pricing_plan_id":"cebpf4jnsgd1na2vs0mg"},{"bike_id":"c78edbed-b9c4-4587-885a-4eb66896ac57","system_id":"levelo_inurba_marseille","lat":43.290971,"lon":5.381351,"is_reserved":false,"is_disabled":false,"rental_uris":{"android":"levelo://app?vid=c78edbed-b9c4-4587-885a-4eb66896ac57","ios":"levelo://app?vid=c78edbed-b9c4-4587-885a-4eb66896ac57"},"vehicle_type_id":"4","last_reported":1717866436,"current_range_meters":0,"station_id":"ce4bh512rcd13ifvqe2g","pricing_plan_id":"cebpf4jnsgd1na2vs0mg"},{"bike_id":"3816a580-5962-4a0d-a461-d0e37867170d","system_id":"levelo_inurba_marseille","lat":43.290995,"lon":5.381361,"is_reserved":false,"is_disabled":false,"rental_uris":{"android":"levelo://app?vid=3816a580-5962-4a0d-a461-d0e37867170d","ios":"levelo://app?vid=3816a580-5962-4a0d-a461-d0e37867170d"},"vehicle_type_id":"4","last_reported":1717866436,"current_range_meters":0,"station_id":"ce4bh512rcd13ifvqe2g","pricing_plan_id":"cebpf4jnsgd1na2vs0mg"},{"bike_id":"712e9e28-e7d7-4e3f-a9a0-2982f4355bb8","system_id":"levelo_inurba_marseille","lat":43.289741,"lon":5.378306,"is_reserved":false,"is_disabled":false,"rental_uris":{"android":"levelo://app?vid=712e9e28-e7d7-4e3f-a9a0-2982f4355bb8","ios":"levelo://app?vid=712e9e28-e7d7-4e3f-a9a0-2982f4355bb8"},"vehicle_type_id":"4","last_reported":1717866436,"current_range_meters":6800,"station_id":"ce4bh9p2rcd13ifvqed0","pricing_plan_id":"cebpf4jnsgd1na2vs0mg"},{"bike_id":"6854d524-35e4-4853-8d2c-924fd6084dbf","system_id":"levelo_inurba_marseille","lat":43.330442,"lon":5.389148,"is_reserved":false,"is_disabled":false,"rental_uris":{"android":"levelo://app?vid=6854d524-35e4-4853-8d2c-924fd6084dbf","ios":"levelo://app?vid=6854d524-35e4-4853-8d2c-924fd6084dbf"},"vehicle_type_id":"4","last_reported":1717866436,"current_range_meters":18400,"station_id":"ce4bhr92rcd13ifvqhrg","pricing_plan_id":"cebpf4jnsgd1na2vs0mg"},{"bike_id":"ea7b9647-0204-4e61-a326-76d8c5f933c7","system_id":"levelo_inurba_marseille","lat":43.287184,"lon":5.37937,"is_reserved":false,"is_disabled":false,"rental_uris":{"android":"levelo://app?vid=ea7b9647-0204-4e61-a326-76d8c5f933c7","ios":"levelo://app?vid=ea7b9647-0204-4e61-a326-76d8c5f933c7"},"vehicle_type_id":"4","last_reported":1717866436,"current_range_meters":18400,"station_id":"ce4bh9p2rcd13ifvqec0","pricing_plan_id":"cebpf4jnsgd1na2vs0mg"},{"bike_id":"4e7260c9-b025-4163-acbf-be784b063ef7","system_id":"levelo_inurba_marseille","lat":43.290104,"lon":5.356111,"is_reserved":false,"is_disabled":false,"rental_uris":{"android":"levelo://app?vid=4e7260c9-b025-4163-acbf-be784b063ef7","ios":"levelo://app?vid=4e7260c9-b025-4163-acbf-be784b063ef7"},"vehicle_type_id":"4","last_reported":1717866436,"current_range_meters":0,"station_id":"ce4bhb92rcd13ifvqen0","pricing_plan_id":"cebpf4jnsgd1na2vs0mg"},{"bike_id":"ee98da52-5ee5-41c2-9dbf-85381998848e","system_id":"levelo_inurba_marseille","lat":43.2901,"lon":5.381269,"is_reserved":false,"is_disabled":false,"rental_uris":{"android":"levelo://app?vid=ee98da52-5ee5-41c2-9dbf-85381998848e","ios":"levelo://app?vid=ee98da52-5ee5-41c2-9dbf-85381998848e"},"vehicle_type_id":"4","last_reported":1717866436,"current_range_meters":0,"station_id":"ce4bh4p2rcd13ifvqe1g","pricing_plan_id":"cebpf4jnsgd1na2vs0mg"},{"bike_id":"34c7c508-7be7-4e57-a4f7-170bad97b8f8","system_id":"levelo_inurba_marseille","lat":43.2882,"lon":5.372915,"is_reserved":false,"is_disabled":false,"rental_uris":{"android":"levelo://app?vid=34c7c508-7be7-4e57-a4f7-170bad97b8f8","ios":"levelo://app?vid=34c7c508-7be7-4e57-a4f7-170bad97b8f8"},"vehicle_type_id":"4","last_reported":1717866436,"current_range_meters":22000,"station_id":"ce4bh692rcd13ifvqe90","pricing_plan_id":"cebpf4jnsgd1na2vs0mg"},{"bike_id":"e6fab256-881b-4938-ae49-90caebd5c110","system_id":"levelo_inurba_marseille","lat":43.301117,"lon":5.398795,"is_reserved":false,"is_disabled":false,"rental_uris":{"android":"levelo://app?vid=e6fab256-881b-4938-ae49-90caebd5c110","ios":"levelo://app?vid=e6fab256-881b-4938-ae49-90caebd5c110"},"vehicle_type_id":"4","last_reported":1717866436,"current_range_meters":18000,"station_id":"ce4bh0h2rcd13ifvqd40","pricing_plan_id":"cebpf4jnsgd1na2vs0mg"},{"bike_id":"01057a12-b402-4ffd-bf2b-e77a9689cc27","system_id":"levelo_inurba_marseille","lat":43.28856,"lon":5.358371,"is_reserved":false,"is_disabled":false,"rental_uris":{"android":"levelo://app?vid=01057a12-b402-4ffd-bf2b-e77a9689cc27","ios":"levelo://app?vid=01057a12-b402-4ffd-bf2b-e77a9689cc27"},"vehicle_type_id":"4","last_reported":1717866436,"current_range_meters":19200,"station_id":"ce4bhb12rcd13ifvqem0","pricing_plan_id":"cebpf4jnsgd1na2vs0mg"},{"bike_id":"fc471d48-d1e1-4b3f-af14-3adcd30a4285","system_id":"levelo_inurba_marseille","lat":43.28856,"lon":5.358371,"is_reserved":false,"is_disabled":false,"rental_uris":{"android":"levelo://app?vid=fc471d48-d1e1-4b3f-af14-3adcd30a4285","ios":"levelo://app?vid=fc471d48-d1e1-4b3f-af14-3adcd30a4285"},"vehicle_type_id":"4","last_reported":1717866436,"current_range_meters":0,"station_id":"ce4bhb12rcd13ifvqem0","pricing_plan_id":"cebpf4jnsgd1na2vs0mg"},{"bike_id":"b06acfd3-99c7-4983-a59f-ed5d63852f16","system_id":"levelo_inurba_marseille","lat":43.28856,"lon":5.358371,"is_reserved":false,"is_disabled":false,"rental_uris":{"android":"levelo://app?vid=b06acfd3-99c7-4983-a59f-ed5d63852f16","ios":"levelo://app?vid=b06acfd3-99c7-4983-a59f-ed5d63852f16"},"vehicle_type_id":"4","last_reported":1717866436,"current_range_meters":21600,"station_id":"ce4bhb12rcd13ifvqem0","pricing_plan_id":"cebpf4jnsgd1na2vs0mg"},{"bike_id":"3b4b95f6-7b40-4b13-a762-7a608cd7f807","system_id":"levelo_inurba_marseille","lat":43.28856,"lon":5.358371,"is_reserved":false,"is_disabled":false,"rental_uris":{"android":"levelo://app?vid=3b4b95f6-7b40-4b13-a762-7a608cd7f807","ios":"levelo://app?vid=3b4b95f6-7b40-4b13-a762-7a608cd7f807"},"vehicle_type_id":"4","last_reported":1717866436,"current_range_meters":0,"station_id":"ce4bhb12rcd13ifvqem0","pricing_plan_id":"cebpf4jnsgd1na2vs0mg"},{"bike_id":"be749423-7649-4ebe-a7df-61a7322090d1","system_id":"levelo_inurba_marseille","lat":43.28856,"lon":5.358371,"is_reserved":false,"is_disabled":false,"rental_uris":{"android":"levelo://app?vid=be749423-7649-4ebe-a7df-61a7322090d1","ios":"levelo://app?vid=be749423-7649-4ebe-a7df-61a7322090d1"},"vehicle_type_id":"4","last_reported":1717866436,"current_range_meters":0,"station_id":"ce4bhb12rcd13ifvqem0","pricing_plan_id":"cebpf4jnsgd1na2vs0mg"},{"bike_id":"17548e32-e4ad-4cd0-9a56-273463d1dd66","system_id":"levelo_inurba_marseille","lat":43.28845,"lon":5.3584,"is_reserved":false,"is_disabled":false,"rental_uris":{"android":"levelo://app?vid=17548e32-e4ad-4cd0-9a56-273463d1dd66","ios":"levelo://app?vid=17548e32-e4ad-4cd0-9a56-273463d1dd66"},"vehicle_type_id":"4","last_reported":1717866436,"current_range_meters":0,"station_id":"ce4bhb12rcd13ifvqem0","pricing_plan_id":"cebpf4jnsgd1na2vs0mg"},{"bike_id":"0e24256e-b541-48ee-ae66-5be832784c31","system_id":"levelo_inurba_marseille","lat":43.28856,"lon":5.358371,"is_reserved":false,"is_disabled":false,"rental_uris":{"android":"levelo://app?vid=0e24256e-b541-48ee-ae66-5be832784c31","ios":"levelo://app?vid=0e24256e-b541-48ee-ae66-5be832784c31"},"vehicle_type_id":"4","last_reported":1717866436,"current_range_meters":12000,"station_id":"ce4bhb12rcd13ifvqem0","pricing_plan_id":"cebpf4jnsgd1na2vs0mg"},{"bike_id":"f5d81ff7-7e0d-44d8-86e3-2548419d17b8","system_id":"levelo_inurba_marseille","lat":43.3373,"lon":5.37466,"is_reserved":false,"is_disabled":false,"rental_uris":{"android":"levelo://app?vid=f5d81ff7-7e0d-44d8-86e3-2548419d17b8","ios":"levelo://app?vid=f5d81ff7-7e0d-44d8-86e3-2548419d17b8"},"vehicle_type_id":"4","last_reported":1717866436,"current_range_meters":4400,"station_id":"","pricing_plan_id":"cebpf4jnsgd1na2vs0mg"},{"bike_id":"d256bed8-b9cb-4a34-b6bc-09336e7d5754","system_id":"levelo_inurba_marseille","lat":43.288445,"lon":5.357646,"is_reserved":false,"is_disabled":false,"rental_uris":{"android":"levelo://app?vid=d256bed8-b9cb-4a34-b6bc-09336e7d5754","ios":"levelo://app?vid=d256bed8-b9cb-4a34-b6bc-09336e7d5754"},"vehicle_type_id":"4","last_reported":1717866436,"current_range_meters":0,"station_id":"ce4bhb12rcd13ifvqem0","pricing_plan_id":"cebpf4jnsgd1na2vs0mg"},{"bike_id":"d2fd5d70-8616-428b-a82b-70904026c99b","system_id":"levelo_inurba_marseille","lat":43.312609,"lon":5.401662,"is_reserved":false,"is_disabled":false,"rental_uris":{"android":"levelo://app?vid=d2fd5d70-8616-428b-a82b-70904026c99b","ios":"levelo://app?vid=d2fd5d70-8616-428b-a82b-70904026c99b"},"vehicle_type_id":"4","last_reported":1717866436,"current_range_meters":7600,"station_id":"ce4bh092rcd13ifvqd30","pricing_plan_id":"cebpf4jnsgd1na2vs0mg"},{"bike_id":"d9fd565e-5afd-48fc-98fa-3035e10cafdc","system_id":"levelo_inurba_marseille","lat":43.31279,"lon":5.4017,"is_reserved":false,"is_disabled":false,"rental_uris":{"android":"levelo://app?vid=d9fd565e-5afd-48fc-98fa-3035e10cafdc","ios":"levelo://app?vid=d9fd565e-5afd-48fc-98fa-3035e10cafdc"},"vehicle_type_id":"4","last_reported":1717866436,"current_range_meters":4000,"station_id":"ce4bh092rcd13ifvqd30","pricing_plan_id":"cebpf4jnsgd1na2vs0mg"},{"bike_id":"527c8278-6351-4925-bce7-002d3ad83d8e","system_id":"levelo_inurba_marseille","lat":43.33747,"lon":5.37455,"is_reserved":false,"is_disabled":false,"rental_uris":{"android":"levelo://app?vid=527c8278-6351-4925-bce7-002d3ad83d8e","ios":"levelo://app?vid=527c8278-6351-4925-bce7-002d3ad83d8e"},"vehicle_type_id":"4","last_reported":1717866436,"current_range_meters":29200,"station_id":"","pricing_plan_id":"cebpf4jnsgd1na2vs0mg"},{"bike_id":"44ed8336-f932-4401-aefa-006820b5ac26","system_id":"levelo_inurba_marseille","lat":43.309371,"lon":5.401449,"is_reserved":false,"is_disabled":false,"rental_uris":{"android":"levelo://app?vid=44ed8336-f932-4401-aefa-006820b5ac26","ios":"levelo://app?vid=44ed8336-f932-4401-aefa-006820b5ac26"},"vehicle_type_id":"4","last_reported":1717866436,"current_range_meters":12000,"station_id":"ce4bgvp2rcd13ifvqct0","pricing_plan_id":"cebpf4jnsgd1na2vs0mg"},{"bike_id":"dce5a196-8ea2-4112-abbd-9c1b5782bd0c","system_id":"levelo_inurba_marseille","lat":43.309371,"lon":5.401449,"is_reserved":false,"is_disabled":false,"rental_uris":{"android":"levelo://app?vid=dce5a196-8ea2-4112-abbd-9c1b5782bd0c","ios":"levelo://app?vid=dce5a196-8ea2-4112-abbd-9c1b5782bd0c"},"vehicle_type_id":"4","last_reported":1717866436,"current_range_meters":6800,"station_id":"ce4bgvp2rcd13ifvqct0","pricing_plan_id":"cebpf4jnsgd1na2vs0mg"},{"bike_id":"44720e2d-ea3f-4276-b05a-7e28e141d02b","system_id":"levelo_inurba_marseille","lat":43.301117,"lon":5.398795,"is_reserved":false,"is_disabled":false,"rental_uris":{"android":"levelo://app?vid=44720e2d-ea3f-4276-b05a-7e28e141d02b","ios":"levelo://app?vid=44720e2d-ea3f-4276-b05a-7e28e141d02b"},"vehicle_type_id":"4","last_reported":1717866436,"current_range_meters":0,"station_id":"ce4bh0h2rcd13ifvqd40","pricing_plan_id":"cebpf4jnsgd1na2vs0mg"},{"bike_id":"10c53891-9146-44ae-9185-bf8cc571acaa","system_id":"levelo_inurba_marseille","lat":43.33762,"lon":5.3745,"is_reserved":false,"is_disabled":false,"rental_uris":{"android":"levelo://app?vid=10c53891-9146-44ae-9185-bf8cc571acaa","ios":"levelo://app?vid=10c53891-9146-44ae-9185-bf8cc571acaa"},"vehicle_type_id":"4","last_reported":1717866436,"current_range_meters":7600,"station_id":"","pricing_plan_id":"cebpf4jnsgd1na2vs0mg"},{"bike_id":"0849423f-b5df-4913-bed0-73943703d10e","system_id":"levelo_inurba_marseille","lat":43.301117,"lon":5.398795,"is_reserved":false,"is_disabled":false,"rental_uris":{"android":"levelo://app?vid=0849423f-b5df-4913-bed0-73943703d10e","ios":"levelo://app?vid=0849423f-b5df-4913-bed0-73943703d10e"},"vehicle_type_id":"4","last_reported":1717866436,"current_range_meters":12400,"station_id":"ce4bh0h2rcd13ifvqd40","pricing_plan_id":"cebpf4jnsgd1na2vs0mg"},{"bike_id":"9fdc4a87-2110-4999-a539-cafbc0e569ce","system_id":"levelo_inurba_marseille","lat":43.301435,"lon":5.398569,"is_reserved":false,"is_disabled":false,"rental_uris":{"android":"levelo://app?vid=9fdc4a87-2110-4999-a539-cafbc0e569ce","ios":"levelo://app?vid=9fdc4a87-2110-4999-a539-cafbc0e569ce"},"vehicle_type_id":"4","last_reported":1717866436,"current_range_meters":23600,"station_id":"ce4bh0h2rcd13ifvqd40","pricing_plan_id":"cebpf4jnsgd1na2vs0mg"},{"bike_id":"0f65b307-c8b3-4d04-9de5-d32d361987f0","system_id":"levelo_inurba_marseille","lat":43.306412,"lon":5.401035,"is_reserved":false,"is_disabled":false,"rental_uris":{"android":"levelo://app?vid=0f65b307-c8b3-4d04-9de5-d32d361987f0","ios":"levelo://app?vid=0f65b307-c8b3-4d04-9de5-d32d361987f0"},"vehicle_type_id":"4","last_reported":1717866436,"current_range_meters":20400,"station_id":"ce4bh112rcd13ifvqda0","pricing_plan_id":"cebpf4jnsgd1na2vs0mg"},{"bike_id":"6de924c9-a3ff-4180-bc4c-0b0d3c77f27c","system_id":"levelo_inurba_marseille","lat":43.298681,"lon":5.397225,"is_reserved":false,"is_disabled":false,"rental_uris":{"android":"levelo://app?vid=6de924c9-a3ff-4180-bc4c-0b0d3c77f27c","ios":"levelo://app?vid=6de924c9-a3ff-4180-bc4c-0b0d3c77f27c"},"vehicle_type_id":"4","last_reported":1717866436,"current_range_meters":10400,"station_id":"ce4bh0h2rcd13ifvqd50","pricing_plan_id":"cebpf4jnsgd1na2vs0mg"},{"bike_id":"58d814a9-bc4d-4585-9382-4da9827a85c2","system_id":"levelo_inurba_marseille","lat":43.298681,"lon":5.397225,"is_reserved":false,"is_disabled":false,"rental_uris":{"android":"levelo://app?vid=58d814a9-bc4d-4585-9382-4da9827a85c2","ios":"levelo://app?vid=58d814a9-bc4d-4585-9382-4da9827a85c2"},"vehicle_type_id":"4","last_reported":1717866436,"current_range_meters":2000,"station_id":"ce4bh0h2rcd13ifvqd50","pricing_plan_id":"cebpf4jnsgd1na2vs0mg"},{"bike_id":"57ea71db-4620-4537-b167-a2692bc4bcd3","system_id":"levelo_inurba_marseille","lat":43.286961,"lon":5.373785,"is_reserved":false,"is_disabled":false,"rental_uris":{"android":"levelo://app?vid=57ea71db-4620-4537-b167-a2692bc4bcd3","ios":"levelo://app?vid=57ea71db-4620-4537-b167-a2692bc4bcd3"},"vehicle_type_id":"4","last_reported":1717866436,"current_range_meters":400,"station_id":"ce4bh3p2rcd13ifvqdq0","pricing_plan_id":"cebpf4jnsgd1na2vs0mg"},{"bike_id":"036b28d1-e62f-4d7c-ae53-59ddda32a8b9","system_id":"levelo_inurba_marseille","lat":43.295196,"lon":5.39397,"is_reserved":false,"is_disabled":false,"rental_uris":{"android":"levelo://app?vid=036b28d1-e62f-4d7c-ae53-59ddda32a8b9","ios":"levelo://app?vid=036b28d1-e62f-4d7c-ae53-59ddda32a8b9"},"vehicle_type_id":"4","last_reported":1717866436,"current_range_meters":0,"station_id":"ce4bh292rcd13ifvqdf0","pricing_plan_id":"cebpf4jnsgd1na2vs0mg"},{"bike_id":"9cd71834-e737-4667-8d0b-33ee872a1d34","system_id":"levelo_inurba_marseille","lat":43.286593,"lon":5.363346,"is_reserved":false,"is_disabled":false,"rental_uris":{"android":"levelo://app?vid=9cd71834-e737-4667-8d0b-33ee872a1d34","ios":"levelo://app?vid=9cd71834-e737-4667-8d0b-33ee872a1d34"},"vehicle_type_id":"4","last_reported":1717866436,"current_range_meters":2800,"station_id":"ce4bhah2rcd13ifvqej0","pricing_plan_id":"cebpf4jnsgd1na2vs0mg"},{"bike_id":"d0f1c58d-c936-403b-a947-66eccfe8ce96","system_id":"levelo_inurba_marseille","lat":43.286987,"lon":5.373993,"is_reserved":false,"is_disabled":false,"rental_uris":{"android":"levelo://app?vid=d0f1c58d-c936-403b-a947-66eccfe8ce96","ios":"levelo://app?vid=d0f1c58d-c936-403b-a947-66eccfe8ce96"},"vehicle_type_id":"4","last_reported":1717866436,"current_range_meters":0,"station_id":"ce4bh3p2rcd13ifvqdq0","pricing_plan_id":"cebpf4jnsgd1na2vs0mg"},{"bike_id":"fa6c648d-d3d0-4115-8ac5-7ec05f2d7016","system_id":"levelo_inurba_marseille","lat":43.295196,"lon":5.39397,"is_reserved":false,"is_disabled":false,"rental_uris":{"android":"levelo://app?vid=fa6c648d-d3d0-4115-8ac5-7ec05f2d7016","ios":"levelo://app?vid=fa6c648d-d3d0-4115-8ac5-7ec05f2d7016"},"vehicle_type_id":"4","last_reported":1717866436,"current_range_meters":19600,"station_id":"ce4bh292rcd13ifvqdf0","pricing_plan_id":"cebpf4jnsgd1na2vs0mg"},{"bike_id":"7b65d377-a03d-486e-bc73-0fe6a9fe8a53","system_id":"levelo_inurba_marseille","lat":43.298681,"lon":5.397225,"is_reserved":false,"is_disabled":false,"rental_uris":{"android":"levelo://app?vid=7b65d377-a03d-486e-bc73-0fe6a9fe8a53","ios":"levelo://app?vid=7b65d377-a03d-486e-bc73-0fe6a9fe8a53"},"vehicle_type_id":"4","last_reported":1717866436,"current_range_meters":0,"station_id":"ce4bh0h2rcd13ifvqd50","pricing_plan_id":"cebpf4jnsgd1na2vs0mg"},{"bike_id":"bca64a92-4edd-4067-9c35-94d530dd0592","system_id":"levelo_inurba_marseille","lat":43.295194,"lon":5.39397,"is_reserved":false,"is_disabled":false,"rental_uris":{"android":"levelo://app?vid=bca64a92-4edd-4067-9c35-94d530dd0592","ios":"levelo://app?vid=bca64a92-4edd-4067-9c35-94d530dd0592"},"vehicle_type_id":"4","last_reported":1717866436,"current_range_meters":2800,"station_id":"ce4bh292rcd13ifvqdf0","pricing_plan_id":"cebpf4jnsgd1na2vs0mg"},{"bike_id":"95548e80-19fc-4557-9d81-a6107163a03b","system_id":"levelo_inurba_marseille","lat":43.302759,"lon":5.400793,"is_reserved":false,"is_disabled":false,"rental_uris":{"android":"levelo://app?vid=95548e80-19fc-4557-9d81-a6107163a03b","ios":"levelo://app?vid=95548e80-19fc-4557-9d81-a6107163a03b"},"vehicle_type_id":"4","last_reported":1717866436,"current_range_meters":23200,"station_id":"ce4bgvh2rcd13ifvqcs0","pricing_plan_id":"cebpf4jnsgd1na2vs0mg"},{"bike_id":"d1355c74-1a9c-4791-abdb-539189ae21c6","system_id":"levelo_inurba_marseille","lat":43.302759,"lon":5.400793,"is_reserved":false,"is_disabled":false,"rental_uris":{"android":"levelo://app?vid=d1355c74-1a9c-4791-abdb-539189ae21c6","ios":"levelo://app?vid=d1355c74-1a9c-4791-abdb-539189ae21c6"},"vehicle_type_id":"4","last_reported":1717866436,"current_range_meters":2000,"station_id":"ce4bgvh2rcd13ifvqcs0","pricing_plan_id":"cebpf4jnsgd1na2vs0mg"},{"bike_id":"07257b7e-0a0c-43ac-ab12-661ee39d6e3b","system_id":"levelo_inurba_marseille","lat":43.295194,"lon":5.39397,"is_reserved":false,"is_disabled":false,"rental_uris":{"android":"levelo://app?vid=07257b7e-0a0c-43ac-ab12-661ee39d6e3b","ios":"levelo://app?vid=07257b7e-0a0c-43ac-ab12-661ee39d6e3b"},"vehicle_type_id":"4","last_reported":1717866436,"current_range_meters":0,"station_id":"ce4bh292rcd13ifvqdf0","pricing_plan_id":"cebpf4jnsgd1na2vs0mg"},{"bike_id":"08905dd4-0d7b-46e2-acbd-68f7a644d7d7","system_id":"levelo_inurba_marseille","lat":43.302759,"lon":5.400793,"is_reserved":false,"is_disabled":false,"rental_uris":{"android":"levelo://app?vid=08905dd4-0d7b-46e2-acbd-68f7a644d7d7","ios":"levelo://app?vid=08905dd4-0d7b-46e2-acbd-68f7a644d7d7"},"vehicle_type_id":"4","last_reported":1717866436,"current_range_meters":15600,"station_id":"ce4bgvh2rcd13ifvqcs0","pricing_plan_id":"cebpf4jnsgd1na2vs0mg"},{"bike_id":"8c91af81-743a-4441-bac6-887a65c0b53a","system_id":"levelo_inurba_marseille","lat":43.302759,"lon":5.400793,"is_reserved":false,"is_disabled":false,"rental_uris":{"android":"levelo://app?vid=8c91af81-743a-4441-bac6-887a65c0b53a","ios":"levelo://app?vid=8c91af81-743a-4441-bac6-887a65c0b53a"},"vehicle_type_id":"4","last_reported":1717866436,"current_range_meters":2800,"station_id":"ce4bgvh2rcd13ifvqcs0","pricing_plan_id":"cebpf4jnsgd1na2vs0mg"},{"bike_id":"f3be5b3c-8b8d-4354-b7fc-2664a180d00f","system_id":"levelo_inurba_marseille","lat":43.290345,"lon":5.38646,"is_reserved":false,"is_disabled":false,"rental_uris":{"android":"levelo://app?vid=f3be5b3c-8b8d-4354-b7fc-2664a180d00f","ios":"levelo://app?vid=f3be5b3c-8b8d-4354-b7fc-2664a180d00f"},"vehicle_type_id":"4","last_reported":1717866436,"current_range_meters":0,"station_id":"ce4bh4p2rcd13ifvqe0g","pricing_plan_id":"cebpf4jnsgd1na2vs0mg"},{"bike_id":"0e967856-f234-4465-b51f-88cba1fa4d3e","system_id":"levelo_inurba_marseille","lat":43.29028,"lon":5.38647,"is_reserved":false,"is_disabled":false,"rental_uris":{"android":"levelo://app?vid=0e967856-f234-4465-b51f-88cba1fa4d3e","ios":"levelo://app?vid=0e967856-f234-4465-b51f-88cba1fa4d3e"},"vehicle_type_id":"4","last_reported":1717866436,"current_range_meters":800,"station_id":"ce4bh4p2rcd13ifvqe0g","pricing_plan_id":"cebpf4jnsgd1na2vs0mg"},{"bike_id":"49b36437-bd38-4133-9a85-d71848e04b20","system_id":"levelo_inurba_marseille","lat":43.30245,"lon":5.40069,"is_reserved":false,"is_disabled":false,"rental_uris":{"android":"levelo://app?vid=49b36437-bd38-4133-9a85-d71848e04b20","ios":"levelo://app?vid=49b36437-bd38-4133-9a85-d71848e04b20"},"vehicle_type_id":"4","last_reported":1717866436,"current_range_meters":0,"station_id":"ce4bgvh2rcd13ifvqcs0","pricing_plan_id":"cebpf4jnsgd1na2vs0mg"},{"bike_id":"dafbd997-18ee-47fe-8553-a2c35e5686bc","system_id":"levelo_inurba_marseille","lat":43.286158,"lon":5.370459,"is_reserved":false,"is_disabled":false,"rental_uris":{"android":"levelo://app?vid=dafbd997-18ee-47fe-8553-a2c35e5686bc","ios":"levelo://app?vid=dafbd997-18ee-47fe-8553-a2c35e5686bc"},"vehicle_type_id":"4","last_reported":1717866436,"current_range_meters":5200,"station_id":"ce4bht12rcd13ifvqi60","pricing_plan_id":"cebpf4jnsgd1na2vs0mg"},{"bike_id":"ba1627af-8083-445c-abbe-503030eabc1f","system_id":"levelo_inurba_marseille","lat":43.286039,"lon":5.370679,"is_reserved":false,"is_disabled":false,"rental_uris":{"android":"levelo://app?vid=ba1627af-8083-445c-abbe-503030eabc1f","ios":"levelo://app?vid=ba1627af-8083-445c-abbe-503030eabc1f"},"vehicle_type_id":"4","last_reported":1717866436,"current_range_meters":14800,"station_id":"ce4bht12rcd13ifvqi60","pricing_plan_id":"cebpf4jnsgd1na2vs0mg"},{"bike_id":"71cb95fe-d7dc-4f97-b2aa-4fb5c59716d4","system_id":"levelo_inurba_marseille","lat":43.28608,"lon":5.37068,"is_reserved":false,"is_disabled":false,"rental_uris":{"android":"levelo://app?vid=71cb95fe-d7dc-4f97-b2aa-4fb5c59716d4","ios":"levelo://app?vid=71cb95fe-d7dc-4f97-b2aa-4fb5c59716d4"},"vehicle_type_id":"4","last_reported":1717866436,"current_range_meters":3200,"station_id":"ce4bht12rcd13ifvqi60","pricing_plan_id":"cebpf4jnsgd1na2vs0mg"},{"bike_id":"0907f81f-ba46-4496-8230-8ee7b31173df","system_id":"levelo_inurba_marseille","lat":43.286593,"lon":5.363346,"is_reserved":false,"is_disabled":false,"rental_uris":{"android":"levelo://app?vid=0907f81f-ba46-4496-8230-8ee7b31173df","ios":"levelo://app?vid=0907f81f-ba46-4496-8230-8ee7b31173df"},"vehicle_type_id":"4","last_reported":1717866436,"current_range_meters":13600,"station_id":"ce4bhah2rcd13ifvqej0","pricing_plan_id":"cebpf4jnsgd1na2vs0mg"},{"bike_id":"698f5821-81d0-4cf5-9085-915128198dda","system_id":"levelo_inurba_marseille","lat":43.290345,"lon":5.38646,"is_reserved":false,"is_disabled":false,"rental_uris":{"android":"levelo://app?vid=698f5821-81d0-4cf5-9085-915128198dda","ios":"levelo://app?vid=698f5821-81d0-4cf5-9085-915128198dda"},"vehicle_type_id":"4","last_reported":1717866436,"current_range_meters":10400,"station_id":"ce4bh4p2rcd13ifvqe0g","pricing_plan_id":"cebpf4jnsgd1na2vs0mg"},{"bike_id":"52fa2ec0-063e-4c48-b24d-0d8a9e27b1ee","system_id":"levelo_inurba_marseille","lat":43.287184,"lon":5.37937,"is_reserved":false,"is_disabled":false,"rental_uris":{"android":"levelo://app?vid=52fa2ec0-063e-4c48-b24d-0d8a9e27b1ee","ios":"levelo://app?vid=52fa2ec0-063e-4c48-b24d-0d8a9e27b1ee"},"vehicle_type_id":"4","last_reported":1717866436,"current_range_meters":17600,"station_id":"ce4bh9p2rcd13ifvqec0","pricing_plan_id":"cebpf4jnsgd1na2vs0mg"},{"bike_id":"164c0a38-24dc-48d7-95da-671d0f807530","system_id":"levelo_inurba_marseille","lat":43.287184,"lon":5.37937,"is_reserved":false,"is_disabled":false,"rental_uris":{"android":"levelo://app?vid=164c0a38-24dc-48d7-95da-671d0f807530","ios":"levelo://app?vid=164c0a38-24dc-48d7-95da-671d0f807530"},"vehicle_type_id":"4","last_reported":1717866436,"current_range_meters":28800,"station_id":"ce4bh9p2rcd13ifvqec0","pricing_plan_id":"cebpf4jnsgd1na2vs0mg"},{"bike_id":"b2fb9a1a-4c52-4114-81c3-6fef5f680d18","system_id":"levelo_inurba_marseille","lat":43.316828,"lon":5.404723,"is_reserved":false,"is_disabled":false,"rental_uris":{"android":"levelo://app?vid=b2fb9a1a-4c52-4114-81c3-6fef5f680d18","ios":"levelo://app?vid=b2fb9a1a-4c52-4114-81c3-6fef5f680d18"},"vehicle_type_id":"4","last_reported":1717866436,"current_range_meters":8000,"station_id":"ce4bh012rcd13ifvqd00","pricing_plan_id":"cebpf4jnsgd1na2vs0mg"},{"bike_id":"47f9f307-4308-49ca-a309-d3a37605f168","system_id":"levelo_inurba_marseille","lat":43.31695,"lon":5.40467,"is_reserved":false,"is_disabled":false,"rental_uris":{"android":"levelo://app?vid=47f9f307-4308-49ca-a309-d3a37605f168","ios":"levelo://app?vid=47f9f307-4308-49ca-a309-d3a37605f168"},"vehicle_type_id":"4","last_reported":1717866436,"current_range_meters":0,"station_id":"ce4bh012rcd13ifvqd00","pricing_plan_id":"cebpf4jnsgd1na2vs0mg"},{"bike_id":"3167e76e-d659-4a0d-92f9-e79d7a3ddb62","system_id":"levelo_inurba_marseille","lat":43.316828,"lon":5.404723,"is_reserved":false,"is_disabled":false,"rental_uris":{"android":"levelo://app?vid=3167e76e-d659-4a0d-92f9-e79d7a3ddb62","ios":"levelo://app?vid=3167e76e-d659-4a0d-92f9-e79d7a3ddb62"},"vehicle_type_id":"4","last_reported":1717866436,"current_range_meters":10000,"station_id":"ce4bh012rcd13ifvqd00","pricing_plan_id":"cebpf4jnsgd1na2vs0mg"},{"bike_id":"a5401c26-2e0f-4bb3-b00a-c96c0d62b692","system_id":"levelo_inurba_marseille","lat":43.316821,"lon":5.404737,"is_reserved":false,"is_disabled":false,"rental_uris":{"android":"levelo://app?vid=a5401c26-2e0f-4bb3-b00a-c96c0d62b692","ios":"levelo://app?vid=a5401c26-2e0f-4bb3-b00a-c96c0d62b692"},"vehicle_type_id":"4","last_reported":1717866436,"current_range_meters":3600,"station_id":"ce4bh012rcd13ifvqd00","pricing_plan_id":"cebpf4jnsgd1na2vs0mg"},{"bike_id":"802637a2-85b5-4695-a67f-80f074b6da0d","system_id":"levelo_inurba_marseille","lat":43.316821,"lon":5.404737,"is_reserved":false,"is_disabled":false,"rental_uris":{"android":"levelo://app?vid=802637a2-85b5-4695-a67f-80f074b6da0d","ios":"levelo://app?vid=802637a2-85b5-4695-a67f-80f074b6da0d"},"vehicle_type_id":"4","last_reported":1717866436,"current_range_meters":14400,"station_id":"ce4bh012rcd13ifvqd00","pricing_plan_id":"cebpf4jnsgd1na2vs0mg"},{"bike_id":"0ebb59e4-5279-4fc7-9b1a-747ee90f4306","system_id":"levelo_inurba_marseille","lat":43.316821,"lon":5.404737,"is_reserved":false,"is_disabled":false,"rental_uris":{"android":"levelo://app?vid=0ebb59e4-5279-4fc7-9b1a-747ee90f4306","ios":"levelo://app?vid=0ebb59e4-5279-4fc7-9b1a-747ee90f4306"},"vehicle_type_id":"4","last_reported":1717866436,"current_range_meters":8800,"station_id":"ce4bh012rcd13ifvqd00","pricing_plan_id":"cebpf4jnsgd1na2vs0mg"},{"bike_id":"b48345fa-011c-4822-8da4-6132a2ab1654","system_id":"levelo_inurba_marseille","lat":43.29205,"lon":5.39313,"is_reserved":false,"is_disabled":false,"rental_uris":{"android":"levelo://app?vid=b48345fa-011c-4822-8da4-6132a2ab1654","ios":"levelo://app?vid=b48345fa-011c-4822-8da4-6132a2ab1654"},"vehicle_type_id":"4","last_reported":1717866436,"current_range_meters":18400,"station_id":"ce4bh192rcd13ifvqdd0","pricing_plan_id":"cebpf4jnsgd1na2vs0mg"},{"bike_id":"b288820d-fa96-4690-91ac-2ed75b924d9f","system_id":"levelo_inurba_marseille","lat":43.29192,"lon":5.39312,"is_reserved":false,"is_disabled":false,"rental_uris":{"android":"levelo://app?vid=b288820d-fa96-4690-91ac-2ed75b924d9f","ios":"levelo://app?vid=b288820d-fa96-4690-91ac-2ed75b924d9f"},"vehicle_type_id":"4","last_reported":1717866436,"current_range_meters":0,"station_id":"ce4bh192rcd13ifvqdd0","pricing_plan_id":"cebpf4jnsgd1na2vs0mg"},{"bike_id":"aff0d303-e136-4ebd-bd98-de09dd87b504","system_id":"levelo_inurba_marseille","lat":43.28465,"lon":5.35896,"is_reserved":false,"is_disabled":false,"rental_uris":{"android":"levelo://app?vid=aff0d303-e136-4ebd-bd98-de09dd87b504","ios":"levelo://app?vid=aff0d303-e136-4ebd-bd98-de09dd87b504"},"vehicle_type_id":"4","last_reported":1717866436,"current_range_meters":0,"station_id":"ce4bhah2rcd13ifvqei0","pricing_plan_id":"cebpf4jnsgd1na2vs0mg"},{"bike_id":"df099acc-e519-450c-beba-d2226103f8a6","system_id":"levelo_inurba_marseille","lat":43.284534,"lon":5.358662,"is_reserved":false,"is_disabled":false,"rental_uris":{"android":"levelo://app?vid=df099acc-e519-450c-beba-d2226103f8a6","ios":"levelo://app?vid=df099acc-e519-450c-beba-d2226103f8a6"},"vehicle_type_id":"4","last_reported":1717866436,"current_range_meters":0,"station_id":"ce4bhah2rcd13ifvqei0","pricing_plan_id":"cebpf4jnsgd1na2vs0mg"},{"bike_id":"21a8a738-3ec4-4826-98bd-3db6b4caeef2","system_id":"levelo_inurba_marseille","lat":43.285856,"lon":5.350771,"is_reserved":false,"is_disabled":false,"rental_uris":{"android":"levelo://app?vid=21a8a738-3ec4-4826-98bd-3db6b4caeef2","ios":"levelo://app?vid=21a8a738-3ec4-4826-98bd-3db6b4caeef2"},"vehicle_type_id":"4","last_reported":1717866436,"current_range_meters":0,"station_id":"ce4bhch2rcd13ifvqeug","pricing_plan_id":"cebpf4jnsgd1na2vs0mg"},{"bike_id":"b078dd72-570a-4102-890d-3d78d112bba9","system_id":"levelo_inurba_marseille","lat":43.28619,"lon":5.35107,"is_reserved":false,"is_disabled":false,"rental_uris":{"android":"levelo://app?vid=b078dd72-570a-4102-890d-3d78d112bba9","ios":"levelo://app?vid=b078dd72-570a-4102-890d-3d78d112bba9"},"vehicle_type_id":"4","last_reported":1717866436,"current_range_meters":0,"station_id":"ce4bhch2rcd13ifvqeug","pricing_plan_id":"cebpf4jnsgd1na2vs0mg"},{"bike_id":"cc031f7b-0c77-4bb8-b05e-37da2aa55c88","system_id":"levelo_inurba_marseille","lat":43.28614,"lon":5.35108,"is_reserved":false,"is_disabled":false,"rental_uris":{"android":"levelo://app?vid=cc031f7b-0c77-4bb8-b05e-37da2aa55c88","ios":"levelo://app?vid=cc031f7b-0c77-4bb8-b05e-37da2aa55c88"},"vehicle_type_id":"4","last_reported":1717866436,"current_range_meters":0,"station_id":"ce4bhch2rcd13ifvqeug","pricing_plan_id":"cebpf4jnsgd1na2vs0mg"},{"bike_id":"ca2598ff-c8e1-4e3e-8ca9-ac3785cf3024","system_id":"levelo_inurba_marseille","lat":43.283998,"lon":5.375062,"is_reserved":false,"is_disabled":false,"rental_uris":{"android":"levelo://app?vid=ca2598ff-c8e1-4e3e-8ca9-ac3785cf3024","ios":"levelo://app?vid=ca2598ff-c8e1-4e3e-8ca9-ac3785cf3024"},"vehicle_type_id":"4","last_reported":1717866436,"current_range_meters":0,"station_id":"ce4bh412rcd13ifvqds0","pricing_plan_id":"cebpf4jnsgd1na2vs0mg"},{"bike_id":"c9ae8f5b-70a4-4d4b-a665-ee35263b4b7a","system_id":"levelo_inurba_marseille","lat":43.295713,"lon":5.399639,"is_reserved":false,"is_disabled":false,"rental_uris":{"android":"levelo://app?vid=c9ae8f5b-70a4-4d4b-a665-ee35263b4b7a","ios":"levelo://app?vid=c9ae8f5b-70a4-4d4b-a665-ee35263b4b7a"},"vehicle_type_id":"4","last_reported":1717866436,"current_range_meters":4400,"station_id":"ce4bh312rcd13ifvqdj0","pricing_plan_id":"cebpf4jnsgd1na2vs0mg"},{"bike_id":"d8925c72-2921-4931-8e21-1958f7279f42","system_id":"levelo_inurba_marseille","lat":43.295713,"lon":5.399639,"is_reserved":false,"is_disabled":false,"rental_uris":{"android":"levelo://app?vid=d8925c72-2921-4931-8e21-1958f7279f42","ios":"levelo://app?vid=d8925c72-2921-4931-8e21-1958f7279f42"},"vehicle_type_id":"4","last_reported":1717866436,"current_range_meters":0,"station_id":"ce4bh312rcd13ifvqdj0","pricing_plan_id":"cebpf4jnsgd1na2vs0mg"},{"bike_id":"8c1e9499-41d9-4593-bb90-44c062cc6302","system_id":"levelo_inurba_marseille","lat":43.283998,"lon":5.375062,"is_reserved":false,"is_disabled":false,"rental_uris":{"android":"levelo://app?vid=8c1e9499-41d9-4593-bb90-44c062cc6302","ios":"levelo://app?vid=8c1e9499-41d9-4593-bb90-44c062cc6302"},"vehicle_type_id":"4","last_reported":1717866436,"current_range_meters":2400,"station_id":"ce4bh412rcd13ifvqds0","pricing_plan_id":"cebpf4jnsgd1na2vs0mg"},{"bike_id":"c363c6b7-3ec6-449b-8bbf-010efce7ff0c","system_id":"levelo_inurba_marseille","lat":43.295713,"lon":5.399639,"is_reserved":false,"is_disabled":false,"rental_uris":{"android":"levelo://app?vid=c363c6b7-3ec6-449b-8bbf-010efce7ff0c","ios":"levelo://app?vid=c363c6b7-3ec6-449b-8bbf-010efce7ff0c"},"vehicle_type_id":"4","last_reported":1717866436,"current_range_meters":1600,"station_id":"ce4bh312rcd13ifvqdj0","pricing_plan_id":"cebpf4jnsgd1na2vs0mg"},{"bike_id":"3623a01e-e5c2-4622-91c4-10daa1830f7e","system_id":"levelo_inurba_marseille","lat":43.29576,"lon":5.3997,"is_reserved":false,"is_disabled":false,"rental_uris":{"android":"levelo://app?vid=3623a01e-e5c2-4622-91c4-10daa1830f7e","ios":"levelo://app?vid=3623a01e-e5c2-4622-91c4-10daa1830f7e"},"vehicle_type_id":"4","last_reported":1717866436,"current_range_meters":0,"station_id":"ce4bh312rcd13ifvqdj0","pricing_plan_id":"cebpf4jnsgd1na2vs0mg"},{"bike_id":"392af0fe-594f-49bd-ae72-5732f0e2e3bd","system_id":"levelo_inurba_marseille","lat":43.283998,"lon":5.375062,"is_reserved":false,"is_disabled":false,"rental_uris":{"android":"levelo://app?vid=392af0fe-594f-49bd-ae72-5732f0e2e3bd","ios":"levelo://app?vid=392af0fe-594f-49bd-ae72-5732f0e2e3bd"},"vehicle_type_id":"4","last_reported":1717866436,"current_range_meters":10000,"station_id":"ce4bh412rcd13ifvqds0","pricing_plan_id":"cebpf4jnsgd1na2vs0mg"},{"bike_id":"e46388f7-800e-43f0-8770-103122fbfd9a","system_id":"levelo_inurba_marseille","lat":43.29952,"lon":5.40303,"is_reserved":false,"is_disabled":false,"rental_uris":{"android":"levelo://app?vid=e46388f7-800e-43f0-8770-103122fbfd9a","ios":"levelo://app?vid=e46388f7-800e-43f0-8770-103122fbfd9a"},"vehicle_type_id":"4","last_reported":1717866436,"current_range_meters":14000,"station_id":"","pricing_plan_id":"cebpf4jnsgd1na2vs0mg"},{"bike_id":"75720293-85bf-4fc7-ada0-0c9ed8f36e76","system_id":"levelo_inurba_marseille","lat":43.286595,"lon":5.386795,"is_reserved":false,"is_disabled":false,"rental_uris":{"android":"levelo://app?vid=75720293-85bf-4fc7-ada0-0c9ed8f36e76","ios":"levelo://app?vid=75720293-85bf-4fc7-ada0-0c9ed8f36e76"},"vehicle_type_id":"4","last_reported":1717866436,"current_range_meters":11600,"station_id":"ce4bh492rcd13ifvqdug","pricing_plan_id":"cebpf4jnsgd1na2vs0mg"},{"bike_id":"a1ede916-ffc7-4144-bc38-a5ddb61e8884","system_id":"levelo_inurba_marseille","lat":43.286595,"lon":5.386795,"is_reserved":false,"is_disabled":false,"rental_uris":{"android":"levelo://app?vid=a1ede916-ffc7-4144-bc38-a5ddb61e8884","ios":"levelo://app?vid=a1ede916-ffc7-4144-bc38-a5ddb61e8884"},"vehicle_type_id":"4","last_reported":1717866436,"current_range_meters":14800,"station_id":"ce4bh492rcd13ifvqdug","pricing_plan_id":"cebpf4jnsgd1na2vs0mg"},{"bike_id":"2bf3603c-49e4-40d6-94cf-18f2e931e00a","system_id":"levelo_inurba_marseille","lat":43.319179,"lon":5.407725,"is_reserved":false,"is_disabled":false,"rental_uris":{"android":"levelo://app?vid=2bf3603c-49e4-40d6-94cf-18f2e931e00a","ios":"levelo://app?vid=2bf3603c-49e4-40d6-94cf-18f2e931e00a"},"vehicle_type_id":"4","last_reported":1717866436,"current_range_meters":7600,"station_id":"ce4bhq12rcd13ifvqhig","pricing_plan_id":"cebpf4jnsgd1na2vs0mg"},{"bike_id":"dcb471a4-84de-4c67-b4cc-136eb446e87f","system_id":"levelo_inurba_marseille","lat":43.319179,"lon":5.407725,"is_reserved":false,"is_disabled":false,"rental_uris":{"android":"levelo://app?vid=dcb471a4-84de-4c67-b4cc-136eb446e87f","ios":"levelo://app?vid=dcb471a4-84de-4c67-b4cc-136eb446e87f"},"vehicle_type_id":"4","last_reported":1717866436,"current_range_meters":15600,"station_id":"ce4bhq12rcd13ifvqhig","pricing_plan_id":"cebpf4jnsgd1na2vs0mg"},{"bike_id":"7d0c2921-4465-4f5d-b603-9082e7683854","system_id":"levelo_inurba_marseille","lat":43.337168,"lon":5.391825,"is_reserved":false,"is_disabled":false,"rental_uris":{"android":"levelo://app?vid=7d0c2921-4465-4f5d-b603-9082e7683854","ios":"levelo://app?vid=7d0c2921-4465-4f5d-b603-9082e7683854"},"vehicle_type_id":"4","last_reported":1717866436,"current_range_meters":31600,"station_id":"ce4bhr92rcd13ifvqhsg","pricing_plan_id":"cebpf4jnsgd1na2vs0mg"},{"bike_id":"c96a11db-8ffa-4405-8e11-cfcf9e077069","system_id":"levelo_inurba_marseille","lat":43.323464,"lon":5.406297,"is_reserved":false,"is_disabled":false,"rental_uris":{"android":"levelo://app?vid=c96a11db-8ffa-4405-8e11-cfcf9e077069","ios":"levelo://app?vid=c96a11db-8ffa-4405-8e11-cfcf9e077069"},"vehicle_type_id":"4","last_reported":1717866436,"current_range_meters":10400,"station_id":"ce4bhq92rcd13ifvqhjg","pricing_plan_id":"cebpf4jnsgd1na2vs0mg"},{"bike_id":"5be7222e-d729-4df4-83eb-c5ed5d5421f2","system_id":"levelo_inurba_marseille","lat":43.323464,"lon":5.406297,"is_reserved":false,"is_disabled":false,"rental_uris":{"android":"levelo://app?vid=5be7222e-d729-4df4-83eb-c5ed5d5421f2","ios":"levelo://app?vid=5be7222e-d729-4df4-83eb-c5ed5d5421f2"},"vehicle_type_id":"4","last_reported":1717866436,"current_range_meters":8400,"station_id":"ce4bhq92rcd13ifvqhjg","pricing_plan_id":"cebpf4jnsgd1na2vs0mg"},