{"last_updated":1747398053,"ttl":60,"version":"2.2","data":{"bikes":[{"bike_id":"c0b9fd4f-e181-46ce-b0bf-f5119973334f","system_id":"levelo_inurba_marseille","lat":43.33771,"lon":5.37424,"is_reserved":false,"is_disabled":false,"rental_uris":{"android":"levelo://app?vid=c0b9fd4f-e181-46ce-b0bf-f5119973334f","ios":"levelo://app?vid=c0b9fd4f-e181-46ce-b0bf-f5119973334f"},"vehicle_type_id":"4","last_reported":1747398053,"current_range_meters":10000,"station_id":"","pricing_plan_id":"cebpf4jnsgd1na2vs0mg"},{"bike_id":"fc2577e7-1497-425b-9d4f-ab8d7dc843c6","system_id":"levelo_inurba_marseille","lat":43.33771,"lon":5.37485,"is_reserved":false,"is_disabled":true,"rental_uris":{"android":"levelo://app?vid=fc2577e7-1497-425b-9d4f-ab8d7dc843c6","ios":"levelo://app?vid=fc2577e7-1497-425b-9d4f-ab8d7dc843c6"},"vehicle_type_id":"4","last_reported":1747398053,"current_range_meters":0,"station_id":"","pricing_plan_id":"cebpf4jnsgd1na2vs0mg"},{"bike_id":"ce4325af-2448-4172-bdec-81d552ee0b62","system_id":"levelo_inurba_marseille","lat":43.26166,"lon":5.42013,"is_reserved":false,"is_disabled":true,"rental_uris":{"android":"levelo://app?vid=ce4325af-2448-4172-bdec-81d552ee0b62","ios":"levelo://app?vid=ce4325af-2448-4172-bdec-81d552ee0b62"},"vehicle_type_id":"4","last_reported":1747398053,"current_range_meters":0,"station_id":"","pricing_plan_id":"cebpf4jnsgd1na2vs0mg"},{"bike_id":"2b8fbf5f-4106-421b-bd48-29543ccb14db","system_id":"levelo_inurba_marseille","lat":43.236973,"lon":5.362871,"is_reserved":false,"is_disabled":true,"rental_uris":{"android":"levelo://app?vid=2b8fbf5f-4106-421b-bd48-29543ccb14db","ios":"levelo://app?vid=2b8fbf5f-4106-421b-bd48-29543ccb14db"},"vehicle_type_id":"4","last_reported":1747398053,"current_range_meters":0,"station_id":"","pricing_plan_id":"cebpf4jnsgd1na2vs0mg"},{"bike_id":"5de4311e-acc0-4747-9be3-06bcfa4d137e","system_id":"levelo_inurba_marseille","lat":43.31974,"lon":5.38719,"is_reserved":false,"is_disabled":true,"rental_uris":{"android":"levelo://app?vid=5de4311e-acc0-4747-9be3-06bcfa4d137e","ios":"levelo://app?vid=5de4311e-acc0-4747-9be3-06bcfa4d137e"},"vehicle_type_id":"4","last_reported":1747398053,"current_range_meters":0,"station_id":"","pricing_plan_id":"cebpf4jnsgd1na2vs0mg"},{"bike_id":"792567c6-0442-4011-aff0-9c05e25deb48","system_id":"levelo_inurba_marseille","lat":43.337444,"lon":5.374475,"is_reserved":false,"is_disabled":true,"rental_uris":{"android":"levelo://app?vid=792567c6-0442-4011-aff0-9c05e25deb48","ios":"levelo://app?vid=792567c6-0442-4011-aff0-9c05e25deb48"},"vehicle_type_id":"4","last_reported":1747398053,"current_range_meters":0,"station_id":"","pricing_plan_id":"cebpf4jnsgd1na2vs0mg"},{"bike_id":"a73d127f-5b1e-4c85-b09d-7b4a39558bb7","system_id":"levelo_inurba_marseille","lat":43.29868,"lon":5.38367,"is_reserved":false,"is_disabled":true,"rental_uris":{"android":"levelo://app?vid=a73d127f-5b1e-4c85-b09d-7b4a39558bb7","ios":"levelo://app?vid=a73d127f-5b1e-4c85-b09d-7b4a39558bb7"},"vehicle_type_id":"4","last_reported":1747398053,"current_range_meters":0,"station_id":"","pricing_plan_id":"cebpf4jnsgd1na2vs0mg"},{"bike_id":"6dc5f2a0-af3d-4cd0-b85d-6d395a4b082e","system_id":"levelo_inurba_marseille","lat":43.29577,"lon":5.37509,"is_reserved":false,"is_disabled":true,"rental_uris":{"android":"levelo://app?vid=6dc5f2a0-af3d-4cd0-b85d-6d395a4b082e","ios":"levelo://app?vid=6dc5f2a0-af3d-4cd0-b85d-6d395a4b082e"},"vehicle_type_id":"4","last_reported":1747398053,"current_range_meters":0,"station_id":"ce4bgh92rcd13ifvqb50","pricing_plan_id":"cebpf4jnsgd1na2vs0mg"},{"bike_id":"9b0a7035-6c96-487d-a49e-f46e9b151872","system_id":"levelo_inurba_marseille","lat":43.299229,"lon":5.385413,"is_reserved":false,"is_disabled":true,"rental_uris":{"android":"levelo://app?vid=9b0a7035-6c96-487d-a49e-f46e9b151872","ios":"levelo://app?vid=9b0a7035-6c96-487d-a49e-f46e9b151872"},"vehicle_type_id":"4","last_reported":1747398053,"current_range_meters":0,"station_id":"ce4bgj92rcd13ifvqbd0","pricing_plan_id":"cebpf4jnsgd1na2vs0mg"},{"bike_id":"a9c489a0-2166-4a85-aae6-d0e8ab681133","system_id":"levelo_inurba_marseille","lat":43.288537,"lon":5.393053,"is_reserved":false,"is_disabled":true,"rental_uris":{"android":"levelo://app?vid=a9c489a0-2166-4a85-aae6-d0e8ab681133","ios":"levelo://app?vid=a9c489a0-2166-4a85-aae6-d0e8ab681133"},"vehicle_type_id":"4","last_reported":1747398053,"current_range_meters":0,"station_id":"ce4bh2p2rcd13ifvqdi0","pricing_plan_id":"cebpf4jnsgd1na2vs0mg"},{"bike_id":"99afd511-8202-484d-8ec0-ee1ccf0ddaad","system_id":"levelo_inurba_marseille","lat":43.23164,"lon":5.43712,"is_reserved":false,"is_disabled":true,"rental_uris":{"android":"levelo://app?vid=99afd511-8202-484d-8ec0-ee1ccf0ddaad","ios":"levelo://app?vid=99afd511-8202-484d-8ec0-ee1ccf0ddaad"},"vehicle_type_id":"4","last_reported":1747398053,"current_range_meters":0,"station_id":"ce4bhmp2rcd13ifvqgog","pricing_plan_id":"cebpf4jnsgd1na2vs0mg"},{"bike_id":"5ab31593-c918-4afe-beb2-1451e1a2d7b4","system_id":"levelo_inurba_marseille","lat":43.24062,"lon":5.37744,"is_reserved":false,"is_disabled":true,"rental_uris":{"android":"levelo://app?vid=5ab31593-c918-4afe-beb2-1451e1a2d7b4","ios":"levelo://app?vid=5ab31593-c918-4afe-beb2-1451e1a2d7b4"},"vehicle_type_id":"4","last_reported":1747398053,"current_range_meters":0,"station_id":"ce4bhnp2rcd13ifvqgvg","pricing_plan_id":"cebpf4jnsgd1na2vs0mg"},{"bike_id":"61f24547-f8ed-4387-9d07-0e6d34ac6daf","system_id":"levelo_inurba_marseille","lat":43.279904,"lon":5.400048,"is_reserved":false,"is_disabled":true,"rental_uris":{"android":"levelo://app?vid=61f24547-f8ed-4387-9d07-0e6d34ac6daf","ios":"levelo://app?vid=61f24547-f8ed-4387-9d07-0e6d34ac6daf"},"vehicle_type_id":"4","last_reported":1747398053,"current_range_meters":0,"station_id":"ce4bho92rcd13ifvqh4g","pricing_plan_id":"cebpf4jnsgd1na2vs0mg"},{"bike_id":"bb960bb1-8513-465e-8a9a-4307aef7ddf7","system_id":"levelo_inurba_marseille","lat":43.21753,"lon":5.345997,"is_reserved":false,"is_disabled":true,"rental_uris":{"android":"levelo://app?vid=bb960bb1-8513-465e-8a9a-4307aef7ddf7","ios":"levelo://app?vid=bb960bb1-8513-465e-8a9a-4307aef7ddf7"},"vehicle_type_id":"4","last_reported":1747398053,"current_range_meters":0,"station_id":"st_cvj6r9ubvosntc0bgbag","pricing_plan_id":"cebpf4jnsgd1na2vs0mg"},{"bike_id":"2061beb7-0344-456f-988c-b4f1d7e9021a","system_id":"levelo_inurba_marseille","lat":43.299325,"lon":5.365525,"is_reserved":false,"is_disabled":true,"rental_uris":{"android":"levelo://app?vid=2061beb7-0344-456f-988c-b4f1d7e9021a","ios":"levelo://app?vid=2061beb7-0344-456f-988c-b4f1d7e9021a"},"vehicle_type_id":"4","last_reported":1747398053,"current_range_meters":400,"station_id":"ce4bgm92rcd13ifvqbr0","pricing_plan_id":"cebpf4jnsgd1na2vs0mg"},{"bike_id":"1fcda106-6e2a-4f9a-93fc-5419390dca6e","system_id":"levelo_inurba_marseille","lat":43.25726,"lon":5.41106,"is_reserved":false,"is_disabled":true,"rental_uris":{"android":"levelo://app?vid=1fcda106-6e2a-4f9a-93fc-5419390dca6e","ios":"levelo://app?vid=1fcda106-6e2a-4f9a-93fc-5419390dca6e"},"vehicle_type_id":"4","last_reported":1747398053,"current_range_meters":400,"station_id":"ce4bhkp2rcd13ifvqgd0","pricing_plan_id":"cebpf4jnsgd1na2vs0mg"},{"bike_id":"f9e7d873-88bb-4f94-a0d6-3fcae7d05021","system_id":"levelo_inurba_marseille","lat":43.30813,"lon":5.36994,"is_reserved":false,"is_disabled":true,"rental_uris":{"android":"levelo://app?vid=f9e7d873-88bb-4f94-a0d6-3fcae7d05021","ios":"levelo://app?vid=f9e7d873-88bb-4f94-a0d6-3fcae7d05021"},"vehicle_type_id":"4","last_reported":1747398053,"current_range_meters":800,"station_id":"","pricing_plan_id":"cebpf4jnsgd1na2vs0mg"},{"bike_id":"75bf621c-b098-40e2-9282-cd58061e58df","system_id":"levelo_inurba_marseille","lat":43.29714,"lon":5.37695,"is_reserved":false,"is_disabled":true,"rental_uris":{"android":"levelo://app?vid=75bf621c-b098-40e2-9282-cd58061e58df","ios":"levelo://app?vid=75bf621c-b098-40e2-9282-cd58061e58df"},"vehicle_type_id":"4","last_reported":1747398053,"current_range_meters":800,"station_id":"ce4bgkh2rcd13ifvqbl0","pricing_plan_id":"cebpf4jnsgd1na2vs0mg"},{"bike_id":"aa8baf82-bc49-498b-842b-69b5285a08ca","system_id":"levelo_inurba_marseille","lat":43.27073,"lon":5.42271,"is_reserved":false,"is_disabled":true,"rental_uris":{"android":"levelo://app?vid=aa8baf82-bc49-498b-842b-69b5285a08ca","ios":"levelo://app?vid=aa8baf82-bc49-498b-842b-69b5285a08ca"},"vehicle_type_id":"4","last_reported":1747398053,"current_range_meters":800,"station_id":"ce4bhk92rcd13ifvqgb0","pricing_plan_id":"cebpf4jnsgd1na2vs0mg"},{"bike_id":"5b3810f1-2567-490a-b92e-14f853aa7ad0","system_id":"levelo_inurba_marseille","lat":43.30582,"lon":5.39353,"is_reserved":false,"is_disabled":true,"rental_uris":{"android":"levelo://app?vid=5b3810f1-2567-490a-b92e-14f853aa7ad0","ios":"levelo://app?vid=5b3810f1-2567-490a-b92e-14f853aa7ad0"},"vehicle_type_id":"4","last_reported":1747398053,"current_range_meters":1200,"station_id":"ce4bh0p2rcd13ifvqd80","pricing_plan_id":"cebpf4jnsgd1na2vs0mg"},{"bike_id":"c2d1732e-8fe5-4d4e-b5e0-d6b222ec2764","system_id":"levelo_inurba_marseille","lat":43.287,"lon":5.37387,"is_reserved":false,"is_disabled":true,"rental_uris":{"android":"levelo://app?vid=c2d1732e-8fe5-4d4e-b5e0-d6b222ec2764","ios":"levelo://app?vid=c2d1732e-8fe5-4d4e-b5e0-d6b222ec2764"},"vehicle_type_id":"4","last_reported":1747398053,"current_range_meters":1200,"station_id":"ce4bh3p2rcd13ifvqdq0","pricing_plan_id":"cebpf4jnsgd1na2vs0mg"},{"bike_id":"4cfa6311-7fcf-43be-bd17-1e7540e28fda","system_id":"levelo_inurba_marseille","lat":43.29271,"lon":5.38444,"is_reserved":false,"is_disabled":true,"rental_uris":{"android":"levelo://app?vid=4cfa6311-7fcf-43be-bd17-1e7540e28fda","ios":"levelo://app?vid=4cfa6311-7fcf-43be-bd17-1e7540e28fda"},"vehicle_type_id":"4","last_reported":1747398053,"current_range_meters":1200,"station_id":"ce4bh692rcd13ifvqea0","pricing_plan_id":"cebpf4jnsgd1na2vs0mg"},{"bike_id":"e664f75f-8693-486b-b2e0-a5fcd4ed5305","system_id":"levelo_inurba_marseille","lat":43.31176,"lon":5.38716,"is_reserved":false,"is_disabled":true,"rental_uris":{"android":"levelo://app?vid=e664f75f-8693-486b-b2e0-a5fcd4ed5305","ios":"levelo://app?vid=e664f75f-8693-486b-b2e0-a5fcd4ed5305"},"vehicle_type_id":"4","last_reported":1747398053,"current_range_meters":1600,"station_id":"ce4bgv12rcd13ifvqcp0","pricing_plan_id":"cebpf4jnsgd1na2vs0mg"},{"bike_id":"fb3b336f-1025-4914-bd98-51aff7a0d030","system_id":"levelo_inurba_marseille","lat":43.290363,"lon":5.399598,"is_reserved":false,"is_disabled":true,"rental_uris":{"android":"levelo://app?vid=fb3b336f-1025-4914-bd98-51aff7a0d030","ios":"levelo://app?vid=fb3b336f-1025-4914-bd98-51aff7a0d030"},"vehicle_type_id":"4","last_reported":1747398053,"current_range_meters":1600,"station_id":"ce4bh392rcd13ifvqdm0","pricing_plan_id":"cebpf4jnsgd1na2vs0mg"},{"bike_id":"90dba33c-16fd-475e-aa64-dc473497a888","system_id":"levelo_inurba_marseille","lat":43.24071,"lon":5.37749,"is_reserved":false,"is_disabled":true,"rental_uris":{"android":"levelo://app?vid=90dba33c-16fd-475e-aa64-dc473497a888","ios":"levelo://app?vid=90dba33c-16fd-475e-aa64-dc473497a888"},"vehicle_type_id":"4","last_reported":1747398053,"current_range_meters":1600,"station_id":"ce4bhnp2rcd13ifvqgvg","pricing_plan_id":"cebpf4jnsgd1na2vs0mg"},{"bike_id":"47975a93-7d64-42db-9982-0cab9e8b2344","system_id":"levelo_inurba_marseille","lat":43.30552,"lon":5.36705,"is_reserved":false,"is_disabled":true,"rental_uris":{"android":"levelo://app?vid=47975a93-7d64-42db-9982-0cab9e8b2344","ios":"levelo://app?vid=47975a93-7d64-42db-9982-0cab9e8b2344"},"vehicle_type_id":"4","last_reported":1747398053,"current_range_meters":2000,"station_id":"ce4bgrp2rcd13ifvqc9g","pricing_plan_id":"cebpf4jnsgd1na2vs0mg"},{"bike_id":"5753ac94-b09c-4986-80bb-e056ee63c639","system_id":"levelo_inurba_marseille","lat":43.29407,"lon":5.38621,"is_reserved":false,"is_disabled":true,"rental_uris":{"android":"levelo://app?vid=5753ac94-b09c-4986-80bb-e056ee63c639","ios":"levelo://app?vid=5753ac94-b09c-4986-80bb-e056ee63c639"},"vehicle_type_id":"4","last_reported":1747398053,"current_range_meters":2000,"station_id":"ce4bh2h2rcd13ifvqdh0","pricing_plan_id":"cebpf4jnsgd1na2vs0mg"},{"bike_id":"6f356680-4e31-46e0-a984-fb7a6763024c","system_id":"levelo_inurba_marseille","lat":43.26552,"lon":5.37285,"is_reserved":false,"is_disabled":true,"rental_uris":{"android":"levelo://app?vid=6f356680-4e31-46e0-a984-fb7a6763024c","ios":"levelo://app?vid=6f356680-4e31-46e0-a984-fb7a6763024c"},"vehicle_type_id":"4","last_reported":1747398053,"current_range_meters":2000,"station_id":"ce4bhg12rcd13ifvqf70","pricing_plan_id":"cebpf4jnsgd1na2vs0mg"},{"bike_id":"6c95755e-d93e-4453-8e7d-c0c001cfd540","system_id":"levelo_inurba_marseille","lat":43.27621,"lon":5.36103,"is_reserved":false,"is_disabled":false,"rental_uris":{"android":"levelo://app?vid=6c95755e-d93e-4453-8e7d-c0c001cfd540","ios":"levelo://app?vid=6c95755e-d93e-4453-8e7d-c0c001cfd540"},"vehicle_type_id":"4","last_reported":1747398053,"current_range_meters":2800,"station_id":"ce4bgj92rcd13ifvqbe0","pricing_plan_id":"cebpf4jnsgd1na2vs0mg"},{"bike_id":"37f03825-dd4b-4ba9-aa89-c735fe12c1b2","system_id":"levelo_inurba_marseille","lat":43.28355,"lon":5.38102,"is_reserved":false,"is_disabled":false,"rental_uris":{"android":"levelo://app?vid=37f03825-dd4b-4ba9-aa89-c735fe12c1b2","ios":"levelo://app?vid=37f03825-dd4b-4ba9-aa89-c735fe12c1b2"},"vehicle_type_id":"4","last_reported":1747398053,"current_range_meters":3200,"station_id":"ce4bh412rcd13ifvqdr0","pricing_plan_id":"cebpf4jnsgd1na2vs0mg"},{"bike_id":"af2938ac-2909-4c1b-b560-7659d69939ee","system_id":"levelo_inurba_marseille","lat":43.21751,"lon":5.346,"is_reserved":false,"is_disabled":false,"rental_uris":{"android":"levelo://app?vid=af2938ac-2909-4c1b-b560-7659d69939ee","ios":"levelo://app?vid=af2938ac-2909-4c1b-b560-7659d69939ee"},"vehicle_type_id":"4","last_reported":1747398053,"current_range_meters":3200,"station_id":"st_cvj6r9ubvosntc0bgbag","pricing_plan_id":"cebpf4jnsgd1na2vs0mg"},{"bike_id":"d00de707-732d-4feb-a546-8f1f18b99272","system_id":"levelo_inurba_marseille","lat":43.3059,"lon":5.3725,"is_reserved":false,"is_disabled":false,"rental_uris":{"android":"levelo://app?vid=d00de707-732d-4feb-a546-8f1f18b99272","ios":"levelo://app?vid=d00de707-732d-4feb-a546-8f1f18b99272"},"vehicle_type_id":"4","last_reported":1747398053,"current_range_meters":4000,"station_id":"ce4bgqh2rcd13ifvqc4g","pricing_plan_id":"cebpf4jnsgd1na2vs0mg"},{"bike_id":"c01ca215-abcc-4d16-bbf3-bc8d8d39a66b","system_id":"levelo_inurba_marseille","lat":43.28561,"lon":5.39497,"is_reserved":false,"is_disabled":false,"rental_uris":{"android":"levelo://app?vid=c01ca215-abcc-4d16-bbf3-bc8d8d39a66b","ios":"levelo://app?vid=c01ca215-abcc-4d16-bbf3-bc8d8d39a66b"},"vehicle_type_id":"4","last_reported":1747398053,"current_range_meters":4000,"station_id":"ce4bh292rcd13ifvqdg0","pricing_plan_id":"cebpf4jnsgd1na2vs0mg"},{"bike_id":"e1154ed9-5648-427a-8454-c27f240985b2","system_id":"levelo_inurba_marseille","lat":43.2955,"lon":5.42283,"is_reserved":false,"is_disabled":false,"rental_uris":{"android":"levelo://app?vid=e1154ed9-5648-427a-8454-c27f240985b2","ios":"levelo://app?vid=e1154ed9-5648-427a-8454-c27f240985b2"},"vehicle_type_id":"4","last_reported":1747398053,"current_range_meters":4000,"station_id":"ce4bhph2rcd13ifvqhdg","pricing_plan_id":"cebpf4jnsgd1na2vs0mg"},{"bike_id":"f752227c-3df6-44d5-abd3-4a633d5341e0","system_id":"levelo_inurba_marseille","lat":43.22936,"lon":5.35359,"is_reserved":false,"is_disabled":false,"rental_uris":{"android":"levelo://app?vid=f752227c-3df6-44d5-abd3-4a633d5341e0","ios":"levelo://app?vid=f752227c-3df6-44d5-abd3-4a633d5341e0"},"vehicle_type_id":"4","last_reported":1747398053,"current_range_meters":4000,"station_id":"cpo3532slgdg3j2ikp40","pricing_plan_id":"cebpf4jnsgd1na2vs0mg"},{"bike_id":"a1bd7873-3574-4728-882c-f418b8143ab7","system_id":"levelo_inurba_marseille","lat":43.29517,"lon":5.37514,"is_reserved":false,"is_disabled":false,"rental_uris":{"android":"levelo://app?vid=a1bd7873-3574-4728-882c-f418b8143ab7","ios":"levelo://app?vid=a1bd7873-3574-4728-882c-f418b8143ab7"},"vehicle_type_id":"4","last_reported":1747398053,"current_range_meters":4400,"station_id":"ce4bgkp2rcd13ifvqbmg","pricing_plan_id":"cebpf4jnsgd1na2vs0mg"},{"bike_id":"bec71f85-f64b-496f-8791-4a7b1e0bffab","system_id":"levelo_inurba_marseille","lat":43.3047,"lon":5.379,"is_reserved":false,"is_disabled":false,"rental_uris":{"android":"levelo://app?vid=bec71f85-f64b-496f-8791-4a7b1e0bffab","ios":"levelo://app?vid=bec71f85-f64b-496f-8791-4a7b1e0bffab"},"vehicle_type_id":"4","last_reported":1747398053,"current_range_meters":4400,"station_id":"ce4bgup2rcd13ifvqcn0","pricing_plan_id":"cebpf4jnsgd1na2vs0mg"},{"bike_id":"0ef21186-6006-47a1-bf5d-e23947054c39","system_id":"levelo_inurba_marseille","lat":43.30272,"lon":5.3771,"is_reserved":false,"is_disabled":false,"rental_uris":{"android":"levelo://app?vid=0ef21186-6006-47a1-bf5d-e23947054c39","ios":"levelo://app?vid=0ef21186-6006-47a1-bf5d-e23947054c39"},"vehicle_type_id":"4","last_reported":1747398053,"current_range_meters":4800,"station_id":"ce4bguh2rcd13ifvqcj0","pricing_plan_id":"cebpf4jnsgd1na2vs0mg"},{"bike_id":"e8551ea0-12e2-4c50-a344-033049341adb","system_id":"levelo_inurba_marseille","lat":43.2929,"lon":5.36832,"is_reserved":false,"is_disabled":false,"rental_uris":{"android":"levelo://app?vid=e8551ea0-12e2-4c50-a344-033049341adb","ios":"levelo://app?vid=e8551ea0-12e2-4c50-a344-033049341adb"},"vehicle_type_id":"4","last_reported":1747398053,"current_range_meters":4800,"station_id":"ce4bhbp2rcd13ifvqesg","pricing_plan_id":"cebpf4jnsgd1na2vs0mg"},{"bike_id":"6b6c309b-1a26-4e89-afe0-68466d951329","system_id":"levelo_inurba_marseille","lat":43.2896,"lon":5.37834,"is_reserved":false,"is_disabled":false,"rental_uris":{"android":"levelo://app?vid=6b6c309b-1a26-4e89-afe0-68466d951329","ios":"levelo://app?vid=6b6c309b-1a26-4e89-afe0-68466d951329"},"vehicle_type_id":"4","last_reported":1747398053,"current_range_meters":5600,"station_id":"ce4bh9p2rcd13ifvqed0","pricing_plan_id":"cebpf4jnsgd1na2vs0mg"},{"bike_id":"9d0c55fe-475b-40da-b82c-2a54c2dc3b06","system_id":"levelo_inurba_marseille","lat":43.29196,"lon":5.35798,"is_reserved":false,"is_disabled":false,"rental_uris":{"android":"levelo://app?vid=9d0c55fe-475b-40da-b82c-2a54c2dc3b06","ios":"levelo://app?vid=9d0c55fe-475b-40da-b82c-2a54c2dc3b06"},"vehicle_type_id":"4","last_reported":1747398053,"current_range_meters":5600,"station_id":"ce4bhb12rcd13ifvqel0","pricing_plan_id":"cebpf4jnsgd1na2vs0mg"},{"bike_id":"4236c5be-cc3b-44a8-850b-0542c9c950a3","system_id":"levelo_inurba_marseille","lat":43.2893,"lon":5.3663,"is_reserved":false,"is_disabled":false,"rental_uris":{"android":"levelo://app?vid=4236c5be-cc3b-44a8-850b-0542c9c950a3","ios":"levelo://app?vid=4236c5be-cc3b-44a8-850b-0542c9c950a3"},"vehicle_type_id":"4","last_reported":1747398053,"current_range_meters":6000,"station_id":"ce4bhap2rcd13ifvqek0","pricing_plan_id":"cebpf4jnsgd1na2vs0mg"},{"bike_id":"004e550f-eeb4-47fd-965a-a69664e7713a","system_id":"levelo_inurba_marseille","lat":43.27952,"lon":5.41042,"is_reserved":false,"is_disabled":false,"rental_uris":{"android":"levelo://app?vid=004e550f-eeb4-47fd-965a-a69664e7713a","ios":"levelo://app?vid=004e550f-eeb4-47fd-965a-a69664e7713a"},"vehicle_type_id":"4","last_reported":1747398053,"current_range_meters":6400,"station_id":"ce4bhnp2rcd13ifvqh0g","pricing_plan_id":"cebpf4jnsgd1na2vs0mg"},{"bike_id":"d019e66d-33f4-4c22-8b65-fee70ee83fcf","system_id":"levelo_inurba_marseille","lat":43.29972,"lon":5.38497,"is_reserved":false,"is_disabled":false,"rental_uris":{"android":"levelo://app?vid=d019e66d-33f4-4c22-8b65-fee70ee83fcf","ios":"levelo://app?vid=d019e66d-33f4-4c22-8b65-fee70ee83fcf"},"vehicle_type_id":"4","last_reported":1747398053,"current_range_meters":6800,"station_id":"ce4bgj92rcd13ifvqbd0","pricing_plan_id":"cebpf4jnsgd1na2vs0mg"},{"bike_id":"90403384-5904-4e77-90f1-0846dbc1f41f","system_id":"levelo_inurba_marseille","lat":43.28422,"lon":5.34984,"is_reserved":false,"is_disabled":false,"rental_uris":{"android":"levelo://app?vid=90403384-5904-4e77-90f1-0846dbc1f41f","ios":"levelo://app?vid=90403384-5904-4e77-90f1-0846dbc1f41f"},"vehicle_type_id":"4","last_reported":1747398053,"current_range_meters":6800,"station_id":"ce4bhbh2rcd13ifvqepg","pricing_plan_id":"cebpf4jnsgd1na2vs0mg"},{"bike_id":"a06d3da0-7491-44c6-a4ff-b053bff83133","system_id":"levelo_inurba_marseille","lat":43.27056,"lon":5.4026,"is_reserved":false,"is_disabled":false,"rental_uris":{"android":"levelo://app?vid=a06d3da0-7491-44c6-a4ff-b053bff83133","ios":"levelo://app?vid=a06d3da0-7491-44c6-a4ff-b053bff83133"},"vehicle_type_id":"4","last_reported":1747398053,"current_range_meters":6800,"station_id":"ce4bhk92rcd13ifvqgc0","pricing_plan_id":"cebpf4jnsgd1na2vs0mg"},{"bike_id":"93f1baa4-b4d8-4eef-96f0-eeb184904f85","system_id":"levelo_inurba_marseille","lat":43.29772,"lon":5.37105,"is_reserved":false,"is_disabled":false,"rental_uris":{"android":"levelo://app?vid=93f1baa4-b4d8-4eef-96f0-eeb184904f85","ios":"levelo://app?vid=93f1baa4-b4d8-4eef-96f0-eeb184904f85"},"vehicle_type_id":"4","last_reported":1747398053,"current_range_meters":7200,"station_id":"ce4bgop2rcd13ifvqc1g","pricing_plan_id":"cebpf4jnsgd1na2vs0mg"},{"bike_id":"f343e83b-128c-49d6-b100-493306da0334","system_id":"levelo_inurba_marseille","lat":43.29555,"lon":5.42293,"is_reserved":false,"is_disabled":false,"rental_uris":{"android":"levelo://app?vid=f343e83b-128c-49d6-b100-493306da0334","ios":"levelo://app?vid=f343e83b-128c-49d6-b100-493306da0334"},"vehicle_type_id":"4","last_reported":1747398053,"current_range_meters":7200,"station_id":"ce4bhph2rcd13ifvqhdg","pricing_plan_id":"cebpf4jnsgd1na2vs0mg"},{"bike_id":"657c13e7-a4ff-495e-9676-26b5e69b4367","system_id":"levelo_inurba_marseille","lat":43.23196,"lon":5.35548,"is_reserved":false,"is_disabled":false,"rental_uris":{"android":"levelo://app?vid=657c13e7-a4ff-495e-9676-26b5e69b4367","ios":"levelo://app?vid=657c13e7-a4ff-495e-9676-26b5e69b4367"},"vehicle_type_id":"4","last_reported":1747398053,"current_range_meters":7200,"station_id":"ce4bhu92rcd13ifvqi70","pricing_plan_id":"cebpf4jnsgd1na2vs0mg"},{"bike_id":"3b890833-daa7-4bae-b7a0-8b1637bd75f6","system_id":"levelo_inurba_marseille","lat":43.26119,"lon":5.41473,"is_reserved":false,"is_disabled":false,"rental_uris":{"android":"levelo://app?vid=3b890833-daa7-4bae-b7a0-8b1637bd75f6","ios":"levelo://app?vid=3b890833-daa7-4bae-b7a0-8b1637bd75f6"},"vehicle_type_id":"4","last_reported":1747398053,"current_range_meters":8000,"station_id":"","pricing_plan_id":"cebpf4jnsgd1na2vs0mg"},{"bike_id":"4e716133-12bd-48ef-8462-cdade112f10c","system_id":"levelo_inurba_marseille","lat":43.27144,"lon":5.39986,"is_reserved":false,"is_disabled":false,"rental_uris":{"android":"levelo://app?vid=4e716133-12bd-48ef-8462-cdade112f10c","ios":"levelo://app?vid=4e716133-12bd-48ef-8462-cdade112f10c"},"vehicle_type_id":"4","last_reported":1747398053,"current_range_meters":8000,"station_id":"","pricing_plan_id":"cebpf4jnsgd1na2vs0mg"},{"bike_id":"90441565-a0cb-4348-b6af-0e992106f44f","system_id":"levelo_inurba_marseille","lat":43.29705,"lon":5.36606,"is_reserved":false,"is_disabled":false,"rental_uris":{"android":"levelo://app?vid=90441565-a0cb-4348-b6af-0e992106f44f","ios":"levelo://app?vid=90441565-a0cb-4348-b6af-0e992106f44f"},"vehicle_type_id":"4","last_reported":1747398053,"current_range_meters":8000,"station_id":"ce4bgn12rcd13ifvqbt0","pricing_plan_id":"cebpf4jnsgd1na2vs0mg"},{"bike_id":"66f7c9e7-57f3-4b5a-934e-baf9a34e5e1f","system_id":"levelo_inurba_marseille","lat":43.298434,"lon":5.362674,"is_reserved":false,"is_disabled":false,"rental_uris":{"android":"levelo://app?vid=66f7c9e7-57f3-4b5a-934e-baf9a34e5e1f","ios":"levelo://app?vid=66f7c9e7-57f3-4b5a-934e-baf9a34e5e1f"},"vehicle_type_id":"4","last_reported":1747398053,"current_range_meters":8000,"station_id":"ce4bgpp2rcd13ifvqc3g","pricing_plan_id":"cebpf4jnsgd1na2vs0mg"},{"bike_id":"8326736d-bb4b-4213-9bbb-37cb6bb9268c","system_id":"levelo_inurba_marseille","lat":43.30418,"lon":5.39737,"is_reserved":false,"is_disabled":false,"rental_uris":{"android":"levelo://app?vid=8326736d-bb4b-4213-9bbb-37cb6bb9268c","ios":"levelo://app?vid=8326736d-bb4b-4213-9bbb-37cb6bb9268c"},"vehicle_type_id":"4","last_reported":1747398053,"current_range_meters":8000,"station_id":"ce4bh092rcd13ifvqd20","pricing_plan_id":"cebpf4jnsgd1na2vs0mg"},{"bike_id":"b9187442-4f2d-465d-8dad-276af7d8e66c","system_id":"levelo_inurba_marseille","lat":43.291969,"lon":5.393318,"is_reserved":false,"is_disabled":false,"rental_uris":{"android":"levelo://app?vid=b9187442-4f2d-465d-8dad-276af7d8e66c","ios":"levelo://app?vid=b9187442-4f2d-465d-8dad-276af7d8e66c"},"vehicle_type_id":"4","last_reported":1747398053,"current_range_meters":8000,"station_id":"ce4bh192rcd13ifvqdd0","pricing_plan_id":"cebpf4jnsgd1na2vs0mg"},{"bike_id":"f20da7ee-a8d1-4c06-96a3-891fccb25034","system_id":"levelo_inurba_marseille","lat":43.28354,"lon":5.38106,"is_reserved":false,"is_disabled":false,"rental_uris":{"android":"levelo://app?vid=f20da7ee-a8d1-4c06-96a3-891fccb25034","ios":"levelo://app?vid=f20da7ee-a8d1-4c06-96a3-891fccb25034"},"vehicle_type_id":"4","last_reported":1747398053,"current_range_meters":8000,"station_id":"ce4bh412rcd13ifvqdr0","pricing_plan_id":"cebpf4jnsgd1na2vs0mg"},{"bike_id":"e79424b0-532a-4abb-9364-79eb4f65286b","system_id":"levelo_inurba_marseille","lat":43.29193,"lon":5.35798,"is_reserved":false,"is_disabled":false,"rental_uris":{"android":"levelo://app?vid=e79424b0-532a-4abb-9364-79eb4f65286b","ios":"levelo://app?vid=e79424b0-532a-4abb-9364-79eb4f65286b"},"vehicle_type_id":"4","last_reported":1747398053,"current_range_meters":8000,"station_id":"ce4bhb12rcd13ifvqel0","pricing_plan_id":"cebpf4jnsgd1na2vs0mg"},{"bike_id":"f768f02c-a770-46ed-b9fb-ed1e435a3c0f","system_id":"levelo_inurba_marseille","lat":43.32932,"lon":5.38992,"is_reserved":false,"is_disabled":false,"rental_uris":{"android":"levelo://app?vid=f768f02c-a770-46ed-b9fb-ed1e435a3c0f","ios":"levelo://app?vid=f768f02c-a770-46ed-b9fb-ed1e435a3c0f"},"vehicle_type_id":"4","last_reported":1747398053,"current_range_meters":8400,"station_id":"","pricing_plan_id":"cebpf4jnsgd1na2vs0mg"},{"bike_id":"0077f398-56b6-43bb-8eeb-9798d08de05c","system_id":"levelo_inurba_marseille","lat":43.30928,"lon":5.37239,"is_reserved":false,"is_disabled":false,"rental_uris":{"android":"levelo://app?vid=0077f398-56b6-43bb-8eeb-9798d08de05c","ios":"levelo://app?vid=0077f398-56b6-43bb-8eeb-9798d08de05c"},"vehicle_type_id":"4","last_reported":1747398053,"current_range_meters":8400,"station_id":"","pricing_plan_id":"cebpf4jnsgd1na2vs0mg"},{"bike_id":"f69fc589-ef4c-49ff-a0ff-810fecf4ed74","system_id":"levelo_inurba_marseille","lat":43.29612,"lon":5.38103,"is_reserved":false,"is_disabled":false,"rental_uris":{"android":"levelo://app?vid=f69fc589-ef4c-49ff-a0ff-810fecf4ed74","ios":"levelo://app?vid=f69fc589-ef4c-49ff-a0ff-810fecf4ed74"},"vehicle_type_id":"4","last_reported":1747398053,"current_range_meters":8400,"station_id":"ce4bgl12rcd13ifvqbo0","pricing_plan_id":"cebpf4jnsgd1na2vs0mg"},{"bike_id":"2b825be8-5498-49b3-901b-e8cb824032f0","system_id":"levelo_inurba_marseille","lat":43.2781,"lon":5.40718,"is_reserved":false,"is_disabled":false,"rental_uris":{"android":"levelo://app?vid=2b825be8-5498-49b3-901b-e8cb824032f0","ios":"levelo://app?vid=2b825be8-5498-49b3-901b-e8cb824032f0"},"vehicle_type_id":"4","last_reported":1747398053,"current_range_meters":8400,"station_id":"ce4bhnh2rcd13ifvqgtg","pricing_plan_id":"cebpf4jnsgd1na2vs0mg"},{"bike_id":"f8708533-c882-424d-919c-8da02599e742","system_id":"levelo_inurba_marseille","lat":43.32353,"lon":5.38862,"is_reserved":false,"is_disabled":false,"rental_uris":{"android":"levelo://app?vid=f8708533-c882-424d-919c-8da02599e742","ios":"levelo://app?vid=f8708533-c882-424d-919c-8da02599e742"},"vehicle_type_id":"4","last_reported":1747398053,"current_range_meters":8400,"station_id":"ce4bhqp2rcd13ifvqhog","pricing_plan_id":"cebpf4jnsgd1na2vs0mg"},{"bike_id":"c838ffe0-9380-4445-af08-33a9cb4b006f","system_id":"levelo_inurba_marseille","lat":43.30529,"lon":5.36554,"is_reserved":false,"is_disabled":false,"rental_uris":{"android":"levelo://app?vid=c838ffe0-9380-4445-af08-33a9cb4b006f","ios":"levelo://app?vid=c838ffe0-9380-4445-af08-33a9cb4b006f"},"vehicle_type_id":"4","last_reported":1747398053,"current_range_meters":8800,"station_id":"ce4bgs12rcd13ifvqcag","pricing_plan_id":"cebpf4jnsgd1na2vs0mg"},{"bike_id":"0f0d5e66-0999-40f8-bbc1-a82fb3ff7af2","system_id":"levelo_inurba_marseille","lat":43.26526,"lon":5.39043,"is_reserved":false,"is_disabled":false,"rental_uris":{"android":"levelo://app?vid=0f0d5e66-0999-40f8-bbc1-a82fb3ff7af2","ios":"levelo://app?vid=0f0d5e66-0999-40f8-bbc1-a82fb3ff7af2"},"vehicle_type_id":"4","last_reported":1747398053,"current_range_meters":8800,"station_id":"ce4bhe12rcd13ifvqf30","pricing_plan_id":"cebpf4jnsgd1na2vs0mg"},{"bike_id":"74657633-d420-469f-891f-cd0a6f3f8ade","system_id":"levelo_inurba_marseille","lat":43.27501,"lon":5.42463,"is_reserved":false,"is_disabled":false,"rental_uris":{"android":"levelo://app?vid=74657633-d420-469f-891f-cd0a6f3f8ade","ios":"levelo://app?vid=74657633-d420-469f-891f-cd0a6f3f8ade"},"vehicle_type_id":"4","last_reported":1747398053,"current_range_meters":8800,"station_id":"ce4bhn92rcd13ifvqgrg","pricing_plan_id":"cebpf4jnsgd1na2vs0mg"},{"bike_id":"f8e4732a-2ecf-431c-8f66-abc7aabb8aa1","system_id":"levelo_inurba_marseille","lat":43.32967,"lon":5.39001,"is_reserved":false,"is_disabled":false,"rental_uris":{"android":"levelo://app?vid=f8e4732a-2ecf-431c-8f66-abc7aabb8aa1","ios":"levelo://app?vid=f8e4732a-2ecf-431c-8f66-abc7aabb8aa1"},"vehicle_type_id":"4","last_reported":1747398053,"current_range_meters":9200,"station_id":"","pricing_plan_id":"cebpf4jnsgd1na2vs0mg"},{"bike_id":"aaafdbf4-2564-4994-962f-807c25bd3ec2","system_id":"levelo_inurba_marseille","lat":43.30143,"lon":5.38067,"is_reserved":false,"is_disabled":false,"rental_uris":{"android":"levelo://app?vid=aaafdbf4-2564-4994-962f-807c25bd3ec2","ios":"levelo://app?vid=aaafdbf4-2564-4994-962f-807c25bd3ec2"},"vehicle_type_id":"4","last_reported":1747398053,"current_range_meters":9200,"station_id":"ce4bgjp2rcd13ifvqbh0","pricing_plan_id":"cebpf4jnsgd1na2vs0mg"},{"bike_id":"7b5ba32f-37ab-4291-890f-7c9dfa65884b","system_id":"levelo_inurba_marseille","lat":43.29597,"lon":5.38101,"is_reserved":false,"is_disabled":false,"rental_uris":{"android":"levelo://app?vid=7b5ba32f-37ab-4291-890f-7c9dfa65884b","ios":"levelo://app?vid=7b5ba32f-37ab-4291-890f-7c9dfa65884b"},"vehicle_type_id":"4","last_reported":1747398053,"current_range_meters":9200,"station_id":"ce4bgl12rcd13ifvqbo0","pricing_plan_id":"cebpf4jnsgd1na2vs0mg"},{"bike_id":"731a9541-e63f-4784-8ce0-04a1c5e7dc27","system_id":"levelo_inurba_marseille","lat":43.31222,"lon":5.36864,"is_reserved":false,"is_disabled":false,"rental_uris":{"android":"levelo://app?vid=731a9541-e63f-4784-8ce0-04a1c5e7dc27","ios":"levelo://app?vid=731a9541-e63f-4784-8ce0-04a1c5e7dc27"},"vehicle_type_id":"4","last_reported":1747398053,"current_range_meters":9200,"station_id":"ce4bgl92rcd13ifvqbq0","pricing_plan_id":"cebpf4jnsgd1na2vs0mg"},{"bike_id":"2c388c2c-6a65-426c-ae45-0a421b641fa1","system_id":"levelo_inurba_marseille","lat":43.30901,"lon":5.36839,"is_reserved":false,"is_disabled":false,"rental_uris":{"android":"levelo://app?vid=2c388c2c-6a65-426c-ae45-0a421b641fa1","ios":"levelo://app?vid=2c388c2c-6a65-426c-ae45-0a421b641fa1"},"vehicle_type_id":"4","last_reported":1747398053,"current_range_meters":9200,"station_id":"ce4bgn92rcd13ifvqbvg","pricing_plan_id":"cebpf4jnsgd1na2vs0mg"},{"bike_id":"becce0a5-d83a-407f-85a7-49a2a6496279","system_id":"levelo_inurba_marseille","lat":43.2926,"lon":5.38437,"is_reserved":false,"is_disabled":false,"rental_uris":{"android":"levelo://app?vid=becce0a5-d83a-407f-85a7-49a2a6496279","ios":"levelo://app?vid=becce0a5-d83a-407f-85a7-49a2a6496279"},"vehicle_type_id":"4","last_reported":1747398053,"current_range_meters":9200,"station_id":"ce4bh692rcd13ifvqea0","pricing_plan_id":"cebpf4jnsgd1na2vs0mg"},{"bike_id":"bfcd2afb-1c06-42b9-bfe9-1cd6d272b9d5","system_id":"levelo_inurba_marseille","lat":43.29275,"lon":5.3684,"is_reserved":false,"is_disabled":false,"rental_uris":{"android":"levelo://app?vid=bfcd2afb-1c06-42b9-bfe9-1cd6d272b9d5","ios":"levelo://app?vid=bfcd2afb-1c06-42b9-bfe9-1cd6d272b9d5"},"vehicle_type_id":"4","last_reported":1747398053,"current_range_meters":9200,"station_id":"ce4bhbp2rcd13ifvqesg","pricing_plan_id":"cebpf4jnsgd1na2vs0mg"},{"bike_id":"e13cb0d8-4aa0-4957-8049-46b8ad59235b","system_id":"levelo_inurba_marseille","lat":43.26564,"lon":5.39001,"is_reserved":false,"is_disabled":false,"rental_uris":{"android":"levelo://app?vid=e13cb0d8-4aa0-4957-8049-46b8ad59235b","ios":"levelo://app?vid=e13cb0d8-4aa0-4957-8049-46b8ad59235b"},"vehicle_type_id":"4","last_reported":1747398053,"current_range_meters":9200,"station_id":"ce4bhe12rcd13ifvqf30","pricing_plan_id":"cebpf4jnsgd1na2vs0mg"},{"bike_id":"c69da8e9-21de-44c2-a5ab-5d5769d72033","system_id":"levelo_inurba_marseille","lat":43.32656,"lon":5.40976,"is_reserved":false,"is_disabled":false,"rental_uris":{"android":"levelo://app?vid=c69da8e9-21de-44c2-a5ab-5d5769d72033","ios":"levelo://app?vid=c69da8e9-21de-44c2-a5ab-5d5769d72033"},"vehicle_type_id":"4","last_reported":1747398053,"current_range_meters":9200,"station_id":"ce4bhpp2rcd13ifvqhgg","pricing_plan_id":"cebpf4jnsgd1na2vs0mg"},{"bike_id":"e64e4484-2db6-41f4-beb8-e0c0ae1263cd","system_id":"levelo_inurba_marseille","lat":43.285194,"lon":5.430341,"is_reserved":false,"is_disabled":false,"rental_uris":{"android":"levelo://app?vid=e64e4484-2db6-41f4-beb8-e0c0ae1263cd","ios":"levelo://app?vid=e64e4484-2db6-41f4-beb8-e0c0ae1263cd"},"vehicle_type_id":"4","last_reported":1747398053,"current_range_meters":9600,"station_id":"","pricing_plan_id":"cebpf4jnsgd1na2vs0mg"},{"bike_id":"4399645c-d25f-43dc-a3f0-43785474c360","system_id":"levelo_inurba_marseille","lat":43.29573,"lon":5.37507,"is_reserved":false,"is_disabled":false,"rental_uris":{"android":"levelo://app?vid=4399645c-d25f-43dc-a3f0-43785474c360","ios":"levelo://app?vid=4399645c-d25f-43dc-a3f0-43785474c360"},"vehicle_type_id":"4","last_reported":1747398053,"current_range_meters":9600,"station_id":"ce4bgh92rcd13ifvqb50","pricing_plan_id":"cebpf4jnsgd1na2vs0mg"},{"bike_id":"06a42a39-f29a-4f0a-b85e-0b0d9d00e09b","system_id":"levelo_inurba_marseille","lat":43.31709,"lon":5.40452,"is_reserved":false,"is_disabled":false,"rental_uris":{"android":"levelo://app?vid=06a42a39-f29a-4f0a-b85e-0b0d9d00e09b","ios":"levelo://app?vid=06a42a39-f29a-4f0a-b85e-0b0d9d00e09b"},"vehicle_type_id":"4","last_reported":1747398053,"current_range_meters":9600,"station_id":"ce4bh012rcd13ifvqd00","pricing_plan_id":"cebpf4jnsgd1na2vs0mg"},{"bike_id":"6b7beaed-2291-45ce-86c9-86c373a7339b","system_id":"levelo_inurba_marseille","lat":43.30109,"lon":5.39069,"is_reserved":false,"is_disabled":false,"rental_uris":{"android":"levelo://app?vid=6b7beaed-2291-45ce-86c9-86c373a7339b","ios":"levelo://app?vid=6b7beaed-2291-45ce-86c9-86c373a7339b"},"vehicle_type_id":"4","last_reported":1747398053,"current_range_meters":9600,"station_id":"ce4bh192rcd13ifvqdb0","pricing_plan_id":"cebpf4jnsgd1na2vs0mg"},{"bike_id":"08312611-bdcb-4e8a-88ba-f8659101163a","system_id":"levelo_inurba_marseille","lat":43.26558,"lon":5.37283,"is_reserved":false,"is_disabled":false,"rental_uris":{"android":"levelo://app?vid=08312611-bdcb-4e8a-88ba-f8659101163a","ios":"levelo://app?vid=08312611-bdcb-4e8a-88ba-f8659101163a"},"vehicle_type_id":"4","last_reported":1747398053,"current_range_meters":9600,"station_id":"ce4bhg12rcd13ifvqf70","pricing_plan_id":"cebpf4jnsgd1na2vs0mg"},{"bike_id":"6caa2748-2c1d-4d22-9ce0-ef6ca3ab2591","system_id":"levelo_inurba_marseille","lat":43.2315,"lon":5.43722,"is_reserved":false,"is_disabled":false,"rental_uris":{"android":"levelo://app?vid=6caa2748-2c1d-4d22-9ce0-ef6ca3ab2591","ios":"levelo://app?vid=6caa2748-2c1d-4d22-9ce0-ef6ca3ab2591"},"vehicle_type_id":"4","last_reported":1747398053,"current_range_meters":9600,"station_id":"ce4bhmp2rcd13ifvqgog","pricing_plan_id":"cebpf4jnsgd1na2vs0mg"},{"bike_id":"d4f885a1-0547-457f-b627-268db09362ae","system_id":"levelo_inurba_marseille","lat":43.23154,"lon":5.43723,"is_reserved":false,"is_disabled":false,"rental_uris":{"android":"levelo://app?vid=d4f885a1-0547-457f-b627-268db09362ae","ios":"levelo://app?vid=d4f885a1-0547-457f-b627-268db09362ae"},"vehicle_type_id":"4","last_reported":1747398053,"current_range_meters":9600,"station_id":"ce4bhmp2rcd13ifvqgog","pricing_plan_id":"cebpf4jnsgd1na2vs0mg"},{"bike_id":"8101f480-f29a-46a7-ad44-fbe51283b3b0","system_id":"levelo_inurba_marseille","lat":43.27945,"lon":5.41044,"is_reserved":false,"is_disabled":false,"rental_uris":{"android":"levelo://app?vid=8101f480-f29a-46a7-ad44-fbe51283b3b0","ios":"levelo://app?vid=8101f480-f29a-46a7-ad44-fbe51283b3b0"},"vehicle_type_id":"4","last_reported":1747398053,"current_range_meters":9600,"station_id":"ce4bhnp2rcd13ifvqh0g","pricing_plan_id":"cebpf4jnsgd1na2vs0mg"},{"bike_id":"d25849a1-b300-46e6-bdc6-3bda23c00190","system_id":"levelo_inurba_marseille","lat":43.30423,"lon":5.41274,"is_reserved":false,"is_disabled":false,"rental_uris":{"android":"levelo://app?vid=d25849a1-b300-46e6-bdc6-3bda23c00190","ios":"levelo://app?vid=d25849a1-b300-46e6-bdc6-3bda23c00190"},"vehicle_type_id":"4","last_reported":1747398053,"current_range_meters":9600,"station_id":"ce4bhop2rcd13ifvqh8g","pricing_plan_id":"cebpf4jnsgd1na2vs0mg"},{"bike_id":"88d48796-b099-44b2-a0c3-dbb9147327eb","system_id":"levelo_inurba_marseille","lat":43.302727,"lon":5.377178,"is_reserved":false,"is_disabled":false,"rental_uris":{"android":"levelo://app?vid=88d48796-b099-44b2-a0c3-dbb9147327eb","ios":"levelo://app?vid=88d48796-b099-44b2-a0c3-dbb9147327eb"},"vehicle_type_id":"4","last_reported":1747398053,"current_range_meters":10000,"station_id":"ce4bguh2rcd13ifvqcj0","pricing_plan_id":"cebpf4jnsgd1na2vs0mg"},{"bike_id":"daa5118f-6e7e-4980-91b0-e723e4de0646","system_id":"levelo_inurba_marseille","lat":43.28569,"lon":5.39492,"is_reserved":false,"is_disabled":false,"rental_uris":{"android":"levelo://app?vid=daa5118f-6e7e-4980-91b0-e723e4de0646","ios":"levelo://app?vid=daa5118f-6e7e-4980-91b0-e723e4de0646"},"vehicle_type_id":"4","last_reported":1747398053,"current_range_meters":10000,"station_id":"ce4bh292rcd13ifvqdg0","pricing_plan_id":"cebpf4jnsgd1na2vs0mg"},{"bike_id":"5879f203-1394-47e0-9f75-7c405ac331f5","system_id":"levelo_inurba_marseille","lat":43.32357,"lon":5.38879,"is_reserved":false,"is_disabled":false,"rental_uris":{"android":"levelo://app?vid=5879f203-1394-47e0-9f75-7c405ac331f5","ios":"levelo://app?vid=5879f203-1394-47e0-9f75-7c405ac331f5"},"vehicle_type_id":"4","last_reported":1747398053,"current_range_meters":10000,"station_id":"ce4bhqp2rcd13ifvqhog","pricing_plan_id":"cebpf4jnsgd1na2vs0mg"},{"bike_id":"0b2ff425-873d-40a2-9536-2f0a73cdabfc","system_id":"levelo_inurba_marseille","lat":43.30589,"lon":5.39355,"is_reserved":false,"is_disabled":false,"rental_uris":{"android":"levelo://app?vid=0b2ff425-873d-40a2-9536-2f0a73cdabfc","ios":"levelo://app?vid=0b2ff425-873d-40a2-9536-2f0a73cdabfc"},"vehicle_type_id":"4","last_reported":1747398053,"current_range_meters":10800,"station_id":"ce4bh0p2rcd13ifvqd80","pricing_plan_id":"cebpf4jnsgd1na2vs0mg"},{"bike_id":"3aeb6d0a-2380-4561-9799-7acfd8ed46aa","system_id":"levelo_inurba_marseille","lat":43.26691,"lon":5.38277,"is_reserved":false,"is_disabled":false,"rental_uris":{"android":"levelo://app?vid=3aeb6d0a-2380-4561-9799-7acfd8ed46aa","ios":"levelo://app?vid=3aeb6d0a-2380-4561-9799-7acfd8ed46aa"},"vehicle_type_id":"4","last_reported":1747398053,"current_range_meters":10800,"station_id":"ce4bhg92rcd13ifvqf90","pricing_plan_id":"cebpf4jnsgd1na2vs0mg"},{"bike_id":"7673f08b-ac9e-4a96-9d1a-1911e62c1fe7","system_id":"levelo_inurba_marseille","lat":43.31311,"lon":5.3693,"is_reserved":false,"is_disabled":false,"rental_uris":{"android":"levelo://app?vid=7673f08b-ac9e-4a96-9d1a-1911e62c1fe7","ios":"levelo://app?vid=7673f08b-ac9e-4a96-9d1a-1911e62c1fe7"},"vehicle_type_id":"4","last_reported":1747398053,"current_range_meters":11200,"station_id":"","pricing_plan_id":"cebpf4jnsgd1na2vs0mg"},{"bike_id":"a488853e-8708-42f9-a9f1-40f4dc62e03d","system_id":"levelo_inurba_marseille","lat":43.30572,"lon":5.37313,"is_reserved":false,"is_disabled":false,"rental_uris":{"android":"levelo://app?vid=a488853e-8708-42f9-a9f1-40f4dc62e03d","ios":"levelo://app?vid=a488853e-8708-42f9-a9f1-40f4dc62e03d"},"vehicle_type_id":"4","last_reported":1747398053,"current_range_meters":11200,"station_id":"","pricing_plan_id":"cebpf4jnsgd1na2vs0mg"},{"bike_id":"98d920c5-1187-4b5a-818d-08a15755a5bd","system_id":"levelo_inurba_marseille","lat":43.26956,"lon":5.38635,"is_reserved":false,"is_disabled":false,"rental_uris":{"android":"levelo://app?vid=98d920c5-1187-4b5a-818d-08a15755a5bd","ios":"levelo://app?vid=98d920c5-1187-4b5a-818d-08a15755a5bd"},"vehicle_type_id":"4","last_reported":1747398053,"current_range_meters":11200,"station_id":"ce4bhh92rcd13ifvqfh0","pricing_plan_id":"cebpf4jnsgd1na2vs0mg"},{"bike_id":"438a71bc-052c-4d05-9bd3-e227bd9f2e93","system_id":"levelo_inurba_marseille","lat":43.269537,"lon":5.386157,"is_reserved":false,"is_disabled":false,"rental_uris":{"android":"levelo://app?vid=438a71bc-052c-4d05-9bd3-e227bd9f2e93","ios":"levelo://app?vid=438a71bc-052c-4d05-9bd3-e227bd9f2e93"},"vehicle_type_id":"4","last_reported":1747398053,"current_range_meters":11200,"station_id":"ce4bhh92rcd13ifvqfh0","pricing_plan_id":"cebpf4jnsgd1na2vs0mg"},{"bike_id":"b5f6c9ac-79a8-4cae-a20c-7c8e338d295b","system_id":"levelo_inurba_marseille","lat":43.25823,"lon":5.3943,"is_reserved":false,"is_disabled":false,"rental_uris":{"android":"levelo://app?vid=b5f6c9ac-79a8-4cae-a20c-7c8e338d295b","ios":"levelo://app?vid=b5f6c9ac-79a8-4cae-a20c-7c8e338d295b"},"vehicle_type_id":"4","last_reported":1747398053,"current_range_meters":11200,"station_id":"ce4bhip2rcd13ifvqft0","pricing_plan_id":"cebpf4jnsgd1na2vs0mg"},{"bike_id":"39c7c348-baf3-417a-8df3-30f456f5c866","system_id":"levelo_inurba_marseille","lat":43.3211,"lon":5.36748,"is_reserved":false,"is_disabled":false,"rental_uris":{"android":"levelo://app?vid=39c7c348-baf3-417a-8df3-30f456f5c866","ios":"levelo://app?vid=39c7c348-baf3-417a-8df3-30f456f5c866"},"vehicle_type_id":"4","last_reported":1747398053,"current_range_meters":11200,"station_id":"ce4bhrh2rcd13ifvqhug","pricing_plan_id":"cebpf4jnsgd1na2vs0mg"},{"bike_id":"47e1c2f1-07c5-4ee9-9cae-20e07ccf84c8","system_id":"levelo_inurba_marseille","lat":43.3014,"lon":5.38066,"is_reserved":false,"is_disabled":false,"rental_uris":{"android":"levelo://app?vid=47e1c2f1-07c5-4ee9-9cae-20e07ccf84c8","ios":"levelo://app?vid=47e1c2f1-07c5-4ee9-9cae-20e07ccf84c8"},"vehicle_type_id":"4","last_reported":1747398053,"current_range_meters":11600,"station_id":"ce4bgjp2rcd13ifvqbh0","pricing_plan_id":"cebpf4jnsgd1na2vs0mg"},{"bike_id":"6d886103-344e-431a-ac80-7f62879d2f7c","system_id":"levelo_inurba_marseille","lat":43.22931,"lon":5.35358,"is_reserved":false,"is_disabled":false,"rental_uris":{"android":"levelo://app?vid=6d886103-344e-431a-ac80-7f62879d2f7c","ios":"levelo://app?vid=6d886103-344e-431a-ac80-7f62879d2f7c"},"vehicle_type_id":"4","last_reported":1747398053,"current_range_meters":11600,"station_id":"cpo3532slgdg3j2ikp40","pricing_plan_id":"cebpf4jnsgd1na2vs0mg"},{"bike_id":"b0a37e81-adb9-4922-bf5b-b6b0fec249b8","system_id":"levelo_inurba_marseille","lat":43.33448,"lon":5.40033,"is_reserved":false,"is_disabled":false,"rental_uris":{"android":"levelo://app?vid=b0a37e81-adb9-4922-bf5b-b6b0fec249b8","ios":"levelo://app?vid=b0a37e81-adb9-4922-bf5b-b6b0fec249b8"},"vehicle_type_id":"4","last_reported":1747398053,"current_range_meters":12000,"station_id":"","pricing_plan_id":"cebpf4jnsgd1na2vs0mg"},{"bike_id":"2996dc5f-1404-4227-922c-653603fba1b7","system_id":"levelo_inurba_marseille","lat":43.29172,"lon":5.37152,"is_reserved":false,"is_disabled":false,"rental_uris":{"android":"levelo://app?vid=2996dc5f-1404-4227-922c-653603fba1b7","ios":"levelo://app?vid=2996dc5f-1404-4227-922c-653603fba1b7"},"vehicle_type_id":"4","last_reported":1747398053,"current_range_meters":12000,"station_id":"ce4bha92rcd13ifvqeh0","pricing_plan_id":"cebpf4jnsgd1na2vs0mg"},{"bike_id":"b83fe942-abc9-41b4-b65c-9919c788030f","system_id":"levelo_inurba_marseille","lat":43.29624,"lon":5.37151,"is_reserved":false,"is_disabled":false,"rental_uris":{"android":"levelo://app?vid=b83fe942-abc9-41b4-b65c-9919c788030f","ios":"levelo://app?vid=b83fe942-abc9-41b4-b65c-9919c788030f"},"vehicle_type_id":"4","last_reported":1747398053,"current_range_meters":12400,"station_id":"","pricing_plan_id":"cebpf4jnsgd1na2vs0mg"},{"bike_id":"3a4221e2-3662-4b64-9c39-2aad992b6026","system_id":"levelo_inurba_marseille","lat":43.29715,"lon":5.37683,"is_reserved":false,"is_disabled":false,"rental_uris":{"android":"levelo://app?vid=3a4221e2-3662-4b64-9c39-2aad992b6026","ios":"levelo://app?vid=3a4221e2-3662-4b64-9c39-2aad992b6026"},"vehicle_type_id":"4","last_reported":1747398053,"current_range_meters":12400,"station_id":"ce4bgkh2rcd13ifvqbl0","pricing_plan_id":"cebpf4jnsgd1na2vs0mg"},{"bike_id":"765e0cfb-c888-4327-a53d-5a7e4b9b7d45","system_id":"levelo_inurba_marseille","lat":43.31351,"lon":5.36703,"is_reserved":false,"is_disabled":false,"rental_uris":{"android":"levelo://app?vid=765e0cfb-c888-4327-a53d-5a7e4b9b7d45","ios":"levelo://app?vid=765e0cfb-c888-4327-a53d-5a7e4b9b7d45"},"vehicle_type_id":"4","last_reported":1747398053,"current_range_meters":12400,"station_id":"ce4bgr92rcd13ifvqc6g","pricing_plan_id":"cebpf4jnsgd1na2vs0mg"},{"bike_id":"a9fd03be-b001-4895-940f-f0f268a5a4b5","system_id":"levelo_inurba_marseille","lat":43.30944,"lon":5.40146,"is_reserved":false,"is_disabled":false,"rental_uris":{"android":"levelo://app?vid=a9fd03be-b001-4895-940f-f0f268a5a4b5","ios":"levelo://app?vid=a9fd03be-b001-4895-940f-f0f268a5a4b5"},"vehicle_type_id":"4","last_reported":1747398053,"current_range_meters":12400,"station_id":"ce4bgvp2rcd13ifvqct0","pricing_plan_id":"cebpf4jnsgd1na2vs0mg"},{"bike_id":"aea16da5-4ca8-4640-a5bf-c936b5fe3a03","system_id":"levelo_inurba_marseille","lat":43.29041,"lon":5.37571,"is_reserved":false,"is_disabled":false,"rental_uris":{"android":"levelo://app?vid=aea16da5-4ca8-4640-a5bf-c936b5fe3a03","ios":"levelo://app?vid=aea16da5-4ca8-4640-a5bf-c936b5fe3a03"},"vehicle_type_id":"4","last_reported":1747398053,"current_range_meters":12400,"station_id":"ce4bh692rcd13ifvqe90","pricing_plan_id":"cebpf4jnsgd1na2vs0mg"},{"bike_id":"04bab36c-1889-4e81-aef4-22c85ef4960b","system_id":"levelo_inurba_marseille","lat":43.25818,"lon":5.39423,"is_reserved":false,"is_disabled":false,"rental_uris":{"android":"levelo://app?vid=04bab36c-1889-4e81-aef4-22c85ef4960b","ios":"levelo://app?vid=04bab36c-1889-4e81-aef4-22c85ef4960b"},"vehicle_type_id":"4","last_reported":1747398053,"current_range_meters":12400,"station_id":"ce4bhip2rcd13ifvqft0","pricing_plan_id":"cebpf4jnsgd1na2vs0mg"},{"bike_id":"2e709942-6161-4f1a-8c47-c5a2fddaa387","system_id":"levelo_inurba_marseille","lat":43.27479,"lon":5.42441,"is_reserved":false,"is_disabled":false,"rental_uris":{"android":"levelo://app?vid=2e709942-6161-4f1a-8c47-c5a2fddaa387","ios":"levelo://app?vid=2e709942-6161-4f1a-8c47-c5a2fddaa387"},"vehicle_type_id":"4","last_reported":1747398053,"current_range_meters":12400,"station_id":"ce4bhn92rcd13ifvqgrg","pricing_plan_id":"cebpf4jnsgd1na2vs0mg"},{"bike_id":"6cb622bf-e28e-4296-9ea1-b87ff136b3ad","system_id":"levelo_inurba_marseille","lat":43.28725,"lon":5.39967,"is_reserved":false,"is_disabled":false,"rental_uris":{"android":"levelo://app?vid=6cb622bf-e28e-4296-9ea1-b87ff136b3ad","ios":"levelo://app?vid=6cb622bf-e28e-4296-9ea1-b87ff136b3ad"},"vehicle_type_id":"4","last_reported":1747398053,"current_range_meters":12400,"station_id":"ce4bho92rcd13ifvqh3g","pricing_plan_id":"cebpf4jnsgd1na2vs0mg"},{"bike_id":"45ac17ee-91e3-4d0c-924e-417b2c5ad996","system_id":"levelo_inurba_marseille","lat":43.304217,"lon":5.412478,"is_reserved":false,"is_disabled":false,"rental_uris":{"android":"levelo://app?vid=45ac17ee-91e3-4d0c-924e-417b2c5ad996","ios":"levelo://app?vid=45ac17ee-91e3-4d0c-924e-417b2c5ad996"},"vehicle_type_id":"4","last_reported":1747398053,"current_range_meters":12400,"station_id":"ce4bhop2rcd13ifvqh8g","pricing_plan_id":"cebpf4jnsgd1na2vs0mg"},{"bike_id":"6c5486b1-e645-46c3-8e0c-b952447b3d1b","system_id":"levelo_inurba_marseille","lat":43.2707,"lon":5.42276,"is_reserved":false,"is_disabled":false,"rental_uris":{"android":"levelo://app?vid=6c5486b1-e645-46c3-8e0c-b952447b3d1b","ios":"levelo://app?vid=6c5486b1-e645-46c3-8e0c-b952447b3d1b"},"vehicle_type_id":"4","last_reported":1747398053,"current_range_meters":12800,"station_id":"ce4bhk92rcd13ifvqgb0","pricing_plan_id":"cebpf4jnsgd1na2vs0mg"},{"bike_id":"de7fe459-5970-444e-8e2e-be5a9bcca3c5","system_id":"levelo_inurba_marseille","lat":43.32359,"lon":5.40616,"is_reserved":false,"is_disabled":false,"rental_uris":{"android":"levelo://app?vid=de7fe459-5970-444e-8e2e-be5a9bcca3c5","ios":"levelo://app?vid=de7fe459-5970-444e-8e2e-be5a9bcca3c5"},"vehicle_type_id":"4","last_reported":1747398053,"current_range_meters":12800,"station_id":"ce4bhq92rcd13ifvqhjg","pricing_plan_id":"cebpf4jnsgd1na2vs0mg"},{"bike_id":"0c24d09f-ee1b-4d83-af33-562b6b2ca194","system_id":"levelo_inurba_marseille","lat":43.32364,"lon":5.38896,"is_reserved":false,"is_disabled":false,"rental_uris":{"android":"levelo://app?vid=0c24d09f-ee1b-4d83-af33-562b6b2ca194","ios":"levelo://app?vid=0c24d09f-ee1b-4d83-af33-562b6b2ca194"},"vehicle_type_id":"4","last_reported":1747398053,"current_range_meters":12800,"station_id":"ce4bhqp2rcd13ifvqhog","pricing_plan_id":"cebpf4jnsgd1na2vs0mg"},{"bike_id":"dd49632c-b677-48d9-a097-f9628100f80a","system_id":"levelo_inurba_marseille","lat":43.29593,"lon":5.36731,"is_reserved":false,"is_disabled":false,"rental_uris":{"android":"levelo://app?vid=dd49632c-b677-48d9-a097-f9628100f80a","ios":"levelo://app?vid=dd49632c-b677-48d9-a097-f9628100f80a"},"vehicle_type_id":"4","last_reported":1747398053,"current_range_meters":13600,"station_id":"ce4bgph2rcd13ifvqc2g","pricing_plan_id":"cebpf4jnsgd1na2vs0mg"},{"bike_id":"b080115a-20a5-4758-997e-e2eb03f97274","system_id":"levelo_inurba_marseille","lat":43.299827,"lon":5.37179,"is_reserved":false,"is_disabled":false,"rental_uris":{"android":"levelo://app?vid=b080115a-20a5-4758-997e-e2eb03f97274","ios":"levelo://app?vid=b080115a-20a5-4758-997e-e2eb03f97274"},"vehicle_type_id":"4","last_reported":1747398053,"current_range_meters":13600,"station_id":"ce4bgr92rcd13ifvqc7g","pricing_plan_id":"cebpf4jnsgd1na2vs0mg"},{"bike_id":"069e96e0-2383-4414-b4c2-13dc8b8ca856","system_id":"levelo_inurba_marseille","lat":43.28353,"lon":5.38112,"is_reserved":false,"is_disabled":false,"rental_uris":{"android":"levelo://app?vid=069e96e0-2383-4414-b4c2-13dc8b8ca856","ios":"levelo://app?vid=069e96e0-2383-4414-b4c2-13dc8b8ca856"},"vehicle_type_id":"4","last_reported":1747398053,"current_range_meters":13600,"station_id":"ce4bh412rcd13ifvqdr0","pricing_plan_id":"cebpf4jnsgd1na2vs0mg"},{"bike_id":"7f7e9803-61bd-4fef-a576-97482d90459f","system_id":"levelo_inurba_marseille","lat":43.2408,"lon":5.37759,"is_reserved":false,"is_disabled":false,"rental_uris":{"android":"levelo://app?vid=7f7e9803-61bd-4fef-a576-97482d90459f","ios":"levelo://app?vid=7f7e9803-61bd-4fef-a576-97482d90459f"},"vehicle_type_id":"4","last_reported":1747398053,"current_range_meters":14000,"station_id":"ce4bhnp2rcd13ifvqgvg","pricing_plan_id":"cebpf4jnsgd1na2vs0mg"},{"bike_id":"ee8325ee-a110-45ce-8d60-a02e6bed048e","system_id":"levelo_inurba_marseille","lat":43.23185,"lon":5.35569,"is_reserved":false,"is_disabled":false,"rental_uris":{"android":"levelo://app?vid=ee8325ee-a110-45ce-8d60-a02e6bed048e","ios":"levelo://app?vid=ee8325ee-a110-45ce-8d60-a02e6bed048e"},"vehicle_type_id":"4","last_reported":1747398053,"current_range_meters":14000,"station_id":"ce4bhu92rcd13ifvqi70","pricing_plan_id":"cebpf4jnsgd1na2vs0mg"},{"bike_id":"225d88a7-bbb1-45c7-845f-1fd1816815a2","system_id":"levelo_inurba_marseille","lat":43.34682,"lon":5.34531,"is_reserved":false,"is_disabled":false,"rental_uris":{"android":"levelo://app?vid=225d88a7-bbb1-45c7-845f-1fd1816815a2","ios":"levelo://app?vid=225d88a7-bbb1-45c7-845f-1fd1816815a2"},"vehicle_type_id":"4","last_reported":1747398053,"current_range_meters":14400,"station_id":"","pricing_plan_id":"cebpf4jnsgd1na2vs0mg"},{"bike_id":"432b7970-3cad-42d6-acc0-cb8d4a1ce4cf","system_id":"levelo_inurba_marseille","lat":43.30529,"lon":5.36531,"is_reserved":false,"is_disabled":false,"rental_uris":{"android":"levelo://app?vid=432b7970-3cad-42d6-acc0-cb8d4a1ce4cf","ios":"levelo://app?vid=432b7970-3cad-42d6-acc0-cb8d4a1ce4cf"},"vehicle_type_id":"4","last_reported":1747398053,"current_range_meters":14400,"station_id":"ce4bgs12rcd13ifvqcag","pricing_plan_id":"cebpf4jnsgd1na2vs0mg"},{"bike_id":"528eb393-807b-488a-a2f9-e9e2713226eb","system_id":"levelo_inurba_marseille","lat":43.30216,"lon":5.39467,"is_reserved":false,"is_disabled":false,"rental_uris":{"android":"levelo://app?vid=528eb393-807b-488a-a2f9-e9e2713226eb","ios":"levelo://app?vid=528eb393-807b-488a-a2f9-e9e2713226eb"},"vehicle_type_id":"4","last_reported":1747398053,"current_range_meters":14400,"station_id":"ce4bh0p2rcd13ifvqd70","pricing_plan_id":"cebpf4jnsgd1na2vs0mg"},{"bike_id":"e35f2ecf-76f0-4b1c-821a-b2eb85a9c457","system_id":"levelo_inurba_marseille","lat":43.282715,"lon":5.35058,"is_reserved":false,"is_disabled":false,"rental_uris":{"android":"levelo://app?vid=e35f2ecf-76f0-4b1c-821a-b2eb85a9c457","ios":"levelo://app?vid=e35f2ecf-76f0-4b1c-821a-b2eb85a9c457"},"vehicle_type_id":"4","last_reported":1747398053,"current_range_meters":14400,"station_id":"ce4bhbp2rcd13ifvqerg","pricing_plan_id":"cebpf4jnsgd1na2vs0mg"},{"bike_id":"80133267-4258-4270-a2b6-1625ba3990c9","system_id":"levelo_inurba_marseille","lat":43.26557,"lon":5.37284,"is_reserved":false,"is_disabled":false,"rental_uris":{"android":"levelo://app?vid=80133267-4258-4270-a2b6-1625ba3990c9","ios":"levelo://app?vid=80133267-4258-4270-a2b6-1625ba3990c9"},"vehicle_type_id":"4","last_reported":1747398053,"current_range_meters":14400,"station_id":"ce4bhg12rcd13ifvqf70","pricing_plan_id":"cebpf4jnsgd1na2vs0mg"},{"bike_id":"3873b14f-cf85-40c2-a5ee-b159102313b1","system_id":"levelo_inurba_marseille","lat":43.27489,"lon":5.4247,"is_reserved":false,"is_disabled":false,"rental_uris":{"android":"levelo://app?vid=3873b14f-cf85-40c2-a5ee-b159102313b1","ios":"levelo://app?vid=3873b14f-cf85-40c2-a5ee-b159102313b1"},"vehicle_type_id":"4","last_reported":1747398053,"current_range_meters":14400,"station_id":"ce4bhn92rcd13ifvqgrg","pricing_plan_id":"cebpf4jnsgd1na2vs0mg"},{"bike_id":"03cfe20e-1363-4dd2-9070-e902501d1c7f","system_id":"levelo_inurba_marseille","lat":43.279889,"lon":5.416611,"is_reserved":false,"is_disabled":false,"rental_uris":{"android":"levelo://app?vid=03cfe20e-1363-4dd2-9070-e902501d1c7f","ios":"levelo://app?vid=03cfe20e-1363-4dd2-9070-e902501d1c7f"},"vehicle_type_id":"4","last_reported":1747398053,"current_range_meters":14400,"station_id":"ce4bho12rcd13ifvqh1g","pricing_plan_id":"cebpf4jnsgd1na2vs0mg"},{"bike_id":"383defe2-1162-4a09-a653-cb5ef43c58c6","system_id":"levelo_inurba_marseille","lat":43.32539,"lon":5.41428,"is_reserved":false,"is_disabled":false,"rental_uris":{"android":"levelo://app?vid=383defe2-1162-4a09-a653-cb5ef43c58c6","ios":"levelo://app?vid=383defe2-1162-4a09-a653-cb5ef43c58c6"},"vehicle_type_id":"4","last_reported":1747398053,"current_range_meters":14400,"station_id":"ce4bhq12rcd13ifvqhhg","pricing_plan_id":"cebpf4jnsgd1na2vs0mg"},{"bike_id":"4c50a1f4-9b8f-4402-81a6-4b92fac2f424","system_id":"levelo_inurba_marseille","lat":43.323517,"lon":5.367488,"is_reserved":false,"is_disabled":false,"rental_uris":{"android":"levelo://app?vid=4c50a1f4-9b8f-4402-81a6-4b92fac2f424","ios":"levelo://app?vid=4c50a1f4-9b8f-4402-81a6-4b92fac2f424"},"vehicle_type_id":"4","last_reported":1747398053,"current_range_meters":14400,"station_id":"ce4bhsh2rcd13ifvqi2g","pricing_plan_id":"cebpf4jnsgd1na2vs0mg"},{"bike_id":"6d812bb8-7c84-4b9d-aa7e-2e32f2e0ab84","system_id":"levelo_inurba_marseille","lat":43.23931,"lon":5.37574,"is_reserved":false,"is_disabled":false,"rental_uris":{"android":"levelo://app?vid=6d812bb8-7c84-4b9d-aa7e-2e32f2e0ab84","ios":"levelo://app?vid=6d812bb8-7c84-4b9d-aa7e-2e32f2e0ab84"},"vehicle_type_id":"4","last_reported":1747398053,"current_range_meters":14800,"station_id":"","pricing_plan_id":"cebpf4jnsgd1na2vs0mg"},{"bike_id":"fb691759-c1d0-4bca-b625-bfe47a6ceed7","system_id":"levelo_inurba_marseille","lat":43.29324,"lon":5.38255,"is_reserved":false,"is_disabled":false,"rental_uris":{"android":"levelo://app?vid=fb691759-c1d0-4bca-b625-bfe47a6ceed7","ios":"levelo://app?vid=fb691759-c1d0-4bca-b625-bfe47a6ceed7"},"vehicle_type_id":"4","last_reported":1747398053,"current_range_meters":14800,"station_id":"","pricing_plan_id":"cebpf4jnsgd1na2vs0mg"},{"bike_id":"43e3b360-739b-4083-ba8a-27d8d67fa7ba","system_id":"levelo_inurba_marseille","lat":43.27646,"lon":5.38923,"is_reserved":false,"is_disabled":false,"rental_uris":{"android":"levelo://app?vid=43e3b360-739b-4083-ba8a-27d8d67fa7ba","ios":"levelo://app?vid=43e3b360-739b-4083-ba8a-27d8d67fa7ba"},"vehicle_type_id":"4","last_reported":1747398053,"current_range_meters":14800,"station_id":"ce4bhi12rcd13ifvqfo0","pricing_plan_id":"cebpf4jnsgd1na2vs0mg"},{"bike_id":"1d954d50-4c7f-4f59-90a2-437733dfc2bd","system_id":"levelo_inurba_marseille","lat":43.24074,"lon":5.37761,"is_reserved":false,"is_disabled":false,"rental_uris":{"android":"levelo://app?vid=1d954d50-4c7f-4f59-90a2-437733dfc2bd","ios":"levelo://app?vid=1d954d50-4c7f-4f59-90a2-437733dfc2bd"},"vehicle_type_id":"4","last_reported":1747398053,"current_range_meters":14800,"station_id":"ce4bhnp2rcd13ifvqgvg","pricing_plan_id":"cebpf4jnsgd1na2vs0mg"},{"bike_id":"4b32aedd-079e-4cc7-8573-0566f0a6c8e0","system_id":"levelo_inurba_marseille","lat":43.30911,"lon":5.36845,"is_reserved":false,"is_disabled":false,"rental_uris":{"android":"levelo://app?vid=4b32aedd-079e-4cc7-8573-0566f0a6c8e0","ios":"levelo://app?vid=4b32aedd-079e-4cc7-8573-0566f0a6c8e0"},"vehicle_type_id":"4","last_reported":1747398053,"current_range_meters":15200,"station_id":"ce4bgn92rcd13ifvqbvg","pricing_plan_id":"cebpf4jnsgd1na2vs0mg"},{"bike_id":"d3222f03-2d29-4456-a496-c74bbf8b7e45","system_id":"levelo_inurba_marseille","lat":43.29583,"lon":5.36743,"is_reserved":false,"is_disabled":false,"rental_uris":{"android":"levelo://app?vid=d3222f03-2d29-4456-a496-c74bbf8b7e45","ios":"levelo://app?vid=d3222f03-2d29-4456-a496-c74bbf8b7e45"},"vehicle_type_id":"4","last_reported":1747398053,"current_range_meters":15200,"station_id":"ce4bgph2rcd13ifvqc2g","pricing_plan_id":"cebpf4jnsgd1na2vs0mg"},{"bike_id":"94de30b8-efe3-4873-8757-4db7417c4629","system_id":"levelo_inurba_marseille","lat":43.2872,"lon":5.37932,"is_reserved":false,"is_disabled":false,"rental_uris":{"android":"levelo://app?vid=94de30b8-efe3-4873-8757-4db7417c4629","ios":"levelo://app?vid=94de30b8-efe3-4873-8757-4db7417c4629"},"vehicle_type_id":"4","last_reported":1747398053,"current_range_meters":15200,"station_id":"ce4bh9p2rcd13ifvqec0","pricing_plan_id":"cebpf4jnsgd1na2vs0mg"},{"bike_id":"0ff98210-832e-48af-9350-fcf7c47bab2e","system_id":"levelo_inurba_marseille","lat":43.26807,"lon":5.4027,"is_reserved":false,"is_disabled":false,"rental_uris":{"android":"levelo://app?vid=0ff98210-832e-48af-9350-fcf7c47bab2e","ios":"levelo://app?vid=0ff98210-832e-48af-9350-fcf7c47bab2e"},"vehicle_type_id":"4","last_reported":1747398053,"current_range_meters":15200,"station_id":"ce501612rcd8frsf0b60","pricing_plan_id":"cebpf4jnsgd1na2vs0mg"},{"bike_id":"dbca29b0-d694-450b-9e11-27160b4e1055","system_id":"levelo_inurba_marseille","lat":43.29508,"lon":5.39398,"is_reserved":false,"is_disabled":false,"rental_uris":{"android":"levelo://app?vid=dbca29b0-d694-450b-9e11-27160b4e1055","ios":"levelo://app?vid=dbca29b0-d694-450b-9e11-27160b4e1055"},"vehicle_type_id":"4","last_reported":1747398053,"current_range_meters":16000,"station_id":"ce4bh292rcd13ifvqdf0","pricing_plan_id":"cebpf4jnsgd1na2vs0mg"},{"bike_id":"3b7e1cfe-4920-4ce2-8502-e5b1586f8bcd","system_id":"levelo_inurba_marseille","lat":43.24679,"lon":5.38147,"is_reserved":false,"is_disabled":false,"rental_uris":{"android":"levelo://app?vid=3b7e1cfe-4920-4ce2-8502-e5b1586f8bcd","ios":"levelo://app?vid=3b7e1cfe-4920-4ce2-8502-e5b1586f8bcd"},"vehicle_type_id":"4","last_reported":1747398053,"current_range_meters":16000,"station_id":"ce4bhih2rcd13ifvqfr0","pricing_plan_id":"cebpf4jnsgd1na2vs0mg"},{"bike_id":"16748ab3-36ff-4772-bfcc-45d7b9aee659","system_id":"levelo_inurba_marseille","lat":43.27056,"lon":5.40259,"is_reserved":false,"is_disabled":false,"rental_uris":{"android":"levelo://app?vid=16748ab3-36ff-4772-bfcc-45d7b9aee659","ios":"levelo://app?vid=16748ab3-36ff-4772-bfcc-45d7b9aee659"},"vehicle_type_id":"4","last_reported":1747398053,"current_range_meters":16000,"station_id":"ce4bhk92rcd13ifvqgc0","pricing_plan_id":"cebpf4jnsgd1na2vs0mg"},{"bike_id":"36d0b2c9-0697-4770-9db1-46cc4560b12f","system_id":"levelo_inurba_marseille","lat":43.32664,"lon":5.40983,"is_reserved":false,"is_disabled":false,"rental_uris":{"android":"levelo://app?vid=36d0b2c9-0697-4770-9db1-46cc4560b12f","ios":"levelo://app?vid=36d0b2c9-0697-4770-9db1-46cc4560b12f"},"vehicle_type_id":"4","last_reported":1747398053,"current_range_meters":16000,"station_id":"ce4bhpp2rcd13ifvqhgg","pricing_plan_id":"cebpf4jnsgd1na2vs0mg"},{"bike_id":"2694b19e-baa1-4a5b-b0fb-aac7e3ad803a","system_id":"levelo_inurba_marseille","lat":43.30646,"lon":5.40092,"is_reserved":false,"is_disabled":false,"rental_uris":{"android":"levelo://app?vid=2694b19e-baa1-4a5b-b0fb-aac7e3ad803a","ios":"levelo://app?vid=2694b19e-baa1-4a5b-b0fb-aac7e3ad803a"},"vehicle_type_id":"4","last_reported":1747398053,"current_range_meters":16400,"station_id":"ce4bh112rcd13ifvqda0","pricing_plan_id":"cebpf4jnsgd1na2vs0mg"},{"bike_id":"ab53d224-19f9-4896-bafc-fa330bf2d50c","system_id":"levelo_inurba_marseille","lat":43.2928,"lon":5.3684,"is_reserved":false,"is_disabled":false,"rental_uris":{"android":"levelo://app?vid=ab53d224-19f9-4896-bafc-fa330bf2d50c","ios":"levelo://app?vid=ab53d224-19f9-4896-bafc-fa330bf2d50c"},"vehicle_type_id":"4","last_reported":1747398053,"current_range_meters":16400,"station_id":"ce4bhbp2rcd13ifvqesg","pricing_plan_id":"cebpf4jnsgd1na2vs0mg"},{"bike_id":"ee4c6146-c43c-4bf4-a378-58256109b92e","system_id":"levelo_inurba_marseille","lat":43.26567,"lon":5.3901,"is_reserved":false,"is_disabled":false,"rental_uris":{"android":"levelo://app?vid=ee4c6146-c43c-4bf4-a378-58256109b92e","ios":"levelo://app?vid=ee4c6146-c43c-4bf4-a378-58256109b92e"},"vehicle_type_id":"4","last_reported":1747398053,"current_range_meters":16400,"station_id":"ce4bhe12rcd13ifvqf30","pricing_plan_id":"cebpf4jnsgd1na2vs0mg"},{"bike_id":"02b8352e-8b5e-452e-bb68-30db6a01301b","system_id":"levelo_inurba_marseille","lat":43.26566,"lon":5.39006,"is_reserved":false,"is_disabled":false,"rental_uris":{"android":"levelo://app?vid=02b8352e-8b5e-452e-bb68-30db6a01301b","ios":"levelo://app?vid=02b8352e-8b5e-452e-bb68-30db6a01301b"},"vehicle_type_id":"4","last_reported":1747398053,"current_range_meters":16400,"station_id":"ce4bhe12rcd13ifvqf30","pricing_plan_id":"cebpf4jnsgd1na2vs0mg"},{"bike_id":"d9cf0daf-2b8c-44c0-ad88-67a126aa883b","system_id":"levelo_inurba_marseille","lat":43.25942,"lon":5.40896,"is_reserved":false,"is_disabled":false,"rental_uris":{"android":"levelo://app?vid=d9cf0daf-2b8c-44c0-ad88-67a126aa883b","ios":"levelo://app?vid=d9cf0daf-2b8c-44c0-ad88-67a126aa883b"},"vehicle_type_id":"4","last_reported":1747398053,"current_range_meters":16400,"station_id":"ce4bhm92rcd13ifvqglg","pricing_plan_id":"cebpf4jnsgd1na2vs0mg"},{"bike_id":"1e39982a-d8f8-4e22-95e1-bfc2ea05c5a9","system_id":"levelo_inurba_marseille","lat":43.30911,"lon":5.36839,"is_reserved":false,"is_disabled":false,"rental_uris":{"android":"levelo://app?vid=1e39982a-d8f8-4e22-95e1-bfc2ea05c5a9","ios":"levelo://app?vid=1e39982a-d8f8-4e22-95e1-bfc2ea05c5a9"},"vehicle_type_id":"4","last_reported":1747398053,"current_range_meters":16800,"station_id":"ce4bgn92rcd13ifvqbvg","pricing_plan_id":"cebpf4jnsgd1na2vs0mg"},{"bike_id":"964c4b32-f74c-4417-92d9-ed9d0b619643","system_id":"levelo_inurba_marseille","lat":43.29271,"lon":5.38437,"is_reserved":false,"is_disabled":false,"rental_uris":{"android":"levelo://app?vid=964c4b32-f74c-4417-92d9-ed9d0b619643","ios":"levelo://app?vid=964c4b32-f74c-4417-92d9-ed9d0b619643"},"vehicle_type_id":"4","last_reported":1747398053,"current_range_meters":16800,"station_id":"ce4bh692rcd13ifvqea0","pricing_plan_id":"cebpf4jnsgd1na2vs0mg"},{"bike_id":"f50cdaca-24b9-4bbe-8adf-adbed3ad5c0c","system_id":"levelo_inurba_marseille","lat":43.26194,"lon":5.37446,"is_reserved":false,"is_disabled":false,"rental_uris":{"android":"levelo://app?vid=f50cdaca-24b9-4bbe-8adf-adbed3ad5c0c","ios":"levelo://app?vid=f50cdaca-24b9-4bbe-8adf-adbed3ad5c0c"},"vehicle_type_id":"4","last_reported":1747398053,"current_range_meters":16800,"station_id":"ce4bhgp2rcd13ifvqfc0","pricing_plan_id":"cebpf4jnsgd1na2vs0mg"},{"bike_id":"260d3314-3a40-4487-855a-3937b07e8e8f","system_id":"levelo_inurba_marseille","lat":43.25722,"lon":5.41087,"is_reserved":false,"is_disabled":false,"rental_uris":{"android":"levelo://app?vid=260d3314-3a40-4487-855a-3937b07e8e8f","ios":"levelo://app?vid=260d3314-3a40-4487-855a-3937b07e8e8f"},"vehicle_type_id":"4","last_reported":1747398053,"current_range_meters":16800,"station_id":"ce4bhkp2rcd13ifvqgd0","pricing_plan_id":"cebpf4jnsgd1na2vs0mg"},{"bike_id":"852ea9ac-6507-488a-87c5-b27d54b34b2e","system_id":"levelo_inurba_marseille","lat":43.281603,"lon":5.426277,"is_reserved":false,"is_disabled":false,"rental_uris":{"android":"levelo://app?vid=852ea9ac-6507-488a-87c5-b27d54b34b2e","ios":"levelo://app?vid=852ea9ac-6507-488a-87c5-b27d54b34b2e"},"vehicle_type_id":"4","last_reported":1747398053,"current_range_meters":16800,"station_id":"ce4bhnh2rcd13ifvqgug","pricing_plan_id":"cebpf4jnsgd1na2vs0mg"},{"bike_id":"98106b70-6f8a-476d-962a-f2bed2e52f0a","system_id":"levelo_inurba_marseille","lat":43.321091,"lon":5.367725,"is_reserved":false,"is_disabled":false,"rental_uris":{"android":"levelo://app?vid=98106b70-6f8a-476d-962a-f2bed2e52f0a","ios":"levelo://app?vid=98106b70-6f8a-476d-962a-f2bed2e52f0a"},"vehicle_type_id":"4","last_reported":1747398053,"current_range_meters":16800,"station_id":"ce4bhrh2rcd13ifvqhug","pricing_plan_id":"cebpf4jnsgd1na2vs0mg"},{"bike_id":"b23a7761-2337-406b-b8e6-8e6d94a8d7c1","system_id":"levelo_inurba_marseille","lat":43.32341,"lon":5.36739,"is_reserved":false,"is_disabled":false,"rental_uris":{"android":"levelo://app?vid=b23a7761-2337-406b-b8e6-8e6d94a8d7c1","ios":"levelo://app?vid=b23a7761-2337-406b-b8e6-8e6d94a8d7c1"},"vehicle_type_id":"4","last_reported":1747398053,"current_range_meters":16800,"station_id":"ce4bhsh2rcd13ifvqi2g","pricing_plan_id":"cebpf4jnsgd1na2vs0mg"},{"bike_id":"615c09e9-0110-45e9-b1da-85a41366d561","system_id":"levelo_inurba_marseille","lat":43.28724,"lon":5.36081,"is_reserved":false,"is_disabled":false,"rental_uris":{"android":"levelo://app?vid=615c09e9-0110-45e9-b1da-85a41366d561","ios":"levelo://app?vid=615c09e9-0110-45e9-b1da-85a41366d561"},"vehicle_type_id":"4","last_reported":1747398053,"current_range_meters":16800,"station_id":"cki0cbj6b192h4jlfktg","pricing_plan_id":"cebpf4jnsgd1na2vs0mg"},{"bike_id":"2a9d0bc3-deae-4a39-b85c-52d709abed2e","system_id":"levelo_inurba_marseille","lat":43.30709,"lon":5.38079,"is_reserved":false,"is_disabled":false,"rental_uris":{"android":"levelo://app?vid=2a9d0bc3-deae-4a39-b85c-52d709abed2e","ios":"levelo://app?vid=2a9d0bc3-deae-4a39-b85c-52d709abed2e"},"vehicle_type_id":"4","last_reported":1747398053,"current_range_meters":17200,"station_id":"","pricing_plan_id":"cebpf4jnsgd1na2vs0mg"},{"bike_id":"888c9ccc-2dc2-4804-9bdd-ec20df137d2f","system_id":"levelo_inurba_marseille","lat":43.30136,"lon":5.38798,"is_reserved":false,"is_disabled":false,"rental_uris":{"android":"levelo://app?vid=888c9ccc-2dc2-4804-9bdd-ec20df137d2f","ios":"levelo://app?vid=888c9ccc-2dc2-4804-9bdd-ec20df137d2f"},"vehicle_type_id":"4","last_reported":1747398053,"current_range_meters":17200,"station_id":"ce4bghh2rcd13ifvqb60","pricing_plan_id":"cebpf4jnsgd1na2vs0mg"},{"bike_id":"99285097-6b23-446c-85ed-e4e2b8b1e29e","system_id":"levelo_inurba_marseille","lat":43.30231,"lon":5.3947,"is_reserved":false,"is_disabled":false,"rental_uris":{"android":"levelo://app?vid=99285097-6b23-446c-85ed-e4e2b8b1e29e","ios":"levelo://app?vid=99285097-6b23-446c-85ed-e4e2b8b1e29e"},"vehicle_type_id":"4","last_reported":1747398053,"current_range_meters":17200,"station_id":"ce4bh0p2rcd13ifvqd70","pricing_plan_id":"cebpf4jnsgd1na2vs0mg"},{"bike_id":"32a5b034-b859-449d-9633-9377302d91cc","system_id":"levelo_inurba_marseille","lat":43.27983,"lon":5.38745,"is_reserved":false,"is_disabled":false,"rental_uris":{"android":"levelo://app?vid=32a5b034-b859-449d-9633-9377302d91cc","ios":"levelo://app?vid=32a5b034-b859-449d-9633-9377302d91cc"},"vehicle_type_id":"4","last_reported":1747398053,"current_range_meters":17200,"station_id":"ce4bhg12rcd13ifvqf80","pricing_plan_id":"cebpf4jnsgd1na2vs0mg"},{"bike_id":"6fcf2d81-5816-4402-a676-c3c50b7e80f4","system_id":"levelo_inurba_marseille","lat":43.27498,"lon":5.42446,"is_reserved":false,"is_disabled":false,"rental_uris":{"android":"levelo://app?vid=6fcf2d81-5816-4402-a676-c3c50b7e80f4","ios":"levelo://app?vid=6fcf2d81-5816-4402-a676-c3c50b7e80f4"},"vehicle_type_id":"4","last_reported":1747398053,"current_range_meters":17200,"station_id":"ce4bhn92rcd13ifvqgrg","pricing_plan_id":"cebpf4jnsgd1na2vs0mg"},{"bike_id":"b8d196ef-17cd-4927-89e6-afad937b26f7","system_id":"levelo_inurba_marseille","lat":43.30552,"lon":5.38424,"is_reserved":false,"is_disabled":false,"rental_uris":{"android":"levelo://app?vid=b8d196ef-17cd-4927-89e6-afad937b26f7","ios":"levelo://app?vid=b8d196ef-17cd-4927-89e6-afad937b26f7"},"vehicle_type_id":"4","last_reported":1747398053,"current_range_meters":17600,"station_id":"ce4bgg92rcd13ifvqb30","pricing_plan_id":"cebpf4jnsgd1na2vs0mg"},{"bike_id":"d7e6837e-d60a-4ae3-ad0e-36fd362846d6","system_id":"levelo_inurba_marseille","lat":43.289154,"lon":5.384086,"is_reserved":false,"is_disabled":false,"rental_uris":{"android":"levelo://app?vid=d7e6837e-d60a-4ae3-ad0e-36fd362846d6","ios":"levelo://app?vid=d7e6837e-d60a-4ae3-ad0e-36fd362846d6"},"vehicle_type_id":"4","last_reported":1747398053,"current_range_meters":17600,"station_id":"ce4bh612rcd13ifvqe6g","pricing_plan_id":"cebpf4jnsgd1na2vs0mg"},{"bike_id":"3fa1ba47-5961-47f9-ab92-659d3c2910c0","system_id":"levelo_inurba_marseille","lat":43.29039,"lon":5.37576,"is_reserved":false,"is_disabled":false,"rental_uris":{"android":"levelo://app?vid=3fa1ba47-5961-47f9-ab92-659d3c2910c0","ios":"levelo://app?vid=3fa1ba47-5961-47f9-ab92-659d3c2910c0"},"vehicle_type_id":"4","last_reported":1747398053,"current_range_meters":17600,"station_id":"ce4bh692rcd13ifvqe90","pricing_plan_id":"cebpf4jnsgd1na2vs0mg"},{"bike_id":"65bcea5f-ebfc-4e7a-a0eb-c3d0df326562","system_id":"levelo_inurba_marseille","lat":43.2804,"lon":5.36951,"is_reserved":false,"is_disabled":false,"rental_uris":{"android":"levelo://app?vid=65bcea5f-ebfc-4e7a-a0eb-c3d0df326562","ios":"levelo://app?vid=65bcea5f-ebfc-4e7a-a0eb-c3d0df326562"},"vehicle_type_id":"4","last_reported":1747398053,"current_range_meters":17600,"station_id":"ce4bha12rcd13ifvqef0","pricing_plan_id":"cebpf4jnsgd1na2vs0mg"},{"bike_id":"6dacfca9-9835-43d4-bf03-fdcc34007a9c","system_id":"levelo_inurba_marseille","lat":43.293304,"lon":5.371366,"is_reserved":false,"is_disabled":false,"rental_uris":{"android":"levelo://app?vid=6dacfca9-9835-43d4-bf03-fdcc34007a9c","ios":"levelo://app?vid=6dacfca9-9835-43d4-bf03-fdcc34007a9c"},"vehicle_type_id":"4","last_reported":1747398053,"current_range_meters":17600,"station_id":"ce4bhbp2rcd13ifvqesg","pricing_plan_id":"cebpf4jnsgd1na2vs0mg"},{"bike_id":"9c0e8b51-2d17-47ed-9a15-29fdb46f8dc5","system_id":"levelo_inurba_marseille","lat":43.25812,"lon":5.39438,"is_reserved":false,"is_disabled":false,"rental_uris":{"android":"levelo://app?vid=9c0e8b51-2d17-47ed-9a15-29fdb46f8dc5","ios":"levelo://app?vid=9c0e8b51-2d17-47ed-9a15-29fdb46f8dc5"},"vehicle_type_id":"4","last_reported":1747398053,"current_range_meters":17600,"station_id":"ce4bhip2rcd13ifvqft0","pricing_plan_id":"cebpf4jnsgd1na2vs0mg"},{"bike_id":"d704b8ed-9dcd-41fc-823f-8ed6033487e8","system_id":"levelo_inurba_marseille","lat":43.25072,"lon":5.39513,"is_reserved":false,"is_disabled":false,"rental_uris":{"android":"levelo://app?vid=d704b8ed-9dcd-41fc-823f-8ed6033487e8","ios":"levelo://app?vid=d704b8ed-9dcd-41fc-823f-8ed6033487e8"},"vehicle_type_id":"4","last_reported":1747398053,"current_range_meters":17600,"station_id":"ce4bhm12rcd13ifvqgkg","pricing_plan_id":"cebpf4jnsgd1na2vs0mg"},{"bike_id":"81ce395a-ca1c-43fa-b284-1ab7159452ff","system_id":"levelo_inurba_marseille","lat":43.25973,"lon":5.40928,"is_reserved":false,"is_disabled":false,"rental_uris":{"android":"levelo://app?vid=81ce395a-ca1c-43fa-b284-1ab7159452ff","ios":"levelo://app?vid=81ce395a-ca1c-43fa-b284-1ab7159452ff"},"vehicle_type_id":"4","last_reported":1747398053,"current_range_meters":17600,"station_id":"ce4bhm92rcd13ifvqglg","pricing_plan_id":"cebpf4jnsgd1na2vs0mg"},{"bike_id":"00bd8384-8370-4e80-b50d-7aa7e5db6e53","system_id":"levelo_inurba_marseille","lat":43.31987,"lon":5.38124,"is_reserved":false,"is_disabled":false,"rental_uris":{"android":"levelo://app?vid=00bd8384-8370-4e80-b50d-7aa7e5db6e53","ios":"levelo://app?vid=00bd8384-8370-4e80-b50d-7aa7e5db6e53"},"vehicle_type_id":"4","last_reported":1747398053,"current_range_meters":17600,"station_id":"ce4bhr12rcd13ifvqhpg","pricing_plan_id":"cebpf4jnsgd1na2vs0mg"},{"bike_id":"11a0dbe9-b507-4ec9-a34a-33d272456b72","system_id":"levelo_inurba_marseille","lat":43.32115,"lon":5.36774,"is_reserved":false,"is_disabled":false,"rental_uris":{"android":"levelo://app?vid=11a0dbe9-b507-4ec9-a34a-33d272456b72","ios":"levelo://app?vid=11a0dbe9-b507-4ec9-a34a-33d272456b72"},"vehicle_type_id":"4","last_reported":1747398053,"current_range_meters":17600,"station_id":"ce4bhrh2rcd13ifvqhug","pricing_plan_id":"cebpf4jnsgd1na2vs0mg"},{"bike_id":"0b4dab94-79cc-49be-8085-fb2124a86407","system_id":"levelo_inurba_marseille","lat":43.32108,"lon":5.3678,"is_reserved":false,"is_disabled":false,"rental_uris":{"android":"levelo://app?vid=0b4dab94-79cc-49be-8085-fb2124a86407","ios":"levelo://app?vid=0b4dab94-79cc-49be-8085-fb2124a86407"},"vehicle_type_id":"4","last_reported":1747398053,"current_range_meters":17600,"station_id":"ce4bhrh2rcd13ifvqhug","pricing_plan_id":"cebpf4jnsgd1na2vs0mg"},{"bike_id":"d4a68f67-accc-4132-becd-c45a42937a18","system_id":"levelo_inurba_marseille","lat":43.29257,"lon":5.37616,"is_reserved":false,"is_disabled":false,"rental_uris":{"android":"levelo://app?vid=d4a68f67-accc-4132-becd-c45a42937a18","ios":"levelo://app?vid=d4a68f67-accc-4132-becd-c45a42937a18"},"vehicle_type_id":"4","last_reported":1747398053,"current_range_meters":18000,"station_id":"ce4bgi12rcd13ifvqb80","pricing_plan_id":"cebpf4jnsgd1na2vs0mg"},{"bike_id":"e2f7ad89-2fc1-491d-aa6a-065895e17358","system_id":"levelo_inurba_marseille","lat":43.2979,"lon":5.38086,"is_reserved":false,"is_disabled":false,"rental_uris":{"android":"levelo://app?vid=e2f7ad89-2fc1-491d-aa6a-065895e17358","ios":"levelo://app?vid=e2f7ad89-2fc1-491d-aa6a-065895e17358"},"vehicle_type_id":"4","last_reported":1747398053,"current_range_meters":18000,"station_id":"ce4bgip2rcd13ifvqbb0","pricing_plan_id":"cebpf4jnsgd1na2vs0mg"},{"bike_id":"b2aa0cab-6ca0-42a0-bc7b-2a5519f68e79","system_id":"levelo_inurba_marseille","lat":43.29911,"lon":5.38124,"is_reserved":false,"is_disabled":false,"rental_uris":{"android":"levelo://app?vid=b2aa0cab-6ca0-42a0-bc7b-2a5519f68e79","ios":"levelo://app?vid=b2aa0cab-6ca0-42a0-bc7b-2a5519f68e79"},"vehicle_type_id":"4","last_reported":1747398053,"current_range_meters":18000,"station_id":"ce4bgj12rcd13ifvqbc0","pricing_plan_id":"cebpf4jnsgd1na2vs0mg"},{"bike_id":"478cfc0e-09bd-435d-874f-f51efbcdd16c","system_id":"levelo_inurba_marseille","lat":43.28356,"lon":5.38099,"is_reserved":false,"is_disabled":false,"rental_uris":{"android":"levelo://app?vid=478cfc0e-09bd-435d-874f-f51efbcdd16c","ios":"levelo://app?vid=478cfc0e-09bd-435d-874f-f51efbcdd16c"},"vehicle_type_id":"4","last_reported":1747398053,"current_range_meters":18000,"station_id":"ce4bh412rcd13ifvqdr0","pricing_plan_id":"cebpf4jnsgd1na2vs0mg"},{"bike_id":"da6fca82-939b-43aa-8b12-8fa2ad69728a","system_id":"levelo_inurba_marseille","lat":43.26063,"lon":5.39398,"is_reserved":false,"is_disabled":false,"rental_uris":{"android":"levelo://app?vid=da6fca82-939b-43aa-8b12-8fa2ad69728a","ios":"levelo://app?vid=da6fca82-939b-43aa-8b12-8fa2ad69728a"},"vehicle_type_id":"4","last_reported":1747398053,"current_range_meters":18000,"station_id":"ce4bhh92rcd13ifvqfj0","pricing_plan_id":"cebpf4jnsgd1na2vs0mg"},{"bike_id":"82a83180-244a-4258-bcfa-b2a57e328752","system_id":"levelo_inurba_marseille","lat":43.269367,"lon":5.402571,"is_reserved":false,"is_disabled":false,"rental_uris":{"android":"levelo://app?vid=82a83180-244a-4258-bcfa-b2a57e328752","ios":"levelo://app?vid=82a83180-244a-4258-bcfa-b2a57e328752"},"vehicle_type_id":"4","last_reported":1747398053,"current_range_meters":18000,"station_id":"cjm6bp8fraef2m0cb0m0","pricing_plan_id":"cebpf4jnsgd1na2vs0mg"},{"bike_id":"45f71629-e57e-4650-a835-f5868dcfd9d1","system_id":"levelo_inurba_marseille","lat":43.30323,"lon":5.36433,"is_reserved":false,"is_disabled":false,"rental_uris":{"android":"levelo://app?vid=45f71629-e57e-4650-a835-f5868dcfd9d1","ios":"levelo://app?vid=45f71629-e57e-4650-a835-f5868dcfd9d1"},"vehicle_type_id":"4","last_reported":1747398053,"current_range_meters":18800,"station_id":"","pricing_plan_id":"cebpf4jnsgd1na2vs0mg"},{"bike_id":"a91d7006-a40e-40fd-934b-d5bb7372941b","system_id":"levelo_inurba_marseille","lat":43.29705,"lon":5.37278,"is_reserved":false,"is_disabled":false,"rental_uris":{"android":"levelo://app?vid=a91d7006-a40e-40fd-934b-d5bb7372941b","ios":"levelo://app?vid=a91d7006-a40e-40fd-934b-d5bb7372941b"},"vehicle_type_id":"4","last_reported":1747398053,"current_range_meters":18800,"station_id":"ce4bgk12rcd13ifvqbj0","pricing_plan_id":"cebpf4jnsgd1na2vs0mg"},{"bike_id":"547d7524-1537-4866-b1a9-d0503a01eb44","system_id":"levelo_inurba_marseille","lat":43.29841,"lon":5.36271,"is_reserved":false,"is_disabled":false,"rental_uris":{"android":"levelo://app?vid=547d7524-1537-4866-b1a9-d0503a01eb44","ios":"levelo://app?vid=547d7524-1537-4866-b1a9-d0503a01eb44"},"vehicle_type_id":"4","last_reported":1747398053,"current_range_meters":18800,"station_id":"ce4bgpp2rcd13ifvqc3g","pricing_plan_id":"cebpf4jnsgd1na2vs0mg"},{"bike_id":"a5f9a89b-e8a5-49df-ac96-a30dd4bb49ed","system_id":"levelo_inurba_marseille","lat":43.30901,"lon":5.371857,"is_reserved":false,"is_disabled":false,"rental_uris":{"android":"levelo://app?vid=a5f9a89b-e8a5-49df-ac96-a30dd4bb49ed","ios":"levelo://app?vid=a5f9a89b-e8a5-49df-ac96-a30dd4bb49ed"},"vehicle_type_id":"4","last_reported":1747398053,"current_range_meters":18800,"station_id":"ce4bguh2rcd13ifvqckg","pricing_plan_id":"cebpf4jnsgd1na2vs0mg"},{"bike_id":"2b0951c6-bd18-486e-98a8-f88ba02dfa40","system_id":"levelo_inurba_marseille","lat":43.30583,"lon":5.39352,"is_reserved":false,"is_disabled":false,"rental_uris":{"android":"levelo://app?vid=2b0951c6-bd18-486e-98a8-f88ba02dfa40","ios":"levelo://app?vid=2b0951c6-bd18-486e-98a8-f88ba02dfa40"},"vehicle_type_id":"4","last_reported":1747398053,"current_range_meters":18800,"station_id":"ce4bh0p2rcd13ifvqd80","pricing_plan_id":"cebpf4jnsgd1na2vs0mg"},{"bike_id":"b4d380d2-c5c8-42cb-b66f-7bf96b442f93","system_id":"levelo_inurba_marseille","lat":43.28931,"lon":5.384085,"is_reserved":false,"is_disabled":false,"rental_uris":{"android":"levelo://app?vid=b4d380d2-c5c8-42cb-b66f-7bf96b442f93","ios":"levelo://app?vid=b4d380d2-c5c8-42cb-b66f-7bf96b442f93"},"vehicle_type_id":"4","last_reported":1747398053,"current_range_meters":18800,"station_id":"ce4bh612rcd13ifvqe6g","pricing_plan_id":"cebpf4jnsgd1na2vs0mg"},{"bike_id":"4b7c1290-0f01-4bfc-9f39-f2bf535894fc","system_id":"levelo_inurba_marseille","lat":43.28914,"lon":5.36385,"is_reserved":false,"is_disabled":false,"rental_uris":{"android":"levelo://app?vid=4b7c1290-0f01-4bfc-9f39-f2bf535894fc","ios":"levelo://app?vid=4b7c1290-0f01-4bfc-9f39-f2bf535894fc"},"vehicle_type_id":"4","last_reported":1747398053,"current_range_meters":18800,"station_id":"ce4bhc92rcd13ifvqetg","pricing_plan_id":"cebpf4jnsgd1na2vs0mg"},{"bike_id":"b312d0a5-67f2-47ee-928e-5b8a8cdd5d8d","system_id":"levelo_inurba_marseille","lat":43.30542,"lon":5.36506,"is_reserved":false,"is_disabled":false,"rental_uris":{"android":"levelo://app?vid=b312d0a5-67f2-47ee-928e-5b8a8cdd5d8d","ios":"levelo://app?vid=b312d0a5-67f2-47ee-928e-5b8a8cdd5d8d"},"vehicle_type_id":"4","last_reported":1747398053,"current_range_meters":19200,"station_id":"","pricing_plan_id":"cebpf4jnsgd1na2vs0mg"},{"bike_id":"eefd55c6-b681-4f87-88ef-0a097e642015","system_id":"levelo_inurba_marseille","lat":43.3116,"lon":5.38722,"is_reserved":false,"is_disabled":false,"rental_uris":{"android":"levelo://app?vid=eefd55c6-b681-4f87-88ef-0a097e642015","ios":"levelo://app?vid=eefd55c6-b681-4f87-88ef-0a097e642015"},"vehicle_type_id":"4","last_reported":1747398053,"current_range_meters":19200,"station_id":"ce4bgv12rcd13ifvqcp0","pricing_plan_id":"cebpf4jnsgd1na2vs0mg"},{"bike_id":"512db903-9559-40c7-8902-6a98e3c8c53c","system_id":"levelo_inurba_marseille","lat":43.32941,"lon":5.38979,"is_reserved":false,"is_disabled":false,"rental_uris":{"android":"levelo://app?vid=512db903-9559-40c7-8902-6a98e3c8c53c","ios":"levelo://app?vid=512db903-9559-40c7-8902-6a98e3c8c53c"},"vehicle_type_id":"4","last_reported":1747398053,"current_range_meters":19600,"station_id":"","pricing_plan_id":"cebpf4jnsgd1na2vs0mg"},{"bike_id":"70579b1f-809a-422d-80c6-25068b05e090","system_id":"levelo_inurba_marseille","lat":43.28024,"lon":5.3694,"is_reserved":false,"is_disabled":false,"rental_uris":{"android":"levelo://app?vid=70579b1f-809a-422d-80c6-25068b05e090","ios":"levelo://app?vid=70579b1f-809a-422d-80c6-25068b05e090"},"vehicle_type_id":"4","last_reported":1747398053,"current_range_meters":19600,"station_id":"ce4bha12rcd13ifvqef0","pricing_plan_id":"cebpf4jnsgd1na2vs0mg"},{"bike_id":"735673d3-2195-48b9-aded-c20d5a6bd5ce","system_id":"levelo_inurba_marseille","lat":43.28666,"lon":5.36357,"is_reserved":false,"is_disabled":false,"rental_uris":{"android":"levelo://app?vid=735673d3-2195-48b9-aded-c20d5a6bd5ce","ios":"levelo://app?vid=735673d3-2195-48b9-aded-c20d5a6bd5ce"},"vehicle_type_id":"4","last_reported":1747398053,"current_range_meters":19600,"station_id":"ce4bhah2rcd13ifvqej0","pricing_plan_id":"cebpf4jnsgd1na2vs0mg"},{"bike_id":"d81b362b-42db-4563-96d8-0fccdc2ad4e0","system_id":"levelo_inurba_marseille","lat":43.30251,"lon":5.37731,"is_reserved":false,"is_disabled":false,"rental_uris":{"android":"levelo://app?vid=d81b362b-42db-4563-96d8-0fccdc2ad4e0","ios":"levelo://app?vid=d81b362b-42db-4563-96d8-0fccdc2ad4e0"},"vehicle_type_id":"4","last_reported":1747398053,"current_range_meters":20000,"station_id":"ce4bguh2rcd13ifvqcj0","pricing_plan_id":"cebpf4jnsgd1na2vs0mg"},{"bike_id":"42937af5-790a-40ad-b8d1-8663c98feb9d","system_id":"levelo_inurba_marseille","lat":43.2756,"lon":5.38437,"is_reserved":false,"is_disabled":false,"rental_uris":{"android":"levelo://app?vid=42937af5-790a-40ad-b8d1-8663c98feb9d","ios":"levelo://app?vid=42937af5-790a-40ad-b8d1-8663c98feb9d"},"vehicle_type_id":"4","last_reported":1747398053,"current_range_meters":20000,"station_id":"ce4bhh92rcd13ifvqfi0","pricing_plan_id":"cebpf4jnsgd1na2vs0mg"},{"bike_id":"4adb73d8-f168-4ea8-8e4c-64611fe3a1c0","system_id":"levelo_inurba_marseille","lat":43.25942,"lon":5.40897,"is_reserved":false,"is_disabled":false,"rental_uris":{"android":"levelo://app?vid=4adb73d8-f168-4ea8-8e4c-64611fe3a1c0","ios":"levelo://app?vid=4adb73d8-f168-4ea8-8e4c-64611fe3a1c0"},"vehicle_type_id":"4","last_reported":1747398053,"current_range_meters":20000,"station_id":"ce4bhm92rcd13ifvqglg","pricing_plan_id":"cebpf4jnsgd1na2vs0mg"},{"bike_id":"ef964ab7-a33c-452f-8050-7bccd606e307","system_id":"levelo_inurba_marseille","lat":43.29573,"lon":5.3998,"is_reserved":false,"is_disabled":false,"rental_uris":{"android":"levelo://app?vid=ef964ab7-a33c-452f-8050-7bccd606e307","ios":"levelo://app?vid=ef964ab7-a33c-452f-8050-7bccd606e307"},"vehicle_type_id":"4","last_reported":1747398053,"current_range_meters":20400,"station_id":"ce4bh312rcd13ifvqdj0","pricing_plan_id":"cebpf4jnsgd1na2vs0mg"},{"bike_id":"509e13e0-9d31-4c1c-9f86-dee213181829","system_id":"levelo_inurba_marseille","lat":43.271886,"lon":5.410008,"is_reserved":false,"is_disabled":false,"rental_uris":{"android":"levelo://app?vid=509e13e0-9d31-4c1c-9f86-dee213181829","ios":"levelo://app?vid=509e13e0-9d31-4c1c-9f86-dee213181829"},"vehicle_type_id":"4","last_reported":1747398053,"current_range_meters":20400,"station_id":"ce4bhl12rcd13ifvqgf0","pricing_plan_id":"cebpf4jnsgd1na2vs0mg"},{"bike_id":"af3f131a-a030-4bfe-b68a-506ea3183c2b","system_id":"levelo_inurba_marseille","lat":43.28447,"lon":5.39205,"is_reserved":false,"is_disabled":false,"rental_uris":{"android":"levelo://app?vid=af3f131a-a030-4bfe-b68a-506ea3183c2b","ios":"levelo://app?vid=af3f131a-a030-4bfe-b68a-506ea3183c2b"},"vehicle_type_id":"4","last_reported":1747398053,"current_range_meters":20400,"station_id":"ce4bhoh2rcd13ifvqh5g","pricing_plan_id":"cebpf4jnsgd1na2vs0mg"},{"bike_id":"9da8137a-02b5-4ecb-b548-03c750587bcf","system_id":"levelo_inurba_marseille","lat":43.29282,"lon":5.40119,"is_reserved":false,"is_disabled":false,"rental_uris":{"android":"levelo://app?vid=9da8137a-02b5-4ecb-b548-03c750587bcf","ios":"levelo://app?vid=9da8137a-02b5-4ecb-b548-03c750587bcf"},"vehicle_type_id":"4","last_reported":1747398053,"current_range_meters":20800,"station_id":"ce4bh312rcd13ifvqdk0","pricing_plan_id":"cebpf4jnsgd1na2vs0mg"},{"bike_id":"3754db99-09df-461c-83e3-f9f2dc95d806","system_id":"levelo_inurba_marseille","lat":43.26963,"lon":5.38621,"is_reserved":false,"is_disabled":false,"rental_uris":{"android":"levelo://app?vid=3754db99-09df-461c-83e3-f9f2dc95d806","ios":"levelo://app?vid=3754db99-09df-461c-83e3-f9f2dc95d806"},"vehicle_type_id":"4","last_reported":1747398053,"current_range_meters":20800,"station_id":"ce4bhh92rcd13ifvqfh0","pricing_plan_id":"cebpf4jnsgd1na2vs0mg"},{"bike_id":"5a81b01a-e1dd-45e6-a226-8792bdea4c5c","system_id":"levelo_inurba_marseille","lat":43.26939,"lon":5.38922,"is_reserved":false,"is_disabled":false,"rental_uris":{"android":"levelo://app?vid=5a81b01a-e1dd-45e6-a226-8792bdea4c5c","ios":"levelo://app?vid=5a81b01a-e1dd-45e6-a226-8792bdea4c5c"},"vehicle_type_id":"4","last_reported":1747398053,"current_range_meters":20800,"station_id":"ce4bhhh2rcd13ifvqfl0","pricing_plan_id":"cebpf4jnsgd1na2vs0mg"},{"bike_id":"ae1f945c-b642-4c60-977b-b8725034af72","system_id":"levelo_inurba_marseille","lat":43.27208,"lon":5.39175,"is_reserved":false,"is_disabled":false,"rental_uris":{"android":"levelo://app?vid=ae1f945c-b642-4c60-977b-b8725034af72","ios":"levelo://app?vid=ae1f945c-b642-4c60-977b-b8725034af72"},"vehicle_type_id":"4","last_reported":1747398053,"current_range_meters":20800,"station_id":"ce4bhhp2rcd13ifvqfm0","pricing_plan_id":"cebpf4jnsgd1na2vs0mg"},{"bike_id":"beda5055-e375-470f-a7db-47bd4902e0d5","system_id":"levelo_inurba_marseille","lat":43.27052,"lon":5.40257,"is_reserved":false,"is_disabled":false,"rental_uris":{"android":"levelo://app?vid=beda5055-e375-470f-a7db-47bd4902e0d5","ios":"levelo://app?vid=beda5055-e375-470f-a7db-47bd4902e0d5"},"vehicle_type_id":"4","last_reported":1747398053,"current_range_meters":20800,"station_id":"ce4bhk92rcd13ifvqgc0","pricing_plan_id":"cebpf4jnsgd1na2vs0mg"},{"bike_id":"2e581f54-9cb6-40ef-9b93-66b21222f8ef","system_id":"levelo_inurba_marseille","lat":43.24545,"lon":5.39525,"is_reserved":false,"is_disabled":false,"rental_uris":{"android":"levelo://app?vid=2e581f54-9cb6-40ef-9b93-66b21222f8ef","ios":"levelo://app?vid=2e581f54-9cb6-40ef-9b93-66b21222f8ef"},"vehicle_type_id":"4","last_reported":1747398053,"current_range_meters":20800,"station_id":"ce4bhlp2rcd13ifvqgjg","pricing_plan_id":"cebpf4jnsgd1na2vs0mg"},{"bike_id":"df19a046-bc8f-4751-980f-3fc4c19f613a","system_id":"levelo_inurba_marseille","lat":43.27494,"lon":5.42452,"is_reserved":false,"is_disabled":false,"rental_uris":{"android":"levelo://app?vid=df19a046-bc8f-4751-980f-3fc4c19f613a","ios":"levelo://app?vid=df19a046-bc8f-4751-980f-3fc4c19f613a"},"vehicle_type_id":"4","last_reported":1747398053,"current_range_meters":20800,"station_id":"ce4bhn92rcd13ifvqgrg","pricing_plan_id":"cebpf4jnsgd1na2vs0mg"},{"bike_id":"ba49636d-5d10-4efe-8e3a-e657d9279858","system_id":"levelo_inurba_marseille","lat":43.27496,"lon":5.42445,"is_reserved":false,"is_disabled":false,"rental_uris":{"android":"levelo://app?vid=ba49636d-5d10-4efe-8e3a-e657d9279858","ios":"levelo://app?vid=ba49636d-5d10-4efe-8e3a-e657d9279858"},"vehicle_type_id":"4","last_reported":1747398053,"current_range_meters":20800,"station_id":"ce4bhn92rcd13ifvqgrg","pricing_plan_id":"cebpf4jnsgd1na2vs0mg"},{"bike_id":"c1bd579a-3a81-49ee-859a-1bee34f10a61","system_id":"levelo_inurba_marseille","lat":43.27807,"lon":5.40705,"is_reserved":false,"is_disabled":false,"rental_uris":{"android":"levelo://app?vid=c1bd579a-3a81-49ee-859a-1bee34f10a61","ios":"levelo://app?vid=c1bd579a-3a81-49ee-859a-1bee34f10a61"},"vehicle_type_id":"4","last_reported":1747398053,"current_range_meters":20800,"station_id":"ce4bhnh2rcd13ifvqgtg","pricing_plan_id":"cebpf4jnsgd1na2vs0mg"},{"bike_id":"b26a0dd7-cbdc-4ab7-8def-31c4b88b224a","system_id":"levelo_inurba_marseille","lat":43.31202,"lon":5.39256,"is_reserved":false,"is_disabled":false,"rental_uris":{"android":"levelo://app?vid=b26a0dd7-cbdc-4ab7-8def-31c4b88b224a","ios":"levelo://app?vid=b26a0dd7-cbdc-4ab7-8def-31c4b88b224a"},"vehicle_type_id":"4","last_reported":1747398053,"current_range_meters":21600,"station_id":"","pricing_plan_id":"cebpf4jnsgd1na2vs0mg"},{"bike_id":"8d62d29f-32b7-4b16-a0d1-4d876661da9d","system_id":"levelo_inurba_marseille","lat":43.268192,"lon":5.411043,"is_reserved":false,"is_disabled":false,"rental_uris":{"android":"levelo://app?vid=8d62d29f-32b7-4b16-a0d1-4d876661da9d","ios":"levelo://app?vid=8d62d29f-32b7-4b16-a0d1-4d876661da9d"},"vehicle_type_id":"4","last_reported":1747398053,"current_range_meters":21600,"station_id":"","pricing_plan_id":"cebpf4jnsgd1na2vs0mg"},{"bike_id":"5d7dfaf4-82f3-4b26-904e-58f4e5f0dad0","system_id":"levelo_inurba_marseille","lat":43.29044,"lon":5.3756,"is_reserved":false,"is_disabled":false,"rental_uris":{"android":"levelo://app?vid=5d7dfaf4-82f3-4b26-904e-58f4e5f0dad0","ios":"levelo://app?vid=5d7dfaf4-82f3-4b26-904e-58f4e5f0dad0"},"vehicle_type_id":"4","last_reported":1747398053,"current_range_meters":21600,"station_id":"ce4bh692rcd13ifvqe90","pricing_plan_id":"cebpf4jnsgd1na2vs0mg"},{"bike_id":"60579386-9f16-4d8e-81e0-54e06a170674","system_id":"levelo_inurba_marseille","lat":43.26959,"lon":5.3863,"is_reserved":false,"is_disabled":false,"rental_uris":{"android":"levelo://app?vid=60579386-9f16-4d8e-81e0-54e06a170674","ios":"levelo://app?vid=60579386-9f16-4d8e-81e0-54e06a170674"},"vehicle_type_id":"4","last_reported":1747398053,"current_range_meters":21600,"station_id":"ce4bhh92rcd13ifvqfh0","pricing_plan_id":"cebpf4jnsgd1na2vs0mg"},{"bike_id":"68bdee92-c99d-4148-b74f-6df992df267b","system_id":"levelo_inurba_marseille","lat":43.2694,"lon":5.38912,"is_reserved":false,"is_disabled":false,"rental_uris":{"android":"levelo://app?vid=68bdee92-c99d-4148-b74f-6df992df267b","ios":"levelo://app?vid=68bdee92-c99d-4148-b74f-6df992df267b"},"vehicle_type_id":"4","last_reported":1747398053,"current_range_meters":21600,"station_id":"ce4bhhh2rcd13ifvqfl0","pricing_plan_id":"cebpf4jnsgd1na2vs0mg"},{"bike_id":"e9895dd1-97b6-4ca4-ac30-3327929417c7","system_id":"levelo_inurba_marseille","lat":43.29786,"lon":5.39345,"is_reserved":false,"is_disabled":false,"rental_uris":{"android":"levelo://app?vid=e9895dd1-97b6-4ca4-ac30-3327929417c7","ios":"levelo://app?vid=e9895dd1-97b6-4ca4-ac30-3327929417c7"},"vehicle_type_id":"4","last_reported":1747398053,"current_range_meters":21600,"station_id":"chh1huq6cuj3fo74tm60","pricing_plan_id":"cebpf4jnsgd1na2vs0mg"},{"bike_id":"117678ba-fb9f-4db9-9da3-74d9c4535e10","system_id":"levelo_inurba_marseille","lat":43.25824,"lon":5.39428,"is_reserved":false,"is_disabled":false,"rental_uris":{"android":"levelo://app?vid=117678ba-fb9f-4db9-9da3-74d9c4535e10","ios":"levelo://app?vid=117678ba-fb9f-4db9-9da3-74d9c4535e10"},"vehicle_type_id":"4","last_reported":1747398053,"current_range_meters":22000,"station_id":"ce4bhip2rcd13ifvqft0","pricing_plan_id":"cebpf4jnsgd1na2vs0mg"},{"bike_id":"5b723bd0-8760-4d3c-a5e3-dce8be0e0529","system_id":"levelo_inurba_marseille","lat":43.30424,"lon":5.41275,"is_reserved":false,"is_disabled":false,"rental_uris":{"android":"levelo://app?vid=5b723bd0-8760-4d3c-a5e3-dce8be0e0529","ios":"levelo://app?vid=5b723bd0-8760-4d3c-a5e3-dce8be0e0529"},"vehicle_type_id":"4","last_reported":1747398053,"current_range_meters":22000,"station_id":"ce4bhop2rcd13ifvqh8g","pricing_plan_id":"cebpf4jnsgd1na2vs0mg"},{"bike_id":"47eb7a37-8192-4c71-8007-e01069521ab3","system_id":"levelo_inurba_marseille","lat":43.29792,"lon":5.39339,"is_reserved":false,"is_disabled":false,"rental_uris":{"android":"levelo://app?vid=47eb7a37-8192-4c71-8007-e01069521ab3","ios":"levelo://app?vid=47eb7a37-8192-4c71-8007-e01069521ab3"},"vehicle_type_id":"4","last_reported":1747398053,"current_range_meters":22000,"station_id":"chh1huq6cuj3fo74tm60","pricing_plan_id":"cebpf4jnsgd1na2vs0mg"},{"bike_id":"b317fb47-d6ff-4b21-a02e-dbec2f95275d","system_id":"levelo_inurba_marseille","lat":43.30139,"lon":5.37407,"is_reserved":false,"is_disabled":false,"rental_uris":{"android":"levelo://app?vid=b317fb47-d6ff-4b21-a02e-dbec2f95275d","ios":"levelo://app?vid=b317fb47-d6ff-4b21-a02e-dbec2f95275d"},"vehicle_type_id":"4","last_reported":1747398053,"current_range_meters":22400,"station_id":"ce4bgs92rcd13ifvqcc0","pricing_plan_id":"cebpf4jnsgd1na2vs0mg"},{"bike_id":"1fcfa52a-793f-499a-9895-ba044352c83f","system_id":"levelo_inurba_marseille","lat":43.29044,"lon":5.37554,"is_reserved":false,"is_disabled":false,"rental_uris":{"android":"levelo://app?vid=1fcfa52a-793f-499a-9895-ba044352c83f","ios":"levelo://app?vid=1fcfa52a-793f-499a-9895-ba044352c83f"},"vehicle_type_id":"4","last_reported":1747398053,"current_range_meters":22400,"station_id":"ce4bh692rcd13ifvqe90","pricing_plan_id":"cebpf4jnsgd1na2vs0mg"},{"bike_id":"eba79b07-4b11-4f91-ba28-2db22f46edac","system_id":"levelo_inurba_marseille","lat":43.29611,"lon":5.3809,"is_reserved":false,"is_disabled":false,"rental_uris":{"android":"levelo://app?vid=eba79b07-4b11-4f91-ba28-2db22f46edac","ios":"levelo://app?vid=eba79b07-4b11-4f91-ba28-2db22f46edac"},"vehicle_type_id":"4","last_reported":1747398053,"current_range_meters":22800,"station_id":"ce4bgl12rcd13ifvqbo0","pricing_plan_id":"cebpf4jnsgd1na2vs0mg"},{"bike_id":"04c87860-b937-4eac-9ece-f8ab1e6d77f3","system_id":"levelo_inurba_marseille","lat":43.30141,"lon":5.37412,"is_reserved":false,"is_disabled":false,"rental_uris":{"android":"levelo://app?vid=04c87860-b937-4eac-9ece-f8ab1e6d77f3","ios":"levelo://app?vid=04c87860-b937-4eac-9ece-f8ab1e6d77f3"},"vehicle_type_id":"4","last_reported":1747398053,"current_range_meters":22800,"station_id":"ce4bgs92rcd13ifvqcc0","pricing_plan_id":"cebpf4jnsgd1na2vs0mg"},{"bike_id":"ebebc762-64ad-4ab6-ab13-83d5eb1a625c","system_id":"levelo_inurba_marseille","lat":43.28377,"lon":5.38625,"is_reserved":false,"is_disabled":false,"rental_uris":{"android":"levelo://app?vid=ebebc762-64ad-4ab6-ab13-83d5eb1a625c","ios":"levelo://app?vid=ebebc762-64ad-4ab6-ab13-83d5eb1a625c"},"vehicle_type_id":"4","last_reported":1747398053,"current_range_meters":22800,"station_id":"ce4bh492rcd13ifvqdvg","pricing_plan_id":"cebpf4jnsgd1na2vs0mg"},{"bike_id":"6713e299-014d-45a0-9511-6a0d2d10bcc9","system_id":"levelo_inurba_marseille","lat":43.28416,"lon":5.34978,"is_reserved":false,"is_disabled":false,"rental_uris":{"android":"levelo://app?vid=6713e299-014d-45a0-9511-6a0d2d10bcc9","ios":"levelo://app?vid=6713e299-014d-45a0-9511-6a0d2d10bcc9"},"vehicle_type_id":"4","last_reported":1747398053,"current_range_meters":22800,"station_id":"ce4bhbh2rcd13ifvqepg","pricing_plan_id":"cebpf4jnsgd1na2vs0mg"},{"bike_id":"71bf3dd0-edd1-44ae-847b-4f4399f69e23","system_id":"levelo_inurba_marseille","lat":43.26558,"lon":5.37283,"is_reserved":false,"is_disabled":false,"rental_uris":{"android":"levelo://app?vid=71bf3dd0-edd1-44ae-847b-4f4399f69e23","ios":"levelo://app?vid=71bf3dd0-edd1-44ae-847b-4f4399f69e23"},"vehicle_type_id":"4","last_reported":1747398053,"current_range_meters":22800,"station_id":"ce4bhg12rcd13ifvqf70","pricing_plan_id":"cebpf4jnsgd1na2vs0mg"},{"bike_id":"13b86de8-07b4-48ab-ad57-b0073bf3763f","system_id":"levelo_inurba_marseille","lat":43.25731,"lon":5.41108,"is_reserved":false,"is_disabled":false,"rental_uris":{"android":"levelo://app?vid=13b86de8-07b4-48ab-ad57-b0073bf3763f","ios":"levelo://app?vid=13b86de8-07b4-48ab-ad57-b0073bf3763f"},"vehicle_type_id":"4","last_reported":1747398053,"current_range_meters":22800,"station_id":"ce4bhkp2rcd13ifvqgd0","pricing_plan_id":"cebpf4jnsgd1na2vs0mg"},{"bike_id":"29800324-5cb2-4fa7-8bdf-5dc458c9ffaa","system_id":"levelo_inurba_marseille","lat":43.2407,"lon":5.37762,"is_reserved":false,"is_disabled":false,"rental_uris":{"android":"levelo://app?vid=29800324-5cb2-4fa7-8bdf-5dc458c9ffaa","ios":"levelo://app?vid=29800324-5cb2-4fa7-8bdf-5dc458c9ffaa"},"vehicle_type_id":"4","last_reported":1747398053,"current_range_meters":22800,"station_id":"ce4bhnp2rcd13ifvqgvg","pricing_plan_id":"cebpf4jnsgd1na2vs0mg"},{"bike_id":"2788de8a-9405-4a28-a34f-815c93a01e85","system_id":"levelo_inurba_marseille","lat":43.28074,"lon":5.39658,"is_reserved":false,"is_disabled":false,"rental_uris":{"android":"levelo://app?vid=2788de8a-9405-4a28-a34f-815c93a01e85","ios":"levelo://app?vid=2788de8a-9405-4a28-a34f-815c93a01e85"},"vehicle_type_id":"4","last_reported":1747398053,"current_range_meters":22800,"station_id":"ce4bho12rcd13ifvqh2g","pricing_plan_id":"cebpf4jnsgd1na2vs0mg"},{"bike_id":"dd18485d-aa05-480d-b8d6-b45b5fddcf4d","system_id":"levelo_inurba_marseille","lat":43.297048,"lon":5.376727,"is_reserved":false,"is_disabled":false,"rental_uris":{"android":"levelo://app?vid=dd18485d-aa05-480d-b8d6-b45b5fddcf4d","ios":"levelo://app?vid=dd18485d-aa05-480d-b8d6-b45b5fddcf4d"},"vehicle_type_id":"4","last_reported":1747398053,"current_range_meters":23200,"station_id":"ce4bgkh2rcd13ifvqbl0","pricing_plan_id":"cebpf4jnsgd1na2vs0mg"},{"bike_id":"19b2f3dd-edb2-47d7-9394-d39e9cd28458","system_id":"levelo_inurba_marseille","lat":43.29253,"lon":5.36855,"is_reserved":false,"is_disabled":false,"rental_uris":{"android":"levelo://app?vid=19b2f3dd-edb2-47d7-9394-d39e9cd28458","ios":"levelo://app?vid=19b2f3dd-edb2-47d7-9394-d39e9cd28458"},"vehicle_type_id":"4","last_reported":1747398053,"current_range_meters":23200,"station_id":"ce4bhbp2rcd13ifvqesg","pricing_plan_id":"cebpf4jnsgd1na2vs0mg"},{"bike_id":"3c4f090c-8c6a-4d6c-b840-e81238fd6aa9","system_id":"levelo_inurba_marseille","lat":43.28931,"lon":5.36372,"is_reserved":false,"is_disabled":false,"rental_uris":{"android":"levelo://app?vid=3c4f090c-8c6a-4d6c-b840-e81238fd6aa9","ios":"levelo://app?vid=3c4f090c-8c6a-4d6c-b840-e81238fd6aa9"},"vehicle_type_id":"4","last_reported":1747398053,"current_range_meters":23200,"station_id":"ce4bhc92rcd13ifvqetg","pricing_plan_id":"cebpf4jnsgd1na2vs0mg"},