{"last_updated":1687709312,"ttl":30,"version":"2.2","data":{"bikes":[{"bike_id":"abf16953-e211-440b-8c70-6b55dbfadf81","system_id":"levelo_inurba_marseille","lat":43.31237,"lon":5.36922,"is_reserved":false,"is_disabled":false,"rental_uris":{"android":"levelo://app?vid=abf16953-e211-440b-8c70-6b55dbfadf81","ios":"levelo://app?vid=abf16953-e211-440b-8c70-6b55dbfadf81"},"vehicle_type_id":"4","last_reported":1687709314,"current_range_meters":19600,"station_id":"","pricing_plan_id":"free"},{"bike_id":"2362d78b-e06a-4866-a0a1-7346cde59c6d","system_id":"levelo_inurba_marseille","lat":43.31629,"lon":5.36639,"is_reserved":false,"is_disabled":false,"rental_uris":{"android":"levelo://app?vid=2362d78b-e06a-4866-a0a1-7346cde59c6d","ios":"levelo://app?vid=2362d78b-e06a-4866-a0a1-7346cde59c6d"},"vehicle_type_id":"4","last_reported":1687709314,"current_range_meters":16000,"station_id":"","pricing_plan_id":"free"},{"bike_id":"9dcb143d-6629-44e1-b26d-1869eb1422f0","system_id":"levelo_inurba_marseille","lat":43.305989,"lon":5.37225,"is_reserved":false,"is_disabled":false,"rental_uris":{"android":"levelo://app?vid=9dcb143d-6629-44e1-b26d-1869eb1422f0","ios":"levelo://app?vid=9dcb143d-6629-44e1-b26d-1869eb1422f0"},"vehicle_type_id":"4","last_reported":1687709314,"current_range_meters":7200,"station_id":"ce4bgqh2rcd13ifvqc4g","pricing_plan_id":"free"},{"bike_id":"cb8b1387-d8af-42e0-b4a9-acc526dd9ff5","system_id":"levelo_inurba_marseille","lat":43.31775,"lon":5.37781,"is_reserved":false,"is_disabled":false,"rental_uris":{"android":"levelo://app?vid=cb8b1387-d8af-42e0-b4a9-acc526dd9ff5","ios":"levelo://app?vid=cb8b1387-d8af-42e0-b4a9-acc526dd9ff5"},"vehicle_type_id":"4","last_reported":1687709314,"current_range_meters":23200,"station_id":"","pricing_plan_id":"free"},{"bike_id":"2ae4c695-3a04-437f-83c0-20dac3188f7a","system_id":"levelo_inurba_marseille","lat":43.315289,"lon":5.380349,"is_reserved":false,"is_disabled":false,"rental_uris":{"android":"levelo://app?vid=2ae4c695-3a04-437f-83c0-20dac3188f7a","ios":"levelo://app?vid=2ae4c695-3a04-437f-83c0-20dac3188f7a"},"vehicle_type_id":"4","last_reported":1687709314,"current_range_meters":22800,"station_id":"ce4bhsp2rcd13ifvqi50","pricing_plan_id":"free"},{"bike_id":"7961c058-6bbf-43fe-9e62-f3ba9264f471","system_id":"levelo_inurba_marseille","lat":43.30239,"lon":5.37386,"is_reserved":false,"is_disabled":false,"rental_uris":{"android":"levelo://app?vid=7961c058-6bbf-43fe-9e62-f3ba9264f471","ios":"levelo://app?vid=7961c058-6bbf-43fe-9e62-f3ba9264f471"},"vehicle_type_id":"4","last_reported":1687709314,"current_range_meters":4800,"station_id":"","pricing_plan_id":"free"},{"bike_id":"175a9212-70cf-4571-b5c0-93e01b5f003b","system_id":"levelo_inurba_marseille","lat":43.308012,"lon":5.381511,"is_reserved":false,"is_disabled":false,"rental_uris":{"android":"levelo://app?vid=175a9212-70cf-4571-b5c0-93e01b5f003b","ios":"levelo://app?vid=175a9212-70cf-4571-b5c0-93e01b5f003b"},"vehicle_type_id":"4","last_reported":1687709314,"current_range_meters":6000,"station_id":"ce4bgt12rcd13ifvqce0","pricing_plan_id":"free"},{"bike_id":"25bcc21c-84b0-43f8-8ed1-2713382bd734","system_id":"levelo_inurba_marseille","lat":43.319935,"lon":5.381699,"is_reserved":false,"is_disabled":false,"rental_uris":{"android":"levelo://app?vid=25bcc21c-84b0-43f8-8ed1-2713382bd734","ios":"levelo://app?vid=25bcc21c-84b0-43f8-8ed1-2713382bd734"},"vehicle_type_id":"4","last_reported":1687709314,"current_range_meters":22000,"station_id":"ce4bhr12rcd13ifvqhpg","pricing_plan_id":"free"},{"bike_id":"7e9a47a8-5d6c-4e19-9cd5-24ee65ebc02d","system_id":"levelo_inurba_marseille","lat":43.319935,"lon":5.381699,"is_reserved":false,"is_disabled":false,"rental_uris":{"android":"levelo://app?vid=7e9a47a8-5d6c-4e19-9cd5-24ee65ebc02d","ios":"levelo://app?vid=7e9a47a8-5d6c-4e19-9cd5-24ee65ebc02d"},"vehicle_type_id":"4","last_reported":1687709314,"current_range_meters":27200,"station_id":"ce4bhr12rcd13ifvqhpg","pricing_plan_id":"free"},{"bike_id":"9fb2af00-a3bb-4d59-9a9c-bf6fb58d47f0","system_id":"levelo_inurba_marseille","lat":43.319935,"lon":5.381699,"is_reserved":false,"is_disabled":false,"rental_uris":{"android":"levelo://app?vid=9fb2af00-a3bb-4d59-9a9c-bf6fb58d47f0","ios":"levelo://app?vid=9fb2af00-a3bb-4d59-9a9c-bf6fb58d47f0"},"vehicle_type_id":"4","last_reported":1687709314,"current_range_meters":29600,"station_id":"ce4bhr12rcd13ifvqhpg","pricing_plan_id":"free"},{"bike_id":"8d8e0424-a554-44d1-aac7-2925f426b147","system_id":"levelo_inurba_marseille","lat":43.319935,"lon":5.381699,"is_reserved":false,"is_disabled":false,"rental_uris":{"android":"levelo://app?vid=8d8e0424-a554-44d1-aac7-2925f426b147","ios":"levelo://app?vid=8d8e0424-a554-44d1-aac7-2925f426b147"},"vehicle_type_id":"4","last_reported":1687709314,"current_range_meters":6800,"station_id":"ce4bhr12rcd13ifvqhpg","pricing_plan_id":"free"},{"bike_id":"e5564a1b-7eaa-42d7-9eac-0b69cc97b61e","system_id":"levelo_inurba_marseille","lat":43.319935,"lon":5.381699,"is_reserved":false,"is_disabled":false,"rental_uris":{"android":"levelo://app?vid=e5564a1b-7eaa-42d7-9eac-0b69cc97b61e","ios":"levelo://app?vid=e5564a1b-7eaa-42d7-9eac-0b69cc97b61e"},"vehicle_type_id":"4","last_reported":1687709314,"current_range_meters":14800,"station_id":"ce4bhr12rcd13ifvqhpg","pricing_plan_id":"free"},{"bike_id":"c3a514fe-e9af-4e21-bb52-4bdde2a1cd48","system_id":"levelo_inurba_marseille","lat":43.313571,"lon":5.384829,"is_reserved":false,"is_disabled":false,"rental_uris":{"android":"levelo://app?vid=c3a514fe-e9af-4e21-bb52-4bdde2a1cd48","ios":"levelo://app?vid=c3a514fe-e9af-4e21-bb52-4bdde2a1cd48"},"vehicle_type_id":"4","last_reported":1687709314,"current_range_meters":24800,"station_id":"ce4bgt92rcd13ifvqcf0","pricing_plan_id":"free"},{"bike_id":"885fb6ec-a6a0-4881-8d5b-a8e74141b88d","system_id":"levelo_inurba_marseille","lat":43.31355,"lon":5.38505,"is_reserved":false,"is_disabled":false,"rental_uris":{"android":"levelo://app?vid=885fb6ec-a6a0-4881-8d5b-a8e74141b88d","ios":"levelo://app?vid=885fb6ec-a6a0-4881-8d5b-a8e74141b88d"},"vehicle_type_id":"4","last_reported":1687709314,"current_range_meters":29200,"station_id":"ce4bgt92rcd13ifvqcf0","pricing_plan_id":"free"},{"bike_id":"db9e39a5-f055-4df1-ad6e-cbf2f5e28182","system_id":"levelo_inurba_marseille","lat":43.299243,"lon":5.374807,"is_reserved":false,"is_disabled":false,"rental_uris":{"android":"levelo://app?vid=db9e39a5-f055-4df1-ad6e-cbf2f5e28182","ios":"levelo://app?vid=db9e39a5-f055-4df1-ad6e-cbf2f5e28182"},"vehicle_type_id":"4","last_reported":1687709314,"current_range_meters":2800,"station_id":"ce4bgjh2rcd13ifvqbg0","pricing_plan_id":"free"},{"bike_id":"affbf8f5-23c4-4fb5-9afd-c878b65370a1","system_id":"levelo_inurba_marseille","lat":43.299243,"lon":5.37481,"is_reserved":false,"is_disabled":false,"rental_uris":{"android":"levelo://app?vid=affbf8f5-23c4-4fb5-9afd-c878b65370a1","ios":"levelo://app?vid=affbf8f5-23c4-4fb5-9afd-c878b65370a1"},"vehicle_type_id":"4","last_reported":1687709314,"current_range_meters":1600,"station_id":"ce4bgjh2rcd13ifvqbg0","pricing_plan_id":"free"},{"bike_id":"1580a472-182f-4d91-8a6c-4c3a23a9c034","system_id":"levelo_inurba_marseille","lat":43.302,"lon":5.3821,"is_reserved":false,"is_disabled":false,"rental_uris":{"android":"levelo://app?vid=1580a472-182f-4d91-8a6c-4c3a23a9c034","ios":"levelo://app?vid=1580a472-182f-4d91-8a6c-4c3a23a9c034"},"vehicle_type_id":"4","last_reported":1687709314,"current_range_meters":13200,"station_id":"","pricing_plan_id":"free"},{"bike_id":"e5e7dccb-1f9b-484d-a586-bef50c3271cf","system_id":"levelo_inurba_marseille","lat":43.32824,"lon":5.36689,"is_reserved":false,"is_disabled":false,"rental_uris":{"android":"levelo://app?vid=e5e7dccb-1f9b-484d-a586-bef50c3271cf","ios":"levelo://app?vid=e5e7dccb-1f9b-484d-a586-bef50c3271cf"},"vehicle_type_id":"4","last_reported":1687709314,"current_range_meters":0,"station_id":"ce4bhs92rcd13ifvqi0g","pricing_plan_id":"free"},{"bike_id":"84310711-9ffd-45bf-a8e1-79683581878e","system_id":"levelo_inurba_marseille","lat":43.328371,"lon":5.366909,"is_reserved":false,"is_disabled":false,"rental_uris":{"android":"levelo://app?vid=84310711-9ffd-45bf-a8e1-79683581878e","ios":"levelo://app?vid=84310711-9ffd-45bf-a8e1-79683581878e"},"vehicle_type_id":"4","last_reported":1687709314,"current_range_meters":21200,"station_id":"ce4bhs92rcd13ifvqi0g","pricing_plan_id":"free"},{"bike_id":"8cd194c3-4946-47d4-8472-6a93aa928d08","system_id":"levelo_inurba_marseille","lat":43.32827,"lon":5.36674,"is_reserved":false,"is_disabled":false,"rental_uris":{"android":"levelo://app?vid=8cd194c3-4946-47d4-8472-6a93aa928d08","ios":"levelo://app?vid=8cd194c3-4946-47d4-8472-6a93aa928d08"},"vehicle_type_id":"4","last_reported":1687709314,"current_range_meters":25200,"station_id":"ce4bhs92rcd13ifvqi0g","pricing_plan_id":"free"},{"bike_id":"ae531434-72d4-4588-9d2e-e3af99787548","system_id":"levelo_inurba_marseille","lat":43.328371,"lon":5.366909,"is_reserved":false,"is_disabled":false,"rental_uris":{"android":"levelo://app?vid=ae531434-72d4-4588-9d2e-e3af99787548","ios":"levelo://app?vid=ae531434-72d4-4588-9d2e-e3af99787548"},"vehicle_type_id":"4","last_reported":1687709314,"current_range_meters":8400,"station_id":"ce4bhs92rcd13ifvqi0g","pricing_plan_id":"free"},{"bike_id":"cbdd73a9-8831-4dab-9e8d-2ce4e630f6d2","system_id":"levelo_inurba_marseille","lat":43.328371,"lon":5.366909,"is_reserved":false,"is_disabled":false,"rental_uris":{"android":"levelo://app?vid=cbdd73a9-8831-4dab-9e8d-2ce4e630f6d2","ios":"levelo://app?vid=cbdd73a9-8831-4dab-9e8d-2ce4e630f6d2"},"vehicle_type_id":"4","last_reported":1687709314,"current_range_meters":25200,"station_id":"ce4bhs92rcd13ifvqi0g","pricing_plan_id":"free"},{"bike_id":"5ff46439-b446-4022-b673-e754ffaf071b","system_id":"levelo_inurba_marseille","lat":43.32832,"lon":5.36681,"is_reserved":false,"is_disabled":false,"rental_uris":{"android":"levelo://app?vid=5ff46439-b446-4022-b673-e754ffaf071b","ios":"levelo://app?vid=5ff46439-b446-4022-b673-e754ffaf071b"},"vehicle_type_id":"4","last_reported":1687709314,"current_range_meters":5200,"station_id":"ce4bhs92rcd13ifvqi0g","pricing_plan_id":"free"},{"bike_id":"6c6205e5-5698-4933-afb2-7335e6b4ae8b","system_id":"levelo_inurba_marseille","lat":43.32833,"lon":5.36684,"is_reserved":false,"is_disabled":false,"rental_uris":{"android":"levelo://app?vid=6c6205e5-5698-4933-afb2-7335e6b4ae8b","ios":"levelo://app?vid=6c6205e5-5698-4933-afb2-7335e6b4ae8b"},"vehicle_type_id":"4","last_reported":1687709314,"current_range_meters":4800,"station_id":"ce4bhs92rcd13ifvqi0g","pricing_plan_id":"free"},{"bike_id":"8b17aad1-d072-4063-bcd5-d1dd5ac05981","system_id":"levelo_inurba_marseille","lat":43.32834,"lon":5.36689,"is_reserved":false,"is_disabled":false,"rental_uris":{"android":"levelo://app?vid=8b17aad1-d072-4063-bcd5-d1dd5ac05981","ios":"levelo://app?vid=8b17aad1-d072-4063-bcd5-d1dd5ac05981"},"vehicle_type_id":"4","last_reported":1687709314,"current_range_meters":30400,"station_id":"ce4bhs92rcd13ifvqi0g","pricing_plan_id":"free"},{"bike_id":"9823f69b-7618-447c-88b9-9a8290da0996","system_id":"levelo_inurba_marseille","lat":43.32834,"lon":5.36683,"is_reserved":false,"is_disabled":false,"rental_uris":{"android":"levelo://app?vid=9823f69b-7618-447c-88b9-9a8290da0996","ios":"levelo://app?vid=9823f69b-7618-447c-88b9-9a8290da0996"},"vehicle_type_id":"4","last_reported":1687709314,"current_range_meters":9200,"station_id":"ce4bhs92rcd13ifvqi0g","pricing_plan_id":"free"},{"bike_id":"91341c0b-a9ff-46c5-84a7-898cdbccdade","system_id":"levelo_inurba_marseille","lat":43.29695,"lon":5.36649,"is_reserved":false,"is_disabled":false,"rental_uris":{"android":"levelo://app?vid=91341c0b-a9ff-46c5-84a7-898cdbccdade","ios":"levelo://app?vid=91341c0b-a9ff-46c5-84a7-898cdbccdade"},"vehicle_type_id":"4","last_reported":1687709314,"current_range_meters":400,"station_id":"","pricing_plan_id":"free"},{"bike_id":"8d98417a-cbe4-4269-8bc9-598373a7d5de","system_id":"levelo_inurba_marseille","lat":43.32852,"lon":5.3629,"is_reserved":false,"is_disabled":false,"rental_uris":{"android":"levelo://app?vid=8d98417a-cbe4-4269-8bc9-598373a7d5de","ios":"levelo://app?vid=8d98417a-cbe4-4269-8bc9-598373a7d5de"},"vehicle_type_id":"4","last_reported":1687709314,"current_range_meters":16800,"station_id":"","pricing_plan_id":"free"},{"bike_id":"edcf8e3c-a57f-40ed-90fb-c6a0aa68fb23","system_id":"levelo_inurba_marseille","lat":43.309589,"lon":5.390258,"is_reserved":false,"is_disabled":false,"rental_uris":{"android":"levelo://app?vid=edcf8e3c-a57f-40ed-90fb-c6a0aa68fb23","ios":"levelo://app?vid=edcf8e3c-a57f-40ed-90fb-c6a0aa68fb23"},"vehicle_type_id":"4","last_reported":1687709314,"current_range_meters":3200,"station_id":"ce4bgup2rcd13ifvqco0","pricing_plan_id":"free"},{"bike_id":"041bc147-ef2f-419b-bb81-deca3bdf89e2","system_id":"levelo_inurba_marseille","lat":43.29611,"lon":5.36046,"is_reserved":false,"is_disabled":false,"rental_uris":{"android":"levelo://app?vid=041bc147-ef2f-419b-bb81-deca3bdf89e2","ios":"levelo://app?vid=041bc147-ef2f-419b-bb81-deca3bdf89e2"},"vehicle_type_id":"4","last_reported":1687709314,"current_range_meters":2400,"station_id":"","pricing_plan_id":"free"},{"bike_id":"ac95b105-7f02-4b47-9abf-0230e64e9d09","system_id":"levelo_inurba_marseille","lat":43.317557,"lon":5.390173,"is_reserved":false,"is_disabled":false,"rental_uris":{"android":"levelo://app?vid=ac95b105-7f02-4b47-9abf-0230e64e9d09","ios":"levelo://app?vid=ac95b105-7f02-4b47-9abf-0230e64e9d09"},"vehicle_type_id":"4","last_reported":1687709314,"current_range_meters":8800,"station_id":"ce4bhqp2rcd13ifvqhng","pricing_plan_id":"free"},{"bike_id":"f2ce00f1-faf9-4bb2-b582-8388019ae523","system_id":"levelo_inurba_marseille","lat":43.317557,"lon":5.390173,"is_reserved":false,"is_disabled":false,"rental_uris":{"android":"levelo://app?vid=f2ce00f1-faf9-4bb2-b582-8388019ae523","ios":"levelo://app?vid=f2ce00f1-faf9-4bb2-b582-8388019ae523"},"vehicle_type_id":"4","last_reported":1687709314,"current_range_meters":18000,"station_id":"ce4bhqp2rcd13ifvqhng","pricing_plan_id":"free"},{"bike_id":"3ecb1419-ec96-4c17-8e0a-de207f3a5e04","system_id":"levelo_inurba_marseille","lat":43.3176,"lon":5.39012,"is_reserved":false,"is_disabled":false,"rental_uris":{"android":"levelo://app?vid=3ecb1419-ec96-4c17-8e0a-de207f3a5e04","ios":"levelo://app?vid=3ecb1419-ec96-4c17-8e0a-de207f3a5e04"},"vehicle_type_id":"4","last_reported":1687709314,"current_range_meters":28000,"station_id":"ce4bhqp2rcd13ifvqhng","pricing_plan_id":"free"},{"bike_id":"81bc7ad9-c4ee-4242-8e7b-702c7c679d2b","system_id":"levelo_inurba_marseille","lat":43.298037,"lon":5.381066,"is_reserved":false,"is_disabled":false,"rental_uris":{"android":"levelo://app?vid=81bc7ad9-c4ee-4242-8e7b-702c7c679d2b","ios":"levelo://app?vid=81bc7ad9-c4ee-4242-8e7b-702c7c679d2b"},"vehicle_type_id":"4","last_reported":1687709314,"current_range_meters":0,"station_id":"ce4bgip2rcd13ifvqbb0","pricing_plan_id":"free"},{"bike_id":"b36443e8-a3dd-43e5-b6c4-87a6d78f5845","system_id":"levelo_inurba_marseille","lat":43.304278,"lon":5.388868,"is_reserved":false,"is_disabled":false,"rental_uris":{"android":"levelo://app?vid=b36443e8-a3dd-43e5-b6c4-87a6d78f5845","ios":"levelo://app?vid=b36443e8-a3dd-43e5-b6c4-87a6d78f5845"},"vehicle_type_id":"4","last_reported":1687709314,"current_range_meters":23600,"station_id":"ce4bgk12rcd13ifvqbi0","pricing_plan_id":"free"},{"bike_id":"ba149223-536e-4a84-9071-4c3d86377a3c","system_id":"levelo_inurba_marseille","lat":43.296263,"lon":5.377094,"is_reserved":false,"is_disabled":false,"rental_uris":{"android":"levelo://app?vid=ba149223-536e-4a84-9071-4c3d86377a3c","ios":"levelo://app?vid=ba149223-536e-4a84-9071-4c3d86377a3c"},"vehicle_type_id":"4","last_reported":1687709314,"current_range_meters":0,"station_id":"ce4bgi92rcd13ifvqb90","pricing_plan_id":"free"},{"bike_id":"1bf182b6-dfef-48aa-b0a0-f81df366230e","system_id":"levelo_inurba_marseille","lat":43.295279,"lon":5.375048,"is_reserved":false,"is_disabled":false,"rental_uris":{"android":"levelo://app?vid=1bf182b6-dfef-48aa-b0a0-f81df366230e","ios":"levelo://app?vid=1bf182b6-dfef-48aa-b0a0-f81df366230e"},"vehicle_type_id":"4","last_reported":1687709314,"current_range_meters":7200,"station_id":"ce4bgkp2rcd13ifvqbmg","pricing_plan_id":"free"},{"bike_id":"ace7cfe7-c333-4198-9ab1-fd92fb314535","system_id":"levelo_inurba_marseille","lat":43.299717,"lon":5.384845,"is_reserved":false,"is_disabled":false,"rental_uris":{"android":"levelo://app?vid=ace7cfe7-c333-4198-9ab1-fd92fb314535","ios":"levelo://app?vid=ace7cfe7-c333-4198-9ab1-fd92fb314535"},"vehicle_type_id":"4","last_reported":1687709314,"current_range_meters":0,"station_id":"ce4bgj92rcd13ifvqbd0","pricing_plan_id":"free"},{"bike_id":"7961d5b9-53de-42eb-94dd-bd74f37ab1f4","system_id":"levelo_inurba_marseille","lat":43.295279,"lon":5.375048,"is_reserved":false,"is_disabled":false,"rental_uris":{"android":"levelo://app?vid=7961d5b9-53de-42eb-94dd-bd74f37ab1f4","ios":"levelo://app?vid=7961d5b9-53de-42eb-94dd-bd74f37ab1f4"},"vehicle_type_id":"4","last_reported":1687709314,"current_range_meters":20400,"station_id":"ce4bgkp2rcd13ifvqbmg","pricing_plan_id":"free"},{"bike_id":"392c179b-45a9-4a5e-8971-7a1b1ce4a80f","system_id":"levelo_inurba_marseille","lat":43.295279,"lon":5.375048,"is_reserved":false,"is_disabled":false,"rental_uris":{"android":"levelo://app?vid=392c179b-45a9-4a5e-8971-7a1b1ce4a80f","ios":"levelo://app?vid=392c179b-45a9-4a5e-8971-7a1b1ce4a80f"},"vehicle_type_id":"4","last_reported":1687709314,"current_range_meters":0,"station_id":"ce4bgkp2rcd13ifvqbmg","pricing_plan_id":"free"},{"bike_id":"cc63e03e-82e9-4c6b-9d3a-55bdb3cbcaff","system_id":"levelo_inurba_marseille","lat":43.32364,"lon":5.38876,"is_reserved":false,"is_disabled":false,"rental_uris":{"android":"levelo://app?vid=cc63e03e-82e9-4c6b-9d3a-55bdb3cbcaff","ios":"levelo://app?vid=cc63e03e-82e9-4c6b-9d3a-55bdb3cbcaff"},"vehicle_type_id":"4","last_reported":1687709314,"current_range_meters":0,"station_id":"ce4bhqp2rcd13ifvqhog","pricing_plan_id":"free"},{"bike_id":"e3085179-ee64-434f-a764-8e3e86754a37","system_id":"levelo_inurba_marseille","lat":43.32367,"lon":5.388836,"is_reserved":false,"is_disabled":false,"rental_uris":{"android":"levelo://app?vid=e3085179-ee64-434f-a764-8e3e86754a37","ios":"levelo://app?vid=e3085179-ee64-434f-a764-8e3e86754a37"},"vehicle_type_id":"4","last_reported":1687709314,"current_range_meters":19200,"station_id":"ce4bhqp2rcd13ifvqhog","pricing_plan_id":"free"},{"bike_id":"01d8a3fe-f044-4375-a24b-ffb33a3bd8a2","system_id":"levelo_inurba_marseille","lat":43.32367,"lon":5.388836,"is_reserved":false,"is_disabled":false,"rental_uris":{"android":"levelo://app?vid=01d8a3fe-f044-4375-a24b-ffb33a3bd8a2","ios":"levelo://app?vid=01d8a3fe-f044-4375-a24b-ffb33a3bd8a2"},"vehicle_type_id":"4","last_reported":1687709314,"current_range_meters":13600,"station_id":"ce4bhqp2rcd13ifvqhog","pricing_plan_id":"free"},{"bike_id":"dcea00dd-79ea-4358-82a6-00f5076fad6d","system_id":"levelo_inurba_marseille","lat":43.32367,"lon":5.388836,"is_reserved":false,"is_disabled":false,"rental_uris":{"android":"levelo://app?vid=dcea00dd-79ea-4358-82a6-00f5076fad6d","ios":"levelo://app?vid=dcea00dd-79ea-4358-82a6-00f5076fad6d"},"vehicle_type_id":"4","last_reported":1687709314,"current_range_meters":20000,"station_id":"ce4bhqp2rcd13ifvqhog","pricing_plan_id":"free"},{"bike_id":"228378a3-e0ba-427a-9a36-5789a7b6bb76","system_id":"levelo_inurba_marseille","lat":43.32363,"lon":5.38887,"is_reserved":false,"is_disabled":false,"rental_uris":{"android":"levelo://app?vid=228378a3-e0ba-427a-9a36-5789a7b6bb76","ios":"levelo://app?vid=228378a3-e0ba-427a-9a36-5789a7b6bb76"},"vehicle_type_id":"4","last_reported":1687709314,"current_range_meters":10400,"station_id":"ce4bhqp2rcd13ifvqhog","pricing_plan_id":"free"},{"bike_id":"a6b543df-b29f-4057-a17b-ece9e8918f86","system_id":"levelo_inurba_marseille","lat":43.32367,"lon":5.388836,"is_reserved":false,"is_disabled":false,"rental_uris":{"android":"levelo://app?vid=a6b543df-b29f-4057-a17b-ece9e8918f86","ios":"levelo://app?vid=a6b543df-b29f-4057-a17b-ece9e8918f86"},"vehicle_type_id":"4","last_reported":1687709314,"current_range_meters":14400,"station_id":"ce4bhqp2rcd13ifvqhog","pricing_plan_id":"free"},{"bike_id":"8d20ae28-ced1-4c37-96de-ca9a2a802825","system_id":"levelo_inurba_marseille","lat":43.32367,"lon":5.388836,"is_reserved":false,"is_disabled":false,"rental_uris":{"android":"levelo://app?vid=8d20ae28-ced1-4c37-96de-ca9a2a802825","ios":"levelo://app?vid=8d20ae28-ced1-4c37-96de-ca9a2a802825"},"vehicle_type_id":"4","last_reported":1687709314,"current_range_meters":11600,"station_id":"ce4bhqp2rcd13ifvqhog","pricing_plan_id":"free"},{"bike_id":"54acd828-923d-453a-9e16-47c32665c320","system_id":"levelo_inurba_marseille","lat":43.32367,"lon":5.388836,"is_reserved":false,"is_disabled":false,"rental_uris":{"android":"levelo://app?vid=54acd828-923d-453a-9e16-47c32665c320","ios":"levelo://app?vid=54acd828-923d-453a-9e16-47c32665c320"},"vehicle_type_id":"4","last_reported":1687709314,"current_range_meters":6000,"station_id":"ce4bhqp2rcd13ifvqhog","pricing_plan_id":"free"},{"bike_id":"9e34d3c5-ed31-4652-9287-03e53b81fefd","system_id":"levelo_inurba_marseille","lat":43.29601,"lon":5.381084,"is_reserved":false,"is_disabled":false,"rental_uris":{"android":"levelo://app?vid=9e34d3c5-ed31-4652-9287-03e53b81fefd","ios":"levelo://app?vid=9e34d3c5-ed31-4652-9287-03e53b81fefd"},"vehicle_type_id":"4","last_reported":1687709314,"current_range_meters":2000,"station_id":"ce4bgl12rcd13ifvqbo0","pricing_plan_id":"free"},{"bike_id":"0a842732-0fe1-4f4d-8891-d9d1c20b0852","system_id":"levelo_inurba_marseille","lat":43.29602,"lon":5.381084,"is_reserved":false,"is_disabled":false,"rental_uris":{"android":"levelo://app?vid=0a842732-0fe1-4f4d-8891-d9d1c20b0852","ios":"levelo://app?vid=0a842732-0fe1-4f4d-8891-d9d1c20b0852"},"vehicle_type_id":"4","last_reported":1687709314,"current_range_meters":17600,"station_id":"ce4bgl12rcd13ifvqbo0","pricing_plan_id":"free"},{"bike_id":"df96312c-c6a2-4569-b403-76f0039697e3","system_id":"levelo_inurba_marseille","lat":43.29601,"lon":5.381084,"is_reserved":false,"is_disabled":false,"rental_uris":{"android":"levelo://app?vid=df96312c-c6a2-4569-b403-76f0039697e3","ios":"levelo://app?vid=df96312c-c6a2-4569-b403-76f0039697e3"},"vehicle_type_id":"4","last_reported":1687709314,"current_range_meters":18800,"station_id":"ce4bgl12rcd13ifvqbo0","pricing_plan_id":"free"},{"bike_id":"9b31ba1e-28f1-4e55-a18e-672a018958cb","system_id":"levelo_inurba_marseille","lat":43.29273,"lon":5.35962,"is_reserved":false,"is_disabled":false,"rental_uris":{"android":"levelo://app?vid=9b31ba1e-28f1-4e55-a18e-672a018958cb","ios":"levelo://app?vid=9b31ba1e-28f1-4e55-a18e-672a018958cb"},"vehicle_type_id":"4","last_reported":1687709314,"current_range_meters":15200,"station_id":"","pricing_plan_id":"free"},{"bike_id":"38612a92-f12c-48f7-9218-c335997c52a9","system_id":"levelo_inurba_marseille","lat":43.302992,"lon":5.392136,"is_reserved":false,"is_disabled":false,"rental_uris":{"android":"levelo://app?vid=38612a92-f12c-48f7-9218-c335997c52a9","ios":"levelo://app?vid=38612a92-f12c-48f7-9218-c335997c52a9"},"vehicle_type_id":"4","last_reported":1687709314,"current_range_meters":10400,"station_id":"ce4bgkh2rcd13ifvqbk0","pricing_plan_id":"free"},{"bike_id":"3c0c52e5-c418-4a19-acb6-deb8533bd18f","system_id":"levelo_inurba_marseille","lat":43.302992,"lon":5.392136,"is_reserved":false,"is_disabled":false,"rental_uris":{"android":"levelo://app?vid=3c0c52e5-c418-4a19-acb6-deb8533bd18f","ios":"levelo://app?vid=3c0c52e5-c418-4a19-acb6-deb8533bd18f"},"vehicle_type_id":"4","last_reported":1687709314,"current_range_meters":22400,"station_id":"ce4bgkh2rcd13ifvqbk0","pricing_plan_id":"free"},{"bike_id":"86ad540f-1eae-497c-9894-62abb8e13df7","system_id":"levelo_inurba_marseille","lat":43.298764,"lon":5.388973,"is_reserved":false,"is_disabled":false,"rental_uris":{"android":"levelo://app?vid=86ad540f-1eae-497c-9894-62abb8e13df7","ios":"levelo://app?vid=86ad540f-1eae-497c-9894-62abb8e13df7"},"vehicle_type_id":"4","last_reported":1687709314,"current_range_meters":0,"station_id":"ce4bh392rcd13ifvqdl0","pricing_plan_id":"free"},{"bike_id":"6d25e08a-ffe3-4a81-8453-ad17c5353b21","system_id":"levelo_inurba_marseille","lat":43.29529,"lon":5.385581,"is_reserved":false,"is_disabled":false,"rental_uris":{"android":"levelo://app?vid=6d25e08a-ffe3-4a81-8453-ad17c5353b21","ios":"levelo://app?vid=6d25e08a-ffe3-4a81-8453-ad17c5353b21"},"vehicle_type_id":"4","last_reported":1687709314,"current_range_meters":18400,"station_id":"ce4bgih2rcd13ifvqba0","pricing_plan_id":"free"},{"bike_id":"20b2702a-2cf1-439f-b7da-41f192fa1a0a","system_id":"levelo_inurba_marseille","lat":43.29411,"lon":5.38614,"is_reserved":false,"is_disabled":false,"rental_uris":{"android":"levelo://app?vid=20b2702a-2cf1-439f-b7da-41f192fa1a0a","ios":"levelo://app?vid=20b2702a-2cf1-439f-b7da-41f192fa1a0a"},"vehicle_type_id":"4","last_reported":1687709314,"current_range_meters":14800,"station_id":"","pricing_plan_id":"free"},{"bike_id":"f7c93873-89e5-4aa9-bc17-23a31435726e","system_id":"levelo_inurba_marseille","lat":43.298681,"lon":5.397225,"is_reserved":false,"is_disabled":false,"rental_uris":{"android":"levelo://app?vid=f7c93873-89e5-4aa9-bc17-23a31435726e","ios":"levelo://app?vid=f7c93873-89e5-4aa9-bc17-23a31435726e"},"vehicle_type_id":"4","last_reported":1687709314,"current_range_meters":12000,"station_id":"ce4bh0h2rcd13ifvqd50","pricing_plan_id":"free"},{"bike_id":"12c80ea2-e872-4eeb-ad15-b2a152f5c586","system_id":"levelo_inurba_marseille","lat":43.292644,"lon":5.384257,"is_reserved":false,"is_disabled":false,"rental_uris":{"android":"levelo://app?vid=12c80ea2-e872-4eeb-ad15-b2a152f5c586","ios":"levelo://app?vid=12c80ea2-e872-4eeb-ad15-b2a152f5c586"},"vehicle_type_id":"4","last_reported":1687709314,"current_range_meters":0,"station_id":"ce4bh692rcd13ifvqea0","pricing_plan_id":"free"},{"bike_id":"8fa4b804-eeea-441f-9b15-4664acb44e13","system_id":"levelo_inurba_marseille","lat":43.33018,"lon":5.38953,"is_reserved":false,"is_disabled":false,"rental_uris":{"android":"levelo://app?vid=8fa4b804-eeea-441f-9b15-4664acb44e13","ios":"levelo://app?vid=8fa4b804-eeea-441f-9b15-4664acb44e13"},"vehicle_type_id":"4","last_reported":1687709314,"current_range_meters":0,"station_id":"","pricing_plan_id":"free"},{"bike_id":"4813efac-2c66-4a89-81d9-bb8e93717b5b","system_id":"levelo_inurba_marseille","lat":43.290104,"lon":5.356111,"is_reserved":false,"is_disabled":false,"rental_uris":{"android":"levelo://app?vid=4813efac-2c66-4a89-81d9-bb8e93717b5b","ios":"levelo://app?vid=4813efac-2c66-4a89-81d9-bb8e93717b5b"},"vehicle_type_id":"4","last_reported":1687709314,"current_range_meters":0,"station_id":"ce4bhb92rcd13ifvqen0","pricing_plan_id":"free"},{"bike_id":"c506a433-7813-48ae-9235-f43fc68a8f88","system_id":"levelo_inurba_marseille","lat":43.29018,"lon":5.35513,"is_reserved":false,"is_disabled":false,"rental_uris":{"android":"levelo://app?vid=c506a433-7813-48ae-9235-f43fc68a8f88","ios":"levelo://app?vid=c506a433-7813-48ae-9235-f43fc68a8f88"},"vehicle_type_id":"4","last_reported":1687709314,"current_range_meters":8000,"station_id":"","pricing_plan_id":"free"},{"bike_id":"f0b81ef9-c806-4806-add8-bd82af7d5010","system_id":"levelo_inurba_marseille","lat":43.295169,"lon":5.390426,"is_reserved":false,"is_disabled":false,"rental_uris":{"android":"levelo://app?vid=f0b81ef9-c806-4806-add8-bd82af7d5010","ios":"levelo://app?vid=f0b81ef9-c806-4806-add8-bd82af7d5010"},"vehicle_type_id":"4","last_reported":1687709314,"current_range_meters":14000,"station_id":"ce4bh3p2rcd13ifvqdp0","pricing_plan_id":"free"},{"bike_id":"15d5821d-70f8-484f-b03c-dd9170bfaa37","system_id":"levelo_inurba_marseille","lat":43.295169,"lon":5.390426,"is_reserved":false,"is_disabled":false,"rental_uris":{"android":"levelo://app?vid=15d5821d-70f8-484f-b03c-dd9170bfaa37","ios":"levelo://app?vid=15d5821d-70f8-484f-b03c-dd9170bfaa37"},"vehicle_type_id":"4","last_reported":1687709314,"current_range_meters":30800,"station_id":"ce4bh3p2rcd13ifvqdp0","pricing_plan_id":"free"},{"bike_id":"f0e54354-3bfc-4846-8a58-32b9ed9a3b22","system_id":"levelo_inurba_marseille","lat":43.295169,"lon":5.390426,"is_reserved":false,"is_disabled":false,"rental_uris":{"android":"levelo://app?vid=f0e54354-3bfc-4846-8a58-32b9ed9a3b22","ios":"levelo://app?vid=f0e54354-3bfc-4846-8a58-32b9ed9a3b22"},"vehicle_type_id":"4","last_reported":1687709314,"current_range_meters":21600,"station_id":"ce4bh3p2rcd13ifvqdp0","pricing_plan_id":"free"},{"bike_id":"e0caae3d-4aa8-41a0-a128-cbda705a5a78","system_id":"levelo_inurba_marseille","lat":43.289741,"lon":5.378306,"is_reserved":false,"is_disabled":false,"rental_uris":{"android":"levelo://app?vid=e0caae3d-4aa8-41a0-a128-cbda705a5a78","ios":"levelo://app?vid=e0caae3d-4aa8-41a0-a128-cbda705a5a78"},"vehicle_type_id":"4","last_reported":1687709314,"current_range_meters":0,"station_id":"ce4bh9p2rcd13ifvqed0","pricing_plan_id":"free"},{"bike_id":"a7f60759-c907-4c28-8c16-973845581eb0","system_id":"levelo_inurba_marseille","lat":43.295169,"lon":5.390426,"is_reserved":false,"is_disabled":false,"rental_uris":{"android":"levelo://app?vid=a7f60759-c907-4c28-8c16-973845581eb0","ios":"levelo://app?vid=a7f60759-c907-4c28-8c16-973845581eb0"},"vehicle_type_id":"4","last_reported":1687709314,"current_range_meters":24400,"station_id":"ce4bh3p2rcd13ifvqdp0","pricing_plan_id":"free"},{"bike_id":"3f8a925a-6a54-4259-a38f-9cf091aab246","system_id":"levelo_inurba_marseille","lat":43.29245,"lon":5.38752,"is_reserved":false,"is_disabled":false,"rental_uris":{"android":"levelo://app?vid=3f8a925a-6a54-4259-a38f-9cf091aab246","ios":"levelo://app?vid=3f8a925a-6a54-4259-a38f-9cf091aab246"},"vehicle_type_id":"4","last_reported":1687709314,"current_range_meters":15600,"station_id":"","pricing_plan_id":"free"},{"bike_id":"c180ae38-f769-441f-8a55-5a6e4930e6ad","system_id":"levelo_inurba_marseille","lat":43.3375,"lon":5.37439,"is_reserved":false,"is_disabled":false,"rental_uris":{"android":"levelo://app?vid=c180ae38-f769-441f-8a55-5a6e4930e6ad","ios":"levelo://app?vid=c180ae38-f769-441f-8a55-5a6e4930e6ad"},"vehicle_type_id":"4","last_reported":1687709314,"current_range_meters":20400,"station_id":"","pricing_plan_id":"free"},{"bike_id":"7cf86e1d-5cd8-487a-88c5-b089e317b65c","system_id":"levelo_inurba_marseille","lat":43.309371,"lon":5.401449,"is_reserved":false,"is_disabled":false,"rental_uris":{"android":"levelo://app?vid=7cf86e1d-5cd8-487a-88c5-b089e317b65c","ios":"levelo://app?vid=7cf86e1d-5cd8-487a-88c5-b089e317b65c"},"vehicle_type_id":"4","last_reported":1687709314,"current_range_meters":16400,"station_id":"ce4bgvp2rcd13ifvqct0","pricing_plan_id":"free"},{"bike_id":"658c4690-f2ba-40bb-ab3e-bf47e97a4585","system_id":"levelo_inurba_marseille","lat":43.309371,"lon":5.401449,"is_reserved":false,"is_disabled":false,"rental_uris":{"android":"levelo://app?vid=658c4690-f2ba-40bb-ab3e-bf47e97a4585","ios":"levelo://app?vid=658c4690-f2ba-40bb-ab3e-bf47e97a4585"},"vehicle_type_id":"4","last_reported":1687709314,"current_range_meters":800,"station_id":"ce4bgvp2rcd13ifvqct0","pricing_plan_id":"free"},{"bike_id":"42467928-9718-4905-a83f-4a0a594fb894","system_id":"levelo_inurba_marseille","lat":43.33758,"lon":5.37465,"is_reserved":false,"is_disabled":false,"rental_uris":{"android":"levelo://app?vid=42467928-9718-4905-a83f-4a0a594fb894","ios":"levelo://app?vid=42467928-9718-4905-a83f-4a0a594fb894"},"vehicle_type_id":"4","last_reported":1687709314,"current_range_meters":27200,"station_id":"","pricing_plan_id":"free"},{"bike_id":"71e22656-dfab-41f5-8e41-b107beaa2b5e","system_id":"levelo_inurba_marseille","lat":43.298681,"lon":5.397225,"is_reserved":false,"is_disabled":false,"rental_uris":{"android":"levelo://app?vid=71e22656-dfab-41f5-8e41-b107beaa2b5e","ios":"levelo://app?vid=71e22656-dfab-41f5-8e41-b107beaa2b5e"},"vehicle_type_id":"4","last_reported":1687709314,"current_range_meters":14400,"station_id":"ce4bh0h2rcd13ifvqd50","pricing_plan_id":"free"},{"bike_id":"ba9d8ab8-2e27-4201-91e4-697281d59e9e","system_id":"levelo_inurba_marseille","lat":43.286591,"lon":5.363346,"is_reserved":false,"is_disabled":false,"rental_uris":{"android":"levelo://app?vid=ba9d8ab8-2e27-4201-91e4-697281d59e9e","ios":"levelo://app?vid=ba9d8ab8-2e27-4201-91e4-697281d59e9e"},"vehicle_type_id":"4","last_reported":1687709314,"current_range_meters":22000,"station_id":"ce4bhah2rcd13ifvqej0","pricing_plan_id":"free"},{"bike_id":"8c9cd6fb-288d-485c-978b-51a17469a46f","system_id":"levelo_inurba_marseille","lat":43.286039,"lon":5.370679,"is_reserved":false,"is_disabled":false,"rental_uris":{"android":"levelo://app?vid=8c9cd6fb-288d-485c-978b-51a17469a46f","ios":"levelo://app?vid=8c9cd6fb-288d-485c-978b-51a17469a46f"},"vehicle_type_id":"4","last_reported":1687709314,"current_range_meters":26400,"station_id":"ce4bht12rcd13ifvqi60","pricing_plan_id":"free"},{"bike_id":"92f46049-4355-401b-bd2f-fca571838f0c","system_id":"levelo_inurba_marseille","lat":43.3009,"lon":5.40087,"is_reserved":false,"is_disabled":false,"rental_uris":{"android":"levelo://app?vid=92f46049-4355-401b-bd2f-fca571838f0c","ios":"levelo://app?vid=92f46049-4355-401b-bd2f-fca571838f0c"},"vehicle_type_id":"4","last_reported":1687709314,"current_range_meters":1600,"station_id":"","pricing_plan_id":"free"},{"bike_id":"1595ad8a-7c9c-4ad7-9392-45f7f188f448","system_id":"levelo_inurba_marseille","lat":43.28808,"lon":5.38345,"is_reserved":false,"is_disabled":false,"rental_uris":{"android":"levelo://app?vid=1595ad8a-7c9c-4ad7-9392-45f7f188f448","ios":"levelo://app?vid=1595ad8a-7c9c-4ad7-9392-45f7f188f448"},"vehicle_type_id":"4","last_reported":1687709314,"current_range_meters":10000,"station_id":"","pricing_plan_id":"free"},{"bike_id":"d69fed3a-efe9-46fb-b1dc-1240b8978d3e","system_id":"levelo_inurba_marseille","lat":43.316517,"lon":5.404375,"is_reserved":false,"is_disabled":false,"rental_uris":{"android":"levelo://app?vid=d69fed3a-efe9-46fb-b1dc-1240b8978d3e","ios":"levelo://app?vid=d69fed3a-efe9-46fb-b1dc-1240b8978d3e"},"vehicle_type_id":"4","last_reported":1687709314,"current_range_meters":13600,"station_id":"ce4bh012rcd13ifvqd00","pricing_plan_id":"free"},{"bike_id":"fdf2dfa7-54a8-4ba3-9642-ae9ef89032ee","system_id":"levelo_inurba_marseille","lat":43.291994,"lon":5.392907,"is_reserved":false,"is_disabled":false,"rental_uris":{"android":"levelo://app?vid=fdf2dfa7-54a8-4ba3-9642-ae9ef89032ee","ios":"levelo://app?vid=fdf2dfa7-54a8-4ba3-9642-ae9ef89032ee"},"vehicle_type_id":"4","last_reported":1687709314,"current_range_meters":7600,"station_id":"ce4bh192rcd13ifvqdd0","pricing_plan_id":"free"},{"bike_id":"afd83d71-febc-4120-ab09-2176653fb8e8","system_id":"levelo_inurba_marseille","lat":43.292011,"lon":5.393279,"is_reserved":false,"is_disabled":false,"rental_uris":{"android":"levelo://app?vid=afd83d71-febc-4120-ab09-2176653fb8e8","ios":"levelo://app?vid=afd83d71-febc-4120-ab09-2176653fb8e8"},"vehicle_type_id":"4","last_reported":1687709314,"current_range_meters":14800,"station_id":"","pricing_plan_id":"free"},{"bike_id":"fe89c243-1422-4f4f-8158-fcf0e665c048","system_id":"levelo_inurba_marseille","lat":43.284534,"lon":5.358662,"is_reserved":false,"is_disabled":false,"rental_uris":{"android":"levelo://app?vid=fe89c243-1422-4f4f-8158-fcf0e665c048","ios":"levelo://app?vid=fe89c243-1422-4f4f-8158-fcf0e665c048"},"vehicle_type_id":"4","last_reported":1687709314,"current_range_meters":6400,"station_id":"ce4bhah2rcd13ifvqei0","pricing_plan_id":"free"},{"bike_id":"93d0ea6e-f0d9-47ba-a051-eabb7589eb1a","system_id":"levelo_inurba_marseille","lat":43.284534,"lon":5.358662,"is_reserved":false,"is_disabled":false,"rental_uris":{"android":"levelo://app?vid=93d0ea6e-f0d9-47ba-a051-eabb7589eb1a","ios":"levelo://app?vid=93d0ea6e-f0d9-47ba-a051-eabb7589eb1a"},"vehicle_type_id":"4","last_reported":1687709314,"current_range_meters":8000,"station_id":"ce4bhah2rcd13ifvqei0","pricing_plan_id":"free"},{"bike_id":"a486d955-64ef-4ef2-b2d7-93db1df9a162","system_id":"levelo_inurba_marseille","lat":43.28616,"lon":5.35105,"is_reserved":false,"is_disabled":false,"rental_uris":{"android":"levelo://app?vid=a486d955-64ef-4ef2-b2d7-93db1df9a162","ios":"levelo://app?vid=a486d955-64ef-4ef2-b2d7-93db1df9a162"},"vehicle_type_id":"4","last_reported":1687709314,"current_range_meters":2400,"station_id":"ce4bhch2rcd13ifvqeug","pricing_plan_id":"free"},{"bike_id":"d2c6a047-fc60-46c7-bf7a-2655eb3a8ba4","system_id":"levelo_inurba_marseille","lat":43.28599,"lon":5.35099,"is_reserved":false,"is_disabled":false,"rental_uris":{"android":"levelo://app?vid=d2c6a047-fc60-46c7-bf7a-2655eb3a8ba4","ios":"levelo://app?vid=d2c6a047-fc60-46c7-bf7a-2655eb3a8ba4"},"vehicle_type_id":"4","last_reported":1687709314,"current_range_meters":0,"station_id":"","pricing_plan_id":"free"},{"bike_id":"7c0bbcf9-4499-4a1e-be6b-effe1f6db7d4","system_id":"levelo_inurba_marseille","lat":43.323464,"lon":5.406297,"is_reserved":false,"is_disabled":false,"rental_uris":{"android":"levelo://app?vid=7c0bbcf9-4499-4a1e-be6b-effe1f6db7d4","ios":"levelo://app?vid=7c0bbcf9-4499-4a1e-be6b-effe1f6db7d4"},"vehicle_type_id":"4","last_reported":1687709314,"current_range_meters":31200,"station_id":"ce4bhq92rcd13ifvqhjg","pricing_plan_id":"free"},{"bike_id":"165784fd-8cb0-48fe-8681-d7abe54a6cf4","system_id":"levelo_inurba_marseille","lat":43.32276,"lon":5.40654,"is_reserved":false,"is_disabled":false,"rental_uris":{"android":"levelo://app?vid=165784fd-8cb0-48fe-8681-d7abe54a6cf4","ios":"levelo://app?vid=165784fd-8cb0-48fe-8681-d7abe54a6cf4"},"vehicle_type_id":"4","last_reported":1687709314,"current_range_meters":25600,"station_id":"","pricing_plan_id":"free"},{"bike_id":"75df932c-8191-46cb-b1c7-6fbf7cc8e93f","system_id":"levelo_inurba_marseille","lat":43.284793,"lon":5.384113,"is_reserved":false,"is_disabled":false,"rental_uris":{"android":"levelo://app?vid=75df932c-8191-46cb-b1c7-6fbf7cc8e93f","ios":"levelo://app?vid=75df932c-8191-46cb-b1c7-6fbf7cc8e93f"},"vehicle_type_id":"4","last_reported":1687709314,"current_range_meters":0,"station_id":"ce4bh512rcd13ifvqe3g","pricing_plan_id":"free"},{"bike_id":"ca5d5625-568d-49c8-8d71-d8afb44a67e9","system_id":"levelo_inurba_marseille","lat":43.284787,"lon":5.384116,"is_reserved":false,"is_disabled":false,"rental_uris":{"android":"levelo://app?vid=ca5d5625-568d-49c8-8d71-d8afb44a67e9","ios":"levelo://app?vid=ca5d5625-568d-49c8-8d71-d8afb44a67e9"},"vehicle_type_id":"4","last_reported":1687709314,"current_range_meters":17600,"station_id":"ce4bh512rcd13ifvqe3g","pricing_plan_id":"free"},{"bike_id":"b4c950db-352f-4a1a-8e3c-c05101a6dad0","system_id":"levelo_inurba_marseille","lat":43.288501,"lon":5.393087,"is_reserved":false,"is_disabled":false,"rental_uris":{"android":"levelo://app?vid=b4c950db-352f-4a1a-8e3c-c05101a6dad0","ios":"levelo://app?vid=b4c950db-352f-4a1a-8e3c-c05101a6dad0"},"vehicle_type_id":"4","last_reported":1687709314,"current_range_meters":31200,"station_id":"ce4bh2p2rcd13ifvqdi0","pricing_plan_id":"free"},{"bike_id":"ef7c5be1-d210-4ec7-b8c5-6849d1be2e90","system_id":"levelo_inurba_marseille","lat":43.284217,"lon":5.349697,"is_reserved":false,"is_disabled":false,"rental_uris":{"android":"levelo://app?vid=ef7c5be1-d210-4ec7-b8c5-6849d1be2e90","ios":"levelo://app?vid=ef7c5be1-d210-4ec7-b8c5-6849d1be2e90"},"vehicle_type_id":"4","last_reported":1687709314,"current_range_meters":9200,"station_id":"ce4bhbh2rcd13ifvqepg","pricing_plan_id":"free"},{"bike_id":"24f85280-7901-4381-93c3-60d92fa14a21","system_id":"levelo_inurba_marseille","lat":43.284462,"lon":5.392121,"is_reserved":false,"is_disabled":false,"rental_uris":{"android":"levelo://app?vid=24f85280-7901-4381-93c3-60d92fa14a21","ios":"levelo://app?vid=24f85280-7901-4381-93c3-60d92fa14a21"},"vehicle_type_id":"4","last_reported":1687709314,"current_range_meters":4000,"station_id":"ce4bhoh2rcd13ifvqh5g","pricing_plan_id":"free"},{"bike_id":"899ca437-e6f9-49b3-b575-f6ae27171954","system_id":"levelo_inurba_marseille","lat":43.326605,"lon":5.409903,"is_reserved":false,"is_disabled":false,"rental_uris":{"android":"levelo://app?vid=899ca437-e6f9-49b3-b575-f6ae27171954","ios":"levelo://app?vid=899ca437-e6f9-49b3-b575-f6ae27171954"},"vehicle_type_id":"4","last_reported":1687709314,"current_range_meters":31200,"station_id":"ce4bhpp2rcd13ifvqhgg","pricing_plan_id":"free"},{"bike_id":"ebeb8ff5-e51c-4b18-b07a-c62304e88b17","system_id":"levelo_inurba_marseille","lat":43.326605,"lon":5.409903,"is_reserved":false,"is_disabled":false,"rental_uris":{"android":"levelo://app?vid=ebeb8ff5-e51c-4b18-b07a-c62304e88b17","ios":"levelo://app?vid=ebeb8ff5-e51c-4b18-b07a-c62304e88b17"},"vehicle_type_id":"4","last_reported":1687709314,"current_range_meters":31200,"station_id":"ce4bhpp2rcd13ifvqhgg","pricing_plan_id":"free"},{"bike_id":"ff60adae-f71a-4e2f-9c03-c28e9ecc3c45","system_id":"levelo_inurba_marseille","lat":43.326605,"lon":5.409903,"is_reserved":false,"is_disabled":false,"rental_uris":{"android":"levelo://app?vid=ff60adae-f71a-4e2f-9c03-c28e9ecc3c45","ios":"levelo://app?vid=ff60adae-f71a-4e2f-9c03-c28e9ecc3c45"},"vehicle_type_id":"4","last_reported":1687709314,"current_range_meters":31200,"station_id":"ce4bhpp2rcd13ifvqhgg","pricing_plan_id":"free"},{"bike_id":"7f4e5f33-3d6b-4470-b773-9bb881f7fc86","system_id":"levelo_inurba_marseille","lat":43.326576,"lon":5.409933,"is_reserved":false,"is_disabled":false,"rental_uris":{"android":"levelo://app?vid=7f4e5f33-3d6b-4470-b773-9bb881f7fc86","ios":"levelo://app?vid=7f4e5f33-3d6b-4470-b773-9bb881f7fc86"},"vehicle_type_id":"4","last_reported":1687709314,"current_range_meters":0,"station_id":"ce4bhpp2rcd13ifvqhgg","pricing_plan_id":"free"},{"bike_id":"e5f19913-67c1-4c42-889b-a58207584fb0","system_id":"levelo_inurba_marseille","lat":43.326605,"lon":5.409903,"is_reserved":false,"is_disabled":false,"rental_uris":{"android":"levelo://app?vid=e5f19913-67c1-4c42-889b-a58207584fb0","ios":"levelo://app?vid=e5f19913-67c1-4c42-889b-a58207584fb0"},"vehicle_type_id":"4","last_reported":1687709314,"current_range_meters":23600,"station_id":"ce4bhpp2rcd13ifvqhgg","pricing_plan_id":"free"},{"bike_id":"6801bb0a-29fd-4b30-9568-49b14111fe9c","system_id":"levelo_inurba_marseille","lat":43.30412,"lon":5.41267,"is_reserved":false,"is_disabled":false,"rental_uris":{"android":"levelo://app?vid=6801bb0a-29fd-4b30-9568-49b14111fe9c","ios":"levelo://app?vid=6801bb0a-29fd-4b30-9568-49b14111fe9c"},"vehicle_type_id":"4","last_reported":1687709314,"current_range_meters":20400,"station_id":"ce4bhop2rcd13ifvqh8g","pricing_plan_id":"free"},{"bike_id":"50fd953c-9754-45f4-aec7-ae52bb9eb6fe","system_id":"levelo_inurba_marseille","lat":43.287154,"lon":5.399979,"is_reserved":false,"is_disabled":false,"rental_uris":{"android":"levelo://app?vid=50fd953c-9754-45f4-aec7-ae52bb9eb6fe","ios":"levelo://app?vid=50fd953c-9754-45f4-aec7-ae52bb9eb6fe"},"vehicle_type_id":"4","last_reported":1687709314,"current_range_meters":31200,"station_id":"ce4bho92rcd13ifvqh3g","pricing_plan_id":"free"},{"bike_id":"80d6db9b-ef6d-49db-be04-2e4c56c0cad4","system_id":"levelo_inurba_marseille","lat":43.27621,"lon":5.36094,"is_reserved":false,"is_disabled":false,"rental_uris":{"android":"levelo://app?vid=80d6db9b-ef6d-49db-be04-2e4c56c0cad4","ios":"levelo://app?vid=80d6db9b-ef6d-49db-be04-2e4c56c0cad4"},"vehicle_type_id":"4","last_reported":1687709314,"current_range_meters":16400,"station_id":"ce4bgj92rcd13ifvqbe0","pricing_plan_id":"free"},{"bike_id":"6b081579-5bc6-4147-a52b-60a25fbaf4d1","system_id":"levelo_inurba_marseille","lat":43.325233,"lon":5.414318,"is_reserved":false,"is_disabled":false,"rental_uris":{"android":"levelo://app?vid=6b081579-5bc6-4147-a52b-60a25fbaf4d1","ios":"levelo://app?vid=6b081579-5bc6-4147-a52b-60a25fbaf4d1"},"vehicle_type_id":"4","last_reported":1687709314,"current_range_meters":29200,"station_id":"ce4bhq12rcd13ifvqhhg","pricing_plan_id":"free"},{"bike_id":"7660f673-8df6-412f-97ad-cd265038ffb6","system_id":"levelo_inurba_marseille","lat":43.27613,"lon":5.36104,"is_reserved":false,"is_disabled":false,"rental_uris":{"android":"levelo://app?vid=7660f673-8df6-412f-97ad-cd265038ffb6","ios":"levelo://app?vid=7660f673-8df6-412f-97ad-cd265038ffb6"},"vehicle_type_id":"4","last_reported":1687709314,"current_range_meters":11200,"station_id":"ce4bgj92rcd13ifvqbe0","pricing_plan_id":"free"},{"bike_id":"adf0ea61-0d73-49a9-81f8-7ebe6388818f","system_id":"levelo_inurba_marseille","lat":43.325243,"lon":5.414326,"is_reserved":false,"is_disabled":false,"rental_uris":{"android":"levelo://app?vid=adf0ea61-0d73-49a9-81f8-7ebe6388818f","ios":"levelo://app?vid=adf0ea61-0d73-49a9-81f8-7ebe6388818f"},"vehicle_type_id":"4","last_reported":1687709314,"current_range_meters":20800,"station_id":"ce4bhq12rcd13ifvqhhg","pricing_plan_id":"free"},{"bike_id":"e73900ad-bdf3-48b5-892e-cbd3af007b28","system_id":"levelo_inurba_marseille","lat":43.325233,"lon":5.414318,"is_reserved":false,"is_disabled":false,"rental_uris":{"android":"levelo://app?vid=e73900ad-bdf3-48b5-892e-cbd3af007b28","ios":"levelo://app?vid=e73900ad-bdf3-48b5-892e-cbd3af007b28"},"vehicle_type_id":"4","last_reported":1687709314,"current_range_meters":28800,"station_id":"ce4bhq12rcd13ifvqhhg","pricing_plan_id":"free"},{"bike_id":"9c678b3e-014f-4f24-a1e5-9be4c4a1433f","system_id":"levelo_inurba_marseille","lat":43.27828,"lon":5.39206,"is_reserved":false,"is_disabled":false,"rental_uris":{"android":"levelo://app?vid=9c678b3e-014f-4f24-a1e5-9be4c4a1433f","ios":"levelo://app?vid=9c678b3e-014f-4f24-a1e5-9be4c4a1433f"},"vehicle_type_id":"4","last_reported":1687709314,"current_range_meters":28800,"station_id":"ce4bhjp2rcd13ifvqga0","pricing_plan_id":"free"},{"bike_id":"d80d7530-aa01-4c30-b8b9-729116c96265","system_id":"levelo_inurba_marseille","lat":43.27664,"lon":5.38876,"is_reserved":false,"is_disabled":false,"rental_uris":{"android":"levelo://app?vid=d80d7530-aa01-4c30-b8b9-729116c96265","ios":"levelo://app?vid=d80d7530-aa01-4c30-b8b9-729116c96265"},"vehicle_type_id":"4","last_reported":1687709314,"current_range_meters":3200,"station_id":"ce4bhi12rcd13ifvqfo0","pricing_plan_id":"free"},{"bike_id":"558b88ea-dce2-4c5d-b943-88e77e682d02","system_id":"levelo_inurba_marseille","lat":43.31713,"lon":5.42404,"is_reserved":false,"is_disabled":false,"rental_uris":{"android":"levelo://app?vid=558b88ea-dce2-4c5d-b943-88e77e682d02","ios":"levelo://app?vid=558b88ea-dce2-4c5d-b943-88e77e682d02"},"vehicle_type_id":"4","last_reported":1687709314,"current_range_meters":28400,"station_id":"ce4bhp92rcd13ifvqhbg","pricing_plan_id":"free"},{"bike_id":"f8203076-e3ed-4088-9675-82c08ab54a2e","system_id":"levelo_inurba_marseille","lat":43.273129,"lon":5.390725,"is_reserved":false,"is_disabled":false,"rental_uris":{"android":"levelo://app?vid=f8203076-e3ed-4088-9675-82c08ab54a2e","ios":"levelo://app?vid=f8203076-e3ed-4088-9675-82c08ab54a2e"},"vehicle_type_id":"4","last_reported":1687709314,"current_range_meters":12800,"station_id":"ce4bhgp2rcd13ifvqfe0","pricing_plan_id":"free"},{"bike_id":"01208fbe-9431-4ed6-ac1f-e90329c35bdb","system_id":"levelo_inurba_marseille","lat":43.26955,"lon":5.36633,"is_reserved":false,"is_disabled":false,"rental_uris":{"android":"levelo://app?vid=01208fbe-9431-4ed6-ac1f-e90329c35bdb","ios":"levelo://app?vid=01208fbe-9431-4ed6-ac1f-e90329c35bdb"},"vehicle_type_id":"4","last_reported":1687709314,"current_range_meters":0,"station_id":"","pricing_plan_id":"free"},{"bike_id":"d8f79eac-4b4a-4cf7-b1c3-bf0cc4b2d2bb","system_id":"levelo_inurba_marseille","lat":43.273125,"lon":5.390731,"is_reserved":false,"is_disabled":false,"rental_uris":{"android":"levelo://app?vid=d8f79eac-4b4a-4cf7-b1c3-bf0cc4b2d2bb","ios":"levelo://app?vid=d8f79eac-4b4a-4cf7-b1c3-bf0cc4b2d2bb"},"vehicle_type_id":"4","last_reported":1687709314,"current_range_meters":12800,"station_id":"ce4bhgp2rcd13ifvqfe0","pricing_plan_id":"free"},{"bike_id":"ba96d21b-04af-46c8-8898-c72826aa6eb6","system_id":"levelo_inurba_marseille","lat":43.273125,"lon":5.390731,"is_reserved":false,"is_disabled":false,"rental_uris":{"android":"levelo://app?vid=ba96d21b-04af-46c8-8898-c72826aa6eb6","ios":"levelo://app?vid=ba96d21b-04af-46c8-8898-c72826aa6eb6"},"vehicle_type_id":"4","last_reported":1687709314,"current_range_meters":0,"station_id":"ce4bhgp2rcd13ifvqfe0","pricing_plan_id":"free"},{"bike_id":"ff5af6b8-e59d-4e5a-8e1c-008453ba1d79","system_id":"levelo_inurba_marseille","lat":43.26925,"lon":5.36714,"is_reserved":false,"is_disabled":false,"rental_uris":{"android":"levelo://app?vid=ff5af6b8-e59d-4e5a-8e1c-008453ba1d79","ios":"levelo://app?vid=ff5af6b8-e59d-4e5a-8e1c-008453ba1d79"},"vehicle_type_id":"4","last_reported":1687709314,"current_range_meters":5600,"station_id":"","pricing_plan_id":"free"},{"bike_id":"28cf8a12-f787-4419-8cba-956be39ba6c8","system_id":"levelo_inurba_marseille","lat":43.304096,"lon":5.425385,"is_reserved":false,"is_disabled":false,"rental_uris":{"android":"levelo://app?vid=28cf8a12-f787-4419-8cba-956be39ba6c8","ios":"levelo://app?vid=28cf8a12-f787-4419-8cba-956be39ba6c8"},"vehicle_type_id":"4","last_reported":1687709314,"current_range_meters":21200,"station_id":"ce4bhoh2rcd13ifvqh6g","pricing_plan_id":"free"},{"bike_id":"117d647f-a6aa-46cb-ac80-36c5fc38f1f7","system_id":"levelo_inurba_marseille","lat":43.26869,"lon":5.37031,"is_reserved":false,"is_disabled":false,"rental_uris":{"android":"levelo://app?vid=117d647f-a6aa-46cb-ac80-36c5fc38f1f7","ios":"levelo://app?vid=117d647f-a6aa-46cb-ac80-36c5fc38f1f7"},"vehicle_type_id":"4","last_reported":1687709314,"current_range_meters":28000,"station_id":"","pricing_plan_id":"free"},{"bike_id":"e958e9f7-963a-45ac-9462-a90c3b9c146c","system_id":"levelo_inurba_marseille","lat":43.295511,"lon":5.422926,"is_reserved":false,"is_disabled":false,"rental_uris":{"android":"levelo://app?vid=e958e9f7-963a-45ac-9462-a90c3b9c146c","ios":"levelo://app?vid=e958e9f7-963a-45ac-9462-a90c3b9c146c"},"vehicle_type_id":"4","last_reported":1687709314,"current_range_meters":31200,"station_id":"ce4bhph2rcd13ifvqhdg","pricing_plan_id":"free"},{"bike_id":"4482a211-78a4-4bbb-9c01-3ca0b06cec37","system_id":"levelo_inurba_marseille","lat":43.295511,"lon":5.422926,"is_reserved":false,"is_disabled":false,"rental_uris":{"android":"levelo://app?vid=4482a211-78a4-4bbb-9c01-3ca0b06cec37","ios":"levelo://app?vid=4482a211-78a4-4bbb-9c01-3ca0b06cec37"},"vehicle_type_id":"4","last_reported":1687709314,"current_range_meters":3200,"station_id":"ce4bhph2rcd13ifvqhdg","pricing_plan_id":"free"},{"bike_id":"4fa21102-9c5c-4785-8da0-3d7f957b0c31","system_id":"levelo_inurba_marseille","lat":43.272118,"lon":5.391758,"is_reserved":false,"is_disabled":false,"rental_uris":{"android":"levelo://app?vid=4fa21102-9c5c-4785-8da0-3d7f957b0c31","ios":"levelo://app?vid=4fa21102-9c5c-4785-8da0-3d7f957b0c31"},"vehicle_type_id":"4","last_reported":1687709314,"current_range_meters":28000,"station_id":"ce4bhhp2rcd13ifvqfm0","pricing_plan_id":"free"},{"bike_id":"8a8c969b-2e3a-4eba-8e9a-d7a4678d6147","system_id":"levelo_inurba_marseille","lat":43.278128,"lon":5.407195,"is_reserved":false,"is_disabled":false,"rental_uris":{"android":"levelo://app?vid=8a8c969b-2e3a-4eba-8e9a-d7a4678d6147","ios":"levelo://app?vid=8a8c969b-2e3a-4eba-8e9a-d7a4678d6147"},"vehicle_type_id":"4","last_reported":1687709314,"current_range_meters":21200,"station_id":"ce4bhnh2rcd13ifvqgtg","pricing_plan_id":"free"},{"bike_id":"4c0c9260-1771-4932-b3eb-e3763651de23","system_id":"levelo_inurba_marseille","lat":43.278128,"lon":5.407195,"is_reserved":false,"is_disabled":false,"rental_uris":{"android":"levelo://app?vid=4c0c9260-1771-4932-b3eb-e3763651de23","ios":"levelo://app?vid=4c0c9260-1771-4932-b3eb-e3763651de23"},"vehicle_type_id":"4","last_reported":1687709314,"current_range_meters":8000,"station_id":"ce4bhnh2rcd13ifvqgtg","pricing_plan_id":"free"},{"bike_id":"ae48766c-6c0d-4da9-9196-f1c972db2e46","system_id":"levelo_inurba_marseille","lat":43.278128,"lon":5.407195,"is_reserved":false,"is_disabled":false,"rental_uris":{"android":"levelo://app?vid=ae48766c-6c0d-4da9-9196-f1c972db2e46","ios":"levelo://app?vid=ae48766c-6c0d-4da9-9196-f1c972db2e46"},"vehicle_type_id":"4","last_reported":1687709314,"current_range_meters":26800,"station_id":"ce4bhnh2rcd13ifvqgtg","pricing_plan_id":"free"},{"bike_id":"c54b9bca-7dcc-411d-9ee3-bd6142cc4b73","system_id":"levelo_inurba_marseille","lat":43.278128,"lon":5.407195,"is_reserved":false,"is_disabled":false,"rental_uris":{"android":"levelo://app?vid=c54b9bca-7dcc-411d-9ee3-bd6142cc4b73","ios":"levelo://app?vid=c54b9bca-7dcc-411d-9ee3-bd6142cc4b73"},"vehicle_type_id":"4","last_reported":1687709314,"current_range_meters":16400,"station_id":"ce4bhnh2rcd13ifvqgtg","pricing_plan_id":"free"},{"bike_id":"cfbefa1e-612e-4c66-ba3f-dd4b98c5ff7e","system_id":"levelo_inurba_marseille","lat":43.269467,"lon":5.386439,"is_reserved":false,"is_disabled":false,"rental_uris":{"android":"levelo://app?vid=cfbefa1e-612e-4c66-ba3f-dd4b98c5ff7e","ios":"levelo://app?vid=cfbefa1e-612e-4c66-ba3f-dd4b98c5ff7e"},"vehicle_type_id":"4","last_reported":1687709314,"current_range_meters":800,"station_id":"ce4bhh92rcd13ifvqfh0","pricing_plan_id":"free"},{"bike_id":"25dc32c5-c5b7-4ee6-aae5-72fff429a0ee","system_id":"levelo_inurba_marseille","lat":43.26809,"lon":5.394,"is_reserved":false,"is_disabled":false,"rental_uris":{"android":"levelo://app?vid=25dc32c5-c5b7-4ee6-aae5-72fff429a0ee","ios":"levelo://app?vid=25dc32c5-c5b7-4ee6-aae5-72fff429a0ee"},"vehicle_type_id":"4","last_reported":1687709314,"current_range_meters":6400,"station_id":"","pricing_plan_id":"free"},{"bike_id":"3344b3fb-bb37-4d4b-8736-6bb9a1b600a4","system_id":"levelo_inurba_marseille","lat":43.27988,"lon":5.41658,"is_reserved":false,"is_disabled":false,"rental_uris":{"android":"levelo://app?vid=3344b3fb-bb37-4d4b-8736-6bb9a1b600a4","ios":"levelo://app?vid=3344b3fb-bb37-4d4b-8736-6bb9a1b600a4"},"vehicle_type_id":"4","last_reported":1687709314,"current_range_meters":26400,"station_id":"ce4bho12rcd13ifvqh1g","pricing_plan_id":"free"},{"bike_id":"33cad336-ca87-49e4-9aa8-30c745d85156","system_id":"levelo_inurba_marseille","lat":43.27996,"lon":5.416624,"is_reserved":false,"is_disabled":false,"rental_uris":{"android":"levelo://app?vid=33cad336-ca87-49e4-9aa8-30c745d85156","ios":"levelo://app?vid=33cad336-ca87-49e4-9aa8-30c745d85156"},"vehicle_type_id":"4","last_reported":1687709314,"current_range_meters":14800,"station_id":"ce4bho12rcd13ifvqh1g","pricing_plan_id":"free"},{"bike_id":"aaaa39e2-74f3-4584-85c0-5cda2f86a276","system_id":"levelo_inurba_marseille","lat":43.267966,"lon":5.393976,"is_reserved":false,"is_disabled":false,"rental_uris":{"android":"levelo://app?vid=aaaa39e2-74f3-4584-85c0-5cda2f86a276","ios":"levelo://app?vid=aaaa39e2-74f3-4584-85c0-5cda2f86a276"},"vehicle_type_id":"4","last_reported":1687709314,"current_range_meters":12800,"station_id":"ce4bhh12rcd13ifvqfg0","pricing_plan_id":"free"},{"bike_id":"d4f264e3-ecf8-4f1c-bc2e-778acd680520","system_id":"levelo_inurba_marseille","lat":43.30799,"lon":5.43519,"is_reserved":false,"is_disabled":false,"rental_uris":{"android":"levelo://app?vid=d4f264e3-ecf8-4f1c-bc2e-778acd680520","ios":"levelo://app?vid=d4f264e3-ecf8-4f1c-bc2e-778acd680520"},"vehicle_type_id":"4","last_reported":1687709314,"current_range_meters":11600,"station_id":"ce4bhph2rcd13ifvqheg","pricing_plan_id":"free"},{"bike_id":"46e67c8b-b6c3-4c76-8fb1-57c130e6fc17","system_id":"levelo_inurba_marseille","lat":43.308051,"lon":5.43527,"is_reserved":false,"is_disabled":false,"rental_uris":{"android":"levelo://app?vid=46e67c8b-b6c3-4c76-8fb1-57c130e6fc17","ios":"levelo://app?vid=46e67c8b-b6c3-4c76-8fb1-57c130e6fc17"},"vehicle_type_id":"4","last_reported":1687709314,"current_range_meters":17600,"station_id":"ce4bhph2rcd13ifvqheg","pricing_plan_id":"free"},{"bike_id":"d2e70966-95eb-489f-8366-135354866108","system_id":"levelo_inurba_marseille","lat":43.30806,"lon":5.43524,"is_reserved":false,"is_disabled":false,"rental_uris":{"android":"levelo://app?vid=d2e70966-95eb-489f-8366-135354866108","ios":"levelo://app?vid=d2e70966-95eb-489f-8366-135354866108"},"vehicle_type_id":"4","last_reported":1687709314,"current_range_meters":17200,"station_id":"ce4bhph2rcd13ifvqheg","pricing_plan_id":"free"},{"bike_id":"edc3ebe4-9a7c-43b9-bd79-3b964ef5926b","system_id":"levelo_inurba_marseille","lat":43.30795,"lon":5.43524,"is_reserved":false,"is_disabled":false,"rental_uris":{"android":"levelo://app?vid=edc3ebe4-9a7c-43b9-bd79-3b964ef5926b","ios":"levelo://app?vid=edc3ebe4-9a7c-43b9-bd79-3b964ef5926b"},"vehicle_type_id":"4","last_reported":1687709314,"current_range_meters":27600,"station_id":"ce4bhph2rcd13ifvqheg","pricing_plan_id":"free"},{"bike_id":"59cbe1eb-44df-451e-bdc0-ab214cabfe39","system_id":"levelo_inurba_marseille","lat":43.26321,"lon":5.37576,"is_reserved":false,"is_disabled":false,"rental_uris":{"android":"levelo://app?vid=59cbe1eb-44df-451e-bdc0-ab214cabfe39","ios":"levelo://app?vid=59cbe1eb-44df-451e-bdc0-ab214cabfe39"},"vehicle_type_id":"4","last_reported":1687709314,"current_range_meters":8000,"station_id":"","pricing_plan_id":"free"},{"bike_id":"4d209566-1427-47ac-9d19-9043b349909c","system_id":"levelo_inurba_marseille","lat":43.30801,"lon":5.43528,"is_reserved":false,"is_disabled":false,"rental_uris":{"android":"levelo://app?vid=4d209566-1427-47ac-9d19-9043b349909c","ios":"levelo://app?vid=4d209566-1427-47ac-9d19-9043b349909c"},"vehicle_type_id":"4","last_reported":1687709314,"current_range_meters":20800,"station_id":"ce4bhph2rcd13ifvqheg","pricing_plan_id":"free"},{"bike_id":"8e97fe38-5a60-4d13-a85d-83eee6934415","system_id":"levelo_inurba_marseille","lat":43.2656,"lon":5.38996,"is_reserved":false,"is_disabled":false,"rental_uris":{"android":"levelo://app?vid=8e97fe38-5a60-4d13-a85d-83eee6934415","ios":"levelo://app?vid=8e97fe38-5a60-4d13-a85d-83eee6934415"},"vehicle_type_id":"4","last_reported":1687709314,"current_range_meters":28800,"station_id":"","pricing_plan_id":"free"},{"bike_id":"19b037bb-10fe-4844-b609-ef5f49cc8a34","system_id":"levelo_inurba_marseille","lat":43.265569,"lon":5.390047,"is_reserved":false,"is_disabled":false,"rental_uris":{"android":"levelo://app?vid=19b037bb-10fe-4844-b609-ef5f49cc8a34","ios":"levelo://app?vid=19b037bb-10fe-4844-b609-ef5f49cc8a34"},"vehicle_type_id":"4","last_reported":1687709314,"current_range_meters":25200,"station_id":"ce4bhe12rcd13ifvqf30","pricing_plan_id":"free"},{"bike_id":"3ae75299-b7d9-4045-b68e-6539fb4d66ea","system_id":"levelo_inurba_marseille","lat":43.26561,"lon":5.39006,"is_reserved":false,"is_disabled":false,"rental_uris":{"android":"levelo://app?vid=3ae75299-b7d9-4045-b68e-6539fb4d66ea","ios":"levelo://app?vid=3ae75299-b7d9-4045-b68e-6539fb4d66ea"},"vehicle_type_id":"4","last_reported":1687709314,"current_range_meters":24400,"station_id":"ce4bhe12rcd13ifvqf30","pricing_plan_id":"free"},{"bike_id":"8697f106-050d-44b3-abe2-a693210aa7ed","system_id":"levelo_inurba_marseille","lat":43.26182,"lon":5.37444,"is_reserved":false,"is_disabled":false,"rental_uris":{"android":"levelo://app?vid=8697f106-050d-44b3-abe2-a693210aa7ed","ios":"levelo://app?vid=8697f106-050d-44b3-abe2-a693210aa7ed"},"vehicle_type_id":"4","last_reported":1687709314,"current_range_meters":31600,"station_id":"ce4bhgp2rcd13ifvqfc0","pricing_plan_id":"free"},{"bike_id":"087f43a9-6bb0-4b3e-8e51-bdf5a7e70b48","system_id":"levelo_inurba_marseille","lat":43.267959,"lon":5.402685,"is_reserved":false,"is_disabled":false,"rental_uris":{"android":"levelo://app?vid=087f43a9-6bb0-4b3e-8e51-bdf5a7e70b48","ios":"levelo://app?vid=087f43a9-6bb0-4b3e-8e51-bdf5a7e70b48"},"vehicle_type_id":"4","last_reported":1687709314,"current_range_meters":23600,"station_id":"ce501612rcd8frsf0b60","pricing_plan_id":"free"},{"bike_id":"7cd82a91-5a32-4ffe-85aa-0c38fd58ec33","system_id":"levelo_inurba_marseille","lat":43.29897,"lon":5.43669,"is_reserved":false,"is_disabled":false,"rental_uris":{"android":"levelo://app?vid=7cd82a91-5a32-4ffe-85aa-0c38fd58ec33","ios":"levelo://app?vid=7cd82a91-5a32-4ffe-85aa-0c38fd58ec33"},"vehicle_type_id":"4","last_reported":1687709314,"current_range_meters":20400,"station_id":"","pricing_plan_id":"free"},{"bike_id":"055a308f-85c6-45cf-b61e-a1cb9037d321","system_id":"levelo_inurba_marseille","lat":43.26039,"lon":5.37421,"is_reserved":false,"is_disabled":false,"rental_uris":{"android":"levelo://app?vid=055a308f-85c6-45cf-b61e-a1cb9037d321","ios":"levelo://app?vid=055a308f-85c6-45cf-b61e-a1cb9037d321"},"vehicle_type_id":"4","last_reported":1687709314,"current_range_meters":1200,"station_id":"","pricing_plan_id":"free"},{"bike_id":"85267777-8f82-4677-8fa4-ce7b84d0451d","system_id":"levelo_inurba_marseille","lat":43.2607,"lon":5.393983,"is_reserved":false,"is_disabled":false,"rental_uris":{"android":"levelo://app?vid=85267777-8f82-4677-8fa4-ce7b84d0451d","ios":"levelo://app?vid=85267777-8f82-4677-8fa4-ce7b84d0451d"},"vehicle_type_id":"4","last_reported":1687709314,"current_range_meters":20000,"station_id":"ce4bhh92rcd13ifvqfj0","pricing_plan_id":"free"},{"bike_id":"ebc3e09e-6ece-42e7-8229-ae61c742d992","system_id":"levelo_inurba_marseille","lat":43.2607,"lon":5.393983,"is_reserved":false,"is_disabled":false,"rental_uris":{"android":"levelo://app?vid=ebc3e09e-6ece-42e7-8229-ae61c742d992","ios":"levelo://app?vid=ebc3e09e-6ece-42e7-8229-ae61c742d992"},"vehicle_type_id":"4","last_reported":1687709314,"current_range_meters":24800,"station_id":"ce4bhh92rcd13ifvqfj0","pricing_plan_id":"free"},{"bike_id":"9966800d-ae6c-4058-90c9-1163366f5819","system_id":"levelo_inurba_marseille","lat":43.2606,"lon":5.39397,"is_reserved":false,"is_disabled":false,"rental_uris":{"android":"levelo://app?vid=9966800d-ae6c-4058-90c9-1163366f5819","ios":"levelo://app?vid=9966800d-ae6c-4058-90c9-1163366f5819"},"vehicle_type_id":"4","last_reported":1687709314,"current_range_meters":8000,"station_id":"ce4bhh92rcd13ifvqfj0","pricing_plan_id":"free"},{"bike_id":"cf8495f3-098a-4dd7-8031-4573329caa53","system_id":"levelo_inurba_marseille","lat":43.2607,"lon":5.393983,"is_reserved":false,"is_disabled":false,"rental_uris":{"android":"levelo://app?vid=cf8495f3-098a-4dd7-8031-4573329caa53","ios":"levelo://app?vid=cf8495f3-098a-4dd7-8031-4573329caa53"},"vehicle_type_id":"4","last_reported":1687709314,"current_range_meters":30000,"station_id":"ce4bhh92rcd13ifvqfj0","pricing_plan_id":"free"},{"bike_id":"abe207a3-4e0e-434c-afba-c5a243bfe3d5","system_id":"levelo_inurba_marseille","lat":43.27498,"lon":5.42452,"is_reserved":false,"is_disabled":false,"rental_uris":{"android":"levelo://app?vid=abe207a3-4e0e-434c-afba-c5a243bfe3d5","ios":"levelo://app?vid=abe207a3-4e0e-434c-afba-c5a243bfe3d5"},"vehicle_type_id":"4","last_reported":1687709314,"current_range_meters":31200,"station_id":"ce4bhn92rcd13ifvqgrg","pricing_plan_id":"free"},{"bike_id":"bff03d5d-ed33-491b-bcd6-53aabff4767d","system_id":"levelo_inurba_marseille","lat":43.27496,"lon":5.42455,"is_reserved":false,"is_disabled":false,"rental_uris":{"android":"levelo://app?vid=bff03d5d-ed33-491b-bcd6-53aabff4767d","ios":"levelo://app?vid=bff03d5d-ed33-491b-bcd6-53aabff4767d"},"vehicle_type_id":"4","last_reported":1687709314,"current_range_meters":28800,"station_id":"ce4bhn92rcd13ifvqgrg","pricing_plan_id":"free"},{"bike_id":"5ed48503-2b52-46de-a729-48b3f094656b","system_id":"levelo_inurba_marseille","lat":43.27493,"lon":5.42452,"is_reserved":false,"is_disabled":false,"rental_uris":{"android":"levelo://app?vid=5ed48503-2b52-46de-a729-48b3f094656b","ios":"levelo://app?vid=5ed48503-2b52-46de-a729-48b3f094656b"},"vehicle_type_id":"4","last_reported":1687709314,"current_range_meters":27200,"station_id":"ce4bhn92rcd13ifvqgrg","pricing_plan_id":"free"},{"bike_id":"3fe772ae-1854-49e1-a06a-8208e5619d4a","system_id":"levelo_inurba_marseille","lat":43.27492,"lon":5.42451,"is_reserved":false,"is_disabled":false,"rental_uris":{"android":"levelo://app?vid=3fe772ae-1854-49e1-a06a-8208e5619d4a","ios":"levelo://app?vid=3fe772ae-1854-49e1-a06a-8208e5619d4a"},"vehicle_type_id":"4","last_reported":1687709314,"current_range_meters":21200,"station_id":"ce4bhn92rcd13ifvqgrg","pricing_plan_id":"free"},{"bike_id":"90c910d3-59b0-47a4-af54-68c084e3189d","system_id":"levelo_inurba_marseille","lat":43.27495,"lon":5.42455,"is_reserved":false,"is_disabled":false,"rental_uris":{"android":"levelo://app?vid=90c910d3-59b0-47a4-af54-68c084e3189d","ios":"levelo://app?vid=90c910d3-59b0-47a4-af54-68c084e3189d"},"vehicle_type_id":"4","last_reported":1687709314,"current_range_meters":31200,"station_id":"ce4bhn92rcd13ifvqgrg","pricing_plan_id":"free"},{"bike_id":"999188d4-a084-4dd7-9850-db304fb7a2a3","system_id":"levelo_inurba_marseille","lat":43.27491,"lon":5.42451,"is_reserved":false,"is_disabled":false,"rental_uris":{"android":"levelo://app?vid=999188d4-a084-4dd7-9850-db304fb7a2a3","ios":"levelo://app?vid=999188d4-a084-4dd7-9850-db304fb7a2a3"},"vehicle_type_id":"4","last_reported":1687709314,"current_range_meters":23200,"station_id":"ce4bhn92rcd13ifvqgrg","pricing_plan_id":"free"},{"bike_id":"635d6dea-9597-4fad-b488-27889a8b0ed8","system_id":"levelo_inurba_marseille","lat":43.27491,"lon":5.42456,"is_reserved":false,"is_disabled":false,"rental_uris":{"android":"levelo://app?vid=635d6dea-9597-4fad-b488-27889a8b0ed8","ios":"levelo://app?vid=635d6dea-9597-4fad-b488-27889a8b0ed8"},"vehicle_type_id":"4","last_reported":1687709314,"current_range_meters":20800,"station_id":"ce4bhn92rcd13ifvqgrg","pricing_plan_id":"free"},{"bike_id":"1f0605bb-09e4-4cd0-bc5d-aef39b79467d","system_id":"levelo_inurba_marseille","lat":43.27489,"lon":5.42454,"is_reserved":false,"is_disabled":false,"rental_uris":{"android":"levelo://app?vid=1f0605bb-09e4-4cd0-bc5d-aef39b79467d","ios":"levelo://app?vid=1f0605bb-09e4-4cd0-bc5d-aef39b79467d"},"vehicle_type_id":"4","last_reported":1687709314,"current_range_meters":10400,"station_id":"ce4bhn92rcd13ifvqgrg","pricing_plan_id":"free"},{"bike_id":"f0e36f38-b379-47bb-b642-6fcc01682ff1","system_id":"levelo_inurba_marseille","lat":43.27491,"lon":5.42457,"is_reserved":false,"is_disabled":false,"rental_uris":{"android":"levelo://app?vid=f0e36f38-b379-47bb-b642-6fcc01682ff1","ios":"levelo://app?vid=f0e36f38-b379-47bb-b642-6fcc01682ff1"},"vehicle_type_id":"4","last_reported":1687709314,"current_range_meters":10800,"station_id":"ce4bhn92rcd13ifvqgrg","pricing_plan_id":"free"},{"bike_id":"506216f7-e4d7-4d4e-81ab-65b2d25f11b9","system_id":"levelo_inurba_marseille","lat":43.27489,"lon":5.42457,"is_reserved":false,"is_disabled":false,"rental_uris":{"android":"levelo://app?vid=506216f7-e4d7-4d4e-81ab-65b2d25f11b9","ios":"levelo://app?vid=506216f7-e4d7-4d4e-81ab-65b2d25f11b9"},"vehicle_type_id":"4","last_reported":1687709314,"current_range_meters":28000,"station_id":"ce4bhn92rcd13ifvqgrg","pricing_plan_id":"free"},{"bike_id":"0d03610b-e8f5-40a4-bb6f-9e1c224d9bde","system_id":"levelo_inurba_marseille","lat":43.2749,"lon":5.42459,"is_reserved":false,"is_disabled":false,"rental_uris":{"android":"levelo://app?vid=0d03610b-e8f5-40a4-bb6f-9e1c224d9bde","ios":"levelo://app?vid=0d03610b-e8f5-40a4-bb6f-9e1c224d9bde"},"vehicle_type_id":"4","last_reported":1687709314,"current_range_meters":20800,"station_id":"ce4bhn92rcd13ifvqgrg","pricing_plan_id":"free"},{"bike_id":"e0daa8dd-e6f1-44dc-b8b6-24a3d1a1fc5b","system_id":"levelo_inurba_marseille","lat":43.27485,"lon":5.42458,"is_reserved":false,"is_disabled":false,"rental_uris":{"android":"levelo://app?vid=e0daa8dd-e6f1-44dc-b8b6-24a3d1a1fc5b","ios":"levelo://app?vid=e0daa8dd-e6f1-44dc-b8b6-24a3d1a1fc5b"},"vehicle_type_id":"4","last_reported":1687709314,"current_range_meters":20000,"station_id":"ce4bhn92rcd13ifvqgrg","pricing_plan_id":"free"},{"bike_id":"4b742a56-4aee-47a4-8144-4c1abaaf8e0f","system_id":"levelo_inurba_marseille","lat":43.255756,"lon":5.382303,"is_reserved":false,"is_disabled":false,"rental_uris":{"android":"levelo://app?vid=4b742a56-4aee-47a4-8144-4c1abaaf8e0f","ios":"levelo://app?vid=4b742a56-4aee-47a4-8144-4c1abaaf8e0f"},"vehicle_type_id":"4","last_reported":1687709314,"current_range_meters":9200,"station_id":"ce4bhih2rcd13ifvqfs0","pricing_plan_id":"free"},{"bike_id":"06a205da-4c9c-42bf-91fa-97e21d5da864","system_id":"levelo_inurba_marseille","lat":43.25579,"lon":5.38239,"is_reserved":false,"is_disabled":false,"rental_uris":{"android":"levelo://app?vid=06a205da-4c9c-42bf-91fa-97e21d5da864","ios":"levelo://app?vid=06a205da-4c9c-42bf-91fa-97e21d5da864"},"vehicle_type_id":"4","last_reported":1687709314,"current_range_meters":13600,"station_id":"ce4bhih2rcd13ifvqfs0","pricing_plan_id":"free"},{"bike_id":"6faa8c4d-0286-4671-b306-dc099fb55344","system_id":"levelo_inurba_marseille","lat":43.25503,"lon":5.37647,"is_reserved":false,"is_disabled":false,"rental_uris":{"android":"levelo://app?vid=6faa8c4d-0286-4671-b306-dc099fb55344","ios":"levelo://app?vid=6faa8c4d-0286-4671-b306-dc099fb55344"},"vehicle_type_id":"4","last_reported":1687709314,"current_range_meters":31200,"station_id":"ce4bhh12rcd13ifvqff0","pricing_plan_id":"free"},{"bike_id":"d22c2be3-3801-4f15-8063-3b4f0ed06e38","system_id":"levelo_inurba_marseille","lat":43.254947,"lon":5.376454,"is_reserved":false,"is_disabled":false,"rental_uris":{"android":"levelo://app?vid=d22c2be3-3801-4f15-8063-3b4f0ed06e38","ios":"levelo://app?vid=d22c2be3-3801-4f15-8063-3b4f0ed06e38"},"vehicle_type_id":"4","last_reported":1687709314,"current_range_meters":7600,"station_id":"ce4bhh12rcd13ifvqff0","pricing_plan_id":"free"},{"bike_id":"accbfd42-f6a6-4478-8cb5-3dcf58204c9e","system_id":"levelo_inurba_marseille","lat":43.25501,"lon":5.37649,"is_reserved":false,"is_disabled":false,"rental_uris":{"android":"levelo://app?vid=accbfd42-f6a6-4478-8cb5-3dcf58204c9e","ios":"levelo://app?vid=accbfd42-f6a6-4478-8cb5-3dcf58204c9e"},"vehicle_type_id":"4","last_reported":1687709314,"current_range_meters":17200,"station_id":"ce4bhh12rcd13ifvqff0","pricing_plan_id":"free"},{"bike_id":"d8f68d3d-eae0-4128-8b6b-dc769f19352c","system_id":"levelo_inurba_marseille","lat":43.255,"lon":5.37651,"is_reserved":false,"is_disabled":false,"rental_uris":{"android":"levelo://app?vid=d8f68d3d-eae0-4128-8b6b-dc769f19352c","ios":"levelo://app?vid=d8f68d3d-eae0-4128-8b6b-dc769f19352c"},"vehicle_type_id":"4","last_reported":1687709314,"current_range_meters":20000,"station_id":"ce4bhh12rcd13ifvqff0","pricing_plan_id":"free"},{"bike_id":"a48a555b-78c8-4769-98a3-204247bb0f32","system_id":"levelo_inurba_marseille","lat":43.255,"lon":5.37651,"is_reserved":false,"is_disabled":false,"rental_uris":{"android":"levelo://app?vid=a48a555b-78c8-4769-98a3-204247bb0f32","ios":"levelo://app?vid=a48a555b-78c8-4769-98a3-204247bb0f32"},"vehicle_type_id":"4","last_reported":1687709314,"current_range_meters":14400,"station_id":"ce4bhh12rcd13ifvqff0","pricing_plan_id":"free"},{"bike_id":"ad1c1bf1-e90e-437a-a8ad-cadc941bd664","system_id":"levelo_inurba_marseille","lat":43.25497,"lon":5.37647,"is_reserved":false,"is_disabled":false,"rental_uris":{"android":"levelo://app?vid=ad1c1bf1-e90e-437a-a8ad-cadc941bd664","ios":"levelo://app?vid=ad1c1bf1-e90e-437a-a8ad-cadc941bd664"},"vehicle_type_id":"4","last_reported":1687709314,"current_range_meters":25200,"station_id":"ce4bhh12rcd13ifvqff0","pricing_plan_id":"free"},{"bike_id":"905881af-0c34-42e8-8b26-220b4e4fcfc1","system_id":"levelo_inurba_marseille","lat":43.25497,"lon":5.37649,"is_reserved":false,"is_disabled":false,"rental_uris":{"android":"levelo://app?vid=905881af-0c34-42e8-8b26-220b4e4fcfc1","ios":"levelo://app?vid=905881af-0c34-42e8-8b26-220b4e4fcfc1"},"vehicle_type_id":"4","last_reported":1687709314,"current_range_meters":22800,"station_id":"ce4bhh12rcd13ifvqff0","pricing_plan_id":"free"},{"bike_id":"0fc60c5e-f789-4aff-ac34-96b394bb67b9","system_id":"levelo_inurba_marseille","lat":43.254945,"lon":5.376454,"is_reserved":false,"is_disabled":false,"rental_uris":{"android":"levelo://app?vid=0fc60c5e-f789-4aff-ac34-96b394bb67b9","ios":"levelo://app?vid=0fc60c5e-f789-4aff-ac34-96b394bb67b9"},"vehicle_type_id":"4","last_reported":1687709314,"current_range_meters":28800,"station_id":"ce4bhh12rcd13ifvqff0","pricing_plan_id":"free"},{"bike_id":"b862ddf4-5436-4585-b63c-02f88d7af8d0","system_id":"levelo_inurba_marseille","lat":43.25497,"lon":5.37652,"is_reserved":false,"is_disabled":false,"rental_uris":{"android":"levelo://app?vid=b862ddf4-5436-4585-b63c-02f88d7af8d0","ios":"levelo://app?vid=b862ddf4-5436-4585-b63c-02f88d7af8d0"},"vehicle_type_id":"4","last_reported":1687709314,"current_range_meters":21200,"station_id":"ce4bhh12rcd13ifvqff0","pricing_plan_id":"free"},{"bike_id":"afc7b222-3cad-439e-b61a-55cce3f4b9c0","system_id":"levelo_inurba_marseille","lat":43.254945,"lon":5.376454,"is_reserved":false,"is_disabled":false,"rental_uris":{"android":"levelo://app?vid=afc7b222-3cad-439e-b61a-55cce3f4b9c0","ios":"levelo://app?vid=afc7b222-3cad-439e-b61a-55cce3f4b9c0"},"vehicle_type_id":"4","last_reported":1687709314,"current_range_meters":30000,"station_id":"ce4bhh12rcd13ifvqff0","pricing_plan_id":"free"},{"bike_id":"c82ee879-69d7-441e-a12c-8d53edfeeb8e","system_id":"levelo_inurba_marseille","lat":43.25495,"lon":5.3765,"is_reserved":false,"is_disabled":false,"rental_uris":{"android":"levelo://app?vid=c82ee879-69d7-441e-a12c-8d53edfeeb8e","ios":"levelo://app?vid=c82ee879-69d7-441e-a12c-8d53edfeeb8e"},"vehicle_type_id":"4","last_reported":1687709314,"current_range_meters":29200,"station_id":"ce4bhh12rcd13ifvqff0","pricing_plan_id":"free"},{"bike_id":"8c931a53-e83f-4031-a8e4-20da80bbce97","system_id":"levelo_inurba_marseille","lat":43.25494,"lon":5.37646,"is_reserved":false,"is_disabled":false,"rental_uris":{"android":"levelo://app?vid=8c931a53-e83f-4031-a8e4-20da80bbce97","ios":"levelo://app?vid=8c931a53-e83f-4031-a8e4-20da80bbce97"},"vehicle_type_id":"4","last_reported":1687709314,"current_range_meters":26000,"station_id":"ce4bhh12rcd13ifvqff0","pricing_plan_id":"free"},{"bike_id":"7424525c-3c13-4347-aa84-c5693b0169c2","system_id":"levelo_inurba_marseille","lat":43.25494,"lon":5.37648,"is_reserved":false,"is_disabled":false,"rental_uris":{"android":"levelo://app?vid=7424525c-3c13-4347-aa84-c5693b0169c2","ios":"levelo://app?vid=7424525c-3c13-4347-aa84-c5693b0169c2"},"vehicle_type_id":"4","last_reported":1687709314,"current_range_meters":16400,"station_id":"ce4bhh12rcd13ifvqff0","pricing_plan_id":"free"},{"bike_id":"5f7cac8e-0214-48c6-9d19-d7b9c0a541ca","system_id":"levelo_inurba_marseille","lat":43.25494,"lon":5.3765,"is_reserved":false,"is_disabled":false,"rental_uris":{"android":"levelo://app?vid=5f7cac8e-0214-48c6-9d19-d7b9c0a541ca","ios":"levelo://app?vid=5f7cac8e-0214-48c6-9d19-d7b9c0a541ca"},"vehicle_type_id":"4","last_reported":1687709314,"current_range_meters":12400,"station_id":"ce4bhh12rcd13ifvqff0","pricing_plan_id":"free"},{"bike_id":"dbe23cce-acdb-4419-a570-45f55598367f","system_id":"levelo_inurba_marseille","lat":43.25493,"lon":5.37647,"is_reserved":false,"is_disabled":false,"rental_uris":{"android":"levelo://app?vid=dbe23cce-acdb-4419-a570-45f55598367f","ios":"levelo://app?vid=dbe23cce-acdb-4419-a570-45f55598367f"},"vehicle_type_id":"4","last_reported":1687709314,"current_range_meters":12800,"station_id":"ce4bhh12rcd13ifvqff0","pricing_plan_id":"free"},{"bike_id":"a5827375-2342-438c-a458-b7f178f60a89","system_id":"levelo_inurba_marseille","lat":43.25493,"lon":5.3765,"is_reserved":false,"is_disabled":false,"rental_uris":{"android":"levelo://app?vid=a5827375-2342-438c-a458-b7f178f60a89","ios":"levelo://app?vid=a5827375-2342-438c-a458-b7f178f60a89"},"vehicle_type_id":"4","last_reported":1687709314,"current_range_meters":18000,"station_id":"ce4bhh12rcd13ifvqff0","pricing_plan_id":"free"},{"bike_id":"91e13011-41b9-4605-94e5-213efe7a9c44","system_id":"levelo_inurba_marseille","lat":43.25493,"lon":5.37658,"is_reserved":false,"is_disabled":false,"rental_uris":{"android":"levelo://app?vid=91e13011-41b9-4605-94e5-213efe7a9c44","ios":"levelo://app?vid=91e13011-41b9-4605-94e5-213efe7a9c44"},"vehicle_type_id":"4","last_reported":1687709314,"current_range_meters":19200,"station_id":"ce4bhh12rcd13ifvqff0","pricing_plan_id":"free"},{"bike_id":"18b8d15e-bd18-48c8-ac5c-2424d91373ac","system_id":"levelo_inurba_marseille","lat":43.25492,"lon":5.3765,"is_reserved":false,"is_disabled":false,"rental_uris":{"android":"levelo://app?vid=18b8d15e-bd18-48c8-ac5c-2424d91373ac","ios":"levelo://app?vid=18b8d15e-bd18-48c8-ac5c-2424d91373ac"},"vehicle_type_id":"4","last_reported":1687709314,"current_range_meters":31200,"station_id":"ce4bhh12rcd13ifvqff0","pricing_plan_id":"free"},{"bike_id":"9f41f595-b69d-4e90-8505-ce0941f52df6","system_id":"levelo_inurba_marseille","lat":43.25491,"lon":5.37647,"is_reserved":false,"is_disabled":false,"rental_uris":{"android":"levelo://app?vid=9f41f595-b69d-4e90-8505-ce0941f52df6","ios":"levelo://app?vid=9f41f595-b69d-4e90-8505-ce0941f52df6"},"vehicle_type_id":"4","last_reported":1687709314,"current_range_meters":24800,"station_id":"ce4bhh12rcd13ifvqff0","pricing_plan_id":"free"},{"bike_id":"c0329474-79b4-4393-80a6-7f2448f31e1a","system_id":"levelo_inurba_marseille","lat":43.2549,"lon":5.37647,"is_reserved":false,"is_disabled":false,"rental_uris":{"android":"levelo://app?vid=c0329474-79b4-4393-80a6-7f2448f31e1a","ios":"levelo://app?vid=c0329474-79b4-4393-80a6-7f2448f31e1a"},"vehicle_type_id":"4","last_reported":1687709314,"current_range_meters":17600,"station_id":"ce4bhh12rcd13ifvqff0","pricing_plan_id":"free"},{"bike_id":"c9854ebd-92e6-4f4e-9a1e-2c238133e4e0","system_id":"levelo_inurba_marseille","lat":43.2549,"lon":5.37647,"is_reserved":false,"is_disabled":false,"rental_uris":{"android":"levelo://app?vid=c9854ebd-92e6-4f4e-9a1e-2c238133e4e0","ios":"levelo://app?vid=c9854ebd-92e6-4f4e-9a1e-2c238133e4e0"},"vehicle_type_id":"4","last_reported":1687709314,"current_range_meters":1600,"station_id":"ce4bhh12rcd13ifvqff0","pricing_plan_id":"free"},{"bike_id":"6f4af646-7863-436e-8f1a-c331f8e8d5bd","system_id":"levelo_inurba_marseille","lat":43.25489,"lon":5.3765,"is_reserved":false,"is_disabled":false,"rental_uris":{"android":"levelo://app?vid=6f4af646-7863-436e-8f1a-c331f8e8d5bd","ios":"levelo://app?vid=6f4af646-7863-436e-8f1a-c331f8e8d5bd"},"vehicle_type_id":"4","last_reported":1687709314,"current_range_meters":5200,"station_id":"ce4bhh12rcd13ifvqff0","pricing_plan_id":"free"},{"bike_id":"203120bd-4a19-4235-a524-123db0f3ed4a","system_id":"levelo_inurba_marseille","lat":43.25489,"lon":5.37653,"is_reserved":false,"is_disabled":false,"rental_uris":{"android":"levelo://app?vid=203120bd-4a19-4235-a524-123db0f3ed4a","ios":"levelo://app?vid=203120bd-4a19-4235-a524-123db0f3ed4a"},"vehicle_type_id":"4","last_reported":1687709314,"current_range_meters":31200,"station_id":"ce4bhh12rcd13ifvqff0","pricing_plan_id":"free"},{"bike_id":"a1c18d40-ee9c-46df-8c06-8938c58c7d5c","system_id":"levelo_inurba_marseille","lat":43.25488,"lon":5.37647,"is_reserved":false,"is_disabled":false,"rental_uris":{"android":"levelo://app?vid=a1c18d40-ee9c-46df-8c06-8938c58c7d5c","ios":"levelo://app?vid=a1c18d40-ee9c-46df-8c06-8938c58c7d5c"},"vehicle_type_id":"4","last_reported":1687709314,"current_range_meters":17200,"station_id":"ce4bhh12rcd13ifvqff0","pricing_plan_id":"free"},{"bike_id":"0af64176-bfca-4360-b466-ebc6f7dbb29a","system_id":"levelo_inurba_marseille","lat":43.25488,"lon":5.37649,"is_reserved":false,"is_disabled":false,"rental_uris":{"android":"levelo://app?vid=0af64176-bfca-4360-b466-ebc6f7dbb29a","ios":"levelo://app?vid=0af64176-bfca-4360-b466-ebc6f7dbb29a"},"vehicle_type_id":"4","last_reported":1687709314,"current_range_meters":18000,"station_id":"ce4bhh12rcd13ifvqff0","pricing_plan_id":"free"},{"bike_id":"5c470f0b-d322-460d-b3d9-b848f4856f9f","system_id":"levelo_inurba_marseille","lat":43.25487,"lon":5.37655,"is_reserved":false,"is_disabled":false,"rental_uris":{"android":"levelo://app?vid=5c470f0b-d322-460d-b3d9-b848f4856f9f","ios":"levelo://app?vid=5c470f0b-d322-460d-b3d9-b848f4856f9f"},"vehicle_type_id":"4","last_reported":1687709314,"current_range_meters":20800,"station_id":"ce4bhh12rcd13ifvqff0","pricing_plan_id":"free"},{"bike_id":"bf3b0f9b-52f3-4095-a253-30461b99c8d6","system_id":"levelo_inurba_marseille","lat":43.25486,"lon":5.37647,"is_reserved":false,"is_disabled":false,"rental_uris":{"android":"levelo://app?vid=bf3b0f9b-52f3-4095-a253-30461b99c8d6","ios":"levelo://app?vid=bf3b0f9b-52f3-4095-a253-30461b99c8d6"},"vehicle_type_id":"4","last_reported":1687709314,"current_range_meters":11600,"station_id":"ce4bhh12rcd13ifvqff0","pricing_plan_id":"free"},{"bike_id":"e3cceedc-114e-4332-9254-bf3c206bf4ff","system_id":"levelo_inurba_marseille","lat":43.25486,"lon":5.37649,"is_reserved":false,"is_disabled":false,"rental_uris":{"android":"levelo://app?vid=e3cceedc-114e-4332-9254-bf3c206bf4ff","ios":"levelo://app?vid=e3cceedc-114e-4332-9254-bf3c206bf4ff"},"vehicle_type_id":"4","last_reported":1687709314,"current_range_meters":10800,"station_id":"ce4bhh12rcd13ifvqff0","pricing_plan_id":"free"},{"bike_id":"d5d70e4b-d1b3-4328-a263-76f143318fbc","system_id":"levelo_inurba_marseille","lat":43.28138,"lon":5.4374,"is_reserved":false,"is_disabled":false,"rental_uris":{"android":"levelo://app?vid=d5d70e4b-d1b3-4328-a263-76f143318fbc","ios":"levelo://app?vid=d5d70e4b-d1b3-4328-a263-76f143318fbc"},"vehicle_type_id":"4","last_reported":1687709314,"current_range_meters":17200,"station_id":"","pricing_plan_id":"free"},{"bike_id":"d8724d74-6425-43b6-b950-a607cbc8e74b","system_id":"levelo_inurba_marseille","lat":43.259009,"lon":5.40929,"is_reserved":false,"is_disabled":false,"rental_uris":{"android":"levelo://app?vid=d8724d74-6425-43b6-b950-a607cbc8e74b","ios":"levelo://app?vid=d8724d74-6425-43b6-b950-a607cbc8e74b"},"vehicle_type_id":"4","last_reported":1687709314,"current_range_meters":30400,"station_id":"ce4bhm92rcd13ifvqglg","pricing_plan_id":"free"},{"bike_id":"be40ed5a-96bc-4934-9c93-671f74c1d6b0","system_id":"levelo_inurba_marseille","lat":43.259009,"lon":5.40929,"is_reserved":false,"is_disabled":false,"rental_uris":{"android":"levelo://app?vid=be40ed5a-96bc-4934-9c93-671f74c1d6b0","ios":"levelo://app?vid=be40ed5a-96bc-4934-9c93-671f74c1d6b0"},"vehicle_type_id":"4","last_reported":1687709314,"current_range_meters":15600,"station_id":"ce4bhm92rcd13ifvqglg","pricing_plan_id":"free"},{"bike_id":"95ceb0c9-73bd-4dd2-ac06-4b987681f4e8","system_id":"levelo_inurba_marseille","lat":43.259009,"lon":5.40929,"is_reserved":false,"is_disabled":false,"rental_uris":{"android":"levelo://app?vid=95ceb0c9-73bd-4dd2-ac06-4b987681f4e8","ios":"levelo://app?vid=95ceb0c9-73bd-4dd2-ac06-4b987681f4e8"},"vehicle_type_id":"4","last_reported":1687709314,"current_range_meters":27200,"station_id":"ce4bhm92rcd13ifvqglg","pricing_plan_id":"free"},{"bike_id":"2851acfb-00ba-460d-8311-a74e1238fc2c","system_id":"levelo_inurba_marseille","lat":43.259009,"lon":5.40929,"is_reserved":false,"is_disabled":false,"rental_uris":{"android":"levelo://app?vid=2851acfb-00ba-460d-8311-a74e1238fc2c","ios":"levelo://app?vid=2851acfb-00ba-460d-8311-a74e1238fc2c"},"vehicle_type_id":"4","last_reported":1687709314,"current_range_meters":31200,"station_id":"ce4bhm92rcd13ifvqglg","pricing_plan_id":"free"},{"bike_id":"0e8e8af7-8203-423a-b718-ed54280dcbb0","system_id":"levelo_inurba_marseille","lat":43.259009,"lon":5.40929,"is_reserved":false,"is_disabled":false,"rental_uris":{"android":"levelo://app?vid=0e8e8af7-8203-423a-b718-ed54280dcbb0","ios":"levelo://app?vid=0e8e8af7-8203-423a-b718-ed54280dcbb0"},"vehicle_type_id":"4","last_reported":1687709314,"current_range_meters":31200,"station_id":"ce4bhm92rcd13ifvqglg","pricing_plan_id":"free"},{"bike_id":"de4cb364-48ad-4c5b-ae30-85f5bb7b705a","system_id":"levelo_inurba_marseille","lat":43.25932,"lon":5.40915,"is_reserved":false,"is_disabled":false,"rental_uris":{"android":"levelo://app?vid=de4cb364-48ad-4c5b-ae30-85f5bb7b705a","ios":"levelo://app?vid=de4cb364-48ad-4c5b-ae30-85f5bb7b705a"},"vehicle_type_id":"4","last_reported":1687709314,"current_range_meters":31200,"station_id":"","pricing_plan_id":"free"},{"bike_id":"74dd8b5d-7630-4f6a-a7dd-a2db18097386","system_id":"levelo_inurba_marseille","lat":43.28102,"lon":5.44213,"is_reserved":false,"is_disabled":false,"rental_uris":{"android":"levelo://app?vid=74dd8b5d-7630-4f6a-a7dd-a2db18097386","ios":"levelo://app?vid=74dd8b5d-7630-4f6a-a7dd-a2db18097386"},"vehicle_type_id":"4","last_reported":1687709314,"current_range_meters":29200,"station_id":"","pricing_plan_id":"free"},{"bike_id":"3a1f6b94-3838-4487-9f03-fb3cae695abb","system_id":"levelo_inurba_marseille","lat":43.24813,"lon":5.37464,"is_reserved":false,"is_disabled":false,"rental_uris":{"android":"levelo://app?vid=3a1f6b94-3838-4487-9f03-fb3cae695abb","ios":"levelo://app?vid=3a1f6b94-3838-4487-9f03-fb3cae695abb"},"vehicle_type_id":"4","last_reported":1687709314,"current_range_meters":16800,"station_id":"","pricing_plan_id":"free"},{"bike_id":"2a47d404-b372-4050-bd28-f103e61337f1","system_id":"levelo_inurba_marseille","lat":43.24811,"lon":5.37459,"is_reserved":false,"is_disabled":false,"rental_uris":{"android":"levelo://app?vid=2a47d404-b372-4050-bd28-f103e61337f1","ios":"levelo://app?vid=2a47d404-b372-4050-bd28-f103e61337f1"},"vehicle_type_id":"4","last_reported":1687709314,"current_range_meters":3600,"station_id":"ce4bhgh2rcd13ifvqfb0","pricing_plan_id":"free"},{"bike_id":"6c01339d-792d-48a1-a2b7-01b187dcfa33","system_id":"levelo_inurba_marseille","lat":43.2481,"lon":5.37461,"is_reserved":false,"is_disabled":false,"rental_uris":{"android":"levelo://app?vid=6c01339d-792d-48a1-a2b7-01b187dcfa33","ios":"levelo://app?vid=6c01339d-792d-48a1-a2b7-01b187dcfa33"},"vehicle_type_id":"4","last_reported":1687709314,"current_range_meters":3600,"station_id":"ce4bhgh2rcd13ifvqfb0","pricing_plan_id":"free"},{"bike_id":"e7b021fa-fed1-4a48-bb73-3713ecfcf1b7","system_id":"levelo_inurba_marseille","lat":43.24809,"lon":5.37452,"is_reserved":false,"is_disabled":false,"rental_uris":{"android":"levelo://app?vid=e7b021fa-fed1-4a48-bb73-3713ecfcf1b7","ios":"levelo://app?vid=e7b021fa-fed1-4a48-bb73-3713ecfcf1b7"},"vehicle_type_id":"4","last_reported":1687709314,"current_range_meters":15200,"station_id":"ce4bhgh2rcd13ifvqfb0","pricing_plan_id":"free"},{"bike_id":"5ea8aea0-f888-48c0-ae9f-b292b79ae52b","system_id":"levelo_inurba_marseille","lat":43.2479,"lon":5.374457,"is_reserved":false,"is_disabled":false,"rental_uris":{"android":"levelo://app?vid=5ea8aea0-f888-48c0-ae9f-b292b79ae52b","ios":"levelo://app?vid=5ea8aea0-f888-48c0-ae9f-b292b79ae52b"},"vehicle_type_id":"4","last_reported":1687709314,"current_range_meters":18800,"station_id":"ce4bhgh2rcd13ifvqfb0","pricing_plan_id":"free"},{"bike_id":"48315d9b-522c-4331-b3b8-42dfa44db652","system_id":"levelo_inurba_marseille","lat":43.2479,"lon":5.374457,"is_reserved":false,"is_disabled":false,"rental_uris":{"android":"levelo://app?vid=48315d9b-522c-4331-b3b8-42dfa44db652","ios":"levelo://app?vid=48315d9b-522c-4331-b3b8-42dfa44db652"},"vehicle_type_id":"4","last_reported":1687709314,"current_range_meters":20000,"station_id":"ce4bhgh2rcd13ifvqfb0","pricing_plan_id":"free"},{"bike_id":"8ebaf5e9-0e74-4a14-b775-ae702e51ab0a","system_id":"levelo_inurba_marseille","lat":43.2479,"lon":5.374457,"is_reserved":false,"is_disabled":false,"rental_uris":{"android":"levelo://app?vid=8ebaf5e9-0e74-4a14-b775-ae702e51ab0a","ios":"levelo://app?vid=8ebaf5e9-0e74-4a14-b775-ae702e51ab0a"},"vehicle_type_id":"4","last_reported":1687709314,"current_range_meters":31200,"station_id":"ce4bhgh2rcd13ifvqfb0","pricing_plan_id":"free"},{"bike_id":"f4096142-3b66-4274-9637-ef2f224dfb0d","system_id":"levelo_inurba_marseille","lat":43.2479,"lon":5.374457,"is_reserved":false,"is_disabled":false,"rental_uris":{"android":"levelo://app?vid=f4096142-3b66-4274-9637-ef2f224dfb0d","ios":"levelo://app?vid=f4096142-3b66-4274-9637-ef2f224dfb0d"},"vehicle_type_id":"4","last_reported":1687709314,"current_range_meters":20400,"station_id":"ce4bhgh2rcd13ifvqfb0","pricing_plan_id":"free"},{"bike_id":"a2849c4e-badc-453b-8dfc-28c91da872cc","system_id":"levelo_inurba_marseille","lat":43.2479,"lon":5.374457,"is_reserved":false,"is_disabled":false,"rental_uris":{"android":"levelo://app?vid=a2849c4e-badc-453b-8dfc-28c91da872cc","ios":"levelo://app?vid=a2849c4e-badc-453b-8dfc-28c91da872cc"},"vehicle_type_id":"4","last_reported":1687709314,"current_range_meters":20800,"station_id":"ce4bhgh2rcd13ifvqfb0","pricing_plan_id":"free"},{"bike_id":"9d6e128a-63ea-4484-b543-0f3cf25a8669","system_id":"levelo_inurba_marseille","lat":43.2479,"lon":5.374457,"is_reserved":false,"is_disabled":false,"rental_uris":{"android":"levelo://app?vid=9d6e128a-63ea-4484-b543-0f3cf25a8669","ios":"levelo://app?vid=9d6e128a-63ea-4484-b543-0f3cf25a8669"},"vehicle_type_id":"4","last_reported":1687709314,"current_range_meters":14800,"station_id":"ce4bhgh2rcd13ifvqfb0","pricing_plan_id":"free"},{"bike_id":"cf22c1ea-5d40-4b21-a886-c79c59af6b2e","system_id":"levelo_inurba_marseille","lat":43.2479,"lon":5.374457,"is_reserved":false,"is_disabled":false,"rental_uris":{"android":"levelo://app?vid=cf22c1ea-5d40-4b21-a886-c79c59af6b2e","ios":"levelo://app?vid=cf22c1ea-5d40-4b21-a886-c79c59af6b2e"},"vehicle_type_id":"4","last_reported":1687709314,"current_range_meters":29200,"station_id":"ce4bhgh2rcd13ifvqfb0","pricing_plan_id":"free"},{"bike_id":"4766898a-98d9-4de0-a0c9-5c3a14dda109","system_id":"levelo_inurba_marseille","lat":43.2479,"lon":5.374457,"is_reserved":false,"is_disabled":false,"rental_uris":{"android":"levelo://app?vid=4766898a-98d9-4de0-a0c9-5c3a14dda109","ios":"levelo://app?vid=4766898a-98d9-4de0-a0c9-5c3a14dda109"},"vehicle_type_id":"4","last_reported":1687709314,"current_range_meters":30400,"station_id":"ce4bhgh2rcd13ifvqfb0","pricing_plan_id":"free"},{"bike_id":"8e8f2d95-05d2-4e1b-9000-3654af0ac9a6","system_id":"levelo_inurba_marseille","lat":43.2479,"lon":5.374457,"is_reserved":false,"is_disabled":false,"rental_uris":{"android":"levelo://app?vid=8e8f2d95-05d2-4e1b-9000-3654af0ac9a6","ios":"levelo://app?vid=8e8f2d95-05d2-4e1b-9000-3654af0ac9a6"},"vehicle_type_id":"4","last_reported":1687709314,"current_range_meters":15600,"station_id":"ce4bhgh2rcd13ifvqfb0","pricing_plan_id":"free"},{"bike_id":"3bad4f85-5822-4a42-984e-328c6d23dff3","system_id":"levelo_inurba_marseille","lat":43.2479,"lon":5.374457,"is_reserved":false,"is_disabled":false,"rental_uris":{"android":"levelo://app?vid=3bad4f85-5822-4a42-984e-328c6d23dff3","ios":"levelo://app?vid=3bad4f85-5822-4a42-984e-328c6d23dff3"},"vehicle_type_id":"4","last_reported":1687709314,"current_range_meters":28800,"station_id":"ce4bhgh2rcd13ifvqfb0","pricing_plan_id":"free"},{"bike_id":"4386db68-f4b3-422e-8fbc-f61aca85b5b4","system_id":"levelo_inurba_marseille","lat":43.250966,"lon":5.395186,"is_reserved":false,"is_disabled":false,"rental_uris":{"android":"levelo://app?vid=4386db68-f4b3-422e-8fbc-f61aca85b5b4","ios":"levelo://app?vid=4386db68-f4b3-422e-8fbc-f61aca85b5b4"},"vehicle_type_id":"4","last_reported":1687709314,"current_range_meters":18800,"station_id":"ce4bhm12rcd13ifvqgkg","pricing_plan_id":"free"},{"bike_id":"3d5cde35-66ca-4b99-a8d5-a2a3bcece0b3","system_id":"levelo_inurba_marseille","lat":43.2479,"lon":5.374457,"is_reserved":false,"is_disabled":false,"rental_uris":{"android":"levelo://app?vid=3d5cde35-66ca-4b99-a8d5-a2a3bcece0b3","ios":"levelo://app?vid=3d5cde35-66ca-4b99-a8d5-a2a3bcece0b3"},"vehicle_type_id":"4","last_reported":1687709314,"current_range_meters":29200,"station_id":"ce4bhgh2rcd13ifvqfb0","pricing_plan_id":"free"},{"bike_id":"9aca8ee5-88bb-429f-ad3d-186aa54b053f","system_id":"levelo_inurba_marseille","lat":43.25007,"lon":5.39605,"is_reserved":false,"is_disabled":false,"rental_uris":{"android":"levelo://app?vid=9aca8ee5-88bb-429f-ad3d-186aa54b053f","ios":"levelo://app?vid=9aca8ee5-88bb-429f-ad3d-186aa54b053f"},"vehicle_type_id":"4","last_reported":1687709314,"current_range_meters":28000,"station_id":"","pricing_plan_id":"free"},{"bike_id":"90258144-bf2c-41eb-b7c4-63fe2673fafe","system_id":"levelo_inurba_marseille","lat":43.24661,"lon":5.38168,"is_reserved":false,"is_disabled":false,"rental_uris":{"android":"levelo://app?vid=90258144-bf2c-41eb-b7c4-63fe2673fafe","ios":"levelo://app?vid=90258144-bf2c-41eb-b7c4-63fe2673fafe"},"vehicle_type_id":"4","last_reported":1687709314,"current_range_meters":31200,"station_id":"ce4bhih2rcd13ifvqfr0","pricing_plan_id":"free"},{"bike_id":"6c1c3b78-44dd-468f-af2a-97a07b7b101e","system_id":"levelo_inurba_marseille","lat":43.25102,"lon":5.403214,"is_reserved":false,"is_disabled":false,"rental_uris":{"android":"levelo://app?vid=6c1c3b78-44dd-468f-af2a-97a07b7b101e","ios":"levelo://app?vid=6c1c3b78-44dd-468f-af2a-97a07b7b101e"},"vehicle_type_id":"4","last_reported":1687709314,"current_range_meters":31200,"station_id":"ce4bhlh2rcd13ifvqgig","pricing_plan_id":"free"},{"bike_id":"10514ec0-50ef-46e9-919a-f6601097c81e","system_id":"levelo_inurba_marseille","lat":43.24693,"lon":5.382096,"is_reserved":false,"is_disabled":false,"rental_uris":{"android":"levelo://app?vid=10514ec0-50ef-46e9-919a-f6601097c81e","ios":"levelo://app?vid=10514ec0-50ef-46e9-919a-f6601097c81e"},"vehicle_type_id":"4","last_reported":1687709314,"current_range_meters":0,"station_id":"ce4bhih2rcd13ifvqfr0","pricing_plan_id":"free"},{"bike_id":"b71abe99-37dc-418e-865b-14fcc3a8d5b8","system_id":"levelo_inurba_marseille","lat":43.24693,"lon":5.382096,"is_reserved":false,"is_disabled":false,"rental_uris":{"android":"levelo://app?vid=b71abe99-37dc-418e-865b-14fcc3a8d5b8","ios":"levelo://app?vid=b71abe99-37dc-418e-865b-14fcc3a8d5b8"},"vehicle_type_id":"4","last_reported":1687709314,"current_range_meters":0,"station_id":"ce4bhih2rcd13ifvqfr0","pricing_plan_id":"free"},{"bike_id":"eb6b011a-6e6b-4f4c-bd04-7be30c29deac","system_id":"levelo_inurba_marseille","lat":43.24391,"lon":5.37057,"is_reserved":false,"is_disabled":false,"rental_uris":{"android":"levelo://app?vid=eb6b011a-6e6b-4f4c-bd04-7be30c29deac","ios":"levelo://app?vid=eb6b011a-6e6b-4f4c-bd04-7be30c29deac"},"vehicle_type_id":"4","last_reported":1687709314,"current_range_meters":31600,"station_id":"ce4bhhh2rcd13ifvqfk0","pricing_plan_id":"free"},{"bike_id":"975c3c40-8fa1-485d-bdaa-8fc566e76150","system_id":"levelo_inurba_marseille","lat":43.243884,"lon":5.370736,"is_reserved":false,"is_disabled":false,"rental_uris":{"android":"levelo://app?vid=975c3c40-8fa1-485d-bdaa-8fc566e76150","ios":"levelo://app?vid=975c3c40-8fa1-485d-bdaa-8fc566e76150"},"vehicle_type_id":"4","last_reported":1687709314,"current_range_meters":31200,"station_id":"ce4bhhh2rcd13ifvqfk0","pricing_plan_id":"free"},{"bike_id":"c3c14ff1-ec90-4ade-a799-183660ceda54","system_id":"levelo_inurba_marseille","lat":43.24389,"lon":5.37058,"is_reserved":false,"is_disabled":false,"rental_uris":{"android":"levelo://app?vid=c3c14ff1-ec90-4ade-a799-183660ceda54","ios":"levelo://app?vid=c3c14ff1-ec90-4ade-a799-183660ceda54"},"vehicle_type_id":"4","last_reported":1687709314,"current_range_meters":31200,"station_id":"ce4bhhh2rcd13ifvqfk0","pricing_plan_id":"free"},{"bike_id":"0d74d7e0-10ff-49ff-b095-c42611a49b93","system_id":"levelo_inurba_marseille","lat":43.243884,"lon":5.370737,"is_reserved":false,"is_disabled":false,"rental_uris":{"android":"levelo://app?vid=0d74d7e0-10ff-49ff-b095-c42611a49b93","ios":"levelo://app?vid=0d74d7e0-10ff-49ff-b095-c42611a49b93"},"vehicle_type_id":"4","last_reported":1687709314,"current_range_meters":22000,"station_id":"ce4bhhh2rcd13ifvqfk0","pricing_plan_id":"free"},{"bike_id":"d227811c-a8dd-4cbd-a986-a4b5fc5c3ce5","system_id":"levelo_inurba_marseille","lat":43.243884,"lon":5.370737,"is_reserved":false,"is_disabled":false,"rental_uris":{"android":"levelo://app?vid=d227811c-a8dd-4cbd-a986-a4b5fc5c3ce5","ios":"levelo://app?vid=d227811c-a8dd-4cbd-a986-a4b5fc5c3ce5"},"vehicle_type_id":"4","last_reported":1687709314,"current_range_meters":31200,"station_id":"ce4bhhh2rcd13ifvqfk0","pricing_plan_id":"free"},{"bike_id":"966d50ba-65b5-4ffc-a9a4-b9adb17b2dd5","system_id":"levelo_inurba_marseille","lat":43.24386,"lon":5.3705,"is_reserved":false,"is_disabled":false,"rental_uris":{"android":"levelo://app?vid=966d50ba-65b5-4ffc-a9a4-b9adb17b2dd5","ios":"levelo://app?vid=966d50ba-65b5-4ffc-a9a4-b9adb17b2dd5"},"vehicle_type_id":"4","last_reported":1687709314,"current_range_meters":31200,"station_id":"ce4bhhh2rcd13ifvqfk0","pricing_plan_id":"free"},{"bike_id":"452477a2-b957-4e60-8e15-9a340f2eaafc","system_id":"levelo_inurba_marseille","lat":43.24386,"lon":5.37053,"is_reserved":false,"is_disabled":false,"rental_uris":{"android":"levelo://app?vid=452477a2-b957-4e60-8e15-9a340f2eaafc","ios":"levelo://app?vid=452477a2-b957-4e60-8e15-9a340f2eaafc"},"vehicle_type_id":"4","last_reported":1687709314,"current_range_meters":21200,"station_id":"ce4bhhh2rcd13ifvqfk0","pricing_plan_id":"free"},{"bike_id":"e956b3fd-2d1d-41c6-aca0-dd59d80f7bf8","system_id":"levelo_inurba_marseille","lat":43.243884,"lon":5.370736,"is_reserved":false,"is_disabled":false,"rental_uris":{"android":"levelo://app?vid=e956b3fd-2d1d-41c6-aca0-dd59d80f7bf8","ios":"levelo://app?vid=e956b3fd-2d1d-41c6-aca0-dd59d80f7bf8"},"vehicle_type_id":"4","last_reported":1687709314,"current_range_meters":31200,"station_id":"ce4bhhh2rcd13ifvqfk0","pricing_plan_id":"free"},{"bike_id":"8490f9fd-0210-455b-9d6c-ff7b0faa39a0","system_id":"levelo_inurba_marseille","lat":43.243884,"lon":5.370736,"is_reserved":false,"is_disabled":false,"rental_uris":{"android":"levelo://app?vid=8490f9fd-0210-455b-9d6c-ff7b0faa39a0","ios":"levelo://app?vid=8490f9fd-0210-455b-9d6c-ff7b0faa39a0"},"vehicle_type_id":"4","last_reported":1687709314,"current_range_meters":27200,"station_id":"ce4bhhh2rcd13ifvqfk0","pricing_plan_id":"free"},{"bike_id":"c15f1ce1-5680-443d-b68f-cee51bc81897","system_id":"levelo_inurba_marseille","lat":43.245581,"lon":5.395069,"is_reserved":false,"is_disabled":false,"rental_uris":{"android":"levelo://app?vid=c15f1ce1-5680-443d-b68f-cee51bc81897","ios":"levelo://app?vid=c15f1ce1-5680-443d-b68f-cee51bc81897"},"vehicle_type_id":"4","last_reported":1687709314,"current_range_meters":7600,"station_id":"ce4bhlp2rcd13ifvqgjg","pricing_plan_id":"free"},{"bike_id":"1f9f2b3c-445e-4e24-a553-bf35886f461d","system_id":"levelo_inurba_marseille","lat":43.245581,"lon":5.395069,"is_reserved":false,"is_disabled":false,"rental_uris":{"android":"levelo://app?vid=1f9f2b3c-445e-4e24-a553-bf35886f461d","ios":"levelo://app?vid=1f9f2b3c-445e-4e24-a553-bf35886f461d"},"vehicle_type_id":"4","last_reported":1687709314,"current_range_meters":4400,"station_id":"ce4bhlp2rcd13ifvqgjg","pricing_plan_id":"free"},{"bike_id":"33de0f3c-eae3-4a8d-9e7b-735c9fe2e419","system_id":"levelo_inurba_marseille","lat":43.245581,"lon":5.395069,"is_reserved":false,"is_disabled":false,"rental_uris":{"android":"levelo://app?vid=33de0f3c-eae3-4a8d-9e7b-735c9fe2e419","ios":"levelo://app?vid=33de0f3c-eae3-4a8d-9e7b-735c9fe2e419"},"vehicle_type_id":"4","last_reported":1687709314,"current_range_meters":11200,"station_id":"ce4bhlp2rcd13ifvqgjg","pricing_plan_id":"free"},{"bike_id":"91608e89-3905-4bf8-af45-4a12302cd6d9","system_id":"levelo_inurba_marseille","lat":43.24077,"lon":5.3776,"is_reserved":false,"is_disabled":false,"rental_uris":{"android":"levelo://app?vid=91608e89-3905-4bf8-af45-4a12302cd6d9","ios":"levelo://app?vid=91608e89-3905-4bf8-af45-4a12302cd6d9"},"vehicle_type_id":"4","last_reported":1687709314,"current_range_meters":30000,"station_id":"ce4bhnp2rcd13ifvqgvg","pricing_plan_id":"free"},{"bike_id":"e85f43ef-d5b6-4917-8d10-a6d87ef7da96","system_id":"levelo_inurba_marseille","lat":43.24077,"lon":5.37768,"is_reserved":false,"is_disabled":false,"rental_uris":{"android":"levelo://app?vid=e85f43ef-d5b6-4917-8d10-a6d87ef7da96","ios":"levelo://app?vid=e85f43ef-d5b6-4917-8d10-a6d87ef7da96"},"vehicle_type_id":"4","last_reported":1687709314,"current_range_meters":26800,"station_id":"ce4bhnp2rcd13ifvqgvg","pricing_plan_id":"free"},{"bike_id":"71d3d0ae-50ee-41eb-aa26-cf116900a11e","system_id":"levelo_inurba_marseille","lat":43.23969,"lon":5.36638,"is_reserved":false,"is_disabled":false,"rental_uris":{"android":"levelo://app?vid=71d3d0ae-50ee-41eb-aa26-cf116900a11e","ios":"levelo://app?vid=71d3d0ae-50ee-41eb-aa26-cf116900a11e"},