{"last_updated":1723493336,"ttl":30,"version":"2.2","data":{"bikes":[{"bike_id":"f630fed1-f012-427b-aa7e-8d76bed0a55e","system_id":"levelo_inurba_marseille","lat":43.313391,"lon":5.36706,"is_reserved":false,"is_disabled":false,"rental_uris":{"android":"levelo://app?vid=f630fed1-f012-427b-aa7e-8d76bed0a55e","ios":"levelo://app?vid=f630fed1-f012-427b-aa7e-8d76bed0a55e"},"vehicle_type_id":"4","last_reported":1723493336,"current_range_meters":2400,"station_id":"ce4bgr92rcd13ifvqc6g","pricing_plan_id":"cebpf4jnsgd1na2vs0mg"},{"bike_id":"49b61dcf-43d8-49c4-8c17-afd1c2ef4337","system_id":"levelo_inurba_marseille","lat":43.31237,"lon":5.36877,"is_reserved":false,"is_disabled":false,"rental_uris":{"android":"levelo://app?vid=49b61dcf-43d8-49c4-8c17-afd1c2ef4337","ios":"levelo://app?vid=49b61dcf-43d8-49c4-8c17-afd1c2ef4337"},"vehicle_type_id":"4","last_reported":1723493336,"current_range_meters":31200,"station_id":"ce4bgl92rcd13ifvqbq0","pricing_plan_id":"cebpf4jnsgd1na2vs0mg"},{"bike_id":"b42b2727-7578-4c63-bc99-12ded8b50e1b","system_id":"levelo_inurba_marseille","lat":43.314811,"lon":5.373103,"is_reserved":false,"is_disabled":false,"rental_uris":{"android":"levelo://app?vid=b42b2727-7578-4c63-bc99-12ded8b50e1b","ios":"levelo://app?vid=b42b2727-7578-4c63-bc99-12ded8b50e1b"},"vehicle_type_id":"4","last_reported":1723493336,"current_range_meters":22000,"station_id":"ce4bgt12rcd13ifvqcd0","pricing_plan_id":"cebpf4jnsgd1na2vs0mg"},{"bike_id":"7d39efbc-3131-48a5-82df-8a31bf4ded8f","system_id":"levelo_inurba_marseille","lat":43.314811,"lon":5.373104,"is_reserved":false,"is_disabled":false,"rental_uris":{"android":"levelo://app?vid=7d39efbc-3131-48a5-82df-8a31bf4ded8f","ios":"levelo://app?vid=7d39efbc-3131-48a5-82df-8a31bf4ded8f"},"vehicle_type_id":"4","last_reported":1723493336,"current_range_meters":4800,"station_id":"ce4bgt12rcd13ifvqcd0","pricing_plan_id":"cebpf4jnsgd1na2vs0mg"},{"bike_id":"343b6894-95f7-41ba-bb3f-66d5af84308d","system_id":"levelo_inurba_marseille","lat":43.309039,"lon":5.371797,"is_reserved":false,"is_disabled":false,"rental_uris":{"android":"levelo://app?vid=343b6894-95f7-41ba-bb3f-66d5af84308d","ios":"levelo://app?vid=343b6894-95f7-41ba-bb3f-66d5af84308d"},"vehicle_type_id":"4","last_reported":1723493336,"current_range_meters":8000,"station_id":"ce4bguh2rcd13ifvqckg","pricing_plan_id":"cebpf4jnsgd1na2vs0mg"},{"bike_id":"0cd3f410-cb9e-4ea3-82c1-b4ea65e3bcc5","system_id":"levelo_inurba_marseille","lat":43.309039,"lon":5.371797,"is_reserved":false,"is_disabled":false,"rental_uris":{"android":"levelo://app?vid=0cd3f410-cb9e-4ea3-82c1-b4ea65e3bcc5","ios":"levelo://app?vid=0cd3f410-cb9e-4ea3-82c1-b4ea65e3bcc5"},"vehicle_type_id":"4","last_reported":1723493336,"current_range_meters":0,"station_id":"ce4bguh2rcd13ifvqckg","pricing_plan_id":"cebpf4jnsgd1na2vs0mg"},{"bike_id":"802ee418-d327-4584-a8d8-355bc05f5a44","system_id":"levelo_inurba_marseille","lat":43.309039,"lon":5.371797,"is_reserved":false,"is_disabled":false,"rental_uris":{"android":"levelo://app?vid=802ee418-d327-4584-a8d8-355bc05f5a44","ios":"levelo://app?vid=802ee418-d327-4584-a8d8-355bc05f5a44"},"vehicle_type_id":"4","last_reported":1723493336,"current_range_meters":30000,"station_id":"ce4bguh2rcd13ifvqckg","pricing_plan_id":"cebpf4jnsgd1na2vs0mg"},{"bike_id":"629d01f7-cc91-46be-847f-f0d0b6a74b82","system_id":"levelo_inurba_marseille","lat":43.309039,"lon":5.371797,"is_reserved":false,"is_disabled":false,"rental_uris":{"android":"levelo://app?vid=629d01f7-cc91-46be-847f-f0d0b6a74b82","ios":"levelo://app?vid=629d01f7-cc91-46be-847f-f0d0b6a74b82"},"vehicle_type_id":"4","last_reported":1723493336,"current_range_meters":31600,"station_id":"ce4bguh2rcd13ifvqckg","pricing_plan_id":"cebpf4jnsgd1na2vs0mg"},{"bike_id":"b4223c76-80c5-43b1-9871-38306a007766","system_id":"levelo_inurba_marseille","lat":43.309039,"lon":5.371797,"is_reserved":false,"is_disabled":false,"rental_uris":{"android":"levelo://app?vid=b4223c76-80c5-43b1-9871-38306a007766","ios":"levelo://app?vid=b4223c76-80c5-43b1-9871-38306a007766"},"vehicle_type_id":"4","last_reported":1723493336,"current_range_meters":31600,"station_id":"ce4bguh2rcd13ifvqckg","pricing_plan_id":"cebpf4jnsgd1na2vs0mg"},{"bike_id":"7168e6ff-7e18-457c-9aef-68e0c2b76454","system_id":"levelo_inurba_marseille","lat":43.309039,"lon":5.371797,"is_reserved":false,"is_disabled":false,"rental_uris":{"android":"levelo://app?vid=7168e6ff-7e18-457c-9aef-68e0c2b76454","ios":"levelo://app?vid=7168e6ff-7e18-457c-9aef-68e0c2b76454"},"vehicle_type_id":"4","last_reported":1723493336,"current_range_meters":16000,"station_id":"ce4bguh2rcd13ifvqckg","pricing_plan_id":"cebpf4jnsgd1na2vs0mg"},{"bike_id":"98804202-4868-48a3-8d7d-ef3ea102ffed","system_id":"levelo_inurba_marseille","lat":43.30884,"lon":5.372,"is_reserved":false,"is_disabled":false,"rental_uris":{"android":"levelo://app?vid=98804202-4868-48a3-8d7d-ef3ea102ffed","ios":"levelo://app?vid=98804202-4868-48a3-8d7d-ef3ea102ffed"},"vehicle_type_id":"4","last_reported":1723493336,"current_range_meters":30400,"station_id":"ce4bguh2rcd13ifvqckg","pricing_plan_id":"cebpf4jnsgd1na2vs0mg"},{"bike_id":"f32d3d7a-9834-4343-8bd6-c6e20d69513a","system_id":"levelo_inurba_marseille","lat":43.305712,"lon":5.365641,"is_reserved":false,"is_disabled":false,"rental_uris":{"android":"levelo://app?vid=f32d3d7a-9834-4343-8bd6-c6e20d69513a","ios":"levelo://app?vid=f32d3d7a-9834-4343-8bd6-c6e20d69513a"},"vehicle_type_id":"4","last_reported":1723493336,"current_range_meters":16400,"station_id":"ce4bgs12rcd13ifvqcag","pricing_plan_id":"cebpf4jnsgd1na2vs0mg"},{"bike_id":"1f509f2f-e3ff-4931-826a-a76d2c127e7e","system_id":"levelo_inurba_marseille","lat":43.30529,"lon":5.36712,"is_reserved":false,"is_disabled":false,"rental_uris":{"android":"levelo://app?vid=1f509f2f-e3ff-4931-826a-a76d2c127e7e","ios":"levelo://app?vid=1f509f2f-e3ff-4931-826a-a76d2c127e7e"},"vehicle_type_id":"4","last_reported":1723493336,"current_range_meters":29200,"station_id":"ce4bgrp2rcd13ifvqc9g","pricing_plan_id":"cebpf4jnsgd1na2vs0mg"},{"bike_id":"e596cb3c-bb9f-4c41-a1fa-4d3315eb895c","system_id":"levelo_inurba_marseille","lat":43.305989,"lon":5.37225,"is_reserved":false,"is_disabled":false,"rental_uris":{"android":"levelo://app?vid=e596cb3c-bb9f-4c41-a1fa-4d3315eb895c","ios":"levelo://app?vid=e596cb3c-bb9f-4c41-a1fa-4d3315eb895c"},"vehicle_type_id":"4","last_reported":1723493336,"current_range_meters":12400,"station_id":"ce4bgqh2rcd13ifvqc4g","pricing_plan_id":"cebpf4jnsgd1na2vs0mg"},{"bike_id":"aa74773d-5419-4cf8-a46e-5ffa25f6e788","system_id":"levelo_inurba_marseille","lat":43.311125,"lon":5.377624,"is_reserved":false,"is_disabled":false,"rental_uris":{"android":"levelo://app?vid=aa74773d-5419-4cf8-a46e-5ffa25f6e788","ios":"levelo://app?vid=aa74773d-5419-4cf8-a46e-5ffa25f6e788"},"vehicle_type_id":"4","last_reported":1723493336,"current_range_meters":31200,"station_id":"ce4bgt92rcd13ifvqcg0","pricing_plan_id":"cebpf4jnsgd1na2vs0mg"},{"bike_id":"eb8b30e6-8348-4770-95d7-04ec63a343cb","system_id":"levelo_inurba_marseille","lat":43.311125,"lon":5.377624,"is_reserved":false,"is_disabled":false,"rental_uris":{"android":"levelo://app?vid=eb8b30e6-8348-4770-95d7-04ec63a343cb","ios":"levelo://app?vid=eb8b30e6-8348-4770-95d7-04ec63a343cb"},"vehicle_type_id":"4","last_reported":1723493336,"current_range_meters":10400,"station_id":"ce4bgt92rcd13ifvqcg0","pricing_plan_id":"cebpf4jnsgd1na2vs0mg"},{"bike_id":"3d02d444-e6d1-4d10-93b3-e8d4ebfa7fa5","system_id":"levelo_inurba_marseille","lat":43.307945,"lon":5.376487,"is_reserved":false,"is_disabled":false,"rental_uris":{"android":"levelo://app?vid=3d02d444-e6d1-4d10-93b3-e8d4ebfa7fa5","ios":"levelo://app?vid=3d02d444-e6d1-4d10-93b3-e8d4ebfa7fa5"},"vehicle_type_id":"4","last_reported":1723493336,"current_range_meters":400,"station_id":"ce4bgv92rcd13ifvqcq0","pricing_plan_id":"cebpf4jnsgd1na2vs0mg"},{"bike_id":"7c9715cf-304e-4782-9092-e1467f0371ae","system_id":"levelo_inurba_marseille","lat":43.307945,"lon":5.376487,"is_reserved":false,"is_disabled":false,"rental_uris":{"android":"levelo://app?vid=7c9715cf-304e-4782-9092-e1467f0371ae","ios":"levelo://app?vid=7c9715cf-304e-4782-9092-e1467f0371ae"},"vehicle_type_id":"4","last_reported":1723493336,"current_range_meters":21200,"station_id":"ce4bgv92rcd13ifvqcq0","pricing_plan_id":"cebpf4jnsgd1na2vs0mg"},{"bike_id":"4c497721-79eb-4158-aa50-4b48e50f9df3","system_id":"levelo_inurba_marseille","lat":43.30778,"lon":5.37652,"is_reserved":false,"is_disabled":false,"rental_uris":{"android":"levelo://app?vid=4c497721-79eb-4158-aa50-4b48e50f9df3","ios":"levelo://app?vid=4c497721-79eb-4158-aa50-4b48e50f9df3"},"vehicle_type_id":"4","last_reported":1723493336,"current_range_meters":19600,"station_id":"","pricing_plan_id":"cebpf4jnsgd1na2vs0mg"},{"bike_id":"6047c9e4-3aee-45d4-b6a2-0d10f84517b1","system_id":"levelo_inurba_marseille","lat":43.30938,"lon":5.378,"is_reserved":false,"is_disabled":false,"rental_uris":{"android":"levelo://app?vid=6047c9e4-3aee-45d4-b6a2-0d10f84517b1","ios":"levelo://app?vid=6047c9e4-3aee-45d4-b6a2-0d10f84517b1"},"vehicle_type_id":"4","last_reported":1723493336,"current_range_meters":400,"station_id":"","pricing_plan_id":"cebpf4jnsgd1na2vs0mg"},{"bike_id":"2a56d3c2-b55c-40bd-b08a-e4067c27bab0","system_id":"levelo_inurba_marseille","lat":43.317075,"lon":5.377367,"is_reserved":false,"is_disabled":false,"rental_uris":{"android":"levelo://app?vid=2a56d3c2-b55c-40bd-b08a-e4067c27bab0","ios":"levelo://app?vid=2a56d3c2-b55c-40bd-b08a-e4067c27bab0"},"vehicle_type_id":"4","last_reported":1723493336,"current_range_meters":18400,"station_id":"ce4bgth2rcd13ifvqch0","pricing_plan_id":"cebpf4jnsgd1na2vs0mg"},{"bike_id":"860f7ade-48fd-418f-b4f8-5e3d61ca7634","system_id":"levelo_inurba_marseille","lat":43.317075,"lon":5.377367,"is_reserved":false,"is_disabled":false,"rental_uris":{"android":"levelo://app?vid=860f7ade-48fd-418f-b4f8-5e3d61ca7634","ios":"levelo://app?vid=860f7ade-48fd-418f-b4f8-5e3d61ca7634"},"vehicle_type_id":"4","last_reported":1723493336,"current_range_meters":4800,"station_id":"ce4bgth2rcd13ifvqch0","pricing_plan_id":"cebpf4jnsgd1na2vs0mg"},{"bike_id":"5c9256fa-69d5-4014-881a-dfacfe67efd3","system_id":"levelo_inurba_marseille","lat":43.31248,"lon":5.37995,"is_reserved":false,"is_disabled":false,"rental_uris":{"android":"levelo://app?vid=5c9256fa-69d5-4014-881a-dfacfe67efd3","ios":"levelo://app?vid=5c9256fa-69d5-4014-881a-dfacfe67efd3"},"vehicle_type_id":"4","last_reported":1723493336,"current_range_meters":800,"station_id":"","pricing_plan_id":"cebpf4jnsgd1na2vs0mg"},{"bike_id":"8beb6e25-6a22-4297-89e9-50656e99251d","system_id":"levelo_inurba_marseille","lat":43.30304,"lon":5.368987,"is_reserved":false,"is_disabled":false,"rental_uris":{"android":"levelo://app?vid=8beb6e25-6a22-4297-89e9-50656e99251d","ios":"levelo://app?vid=8beb6e25-6a22-4297-89e9-50656e99251d"},"vehicle_type_id":"4","last_reported":1723493336,"current_range_meters":13600,"station_id":"ce4bgqh2rcd13ifvqc5g","pricing_plan_id":"cebpf4jnsgd1na2vs0mg"},{"bike_id":"e43d9e2c-9d56-4741-96c8-9ef311a5fe37","system_id":"levelo_inurba_marseille","lat":43.309,"lon":5.37941,"is_reserved":false,"is_disabled":false,"rental_uris":{"android":"levelo://app?vid=e43d9e2c-9d56-4741-96c8-9ef311a5fe37","ios":"levelo://app?vid=e43d9e2c-9d56-4741-96c8-9ef311a5fe37"},"vehicle_type_id":"4","last_reported":1723493336,"current_range_meters":19600,"station_id":"","pricing_plan_id":"cebpf4jnsgd1na2vs0mg"},{"bike_id":"faffc5bd-2337-4aef-ac12-7b55c767bc95","system_id":"levelo_inurba_marseille","lat":43.301939,"lon":5.366286,"is_reserved":false,"is_disabled":false,"rental_uris":{"android":"levelo://app?vid=faffc5bd-2337-4aef-ac12-7b55c767bc95","ios":"levelo://app?vid=faffc5bd-2337-4aef-ac12-7b55c767bc95"},"vehicle_type_id":"4","last_reported":1723493336,"current_range_meters":17600,"station_id":"ce4bgrh2rcd13ifvqc8g","pricing_plan_id":"cebpf4jnsgd1na2vs0mg"},{"bike_id":"c52f17d5-f2a0-43b3-ac70-1cff93155022","system_id":"levelo_inurba_marseille","lat":43.308546,"lon":5.381229,"is_reserved":false,"is_disabled":false,"rental_uris":{"android":"levelo://app?vid=c52f17d5-f2a0-43b3-ac70-1cff93155022","ios":"levelo://app?vid=c52f17d5-f2a0-43b3-ac70-1cff93155022"},"vehicle_type_id":"4","last_reported":1723493336,"current_range_meters":0,"station_id":"","pricing_plan_id":"cebpf4jnsgd1na2vs0mg"},{"bike_id":"5b9d0ea5-bb64-4e2c-8544-102240541bec","system_id":"levelo_inurba_marseille","lat":43.30795,"lon":5.38156,"is_reserved":false,"is_disabled":false,"rental_uris":{"android":"levelo://app?vid=5b9d0ea5-bb64-4e2c-8544-102240541bec","ios":"levelo://app?vid=5b9d0ea5-bb64-4e2c-8544-102240541bec"},"vehicle_type_id":"4","last_reported":1723493336,"current_range_meters":7600,"station_id":"ce4bgt12rcd13ifvqce0","pricing_plan_id":"cebpf4jnsgd1na2vs0mg"},{"bike_id":"5292467e-d4a0-436d-9891-0b2942b68758","system_id":"levelo_inurba_marseille","lat":43.308012,"lon":5.381511,"is_reserved":false,"is_disabled":false,"rental_uris":{"android":"levelo://app?vid=5292467e-d4a0-436d-9891-0b2942b68758","ios":"levelo://app?vid=5292467e-d4a0-436d-9891-0b2942b68758"},"vehicle_type_id":"4","last_reported":1723493336,"current_range_meters":0,"station_id":"ce4bgt12rcd13ifvqce0","pricing_plan_id":"cebpf4jnsgd1na2vs0mg"},{"bike_id":"b850fa2d-3860-4870-91ed-b34e88c5c14f","system_id":"levelo_inurba_marseille","lat":43.3079,"lon":5.38154,"is_reserved":false,"is_disabled":false,"rental_uris":{"android":"levelo://app?vid=b850fa2d-3860-4870-91ed-b34e88c5c14f","ios":"levelo://app?vid=b850fa2d-3860-4870-91ed-b34e88c5c14f"},"vehicle_type_id":"4","last_reported":1723493336,"current_range_meters":0,"station_id":"ce4bgt12rcd13ifvqce0","pricing_plan_id":"cebpf4jnsgd1na2vs0mg"},{"bike_id":"51f8a5cd-d9b7-44b3-ac7e-9b7a0c49c88d","system_id":"levelo_inurba_marseille","lat":43.308012,"lon":5.381511,"is_reserved":false,"is_disabled":false,"rental_uris":{"android":"levelo://app?vid=51f8a5cd-d9b7-44b3-ac7e-9b7a0c49c88d","ios":"levelo://app?vid=51f8a5cd-d9b7-44b3-ac7e-9b7a0c49c88d"},"vehicle_type_id":"4","last_reported":1723493336,"current_range_meters":11200,"station_id":"ce4bgt12rcd13ifvqce0","pricing_plan_id":"cebpf4jnsgd1na2vs0mg"},{"bike_id":"4dd1ae73-190d-4c40-a034-5d3e1f64107a","system_id":"levelo_inurba_marseille","lat":43.304606,"lon":5.379026,"is_reserved":false,"is_disabled":false,"rental_uris":{"android":"levelo://app?vid=4dd1ae73-190d-4c40-a034-5d3e1f64107a","ios":"levelo://app?vid=4dd1ae73-190d-4c40-a034-5d3e1f64107a"},"vehicle_type_id":"4","last_reported":1723493336,"current_range_meters":26000,"station_id":"ce4bgup2rcd13ifvqcn0","pricing_plan_id":"cebpf4jnsgd1na2vs0mg"},{"bike_id":"afea9d8e-5a80-40ed-a1b7-8dd64d1cc62b","system_id":"levelo_inurba_marseille","lat":43.304606,"lon":5.379026,"is_reserved":false,"is_disabled":false,"rental_uris":{"android":"levelo://app?vid=afea9d8e-5a80-40ed-a1b7-8dd64d1cc62b","ios":"levelo://app?vid=afea9d8e-5a80-40ed-a1b7-8dd64d1cc62b"},"vehicle_type_id":"4","last_reported":1723493336,"current_range_meters":800,"station_id":"ce4bgup2rcd13ifvqcn0","pricing_plan_id":"cebpf4jnsgd1na2vs0mg"},{"bike_id":"b23d956e-89e7-428a-9e46-09bacc32c3f9","system_id":"levelo_inurba_marseille","lat":43.324771,"lon":5.36557,"is_reserved":false,"is_disabled":false,"rental_uris":{"android":"levelo://app?vid=b23d956e-89e7-428a-9e46-09bacc32c3f9","ios":"levelo://app?vid=b23d956e-89e7-428a-9e46-09bacc32c3f9"},"vehicle_type_id":"4","last_reported":1723493336,"current_range_meters":22400,"station_id":"ce4bhs12rcd13ifvqhvg","pricing_plan_id":"cebpf4jnsgd1na2vs0mg"},{"bike_id":"55b7ff80-d183-43f9-8ad1-98259ae13231","system_id":"levelo_inurba_marseille","lat":43.31048,"lon":5.38319,"is_reserved":false,"is_disabled":false,"rental_uris":{"android":"levelo://app?vid=55b7ff80-d183-43f9-8ad1-98259ae13231","ios":"levelo://app?vid=55b7ff80-d183-43f9-8ad1-98259ae13231"},"vehicle_type_id":"4","last_reported":1723493336,"current_range_meters":31200,"station_id":"ce4bgv92rcd13ifvqcr0","pricing_plan_id":"cebpf4jnsgd1na2vs0mg"},{"bike_id":"5bfd8e36-e96d-48a7-bf3e-62ca9145e01d","system_id":"levelo_inurba_marseille","lat":43.324771,"lon":5.36557,"is_reserved":false,"is_disabled":false,"rental_uris":{"android":"levelo://app?vid=5bfd8e36-e96d-48a7-bf3e-62ca9145e01d","ios":"levelo://app?vid=5bfd8e36-e96d-48a7-bf3e-62ca9145e01d"},"vehicle_type_id":"4","last_reported":1723493336,"current_range_meters":4400,"station_id":"ce4bhs12rcd13ifvqhvg","pricing_plan_id":"cebpf4jnsgd1na2vs0mg"},{"bike_id":"ab56875d-42df-4a69-a3bf-5287c3546f72","system_id":"levelo_inurba_marseille","lat":43.32482,"lon":5.36575,"is_reserved":false,"is_disabled":false,"rental_uris":{"android":"levelo://app?vid=ab56875d-42df-4a69-a3bf-5287c3546f72","ios":"levelo://app?vid=ab56875d-42df-4a69-a3bf-5287c3546f72"},"vehicle_type_id":"4","last_reported":1723493336,"current_range_meters":10400,"station_id":"ce4bhs12rcd13ifvqhvg","pricing_plan_id":"cebpf4jnsgd1na2vs0mg"},{"bike_id":"d1d0b087-a9d5-4336-bc0e-d7fa15adb032","system_id":"levelo_inurba_marseille","lat":43.310804,"lon":5.38359,"is_reserved":false,"is_disabled":false,"rental_uris":{"android":"levelo://app?vid=d1d0b087-a9d5-4336-bc0e-d7fa15adb032","ios":"levelo://app?vid=d1d0b087-a9d5-4336-bc0e-d7fa15adb032"},"vehicle_type_id":"4","last_reported":1723493336,"current_range_meters":6800,"station_id":"ce4bgv92rcd13ifvqcr0","pricing_plan_id":"cebpf4jnsgd1na2vs0mg"},{"bike_id":"b2245de5-5f52-413e-853a-d1da03e9b097","system_id":"levelo_inurba_marseille","lat":43.30612,"lon":5.38149,"is_reserved":false,"is_disabled":false,"rental_uris":{"android":"levelo://app?vid=b2245de5-5f52-413e-853a-d1da03e9b097","ios":"levelo://app?vid=b2245de5-5f52-413e-853a-d1da03e9b097"},"vehicle_type_id":"4","last_reported":1723493336,"current_range_meters":20800,"station_id":"","pricing_plan_id":"cebpf4jnsgd1na2vs0mg"},{"bike_id":"02c9dd0b-9bd8-4ac8-a213-24400626f233","system_id":"levelo_inurba_marseille","lat":43.319935,"lon":5.381699,"is_reserved":false,"is_disabled":false,"rental_uris":{"android":"levelo://app?vid=02c9dd0b-9bd8-4ac8-a213-24400626f233","ios":"levelo://app?vid=02c9dd0b-9bd8-4ac8-a213-24400626f233"},"vehicle_type_id":"4","last_reported":1723493336,"current_range_meters":30000,"station_id":"ce4bhr12rcd13ifvqhpg","pricing_plan_id":"cebpf4jnsgd1na2vs0mg"},{"bike_id":"a8947c3d-e102-492c-abe8-d300614b78ed","system_id":"levelo_inurba_marseille","lat":43.313571,"lon":5.384829,"is_reserved":false,"is_disabled":false,"rental_uris":{"android":"levelo://app?vid=a8947c3d-e102-492c-abe8-d300614b78ed","ios":"levelo://app?vid=a8947c3d-e102-492c-abe8-d300614b78ed"},"vehicle_type_id":"4","last_reported":1723493336,"current_range_meters":27600,"station_id":"ce4bgt92rcd13ifvqcf0","pricing_plan_id":"cebpf4jnsgd1na2vs0mg"},{"bike_id":"ee52e316-6c4a-449e-97c7-bbf054a98177","system_id":"levelo_inurba_marseille","lat":43.313571,"lon":5.384829,"is_reserved":false,"is_disabled":false,"rental_uris":{"android":"levelo://app?vid=ee52e316-6c4a-449e-97c7-bbf054a98177","ios":"levelo://app?vid=ee52e316-6c4a-449e-97c7-bbf054a98177"},"vehicle_type_id":"4","last_reported":1723493336,"current_range_meters":9600,"station_id":"ce4bgt92rcd13ifvqcf0","pricing_plan_id":"cebpf4jnsgd1na2vs0mg"},{"bike_id":"57cdf946-05ef-464f-9036-1700d2bd7ae1","system_id":"levelo_inurba_marseille","lat":43.31356,"lon":5.38494,"is_reserved":false,"is_disabled":false,"rental_uris":{"android":"levelo://app?vid=57cdf946-05ef-464f-9036-1700d2bd7ae1","ios":"levelo://app?vid=57cdf946-05ef-464f-9036-1700d2bd7ae1"},"vehicle_type_id":"4","last_reported":1723493336,"current_range_meters":30000,"station_id":"ce4bgt92rcd13ifvqcf0","pricing_plan_id":"cebpf4jnsgd1na2vs0mg"},{"bike_id":"fe4694ac-b5f3-4abb-b744-606b54beefbf","system_id":"levelo_inurba_marseille","lat":43.31366,"lon":5.38498,"is_reserved":false,"is_disabled":false,"rental_uris":{"android":"levelo://app?vid=fe4694ac-b5f3-4abb-b744-606b54beefbf","ios":"levelo://app?vid=fe4694ac-b5f3-4abb-b744-606b54beefbf"},"vehicle_type_id":"4","last_reported":1723493336,"current_range_meters":26000,"station_id":"ce4bgt92rcd13ifvqcf0","pricing_plan_id":"cebpf4jnsgd1na2vs0mg"},{"bike_id":"0494327e-d6c2-42ec-91c4-49496276ef21","system_id":"levelo_inurba_marseille","lat":43.299807,"lon":5.371733,"is_reserved":false,"is_disabled":false,"rental_uris":{"android":"levelo://app?vid=0494327e-d6c2-42ec-91c4-49496276ef21","ios":"levelo://app?vid=0494327e-d6c2-42ec-91c4-49496276ef21"},"vehicle_type_id":"4","last_reported":1723493336,"current_range_meters":0,"station_id":"ce4bgr92rcd13ifvqc7g","pricing_plan_id":"cebpf4jnsgd1na2vs0mg"},{"bike_id":"83883bf2-fd97-432d-a12b-dacf13fa1f7c","system_id":"levelo_inurba_marseille","lat":43.299724,"lon":5.371829,"is_reserved":false,"is_disabled":false,"rental_uris":{"android":"levelo://app?vid=83883bf2-fd97-432d-a12b-dacf13fa1f7c","ios":"levelo://app?vid=83883bf2-fd97-432d-a12b-dacf13fa1f7c"},"vehicle_type_id":"4","last_reported":1723493336,"current_range_meters":24400,"station_id":"ce4bgr92rcd13ifvqc7g","pricing_plan_id":"cebpf4jnsgd1na2vs0mg"},{"bike_id":"3cb883fb-cd20-44a1-8364-ef2af28b3c0f","system_id":"levelo_inurba_marseille","lat":43.299724,"lon":5.371829,"is_reserved":false,"is_disabled":false,"rental_uris":{"android":"levelo://app?vid=3cb883fb-cd20-44a1-8364-ef2af28b3c0f","ios":"levelo://app?vid=3cb883fb-cd20-44a1-8364-ef2af28b3c0f"},"vehicle_type_id":"4","last_reported":1723493336,"current_range_meters":30000,"station_id":"ce4bgr92rcd13ifvqc7g","pricing_plan_id":"cebpf4jnsgd1na2vs0mg"},{"bike_id":"eafae14d-5cec-48ca-a8cd-01831294ed01","system_id":"levelo_inurba_marseille","lat":43.299724,"lon":5.371829,"is_reserved":false,"is_disabled":false,"rental_uris":{"android":"levelo://app?vid=eafae14d-5cec-48ca-a8cd-01831294ed01","ios":"levelo://app?vid=eafae14d-5cec-48ca-a8cd-01831294ed01"},"vehicle_type_id":"4","last_reported":1723493336,"current_range_meters":25600,"station_id":"ce4bgr92rcd13ifvqc7g","pricing_plan_id":"cebpf4jnsgd1na2vs0mg"},{"bike_id":"547a6d60-786f-45aa-b016-553636cb30f3","system_id":"levelo_inurba_marseille","lat":43.299718,"lon":5.37174,"is_reserved":false,"is_disabled":false,"rental_uris":{"android":"levelo://app?vid=547a6d60-786f-45aa-b016-553636cb30f3","ios":"levelo://app?vid=547a6d60-786f-45aa-b016-553636cb30f3"},"vehicle_type_id":"4","last_reported":1723493336,"current_range_meters":0,"station_id":"ce4bgr92rcd13ifvqc7g","pricing_plan_id":"cebpf4jnsgd1na2vs0mg"},{"bike_id":"773a4851-a850-46a0-af64-d57fa7471a2d","system_id":"levelo_inurba_marseille","lat":43.2985,"lon":5.36286,"is_reserved":false,"is_disabled":false,"rental_uris":{"android":"levelo://app?vid=773a4851-a850-46a0-af64-d57fa7471a2d","ios":"levelo://app?vid=773a4851-a850-46a0-af64-d57fa7471a2d"},"vehicle_type_id":"4","last_reported":1723493336,"current_range_meters":4800,"station_id":"ce4bgpp2rcd13ifvqc3g","pricing_plan_id":"cebpf4jnsgd1na2vs0mg"},{"bike_id":"30440356-cf89-4de0-bd36-46332424629c","system_id":"levelo_inurba_marseille","lat":43.305364,"lon":5.384119,"is_reserved":false,"is_disabled":false,"rental_uris":{"android":"levelo://app?vid=30440356-cf89-4de0-bd36-46332424629c","ios":"levelo://app?vid=30440356-cf89-4de0-bd36-46332424629c"},"vehicle_type_id":"4","last_reported":1723493336,"current_range_meters":1600,"station_id":"ce4bgg92rcd13ifvqb30","pricing_plan_id":"cebpf4jnsgd1na2vs0mg"},{"bike_id":"283b0680-89b5-4b42-afc8-95f66488e66f","system_id":"levelo_inurba_marseille","lat":43.305364,"lon":5.384119,"is_reserved":false,"is_disabled":false,"rental_uris":{"android":"levelo://app?vid=283b0680-89b5-4b42-afc8-95f66488e66f","ios":"levelo://app?vid=283b0680-89b5-4b42-afc8-95f66488e66f"},"vehicle_type_id":"4","last_reported":1723493336,"current_range_meters":8800,"station_id":"ce4bgg92rcd13ifvqb30","pricing_plan_id":"cebpf4jnsgd1na2vs0mg"},{"bike_id":"ba12b2d1-1029-41d8-9f9c-cc233acf73e5","system_id":"levelo_inurba_marseille","lat":43.305364,"lon":5.384119,"is_reserved":false,"is_disabled":false,"rental_uris":{"android":"levelo://app?vid=ba12b2d1-1029-41d8-9f9c-cc233acf73e5","ios":"levelo://app?vid=ba12b2d1-1029-41d8-9f9c-cc233acf73e5"},"vehicle_type_id":"4","last_reported":1723493336,"current_range_meters":6000,"station_id":"ce4bgg92rcd13ifvqb30","pricing_plan_id":"cebpf4jnsgd1na2vs0mg"},{"bike_id":"0d412d3f-f364-41a1-ab59-cc396841e24f","system_id":"levelo_inurba_marseille","lat":43.299243,"lon":5.37481,"is_reserved":false,"is_disabled":false,"rental_uris":{"android":"levelo://app?vid=0d412d3f-f364-41a1-ab59-cc396841e24f","ios":"levelo://app?vid=0d412d3f-f364-41a1-ab59-cc396841e24f"},"vehicle_type_id":"4","last_reported":1723493336,"current_range_meters":28400,"station_id":"ce4bgjh2rcd13ifvqbg0","pricing_plan_id":"cebpf4jnsgd1na2vs0mg"},{"bike_id":"a32e13b0-9977-4ebf-84ca-34a931baed65","system_id":"levelo_inurba_marseille","lat":43.305364,"lon":5.384119,"is_reserved":false,"is_disabled":false,"rental_uris":{"android":"levelo://app?vid=a32e13b0-9977-4ebf-84ca-34a931baed65","ios":"levelo://app?vid=a32e13b0-9977-4ebf-84ca-34a931baed65"},"vehicle_type_id":"4","last_reported":1723493336,"current_range_meters":15200,"station_id":"ce4bgg92rcd13ifvqb30","pricing_plan_id":"cebpf4jnsgd1na2vs0mg"},{"bike_id":"0f57b7f2-bb48-42d3-b44d-ce84d0086e76","system_id":"levelo_inurba_marseille","lat":43.311722,"lon":5.387247,"is_reserved":false,"is_disabled":false,"rental_uris":{"android":"levelo://app?vid=0f57b7f2-bb48-42d3-b44d-ce84d0086e76","ios":"levelo://app?vid=0f57b7f2-bb48-42d3-b44d-ce84d0086e76"},"vehicle_type_id":"4","last_reported":1723493336,"current_range_meters":6800,"station_id":"ce4bgv12rcd13ifvqcp0","pricing_plan_id":"cebpf4jnsgd1na2vs0mg"},{"bike_id":"3e315c03-bb88-4419-a1bb-0cce4e0eaae7","system_id":"levelo_inurba_marseille","lat":43.322872,"lon":5.382756,"is_reserved":false,"is_disabled":false,"rental_uris":{"android":"levelo://app?vid=3e315c03-bb88-4419-a1bb-0cce4e0eaae7","ios":"levelo://app?vid=3e315c03-bb88-4419-a1bb-0cce4e0eaae7"},"vehicle_type_id":"4","last_reported":1723493336,"current_range_meters":26800,"station_id":"ce4bhr12rcd13ifvqhqg","pricing_plan_id":"cebpf4jnsgd1na2vs0mg"},{"bike_id":"ad795254-39c6-4cf0-b8f0-4e510c12b011","system_id":"levelo_inurba_marseille","lat":43.297163,"lon":5.365866,"is_reserved":false,"is_disabled":false,"rental_uris":{"android":"levelo://app?vid=ad795254-39c6-4cf0-b8f0-4e510c12b011","ios":"levelo://app?vid=ad795254-39c6-4cf0-b8f0-4e510c12b011"},"vehicle_type_id":"4","last_reported":1723493336,"current_range_meters":27600,"station_id":"ce4bgn12rcd13ifvqbt0","pricing_plan_id":"cebpf4jnsgd1na2vs0mg"},{"bike_id":"1b701831-2325-420d-8f90-08930e5af163","system_id":"levelo_inurba_marseille","lat":43.297163,"lon":5.365866,"is_reserved":false,"is_disabled":false,"rental_uris":{"android":"levelo://app?vid=1b701831-2325-420d-8f90-08930e5af163","ios":"levelo://app?vid=1b701831-2325-420d-8f90-08930e5af163"},"vehicle_type_id":"4","last_reported":1723493336,"current_range_meters":31200,"station_id":"ce4bgn12rcd13ifvqbt0","pricing_plan_id":"cebpf4jnsgd1na2vs0mg"},{"bike_id":"bfb5024a-4052-4a78-b3f7-736eccea99b0","system_id":"levelo_inurba_marseille","lat":43.297163,"lon":5.365866,"is_reserved":false,"is_disabled":false,"rental_uris":{"android":"levelo://app?vid=bfb5024a-4052-4a78-b3f7-736eccea99b0","ios":"levelo://app?vid=bfb5024a-4052-4a78-b3f7-736eccea99b0"},"vehicle_type_id":"4","last_reported":1723493336,"current_range_meters":26800,"station_id":"ce4bgn12rcd13ifvqbt0","pricing_plan_id":"cebpf4jnsgd1na2vs0mg"},{"bike_id":"7b44bdea-1c79-4a94-b5ca-423cb2516852","system_id":"levelo_inurba_marseille","lat":43.2968,"lon":5.37291,"is_reserved":false,"is_disabled":false,"rental_uris":{"android":"levelo://app?vid=7b44bdea-1c79-4a94-b5ca-423cb2516852","ios":"levelo://app?vid=7b44bdea-1c79-4a94-b5ca-423cb2516852"},"vehicle_type_id":"4","last_reported":1723493336,"current_range_meters":31200,"station_id":"ce4bgk12rcd13ifvqbj0","pricing_plan_id":"cebpf4jnsgd1na2vs0mg"},{"bike_id":"084ca7fc-5818-44e0-afbd-eeeee780e8d0","system_id":"levelo_inurba_marseille","lat":43.296131,"lon":5.370791,"is_reserved":false,"is_disabled":false,"rental_uris":{"android":"levelo://app?vid=084ca7fc-5818-44e0-afbd-eeeee780e8d0","ios":"levelo://app?vid=084ca7fc-5818-44e0-afbd-eeeee780e8d0"},"vehicle_type_id":"4","last_reported":1723493336,"current_range_meters":0,"station_id":"ce4bgnh2rcd13ifvqc0g","pricing_plan_id":"cebpf4jnsgd1na2vs0mg"},{"bike_id":"40e0e8f1-2927-4191-bc50-6e980b69e84b","system_id":"levelo_inurba_marseille","lat":43.296131,"lon":5.370773,"is_reserved":false,"is_disabled":false,"rental_uris":{"android":"levelo://app?vid=40e0e8f1-2927-4191-bc50-6e980b69e84b","ios":"levelo://app?vid=40e0e8f1-2927-4191-bc50-6e980b69e84b"},"vehicle_type_id":"4","last_reported":1723493336,"current_range_meters":1600,"station_id":"ce4bgnh2rcd13ifvqc0g","pricing_plan_id":"cebpf4jnsgd1na2vs0mg"},{"bike_id":"6e96cc57-89b4-4f8d-b92e-b9c1e4cfc84c","system_id":"levelo_inurba_marseille","lat":43.299028,"lon":5.381509,"is_reserved":false,"is_disabled":false,"rental_uris":{"android":"levelo://app?vid=6e96cc57-89b4-4f8d-b92e-b9c1e4cfc84c","ios":"levelo://app?vid=6e96cc57-89b4-4f8d-b92e-b9c1e4cfc84c"},"vehicle_type_id":"4","last_reported":1723493336,"current_range_meters":20000,"station_id":"ce4bgj12rcd13ifvqbc0","pricing_plan_id":"cebpf4jnsgd1na2vs0mg"},{"bike_id":"f79b6174-4795-4ab5-af5a-9b8efdc4028b","system_id":"levelo_inurba_marseille","lat":43.299028,"lon":5.381509,"is_reserved":false,"is_disabled":false,"rental_uris":{"android":"levelo://app?vid=f79b6174-4795-4ab5-af5a-9b8efdc4028b","ios":"levelo://app?vid=f79b6174-4795-4ab5-af5a-9b8efdc4028b"},"vehicle_type_id":"4","last_reported":1723493336,"current_range_meters":800,"station_id":"ce4bgj12rcd13ifvqbc0","pricing_plan_id":"cebpf4jnsgd1na2vs0mg"},{"bike_id":"9e386b9f-4961-4d90-baed-bb345e6ffc07","system_id":"levelo_inurba_marseille","lat":43.309589,"lon":5.390258,"is_reserved":false,"is_disabled":false,"rental_uris":{"android":"levelo://app?vid=9e386b9f-4961-4d90-baed-bb345e6ffc07","ios":"levelo://app?vid=9e386b9f-4961-4d90-baed-bb345e6ffc07"},"vehicle_type_id":"4","last_reported":1723493336,"current_range_meters":25200,"station_id":"ce4bgup2rcd13ifvqco0","pricing_plan_id":"cebpf4jnsgd1na2vs0mg"},{"bike_id":"15e927fb-3a3a-4c20-be42-d161be6de745","system_id":"levelo_inurba_marseille","lat":43.309589,"lon":5.390258,"is_reserved":false,"is_disabled":false,"rental_uris":{"android":"levelo://app?vid=15e927fb-3a3a-4c20-be42-d161be6de745","ios":"levelo://app?vid=15e927fb-3a3a-4c20-be42-d161be6de745"},"vehicle_type_id":"4","last_reported":1723493336,"current_range_meters":28000,"station_id":"ce4bgup2rcd13ifvqco0","pricing_plan_id":"cebpf4jnsgd1na2vs0mg"},{"bike_id":"7616d157-9395-48b3-8b86-6d62acea177f","system_id":"levelo_inurba_marseille","lat":43.317557,"lon":5.390173,"is_reserved":false,"is_disabled":false,"rental_uris":{"android":"levelo://app?vid=7616d157-9395-48b3-8b86-6d62acea177f","ios":"levelo://app?vid=7616d157-9395-48b3-8b86-6d62acea177f"},"vehicle_type_id":"4","last_reported":1723493336,"current_range_meters":27600,"station_id":"ce4bhqp2rcd13ifvqhng","pricing_plan_id":"cebpf4jnsgd1na2vs0mg"},{"bike_id":"75523abc-4484-47d7-8148-f8086725445f","system_id":"levelo_inurba_marseille","lat":43.304274,"lon":5.388873,"is_reserved":false,"is_disabled":false,"rental_uris":{"android":"levelo://app?vid=75523abc-4484-47d7-8148-f8086725445f","ios":"levelo://app?vid=75523abc-4484-47d7-8148-f8086725445f"},"vehicle_type_id":"4","last_reported":1723493336,"current_range_meters":5600,"station_id":"ce4bgk12rcd13ifvqbi0","pricing_plan_id":"cebpf4jnsgd1na2vs0mg"},{"bike_id":"4f9c451a-55eb-4eca-b107-38f72137662b","system_id":"levelo_inurba_marseille","lat":43.304274,"lon":5.388873,"is_reserved":false,"is_disabled":false,"rental_uris":{"android":"levelo://app?vid=4f9c451a-55eb-4eca-b107-38f72137662b","ios":"levelo://app?vid=4f9c451a-55eb-4eca-b107-38f72137662b"},"vehicle_type_id":"4","last_reported":1723493336,"current_range_meters":12800,"station_id":"ce4bgk12rcd13ifvqbi0","pricing_plan_id":"cebpf4jnsgd1na2vs0mg"},{"bike_id":"4ea04918-076a-476e-9a3d-9fa512df2be2","system_id":"levelo_inurba_marseille","lat":43.295748,"lon":5.37522,"is_reserved":false,"is_disabled":false,"rental_uris":{"android":"levelo://app?vid=4ea04918-076a-476e-9a3d-9fa512df2be2","ios":"levelo://app?vid=4ea04918-076a-476e-9a3d-9fa512df2be2"},"vehicle_type_id":"4","last_reported":1723493336,"current_range_meters":0,"station_id":"ce4bgh92rcd13ifvqb50","pricing_plan_id":"cebpf4jnsgd1na2vs0mg"},{"bike_id":"1dec799e-822b-4822-8ab8-a8614e71f46a","system_id":"levelo_inurba_marseille","lat":43.295748,"lon":5.37522,"is_reserved":false,"is_disabled":false,"rental_uris":{"android":"levelo://app?vid=1dec799e-822b-4822-8ab8-a8614e71f46a","ios":"levelo://app?vid=1dec799e-822b-4822-8ab8-a8614e71f46a"},"vehicle_type_id":"4","last_reported":1723493336,"current_range_meters":0,"station_id":"ce4bgh92rcd13ifvqb50","pricing_plan_id":"cebpf4jnsgd1na2vs0mg"},{"bike_id":"84359116-5b5f-4835-97be-35cfc81cfd4a","system_id":"levelo_inurba_marseille","lat":43.304278,"lon":5.388868,"is_reserved":false,"is_disabled":false,"rental_uris":{"android":"levelo://app?vid=84359116-5b5f-4835-97be-35cfc81cfd4a","ios":"levelo://app?vid=84359116-5b5f-4835-97be-35cfc81cfd4a"},"vehicle_type_id":"4","last_reported":1723493336,"current_range_meters":30000,"station_id":"ce4bgk12rcd13ifvqbi0","pricing_plan_id":"cebpf4jnsgd1na2vs0mg"},{"bike_id":"a9b05283-e368-4036-bff0-1553a309c98f","system_id":"levelo_inurba_marseille","lat":43.29745,"lon":5.38049,"is_reserved":false,"is_disabled":false,"rental_uris":{"android":"levelo://app?vid=a9b05283-e368-4036-bff0-1553a309c98f","ios":"levelo://app?vid=a9b05283-e368-4036-bff0-1553a309c98f"},"vehicle_type_id":"4","last_reported":1723493336,"current_range_meters":15200,"station_id":"","pricing_plan_id":"cebpf4jnsgd1na2vs0mg"},{"bike_id":"0cefb478-2984-4c35-9b87-ec882b6d8f46","system_id":"levelo_inurba_marseille","lat":43.296277,"lon":5.377108,"is_reserved":false,"is_disabled":false,"rental_uris":{"android":"levelo://app?vid=0cefb478-2984-4c35-9b87-ec882b6d8f46","ios":"levelo://app?vid=0cefb478-2984-4c35-9b87-ec882b6d8f46"},"vehicle_type_id":"4","last_reported":1723493336,"current_range_meters":800,"station_id":"ce4bgi92rcd13ifvqb90","pricing_plan_id":"cebpf4jnsgd1na2vs0mg"},{"bike_id":"c88db8f3-df35-4513-8846-8a88aa9e7b8f","system_id":"levelo_inurba_marseille","lat":43.304278,"lon":5.388868,"is_reserved":false,"is_disabled":false,"rental_uris":{"android":"levelo://app?vid=c88db8f3-df35-4513-8846-8a88aa9e7b8f","ios":"levelo://app?vid=c88db8f3-df35-4513-8846-8a88aa9e7b8f"},"vehicle_type_id":"4","last_reported":1723493336,"current_range_meters":21600,"station_id":"ce4bgk12rcd13ifvqbi0","pricing_plan_id":"cebpf4jnsgd1na2vs0mg"},{"bike_id":"fbbb5242-5f25-4302-a232-38baa700cb9e","system_id":"levelo_inurba_marseille","lat":43.304606,"lon":5.379026,"is_reserved":false,"is_disabled":false,"rental_uris":{"android":"levelo://app?vid=fbbb5242-5f25-4302-a232-38baa700cb9e","ios":"levelo://app?vid=fbbb5242-5f25-4302-a232-38baa700cb9e"},"vehicle_type_id":"4","last_reported":1723493336,"current_range_meters":21600,"station_id":"ce4bgup2rcd13ifvqcn0","pricing_plan_id":"cebpf4jnsgd1na2vs0mg"},{"bike_id":"da37a913-5082-479e-a445-2c70b24852b7","system_id":"levelo_inurba_marseille","lat":43.299707,"lon":5.384859,"is_reserved":false,"is_disabled":false,"rental_uris":{"android":"levelo://app?vid=da37a913-5082-479e-a445-2c70b24852b7","ios":"levelo://app?vid=da37a913-5082-479e-a445-2c70b24852b7"},"vehicle_type_id":"4","last_reported":1723493336,"current_range_meters":25200,"station_id":"ce4bgj92rcd13ifvqbd0","pricing_plan_id":"cebpf4jnsgd1na2vs0mg"},{"bike_id":"c80b4f6c-dd4f-4fe8-b1cc-8ef7e7bb59dc","system_id":"levelo_inurba_marseille","lat":43.299707,"lon":5.384859,"is_reserved":false,"is_disabled":false,"rental_uris":{"android":"levelo://app?vid=c80b4f6c-dd4f-4fe8-b1cc-8ef7e7bb59dc","ios":"levelo://app?vid=c80b4f6c-dd4f-4fe8-b1cc-8ef7e7bb59dc"},"vehicle_type_id":"4","last_reported":1723493336,"current_range_meters":0,"station_id":"ce4bgj92rcd13ifvqbd0","pricing_plan_id":"cebpf4jnsgd1na2vs0mg"},{"bike_id":"e635bd85-97e8-4161-8564-d56ae231eec1","system_id":"levelo_inurba_marseille","lat":43.30142,"lon":5.38781,"is_reserved":false,"is_disabled":false,"rental_uris":{"android":"levelo://app?vid=e635bd85-97e8-4161-8564-d56ae231eec1","ios":"levelo://app?vid=e635bd85-97e8-4161-8564-d56ae231eec1"},"vehicle_type_id":"4","last_reported":1723493336,"current_range_meters":0,"station_id":"ce4bghh2rcd13ifvqb60","pricing_plan_id":"cebpf4jnsgd1na2vs0mg"},{"bike_id":"0ad202d3-e711-4133-b1a1-dfa9e00cc9bf","system_id":"levelo_inurba_marseille","lat":43.32367,"lon":5.388836,"is_reserved":false,"is_disabled":false,"rental_uris":{"android":"levelo://app?vid=0ad202d3-e711-4133-b1a1-dfa9e00cc9bf","ios":"levelo://app?vid=0ad202d3-e711-4133-b1a1-dfa9e00cc9bf"},"vehicle_type_id":"4","last_reported":1723493336,"current_range_meters":11200,"station_id":"ce4bhqp2rcd13ifvqhog","pricing_plan_id":"cebpf4jnsgd1na2vs0mg"},{"bike_id":"c8dae55d-5924-4d2b-9cfe-4fac3b2bb6a8","system_id":"levelo_inurba_marseille","lat":43.32367,"lon":5.388836,"is_reserved":false,"is_disabled":false,"rental_uris":{"android":"levelo://app?vid=c8dae55d-5924-4d2b-9cfe-4fac3b2bb6a8","ios":"levelo://app?vid=c8dae55d-5924-4d2b-9cfe-4fac3b2bb6a8"},"vehicle_type_id":"4","last_reported":1723493336,"current_range_meters":22400,"station_id":"ce4bhqp2rcd13ifvqhog","pricing_plan_id":"cebpf4jnsgd1na2vs0mg"},{"bike_id":"4c876a2d-6f70-45f3-98fa-f3e866000dc7","system_id":"levelo_inurba_marseille","lat":43.32367,"lon":5.388836,"is_reserved":false,"is_disabled":false,"rental_uris":{"android":"levelo://app?vid=4c876a2d-6f70-45f3-98fa-f3e866000dc7","ios":"levelo://app?vid=4c876a2d-6f70-45f3-98fa-f3e866000dc7"},"vehicle_type_id":"4","last_reported":1723493336,"current_range_meters":1600,"station_id":"ce4bhqp2rcd13ifvqhog","pricing_plan_id":"cebpf4jnsgd1na2vs0mg"},{"bike_id":"2aa5a390-65ea-46a2-b3d0-7fa7bfb4c62f","system_id":"levelo_inurba_marseille","lat":43.32367,"lon":5.388836,"is_reserved":false,"is_disabled":false,"rental_uris":{"android":"levelo://app?vid=2aa5a390-65ea-46a2-b3d0-7fa7bfb4c62f","ios":"levelo://app?vid=2aa5a390-65ea-46a2-b3d0-7fa7bfb4c62f"},"vehicle_type_id":"4","last_reported":1723493336,"current_range_meters":20000,"station_id":"ce4bhqp2rcd13ifvqhog","pricing_plan_id":"cebpf4jnsgd1na2vs0mg"},{"bike_id":"753d917b-7ed6-49a7-aed3-0991d0de9fcc","system_id":"levelo_inurba_marseille","lat":43.32367,"lon":5.388836,"is_reserved":false,"is_disabled":false,"rental_uris":{"android":"levelo://app?vid=753d917b-7ed6-49a7-aed3-0991d0de9fcc","ios":"levelo://app?vid=753d917b-7ed6-49a7-aed3-0991d0de9fcc"},"vehicle_type_id":"4","last_reported":1723493336,"current_range_meters":5200,"station_id":"ce4bhqp2rcd13ifvqhog","pricing_plan_id":"cebpf4jnsgd1na2vs0mg"},{"bike_id":"7c86baad-70be-45ea-af7d-73b004c51184","system_id":"levelo_inurba_marseille","lat":43.29597,"lon":5.38098,"is_reserved":false,"is_disabled":false,"rental_uris":{"android":"levelo://app?vid=7c86baad-70be-45ea-af7d-73b004c51184","ios":"levelo://app?vid=7c86baad-70be-45ea-af7d-73b004c51184"},"vehicle_type_id":"4","last_reported":1723493336,"current_range_meters":0,"station_id":"ce4bgl12rcd13ifvqbo0","pricing_plan_id":"cebpf4jnsgd1na2vs0mg"},{"bike_id":"56f881f5-e669-4970-844b-3cdfe43f8ca1","system_id":"levelo_inurba_marseille","lat":43.29596,"lon":5.38101,"is_reserved":false,"is_disabled":false,"rental_uris":{"android":"levelo://app?vid=56f881f5-e669-4970-844b-3cdfe43f8ca1","ios":"levelo://app?vid=56f881f5-e669-4970-844b-3cdfe43f8ca1"},"vehicle_type_id":"4","last_reported":1723493336,"current_range_meters":0,"station_id":"ce4bgl12rcd13ifvqbo0","pricing_plan_id":"cebpf4jnsgd1na2vs0mg"},{"bike_id":"0cbb4ed1-89cb-4807-88d2-fa2ff3fbf29f","system_id":"levelo_inurba_marseille","lat":43.29593,"lon":5.380947,"is_reserved":false,"is_disabled":false,"rental_uris":{"android":"levelo://app?vid=0cbb4ed1-89cb-4807-88d2-fa2ff3fbf29f","ios":"levelo://app?vid=0cbb4ed1-89cb-4807-88d2-fa2ff3fbf29f"},"vehicle_type_id":"4","last_reported":1723493336,"current_range_meters":0,"station_id":"ce4bgl12rcd13ifvqbo0","pricing_plan_id":"cebpf4jnsgd1na2vs0mg"},{"bike_id":"9fb7024f-c61b-4380-98ba-e1e1a6a42bdc","system_id":"levelo_inurba_marseille","lat":43.29602,"lon":5.381084,"is_reserved":false,"is_disabled":false,"rental_uris":{"android":"levelo://app?vid=9fb7024f-c61b-4380-98ba-e1e1a6a42bdc","ios":"levelo://app?vid=9fb7024f-c61b-4380-98ba-e1e1a6a42bdc"},"vehicle_type_id":"4","last_reported":1723493336,"current_range_meters":0,"station_id":"ce4bgl12rcd13ifvqbo0","pricing_plan_id":"cebpf4jnsgd1na2vs0mg"},{"bike_id":"11823539-c327-44e0-baad-2826d09b625d","system_id":"levelo_inurba_marseille","lat":43.29592,"lon":5.38101,"is_reserved":false,"is_disabled":false,"rental_uris":{"android":"levelo://app?vid=11823539-c327-44e0-baad-2826d09b625d","ios":"levelo://app?vid=11823539-c327-44e0-baad-2826d09b625d"},"vehicle_type_id":"4","last_reported":1723493336,"current_range_meters":0,"station_id":"ce4bgl12rcd13ifvqbo0","pricing_plan_id":"cebpf4jnsgd1na2vs0mg"},{"bike_id":"67e88ae4-b2a4-459c-b524-ccdcaf145409","system_id":"levelo_inurba_marseille","lat":43.29602,"lon":5.381084,"is_reserved":false,"is_disabled":false,"rental_uris":{"android":"levelo://app?vid=67e88ae4-b2a4-459c-b524-ccdcaf145409","ios":"levelo://app?vid=67e88ae4-b2a4-459c-b524-ccdcaf145409"},"vehicle_type_id":"4","last_reported":1723493336,"current_range_meters":11600,"station_id":"ce4bgl12rcd13ifvqbo0","pricing_plan_id":"cebpf4jnsgd1na2vs0mg"},{"bike_id":"420584a8-8ec6-4883-a049-a4755531d9fc","system_id":"levelo_inurba_marseille","lat":43.29282,"lon":5.36837,"is_reserved":false,"is_disabled":false,"rental_uris":{"android":"levelo://app?vid=420584a8-8ec6-4883-a049-a4755531d9fc","ios":"levelo://app?vid=420584a8-8ec6-4883-a049-a4755531d9fc"},"vehicle_type_id":"4","last_reported":1723493336,"current_range_meters":0,"station_id":"ce4bhbp2rcd13ifvqesg","pricing_plan_id":"cebpf4jnsgd1na2vs0mg"},{"bike_id":"12da4448-f9dc-4137-a3cd-aba682985bb2","system_id":"levelo_inurba_marseille","lat":43.2931,"lon":5.37187,"is_reserved":false,"is_disabled":false,"rental_uris":{"android":"levelo://app?vid=12da4448-f9dc-4137-a3cd-aba682985bb2","ios":"levelo://app?vid=12da4448-f9dc-4137-a3cd-aba682985bb2"},"vehicle_type_id":"4","last_reported":1723493336,"current_range_meters":0,"station_id":"ce4bgh92rcd13ifvqb40","pricing_plan_id":"cebpf4jnsgd1na2vs0mg"},{"bike_id":"1639f63f-1541-4264-b753-9472f579b2e2","system_id":"levelo_inurba_marseille","lat":43.29309,"lon":5.37181,"is_reserved":false,"is_disabled":false,"rental_uris":{"android":"levelo://app?vid=1639f63f-1541-4264-b753-9472f579b2e2","ios":"levelo://app?vid=1639f63f-1541-4264-b753-9472f579b2e2"},"vehicle_type_id":"4","last_reported":1723493336,"current_range_meters":0,"station_id":"ce4bgh92rcd13ifvqb40","pricing_plan_id":"cebpf4jnsgd1na2vs0mg"},{"bike_id":"e2f9ad8f-cbbe-4241-953b-3b4f3e70edea","system_id":"levelo_inurba_marseille","lat":43.29406,"lon":5.37665,"is_reserved":false,"is_disabled":false,"rental_uris":{"android":"levelo://app?vid=e2f9ad8f-cbbe-4241-953b-3b4f3e70edea","ios":"levelo://app?vid=e2f9ad8f-cbbe-4241-953b-3b4f3e70edea"},"vehicle_type_id":"4","last_reported":1723493336,"current_range_meters":5200,"station_id":"","pricing_plan_id":"cebpf4jnsgd1na2vs0mg"},{"bike_id":"fd6a1258-1204-427c-a35b-a49c678064cf","system_id":"levelo_inurba_marseille","lat":43.293259,"lon":5.371586,"is_reserved":false,"is_disabled":false,"rental_uris":{"android":"levelo://app?vid=fd6a1258-1204-427c-a35b-a49c678064cf","ios":"levelo://app?vid=fd6a1258-1204-427c-a35b-a49c678064cf"},"vehicle_type_id":"4","last_reported":1723493336,"current_range_meters":0,"station_id":"ce4bgh92rcd13ifvqb40","pricing_plan_id":"cebpf4jnsgd1na2vs0mg"},{"bike_id":"05788423-e420-49a3-bcaa-90e7c8c05dae","system_id":"levelo_inurba_marseille","lat":43.293259,"lon":5.371586,"is_reserved":false,"is_disabled":false,"rental_uris":{"android":"levelo://app?vid=05788423-e420-49a3-bcaa-90e7c8c05dae","ios":"levelo://app?vid=05788423-e420-49a3-bcaa-90e7c8c05dae"},"vehicle_type_id":"4","last_reported":1723493336,"current_range_meters":16000,"station_id":"ce4bgh92rcd13ifvqb40","pricing_plan_id":"cebpf4jnsgd1na2vs0mg"},{"bike_id":"f0c9b5c2-8b7e-4e54-a6ae-cda225a43902","system_id":"levelo_inurba_marseille","lat":43.293259,"lon":5.371586,"is_reserved":false,"is_disabled":false,"rental_uris":{"android":"levelo://app?vid=f0c9b5c2-8b7e-4e54-a6ae-cda225a43902","ios":"levelo://app?vid=f0c9b5c2-8b7e-4e54-a6ae-cda225a43902"},"vehicle_type_id":"4","last_reported":1723493336,"current_range_meters":0,"station_id":"ce4bgh92rcd13ifvqb40","pricing_plan_id":"cebpf4jnsgd1na2vs0mg"},{"bike_id":"fecfcd6f-0ada-4bd8-bec6-ca0cf494ca5b","system_id":"levelo_inurba_marseille","lat":43.29304,"lon":5.374416,"is_reserved":false,"is_disabled":false,"rental_uris":{"android":"levelo://app?vid=fecfcd6f-0ada-4bd8-bec6-ca0cf494ca5b","ios":"levelo://app?vid=fecfcd6f-0ada-4bd8-bec6-ca0cf494ca5b"},"vehicle_type_id":"4","last_reported":1723493336,"current_range_meters":0,"station_id":"ce4bgi12rcd13ifvqb70","pricing_plan_id":"cebpf4jnsgd1na2vs0mg"},{"bike_id":"68417e18-3ebf-4016-a899-80cfffcdf576","system_id":"levelo_inurba_marseille","lat":43.311722,"lon":5.387247,"is_reserved":false,"is_disabled":false,"rental_uris":{"android":"levelo://app?vid=68417e18-3ebf-4016-a899-80cfffcdf576","ios":"levelo://app?vid=68417e18-3ebf-4016-a899-80cfffcdf576"},"vehicle_type_id":"4","last_reported":1723493336,"current_range_meters":1200,"station_id":"ce4bgv12rcd13ifvqcp0","pricing_plan_id":"cebpf4jnsgd1na2vs0mg"},{"bike_id":"1241db0c-2f18-4571-a361-7f258dcad0e2","system_id":"levelo_inurba_marseille","lat":43.29303,"lon":5.37456,"is_reserved":false,"is_disabled":false,"rental_uris":{"android":"levelo://app?vid=1241db0c-2f18-4571-a361-7f258dcad0e2","ios":"levelo://app?vid=1241db0c-2f18-4571-a361-7f258dcad0e2"},"vehicle_type_id":"4","last_reported":1723493336,"current_range_meters":0,"station_id":"ce4bgi12rcd13ifvqb70","pricing_plan_id":"cebpf4jnsgd1na2vs0mg"},{"bike_id":"6fb7f67e-42df-4b26-bd9f-c551a03652b3","system_id":"levelo_inurba_marseille","lat":43.29305,"lon":5.37467,"is_reserved":false,"is_disabled":false,"rental_uris":{"android":"levelo://app?vid=6fb7f67e-42df-4b26-bd9f-c551a03652b3","ios":"levelo://app?vid=6fb7f67e-42df-4b26-bd9f-c551a03652b3"},"vehicle_type_id":"4","last_reported":1723493336,"current_range_meters":0,"station_id":"ce4bgi12rcd13ifvqb70","pricing_plan_id":"cebpf4jnsgd1na2vs0mg"},{"bike_id":"f530f6ff-4714-4fa7-8618-07eedd607fbd","system_id":"levelo_inurba_marseille","lat":43.29532,"lon":5.38185,"is_reserved":false,"is_disabled":false,"rental_uris":{"android":"levelo://app?vid=f530f6ff-4714-4fa7-8618-07eedd607fbd","ios":"levelo://app?vid=f530f6ff-4714-4fa7-8618-07eedd607fbd"},"vehicle_type_id":"4","last_reported":1723493336,"current_range_meters":31200,"station_id":"","pricing_plan_id":"cebpf4jnsgd1na2vs0mg"},{"bike_id":"8d37495d-9961-45f8-ba67-ee81725ae3ae","system_id":"levelo_inurba_marseille","lat":43.29228,"lon":5.36363,"is_reserved":false,"is_disabled":false,"rental_uris":{"android":"levelo://app?vid=8d37495d-9961-45f8-ba67-ee81725ae3ae","ios":"levelo://app?vid=8d37495d-9961-45f8-ba67-ee81725ae3ae"},"vehicle_type_id":"4","last_reported":1723493336,"current_range_meters":0,"station_id":"","pricing_plan_id":"cebpf4jnsgd1na2vs0mg"},{"bike_id":"c4fbc614-37fb-47ff-80dc-0ca43495d34e","system_id":"levelo_inurba_marseille","lat":43.29238,"lon":5.37149,"is_reserved":false,"is_disabled":false,"rental_uris":{"android":"levelo://app?vid=c4fbc614-37fb-47ff-80dc-0ca43495d34e","ios":"levelo://app?vid=c4fbc614-37fb-47ff-80dc-0ca43495d34e"},"vehicle_type_id":"4","last_reported":1723493336,"current_range_meters":10800,"station_id":"","pricing_plan_id":"cebpf4jnsgd1na2vs0mg"},{"bike_id":"759aff1b-c7a6-4d10-8abe-e03e8b79e379","system_id":"levelo_inurba_marseille","lat":43.2936,"lon":5.37835,"is_reserved":false,"is_disabled":false,"rental_uris":{"android":"levelo://app?vid=759aff1b-c7a6-4d10-8abe-e03e8b79e379","ios":"levelo://app?vid=759aff1b-c7a6-4d10-8abe-e03e8b79e379"},"vehicle_type_id":"4","last_reported":1723493336,"current_range_meters":24000,"station_id":"ce4bgjh2rcd13ifvqbf0","pricing_plan_id":"cebpf4jnsgd1na2vs0mg"},{"bike_id":"43515fb8-6add-4a5e-bb98-521807826c17","system_id":"levelo_inurba_marseille","lat":43.303002,"lon":5.392142,"is_reserved":false,"is_disabled":false,"rental_uris":{"android":"levelo://app?vid=43515fb8-6add-4a5e-bb98-521807826c17","ios":"levelo://app?vid=43515fb8-6add-4a5e-bb98-521807826c17"},"vehicle_type_id":"4","last_reported":1723493336,"current_range_meters":18000,"station_id":"ce4bgkh2rcd13ifvqbk0","pricing_plan_id":"cebpf4jnsgd1na2vs0mg"},{"bike_id":"c577bfc4-1844-4de7-b344-9c14b1833ce0","system_id":"levelo_inurba_marseille","lat":43.302992,"lon":5.392136,"is_reserved":false,"is_disabled":false,"rental_uris":{"android":"levelo://app?vid=c577bfc4-1844-4de7-b344-9c14b1833ce0","ios":"levelo://app?vid=c577bfc4-1844-4de7-b344-9c14b1833ce0"},"vehicle_type_id":"4","last_reported":1723493336,"current_range_meters":27600,"station_id":"ce4bgkh2rcd13ifvqbk0","pricing_plan_id":"cebpf4jnsgd1na2vs0mg"},{"bike_id":"aee9a4c1-5a99-49e8-8da7-745a10c21375","system_id":"levelo_inurba_marseille","lat":43.2936,"lon":5.37835,"is_reserved":false,"is_disabled":false,"rental_uris":{"android":"levelo://app?vid=aee9a4c1-5a99-49e8-8da7-745a10c21375","ios":"levelo://app?vid=aee9a4c1-5a99-49e8-8da7-745a10c21375"},"vehicle_type_id":"4","last_reported":1723493336,"current_range_meters":10800,"station_id":"ce4bgjh2rcd13ifvqbf0","pricing_plan_id":"cebpf4jnsgd1na2vs0mg"},{"bike_id":"67323964-064e-4c10-8ab6-1af58ad4b64e","system_id":"levelo_inurba_marseille","lat":43.2936,"lon":5.37835,"is_reserved":false,"is_disabled":false,"rental_uris":{"android":"levelo://app?vid=67323964-064e-4c10-8ab6-1af58ad4b64e","ios":"levelo://app?vid=67323964-064e-4c10-8ab6-1af58ad4b64e"},"vehicle_type_id":"4","last_reported":1723493336,"current_range_meters":1600,"station_id":"ce4bgjh2rcd13ifvqbf0","pricing_plan_id":"cebpf4jnsgd1na2vs0mg"},{"bike_id":"41e3906f-ca2c-416b-8ded-970a27111509","system_id":"levelo_inurba_marseille","lat":43.30085,"lon":5.390856,"is_reserved":false,"is_disabled":false,"rental_uris":{"android":"levelo://app?vid=41e3906f-ca2c-416b-8ded-970a27111509","ios":"levelo://app?vid=41e3906f-ca2c-416b-8ded-970a27111509"},"vehicle_type_id":"4","last_reported":1723493336,"current_range_meters":14000,"station_id":"ce4bh192rcd13ifvqdb0","pricing_plan_id":"cebpf4jnsgd1na2vs0mg"},{"bike_id":"9d7f3295-91cb-4c25-bfdb-9650b905895c","system_id":"levelo_inurba_marseille","lat":43.30085,"lon":5.390856,"is_reserved":false,"is_disabled":false,"rental_uris":{"android":"levelo://app?vid=9d7f3295-91cb-4c25-bfdb-9650b905895c","ios":"levelo://app?vid=9d7f3295-91cb-4c25-bfdb-9650b905895c"},"vehicle_type_id":"4","last_reported":1723493336,"current_range_meters":29200,"station_id":"ce4bh192rcd13ifvqdb0","pricing_plan_id":"cebpf4jnsgd1na2vs0mg"},{"bike_id":"86b6f6b5-2f0e-4004-9134-cada1e2ba5b6","system_id":"levelo_inurba_marseille","lat":43.29329,"lon":5.378427,"is_reserved":false,"is_disabled":false,"rental_uris":{"android":"levelo://app?vid=86b6f6b5-2f0e-4004-9134-cada1e2ba5b6","ios":"levelo://app?vid=86b6f6b5-2f0e-4004-9134-cada1e2ba5b6"},"vehicle_type_id":"4","last_reported":1723493336,"current_range_meters":12000,"station_id":"ce4bgjh2rcd13ifvqbf0","pricing_plan_id":"cebpf4jnsgd1na2vs0mg"},{"bike_id":"5e466626-7481-4ce2-9353-68826f999131","system_id":"levelo_inurba_marseille","lat":43.29877,"lon":5.38908,"is_reserved":false,"is_disabled":false,"rental_uris":{"android":"levelo://app?vid=5e466626-7481-4ce2-9353-68826f999131","ios":"levelo://app?vid=5e466626-7481-4ce2-9353-68826f999131"},"vehicle_type_id":"4","last_reported":1723493336,"current_range_meters":6000,"station_id":"ce4bh392rcd13ifvqdl0","pricing_plan_id":"cebpf4jnsgd1na2vs0mg"},{"bike_id":"a69b9eda-ae45-4fd6-9de4-df8648707295","system_id":"levelo_inurba_marseille","lat":43.298764,"lon":5.388973,"is_reserved":false,"is_disabled":false,"rental_uris":{"android":"levelo://app?vid=a69b9eda-ae45-4fd6-9de4-df8648707295","ios":"levelo://app?vid=a69b9eda-ae45-4fd6-9de4-df8648707295"},"vehicle_type_id":"4","last_reported":1723493336,"current_range_meters":31200,"station_id":"ce4bh392rcd13ifvqdl0","pricing_plan_id":"cebpf4jnsgd1na2vs0mg"},{"bike_id":"61af06ff-15ef-498e-bf33-fee0ddec32b3","system_id":"levelo_inurba_marseille","lat":43.29205,"lon":5.35807,"is_reserved":false,"is_disabled":false,"rental_uris":{"android":"levelo://app?vid=61af06ff-15ef-498e-bf33-fee0ddec32b3","ios":"levelo://app?vid=61af06ff-15ef-498e-bf33-fee0ddec32b3"},"vehicle_type_id":"4","last_reported":1723493336,"current_range_meters":0,"station_id":"ce4bhb12rcd13ifvqel0","pricing_plan_id":"cebpf4jnsgd1na2vs0mg"},{"bike_id":"9d4b68a5-c93f-4844-a235-5ff4a055b660","system_id":"levelo_inurba_marseille","lat":43.292385,"lon":5.37767,"is_reserved":false,"is_disabled":false,"rental_uris":{"android":"levelo://app?vid=9d4b68a5-c93f-4844-a235-5ff4a055b660","ios":"levelo://app?vid=9d4b68a5-c93f-4844-a235-5ff4a055b660"},"vehicle_type_id":"4","last_reported":1723493336,"current_range_meters":3200,"station_id":"","pricing_plan_id":"cebpf4jnsgd1na2vs0mg"},{"bike_id":"5f463f61-1553-4c5a-93e6-e557bb5c58d2","system_id":"levelo_inurba_marseille","lat":43.313291,"lon":5.396838,"is_reserved":false,"is_disabled":false,"rental_uris":{"android":"levelo://app?vid=5f463f61-1553-4c5a-93e6-e557bb5c58d2","ios":"levelo://app?vid=5f463f61-1553-4c5a-93e6-e557bb5c58d2"},"vehicle_type_id":"4","last_reported":1723493336,"current_range_meters":20400,"station_id":"ce4bgvp2rcd13ifvqcu0","pricing_plan_id":"cebpf4jnsgd1na2vs0mg"},{"bike_id":"ea53cc93-bddf-470a-879f-9924033ba557","system_id":"levelo_inurba_marseille","lat":43.31327,"lon":5.39693,"is_reserved":false,"is_disabled":false,"rental_uris":{"android":"levelo://app?vid=ea53cc93-bddf-470a-879f-9924033ba557","ios":"levelo://app?vid=ea53cc93-bddf-470a-879f-9924033ba557"},"vehicle_type_id":"4","last_reported":1723493336,"current_range_meters":6400,"station_id":"ce4bgvp2rcd13ifvqcu0","pricing_plan_id":"cebpf4jnsgd1na2vs0mg"},{"bike_id":"f4df8200-490c-4d5c-9e05-7ded5445480b","system_id":"levelo_inurba_marseille","lat":43.31329,"lon":5.39693,"is_reserved":false,"is_disabled":false,"rental_uris":{"android":"levelo://app?vid=f4df8200-490c-4d5c-9e05-7ded5445480b","ios":"levelo://app?vid=f4df8200-490c-4d5c-9e05-7ded5445480b"},"vehicle_type_id":"4","last_reported":1723493336,"current_range_meters":5200,"station_id":"ce4bgvp2rcd13ifvqcu0","pricing_plan_id":"cebpf4jnsgd1na2vs0mg"},{"bike_id":"f3d54999-3381-4cce-842b-02df29928fb0","system_id":"levelo_inurba_marseille","lat":43.309047,"lon":5.396551,"is_reserved":false,"is_disabled":false,"rental_uris":{"android":"levelo://app?vid=f3d54999-3381-4cce-842b-02df29928fb0","ios":"levelo://app?vid=f3d54999-3381-4cce-842b-02df29928fb0"},"vehicle_type_id":"4","last_reported":1723493336,"current_range_meters":28800,"station_id":"ce4bh012rcd13ifvqcv0","pricing_plan_id":"cebpf4jnsgd1na2vs0mg"},{"bike_id":"fdd81aa4-fc35-407d-bff0-5d5e888830da","system_id":"levelo_inurba_marseille","lat":43.309038,"lon":5.396546,"is_reserved":false,"is_disabled":false,"rental_uris":{"android":"levelo://app?vid=fdd81aa4-fc35-407d-bff0-5d5e888830da","ios":"levelo://app?vid=fdd81aa4-fc35-407d-bff0-5d5e888830da"},"vehicle_type_id":"4","last_reported":1723493336,"current_range_meters":9200,"station_id":"ce4bh012rcd13ifvqcv0","pricing_plan_id":"cebpf4jnsgd1na2vs0mg"},{"bike_id":"41f2a558-b074-4d4b-8466-8d21492e6001","system_id":"levelo_inurba_marseille","lat":43.309038,"lon":5.396546,"is_reserved":false,"is_disabled":false,"rental_uris":{"android":"levelo://app?vid=41f2a558-b074-4d4b-8466-8d21492e6001","ios":"levelo://app?vid=41f2a558-b074-4d4b-8466-8d21492e6001"},"vehicle_type_id":"4","last_reported":1723493336,"current_range_meters":30400,"station_id":"ce4bh012rcd13ifvqcv0","pricing_plan_id":"cebpf4jnsgd1na2vs0mg"},{"bike_id":"8e0cacf4-a916-4e02-b86a-83342c533c2e","system_id":"levelo_inurba_marseille","lat":43.309038,"lon":5.396546,"is_reserved":false,"is_disabled":false,"rental_uris":{"android":"levelo://app?vid=8e0cacf4-a916-4e02-b86a-83342c533c2e","ios":"levelo://app?vid=8e0cacf4-a916-4e02-b86a-83342c533c2e"},"vehicle_type_id":"4","last_reported":1723493336,"current_range_meters":9200,"station_id":"ce4bh012rcd13ifvqcv0","pricing_plan_id":"cebpf4jnsgd1na2vs0mg"},{"bike_id":"d13d565d-edc9-4d07-a3b3-2419123db51a","system_id":"levelo_inurba_marseille","lat":43.309038,"lon":5.396546,"is_reserved":false,"is_disabled":false,"rental_uris":{"android":"levelo://app?vid=d13d565d-edc9-4d07-a3b3-2419123db51a","ios":"levelo://app?vid=d13d565d-edc9-4d07-a3b3-2419123db51a"},"vehicle_type_id":"4","last_reported":1723493336,"current_range_meters":26800,"station_id":"ce4bh012rcd13ifvqcv0","pricing_plan_id":"cebpf4jnsgd1na2vs0mg"},{"bike_id":"fa4b23aa-cf3c-43f9-b7c6-bb2bca2aaf5e","system_id":"levelo_inurba_marseille","lat":43.309038,"lon":5.396546,"is_reserved":false,"is_disabled":false,"rental_uris":{"android":"levelo://app?vid=fa4b23aa-cf3c-43f9-b7c6-bb2bca2aaf5e","ios":"levelo://app?vid=fa4b23aa-cf3c-43f9-b7c6-bb2bca2aaf5e"},"vehicle_type_id":"4","last_reported":1723493336,"current_range_meters":29600,"station_id":"ce4bh012rcd13ifvqcv0","pricing_plan_id":"cebpf4jnsgd1na2vs0mg"},{"bike_id":"efb59459-93ef-47c3-9d6e-e8dd7eea3464","system_id":"levelo_inurba_marseille","lat":43.29529,"lon":5.385581,"is_reserved":false,"is_disabled":false,"rental_uris":{"android":"levelo://app?vid=efb59459-93ef-47c3-9d6e-e8dd7eea3464","ios":"levelo://app?vid=efb59459-93ef-47c3-9d6e-e8dd7eea3464"},"vehicle_type_id":"4","last_reported":1723493336,"current_range_meters":24400,"station_id":"ce4bgih2rcd13ifvqba0","pricing_plan_id":"cebpf4jnsgd1na2vs0mg"},{"bike_id":"fa9a10ad-eac5-46b5-ac75-b0b03a1aebd8","system_id":"levelo_inurba_marseille","lat":43.29529,"lon":5.385581,"is_reserved":false,"is_disabled":false,"rental_uris":{"android":"levelo://app?vid=fa9a10ad-eac5-46b5-ac75-b0b03a1aebd8","ios":"levelo://app?vid=fa9a10ad-eac5-46b5-ac75-b0b03a1aebd8"},"vehicle_type_id":"4","last_reported":1723493336,"current_range_meters":19200,"station_id":"ce4bgih2rcd13ifvqba0","pricing_plan_id":"cebpf4jnsgd1na2vs0mg"},{"bike_id":"76b199a7-df8b-400a-878e-f2a9e2cc4b54","system_id":"levelo_inurba_marseille","lat":43.30214,"lon":5.39472,"is_reserved":false,"is_disabled":false,"rental_uris":{"android":"levelo://app?vid=76b199a7-df8b-400a-878e-f2a9e2cc4b54","ios":"levelo://app?vid=76b199a7-df8b-400a-878e-f2a9e2cc4b54"},"vehicle_type_id":"4","last_reported":1723493336,"current_range_meters":14800,"station_id":"ce4bh0p2rcd13ifvqd70","pricing_plan_id":"cebpf4jnsgd1na2vs0mg"},{"bike_id":"943d167e-252d-4474-923d-de567831eae7","system_id":"levelo_inurba_marseille","lat":43.290327,"lon":5.375711,"is_reserved":false,"is_disabled":false,"rental_uris":{"android":"levelo://app?vid=943d167e-252d-4474-923d-de567831eae7","ios":"levelo://app?vid=943d167e-252d-4474-923d-de567831eae7"},"vehicle_type_id":"4","last_reported":1723493336,"current_range_meters":0,"station_id":"ce4bh692rcd13ifvqe90","pricing_plan_id":"cebpf4jnsgd1na2vs0mg"},{"bike_id":"6fce9959-66a2-43fe-b795-ce60c61a5268","system_id":"levelo_inurba_marseille","lat":43.290327,"lon":5.375711,"is_reserved":false,"is_disabled":false,"rental_uris":{"android":"levelo://app?vid=6fce9959-66a2-43fe-b795-ce60c61a5268","ios":"levelo://app?vid=6fce9959-66a2-43fe-b795-ce60c61a5268"},"vehicle_type_id":"4","last_reported":1723493336,"current_range_meters":0,"station_id":"ce4bh692rcd13ifvqe90","pricing_plan_id":"cebpf4jnsgd1na2vs0mg"},{"bike_id":"7b919bfd-ad5f-479a-86e7-79a983d26055","system_id":"levelo_inurba_marseille","lat":43.29421,"lon":5.38623,"is_reserved":false,"is_disabled":false,"rental_uris":{"android":"levelo://app?vid=7b919bfd-ad5f-479a-86e7-79a983d26055","ios":"levelo://app?vid=7b919bfd-ad5f-479a-86e7-79a983d26055"},"vehicle_type_id":"4","last_reported":1723493336,"current_range_meters":12000,"station_id":"ce4bh2h2rcd13ifvqdh0","pricing_plan_id":"cebpf4jnsgd1na2vs0mg"},{"bike_id":"5bec4cb2-53ae-4379-a1bb-e50d3f6951e4","system_id":"levelo_inurba_marseille","lat":43.29421,"lon":5.38623,"is_reserved":false,"is_disabled":false,"rental_uris":{"android":"levelo://app?vid=5bec4cb2-53ae-4379-a1bb-e50d3f6951e4","ios":"levelo://app?vid=5bec4cb2-53ae-4379-a1bb-e50d3f6951e4"},"vehicle_type_id":"4","last_reported":1723493336,"current_range_meters":1200,"station_id":"ce4bh2h2rcd13ifvqdh0","pricing_plan_id":"cebpf4jnsgd1na2vs0mg"},{"bike_id":"94d6df43-2070-444f-88af-e86448e256ce","system_id":"levelo_inurba_marseille","lat":43.29416,"lon":5.38616,"is_reserved":false,"is_disabled":false,"rental_uris":{"android":"levelo://app?vid=94d6df43-2070-444f-88af-e86448e256ce","ios":"levelo://app?vid=94d6df43-2070-444f-88af-e86448e256ce"},"vehicle_type_id":"4","last_reported":1723493336,"current_range_meters":400,"station_id":"ce4bh2h2rcd13ifvqdh0","pricing_plan_id":"cebpf4jnsgd1na2vs0mg"},{"bike_id":"9eb5569e-cd7a-4b2b-8fae-c038fa25f6a2","system_id":"levelo_inurba_marseille","lat":43.294162,"lon":5.386292,"is_reserved":false,"is_disabled":false,"rental_uris":{"android":"levelo://app?vid=9eb5569e-cd7a-4b2b-8fae-c038fa25f6a2","ios":"levelo://app?vid=9eb5569e-cd7a-4b2b-8fae-c038fa25f6a2"},"vehicle_type_id":"4","last_reported":1723493336,"current_range_meters":6400,"station_id":"ce4bh2h2rcd13ifvqdh0","pricing_plan_id":"cebpf4jnsgd1na2vs0mg"},{"bike_id":"5bddba81-390c-4aec-95b7-0efc845af27a","system_id":"levelo_inurba_marseille","lat":43.29418,"lon":5.38621,"is_reserved":false,"is_disabled":false,"rental_uris":{"android":"levelo://app?vid=5bddba81-390c-4aec-95b7-0efc845af27a","ios":"levelo://app?vid=5bddba81-390c-4aec-95b7-0efc845af27a"},"vehicle_type_id":"4","last_reported":1723493336,"current_range_meters":29600,"station_id":"ce4bh2h2rcd13ifvqdh0","pricing_plan_id":"cebpf4jnsgd1na2vs0mg"},{"bike_id":"aeef6fc2-a59d-42c3-a9e4-c524c3fe6202","system_id":"levelo_inurba_marseille","lat":43.29422,"lon":5.38629,"is_reserved":false,"is_disabled":false,"rental_uris":{"android":"levelo://app?vid=aeef6fc2-a59d-42c3-a9e4-c524c3fe6202","ios":"levelo://app?vid=aeef6fc2-a59d-42c3-a9e4-c524c3fe6202"},"vehicle_type_id":"4","last_reported":1723493336,"current_range_meters":2000,"station_id":"ce4bh2h2rcd13ifvqdh0","pricing_plan_id":"cebpf4jnsgd1na2vs0mg"},{"bike_id":"ed7285ce-3ada-4aa5-8c52-62c5b0393d79","system_id":"levelo_inurba_marseille","lat":43.294162,"lon":5.386292,"is_reserved":false,"is_disabled":false,"rental_uris":{"android":"levelo://app?vid=ed7285ce-3ada-4aa5-8c52-62c5b0393d79","ios":"levelo://app?vid=ed7285ce-3ada-4aa5-8c52-62c5b0393d79"},"vehicle_type_id":"4","last_reported":1723493336,"current_range_meters":31200,"station_id":"ce4bh2h2rcd13ifvqdh0","pricing_plan_id":"cebpf4jnsgd1na2vs0mg"},{"bike_id":"4e0f87ca-e303-411a-b93b-d1e60a83e4da","system_id":"levelo_inurba_marseille","lat":43.290327,"lon":5.375711,"is_reserved":false,"is_disabled":false,"rental_uris":{"android":"levelo://app?vid=4e0f87ca-e303-411a-b93b-d1e60a83e4da","ios":"levelo://app?vid=4e0f87ca-e303-411a-b93b-d1e60a83e4da"},"vehicle_type_id":"4","last_reported":1723493336,"current_range_meters":0,"station_id":"ce4bh692rcd13ifvqe90","pricing_plan_id":"cebpf4jnsgd1na2vs0mg"},{"bike_id":"dd7c90ee-2374-41b2-851b-5b2ca53cdece","system_id":"levelo_inurba_marseille","lat":43.2942,"lon":5.38629,"is_reserved":false,"is_disabled":false,"rental_uris":{"android":"levelo://app?vid=dd7c90ee-2374-41b2-851b-5b2ca53cdece","ios":"levelo://app?vid=dd7c90ee-2374-41b2-851b-5b2ca53cdece"},"vehicle_type_id":"4","last_reported":1723493336,"current_range_meters":5200,"station_id":"ce4bh2h2rcd13ifvqdh0","pricing_plan_id":"cebpf4jnsgd1na2vs0mg"},{"bike_id":"0d1345ed-8557-40c4-98f2-ee7c301400c1","system_id":"levelo_inurba_marseille","lat":43.29418,"lon":5.38626,"is_reserved":false,"is_disabled":false,"rental_uris":{"android":"levelo://app?vid=0d1345ed-8557-40c4-98f2-ee7c301400c1","ios":"levelo://app?vid=0d1345ed-8557-40c4-98f2-ee7c301400c1"},"vehicle_type_id":"4","last_reported":1723493336,"current_range_meters":12800,"station_id":"ce4bh2h2rcd13ifvqdh0","pricing_plan_id":"cebpf4jnsgd1na2vs0mg"},{"bike_id":"31674080-52ce-4b83-a9f9-a77785dc1300","system_id":"levelo_inurba_marseille","lat":43.2942,"lon":5.3863,"is_reserved":false,"is_disabled":false,"rental_uris":{"android":"levelo://app?vid=31674080-52ce-4b83-a9f9-a77785dc1300","ios":"levelo://app?vid=31674080-52ce-4b83-a9f9-a77785dc1300"},"vehicle_type_id":"4","last_reported":1723493336,"current_range_meters":2400,"station_id":"ce4bh2h2rcd13ifvqdh0","pricing_plan_id":"cebpf4jnsgd1na2vs0mg"},{"bike_id":"faaa93d7-7dd5-4884-8c58-d3e09a278bcb","system_id":"levelo_inurba_marseille","lat":43.29421,"lon":5.38632,"is_reserved":false,"is_disabled":false,"rental_uris":{"android":"levelo://app?vid=faaa93d7-7dd5-4884-8c58-d3e09a278bcb","ios":"levelo://app?vid=faaa93d7-7dd5-4884-8c58-d3e09a278bcb"},"vehicle_type_id":"4","last_reported":1723493336,"current_range_meters":1600,"station_id":"ce4bh2h2rcd13ifvqdh0","pricing_plan_id":"cebpf4jnsgd1na2vs0mg"},{"bike_id":"897a6057-97da-46c2-b0ca-30e9c8ce88d1","system_id":"levelo_inurba_marseille","lat":43.29418,"lon":5.38629,"is_reserved":false,"is_disabled":false,"rental_uris":{"android":"levelo://app?vid=897a6057-97da-46c2-b0ca-30e9c8ce88d1","ios":"levelo://app?vid=897a6057-97da-46c2-b0ca-30e9c8ce88d1"},"vehicle_type_id":"4","last_reported":1723493336,"current_range_meters":2400,"station_id":"ce4bh2h2rcd13ifvqdh0","pricing_plan_id":"cebpf4jnsgd1na2vs0mg"},{"bike_id":"9f4676f8-7359-400f-90dc-5864ed64c793","system_id":"levelo_inurba_marseille","lat":43.29417,"lon":5.3863,"is_reserved":false,"is_disabled":false,"rental_uris":{"android":"levelo://app?vid=9f4676f8-7359-400f-90dc-5864ed64c793","ios":"levelo://app?vid=9f4676f8-7359-400f-90dc-5864ed64c793"},"vehicle_type_id":"4","last_reported":1723493336,"current_range_meters":12000,"station_id":"ce4bh2h2rcd13ifvqdh0","pricing_plan_id":"cebpf4jnsgd1na2vs0mg"},{"bike_id":"e81341d1-4a73-46d0-97f2-da0da55662e2","system_id":"levelo_inurba_marseille","lat":43.294129,"lon":5.386227,"is_reserved":false,"is_disabled":false,"rental_uris":{"android":"levelo://app?vid=e81341d1-4a73-46d0-97f2-da0da55662e2","ios":"levelo://app?vid=e81341d1-4a73-46d0-97f2-da0da55662e2"},"vehicle_type_id":"4","last_reported":1723493336,"current_range_meters":8800,"station_id":"","pricing_plan_id":"cebpf4jnsgd1na2vs0mg"},{"bike_id":"f5029273-b65d-4134-94b3-43d346271373","system_id":"levelo_inurba_marseille","lat":43.294162,"lon":5.386292,"is_reserved":false,"is_disabled":false,"rental_uris":{"android":"levelo://app?vid=f5029273-b65d-4134-94b3-43d346271373","ios":"levelo://app?vid=f5029273-b65d-4134-94b3-43d346271373"},"vehicle_type_id":"4","last_reported":1723493336,"current_range_meters":800,"station_id":"ce4bh2h2rcd13ifvqdh0","pricing_plan_id":"cebpf4jnsgd1na2vs0mg"},{"bike_id":"b380623a-948e-47d6-b9b9-90d6e120faf0","system_id":"levelo_inurba_marseille","lat":43.28936,"lon":5.36635,"is_reserved":false,"is_disabled":false,"rental_uris":{"android":"levelo://app?vid=b380623a-948e-47d6-b9b9-90d6e120faf0","ios":"levelo://app?vid=b380623a-948e-47d6-b9b9-90d6e120faf0"},"vehicle_type_id":"4","last_reported":1723493336,"current_range_meters":0,"station_id":"ce4bhap2rcd13ifvqek0","pricing_plan_id":"cebpf4jnsgd1na2vs0mg"},{"bike_id":"ad07fbbf-a049-479c-871a-c6b687a6c366","system_id":"levelo_inurba_marseille","lat":43.289184,"lon":5.366408,"is_reserved":false,"is_disabled":false,"rental_uris":{"android":"levelo://app?vid=ad07fbbf-a049-479c-871a-c6b687a6c366","ios":"levelo://app?vid=ad07fbbf-a049-479c-871a-c6b687a6c366"},"vehicle_type_id":"4","last_reported":1723493336,"current_range_meters":0,"station_id":"ce4bhap2rcd13ifvqek0","pricing_plan_id":"cebpf4jnsgd1na2vs0mg"},{"bike_id":"7ca56c40-d603-4fd4-aa47-b02f628852bf","system_id":"levelo_inurba_marseille","lat":43.289428,"lon":5.36402,"is_reserved":false,"is_disabled":false,"rental_uris":{"android":"levelo://app?vid=7ca56c40-d603-4fd4-aa47-b02f628852bf","ios":"levelo://app?vid=7ca56c40-d603-4fd4-aa47-b02f628852bf"},"vehicle_type_id":"4","last_reported":1723493336,"current_range_meters":0,"station_id":"ce4bhc92rcd13ifvqetg","pricing_plan_id":"cebpf4jnsgd1na2vs0mg"},{"bike_id":"a47feb1c-1bb2-4e5b-98a8-20e122e5fdda","system_id":"levelo_inurba_marseille","lat":43.289323,"lon":5.366343,"is_reserved":false,"is_disabled":false,"rental_uris":{"android":"levelo://app?vid=a47feb1c-1bb2-4e5b-98a8-20e122e5fdda","ios":"levelo://app?vid=a47feb1c-1bb2-4e5b-98a8-20e122e5fdda"},"vehicle_type_id":"4","last_reported":1723493336,"current_range_meters":0,"station_id":"ce4bhap2rcd13ifvqek0","pricing_plan_id":"cebpf4jnsgd1na2vs0mg"},{"bike_id":"1b910766-b7ce-4ed2-aa59-16baf806a932","system_id":"levelo_inurba_marseille","lat":43.289468,"lon":5.363719,"is_reserved":false,"is_disabled":false,"rental_uris":{"android":"levelo://app?vid=1b910766-b7ce-4ed2-aa59-16baf806a932","ios":"levelo://app?vid=1b910766-b7ce-4ed2-aa59-16baf806a932"},"vehicle_type_id":"4","last_reported":1723493336,"current_range_meters":0,"station_id":"ce4bhc92rcd13ifvqetg","pricing_plan_id":"cebpf4jnsgd1na2vs0mg"},{"bike_id":"476bacc2-82a9-4968-94cd-d6ee0606e481","system_id":"levelo_inurba_marseille","lat":43.294189,"lon":5.38668,"is_reserved":false,"is_disabled":false,"rental_uris":{"android":"levelo://app?vid=476bacc2-82a9-4968-94cd-d6ee0606e481","ios":"levelo://app?vid=476bacc2-82a9-4968-94cd-d6ee0606e481"},"vehicle_type_id":"4","last_reported":1723493336,"current_range_meters":800,"station_id":"ce4bh2h2rcd13ifvqdh0","pricing_plan_id":"cebpf4jnsgd1na2vs0mg"},{"bike_id":"6e500484-afa5-4658-a4f1-b7c9070bc792","system_id":"levelo_inurba_marseille","lat":43.292644,"lon":5.384257,"is_reserved":false,"is_disabled":false,"rental_uris":{"android":"levelo://app?vid=6e500484-afa5-4658-a4f1-b7c9070bc792","ios":"levelo://app?vid=6e500484-afa5-4658-a4f1-b7c9070bc792"},"vehicle_type_id":"4","last_reported":1723493336,"current_range_meters":14400,"station_id":"ce4bh692rcd13ifvqea0","pricing_plan_id":"cebpf4jnsgd1na2vs0mg"},{"bike_id":"e8be5353-1353-4e40-8f00-27cd3e9c743a","system_id":"levelo_inurba_marseille","lat":43.292644,"lon":5.384257,"is_reserved":false,"is_disabled":false,"rental_uris":{"android":"levelo://app?vid=e8be5353-1353-4e40-8f00-27cd3e9c743a","ios":"levelo://app?vid=e8be5353-1353-4e40-8f00-27cd3e9c743a"},"vehicle_type_id":"4","last_reported":1723493336,"current_range_meters":1200,"station_id":"ce4bh692rcd13ifvqea0","pricing_plan_id":"cebpf4jnsgd1na2vs0mg"},{"bike_id":"9af74e9b-a2bd-40c7-acbe-e051db8d4132","system_id":"levelo_inurba_marseille","lat":43.29267,"lon":5.38438,"is_reserved":false,"is_disabled":false,"rental_uris":{"android":"levelo://app?vid=9af74e9b-a2bd-40c7-acbe-e051db8d4132","ios":"levelo://app?vid=9af74e9b-a2bd-40c7-acbe-e051db8d4132"},"vehicle_type_id":"4","last_reported":1723493336,"current_range_meters":400,"station_id":"ce4bh692rcd13ifvqea0","pricing_plan_id":"cebpf4jnsgd1na2vs0mg"},{"bike_id":"0cb45e12-d82a-4878-ac4d-26beae432393","system_id":"levelo_inurba_marseille","lat":43.292671,"lon":5.384396,"is_reserved":false,"is_disabled":false,"rental_uris":{"android":"levelo://app?vid=0cb45e12-d82a-4878-ac4d-26beae432393","ios":"levelo://app?vid=0cb45e12-d82a-4878-ac4d-26beae432393"},"vehicle_type_id":"4","last_reported":1723493336,"current_range_meters":0,"station_id":"ce4bh692rcd13ifvqea0","pricing_plan_id":"cebpf4jnsgd1na2vs0mg"},{"bike_id":"4f4763a8-4917-40ed-a551-10cf62ad6d75","system_id":"levelo_inurba_marseille","lat":43.29271,"lon":5.3845,"is_reserved":false,"is_disabled":false,"rental_uris":{"android":"levelo://app?vid=4f4763a8-4917-40ed-a551-10cf62ad6d75","ios":"levelo://app?vid=4f4763a8-4917-40ed-a551-10cf62ad6d75"},"vehicle_type_id":"4","last_reported":1723493336,"current_range_meters":0,"station_id":"ce4bh692rcd13ifvqea0","pricing_plan_id":"cebpf4jnsgd1na2vs0mg"},{"bike_id":"9f9e3c31-f097-4234-97d8-fac73bde0c32","system_id":"levelo_inurba_marseille","lat":43.292644,"lon":5.384257,"is_reserved":false,"is_disabled":false,"rental_uris":{"android":"levelo://app?vid=9f9e3c31-f097-4234-97d8-fac73bde0c32","ios":"levelo://app?vid=9f9e3c31-f097-4234-97d8-fac73bde0c32"},"vehicle_type_id":"4","last_reported":1723493336,"current_range_meters":2800,"station_id":"ce4bh692rcd13ifvqea0","pricing_plan_id":"cebpf4jnsgd1na2vs0mg"},{"bike_id":"f30a5eb7-dda4-4cb4-bff4-6f6d920577ad","system_id":"levelo_inurba_marseille","lat":43.292644,"lon":5.384257,"is_reserved":false,"is_disabled":false,"rental_uris":{"android":"levelo://app?vid=f30a5eb7-dda4-4cb4-bff4-6f6d920577ad","ios":"levelo://app?vid=f30a5eb7-dda4-4cb4-bff4-6f6d920577ad"},"vehicle_type_id":"4","last_reported":1723493336,"current_range_meters":0,"station_id":"ce4bh692rcd13ifvqea0","pricing_plan_id":"cebpf4jnsgd1na2vs0mg"},{"bike_id":"b8170c66-9fb2-44a4-9bfa-e49ec5b61386","system_id":"levelo_inurba_marseille","lat":43.292644,"lon":5.384257,"is_reserved":false,"is_disabled":false,"rental_uris":{"android":"levelo://app?vid=b8170c66-9fb2-44a4-9bfa-e49ec5b61386","ios":"levelo://app?vid=b8170c66-9fb2-44a4-9bfa-e49ec5b61386"},"vehicle_type_id":"4","last_reported":1723493336,"current_range_meters":0,"station_id":"ce4bh692rcd13ifvqea0","pricing_plan_id":"cebpf4jnsgd1na2vs0mg"},{"bike_id":"38750f9a-e19b-4ad7-8fdb-bb2ebc279bcf","system_id":"levelo_inurba_marseille","lat":43.292644,"lon":5.384257,"is_reserved":false,"is_disabled":false,"rental_uris":{"android":"levelo://app?vid=38750f9a-e19b-4ad7-8fdb-bb2ebc279bcf","ios":"levelo://app?vid=38750f9a-e19b-4ad7-8fdb-bb2ebc279bcf"},"vehicle_type_id":"4","last_reported":1723493336,"current_range_meters":2000,"station_id":"ce4bh692rcd13ifvqea0","pricing_plan_id":"cebpf4jnsgd1na2vs0mg"},{"bike_id":"5d5a745b-67f5-4921-b243-9574f9f61235","system_id":"levelo_inurba_marseille","lat":43.29263,"lon":5.38446,"is_reserved":false,"is_disabled":false,"rental_uris":{"android":"levelo://app?vid=5d5a745b-67f5-4921-b243-9574f9f61235","ios":"levelo://app?vid=5d5a745b-67f5-4921-b243-9574f9f61235"},"vehicle_type_id":"4","last_reported":1723493336,"current_range_meters":15600,"station_id":"ce4bh692rcd13ifvqea0","pricing_plan_id":"cebpf4jnsgd1na2vs0mg"},{"bike_id":"a9c2fc64-86fc-4599-9a1d-b858c8415194","system_id":"levelo_inurba_marseille","lat":43.29261,"lon":5.38445,"is_reserved":false,"is_disabled":false,"rental_uris":{"android":"levelo://app?vid=a9c2fc64-86fc-4599-9a1d-b858c8415194","ios":"levelo://app?vid=a9c2fc64-86fc-4599-9a1d-b858c8415194"},"vehicle_type_id":"4","last_reported":1723493336,"current_range_meters":0,"station_id":"ce4bh692rcd13ifvqea0","pricing_plan_id":"cebpf4jnsgd1na2vs0mg"},{"bike_id":"5ff9ebba-3045-4891-b649-83b4b9fbb42f","system_id":"levelo_inurba_marseille","lat":43.292644,"lon":5.384257,"is_reserved":false,"is_disabled":false,"rental_uris":{"android":"levelo://app?vid=5ff9ebba-3045-4891-b649-83b4b9fbb42f","ios":"levelo://app?vid=5ff9ebba-3045-4891-b649-83b4b9fbb42f"},"vehicle_type_id":"4","last_reported":1723493336,"current_range_meters":23200,"station_id":"ce4bh692rcd13ifvqea0","pricing_plan_id":"cebpf4jnsgd1na2vs0mg"},{"bike_id":"d3914dd5-d3ec-4abb-8e9a-17919c77c78c","system_id":"levelo_inurba_marseille","lat":43.29008,"lon":5.35616,"is_reserved":false,"is_disabled":false,"rental_uris":{"android":"levelo://app?vid=d3914dd5-d3ec-4abb-8e9a-17919c77c78c","ios":"levelo://app?vid=d3914dd5-d3ec-4abb-8e9a-17919c77c78c"},"vehicle_type_id":"4","last_reported":1723493336,"current_range_meters":0,"station_id":"ce4bhb92rcd13ifvqen0","pricing_plan_id":"cebpf4jnsgd1na2vs0mg"},{"bike_id":"147d1b14-8715-43d3-8bd2-7d5620485986","system_id":"levelo_inurba_marseille","lat":43.29006,"lon":5.35622,"is_reserved":false,"is_disabled":false,"rental_uris":{"android":"levelo://app?vid=147d1b14-8715-43d3-8bd2-7d5620485986","ios":"levelo://app?vid=147d1b14-8715-43d3-8bd2-7d5620485986"},"vehicle_type_id":"4","last_reported":1723493336,"current_range_meters":0,"station_id":"ce4bhb92rcd13ifvqen0","pricing_plan_id":"cebpf4jnsgd1na2vs0mg"},{"bike_id":"2c69cb3e-af2f-4e88-84ec-bfdb8ec464c6","system_id":"levelo_inurba_marseille","lat":43.29002,"lon":5.35619,"is_reserved":false,"is_disabled":false,"rental_uris":{"android":"levelo://app?vid=2c69cb3e-af2f-4e88-84ec-bfdb8ec464c6","ios":"levelo://app?vid=2c69cb3e-af2f-4e88-84ec-bfdb8ec464c6"},"vehicle_type_id":"4","last_reported":1723493336,"current_range_meters":0,"station_id":"ce4bhb92rcd13ifvqen0","pricing_plan_id":"cebpf4jnsgd1na2vs0mg"},{"bike_id":"45d84bd2-f566-486e-8956-f48717df4e22","system_id":"levelo_inurba_marseille","lat":43.290995,"lon":5.381361,"is_reserved":false,"is_disabled":false,"rental_uris":{"android":"levelo://app?vid=45d84bd2-f566-486e-8956-f48717df4e22","ios":"levelo://app?vid=45d84bd2-f566-486e-8956-f48717df4e22"},"vehicle_type_id":"4","last_reported":1723493336,"current_range_meters":0,"station_id":"ce4bh512rcd13ifvqe2g","pricing_plan_id":"cebpf4jnsgd1na2vs0mg"},{"bike_id":"71f351e3-12ab-48ab-b2f2-9b918bd5a45a","system_id":"levelo_inurba_marseille","lat":43.290995,"lon":5.381361,"is_reserved":false,"is_disabled":false,"rental_uris":{"android":"levelo://app?vid=71f351e3-12ab-48ab-b2f2-9b918bd5a45a","ios":"levelo://app?vid=71f351e3-12ab-48ab-b2f2-9b918bd5a45a"},"vehicle_type_id":"4","last_reported":1723493336,"current_range_meters":8000,"station_id":"ce4bh512rcd13ifvqe2g","pricing_plan_id":"cebpf4jnsgd1na2vs0mg"},{"bike_id":"46ffd2a7-cd37-4173-92f5-6a09945fc1d4","system_id":"levelo_inurba_marseille","lat":43.290995,"lon":5.381361,"is_reserved":false,"is_disabled":false,"rental_uris":{"android":"levelo://app?vid=46ffd2a7-cd37-4173-92f5-6a09945fc1d4","ios":"levelo://app?vid=46ffd2a7-cd37-4173-92f5-6a09945fc1d4"},"vehicle_type_id":"4","last_reported":1723493336,"current_range_meters":10800,"station_id":"ce4bh512rcd13ifvqe2g","pricing_plan_id":"cebpf4jnsgd1na2vs0mg"},{"bike_id":"a88cc8f6-cd6a-4a5e-b9e8-cb40c6346569","system_id":"levelo_inurba_marseille","lat":43.290995,"lon":5.381361,"is_reserved":false,"is_disabled":false,"rental_uris":{"android":"levelo://app?vid=a88cc8f6-cd6a-4a5e-b9e8-cb40c6346569","ios":"levelo://app?vid=a88cc8f6-cd6a-4a5e-b9e8-cb40c6346569"},"vehicle_type_id":"4","last_reported":1723493336,"current_range_meters":14800,"station_id":"ce4bh512rcd13ifvqe2g","pricing_plan_id":"cebpf4jnsgd1na2vs0mg"},{"bike_id":"7d738c79-f32b-4bda-8962-6544e398f9ed","system_id":"levelo_inurba_marseille","lat":43.29096,"lon":5.38143,"is_reserved":false,"is_disabled":false,"rental_uris":{"android":"levelo://app?vid=7d738c79-f32b-4bda-8962-6544e398f9ed","ios":"levelo://app?vid=7d738c79-f32b-4bda-8962-6544e398f9ed"},"vehicle_type_id":"4","last_reported":1723493336,"current_range_meters":27600,"station_id":"ce4bh512rcd13ifvqe2g","pricing_plan_id":"cebpf4jnsgd1na2vs0mg"},{"bike_id":"9f4c7b63-b9bf-4eae-94f1-da4d5ac44fd7","system_id":"levelo_inurba_marseille","lat":43.29096,"lon":5.38147,"is_reserved":false,"is_disabled":false,"rental_uris":{"android":"levelo://app?vid=9f4c7b63-b9bf-4eae-94f1-da4d5ac44fd7","ios":"levelo://app?vid=9f4c7b63-b9bf-4eae-94f1-da4d5ac44fd7"},"vehicle_type_id":"4","last_reported":1723493336,"current_range_meters":7200,"station_id":"ce4bh512rcd13ifvqe2g","pricing_plan_id":"cebpf4jnsgd1na2vs0mg"},{"bike_id":"57cd4990-cdac-4201-8cf6-fa48214cc3a9","system_id":"levelo_inurba_marseille","lat":43.290995,"lon":5.381361,"is_reserved":false,"is_disabled":false,"rental_uris":{"android":"levelo://app?vid=57cd4990-cdac-4201-8cf6-fa48214cc3a9","ios":"levelo://app?vid=57cd4990-cdac-4201-8cf6-fa48214cc3a9"},"vehicle_type_id":"4","last_reported":1723493336,"current_range_meters":20400,"station_id":"ce4bh512rcd13ifvqe2g","pricing_plan_id":"cebpf4jnsgd1na2vs0mg"},{"bike_id":"e2687dd1-f96b-404e-a578-ea7ae8dfa6cc","system_id":"levelo_inurba_marseille","lat":43.290995,"lon":5.381361,"is_reserved":false,"is_disabled":false,"rental_uris":{"android":"levelo://app?vid=e2687dd1-f96b-404e-a578-ea7ae8dfa6cc","ios":"levelo://app?vid=e2687dd1-f96b-404e-a578-ea7ae8dfa6cc"},"vehicle_type_id":"4","last_reported":1723493336,"current_range_meters":5200,"station_id":"ce4bh512rcd13ifvqe2g","pricing_plan_id":"cebpf4jnsgd1na2vs0mg"},{"bike_id":"2d22280c-3b1c-4772-828b-7b0c17939085","system_id":"levelo_inurba_marseille","lat":43.295169,"lon":5.390426,"is_reserved":false,"is_disabled":false,"rental_uris":{"android":"levelo://app?vid=2d22280c-3b1c-4772-828b-7b0c17939085","ios":"levelo://app?vid=2d22280c-3b1c-4772-828b-7b0c17939085"},"vehicle_type_id":"4","last_reported":1723493336,"current_range_meters":21600,"station_id":"ce4bh3p2rcd13ifvqdp0","pricing_plan_id":"cebpf4jnsgd1na2vs0mg"},{"bike_id":"f3d6aed2-6d0d-44bf-9927-b43f229e054c","system_id":"levelo_inurba_marseille","lat":43.297807,"lon":5.393533,"is_reserved":false,"is_disabled":false,"rental_uris":{"android":"levelo://app?vid=f3d6aed2-6d0d-44bf-9927-b43f229e054c","ios":"levelo://app?vid=f3d6aed2-6d0d-44bf-9927-b43f229e054c"},"vehicle_type_id":"4","last_reported":1723493336,"current_range_meters":18400,"station_id":"chh1huq6cuj3fo74tm60","pricing_plan_id":"cebpf4jnsgd1na2vs0mg"},{"bike_id":"fc13499f-86ad-46f6-ae96-111fc77b2d0f","system_id":"levelo_inurba_marseille","lat":43.297807,"lon":5.393533,"is_reserved":false,"is_disabled":false,"rental_uris":{"android":"levelo://app?vid=fc13499f-86ad-46f6-ae96-111fc77b2d0f","ios":"levelo://app?vid=fc13499f-86ad-46f6-ae96-111fc77b2d0f"},"vehicle_type_id":"4","last_reported":1723493336,"current_range_meters":0,"station_id":"chh1huq6cuj3fo74tm60","pricing_plan_id":"cebpf4jnsgd1na2vs0mg"},{"bike_id":"4448e7f6-dbb9-489a-a79b-86a3b801614a","system_id":"levelo_inurba_marseille","lat":43.295169,"lon":5.390426,"is_reserved":false,"is_disabled":false,"rental_uris":{"android":"levelo://app?vid=4448e7f6-dbb9-489a-a79b-86a3b801614a","ios":"levelo://app?vid=4448e7f6-dbb9-489a-a79b-86a3b801614a"},"vehicle_type_id":"4","last_reported":1723493336,"current_range_meters":24800,"station_id":"ce4bh3p2rcd13ifvqdp0","pricing_plan_id":"cebpf4jnsgd1na2vs0mg"},{"bike_id":"188c93d3-2cdc-4cd6-9303-2751a62bc058","system_id":"levelo_inurba_marseille","lat":43.295169,"lon":5.390426,"is_reserved":false,"is_disabled":false,"rental_uris":{"android":"levelo://app?vid=188c93d3-2cdc-4cd6-9303-2751a62bc058","ios":"levelo://app?vid=188c93d3-2cdc-4cd6-9303-2751a62bc058"},"vehicle_type_id":"4","last_reported":1723493336,"current_range_meters":25200,"station_id":"ce4bh3p2rcd13ifvqdp0","pricing_plan_id":"cebpf4jnsgd1na2vs0mg"},{"bike_id":"1f1bfcf5-0dff-44fa-9e16-4b9c263df8a1","system_id":"levelo_inurba_marseille","lat":43.297815,"lon":5.393548,"is_reserved":false,"is_disabled":false,"rental_uris":{"android":"levelo://app?vid=1f1bfcf5-0dff-44fa-9e16-4b9c263df8a1","ios":"levelo://app?vid=1f1bfcf5-0dff-44fa-9e16-4b9c263df8a1"},"vehicle_type_id":"4","last_reported":1723493336,"current_range_meters":6400,"station_id":"chh1huq6cuj3fo74tm60","pricing_plan_id":"cebpf4jnsgd1na2vs0mg"},{"bike_id":"3e686a24-5827-4b0e-9c46-375701ad6fd5","system_id":"levelo_inurba_marseille","lat":43.297815,"lon":5.393548,"is_reserved":false,"is_disabled":false,"rental_uris":{"android":"levelo://app?vid=3e686a24-5827-4b0e-9c46-375701ad6fd5","ios":"levelo://app?vid=3e686a24-5827-4b0e-9c46-375701ad6fd5"},"vehicle_type_id":"4","last_reported":1723493336,"current_range_meters":18400,"station_id":"chh1huq6cuj3fo74tm60","pricing_plan_id":"cebpf4jnsgd1na2vs0mg"},{"bike_id":"41fe58ef-0ca7-4844-bc2c-a936bef84a5e","system_id":"levelo_inurba_marseille","lat":43.21589,"lon":5.34678,"is_reserved":false,"is_disabled":false,"rental_uris":{"android":"levelo://app?vid=41fe58ef-0ca7-4844-bc2c-a936bef84a5e","ios":"levelo://app?vid=41fe58ef-0ca7-4844-bc2c-a936bef84a5e"},"vehicle_type_id":"4","last_reported":1723493336,"current_range_meters":10400,"station_id":"","pricing_plan_id":"cebpf4jnsgd1na2vs0mg"},{"bike_id":"5b7e4c5a-c65f-421a-b77b-9b3ec231210a","system_id":"levelo_inurba_marseille","lat":43.330442,"lon":5.389148,"is_reserved":false,"is_disabled":false,"rental_uris":{"android":"levelo://app?vid=5b7e4c5a-c65f-421a-b77b-9b3ec231210a","ios":"levelo://app?vid=5b7e4c5a-c65f-421a-b77b-9b3ec231210a"},"vehicle_type_id":"4","last_reported":1723493336,"current_range_meters":26000,"station_id":"ce4bhr92rcd13ifvqhrg","pricing_plan_id":"cebpf4jnsgd1na2vs0mg"},{"bike_id":"e321dceb-5d2e-48d0-99b0-ec5da406cb33","system_id":"levelo_inurba_marseille","lat":43.295169,"lon":5.390426,"is_reserved":false,"is_disabled":false,"rental_uris":{"android":"levelo://app?vid=e321dceb-5d2e-48d0-99b0-ec5da406cb33","ios":"levelo://app?vid=e321dceb-5d2e-48d0-99b0-ec5da406cb33"},"vehicle_type_id":"4","last_reported":1723493336,"current_range_meters":6800,"station_id":"ce4bh3p2rcd13ifvqdp0","pricing_plan_id":"cebpf4jnsgd1na2vs0mg"},{"bike_id":"ec3e40c1-463f-4f8e-b9d9-f8f5b62e3e3c","system_id":"levelo_inurba_marseille","lat":43.29525,"lon":5.39046,"is_reserved":false,"is_disabled":false,"rental_uris":{"android":"levelo://app?vid=ec3e40c1-463f-4f8e-b9d9-f8f5b62e3e3c","ios":"levelo://app?vid=ec3e40c1-463f-4f8e-b9d9-f8f5b62e3e3c"},"vehicle_type_id":"4","last_reported":1723493336,"current_range_meters":2800,"station_id":"ce4bh3p2rcd13ifvqdp0","pricing_plan_id":"cebpf4jnsgd1na2vs0mg"},{"bike_id":"55d8be9c-023f-4057-80d5-3f71d63b8ab1","system_id":"levelo_inurba_marseille","lat":43.295169,"lon":5.390426,"is_reserved":false,"is_disabled":false,"rental_uris":{"android":"levelo://app?vid=55d8be9c-023f-4057-80d5-3f71d63b8ab1","ios":"levelo://app?vid=55d8be9c-023f-4057-80d5-3f71d63b8ab1"},"vehicle_type_id":"4","last_reported":1723493336,"current_range_meters":1600,"station_id":"ce4bh3p2rcd13ifvqdp0","pricing_plan_id":"cebpf4jnsgd1na2vs0mg"},{"bike_id":"c2d7625a-48e9-4dbd-a4cc-8d71cb541d5e","system_id":"levelo_inurba_marseille","lat":43.2903,"lon":5.38141,"is_reserved":false,"is_disabled":false,"rental_uris":{"android":"levelo://app?vid=c2d7625a-48e9-4dbd-a4cc-8d71cb541d5e","ios":"levelo://app?vid=c2d7625a-48e9-4dbd-a4cc-8d71cb541d5e"},"vehicle_type_id":"4","last_reported":1723493336,"current_range_meters":0,"station_id":"ce4bh4p2rcd13ifvqe1g","pricing_plan_id":"cebpf4jnsgd1na2vs0mg"},{"bike_id":"82a1c953-9ecd-4091-8d53-01d292cae600","system_id":"levelo_inurba_marseille","lat":43.2901,"lon":5.381269,"is_reserved":false,"is_disabled":false,"rental_uris":{"android":"levelo://app?vid=82a1c953-9ecd-4091-8d53-01d292cae600","ios":"levelo://app?vid=82a1c953-9ecd-4091-8d53-01d292cae600"},"vehicle_type_id":"4","last_reported":1723493336,"current_range_meters":400,"station_id":"ce4bh4p2rcd13ifvqe1g","pricing_plan_id":"cebpf4jnsgd1na2vs0mg"},{"bike_id":"f49e4836-9698-45d9-8332-b1fcb5ccf1f8","system_id":"levelo_inurba_marseille","lat":43.28856,"lon":5.358371,"is_reserved":false,"is_disabled":false,"rental_uris":{"android":"levelo://app?vid=f49e4836-9698-45d9-8332-b1fcb5ccf1f8","ios":"levelo://app?vid=f49e4836-9698-45d9-8332-b1fcb5ccf1f8"},"vehicle_type_id":"4","last_reported":1723493336,"current_range_meters":0,"station_id":"ce4bhb12rcd13ifvqem0","pricing_plan_id":"cebpf4jnsgd1na2vs0mg"},{"bike_id":"abc98854-1c7b-4264-a440-12af12337be5","system_id":"levelo_inurba_marseille","lat":43.286039,"lon":5.370679,"is_reserved":false,"is_disabled":false,"rental_uris":{"android":"levelo://app?vid=abc98854-1c7b-4264-a440-12af12337be5","ios":"levelo://app?vid=abc98854-1c7b-4264-a440-12af12337be5"},"vehicle_type_id":"4","last_reported":1723493336,"current_range_meters":8400,"station_id":"ce4bht12rcd13ifvqi60","pricing_plan_id":"cebpf4jnsgd1na2vs0mg"},{"bike_id":"ac75d8e5-5139-4e43-a64e-51e7994c2517","system_id":"levelo_inurba_marseille","lat":43.337444,"lon":5.374475,"is_reserved":false,"is_disabled":false,"rental_uris":{"android":"levelo://app?vid=ac75d8e5-5139-4e43-a64e-51e7994c2517","ios":"levelo://app?vid=ac75d8e5-5139-4e43-a64e-51e7994c2517"},"vehicle_type_id":"3","last_reported":1723493336,"current_range_meters":24800,"station_id":"","pricing_plan_id":"cebpf4jnsgd1na2vs0mg"},{"bike_id":"29ff7083-dc57-442e-8612-94409032be7e","system_id":"levelo_inurba_marseille","lat":43.309371,"lon":5.401449,"is_reserved":false,"is_disabled":false,"rental_uris":{"android":"levelo://app?vid=29ff7083-dc57-442e-8612-94409032be7e","ios":"levelo://app?vid=29ff7083-dc57-442e-8612-94409032be7e"},"vehicle_type_id":"4","last_reported":1723493336,"current_range_meters":21200,"station_id":"ce4bgvp2rcd13ifvqct0","pricing_plan_id":"cebpf4jnsgd1na2vs0mg"},{"bike_id":"43f21911-683d-4ba4-93d3-8a7e20e1c78c","system_id":"levelo_inurba_marseille","lat":43.337455,"lon":5.374565,"is_reserved":false,"is_disabled":false,"rental_uris":{"android":"levelo://app?vid=43f21911-683d-4ba4-93d3-8a7e20e1c78c","ios":"levelo://app?vid=43f21911-683d-4ba4-93d3-8a7e20e1c78c"},"vehicle_type_id":"4","last_reported":1723493336,"current_range_meters":24000,"station_id":"","pricing_plan_id":"cebpf4jnsgd1na2vs0mg"},{"bike_id":"6086599c-14e6-492d-8b53-d8808720b8a6","system_id":"levelo_inurba_marseille","lat":43.287839,"lon":5.373678,"is_reserved":false,"is_disabled":false,"rental_uris":{"android":"levelo://app?vid=6086599c-14e6-492d-8b53-d8808720b8a6","ios":"levelo://app?vid=6086599c-14e6-492d-8b53-d8808720b8a6"},"vehicle_type_id":"4","last_reported":1723493336,"current_range_meters":8000,"station_id":"","pricing_plan_id":"cebpf4jnsgd1na2vs0mg"},{"bike_id":"50503b1c-23de-412c-8bb5-4f40012a64e8","system_id":"levelo_inurba_marseille","lat":43.33754,"lon":5.37458,"is_reserved":false,"is_disabled":false,"rental_uris":{"android":"levelo://app?vid=50503b1c-23de-412c-8bb5-4f40012a64e8","ios":"levelo://app?vid=50503b1c-23de-412c-8bb5-4f40012a64e8"},"vehicle_type_id":"4","last_reported":1723493336,"current_range_meters":24000,"station_id":"","pricing_plan_id":"cebpf4jnsgd1na2vs0mg"},{"bike_id":"1ece39e8-5ec5-465b-b0d5-bdea3554c74d","system_id":"levelo_inurba_marseille","lat":43.337584,"lon":5.374511,"is_reserved":false,"is_disabled":false,"rental_uris":{"android":"levelo://app?vid=1ece39e8-5ec5-465b-b0d5-bdea3554c74d","ios":"levelo://app?vid=1ece39e8-5ec5-465b-b0d5-bdea3554c74d"},"vehicle_type_id":"4","last_reported":1723493336,"current_range_meters":15600,"station_id":"","pricing_plan_id":"cebpf4jnsgd1na2vs0mg"},{"bike_id":"7b9e8744-1a62-4d79-83e6-366501021f18","system_id":"levelo_inurba_marseille","lat":43.33762,"lon":5.37444,"is_reserved":false,"is_disabled":false,"rental_uris":{"android":"levelo://app?vid=7b9e8744-1a62-4d79-83e6-366501021f18","ios":"levelo://app?vid=7b9e8744-1a62-4d79-83e6-366501021f18"},"vehicle_type_id":"4","last_reported":1723493336,"current_range_meters":31200,"station_id":"","pricing_plan_id":"cebpf4jnsgd1na2vs0mg"},{"bike_id":"b2d6b700-be3e-4c27-ab3b-d1fbb5513dee","system_id":"levelo_inurba_marseille","lat":43.33769,"lon":5.37468,"is_reserved":false,"is_disabled":false,"rental_uris":{"android":"levelo://app?vid=b2d6b700-be3e-4c27-ab3b-d1fbb5513dee","ios":"levelo://app?vid=b2d6b700-be3e-4c27-ab3b-d1fbb5513dee"},"vehicle_type_id":"4","last_reported":1723493336,"current_range_meters":26400,"station_id":"","pricing_plan_id":"cebpf4jnsgd1na2vs0mg"},{"bike_id":"22d23e81-d601-4c76-9973-e595fa549c3b","system_id":"levelo_inurba_marseille","lat":43.33769,"lon":5.37477,"is_reserved":false,"is_disabled":false,"rental_uris":{"android":"levelo://app?vid=22d23e81-d601-4c76-9973-e595fa549c3b","ios":"levelo://app?vid=22d23e81-d601-4c76-9973-e595fa549c3b"},"vehicle_type_id":"4","last_reported":1723493336,"current_range_meters":800,"station_id":"","pricing_plan_id":"cebpf4jnsgd1na2vs0mg"},{"bike_id":"a0eeb4a3-6ae3-44c3-8527-155da571cd64","system_id":"levelo_inurba_marseille","lat":43.3377,"lon":5.37475,"is_reserved":false,"is_disabled":false,"rental_uris":{"android":"levelo://app?vid=a0eeb4a3-6ae3-44c3-8527-155da571cd64","ios":"levelo://app?vid=a0eeb4a3-6ae3-44c3-8527-155da571cd64"},"vehicle_type_id":"4","last_reported":1723493336,"current_range_meters":22800,"station_id":"","pricing_plan_id":"cebpf4jnsgd1na2vs0mg"},{"bike_id":"ace12e57-f66f-4efa-96db-c6aa50a829e9","system_id":"levelo_inurba_marseille","lat":43.33773,"lon":5.37477,"is_reserved":false,"is_disabled":false,"rental_uris":{"android":"levelo://app?vid=ace12e57-f66f-4efa-96db-c6aa50a829e9","ios":"levelo://app?vid=ace12e57-f66f-4efa-96db-c6aa50a829e9"},"vehicle_type_id":"4","last_reported":1723493336,"current_range_meters":19200,"station_id":"","pricing_plan_id":"cebpf4jnsgd1na2vs0mg"},{"bike_id":"8580717d-eb3f-4f14-b031-ffa8a147d520","system_id":"levelo_inurba_marseille","lat":43.33776,"lon":5.37482,"is_reserved":false,"is_disabled":false,"rental_uris":{"android":"levelo://app?vid=8580717d-eb3f-4f14-b031-ffa8a147d520","ios":"levelo://app?vid=8580717d-eb3f-4f14-b031-ffa8a147d520"},"vehicle_type_id":"4","last_reported":1723493336,"current_range_meters":15200,"station_id":"","pricing_plan_id":"cebpf4jnsgd1na2vs0mg"},{"bike_id":"904bf995-b05e-43a4-acb4-443923e5a8a2","system_id":"levelo_inurba_marseille","lat":43.301117,"lon":5.398795,"is_reserved":false,"is_disabled":false,"rental_uris":{"android":"levelo://app?vid=904bf995-b05e-43a4-acb4-443923e5a8a2","ios":"levelo://app?vid=904bf995-b05e-43a4-acb4-443923e5a8a2"},"vehicle_type_id":"4","last_reported":1723493336,"current_range_meters":5200,"station_id":"ce4bh0h2rcd13ifvqd40","pricing_plan_id":"cebpf4jnsgd1na2vs0mg"},{"bike_id":"c1455264-5bcf-4e5d-8ed0-112caa47cd96","system_id":"levelo_inurba_marseille","lat":43.301117,"lon":5.398795,"is_reserved":false,"is_disabled":false,"rental_uris":{"android":"levelo://app?vid=c1455264-5bcf-4e5d-8ed0-112caa47cd96","ios":"levelo://app?vid=c1455264-5bcf-4e5d-8ed0-112caa47cd96"},"vehicle_type_id":"4","last_reported":1723493336,"current_range_meters":3200,"station_id":"ce4bh0h2rcd13ifvqd40","pricing_plan_id":"cebpf4jnsgd1na2vs0mg"},{"bike_id":"b9114623-9cf0-4c5b-a25a-c82a2f5fbe44","system_id":"levelo_inurba_marseille","lat":43.33888,"lon":5.36605,"is_reserved":false,"is_disabled":false,"rental_uris":{"android":"levelo://app?vid=b9114623-9cf0-4c5b-a25a-c82a2f5fbe44","ios":"levelo://app?vid=b9114623-9cf0-4c5b-a25a-c82a2f5fbe44"},"vehicle_type_id":"4","last_reported":1723493336,"current_range_meters":4000,"station_id":"","pricing_plan_id":"cebpf4jnsgd1na2vs0mg"},{"bike_id":"4d194d65-5b37-4c67-a7be-4dde56969850","system_id":"levelo_inurba_marseille","lat":43.298681,"lon":5.397225,"is_reserved":false,"is_disabled":false,"rental_uris":{"android":"levelo://app?vid=4d194d65-5b37-4c67-a7be-4dde56969850","ios":"levelo://app?vid=4d194d65-5b37-4c67-a7be-4dde56969850"},"vehicle_type_id":"4","last_reported":1723493336,"current_range_meters":1600,"station_id":"ce4bh0h2rcd13ifvqd50","pricing_plan_id":"cebpf4jnsgd1na2vs0mg"},{"bike_id":"40d3d170-0b81-47b8-86f0-6052d802b512","system_id":"levelo_inurba_marseille","lat":43.286961,"lon":5.373785,"is_reserved":false,"is_disabled":false,"rental_uris":{"android":"levelo://app?vid=40d3d170-0b81-47b8-86f0-6052d802b512","ios":"levelo://app?vid=40d3d170-0b81-47b8-86f0-6052d802b512"},"vehicle_type_id":"4","last_reported":1723493336,"current_range_meters":6800,"station_id":"ce4bh3p2rcd13ifvqdq0","pricing_plan_id":"cebpf4jnsgd1na2vs0mg"},{"bike_id":"ccc62940-3372-4a9a-955f-aaae3ff4bfe9","system_id":"levelo_inurba_marseille","lat":43.302759,"lon":5.400793,"is_reserved":false,"is_disabled":false,"rental_uris":{"android":"levelo://app?vid=ccc62940-3372-4a9a-955f-aaae3ff4bfe9","ios":"levelo://app?vid=ccc62940-3372-4a9a-955f-aaae3ff4bfe9"},"vehicle_type_id":"4","last_reported":1723493336,"current_range_meters":19600,"station_id":"ce4bgvh2rcd13ifvqcs0","pricing_plan_id":"cebpf4jnsgd1na2vs0mg"},{"bike_id":"97fa2eab-b258-4abe-9e99-0d60fea31097","system_id":"levelo_inurba_marseille","lat":43.289301,"lon":5.383943,"is_reserved":false,"is_disabled":false,"rental_uris":{"android":"levelo://app?vid=97fa2eab-b258-4abe-9e99-0d60fea31097","ios":"levelo://app?vid=97fa2eab-b258-4abe-9e99-0d60fea31097"},"vehicle_type_id":"4","last_reported":1723493336,"current_range_meters":0,"station_id":"ce4bh612rcd13ifvqe6g","pricing_plan_id":"cebpf4jnsgd1na2vs0mg"},{"bike_id":"9c54faec-0adf-49e7-a889-d190dc147dce","system_id":"levelo_inurba_marseille","lat":43.290336,"lon":5.386425,"is_reserved":false,"is_disabled":false,"rental_uris":{"android":"levelo://app?vid=9c54faec-0adf-49e7-a889-d190dc147dce","ios":"levelo://app?vid=9c54faec-0adf-49e7-a889-d190dc147dce"},"vehicle_type_id":"4","last_reported":1723493336,"current_range_meters":16400,"station_id":"ce4bh4p2rcd13ifvqe0g","pricing_plan_id":"cebpf4jnsgd1na2vs0mg"},{"bike_id":"878cff72-3438-44ba-9a72-01ec32ed8a6e","system_id":"levelo_inurba_marseille","lat":43.290336,"lon":5.386425,"is_reserved":false,"is_disabled":false,"rental_uris":{"android":"levelo://app?vid=878cff72-3438-44ba-9a72-01ec32ed8a6e","ios":"levelo://app?vid=878cff72-3438-44ba-9a72-01ec32ed8a6e"},"vehicle_type_id":"4","last_reported":1723493336,"current_range_meters":800,"station_id":"ce4bh4p2rcd13ifvqe0g","pricing_plan_id":"cebpf4jnsgd1na2vs0mg"},{"bike_id":"91eec156-30cf-475a-a620-ce7f19cf84b8","system_id":"levelo_inurba_marseille","lat":43.28928,"lon":5.384,"is_reserved":false,"is_disabled":false,"rental_uris":{"android":"levelo://app?vid=91eec156-30cf-475a-a620-ce7f19cf84b8","ios":"levelo://app?vid=91eec156-30cf-475a-a620-ce7f19cf84b8"},"vehicle_type_id":"4","last_reported":1723493336,"current_range_meters":30000,"station_id":"ce4bh612rcd13ifvqe6g","pricing_plan_id":"cebpf4jnsgd1na2vs0mg"},{"bike_id":"a0c10f20-5a3f-4ac2-a229-960851e7a571","system_id":"levelo_inurba_marseille","lat":43.289307,"lon":5.38406,"is_reserved":false,"is_disabled":false,"rental_uris":{"android":"levelo://app?vid=a0c10f20-5a3f-4ac2-a229-960851e7a571","ios":"levelo://app?vid=a0c10f20-5a3f-4ac2-a229-960851e7a571"},"vehicle_type_id":"4","last_reported":1723493336,"current_range_meters":25600,"station_id":"ce4bh612rcd13ifvqe6g","pricing_plan_id":"cebpf4jnsgd1na2vs0mg"},{"bike_id":"b56076d4-fe4e-4064-8e49-fd768fed23a3","system_id":"levelo_inurba_marseille","lat":43.302759,"lon":5.400793,"is_reserved":false,"is_disabled":false,"rental_uris":{"android":"levelo://app?vid=b56076d4-fe4e-4064-8e49-fd768fed23a3","ios":"levelo://app?vid=b56076d4-fe4e-4064-8e49-fd768fed23a3"},"vehicle_type_id":"4","last_reported":1723493336,"current_range_meters":12000,"station_id":"ce4bgvh2rcd13ifvqcs0","pricing_plan_id":"cebpf4jnsgd1na2vs0mg"},{"bike_id":"578c9f61-a757-48b1-ada0-1a9bb5a76e38","system_id":"levelo_inurba_marseille","lat":43.289307,"lon":5.38406,"is_reserved":false,"is_disabled":false,"rental_uris":{"android":"levelo://app?vid=578c9f61-a757-48b1-ada0-1a9bb5a76e38","ios":"levelo://app?vid=578c9f61-a757-48b1-ada0-1a9bb5a76e38"},"vehicle_type_id":"4","last_reported":1723493336,"current_range_meters":6800,"station_id":"ce4bh612rcd13ifvqe6g","pricing_plan_id":"cebpf4jnsgd1na2vs0mg"},{"bike_id":"2be90b90-c3dc-4bf4-b481-d957f04d89e1","system_id":"levelo_inurba_marseille","lat":43.290336,"lon":5.386425,"is_reserved":false,"is_disabled":false,"rental_uris":{"android":"levelo://app?vid=2be90b90-c3dc-4bf4-b481-d957f04d89e1","ios":"levelo://app?vid=2be90b90-c3dc-4bf4-b481-d957f04d89e1"},"vehicle_type_id":"4","last_reported":1723493336,"current_range_meters":1200,"station_id":"ce4bh4p2rcd13ifvqe0g","pricing_plan_id":"cebpf4jnsgd1na2vs0mg"},{"bike_id":"72df271e-3b0a-44ec-8ff9-01010a267048","system_id":"levelo_inurba_marseille","lat":43.290336,"lon":5.386425,"is_reserved":false,"is_disabled":false,"rental_uris":{"android":"levelo://app?vid=72df271e-3b0a-44ec-8ff9-01010a267048","ios":"levelo://app?vid=72df271e-3b0a-44ec-8ff9-01010a267048"},"vehicle_type_id":"4","last_reported":1723493336,"current_range_meters":27600,"station_id":"ce4bh4p2rcd13ifvqe0g","pricing_plan_id":"cebpf4jnsgd1na2vs0mg"},{"bike_id":"bff944f6-c34b-4dd2-9ce8-f0fb31ba9995","system_id":"levelo_inurba_marseille","lat":43.290336,"lon":5.386425,"is_reserved":false,"is_disabled":false,"rental_uris":{"android":"levelo://app?vid=bff944f6-c34b-4dd2-9ce8-f0fb31ba9995","ios":"levelo://app?vid=bff944f6-c34b-4dd2-9ce8-f0fb31ba9995"},