{"last_updated":1721484408,"ttl":30,"version":"2.2","data":{"bikes":[{"bike_id":"d1d81e54-fed9-443c-944a-6820c8a62e66","system_id":"levelo_inurba_marseille","lat":43.31251,"lon":5.36793,"is_reserved":false,"is_disabled":false,"rental_uris":{"android":"levelo://app?vid=d1d81e54-fed9-443c-944a-6820c8a62e66","ios":"levelo://app?vid=d1d81e54-fed9-443c-944a-6820c8a62e66"},"vehicle_type_id":"4","last_reported":1721484408,"current_range_meters":0,"station_id":"","pricing_plan_id":"cebpf4jnsgd1na2vs0mg"},{"bike_id":"de845262-6eb7-4bed-8329-096aaa874777","system_id":"levelo_inurba_marseille","lat":43.312239,"lon":5.368562,"is_reserved":false,"is_disabled":false,"rental_uris":{"android":"levelo://app?vid=de845262-6eb7-4bed-8329-096aaa874777","ios":"levelo://app?vid=de845262-6eb7-4bed-8329-096aaa874777"},"vehicle_type_id":"4","last_reported":1721484408,"current_range_meters":3200,"station_id":"ce4bgl92rcd13ifvqbq0","pricing_plan_id":"cebpf4jnsgd1na2vs0mg"},{"bike_id":"f272320c-c4bf-46e8-ba9b-67353473c8e2","system_id":"levelo_inurba_marseille","lat":43.312239,"lon":5.368562,"is_reserved":false,"is_disabled":false,"rental_uris":{"android":"levelo://app?vid=f272320c-c4bf-46e8-ba9b-67353473c8e2","ios":"levelo://app?vid=f272320c-c4bf-46e8-ba9b-67353473c8e2"},"vehicle_type_id":"4","last_reported":1721484408,"current_range_meters":15600,"station_id":"ce4bgl92rcd13ifvqbq0","pricing_plan_id":"cebpf4jnsgd1na2vs0mg"},{"bike_id":"e1ec02d0-c0e5-48c5-a8fe-a9ce2cb56f46","system_id":"levelo_inurba_marseille","lat":43.312239,"lon":5.368562,"is_reserved":false,"is_disabled":false,"rental_uris":{"android":"levelo://app?vid=e1ec02d0-c0e5-48c5-a8fe-a9ce2cb56f46","ios":"levelo://app?vid=e1ec02d0-c0e5-48c5-a8fe-a9ce2cb56f46"},"vehicle_type_id":"4","last_reported":1721484408,"current_range_meters":0,"station_id":"ce4bgl92rcd13ifvqbq0","pricing_plan_id":"cebpf4jnsgd1na2vs0mg"},{"bike_id":"81891b97-7b11-44cc-a4e1-e45033fb6237","system_id":"levelo_inurba_marseille","lat":43.312239,"lon":5.368562,"is_reserved":false,"is_disabled":false,"rental_uris":{"android":"levelo://app?vid=81891b97-7b11-44cc-a4e1-e45033fb6237","ios":"levelo://app?vid=81891b97-7b11-44cc-a4e1-e45033fb6237"},"vehicle_type_id":"4","last_reported":1721484408,"current_range_meters":26800,"station_id":"ce4bgl92rcd13ifvqbq0","pricing_plan_id":"cebpf4jnsgd1na2vs0mg"},{"bike_id":"e3539b29-6b90-4c7f-9cfb-fd150ce9d3e4","system_id":"levelo_inurba_marseille","lat":43.314811,"lon":5.373103,"is_reserved":false,"is_disabled":false,"rental_uris":{"android":"levelo://app?vid=e3539b29-6b90-4c7f-9cfb-fd150ce9d3e4","ios":"levelo://app?vid=e3539b29-6b90-4c7f-9cfb-fd150ce9d3e4"},"vehicle_type_id":"4","last_reported":1721484408,"current_range_meters":1200,"station_id":"ce4bgt12rcd13ifvqcd0","pricing_plan_id":"cebpf4jnsgd1na2vs0mg"},{"bike_id":"32bf86fb-39c7-4520-b12e-60e8f91c25e9","system_id":"levelo_inurba_marseille","lat":43.30643,"lon":5.36802,"is_reserved":false,"is_disabled":false,"rental_uris":{"android":"levelo://app?vid=32bf86fb-39c7-4520-b12e-60e8f91c25e9","ios":"levelo://app?vid=32bf86fb-39c7-4520-b12e-60e8f91c25e9"},"vehicle_type_id":"4","last_reported":1721484408,"current_range_meters":30400,"station_id":"","pricing_plan_id":"cebpf4jnsgd1na2vs0mg"},{"bike_id":"4bd7a503-c7df-4189-8e58-2ecacfc8875f","system_id":"levelo_inurba_marseille","lat":43.305714,"lon":5.365633,"is_reserved":false,"is_disabled":false,"rental_uris":{"android":"levelo://app?vid=4bd7a503-c7df-4189-8e58-2ecacfc8875f","ios":"levelo://app?vid=4bd7a503-c7df-4189-8e58-2ecacfc8875f"},"vehicle_type_id":"4","last_reported":1721484408,"current_range_meters":23200,"station_id":"ce4bgs12rcd13ifvqcag","pricing_plan_id":"cebpf4jnsgd1na2vs0mg"},{"bike_id":"5f09cc15-3907-48ab-aff4-17dee59f8c51","system_id":"levelo_inurba_marseille","lat":43.305706,"lon":5.365654,"is_reserved":false,"is_disabled":false,"rental_uris":{"android":"levelo://app?vid=5f09cc15-3907-48ab-aff4-17dee59f8c51","ios":"levelo://app?vid=5f09cc15-3907-48ab-aff4-17dee59f8c51"},"vehicle_type_id":"4","last_reported":1721484408,"current_range_meters":14800,"station_id":"ce4bgs12rcd13ifvqcag","pricing_plan_id":"cebpf4jnsgd1na2vs0mg"},{"bike_id":"b0a92919-b86d-45f6-8f8c-c55b6634ae58","system_id":"levelo_inurba_marseille","lat":43.305706,"lon":5.365654,"is_reserved":false,"is_disabled":false,"rental_uris":{"android":"levelo://app?vid=b0a92919-b86d-45f6-8f8c-c55b6634ae58","ios":"levelo://app?vid=b0a92919-b86d-45f6-8f8c-c55b6634ae58"},"vehicle_type_id":"4","last_reported":1721484408,"current_range_meters":11600,"station_id":"ce4bgs12rcd13ifvqcag","pricing_plan_id":"cebpf4jnsgd1na2vs0mg"},{"bike_id":"8a9b2dae-72d0-4b65-8526-3693ed4a749c","system_id":"levelo_inurba_marseille","lat":43.311125,"lon":5.377624,"is_reserved":false,"is_disabled":false,"rental_uris":{"android":"levelo://app?vid=8a9b2dae-72d0-4b65-8526-3693ed4a749c","ios":"levelo://app?vid=8a9b2dae-72d0-4b65-8526-3693ed4a749c"},"vehicle_type_id":"4","last_reported":1721484408,"current_range_meters":22000,"station_id":"ce4bgt92rcd13ifvqcg0","pricing_plan_id":"cebpf4jnsgd1na2vs0mg"},{"bike_id":"8c0a3b93-e1c0-40ca-b1e8-324c81fb5661","system_id":"levelo_inurba_marseille","lat":43.307945,"lon":5.376487,"is_reserved":false,"is_disabled":false,"rental_uris":{"android":"levelo://app?vid=8c0a3b93-e1c0-40ca-b1e8-324c81fb5661","ios":"levelo://app?vid=8c0a3b93-e1c0-40ca-b1e8-324c81fb5661"},"vehicle_type_id":"4","last_reported":1721484408,"current_range_meters":8800,"station_id":"ce4bgv92rcd13ifvqcq0","pricing_plan_id":"cebpf4jnsgd1na2vs0mg"},{"bike_id":"eb202286-5e3c-4990-9934-511de6c4b674","system_id":"levelo_inurba_marseille","lat":43.307945,"lon":5.376487,"is_reserved":false,"is_disabled":false,"rental_uris":{"android":"levelo://app?vid=eb202286-5e3c-4990-9934-511de6c4b674","ios":"levelo://app?vid=eb202286-5e3c-4990-9934-511de6c4b674"},"vehicle_type_id":"4","last_reported":1721484408,"current_range_meters":6000,"station_id":"ce4bgv92rcd13ifvqcq0","pricing_plan_id":"cebpf4jnsgd1na2vs0mg"},{"bike_id":"f3bc3b7e-8567-4020-bbf7-42e322c0c9f9","system_id":"levelo_inurba_marseille","lat":43.307945,"lon":5.376487,"is_reserved":false,"is_disabled":false,"rental_uris":{"android":"levelo://app?vid=f3bc3b7e-8567-4020-bbf7-42e322c0c9f9","ios":"levelo://app?vid=f3bc3b7e-8567-4020-bbf7-42e322c0c9f9"},"vehicle_type_id":"4","last_reported":1721484408,"current_range_meters":24400,"station_id":"ce4bgv92rcd13ifvqcq0","pricing_plan_id":"cebpf4jnsgd1na2vs0mg"},{"bike_id":"da880fb7-cc7a-432e-b72a-a6037afb206b","system_id":"levelo_inurba_marseille","lat":43.307945,"lon":5.376487,"is_reserved":false,"is_disabled":false,"rental_uris":{"android":"levelo://app?vid=da880fb7-cc7a-432e-b72a-a6037afb206b","ios":"levelo://app?vid=da880fb7-cc7a-432e-b72a-a6037afb206b"},"vehicle_type_id":"4","last_reported":1721484408,"current_range_meters":2000,"station_id":"ce4bgv92rcd13ifvqcq0","pricing_plan_id":"cebpf4jnsgd1na2vs0mg"},{"bike_id":"4b61cde8-ce55-4b2a-9cbd-3aefa8b4c164","system_id":"levelo_inurba_marseille","lat":43.307945,"lon":5.376487,"is_reserved":false,"is_disabled":false,"rental_uris":{"android":"levelo://app?vid=4b61cde8-ce55-4b2a-9cbd-3aefa8b4c164","ios":"levelo://app?vid=4b61cde8-ce55-4b2a-9cbd-3aefa8b4c164"},"vehicle_type_id":"4","last_reported":1721484408,"current_range_meters":11200,"station_id":"ce4bgv92rcd13ifvqcq0","pricing_plan_id":"cebpf4jnsgd1na2vs0mg"},{"bike_id":"e263f4d3-f196-4083-bdd1-3225639e02f8","system_id":"levelo_inurba_marseille","lat":43.31166,"lon":5.37989,"is_reserved":false,"is_disabled":false,"rental_uris":{"android":"levelo://app?vid=e263f4d3-f196-4083-bdd1-3225639e02f8","ios":"levelo://app?vid=e263f4d3-f196-4083-bdd1-3225639e02f8"},"vehicle_type_id":"4","last_reported":1721484408,"current_range_meters":22800,"station_id":"","pricing_plan_id":"cebpf4jnsgd1na2vs0mg"},{"bike_id":"b3e3c66a-abc7-4671-b8d7-7c4a83aabb3b","system_id":"levelo_inurba_marseille","lat":43.30217,"lon":5.36936,"is_reserved":false,"is_disabled":false,"rental_uris":{"android":"levelo://app?vid=b3e3c66a-abc7-4671-b8d7-7c4a83aabb3b","ios":"levelo://app?vid=b3e3c66a-abc7-4671-b8d7-7c4a83aabb3b"},"vehicle_type_id":"4","last_reported":1721484408,"current_range_meters":18400,"station_id":"","pricing_plan_id":"cebpf4jnsgd1na2vs0mg"},{"bike_id":"95adb46f-dea1-460a-bec1-bf0ee41e4a0f","system_id":"levelo_inurba_marseille","lat":43.301939,"lon":5.366286,"is_reserved":false,"is_disabled":false,"rental_uris":{"android":"levelo://app?vid=95adb46f-dea1-460a-bec1-bf0ee41e4a0f","ios":"levelo://app?vid=95adb46f-dea1-460a-bec1-bf0ee41e4a0f"},"vehicle_type_id":"4","last_reported":1721484408,"current_range_meters":8400,"station_id":"ce4bgrh2rcd13ifvqc8g","pricing_plan_id":"cebpf4jnsgd1na2vs0mg"},{"bike_id":"da305b50-b468-4c5f-9a2f-d493538e0f6d","system_id":"levelo_inurba_marseille","lat":43.324771,"lon":5.36557,"is_reserved":false,"is_disabled":false,"rental_uris":{"android":"levelo://app?vid=da305b50-b468-4c5f-9a2f-d493538e0f6d","ios":"levelo://app?vid=da305b50-b468-4c5f-9a2f-d493538e0f6d"},"vehicle_type_id":"4","last_reported":1721484408,"current_range_meters":4800,"station_id":"ce4bhs12rcd13ifvqhvg","pricing_plan_id":"cebpf4jnsgd1na2vs0mg"},{"bike_id":"64f0d61f-d926-47a7-9e14-0cc608cf2e5e","system_id":"levelo_inurba_marseille","lat":43.298764,"lon":5.388973,"is_reserved":false,"is_disabled":false,"rental_uris":{"android":"levelo://app?vid=64f0d61f-d926-47a7-9e14-0cc608cf2e5e","ios":"levelo://app?vid=64f0d61f-d926-47a7-9e14-0cc608cf2e5e"},"vehicle_type_id":"4","last_reported":1721484408,"current_range_meters":0,"station_id":"ce4bh392rcd13ifvqdl0","pricing_plan_id":"cebpf4jnsgd1na2vs0mg"},{"bike_id":"3d091401-a528-4266-8641-386b24f9f872","system_id":"levelo_inurba_marseille","lat":43.324771,"lon":5.36557,"is_reserved":false,"is_disabled":false,"rental_uris":{"android":"levelo://app?vid=3d091401-a528-4266-8641-386b24f9f872","ios":"levelo://app?vid=3d091401-a528-4266-8641-386b24f9f872"},"vehicle_type_id":"4","last_reported":1721484408,"current_range_meters":6400,"station_id":"ce4bhs12rcd13ifvqhvg","pricing_plan_id":"cebpf4jnsgd1na2vs0mg"},{"bike_id":"f14918b9-d5ed-4777-ae09-063f90e964cd","system_id":"levelo_inurba_marseille","lat":43.304606,"lon":5.379026,"is_reserved":false,"is_disabled":false,"rental_uris":{"android":"levelo://app?vid=f14918b9-d5ed-4777-ae09-063f90e964cd","ios":"levelo://app?vid=f14918b9-d5ed-4777-ae09-063f90e964cd"},"vehicle_type_id":"4","last_reported":1721484408,"current_range_meters":0,"station_id":"ce4bgup2rcd13ifvqcn0","pricing_plan_id":"cebpf4jnsgd1na2vs0mg"},{"bike_id":"49c9174c-e04b-4e00-9848-b6d035396dd2","system_id":"levelo_inurba_marseille","lat":43.324791,"lon":5.365866,"is_reserved":false,"is_disabled":false,"rental_uris":{"android":"levelo://app?vid=49c9174c-e04b-4e00-9848-b6d035396dd2","ios":"levelo://app?vid=49c9174c-e04b-4e00-9848-b6d035396dd2"},"vehicle_type_id":"4","last_reported":1721484408,"current_range_meters":18000,"station_id":"ce4bhs12rcd13ifvqhvg","pricing_plan_id":"cebpf4jnsgd1na2vs0mg"},{"bike_id":"2d81d620-1af8-42ab-b48f-4efcd125a6d0","system_id":"levelo_inurba_marseille","lat":43.324771,"lon":5.36557,"is_reserved":false,"is_disabled":false,"rental_uris":{"android":"levelo://app?vid=2d81d620-1af8-42ab-b48f-4efcd125a6d0","ios":"levelo://app?vid=2d81d620-1af8-42ab-b48f-4efcd125a6d0"},"vehicle_type_id":"4","last_reported":1721484408,"current_range_meters":32000,"station_id":"ce4bhs12rcd13ifvqhvg","pricing_plan_id":"cebpf4jnsgd1na2vs0mg"},{"bike_id":"e5254798-6f19-4671-8f13-966dbb8e7968","system_id":"levelo_inurba_marseille","lat":43.324771,"lon":5.36557,"is_reserved":false,"is_disabled":false,"rental_uris":{"android":"levelo://app?vid=e5254798-6f19-4671-8f13-966dbb8e7968","ios":"levelo://app?vid=e5254798-6f19-4671-8f13-966dbb8e7968"},"vehicle_type_id":"4","last_reported":1721484408,"current_range_meters":32000,"station_id":"ce4bhs12rcd13ifvqhvg","pricing_plan_id":"cebpf4jnsgd1na2vs0mg"},{"bike_id":"83ed33c1-20a8-4446-87a0-42d1d31f47c9","system_id":"levelo_inurba_marseille","lat":43.324824,"lon":5.365766,"is_reserved":false,"is_disabled":false,"rental_uris":{"android":"levelo://app?vid=83ed33c1-20a8-4446-87a0-42d1d31f47c9","ios":"levelo://app?vid=83ed33c1-20a8-4446-87a0-42d1d31f47c9"},"vehicle_type_id":"4","last_reported":1721484408,"current_range_meters":13200,"station_id":"ce4bhs12rcd13ifvqhvg","pricing_plan_id":"cebpf4jnsgd1na2vs0mg"},{"bike_id":"4a01e05f-13ab-412d-bcea-9be4120a8770","system_id":"levelo_inurba_marseille","lat":43.324771,"lon":5.36557,"is_reserved":false,"is_disabled":false,"rental_uris":{"android":"levelo://app?vid=4a01e05f-13ab-412d-bcea-9be4120a8770","ios":"levelo://app?vid=4a01e05f-13ab-412d-bcea-9be4120a8770"},"vehicle_type_id":"4","last_reported":1721484408,"current_range_meters":22000,"station_id":"ce4bhs12rcd13ifvqhvg","pricing_plan_id":"cebpf4jnsgd1na2vs0mg"},{"bike_id":"748566fa-8ca2-49fe-ad78-0356bbb18297","system_id":"levelo_inurba_marseille","lat":43.324771,"lon":5.36557,"is_reserved":false,"is_disabled":false,"rental_uris":{"android":"levelo://app?vid=748566fa-8ca2-49fe-ad78-0356bbb18297","ios":"levelo://app?vid=748566fa-8ca2-49fe-ad78-0356bbb18297"},"vehicle_type_id":"4","last_reported":1721484408,"current_range_meters":32000,"station_id":"ce4bhs12rcd13ifvqhvg","pricing_plan_id":"cebpf4jnsgd1na2vs0mg"},{"bike_id":"bb57fd1e-5c22-4a46-983d-4097d95f4007","system_id":"levelo_inurba_marseille","lat":43.32484,"lon":5.36566,"is_reserved":false,"is_disabled":false,"rental_uris":{"android":"levelo://app?vid=bb57fd1e-5c22-4a46-983d-4097d95f4007","ios":"levelo://app?vid=bb57fd1e-5c22-4a46-983d-4097d95f4007"},"vehicle_type_id":"4","last_reported":1721484408,"current_range_meters":5200,"station_id":"ce4bhs12rcd13ifvqhvg","pricing_plan_id":"cebpf4jnsgd1na2vs0mg"},{"bike_id":"2baca4ef-0d69-4564-91f0-6aa88a9ace5b","system_id":"levelo_inurba_marseille","lat":43.324853,"lon":5.365744,"is_reserved":false,"is_disabled":false,"rental_uris":{"android":"levelo://app?vid=2baca4ef-0d69-4564-91f0-6aa88a9ace5b","ios":"levelo://app?vid=2baca4ef-0d69-4564-91f0-6aa88a9ace5b"},"vehicle_type_id":"4","last_reported":1721484408,"current_range_meters":11600,"station_id":"ce4bhs12rcd13ifvqhvg","pricing_plan_id":"cebpf4jnsgd1na2vs0mg"},{"bike_id":"951bc901-c238-42d4-aac0-3c805623be77","system_id":"levelo_inurba_marseille","lat":43.324857,"lon":5.365621,"is_reserved":false,"is_disabled":false,"rental_uris":{"android":"levelo://app?vid=951bc901-c238-42d4-aac0-3c805623be77","ios":"levelo://app?vid=951bc901-c238-42d4-aac0-3c805623be77"},"vehicle_type_id":"4","last_reported":1721484408,"current_range_meters":28800,"station_id":"ce4bhs12rcd13ifvqhvg","pricing_plan_id":"cebpf4jnsgd1na2vs0mg"},{"bike_id":"20fb027e-5099-48f9-a3f6-36a2d2393283","system_id":"levelo_inurba_marseille","lat":43.324771,"lon":5.36557,"is_reserved":false,"is_disabled":false,"rental_uris":{"android":"levelo://app?vid=20fb027e-5099-48f9-a3f6-36a2d2393283","ios":"levelo://app?vid=20fb027e-5099-48f9-a3f6-36a2d2393283"},"vehicle_type_id":"4","last_reported":1721484408,"current_range_meters":9600,"station_id":"ce4bhs12rcd13ifvqhvg","pricing_plan_id":"cebpf4jnsgd1na2vs0mg"},{"bike_id":"bb93594a-3740-48df-b567-6b2b3ad6277f","system_id":"levelo_inurba_marseille","lat":43.324771,"lon":5.36557,"is_reserved":false,"is_disabled":false,"rental_uris":{"android":"levelo://app?vid=bb93594a-3740-48df-b567-6b2b3ad6277f","ios":"levelo://app?vid=bb93594a-3740-48df-b567-6b2b3ad6277f"},"vehicle_type_id":"4","last_reported":1721484408,"current_range_meters":0,"station_id":"ce4bhs12rcd13ifvqhvg","pricing_plan_id":"cebpf4jnsgd1na2vs0mg"},{"bike_id":"58c2518d-7bfb-4ae4-a6b8-a96830f1b9da","system_id":"levelo_inurba_marseille","lat":43.324771,"lon":5.36557,"is_reserved":false,"is_disabled":false,"rental_uris":{"android":"levelo://app?vid=58c2518d-7bfb-4ae4-a6b8-a96830f1b9da","ios":"levelo://app?vid=58c2518d-7bfb-4ae4-a6b8-a96830f1b9da"},"vehicle_type_id":"4","last_reported":1721484408,"current_range_meters":32000,"station_id":"ce4bhs12rcd13ifvqhvg","pricing_plan_id":"cebpf4jnsgd1na2vs0mg"},{"bike_id":"4a624823-d9ef-4d8c-b410-08394dd6660d","system_id":"levelo_inurba_marseille","lat":43.30143,"lon":5.37413,"is_reserved":false,"is_disabled":false,"rental_uris":{"android":"levelo://app?vid=4a624823-d9ef-4d8c-b410-08394dd6660d","ios":"levelo://app?vid=4a624823-d9ef-4d8c-b410-08394dd6660d"},"vehicle_type_id":"4","last_reported":1721484408,"current_range_meters":31600,"station_id":"ce4bgs92rcd13ifvqcc0","pricing_plan_id":"cebpf4jnsgd1na2vs0mg"},{"bike_id":"6557efe4-c5a6-48fd-8ca2-c7307f4d82ea","system_id":"levelo_inurba_marseille","lat":43.319935,"lon":5.381699,"is_reserved":false,"is_disabled":false,"rental_uris":{"android":"levelo://app?vid=6557efe4-c5a6-48fd-8ca2-c7307f4d82ea","ios":"levelo://app?vid=6557efe4-c5a6-48fd-8ca2-c7307f4d82ea"},"vehicle_type_id":"4","last_reported":1721484408,"current_range_meters":31200,"station_id":"ce4bhr12rcd13ifvqhpg","pricing_plan_id":"cebpf4jnsgd1na2vs0mg"},{"bike_id":"349409be-6698-424f-afaa-70684925abdf","system_id":"levelo_inurba_marseille","lat":43.30199,"lon":5.37992,"is_reserved":false,"is_disabled":false,"rental_uris":{"android":"levelo://app?vid=349409be-6698-424f-afaa-70684925abdf","ios":"levelo://app?vid=349409be-6698-424f-afaa-70684925abdf"},"vehicle_type_id":"4","last_reported":1721484408,"current_range_meters":3600,"station_id":"","pricing_plan_id":"cebpf4jnsgd1na2vs0mg"},{"bike_id":"436de98d-0949-49e2-b066-a5a2f6cd6322","system_id":"levelo_inurba_marseille","lat":43.31171,"lon":5.38715,"is_reserved":false,"is_disabled":false,"rental_uris":{"android":"levelo://app?vid=436de98d-0949-49e2-b066-a5a2f6cd6322","ios":"levelo://app?vid=436de98d-0949-49e2-b066-a5a2f6cd6322"},"vehicle_type_id":"4","last_reported":1721484408,"current_range_meters":2400,"station_id":"ce4bgv12rcd13ifvqcp0","pricing_plan_id":"cebpf4jnsgd1na2vs0mg"},{"bike_id":"258b7451-5e6c-4a6e-ac0a-b682adcbafb6","system_id":"levelo_inurba_marseille","lat":43.322872,"lon":5.382756,"is_reserved":false,"is_disabled":false,"rental_uris":{"android":"levelo://app?vid=258b7451-5e6c-4a6e-ac0a-b682adcbafb6","ios":"levelo://app?vid=258b7451-5e6c-4a6e-ac0a-b682adcbafb6"},"vehicle_type_id":"4","last_reported":1721484408,"current_range_meters":0,"station_id":"ce4bhr12rcd13ifvqhqg","pricing_plan_id":"cebpf4jnsgd1na2vs0mg"},{"bike_id":"4689358b-598d-4d66-845c-d7590c14eb78","system_id":"levelo_inurba_marseille","lat":43.297163,"lon":5.365866,"is_reserved":false,"is_disabled":false,"rental_uris":{"android":"levelo://app?vid=4689358b-598d-4d66-845c-d7590c14eb78","ios":"levelo://app?vid=4689358b-598d-4d66-845c-d7590c14eb78"},"vehicle_type_id":"4","last_reported":1721484408,"current_range_meters":5200,"station_id":"ce4bgn12rcd13ifvqbt0","pricing_plan_id":"cebpf4jnsgd1na2vs0mg"},{"bike_id":"05bdae84-1067-465f-ae1f-1f8e13b8e143","system_id":"levelo_inurba_marseille","lat":43.32905,"lon":5.36705,"is_reserved":false,"is_disabled":false,"rental_uris":{"android":"levelo://app?vid=05bdae84-1067-465f-ae1f-1f8e13b8e143","ios":"levelo://app?vid=05bdae84-1067-465f-ae1f-1f8e13b8e143"},"vehicle_type_id":"4","last_reported":1721484408,"current_range_meters":3600,"station_id":"","pricing_plan_id":"cebpf4jnsgd1na2vs0mg"},{"bike_id":"f603cb88-8a9b-4fe3-b159-676f7b60e3cf","system_id":"levelo_inurba_marseille","lat":43.296921,"lon":5.376579,"is_reserved":false,"is_disabled":false,"rental_uris":{"android":"levelo://app?vid=f603cb88-8a9b-4fe3-b159-676f7b60e3cf","ios":"levelo://app?vid=f603cb88-8a9b-4fe3-b159-676f7b60e3cf"},"vehicle_type_id":"4","last_reported":1721484408,"current_range_meters":0,"station_id":"ce4bgkh2rcd13ifvqbl0","pricing_plan_id":"cebpf4jnsgd1na2vs0mg"},{"bike_id":"20cd5c97-ee13-4b91-a553-618882278de1","system_id":"levelo_inurba_marseille","lat":43.299028,"lon":5.381509,"is_reserved":false,"is_disabled":false,"rental_uris":{"android":"levelo://app?vid=20cd5c97-ee13-4b91-a553-618882278de1","ios":"levelo://app?vid=20cd5c97-ee13-4b91-a553-618882278de1"},"vehicle_type_id":"4","last_reported":1721484408,"current_range_meters":12400,"station_id":"ce4bgj12rcd13ifvqbc0","pricing_plan_id":"cebpf4jnsgd1na2vs0mg"},{"bike_id":"f23841e3-682c-4168-b0a2-f2abb0023e68","system_id":"levelo_inurba_marseille","lat":43.299707,"lon":5.384859,"is_reserved":false,"is_disabled":false,"rental_uris":{"android":"levelo://app?vid=f23841e3-682c-4168-b0a2-f2abb0023e68","ios":"levelo://app?vid=f23841e3-682c-4168-b0a2-f2abb0023e68"},"vehicle_type_id":"4","last_reported":1721484408,"current_range_meters":28000,"station_id":"ce4bgj92rcd13ifvqbd0","pricing_plan_id":"cebpf4jnsgd1na2vs0mg"},{"bike_id":"dd64e57d-c999-49d9-bb2f-5a77ebdcea92","system_id":"levelo_inurba_marseille","lat":43.29608,"lon":5.37721,"is_reserved":false,"is_disabled":false,"rental_uris":{"android":"levelo://app?vid=dd64e57d-c999-49d9-bb2f-5a77ebdcea92","ios":"levelo://app?vid=dd64e57d-c999-49d9-bb2f-5a77ebdcea92"},"vehicle_type_id":"4","last_reported":1721484408,"current_range_meters":0,"station_id":"ce4bgi92rcd13ifvqb90","pricing_plan_id":"cebpf4jnsgd1na2vs0mg"},{"bike_id":"9d99b8c7-0495-488f-90dd-8f92a7505792","system_id":"levelo_inurba_marseille","lat":43.299707,"lon":5.384859,"is_reserved":false,"is_disabled":false,"rental_uris":{"android":"levelo://app?vid=9d99b8c7-0495-488f-90dd-8f92a7505792","ios":"levelo://app?vid=9d99b8c7-0495-488f-90dd-8f92a7505792"},"vehicle_type_id":"4","last_reported":1721484408,"current_range_meters":400,"station_id":"ce4bgj92rcd13ifvqbd0","pricing_plan_id":"cebpf4jnsgd1na2vs0mg"},{"bike_id":"d50c736a-f0de-45fa-b4d2-f94b0fa202ce","system_id":"levelo_inurba_marseille","lat":43.299707,"lon":5.384859,"is_reserved":false,"is_disabled":false,"rental_uris":{"android":"levelo://app?vid=d50c736a-f0de-45fa-b4d2-f94b0fa202ce","ios":"levelo://app?vid=d50c736a-f0de-45fa-b4d2-f94b0fa202ce"},"vehicle_type_id":"4","last_reported":1721484408,"current_range_meters":4000,"station_id":"ce4bgj92rcd13ifvqbd0","pricing_plan_id":"cebpf4jnsgd1na2vs0mg"},{"bike_id":"18491e9b-089a-423d-92a6-2224fb4ac1cb","system_id":"levelo_inurba_marseille","lat":43.30473,"lon":5.39011,"is_reserved":false,"is_disabled":false,"rental_uris":{"android":"levelo://app?vid=18491e9b-089a-423d-92a6-2224fb4ac1cb","ios":"levelo://app?vid=18491e9b-089a-423d-92a6-2224fb4ac1cb"},"vehicle_type_id":"4","last_reported":1721484408,"current_range_meters":3600,"station_id":"","pricing_plan_id":"cebpf4jnsgd1na2vs0mg"},{"bike_id":"b789c141-deba-4315-b8c3-4b20bcacfb03","system_id":"levelo_inurba_marseille","lat":43.32367,"lon":5.388836,"is_reserved":false,"is_disabled":false,"rental_uris":{"android":"levelo://app?vid=b789c141-deba-4315-b8c3-4b20bcacfb03","ios":"levelo://app?vid=b789c141-deba-4315-b8c3-4b20bcacfb03"},"vehicle_type_id":"4","last_reported":1721484408,"current_range_meters":9200,"station_id":"ce4bhqp2rcd13ifvqhog","pricing_plan_id":"cebpf4jnsgd1na2vs0mg"},{"bike_id":"169b92f5-468f-4aa4-a9e1-b1a3f8cd0ba9","system_id":"levelo_inurba_marseille","lat":43.323683,"lon":5.388857,"is_reserved":false,"is_disabled":false,"rental_uris":{"android":"levelo://app?vid=169b92f5-468f-4aa4-a9e1-b1a3f8cd0ba9","ios":"levelo://app?vid=169b92f5-468f-4aa4-a9e1-b1a3f8cd0ba9"},"vehicle_type_id":"4","last_reported":1721484408,"current_range_meters":20800,"station_id":"","pricing_plan_id":"cebpf4jnsgd1na2vs0mg"},{"bike_id":"1f783074-f2f8-4bea-b8a4-1b17d1555df1","system_id":"levelo_inurba_marseille","lat":43.32367,"lon":5.388836,"is_reserved":false,"is_disabled":false,"rental_uris":{"android":"levelo://app?vid=1f783074-f2f8-4bea-b8a4-1b17d1555df1","ios":"levelo://app?vid=1f783074-f2f8-4bea-b8a4-1b17d1555df1"},"vehicle_type_id":"4","last_reported":1721484408,"current_range_meters":23600,"station_id":"ce4bhqp2rcd13ifvqhog","pricing_plan_id":"cebpf4jnsgd1na2vs0mg"},{"bike_id":"b1bc7fdc-38f7-421e-8b18-dd9ae84be69b","system_id":"levelo_inurba_marseille","lat":43.29243,"lon":5.36578,"is_reserved":false,"is_disabled":false,"rental_uris":{"android":"levelo://app?vid=b1bc7fdc-38f7-421e-8b18-dd9ae84be69b","ios":"levelo://app?vid=b1bc7fdc-38f7-421e-8b18-dd9ae84be69b"},"vehicle_type_id":"4","last_reported":1721484408,"current_range_meters":29200,"station_id":"ce4bhbh2rcd13ifvqepg","pricing_plan_id":"cebpf4jnsgd1na2vs0mg"},{"bike_id":"2bb6f90a-bf1e-486b-8751-7df49e5f89de","system_id":"levelo_inurba_marseille","lat":43.332883,"lon":5.362727,"is_reserved":false,"is_disabled":false,"rental_uris":{"android":"levelo://app?vid=2bb6f90a-bf1e-486b-8751-7df49e5f89de","ios":"levelo://app?vid=2bb6f90a-bf1e-486b-8751-7df49e5f89de"},"vehicle_type_id":"4","last_reported":1721484408,"current_range_meters":8400,"station_id":"","pricing_plan_id":"cebpf4jnsgd1na2vs0mg"},{"bike_id":"b3593327-8c48-4135-b7c0-a7b8721a1bab","system_id":"levelo_inurba_marseille","lat":43.293009,"lon":5.374584,"is_reserved":false,"is_disabled":false,"rental_uris":{"android":"levelo://app?vid=b3593327-8c48-4135-b7c0-a7b8721a1bab","ios":"levelo://app?vid=b3593327-8c48-4135-b7c0-a7b8721a1bab"},"vehicle_type_id":"4","last_reported":1721484408,"current_range_meters":0,"station_id":"ce4bgi12rcd13ifvqb70","pricing_plan_id":"cebpf4jnsgd1na2vs0mg"},{"bike_id":"7d5010d8-1e2a-4f68-9e56-e8cc72f9a52d","system_id":"levelo_inurba_marseille","lat":43.2936,"lon":5.37835,"is_reserved":false,"is_disabled":false,"rental_uris":{"android":"levelo://app?vid=7d5010d8-1e2a-4f68-9e56-e8cc72f9a52d","ios":"levelo://app?vid=7d5010d8-1e2a-4f68-9e56-e8cc72f9a52d"},"vehicle_type_id":"4","last_reported":1721484408,"current_range_meters":10000,"station_id":"ce4bgjh2rcd13ifvqbf0","pricing_plan_id":"cebpf4jnsgd1na2vs0mg"},{"bike_id":"5dc434d5-31fb-4056-adff-8934f52dcf30","system_id":"levelo_inurba_marseille","lat":43.295279,"lon":5.375048,"is_reserved":false,"is_disabled":false,"rental_uris":{"android":"levelo://app?vid=5dc434d5-31fb-4056-adff-8934f52dcf30","ios":"levelo://app?vid=5dc434d5-31fb-4056-adff-8934f52dcf30"},"vehicle_type_id":"4","last_reported":1721484408,"current_range_meters":12000,"station_id":"ce4bgkp2rcd13ifvqbmg","pricing_plan_id":"cebpf4jnsgd1na2vs0mg"},{"bike_id":"757cc2f9-97c1-437d-b9c5-53796c9fe157","system_id":"levelo_inurba_marseille","lat":43.292311,"lon":5.360731,"is_reserved":false,"is_disabled":false,"rental_uris":{"android":"levelo://app?vid=757cc2f9-97c1-437d-b9c5-53796c9fe157","ios":"levelo://app?vid=757cc2f9-97c1-437d-b9c5-53796c9fe157"},"vehicle_type_id":"4","last_reported":1721484408,"current_range_meters":30800,"station_id":"ce4bhbh2rcd13ifvqeqg","pricing_plan_id":"cebpf4jnsgd1na2vs0mg"},{"bike_id":"1892bc95-66d6-494b-b4a7-2ef58e440c55","system_id":"levelo_inurba_marseille","lat":43.29226,"lon":5.3605,"is_reserved":false,"is_disabled":false,"rental_uris":{"android":"levelo://app?vid=1892bc95-66d6-494b-b4a7-2ef58e440c55","ios":"levelo://app?vid=1892bc95-66d6-494b-b4a7-2ef58e440c55"},"vehicle_type_id":"4","last_reported":1721484408,"current_range_meters":30400,"station_id":"ce4bhbh2rcd13ifvqeqg","pricing_plan_id":"cebpf4jnsgd1na2vs0mg"},{"bike_id":"167a4fb8-d7b9-4415-a884-46b1f3f017aa","system_id":"levelo_inurba_marseille","lat":43.292221,"lon":5.360356,"is_reserved":false,"is_disabled":false,"rental_uris":{"android":"levelo://app?vid=167a4fb8-d7b9-4415-a884-46b1f3f017aa","ios":"levelo://app?vid=167a4fb8-d7b9-4415-a884-46b1f3f017aa"},"vehicle_type_id":"4","last_reported":1721484408,"current_range_meters":29600,"station_id":"","pricing_plan_id":"cebpf4jnsgd1na2vs0mg"},{"bike_id":"fa3dc3df-a24e-4dde-b76d-6e96dba81df5","system_id":"levelo_inurba_marseille","lat":43.298764,"lon":5.388973,"is_reserved":false,"is_disabled":false,"rental_uris":{"android":"levelo://app?vid=fa3dc3df-a24e-4dde-b76d-6e96dba81df5","ios":"levelo://app?vid=fa3dc3df-a24e-4dde-b76d-6e96dba81df5"},"vehicle_type_id":"4","last_reported":1721484408,"current_range_meters":24400,"station_id":"ce4bh392rcd13ifvqdl0","pricing_plan_id":"cebpf4jnsgd1na2vs0mg"},{"bike_id":"2442f040-e1ca-40f7-9c87-54028d3f42cb","system_id":"levelo_inurba_marseille","lat":43.291763,"lon":5.371972,"is_reserved":false,"is_disabled":false,"rental_uris":{"android":"levelo://app?vid=2442f040-e1ca-40f7-9c87-54028d3f42cb","ios":"levelo://app?vid=2442f040-e1ca-40f7-9c87-54028d3f42cb"},"vehicle_type_id":"4","last_reported":1721484408,"current_range_meters":12000,"station_id":"ce4bha92rcd13ifvqeh0","pricing_plan_id":"cebpf4jnsgd1na2vs0mg"},{"bike_id":"79401112-7d8a-424f-92bc-5f750916a108","system_id":"levelo_inurba_marseille","lat":43.29199,"lon":5.35808,"is_reserved":false,"is_disabled":false,"rental_uris":{"android":"levelo://app?vid=79401112-7d8a-424f-92bc-5f750916a108","ios":"levelo://app?vid=79401112-7d8a-424f-92bc-5f750916a108"},"vehicle_type_id":"4","last_reported":1721484408,"current_range_meters":0,"station_id":"ce4bhb12rcd13ifvqel0","pricing_plan_id":"cebpf4jnsgd1na2vs0mg"},{"bike_id":"fc4c97bb-e305-4800-9768-dbf2766c2ae5","system_id":"levelo_inurba_marseille","lat":43.291994,"lon":5.357886,"is_reserved":false,"is_disabled":false,"rental_uris":{"android":"levelo://app?vid=fc4c97bb-e305-4800-9768-dbf2766c2ae5","ios":"levelo://app?vid=fc4c97bb-e305-4800-9768-dbf2766c2ae5"},"vehicle_type_id":"4","last_reported":1721484408,"current_range_meters":0,"station_id":"ce4bhb12rcd13ifvqel0","pricing_plan_id":"cebpf4jnsgd1na2vs0mg"},{"bike_id":"a926a360-aeb9-4d82-9ba5-9456d7294c44","system_id":"levelo_inurba_marseille","lat":43.29197,"lon":5.358,"is_reserved":false,"is_disabled":false,"rental_uris":{"android":"levelo://app?vid=a926a360-aeb9-4d82-9ba5-9456d7294c44","ios":"levelo://app?vid=a926a360-aeb9-4d82-9ba5-9456d7294c44"},"vehicle_type_id":"4","last_reported":1721484408,"current_range_meters":30800,"station_id":"ce4bhb12rcd13ifvqel0","pricing_plan_id":"cebpf4jnsgd1na2vs0mg"},{"bike_id":"503b7a51-da26-49b2-a79d-472c7f0ee983","system_id":"levelo_inurba_marseille","lat":43.291994,"lon":5.357886,"is_reserved":false,"is_disabled":false,"rental_uris":{"android":"levelo://app?vid=503b7a51-da26-49b2-a79d-472c7f0ee983","ios":"levelo://app?vid=503b7a51-da26-49b2-a79d-472c7f0ee983"},"vehicle_type_id":"4","last_reported":1721484408,"current_range_meters":0,"station_id":"ce4bhb12rcd13ifvqel0","pricing_plan_id":"cebpf4jnsgd1na2vs0mg"},{"bike_id":"9326661d-1551-4b04-b2b5-c9fddf3cffb3","system_id":"levelo_inurba_marseille","lat":43.29529,"lon":5.385581,"is_reserved":false,"is_disabled":false,"rental_uris":{"android":"levelo://app?vid=9326661d-1551-4b04-b2b5-c9fddf3cffb3","ios":"levelo://app?vid=9326661d-1551-4b04-b2b5-c9fddf3cffb3"},"vehicle_type_id":"4","last_reported":1721484408,"current_range_meters":5200,"station_id":"ce4bgih2rcd13ifvqba0","pricing_plan_id":"cebpf4jnsgd1na2vs0mg"},{"bike_id":"2dc4a9b0-8864-4b18-8ee9-0490c6247e1b","system_id":"levelo_inurba_marseille","lat":43.299698,"lon":5.391148,"is_reserved":false,"is_disabled":false,"rental_uris":{"android":"levelo://app?vid=2dc4a9b0-8864-4b18-8ee9-0490c6247e1b","ios":"levelo://app?vid=2dc4a9b0-8864-4b18-8ee9-0490c6247e1b"},"vehicle_type_id":"4","last_reported":1721484408,"current_range_meters":18000,"station_id":"","pricing_plan_id":"cebpf4jnsgd1na2vs0mg"},{"bike_id":"dbce3027-f1b1-46a4-a3d3-fd7e93c1d4ba","system_id":"levelo_inurba_marseille","lat":43.332406,"lon":5.380534,"is_reserved":false,"is_disabled":false,"rental_uris":{"android":"levelo://app?vid=dbce3027-f1b1-46a4-a3d3-fd7e93c1d4ba","ios":"levelo://app?vid=dbce3027-f1b1-46a4-a3d3-fd7e93c1d4ba"},"vehicle_type_id":"4","last_reported":1721484408,"current_range_meters":0,"station_id":"","pricing_plan_id":"cebpf4jnsgd1na2vs0mg"},{"bike_id":"21a186db-e19a-4192-bb33-333882674672","system_id":"levelo_inurba_marseille","lat":43.302008,"lon":5.394694,"is_reserved":false,"is_disabled":false,"rental_uris":{"android":"levelo://app?vid=21a186db-e19a-4192-bb33-333882674672","ios":"levelo://app?vid=21a186db-e19a-4192-bb33-333882674672"},"vehicle_type_id":"4","last_reported":1721484408,"current_range_meters":17200,"station_id":"ce4bh0p2rcd13ifvqd70","pricing_plan_id":"cebpf4jnsgd1na2vs0mg"},{"bike_id":"a7b5ca39-4493-4608-87bb-7a7c553aa204","system_id":"levelo_inurba_marseille","lat":43.302008,"lon":5.394694,"is_reserved":false,"is_disabled":false,"rental_uris":{"android":"levelo://app?vid=a7b5ca39-4493-4608-87bb-7a7c553aa204","ios":"levelo://app?vid=a7b5ca39-4493-4608-87bb-7a7c553aa204"},"vehicle_type_id":"4","last_reported":1721484408,"current_range_meters":26400,"station_id":"ce4bh0p2rcd13ifvqd70","pricing_plan_id":"cebpf4jnsgd1na2vs0mg"},{"bike_id":"1b359fb4-8151-4211-990a-c3d2be9657b4","system_id":"levelo_inurba_marseille","lat":43.289468,"lon":5.363719,"is_reserved":false,"is_disabled":false,"rental_uris":{"android":"levelo://app?vid=1b359fb4-8151-4211-990a-c3d2be9657b4","ios":"levelo://app?vid=1b359fb4-8151-4211-990a-c3d2be9657b4"},"vehicle_type_id":"4","last_reported":1721484408,"current_range_meters":10800,"station_id":"ce4bhc92rcd13ifvqetg","pricing_plan_id":"cebpf4jnsgd1na2vs0mg"},{"bike_id":"6be1b118-1e5d-45b0-9d73-50e595f969eb","system_id":"levelo_inurba_marseille","lat":43.304296,"lon":5.397513,"is_reserved":false,"is_disabled":false,"rental_uris":{"android":"levelo://app?vid=6be1b118-1e5d-45b0-9d73-50e595f969eb","ios":"levelo://app?vid=6be1b118-1e5d-45b0-9d73-50e595f969eb"},"vehicle_type_id":"4","last_reported":1721484408,"current_range_meters":8400,"station_id":"ce4bh092rcd13ifvqd20","pricing_plan_id":"cebpf4jnsgd1na2vs0mg"},{"bike_id":"dea48988-2727-46dd-b242-f7400697f68c","system_id":"levelo_inurba_marseille","lat":43.304296,"lon":5.397513,"is_reserved":false,"is_disabled":false,"rental_uris":{"android":"levelo://app?vid=dea48988-2727-46dd-b242-f7400697f68c","ios":"levelo://app?vid=dea48988-2727-46dd-b242-f7400697f68c"},"vehicle_type_id":"4","last_reported":1721484408,"current_range_meters":18800,"station_id":"ce4bh092rcd13ifvqd20","pricing_plan_id":"cebpf4jnsgd1na2vs0mg"},{"bike_id":"b8c9ea2e-0247-486d-96c5-08bc58fbde90","system_id":"levelo_inurba_marseille","lat":43.29259,"lon":5.38446,"is_reserved":false,"is_disabled":false,"rental_uris":{"android":"levelo://app?vid=b8c9ea2e-0247-486d-96c5-08bc58fbde90","ios":"levelo://app?vid=b8c9ea2e-0247-486d-96c5-08bc58fbde90"},"vehicle_type_id":"4","last_reported":1721484408,"current_range_meters":0,"station_id":"ce4bh692rcd13ifvqea0","pricing_plan_id":"cebpf4jnsgd1na2vs0mg"},{"bike_id":"77f0f100-134e-498b-bb65-8989ea60677b","system_id":"levelo_inurba_marseille","lat":43.292644,"lon":5.384257,"is_reserved":false,"is_disabled":false,"rental_uris":{"android":"levelo://app?vid=77f0f100-134e-498b-bb65-8989ea60677b","ios":"levelo://app?vid=77f0f100-134e-498b-bb65-8989ea60677b"},"vehicle_type_id":"4","last_reported":1721484408,"current_range_meters":17200,"station_id":"ce4bh692rcd13ifvqea0","pricing_plan_id":"cebpf4jnsgd1na2vs0mg"},{"bike_id":"d37b91b7-3196-48b8-a630-e48106f03a89","system_id":"levelo_inurba_marseille","lat":43.290104,"lon":5.356111,"is_reserved":false,"is_disabled":false,"rental_uris":{"android":"levelo://app?vid=d37b91b7-3196-48b8-a630-e48106f03a89","ios":"levelo://app?vid=d37b91b7-3196-48b8-a630-e48106f03a89"},"vehicle_type_id":"4","last_reported":1721484408,"current_range_meters":4000,"station_id":"ce4bhb92rcd13ifvqen0","pricing_plan_id":"cebpf4jnsgd1na2vs0mg"},{"bike_id":"15f9d83d-c6be-42cb-9045-46f5f93e0566","system_id":"levelo_inurba_marseille","lat":43.290103,"lon":5.356114,"is_reserved":false,"is_disabled":false,"rental_uris":{"android":"levelo://app?vid=15f9d83d-c6be-42cb-9045-46f5f93e0566","ios":"levelo://app?vid=15f9d83d-c6be-42cb-9045-46f5f93e0566"},"vehicle_type_id":"4","last_reported":1721484408,"current_range_meters":400,"station_id":"ce4bhb92rcd13ifvqen0","pricing_plan_id":"cebpf4jnsgd1na2vs0mg"},{"bike_id":"de275db0-5afa-468c-98f6-438a5219e40f","system_id":"levelo_inurba_marseille","lat":43.297815,"lon":5.393548,"is_reserved":false,"is_disabled":false,"rental_uris":{"android":"levelo://app?vid=de275db0-5afa-468c-98f6-438a5219e40f","ios":"levelo://app?vid=de275db0-5afa-468c-98f6-438a5219e40f"},"vehicle_type_id":"4","last_reported":1721484408,"current_range_meters":14400,"station_id":"chh1huq6cuj3fo74tm60","pricing_plan_id":"cebpf4jnsgd1na2vs0mg"},{"bike_id":"d9bc638b-231e-4fca-bba8-17def821db21","system_id":"levelo_inurba_marseille","lat":43.290995,"lon":5.381361,"is_reserved":false,"is_disabled":false,"rental_uris":{"android":"levelo://app?vid=d9bc638b-231e-4fca-bba8-17def821db21","ios":"levelo://app?vid=d9bc638b-231e-4fca-bba8-17def821db21"},"vehicle_type_id":"4","last_reported":1721484408,"current_range_meters":0,"station_id":"ce4bh512rcd13ifvqe2g","pricing_plan_id":"cebpf4jnsgd1na2vs0mg"},{"bike_id":"ea90a8dd-07c1-4322-ac09-9f6c39b8f996","system_id":"levelo_inurba_marseille","lat":43.297807,"lon":5.393533,"is_reserved":false,"is_disabled":false,"rental_uris":{"android":"levelo://app?vid=ea90a8dd-07c1-4322-ac09-9f6c39b8f996","ios":"levelo://app?vid=ea90a8dd-07c1-4322-ac09-9f6c39b8f996"},"vehicle_type_id":"4","last_reported":1721484408,"current_range_meters":31200,"station_id":"chh1huq6cuj3fo74tm60","pricing_plan_id":"cebpf4jnsgd1na2vs0mg"},{"bike_id":"b7a14586-c825-4d40-a550-c87d4a995bdd","system_id":"levelo_inurba_marseille","lat":43.295169,"lon":5.390426,"is_reserved":false,"is_disabled":false,"rental_uris":{"android":"levelo://app?vid=b7a14586-c825-4d40-a550-c87d4a995bdd","ios":"levelo://app?vid=b7a14586-c825-4d40-a550-c87d4a995bdd"},"vehicle_type_id":"4","last_reported":1721484408,"current_range_meters":17600,"station_id":"ce4bh3p2rcd13ifvqdp0","pricing_plan_id":"cebpf4jnsgd1na2vs0mg"},{"bike_id":"d9ba6b96-a236-41b5-8094-1042c1abe19c","system_id":"levelo_inurba_marseille","lat":43.330442,"lon":5.389148,"is_reserved":false,"is_disabled":false,"rental_uris":{"android":"levelo://app?vid=d9ba6b96-a236-41b5-8094-1042c1abe19c","ios":"levelo://app?vid=d9ba6b96-a236-41b5-8094-1042c1abe19c"},"vehicle_type_id":"4","last_reported":1721484408,"current_range_meters":21600,"station_id":"ce4bhr92rcd13ifvqhrg","pricing_plan_id":"cebpf4jnsgd1na2vs0mg"},{"bike_id":"829e387a-89ce-45a0-8b83-26d4863e73fa","system_id":"levelo_inurba_marseille","lat":43.28856,"lon":5.358371,"is_reserved":false,"is_disabled":false,"rental_uris":{"android":"levelo://app?vid=829e387a-89ce-45a0-8b83-26d4863e73fa","ios":"levelo://app?vid=829e387a-89ce-45a0-8b83-26d4863e73fa"},"vehicle_type_id":"4","last_reported":1721484408,"current_range_meters":2000,"station_id":"ce4bhb12rcd13ifvqem0","pricing_plan_id":"cebpf4jnsgd1na2vs0mg"},{"bike_id":"c1af56de-be73-4e36-97b2-97d715f9f6e1","system_id":"levelo_inurba_marseille","lat":43.28727,"lon":5.36078,"is_reserved":false,"is_disabled":false,"rental_uris":{"android":"levelo://app?vid=c1af56de-be73-4e36-97b2-97d715f9f6e1","ios":"levelo://app?vid=c1af56de-be73-4e36-97b2-97d715f9f6e1"},"vehicle_type_id":"4","last_reported":1721484408,"current_range_meters":0,"station_id":"cki0cbj6b192h4jlfktg","pricing_plan_id":"cebpf4jnsgd1na2vs0mg"},{"bike_id":"dcc4d858-6f41-43b2-9350-512db76272ba","system_id":"levelo_inurba_marseille","lat":43.290094,"lon":5.381264,"is_reserved":false,"is_disabled":false,"rental_uris":{"android":"levelo://app?vid=dcc4d858-6f41-43b2-9350-512db76272ba","ios":"levelo://app?vid=dcc4d858-6f41-43b2-9350-512db76272ba"},"vehicle_type_id":"4","last_reported":1721484408,"current_range_meters":4800,"station_id":"ce4bh4p2rcd13ifvqe1g","pricing_plan_id":"cebpf4jnsgd1na2vs0mg"},{"bike_id":"2293e5fd-0f88-47f5-89c2-875a0027b608","system_id":"levelo_inurba_marseille","lat":43.28856,"lon":5.358371,"is_reserved":false,"is_disabled":false,"rental_uris":{"android":"levelo://app?vid=2293e5fd-0f88-47f5-89c2-875a0027b608","ios":"levelo://app?vid=2293e5fd-0f88-47f5-89c2-875a0027b608"},"vehicle_type_id":"4","last_reported":1721484408,"current_range_meters":18400,"station_id":"ce4bhb12rcd13ifvqem0","pricing_plan_id":"cebpf4jnsgd1na2vs0mg"},{"bike_id":"1b654ed4-60bc-4437-b8f5-35ff46c4af6c","system_id":"levelo_inurba_marseille","lat":43.30642,"lon":5.401031,"is_reserved":false,"is_disabled":false,"rental_uris":{"android":"levelo://app?vid=1b654ed4-60bc-4437-b8f5-35ff46c4af6c","ios":"levelo://app?vid=1b654ed4-60bc-4437-b8f5-35ff46c4af6c"},"vehicle_type_id":"4","last_reported":1721484408,"current_range_meters":1600,"station_id":"ce4bh112rcd13ifvqda0","pricing_plan_id":"cebpf4jnsgd1na2vs0mg"},{"bike_id":"da1ef795-4411-4787-a704-e9710fe27f7e","system_id":"levelo_inurba_marseille","lat":43.337472,"lon":5.374599,"is_reserved":false,"is_disabled":false,"rental_uris":{"android":"levelo://app?vid=da1ef795-4411-4787-a704-e9710fe27f7e","ios":"levelo://app?vid=da1ef795-4411-4787-a704-e9710fe27f7e"},"vehicle_type_id":"4","last_reported":1721484408,"current_range_meters":22800,"station_id":"","pricing_plan_id":"cebpf4jnsgd1na2vs0mg"},{"bike_id":"4e05b3eb-e034-4c93-86fb-ef66d74f6656","system_id":"levelo_inurba_marseille","lat":43.33752,"lon":5.37456,"is_reserved":false,"is_disabled":false,"rental_uris":{"android":"levelo://app?vid=4e05b3eb-e034-4c93-86fb-ef66d74f6656","ios":"levelo://app?vid=4e05b3eb-e034-4c93-86fb-ef66d74f6656"},"vehicle_type_id":"4","last_reported":1721484408,"current_range_meters":22400,"station_id":"","pricing_plan_id":"cebpf4jnsgd1na2vs0mg"},{"bike_id":"2d33db2a-d2ef-42af-b929-3720156d09ad","system_id":"levelo_inurba_marseille","lat":43.33754,"lon":5.3745,"is_reserved":false,"is_disabled":false,"rental_uris":{"android":"levelo://app?vid=2d33db2a-d2ef-42af-b929-3720156d09ad","ios":"levelo://app?vid=2d33db2a-d2ef-42af-b929-3720156d09ad"},"vehicle_type_id":"4","last_reported":1721484408,"current_range_meters":12000,"station_id":"","pricing_plan_id":"cebpf4jnsgd1na2vs0mg"},{"bike_id":"0ad3db73-21e8-41b5-aad3-7f410c37748d","system_id":"levelo_inurba_marseille","lat":43.33754,"lon":5.37454,"is_reserved":false,"is_disabled":false,"rental_uris":{"android":"levelo://app?vid=0ad3db73-21e8-41b5-aad3-7f410c37748d","ios":"levelo://app?vid=0ad3db73-21e8-41b5-aad3-7f410c37748d"},"vehicle_type_id":"4","last_reported":1721484408,"current_range_meters":14000,"station_id":"","pricing_plan_id":"cebpf4jnsgd1na2vs0mg"},{"bike_id":"c75a183a-c55b-4c2e-b036-7c333011dd13","system_id":"levelo_inurba_marseille","lat":43.33756,"lon":5.37444,"is_reserved":false,"is_disabled":false,"rental_uris":{"android":"levelo://app?vid=c75a183a-c55b-4c2e-b036-7c333011dd13","ios":"levelo://app?vid=c75a183a-c55b-4c2e-b036-7c333011dd13"},"vehicle_type_id":"4","last_reported":1721484408,"current_range_meters":25600,"station_id":"","pricing_plan_id":"cebpf4jnsgd1na2vs0mg"},{"bike_id":"9fd23b8b-c7c3-4b5a-b11d-8284b8e4dfa2","system_id":"levelo_inurba_marseille","lat":43.337578,"lon":5.374428,"is_reserved":false,"is_disabled":false,"rental_uris":{"android":"levelo://app?vid=9fd23b8b-c7c3-4b5a-b11d-8284b8e4dfa2","ios":"levelo://app?vid=9fd23b8b-c7c3-4b5a-b11d-8284b8e4dfa2"},"vehicle_type_id":"4","last_reported":1721484408,"current_range_meters":26400,"station_id":"","pricing_plan_id":"cebpf4jnsgd1na2vs0mg"},{"bike_id":"5cb6a697-9c4d-40ef-89b5-3ac012e961fa","system_id":"levelo_inurba_marseille","lat":43.337563,"lon":5.374561,"is_reserved":false,"is_disabled":false,"rental_uris":{"android":"levelo://app?vid=5cb6a697-9c4d-40ef-89b5-3ac012e961fa","ios":"levelo://app?vid=5cb6a697-9c4d-40ef-89b5-3ac012e961fa"},"vehicle_type_id":"4","last_reported":1721484408,"current_range_meters":17600,"station_id":"","pricing_plan_id":"cebpf4jnsgd1na2vs0mg"},{"bike_id":"1bd2edfa-3105-45b7-9b57-e83caf22087e","system_id":"levelo_inurba_marseille","lat":43.33758,"lon":5.37449,"is_reserved":false,"is_disabled":false,"rental_uris":{"android":"levelo://app?vid=1bd2edfa-3105-45b7-9b57-e83caf22087e","ios":"levelo://app?vid=1bd2edfa-3105-45b7-9b57-e83caf22087e"},"vehicle_type_id":"4","last_reported":1721484408,"current_range_meters":15600,"station_id":"","pricing_plan_id":"cebpf4jnsgd1na2vs0mg"},{"bike_id":"6f20e223-4c2f-4bd3-b8c1-fa34ed231357","system_id":"levelo_inurba_marseille","lat":43.310785,"lon":5.424305,"is_reserved":false,"is_disabled":false,"rental_uris":{"android":"levelo://app?vid=6f20e223-4c2f-4bd3-b8c1-fa34ed231357","ios":"levelo://app?vid=6f20e223-4c2f-4bd3-b8c1-fa34ed231357"},"vehicle_type_id":"4","last_reported":1721484408,"current_range_meters":17200,"station_id":"ce4bhp92rcd13ifvqhag","pricing_plan_id":"cebpf4jnsgd1na2vs0mg"},{"bike_id":"ac377a63-6a02-42fa-8a70-d5bb9b7546c9","system_id":"levelo_inurba_marseille","lat":43.337626,"lon":5.374292,"is_reserved":false,"is_disabled":false,"rental_uris":{"android":"levelo://app?vid=ac377a63-6a02-42fa-8a70-d5bb9b7546c9","ios":"levelo://app?vid=ac377a63-6a02-42fa-8a70-d5bb9b7546c9"},"vehicle_type_id":"4","last_reported":1721484408,"current_range_meters":20800,"station_id":"","pricing_plan_id":"cebpf4jnsgd1na2vs0mg"},{"bike_id":"9458a255-a47a-41f1-849e-755dc4612ffe","system_id":"levelo_inurba_marseille","lat":43.33762,"lon":5.37451,"is_reserved":false,"is_disabled":false,"rental_uris":{"android":"levelo://app?vid=9458a255-a47a-41f1-849e-755dc4612ffe","ios":"levelo://app?vid=9458a255-a47a-41f1-849e-755dc4612ffe"},"vehicle_type_id":"4","last_reported":1721484408,"current_range_meters":14800,"station_id":"","pricing_plan_id":"cebpf4jnsgd1na2vs0mg"},{"bike_id":"b4b24872-b47d-455d-b874-30be54945800","system_id":"levelo_inurba_marseille","lat":43.33756,"lon":5.37491,"is_reserved":false,"is_disabled":false,"rental_uris":{"android":"levelo://app?vid=b4b24872-b47d-455d-b874-30be54945800","ios":"levelo://app?vid=b4b24872-b47d-455d-b874-30be54945800"},"vehicle_type_id":"4","last_reported":1721484408,"current_range_meters":1600,"station_id":"","pricing_plan_id":"cebpf4jnsgd1na2vs0mg"},{"bike_id":"d0723523-f35a-472e-b198-a5153fc33bb6","system_id":"levelo_inurba_marseille","lat":43.3376,"lon":5.37479,"is_reserved":false,"is_disabled":false,"rental_uris":{"android":"levelo://app?vid=d0723523-f35a-472e-b198-a5153fc33bb6","ios":"levelo://app?vid=d0723523-f35a-472e-b198-a5153fc33bb6"},"vehicle_type_id":"4","last_reported":1721484408,"current_range_meters":22000,"station_id":"","pricing_plan_id":"cebpf4jnsgd1na2vs0mg"},{"bike_id":"c06d046b-56fd-4c19-a4a5-79476bb0c4d4","system_id":"levelo_inurba_marseille","lat":43.306412,"lon":5.401035,"is_reserved":false,"is_disabled":false,"rental_uris":{"android":"levelo://app?vid=c06d046b-56fd-4c19-a4a5-79476bb0c4d4","ios":"levelo://app?vid=c06d046b-56fd-4c19-a4a5-79476bb0c4d4"},"vehicle_type_id":"4","last_reported":1721484408,"current_range_meters":2000,"station_id":"ce4bh112rcd13ifvqda0","pricing_plan_id":"cebpf4jnsgd1na2vs0mg"},{"bike_id":"950dc1c8-00b6-4ebc-8451-4bd40cce016f","system_id":"levelo_inurba_marseille","lat":43.33798,"lon":5.37447,"is_reserved":false,"is_disabled":false,"rental_uris":{"android":"levelo://app?vid=950dc1c8-00b6-4ebc-8451-4bd40cce016f","ios":"levelo://app?vid=950dc1c8-00b6-4ebc-8451-4bd40cce016f"},"vehicle_type_id":"4","last_reported":1721484408,"current_range_meters":30800,"station_id":"","pricing_plan_id":"cebpf4jnsgd1na2vs0mg"},{"bike_id":"f95bfb28-3665-4377-a09f-e75a1425b683","system_id":"levelo_inurba_marseille","lat":43.33803,"lon":5.37458,"is_reserved":false,"is_disabled":false,"rental_uris":{"android":"levelo://app?vid=f95bfb28-3665-4377-a09f-e75a1425b683","ios":"levelo://app?vid=f95bfb28-3665-4377-a09f-e75a1425b683"},"vehicle_type_id":"4","last_reported":1721484408,"current_range_meters":24800,"station_id":"","pricing_plan_id":"cebpf4jnsgd1na2vs0mg"},{"bike_id":"a4724bc5-fe45-4e88-abd3-71199e47b250","system_id":"levelo_inurba_marseille","lat":43.286591,"lon":5.363346,"is_reserved":false,"is_disabled":false,"rental_uris":{"android":"levelo://app?vid=a4724bc5-fe45-4e88-abd3-71199e47b250","ios":"levelo://app?vid=a4724bc5-fe45-4e88-abd3-71199e47b250"},"vehicle_type_id":"4","last_reported":1721484408,"current_range_meters":28800,"station_id":"ce4bhah2rcd13ifvqej0","pricing_plan_id":"cebpf4jnsgd1na2vs0mg"},{"bike_id":"9ffae97f-51b4-411b-b7f7-dced0da98d6f","system_id":"levelo_inurba_marseille","lat":43.298681,"lon":5.397225,"is_reserved":false,"is_disabled":false,"rental_uris":{"android":"levelo://app?vid=9ffae97f-51b4-411b-b7f7-dced0da98d6f","ios":"levelo://app?vid=9ffae97f-51b4-411b-b7f7-dced0da98d6f"},"vehicle_type_id":"4","last_reported":1721484408,"current_range_meters":22000,"station_id":"ce4bh0h2rcd13ifvqd50","pricing_plan_id":"cebpf4jnsgd1na2vs0mg"},{"bike_id":"a8cb3bc8-804e-4f72-8d96-3c83c46cb078","system_id":"levelo_inurba_marseille","lat":43.3262,"lon":5.39845,"is_reserved":false,"is_disabled":false,"rental_uris":{"android":"levelo://app?vid=a8cb3bc8-804e-4f72-8d96-3c83c46cb078","ios":"levelo://app?vid=a8cb3bc8-804e-4f72-8d96-3c83c46cb078"},"vehicle_type_id":"4","last_reported":1721484408,"current_range_meters":29600,"station_id":"","pricing_plan_id":"cebpf4jnsgd1na2vs0mg"},{"bike_id":"8a4d3729-e1e3-4bd3-bd5a-7f0ae026021d","system_id":"levelo_inurba_marseille","lat":43.302759,"lon":5.400793,"is_reserved":false,"is_disabled":false,"rental_uris":{"android":"levelo://app?vid=8a4d3729-e1e3-4bd3-bd5a-7f0ae026021d","ios":"levelo://app?vid=8a4d3729-e1e3-4bd3-bd5a-7f0ae026021d"},"vehicle_type_id":"4","last_reported":1721484408,"current_range_meters":0,"station_id":"ce4bgvh2rcd13ifvqcs0","pricing_plan_id":"cebpf4jnsgd1na2vs0mg"},{"bike_id":"ffe4fcf3-2dff-467b-b6ee-7d0cc81a6391","system_id":"levelo_inurba_marseille","lat":43.286039,"lon":5.370681,"is_reserved":false,"is_disabled":false,"rental_uris":{"android":"levelo://app?vid=ffe4fcf3-2dff-467b-b6ee-7d0cc81a6391","ios":"levelo://app?vid=ffe4fcf3-2dff-467b-b6ee-7d0cc81a6391"},"vehicle_type_id":"4","last_reported":1721484408,"current_range_meters":22000,"station_id":"ce4bht12rcd13ifvqi60","pricing_plan_id":"cebpf4jnsgd1na2vs0mg"},{"bike_id":"476f14ee-7476-4fd3-a5aa-c812c288dc40","system_id":"levelo_inurba_marseille","lat":43.286039,"lon":5.370681,"is_reserved":false,"is_disabled":false,"rental_uris":{"android":"levelo://app?vid=476f14ee-7476-4fd3-a5aa-c812c288dc40","ios":"levelo://app?vid=476f14ee-7476-4fd3-a5aa-c812c288dc40"},"vehicle_type_id":"4","last_reported":1721484408,"current_range_meters":24400,"station_id":"ce4bht12rcd13ifvqi60","pricing_plan_id":"cebpf4jnsgd1na2vs0mg"},{"bike_id":"4086e963-11fe-4064-b5db-d29d9a77c4d4","system_id":"levelo_inurba_marseille","lat":43.286039,"lon":5.370679,"is_reserved":false,"is_disabled":false,"rental_uris":{"android":"levelo://app?vid=4086e963-11fe-4064-b5db-d29d9a77c4d4","ios":"levelo://app?vid=4086e963-11fe-4064-b5db-d29d9a77c4d4"},"vehicle_type_id":"4","last_reported":1721484408,"current_range_meters":0,"station_id":"ce4bht12rcd13ifvqi60","pricing_plan_id":"cebpf4jnsgd1na2vs0mg"},{"bike_id":"989302e4-d274-4cee-8307-907ef173125d","system_id":"levelo_inurba_marseille","lat":43.286039,"lon":5.370681,"is_reserved":false,"is_disabled":false,"rental_uris":{"android":"levelo://app?vid=989302e4-d274-4cee-8307-907ef173125d","ios":"levelo://app?vid=989302e4-d274-4cee-8307-907ef173125d"},"vehicle_type_id":"4","last_reported":1721484408,"current_range_meters":25600,"station_id":"ce4bht12rcd13ifvqi60","pricing_plan_id":"cebpf4jnsgd1na2vs0mg"},{"bike_id":"923252cc-d853-48c7-b218-65909cd63c20","system_id":"levelo_inurba_marseille","lat":43.316828,"lon":5.404723,"is_reserved":false,"is_disabled":false,"rental_uris":{"android":"levelo://app?vid=923252cc-d853-48c7-b218-65909cd63c20","ios":"levelo://app?vid=923252cc-d853-48c7-b218-65909cd63c20"},"vehicle_type_id":"4","last_reported":1721484408,"current_range_meters":5200,"station_id":"ce4bh012rcd13ifvqd00","pricing_plan_id":"cebpf4jnsgd1na2vs0mg"},{"bike_id":"bc82906e-e426-4e20-85ab-5607e6e6c95a","system_id":"levelo_inurba_marseille","lat":43.316828,"lon":5.404723,"is_reserved":false,"is_disabled":false,"rental_uris":{"android":"levelo://app?vid=bc82906e-e426-4e20-85ab-5607e6e6c95a","ios":"levelo://app?vid=bc82906e-e426-4e20-85ab-5607e6e6c95a"},"vehicle_type_id":"4","last_reported":1721484408,"current_range_meters":22400,"station_id":"ce4bh012rcd13ifvqd00","pricing_plan_id":"cebpf4jnsgd1na2vs0mg"},{"bike_id":"d052ec4c-25bc-4173-ad54-b4c8c56b07e0","system_id":"levelo_inurba_marseille","lat":43.291994,"lon":5.392907,"is_reserved":false,"is_disabled":false,"rental_uris":{"android":"levelo://app?vid=d052ec4c-25bc-4173-ad54-b4c8c56b07e0","ios":"levelo://app?vid=d052ec4c-25bc-4173-ad54-b4c8c56b07e0"},"vehicle_type_id":"4","last_reported":1721484408,"current_range_meters":3600,"station_id":"ce4bh192rcd13ifvqdd0","pricing_plan_id":"cebpf4jnsgd1na2vs0mg"},{"bike_id":"e6cf981a-1a56-40ec-8a96-be399fdbcc29","system_id":"levelo_inurba_marseille","lat":43.28465,"lon":5.35896,"is_reserved":false,"is_disabled":false,"rental_uris":{"android":"levelo://app?vid=e6cf981a-1a56-40ec-8a96-be399fdbcc29","ios":"levelo://app?vid=e6cf981a-1a56-40ec-8a96-be399fdbcc29"},"vehicle_type_id":"4","last_reported":1721484408,"current_range_meters":10400,"station_id":"ce4bhah2rcd13ifvqei0","pricing_plan_id":"cebpf4jnsgd1na2vs0mg"},{"bike_id":"127ac410-7aa5-4e7c-8de4-f9af8cbeabe4","system_id":"levelo_inurba_marseille","lat":43.286333,"lon":5.351276,"is_reserved":false,"is_disabled":false,"rental_uris":{"android":"levelo://app?vid=127ac410-7aa5-4e7c-8de4-f9af8cbeabe4","ios":"levelo://app?vid=127ac410-7aa5-4e7c-8de4-f9af8cbeabe4"},"vehicle_type_id":"4","last_reported":1721484408,"current_range_meters":20400,"station_id":"","pricing_plan_id":"cebpf4jnsgd1na2vs0mg"},{"bike_id":"e691d7ca-57bf-4708-90e0-d6c4cbf26f76","system_id":"levelo_inurba_marseille","lat":43.284534,"lon":5.358662,"is_reserved":false,"is_disabled":false,"rental_uris":{"android":"levelo://app?vid=e691d7ca-57bf-4708-90e0-d6c4cbf26f76","ios":"levelo://app?vid=e691d7ca-57bf-4708-90e0-d6c4cbf26f76"},"vehicle_type_id":"4","last_reported":1721484408,"current_range_meters":25200,"station_id":"ce4bhah2rcd13ifvqei0","pricing_plan_id":"cebpf4jnsgd1na2vs0mg"},{"bike_id":"13d54b0c-b3e2-4449-ab62-ca0e8168cd56","system_id":"levelo_inurba_marseille","lat":43.28622,"lon":5.3511,"is_reserved":false,"is_disabled":false,"rental_uris":{"android":"levelo://app?vid=13d54b0c-b3e2-4449-ab62-ca0e8168cd56","ios":"levelo://app?vid=13d54b0c-b3e2-4449-ab62-ca0e8168cd56"},"vehicle_type_id":"4","last_reported":1721484408,"current_range_meters":25600,"station_id":"ce4bhch2rcd13ifvqeug","pricing_plan_id":"cebpf4jnsgd1na2vs0mg"},{"bike_id":"a767f090-767a-450d-b2f0-bfcbc6c6923e","system_id":"levelo_inurba_marseille","lat":43.28623,"lon":5.35104,"is_reserved":false,"is_disabled":false,"rental_uris":{"android":"levelo://app?vid=a767f090-767a-450d-b2f0-bfcbc6c6923e","ios":"levelo://app?vid=a767f090-767a-450d-b2f0-bfcbc6c6923e"},"vehicle_type_id":"4","last_reported":1721484408,"current_range_meters":25200,"station_id":"ce4bhch2rcd13ifvqeug","pricing_plan_id":"cebpf4jnsgd1na2vs0mg"},{"bike_id":"694ca4b5-5503-4dd2-9ff1-a57966e9032e","system_id":"levelo_inurba_marseille","lat":43.28622,"lon":5.35098,"is_reserved":false,"is_disabled":false,"rental_uris":{"android":"levelo://app?vid=694ca4b5-5503-4dd2-9ff1-a57966e9032e","ios":"levelo://app?vid=694ca4b5-5503-4dd2-9ff1-a57966e9032e"},"vehicle_type_id":"4","last_reported":1721484408,"current_range_meters":18400,"station_id":"ce4bhch2rcd13ifvqeug","pricing_plan_id":"cebpf4jnsgd1na2vs0mg"},{"bike_id":"57fcdad1-0ae9-4a6b-8a3d-2f2763cf1adf","system_id":"levelo_inurba_marseille","lat":43.28621,"lon":5.351,"is_reserved":false,"is_disabled":false,"rental_uris":{"android":"levelo://app?vid=57fcdad1-0ae9-4a6b-8a3d-2f2763cf1adf","ios":"levelo://app?vid=57fcdad1-0ae9-4a6b-8a3d-2f2763cf1adf"},"vehicle_type_id":"4","last_reported":1721484408,"current_range_meters":13200,"station_id":"ce4bhch2rcd13ifvqeug","pricing_plan_id":"cebpf4jnsgd1na2vs0mg"},{"bike_id":"5096c4c4-0a36-462d-a94f-abc192695629","system_id":"levelo_inurba_marseille","lat":43.286185,"lon":5.35106,"is_reserved":false,"is_disabled":false,"rental_uris":{"android":"levelo://app?vid=5096c4c4-0a36-462d-a94f-abc192695629","ios":"levelo://app?vid=5096c4c4-0a36-462d-a94f-abc192695629"},"vehicle_type_id":"4","last_reported":1721484408,"current_range_meters":4000,"station_id":"ce4bhch2rcd13ifvqeug","pricing_plan_id":"cebpf4jnsgd1na2vs0mg"},{"bike_id":"ca5d2495-ec45-47b8-ac81-3baf290b32c6","system_id":"levelo_inurba_marseille","lat":43.2862,"lon":5.35101,"is_reserved":false,"is_disabled":false,"rental_uris":{"android":"levelo://app?vid=ca5d2495-ec45-47b8-ac81-3baf290b32c6","ios":"levelo://app?vid=ca5d2495-ec45-47b8-ac81-3baf290b32c6"},"vehicle_type_id":"4","last_reported":1721484408,"current_range_meters":13600,"station_id":"ce4bhch2rcd13ifvqeug","pricing_plan_id":"cebpf4jnsgd1na2vs0mg"},{"bike_id":"5eb347e7-881d-419b-9a7e-18d2c37bd015","system_id":"levelo_inurba_marseille","lat":43.28617,"lon":5.35107,"is_reserved":false,"is_disabled":false,"rental_uris":{"android":"levelo://app?vid=5eb347e7-881d-419b-9a7e-18d2c37bd015","ios":"levelo://app?vid=5eb347e7-881d-419b-9a7e-18d2c37bd015"},"vehicle_type_id":"4","last_reported":1721484408,"current_range_meters":20400,"station_id":"ce4bhch2rcd13ifvqeug","pricing_plan_id":"cebpf4jnsgd1na2vs0mg"},{"bike_id":"61f66c76-2269-4f4b-ae3c-e6569bb48c8d","system_id":"levelo_inurba_marseille","lat":43.28618,"lon":5.35103,"is_reserved":false,"is_disabled":false,"rental_uris":{"android":"levelo://app?vid=61f66c76-2269-4f4b-ae3c-e6569bb48c8d","ios":"levelo://app?vid=61f66c76-2269-4f4b-ae3c-e6569bb48c8d"},"vehicle_type_id":"4","last_reported":1721484408,"current_range_meters":12400,"station_id":"ce4bhch2rcd13ifvqeug","pricing_plan_id":"cebpf4jnsgd1na2vs0mg"},{"bike_id":"d74c72da-2a83-4945-ba97-74978238d48e","system_id":"levelo_inurba_marseille","lat":43.285856,"lon":5.350771,"is_reserved":false,"is_disabled":false,"rental_uris":{"android":"levelo://app?vid=d74c72da-2a83-4945-ba97-74978238d48e","ios":"levelo://app?vid=d74c72da-2a83-4945-ba97-74978238d48e"},"vehicle_type_id":"4","last_reported":1721484408,"current_range_meters":30400,"station_id":"ce4bhch2rcd13ifvqeug","pricing_plan_id":"cebpf4jnsgd1na2vs0mg"},{"bike_id":"987460a2-ccc5-4867-9a7b-4107879ac703","system_id":"levelo_inurba_marseille","lat":43.28616,"lon":5.35107,"is_reserved":false,"is_disabled":false,"rental_uris":{"android":"levelo://app?vid=987460a2-ccc5-4867-9a7b-4107879ac703","ios":"levelo://app?vid=987460a2-ccc5-4867-9a7b-4107879ac703"},"vehicle_type_id":"4","last_reported":1721484408,"current_range_meters":21600,"station_id":"ce4bhch2rcd13ifvqeug","pricing_plan_id":"cebpf4jnsgd1na2vs0mg"},{"bike_id":"3b2ddde2-5ab2-4611-8d08-b3d5e186e8cc","system_id":"levelo_inurba_marseille","lat":43.28617,"lon":5.35103,"is_reserved":false,"is_disabled":false,"rental_uris":{"android":"levelo://app?vid=3b2ddde2-5ab2-4611-8d08-b3d5e186e8cc","ios":"levelo://app?vid=3b2ddde2-5ab2-4611-8d08-b3d5e186e8cc"},"vehicle_type_id":"4","last_reported":1721484408,"current_range_meters":22800,"station_id":"ce4bhch2rcd13ifvqeug","pricing_plan_id":"cebpf4jnsgd1na2vs0mg"},{"bike_id":"2981b2a7-c810-4464-81f8-2603b70c0a49","system_id":"levelo_inurba_marseille","lat":43.28616,"lon":5.35106,"is_reserved":false,"is_disabled":false,"rental_uris":{"android":"levelo://app?vid=2981b2a7-c810-4464-81f8-2603b70c0a49","ios":"levelo://app?vid=2981b2a7-c810-4464-81f8-2603b70c0a49"},"vehicle_type_id":"4","last_reported":1721484408,"current_range_meters":21600,"station_id":"ce4bhch2rcd13ifvqeug","pricing_plan_id":"cebpf4jnsgd1na2vs0mg"},{"bike_id":"d9caee1c-b639-4a44-8c90-51ac94553506","system_id":"levelo_inurba_marseille","lat":43.28616,"lon":5.35105,"is_reserved":false,"is_disabled":false,"rental_uris":{"android":"levelo://app?vid=d9caee1c-b639-4a44-8c90-51ac94553506","ios":"levelo://app?vid=d9caee1c-b639-4a44-8c90-51ac94553506"},"vehicle_type_id":"4","last_reported":1721484408,"current_range_meters":3200,"station_id":"ce4bhch2rcd13ifvqeug","pricing_plan_id":"cebpf4jnsgd1na2vs0mg"},{"bike_id":"46efa724-cba4-4627-a436-8b6dd504815b","system_id":"levelo_inurba_marseille","lat":43.28614,"lon":5.3511,"is_reserved":false,"is_disabled":false,"rental_uris":{"android":"levelo://app?vid=46efa724-cba4-4627-a436-8b6dd504815b","ios":"levelo://app?vid=46efa724-cba4-4627-a436-8b6dd504815b"},"vehicle_type_id":"4","last_reported":1721484408,"current_range_meters":18800,"station_id":"ce4bhch2rcd13ifvqeug","pricing_plan_id":"cebpf4jnsgd1na2vs0mg"},{"bike_id":"18f265c1-fb41-4d18-9883-33d301c1b12e","system_id":"levelo_inurba_marseille","lat":43.28616,"lon":5.35103,"is_reserved":false,"is_disabled":false,"rental_uris":{"android":"levelo://app?vid=18f265c1-fb41-4d18-9883-33d301c1b12e","ios":"levelo://app?vid=18f265c1-fb41-4d18-9883-33d301c1b12e"},"vehicle_type_id":"4","last_reported":1721484408,"current_range_meters":29200,"station_id":"ce4bhch2rcd13ifvqeug","pricing_plan_id":"cebpf4jnsgd1na2vs0mg"},{"bike_id":"5721266b-a1b6-4d49-ba2c-1cc3cccb5569","system_id":"levelo_inurba_marseille","lat":43.28615,"lon":5.35106,"is_reserved":false,"is_disabled":false,"rental_uris":{"android":"levelo://app?vid=5721266b-a1b6-4d49-ba2c-1cc3cccb5569","ios":"levelo://app?vid=5721266b-a1b6-4d49-ba2c-1cc3cccb5569"},"vehicle_type_id":"4","last_reported":1721484408,"current_range_meters":24400,"station_id":"ce4bhch2rcd13ifvqeug","pricing_plan_id":"cebpf4jnsgd1na2vs0mg"},{"bike_id":"8fd87a87-6918-447d-9d47-0d636a11f0a2","system_id":"levelo_inurba_marseille","lat":43.28614,"lon":5.35109,"is_reserved":false,"is_disabled":false,"rental_uris":{"android":"levelo://app?vid=8fd87a87-6918-447d-9d47-0d636a11f0a2","ios":"levelo://app?vid=8fd87a87-6918-447d-9d47-0d636a11f0a2"},"vehicle_type_id":"4","last_reported":1721484408,"current_range_meters":18000,"station_id":"ce4bhch2rcd13ifvqeug","pricing_plan_id":"cebpf4jnsgd1na2vs0mg"},{"bike_id":"2bc0265d-dc52-46d5-b4c0-1bd2e5330dd0","system_id":"levelo_inurba_marseille","lat":43.28616,"lon":5.35101,"is_reserved":false,"is_disabled":false,"rental_uris":{"android":"levelo://app?vid=2bc0265d-dc52-46d5-b4c0-1bd2e5330dd0","ios":"levelo://app?vid=2bc0265d-dc52-46d5-b4c0-1bd2e5330dd0"},"vehicle_type_id":"4","last_reported":1721484408,"current_range_meters":25600,"station_id":"ce4bhch2rcd13ifvqeug","pricing_plan_id":"cebpf4jnsgd1na2vs0mg"},{"bike_id":"b3421722-99ef-489f-9c6f-5d5124ff893c","system_id":"levelo_inurba_marseille","lat":43.28616,"lon":5.35101,"is_reserved":false,"is_disabled":false,"rental_uris":{"android":"levelo://app?vid=b3421722-99ef-489f-9c6f-5d5124ff893c","ios":"levelo://app?vid=b3421722-99ef-489f-9c6f-5d5124ff893c"},"vehicle_type_id":"4","last_reported":1721484408,"current_range_meters":8400,"station_id":"ce4bhch2rcd13ifvqeug","pricing_plan_id":"cebpf4jnsgd1na2vs0mg"},{"bike_id":"bb48425a-57df-4073-96af-943f09d176ed","system_id":"levelo_inurba_marseille","lat":43.28615,"lon":5.35104,"is_reserved":false,"is_disabled":false,"rental_uris":{"android":"levelo://app?vid=bb48425a-57df-4073-96af-943f09d176ed","ios":"levelo://app?vid=bb48425a-57df-4073-96af-943f09d176ed"},"vehicle_type_id":"4","last_reported":1721484408,"current_range_meters":25600,"station_id":"ce4bhch2rcd13ifvqeug","pricing_plan_id":"cebpf4jnsgd1na2vs0mg"},{"bike_id":"f38fded2-f19c-4bce-8977-b2eaafb700be","system_id":"levelo_inurba_marseille","lat":43.28616,"lon":5.351,"is_reserved":false,"is_disabled":false,"rental_uris":{"android":"levelo://app?vid=f38fded2-f19c-4bce-8977-b2eaafb700be","ios":"levelo://app?vid=f38fded2-f19c-4bce-8977-b2eaafb700be"},"vehicle_type_id":"4","last_reported":1721484408,"current_range_meters":14000,"station_id":"ce4bhch2rcd13ifvqeug","pricing_plan_id":"cebpf4jnsgd1na2vs0mg"},{"bike_id":"dcb7f7d4-5cc4-45e3-81cf-4fc49d5c2adb","system_id":"levelo_inurba_marseille","lat":43.286137,"lon":5.35107,"is_reserved":false,"is_disabled":false,"rental_uris":{"android":"levelo://app?vid=dcb7f7d4-5cc4-45e3-81cf-4fc49d5c2adb","ios":"levelo://app?vid=dcb7f7d4-5cc4-45e3-81cf-4fc49d5c2adb"},"vehicle_type_id":"4","last_reported":1721484408,"current_range_meters":18400,"station_id":"ce4bhch2rcd13ifvqeug","pricing_plan_id":"cebpf4jnsgd1na2vs0mg"},{"bike_id":"9dcbb243-d33d-42a6-be6a-b56f2cb69e85","system_id":"levelo_inurba_marseille","lat":43.286124,"lon":5.351097,"is_reserved":false,"is_disabled":false,"rental_uris":{"android":"levelo://app?vid=9dcbb243-d33d-42a6-be6a-b56f2cb69e85","ios":"levelo://app?vid=9dcbb243-d33d-42a6-be6a-b56f2cb69e85"},"vehicle_type_id":"4","last_reported":1721484408,"current_range_meters":10800,"station_id":"","pricing_plan_id":"cebpf4jnsgd1na2vs0mg"},{"bike_id":"b4c62eaf-def6-402e-9f8a-86923720787b","system_id":"levelo_inurba_marseille","lat":43.28615,"lon":5.35101,"is_reserved":false,"is_disabled":false,"rental_uris":{"android":"levelo://app?vid=b4c62eaf-def6-402e-9f8a-86923720787b","ios":"levelo://app?vid=b4c62eaf-def6-402e-9f8a-86923720787b"},"vehicle_type_id":"4","last_reported":1721484408,"current_range_meters":27600,"station_id":"ce4bhch2rcd13ifvqeug","pricing_plan_id":"cebpf4jnsgd1na2vs0mg"},{"bike_id":"5fb16610-5eb9-420a-8a95-9d6a976e6d89","system_id":"levelo_inurba_marseille","lat":43.286167,"lon":5.350943,"is_reserved":false,"is_disabled":false,"rental_uris":{"android":"levelo://app?vid=5fb16610-5eb9-420a-8a95-9d6a976e6d89","ios":"levelo://app?vid=5fb16610-5eb9-420a-8a95-9d6a976e6d89"},"vehicle_type_id":"4","last_reported":1721484408,"current_range_meters":20000,"station_id":"ce4bhch2rcd13ifvqeug","pricing_plan_id":"cebpf4jnsgd1na2vs0mg"},{"bike_id":"bedffdec-dbda-4739-b92d-19aa1d9b8812","system_id":"levelo_inurba_marseille","lat":43.28616,"lon":5.35096,"is_reserved":false,"is_disabled":false,"rental_uris":{"android":"levelo://app?vid=bedffdec-dbda-4739-b92d-19aa1d9b8812","ios":"levelo://app?vid=bedffdec-dbda-4739-b92d-19aa1d9b8812"},"vehicle_type_id":"4","last_reported":1721484408,"current_range_meters":29200,"station_id":"ce4bhch2rcd13ifvqeug","pricing_plan_id":"cebpf4jnsgd1na2vs0mg"},{"bike_id":"d20223e7-ecab-439a-af56-0220759ab9b4","system_id":"levelo_inurba_marseille","lat":43.28614,"lon":5.35101,"is_reserved":false,"is_disabled":false,"rental_uris":{"android":"levelo://app?vid=d20223e7-ecab-439a-af56-0220759ab9b4","ios":"levelo://app?vid=d20223e7-ecab-439a-af56-0220759ab9b4"},"vehicle_type_id":"4","last_reported":1721484408,"current_range_meters":16400,"station_id":"ce4bhch2rcd13ifvqeug","pricing_plan_id":"cebpf4jnsgd1na2vs0mg"},{"bike_id":"9ed5498a-9d0d-4d41-bddc-9b5163d4a917","system_id":"levelo_inurba_marseille","lat":43.28613,"lon":5.35102,"is_reserved":false,"is_disabled":false,"rental_uris":{"android":"levelo://app?vid=9ed5498a-9d0d-4d41-bddc-9b5163d4a917","ios":"levelo://app?vid=9ed5498a-9d0d-4d41-bddc-9b5163d4a917"},"vehicle_type_id":"4","last_reported":1721484408,"current_range_meters":21200,"station_id":"ce4bhch2rcd13ifvqeug","pricing_plan_id":"cebpf4jnsgd1na2vs0mg"},{"bike_id":"32a04c03-d4be-4e78-a393-945e526659bf","system_id":"levelo_inurba_marseille","lat":43.28612,"lon":5.35103,"is_reserved":false,"is_disabled":false,"rental_uris":{"android":"levelo://app?vid=32a04c03-d4be-4e78-a393-945e526659bf","ios":"levelo://app?vid=32a04c03-d4be-4e78-a393-945e526659bf"},"vehicle_type_id":"4","last_reported":1721484408,"current_range_meters":23600,"station_id":"ce4bhch2rcd13ifvqeug","pricing_plan_id":"cebpf4jnsgd1na2vs0mg"},{"bike_id":"7898cf88-af53-4bf1-a9d9-3f259e5f11c5","system_id":"levelo_inurba_marseille","lat":43.28611,"lon":5.35102,"is_reserved":false,"is_disabled":false,"rental_uris":{"android":"levelo://app?vid=7898cf88-af53-4bf1-a9d9-3f259e5f11c5","ios":"levelo://app?vid=7898cf88-af53-4bf1-a9d9-3f259e5f11c5"},"vehicle_type_id":"4","last_reported":1721484408,"current_range_meters":21600,"station_id":"ce4bhch2rcd13ifvqeug","pricing_plan_id":"cebpf4jnsgd1na2vs0mg"},{"bike_id":"a58cc8d9-b2fc-40e9-82fb-888d3a8bc5ed","system_id":"levelo_inurba_marseille","lat":43.2861,"lon":5.35104,"is_reserved":false,"is_disabled":false,"rental_uris":{"android":"levelo://app?vid=a58cc8d9-b2fc-40e9-82fb-888d3a8bc5ed","ios":"levelo://app?vid=a58cc8d9-b2fc-40e9-82fb-888d3a8bc5ed"},"vehicle_type_id":"4","last_reported":1721484408,"current_range_meters":15600,"station_id":"ce4bhch2rcd13ifvqeug","pricing_plan_id":"cebpf4jnsgd1na2vs0mg"},{"bike_id":"52d3a6ba-f231-4c85-b8d9-77876399d7a7","system_id":"levelo_inurba_marseille","lat":43.28612,"lon":5.35095,"is_reserved":false,"is_disabled":false,"rental_uris":{"android":"levelo://app?vid=52d3a6ba-f231-4c85-b8d9-77876399d7a7","ios":"levelo://app?vid=52d3a6ba-f231-4c85-b8d9-77876399d7a7"},"vehicle_type_id":"4","last_reported":1721484408,"current_range_meters":28400,"station_id":"ce4bhch2rcd13ifvqeug","pricing_plan_id":"cebpf4jnsgd1na2vs0mg"},{"bike_id":"9cf94f1d-5c8f-488d-86f2-19277e6f8fe0","system_id":"levelo_inurba_marseille","lat":43.2861,"lon":5.35099,"is_reserved":false,"is_disabled":false,"rental_uris":{"android":"levelo://app?vid=9cf94f1d-5c8f-488d-86f2-19277e6f8fe0","ios":"levelo://app?vid=9cf94f1d-5c8f-488d-86f2-19277e6f8fe0"},"vehicle_type_id":"4","last_reported":1721484408,"current_range_meters":13600,"station_id":"ce4bhch2rcd13ifvqeug","pricing_plan_id":"cebpf4jnsgd1na2vs0mg"},{"bike_id":"c12e89fd-00d6-46ab-a031-0a4aee9e92a9","system_id":"levelo_inurba_marseille","lat":43.28611,"lon":5.35095,"is_reserved":false,"is_disabled":false,"rental_uris":{"android":"levelo://app?vid=c12e89fd-00d6-46ab-a031-0a4aee9e92a9","ios":"levelo://app?vid=c12e89fd-00d6-46ab-a031-0a4aee9e92a9"},"vehicle_type_id":"4","last_reported":1721484408,"current_range_meters":22800,"station_id":"ce4bhch2rcd13ifvqeug","pricing_plan_id":"cebpf4jnsgd1na2vs0mg"},{"bike_id":"3f58dbc9-73c4-4f59-b52b-a63398ec244e","system_id":"levelo_inurba_marseille","lat":43.28605,"lon":5.35094,"is_reserved":false,"is_disabled":false,"rental_uris":{"android":"levelo://app?vid=3f58dbc9-73c4-4f59-b52b-a63398ec244e","ios":"levelo://app?vid=3f58dbc9-73c4-4f59-b52b-a63398ec244e"},"vehicle_type_id":"4","last_reported":1721484408,"current_range_meters":12400,"station_id":"ce4bhch2rcd13ifvqeug","pricing_plan_id":"cebpf4jnsgd1na2vs0mg"},{"bike_id":"20075b69-9545-4096-8454-75d91efb58dc","system_id":"levelo_inurba_marseille","lat":43.283998,"lon":5.375062,"is_reserved":false,"is_disabled":false,"rental_uris":{"android":"levelo://app?vid=20075b69-9545-4096-8454-75d91efb58dc","ios":"levelo://app?vid=20075b69-9545-4096-8454-75d91efb58dc"},"vehicle_type_id":"4","last_reported":1721484408,"current_range_meters":12000,"station_id":"ce4bh412rcd13ifvqds0","pricing_plan_id":"cebpf4jnsgd1na2vs0mg"},{"bike_id":"ea590ead-6208-4390-8c20-e419096c0020","system_id":"levelo_inurba_marseille","lat":43.33717,"lon":5.391857,"is_reserved":false,"is_disabled":false,"rental_uris":{"android":"levelo://app?vid=ea590ead-6208-4390-8c20-e419096c0020","ios":"levelo://app?vid=ea590ead-6208-4390-8c20-e419096c0020"},"vehicle_type_id":"4","last_reported":1721484408,"current_range_meters":22000,"station_id":"ce4bhr92rcd13ifvqhsg","pricing_plan_id":"cebpf4jnsgd1na2vs0mg"},{"bike_id":"7885d1e8-9128-47c8-8def-3d134df375b0","system_id":"levelo_inurba_marseille","lat":43.33717,"lon":5.391857,"is_reserved":false,"is_disabled":false,"rental_uris":{"android":"levelo://app?vid=7885d1e8-9128-47c8-8def-3d134df375b0","ios":"levelo://app?vid=7885d1e8-9128-47c8-8def-3d134df375b0"},"vehicle_type_id":"4","last_reported":1721484408,"current_range_meters":7600,"station_id":"ce4bhr92rcd13ifvqhsg","pricing_plan_id":"cebpf4jnsgd1na2vs0mg"},{"bike_id":"37641561-a84e-4866-9479-4f9f855190fc","system_id":"levelo_inurba_marseille","lat":43.284217,"lon":5.349697,"is_reserved":false,"is_disabled":false,"rental_uris":{"android":"levelo://app?vid=37641561-a84e-4866-9479-4f9f855190fc","ios":"levelo://app?vid=37641561-a84e-4866-9479-4f9f855190fc"},"vehicle_type_id":"4","last_reported":1721484408,"current_range_meters":7600,"station_id":"ce4bhbh2rcd13ifvqepg","pricing_plan_id":"cebpf4jnsgd1na2vs0mg"},{"bike_id":"71086ea9-c016-4ae1-88af-cda758842a85","system_id":"levelo_inurba_marseille","lat":43.28426,"lon":5.34987,"is_reserved":false,"is_disabled":false,"rental_uris":{"android":"levelo://app?vid=71086ea9-c016-4ae1-88af-cda758842a85","ios":"levelo://app?vid=71086ea9-c016-4ae1-88af-cda758842a85"},"vehicle_type_id":"4","last_reported":1721484408,"current_range_meters":19200,"station_id":"ce4bhbh2rcd13ifvqepg","pricing_plan_id":"cebpf4jnsgd1na2vs0mg"},{"bike_id":"d6a286de-a7c3-4960-abd7-4524eeba0f15","system_id":"levelo_inurba_marseille","lat":43.28422,"lon":5.34995,"is_reserved":false,"is_disabled":false,"rental_uris":{"android":"levelo://app?vid=d6a286de-a7c3-4960-abd7-4524eeba0f15","ios":"levelo://app?vid=d6a286de-a7c3-4960-abd7-4524eeba0f15"},"vehicle_type_id":"4","last_reported":1721484408,"current_range_meters":0,"station_id":"ce4bhbh2rcd13ifvqepg","pricing_plan_id":"cebpf4jnsgd1na2vs0mg"},{"bike_id":"1c07e0de-1732-4e72-abb4-20b9a609e379","system_id":"levelo_inurba_marseille","lat":43.28421,"lon":5.34998,"is_reserved":false,"is_disabled":false,"rental_uris":{"android":"levelo://app?vid=1c07e0de-1732-4e72-abb4-20b9a609e379","ios":"levelo://app?vid=1c07e0de-1732-4e72-abb4-20b9a609e379"},"vehicle_type_id":"4","last_reported":1721484408,"current_range_meters":16400,"station_id":"ce4bhbh2rcd13ifvqepg","pricing_plan_id":"cebpf4jnsgd1na2vs0mg"},{"bike_id":"b1087de5-b140-4c08-88cd-beabdd84f9a9","system_id":"levelo_inurba_marseille","lat":43.28422,"lon":5.34994,"is_reserved":false,"is_disabled":false,"rental_uris":{"android":"levelo://app?vid=b1087de5-b140-4c08-88cd-beabdd84f9a9","ios":"levelo://app?vid=b1087de5-b140-4c08-88cd-beabdd84f9a9"},"vehicle_type_id":"4","last_reported":1721484408,"current_range_meters":17200,"station_id":"ce4bhbh2rcd13ifvqepg","pricing_plan_id":"cebpf4jnsgd1na2vs0mg"},{"bike_id":"83bb6226-89df-4b81-b21b-2563a3dd0fd5","system_id":"levelo_inurba_marseille","lat":43.2842,"lon":5.34999,"is_reserved":false,"is_disabled":false,"rental_uris":{"android":"levelo://app?vid=83bb6226-89df-4b81-b21b-2563a3dd0fd5","ios":"levelo://app?vid=83bb6226-89df-4b81-b21b-2563a3dd0fd5"},"vehicle_type_id":"4","last_reported":1721484408,"current_range_meters":6800,"station_id":"ce4bhbh2rcd13ifvqepg","pricing_plan_id":"cebpf4jnsgd1na2vs0mg"},{"bike_id":"17e8be9c-d2af-4e32-823e-de37e6a9b4e3","system_id":"levelo_inurba_marseille","lat":43.28423,"lon":5.34989,"is_reserved":false,"is_disabled":false,"rental_uris":{"android":"levelo://app?vid=17e8be9c-d2af-4e32-823e-de37e6a9b4e3","ios":"levelo://app?vid=17e8be9c-d2af-4e32-823e-de37e6a9b4e3"},"vehicle_type_id":"4","last_reported":1721484408,"current_range_meters":19200,"station_id":"ce4bhbh2rcd13ifvqepg","pricing_plan_id":"cebpf4jnsgd1na2vs0mg"},{"bike_id":"ff647385-617f-43a1-a97a-e8a08c6a4b8c","system_id":"levelo_inurba_marseille","lat":43.284247,"lon":5.349802,"is_reserved":false,"is_disabled":false,"rental_uris":{"android":"levelo://app?vid=ff647385-617f-43a1-a97a-e8a08c6a4b8c","ios":"levelo://app?vid=ff647385-617f-43a1-a97a-e8a08c6a4b8c"},"vehicle_type_id":"4","last_reported":1721484408,"current_range_meters":0,"station_id":"","pricing_plan_id":"cebpf4jnsgd1na2vs0mg"},{"bike_id":"1c5f6d69-995b-4f5e-8226-a000b82dbf5b","system_id":"levelo_inurba_marseille","lat":43.28418,"lon":5.35,"is_reserved":false,"is_disabled":false,"rental_uris":{"android":"levelo://app?vid=1c5f6d69-995b-4f5e-8226-a000b82dbf5b","ios":"levelo://app?vid=1c5f6d69-995b-4f5e-8226-a000b82dbf5b"},"vehicle_type_id":"4","last_reported":1721484408,"current_range_meters":30800,"station_id":"ce4bhbh2rcd13ifvqepg","pricing_plan_id":"cebpf4jnsgd1na2vs0mg"},{"bike_id":"88be8769-29ed-4d63-9b1f-49c87e59743c","system_id":"levelo_inurba_marseille","lat":43.284213,"lon":5.349896,"is_reserved":false,"is_disabled":false,"rental_uris":{"android":"levelo://app?vid=88be8769-29ed-4d63-9b1f-49c87e59743c","ios":"levelo://app?vid=88be8769-29ed-4d63-9b1f-49c87e59743c"},"vehicle_type_id":"4","last_reported":1721484408,"current_range_meters":7200,"station_id":"","pricing_plan_id":"cebpf4jnsgd1na2vs0mg"},{"bike_id":"b138d920-6f71-4a6e-8950-50fd5f8650e9","system_id":"levelo_inurba_marseille","lat":43.28421,"lon":5.3499,"is_reserved":false,"is_disabled":false,"rental_uris":{"android":"levelo://app?vid=b138d920-6f71-4a6e-8950-50fd5f8650e9","ios":"levelo://app?vid=b138d920-6f71-4a6e-8950-50fd5f8650e9"},"vehicle_type_id":"4","last_reported":1721484408,"current_range_meters":14000,"station_id":"ce4bhbh2rcd13ifvqepg","pricing_plan_id":"cebpf4jnsgd1na2vs0mg"},{"bike_id":"71ebfac9-3027-41c2-98fb-1a513de8d09d","system_id":"levelo_inurba_marseille","lat":43.284217,"lon":5.349697,"is_reserved":false,"is_disabled":false,"rental_uris":{"android":"levelo://app?vid=71ebfac9-3027-41c2-98fb-1a513de8d09d","ios":"levelo://app?vid=71ebfac9-3027-41c2-98fb-1a513de8d09d"},"vehicle_type_id":"4","last_reported":1721484408,"current_range_meters":31200,"station_id":"ce4bhbh2rcd13ifvqepg","pricing_plan_id":"cebpf4jnsgd1na2vs0mg"},{"bike_id":"c23cc35c-6b8f-4081-9516-123e55d83826","system_id":"levelo_inurba_marseille","lat":43.284219,"lon":5.3497,"is_reserved":false,"is_disabled":false,"rental_uris":{"android":"levelo://app?vid=c23cc35c-6b8f-4081-9516-123e55d83826","ios":"levelo://app?vid=c23cc35c-6b8f-4081-9516-123e55d83826"},"vehicle_type_id":"4","last_reported":1721484408,"current_range_meters":29200,"station_id":"ce4bhbh2rcd13ifvqepg","pricing_plan_id":"cebpf4jnsgd1na2vs0mg"},{"bike_id":"148ea8df-d6cd-4f3f-b508-161eee04e0af","system_id":"levelo_inurba_marseille","lat":43.28422,"lon":5.34984,"is_reserved":false,"is_disabled":false,"rental_uris":{"android":"levelo://app?vid=148ea8df-d6cd-4f3f-b508-161eee04e0af","ios":"levelo://app?vid=148ea8df-d6cd-4f3f-b508-161eee04e0af"},"vehicle_type_id":"4","last_reported":1721484408,"current_range_meters":8800,"station_id":"ce4bhbh2rcd13ifvqepg","pricing_plan_id":"cebpf4jnsgd1na2vs0mg"},{"bike_id":"f809560b-fb65-4015-9e10-8591b87b95b2","system_id":"levelo_inurba_marseille","lat":43.28418,"lon":5.34996,"is_reserved":false,"is_disabled":false,"rental_uris":{"android":"levelo://app?vid=f809560b-fb65-4015-9e10-8591b87b95b2","ios":"levelo://app?vid=f809560b-fb65-4015-9e10-8591b87b95b2"},"vehicle_type_id":"4","last_reported":1721484408,"current_range_meters":28000,"station_id":"ce4bhbh2rcd13ifvqepg","pricing_plan_id":"cebpf4jnsgd1na2vs0mg"},{"bike_id":"1628be2e-d293-4041-bc0b-628862c08c94","system_id":"levelo_inurba_marseille","lat":43.28421,"lon":5.34986,"is_reserved":false,"is_disabled":false,"rental_uris":{"android":"levelo://app?vid=1628be2e-d293-4041-bc0b-628862c08c94","ios":"levelo://app?vid=1628be2e-d293-4041-bc0b-628862c08c94"},"vehicle_type_id":"4","last_reported":1721484408,"current_range_meters":14000,"station_id":"ce4bhbh2rcd13ifvqepg","pricing_plan_id":"cebpf4jnsgd1na2vs0mg"},{"bike_id":"30022924-d539-46bc-9007-e6c2d21e813a","system_id":"levelo_inurba_marseille","lat":43.284214,"lon":5.349847,"is_reserved":false,"is_disabled":false,"rental_uris":{"android":"levelo://app?vid=30022924-d539-46bc-9007-e6c2d21e813a","ios":"levelo://app?vid=30022924-d539-46bc-9007-e6c2d21e813a"},"vehicle_type_id":"4","last_reported":1721484408,"current_range_meters":19600,"station_id":"","pricing_plan_id":"cebpf4jnsgd1na2vs0mg"},{"bike_id":"4e59a4a2-597a-4c22-aa05-dac544bee0f5","system_id":"levelo_inurba_marseille","lat":43.2842,"lon":5.34989,"is_reserved":false,"is_disabled":false,"rental_uris":{"android":"levelo://app?vid=4e59a4a2-597a-4c22-aa05-dac544bee0f5","ios":"levelo://app?vid=4e59a4a2-597a-4c22-aa05-dac544bee0f5"},"vehicle_type_id":"4","last_reported":1721484408,"current_range_meters":30800,"station_id":"ce4bhbh2rcd13ifvqepg","pricing_plan_id":"cebpf4jnsgd1na2vs0mg"},{"bike_id":"5e2a1a32-be3d-4886-8e52-7ffe1048ad9d","system_id":"levelo_inurba_marseille","lat":43.284201,"lon":5.349854,"is_reserved":false,"is_disabled":false,"rental_uris":{"android":"levelo://app?vid=5e2a1a32-be3d-4886-8e52-7ffe1048ad9d","ios":"levelo://app?vid=5e2a1a32-be3d-4886-8e52-7ffe1048ad9d"},"vehicle_type_id":"4","last_reported":1721484408,"current_range_meters":21600,"station_id":"ce4bhbh2rcd13ifvqepg","pricing_plan_id":"cebpf4jnsgd1na2vs0mg"},{"bike_id":"2376b671-913f-458c-b95a-66205e2ccad3","system_id":"levelo_inurba_marseille","lat":43.284219,"lon":5.3497,"is_reserved":false,"is_disabled":false,"rental_uris":{"android":"levelo://app?vid=2376b671-913f-458c-b95a-66205e2ccad3","ios":"levelo://app?vid=2376b671-913f-458c-b95a-66205e2ccad3"},"vehicle_type_id":"4","last_reported":1721484408,"current_range_meters":27200,"station_id":"ce4bhbh2rcd13ifvqepg","pricing_plan_id":"cebpf4jnsgd1na2vs0mg"},{"bike_id":"0d66567f-80cc-48b6-885e-0d891682d7e8","system_id":"levelo_inurba_marseille","lat":43.2842,"lon":5.34984,"is_reserved":false,"is_disabled":false,"rental_uris":{"android":"levelo://app?vid=0d66567f-80cc-48b6-885e-0d891682d7e8","ios":"levelo://app?vid=0d66567f-80cc-48b6-885e-0d891682d7e8"},"vehicle_type_id":"4","last_reported":1721484408,"current_range_meters":800,"station_id":"ce4bhbh2rcd13ifvqepg","pricing_plan_id":"cebpf4jnsgd1na2vs0mg"},{"bike_id":"d107088a-f13b-42d4-a79a-bbdb5eb15dca","system_id":"levelo_inurba_marseille","lat":43.28418,"lon":5.3499,"is_reserved":false,"is_disabled":false,"rental_uris":{"android":"levelo://app?vid=d107088a-f13b-42d4-a79a-bbdb5eb15dca","ios":"levelo://app?vid=d107088a-f13b-42d4-a79a-bbdb5eb15dca"},"vehicle_type_id":"4","last_reported":1721484408,"current_range_meters":4400,"station_id":"ce4bhbh2rcd13ifvqepg","pricing_plan_id":"cebpf4jnsgd1na2vs0mg"},{"bike_id":"6f2e1312-dc44-42cc-a8cd-e3b8281589e4","system_id":"levelo_inurba_marseille","lat":43.28419,"lon":5.34984,"is_reserved":false,"is_disabled":false,"rental_uris":{"android":"levelo://app?vid=6f2e1312-dc44-42cc-a8cd-e3b8281589e4","ios":"levelo://app?vid=6f2e1312-dc44-42cc-a8cd-e3b8281589e4"},"vehicle_type_id":"4","last_reported":1721484408,"current_range_meters":22800,"station_id":"ce4bhbh2rcd13ifvqepg","pricing_plan_id":"cebpf4jnsgd1na2vs0mg"},{"bike_id":"4f2a371a-6e82-45be-ba21-1560d7445f75","system_id":"levelo_inurba_marseille","lat":43.284217,"lon":5.349697,"is_reserved":false,"is_disabled":false,"rental_uris":{"android":"levelo://app?vid=4f2a371a-6e82-45be-ba21-1560d7445f75","ios":"levelo://app?vid=4f2a371a-6e82-45be-ba21-1560d7445f75"},"vehicle_type_id":"4","last_reported":1721484408,"current_range_meters":29200,"station_id":"ce4bhbh2rcd13ifvqepg","pricing_plan_id":"cebpf4jnsgd1na2vs0mg"},{"bike_id":"b7f43319-bf92-4411-abb2-db02b396b321","system_id":"levelo_inurba_marseille","lat":43.28416,"lon":5.34992,"is_reserved":false,"is_disabled":false,"rental_uris":{"android":"levelo://app?vid=b7f43319-bf92-4411-abb2-db02b396b321","ios":"levelo://app?vid=b7f43319-bf92-4411-abb2-db02b396b321"},"vehicle_type_id":"4","last_reported":1721484408,"current_range_meters":17200,"station_id":"ce4bhbh2rcd13ifvqepg","pricing_plan_id":"cebpf4jnsgd1na2vs0mg"},{"bike_id":"e9b8a29c-958e-43e0-ab5d-bfe2fccd9471","system_id":"levelo_inurba_marseille","lat":43.284217,"lon":5.349697,"is_reserved":false,"is_disabled":false,"rental_uris":{"android":"levelo://app?vid=e9b8a29c-958e-43e0-ab5d-bfe2fccd9471","ios":"levelo://app?vid=e9b8a29c-958e-43e0-ab5d-bfe2fccd9471"},"vehicle_type_id":"4","last_reported":1721484408,"current_range_meters":31200,"station_id":"ce4bhbh2rcd13ifvqepg","pricing_plan_id":"cebpf4jnsgd1na2vs0mg"},{"bike_id":"376fe7fd-eccb-41f8-928d-c28e2f7edfc7","system_id":"levelo_inurba_marseille","lat":43.28414,"lon":5.34997,"is_reserved":false,"is_disabled":false,"rental_uris":{"android":"levelo://app?vid=376fe7fd-eccb-41f8-928d-c28e2f7edfc7","ios":"levelo://app?vid=376fe7fd-eccb-41f8-928d-c28e2f7edfc7"},"vehicle_type_id":"4","last_reported":1721484408,"current_range_meters":14800,"station_id":"ce4bhbh2rcd13ifvqepg","pricing_plan_id":"cebpf4jnsgd1na2vs0mg"},{"bike_id":"4b3d0945-3b6e-4a42-a4a6-79ec9911eba3","system_id":"levelo_inurba_marseille","lat":43.2842,"lon":5.34976,"is_reserved":false,"is_disabled":false,"rental_uris":{"android":"levelo://app?vid=4b3d0945-3b6e-4a42-a4a6-79ec9911eba3","ios":"levelo://app?vid=4b3d0945-3b6e-4a42-a4a6-79ec9911eba3"},"vehicle_type_id":"4","last_reported":1721484408,"current_range_meters":1200,"station_id":"ce4bhbh2rcd13ifvqepg","pricing_plan_id":"cebpf4jnsgd1na2vs0mg"},{"bike_id":"e2ac0a54-973b-4802-9a8b-672c4f8eee49","system_id":"levelo_inurba_marseille","lat":43.28418,"lon":5.34982,"is_reserved":false,"is_disabled":false,"rental_uris":{"android":"levelo://app?vid=e2ac0a54-973b-4802-9a8b-672c4f8eee49","ios":"levelo://app?vid=e2ac0a54-973b-4802-9a8b-672c4f8eee49"},"vehicle_type_id":"4","last_reported":1721484408,"current_range_meters":16400,"station_id":"ce4bhbh2rcd13ifvqepg","pricing_plan_id":"cebpf4jnsgd1na2vs0mg"},{"bike_id":"bb31b62a-421d-4a1f-b546-4cfda7f9490c","system_id":"levelo_inurba_marseille","lat":43.284217,"lon":5.349697,"is_reserved":false,"is_disabled":false,"rental_uris":{"android":"levelo://app?vid=bb31b62a-421d-4a1f-b546-4cfda7f9490c","ios":"levelo://app?vid=bb31b62a-421d-4a1f-b546-4cfda7f9490c"},"vehicle_type_id":"4","last_reported":1721484408,"current_range_meters":21600,"station_id":"ce4bhbh2rcd13ifvqepg","pricing_plan_id":"cebpf4jnsgd1na2vs0mg"},{"bike_id":"30e5cb23-9760-4bfd-88fd-35e005a835e4","system_id":"levelo_inurba_marseille","lat":43.28418,"lon":5.34981,"is_reserved":false,"is_disabled":false,"rental_uris":{"android":"levelo://app?vid=30e5cb23-9760-4bfd-88fd-35e005a835e4","ios":"levelo://app?vid=30e5cb23-9760-4bfd-88fd-35e005a835e4"},"vehicle_type_id":"4","last_reported":1721484408,"current_range_meters":8800,"station_id":"ce4bhbh2rcd13ifvqepg","pricing_plan_id":"cebpf4jnsgd1na2vs0mg"},{"bike_id":"77023030-aac8-46dd-931f-6ad2e1446f6c","system_id":"levelo_inurba_marseille","lat":43.28417,"lon":5.34984,"is_reserved":false,"is_disabled":false,"rental_uris":{"android":"levelo://app?vid=77023030-aac8-46dd-931f-6ad2e1446f6c","ios":"levelo://app?vid=77023030-aac8-46dd-931f-6ad2e1446f6c"},"vehicle_type_id":"4","last_reported":1721484408,"current_range_meters":15200,"station_id":"ce4bhbh2rcd13ifvqepg","pricing_plan_id":"cebpf4jnsgd1na2vs0mg"},{"bike_id":"9dc9c6f5-7fec-45a0-a783-b7f117fde958","system_id":"levelo_inurba_marseille","lat":43.284185,"lon":5.349791,"is_reserved":false,"is_disabled":false,"rental_uris":{"android":"levelo://app?vid=9dc9c6f5-7fec-45a0-a783-b7f117fde958","ios":"levelo://app?vid=9dc9c6f5-7fec-45a0-a783-b7f117fde958"},"vehicle_type_id":"4","last_reported":1721484408,"current_range_meters":22800,"station_id":"ce4bhbh2rcd13ifvqepg","pricing_plan_id":"cebpf4jnsgd1na2vs0mg"},{"bike_id":"f28d2d68-a380-44c4-a92c-272e4ea74e56","system_id":"levelo_inurba_marseille","lat":43.284214,"lon":5.349706,"is_reserved":false,"is_disabled":false,"rental_uris":{"android":"levelo://app?vid=f28d2d68-a380-44c4-a92c-272e4ea74e56","ios":"levelo://app?vid=f28d2d68-a380-44c4-a92c-272e4ea74e56"},"vehicle_type_id":"4","last_reported":1721484408,"current_range_meters":21600,"station_id":"ce4bhbh2rcd13ifvqepg","pricing_plan_id":"cebpf4jnsgd1na2vs0mg"},{"bike_id":"2a33969a-c7c9-46d8-90f2-6715a20d5b19","system_id":"levelo_inurba_marseille","lat":43.284214,"lon":5.349706,"is_reserved":false,"is_disabled":false,"rental_uris":{"android":"levelo://app?vid=2a33969a-c7c9-46d8-90f2-6715a20d5b19","ios":"levelo://app?vid=2a33969a-c7c9-46d8-90f2-6715a20d5b19"},"vehicle_type_id":"4","last_reported":1721484408,"current_range_meters":20000,"station_id":"ce4bhbh2rcd13ifvqepg","pricing_plan_id":"cebpf4jnsgd1na2vs0mg"},{"bike_id":"5f02eccc-2a4b-4724-8f27-f28747f333a1","system_id":"levelo_inurba_marseille","lat":43.28415,"lon":5.34988,"is_reserved":false,"is_disabled":false,"rental_uris":{"android":"levelo://app?vid=5f02eccc-2a4b-4724-8f27-f28747f333a1","ios":"levelo://app?vid=5f02eccc-2a4b-4724-8f27-f28747f333a1"},"vehicle_type_id":"4","last_reported":1721484408,"current_range_meters":9200,"station_id":"ce4bhbh2rcd13ifvqepg","pricing_plan_id":"cebpf4jnsgd1na2vs0mg"},{"bike_id":"04f1affe-9e1b-4736-a803-245c814da694","system_id":"levelo_inurba_marseille","lat":43.284131,"lon":5.349934,"is_reserved":false,"is_disabled":false,"rental_uris":{"android":"levelo://app?vid=04f1affe-9e1b-4736-a803-245c814da694","ios":"levelo://app?vid=04f1affe-9e1b-4736-a803-245c814da694"},"vehicle_type_id":"4","last_reported":1721484408,"current_range_meters":15600,"station_id":"ce4bhbh2rcd13ifvqepg","pricing_plan_id":"cebpf4jnsgd1na2vs0mg"},{"bike_id":"a7c06dc6-2ea3-4106-94f3-59f369dd7488","system_id":"levelo_inurba_marseille","lat":43.284217,"lon":5.349697,"is_reserved":false,"is_disabled":false,"rental_uris":{"android":"levelo://app?vid=a7c06dc6-2ea3-4106-94f3-59f369dd7488","ios":"levelo://app?vid=a7c06dc6-2ea3-4106-94f3-59f369dd7488"},"vehicle_type_id":"4","last_reported":1721484408,"current_range_meters":8000,"station_id":"ce4bhbh2rcd13ifvqepg","pricing_plan_id":"cebpf4jnsgd1na2vs0mg"},{"bike_id":"6379f4b3-6e36-427e-8b0a-9cf7f8538ad5","system_id":"levelo_inurba_marseille","lat":43.284217,"lon":5.349697,"is_reserved":false,"is_disabled":false,"rental_uris":{"android":"levelo://app?vid=6379f4b3-6e36-427e-8b0a-9cf7f8538ad5","ios":"levelo://app?vid=6379f4b3-6e36-427e-8b0a-9cf7f8538ad5"},"vehicle_type_id":"4","last_reported":1721484408,"current_range_meters":31200,"station_id":"ce4bhbh2rcd13ifvqepg","pricing_plan_id":"cebpf4jnsgd1na2vs0mg"},{"bike_id":"cd5c6a30-6408-422f-9bd7-331c5ca0ad45","system_id":"levelo_inurba_marseille","lat":43.284214,"lon":5.349706,"is_reserved":false,"is_disabled":false,"rental_uris":{"android":"levelo://app?vid=cd5c6a30-6408-422f-9bd7-331c5ca0ad45","ios":"levelo://app?vid=cd5c6a30-6408-422f-9bd7-331c5ca0ad45"},"vehicle_type_id":"4","last_reported":1721484408,"current_range_meters":12800,"station_id":"ce4bhbh2rcd13ifvqepg","pricing_plan_id":"cebpf4jnsgd1na2vs0mg"},{"bike_id":"534aaf7a-c344-47cf-a933-9bd72de9adc1","system_id":"levelo_inurba_marseille","lat":43.28411,"lon":5.34993,"is_reserved":false,"is_disabled":false,"rental_uris":{"android":"levelo://app?vid=534aaf7a-c344-47cf-a933-9bd72de9adc1","ios":"levelo://app?vid=534aaf7a-c344-47cf-a933-9bd72de9adc1"},"vehicle_type_id":"4","last_reported":1721484408,"current_range_meters":10800,"station_id":"ce4bhbh2rcd13ifvqepg","pricing_plan_id":"cebpf4jnsgd1na2vs0mg"},{"bike_id":"6a02ec06-feb5-465c-bfdb-6989c50aa5d6","system_id":"levelo_inurba_marseille","lat":43.284214,"lon":5.349706,"is_reserved":false,"is_disabled":false,"rental_uris":{"android":"levelo://app?vid=6a02ec06-feb5-465c-bfdb-6989c50aa5d6","ios":"levelo://app?vid=6a02ec06-feb5-465c-bfdb-6989c50aa5d6"},"vehicle_type_id":"4","last_reported":1721484408,"current_range_meters":11600,"station_id":"ce4bhbh2rcd13ifvqepg","pricing_plan_id":"cebpf4jnsgd1na2vs0mg"},{"bike_id":"b009a377-06b3-4915-8ff1-55ef41fe86b9","system_id":"levelo_inurba_marseille","lat":43.284214,"lon":5.349706,"is_reserved":false,"is_disabled":false,"rental_uris":{"android":"levelo://app?vid=b009a377-06b3-4915-8ff1-55ef41fe86b9","ios":"levelo://app?vid=b009a377-06b3-4915-8ff1-55ef41fe86b9"},"vehicle_type_id":"4","last_reported":1721484408,"current_range_meters":32000,"station_id":"ce4bhbh2rcd13ifvqepg","pricing_plan_id":"cebpf4jnsgd1na2vs0mg"},{"bike_id":"68227a07-a454-4c11-b102-de55354c8095","system_id":"levelo_inurba_marseille","lat":43.284126,"lon":5.34986,"is_reserved":false,"is_disabled":false,"rental_uris":{"android":"levelo://app?vid=68227a07-a454-4c11-b102-de55354c8095","ios":"levelo://app?vid=68227a07-a454-4c11-b102-de55354c8095"},"vehicle_type_id":"4","last_reported":1721484408,"current_range_meters":12400,"station_id":"ce4bhbh2rcd13ifvqepg","pricing_plan_id":"cebpf4jnsgd1na2vs0mg"},{"bike_id":"2703c03b-f8eb-40ad-b3f1-f643fdd4ec67","system_id":"levelo_inurba_marseille","lat":43.28412,"lon":5.34985,"is_reserved":false,"is_disabled":false,"rental_uris":{"android":"levelo://app?vid=2703c03b-f8eb-40ad-b3f1-f643fdd4ec67","ios":"levelo://app?vid=2703c03b-f8eb-40ad-b3f1-f643fdd4ec67"},"vehicle_type_id":"4","last_reported":1721484408,"current_range_meters":31200,"station_id":"ce4bhbh2rcd13ifvqepg","pricing_plan_id":"cebpf4jnsgd1na2vs0mg"},{"bike_id":"8dacfd24-c8f2-463a-9f3f-9326dad4d15b","system_id":"levelo_inurba_marseille","lat":43.284214,"lon":5.349706,"is_reserved":false,"is_disabled":false,"rental_uris":{"android":"levelo://app?vid=8dacfd24-c8f2-463a-9f3f-9326dad4d15b","ios":"levelo://app?vid=8dacfd24-c8f2-463a-9f3f-9326dad4d15b"},"vehicle_type_id":"4","last_reported":1721484408,"current_range_meters":9200,"station_id":"ce4bhbh2rcd13ifvqepg","pricing_plan_id":"cebpf4jnsgd1na2vs0mg"},{"bike_id":"d4c7898b-5a53-4244-a15b-ce838f0e8c77","system_id":"levelo_inurba_marseille","lat":43.28415,"lon":5.34973,"is_reserved":false,"is_disabled":false,"rental_uris":{"android":"levelo://app?vid=d4c7898b-5a53-4244-a15b-ce838f0e8c77","ios":"levelo://app?vid=d4c7898b-5a53-4244-a15b-ce838f0e8c77"},"vehicle_type_id":"4","last_reported":1721484408,"current_range_meters":10000,"station_id":"ce4bhbh2rcd13ifvqepg","pricing_plan_id":"cebpf4jnsgd1na2vs0mg"},{"bike_id":"50336615-cb40-4c20-90f6-0784dd991843","system_id":"levelo_inurba_marseille","lat":43.284214,"lon":5.349706,"is_reserved":false,"is_disabled":false,"rental_uris":{"android":"levelo://app?vid=50336615-cb40-4c20-90f6-0784dd991843","ios":"levelo://app?vid=50336615-cb40-4c20-90f6-0784dd991843"},"vehicle_type_id":"4","last_reported":1721484408,"current_range_meters":19200,"station_id":"ce4bhbh2rcd13ifvqepg","pricing_plan_id":"cebpf4jnsgd1na2vs0mg"},{"bike_id":"2a9a4a5c-36a3-4f30-953b-cdbab7be4982","system_id":"levelo_inurba_marseille","lat":43.28405,"lon":5.34999,"is_reserved":false,"is_disabled":false,"rental_uris":{"android":"levelo://app?vid=2a9a4a5c-36a3-4f30-953b-cdbab7be4982","ios":"levelo://app?vid=2a9a4a5c-36a3-4f30-953b-cdbab7be4982"},"vehicle_type_id":"4","last_reported":1721484408,"current_range_meters":28400,"station_id":"ce4bhbh2rcd13ifvqepg","pricing_plan_id":"cebpf4jnsgd1na2vs0mg"},{"bike_id":"ffa34baa-7746-491c-8d23-e71a05d1f5da","system_id":"levelo_inurba_marseille","lat":43.284214,"lon":5.349706,"is_reserved":false,"is_disabled":false,"rental_uris":{"android":"levelo://app?vid=ffa34baa-7746-491c-8d23-e71a05d1f5da","ios":"levelo://app?vid=ffa34baa-7746-491c-8d23-e71a05d1f5da"},"vehicle_type_id":"4","last_reported":1721484408,"current_range_meters":16000,"station_id":"ce4bhbh2rcd13ifvqepg","pricing_plan_id":"cebpf4jnsgd1na2vs0mg"},{"bike_id":"182e6d51-db53-434e-918e-73e74694298d","system_id":"levelo_inurba_marseille","lat":43.28407,"lon":5.34986,"is_reserved":false,"is_disabled":false,"rental_uris":{"android":"levelo://app?vid=182e6d51-db53-434e-918e-73e74694298d","ios":"levelo://app?vid=182e6d51-db53-434e-918e-73e74694298d"},"vehicle_type_id":"4","last_reported":1721484408,"current_range_meters":1600,"station_id":"ce4bhbh2rcd13ifvqepg","pricing_plan_id":"cebpf4jnsgd1na2vs0mg"},{"bike_id":"3f7c24f1-c1cd-4206-9b32-d383e0d3162d","system_id":"levelo_inurba_marseille","lat":43.284064,"lon":5.349812,"is_reserved":false,"is_disabled":false,"rental_uris":{"android":"levelo://app?vid=3f7c24f1-c1cd-4206-9b32-d383e0d3162d","ios":"levelo://app?vid=3f7c24f1-c1cd-4206-9b32-d383e0d3162d"},"vehicle_type_id":"4","last_reported":1721484408,"current_range_meters":14000,"station_id":"ce4bhbh2rcd13ifvqepg","pricing_plan_id":"cebpf4jnsgd1na2vs0mg"},{"bike_id":"e0792099-f3c2-4952-898b-c7f677039c82","system_id":"levelo_inurba_marseille","lat":43.28402,"lon":5.34994,"is_reserved":false,"is_disabled":false,"rental_uris":{"android":"levelo://app?vid=e0792099-f3c2-4952-898b-c7f677039c82","ios":"levelo://app?vid=e0792099-f3c2-4952-898b-c7f677039c82"},"vehicle_type_id":"4","last_reported":1721484408,"current_range_meters":16000,"station_id":"ce4bhbh2rcd13ifvqepg","pricing_plan_id":"cebpf4jnsgd1na2vs0mg"},{"bike_id":"c77933d5-37a5-4c79-b6fc-762cf111c4e9","system_id":"levelo_inurba_marseille","lat":43.282774,"lon":5.350761,"is_reserved":false,"is_disabled":false,"rental_uris":{"android":"levelo://app?vid=c77933d5-37a5-4c79-b6fc-762cf111c4e9","ios":"levelo://app?vid=c77933d5-37a5-4c79-b6fc-762cf111c4e9"},"vehicle_type_id":"4","last_reported":1721484408,"current_range_meters":22800,"station_id":"ce4bhbp2rcd13ifvqerg","pricing_plan_id":"cebpf4jnsgd1na2vs0mg"},{"bike_id":"3c4498d7-64d6-4c83-b3d2-0d195b8157f5","system_id":"levelo_inurba_marseille","lat":43.282764,"lon":5.350796,"is_reserved":false,"is_disabled":false,"rental_uris":{"android":"levelo://app?vid=3c4498d7-64d6-4c83-b3d2-0d195b8157f5","ios":"levelo://app?vid=3c4498d7-64d6-4c83-b3d2-0d195b8157f5"},"vehicle_type_id":"4","last_reported":1721484408,"current_range_meters":19600,"station_id":"ce4bhbp2rcd13ifvqerg","pricing_plan_id":"cebpf4jnsgd1na2vs0mg"},{"bike_id":"bc14565c-0a66-438b-a7f5-8983286db2c9","system_id":"levelo_inurba_marseille","lat":43.282753,"lon":5.350632,"is_reserved":false,"is_disabled":false,"rental_uris":{"android":"levelo://app?vid=bc14565c-0a66-438b-a7f5-8983286db2c9","ios":"levelo://app?vid=bc14565c-0a66-438b-a7f5-8983286db2c9"},"vehicle_type_id":"4","last_reported":1721484408,"current_range_meters":0,"station_id":"ce4bhbp2rcd13ifvqerg","pricing_plan_id":"cebpf4jnsgd1na2vs0mg"},{"bike_id":"3d99efd1-49f3-4f12-ad63-1020b447c25a","system_id":"levelo_inurba_marseille","lat":43.282754,"lon":5.350519,"is_reserved":false,"is_disabled":false,"rental_uris":{"android":"levelo://app?vid=3d99efd1-49f3-4f12-ad63-1020b447c25a","ios":"levelo://app?vid=3d99efd1-49f3-4f12-ad63-1020b447c25a"},"vehicle_type_id":"4","last_reported":1721484408,"current_range_meters":26000,"station_id":"ce4bhbp2rcd13ifvqerg","pricing_plan_id":"cebpf4jnsgd1na2vs0mg"},{"bike_id":"2a268cb8-e2a1-44ab-824f-f37ed32501ff","system_id":"levelo_inurba_marseille","lat":43.28267,"lon":5.3509,"is_reserved":false,"is_disabled":false,"rental_uris":{"android":"levelo://app?vid=2a268cb8-e2a1-44ab-824f-f37ed32501ff","ios":"levelo://app?vid=2a268cb8-e2a1-44ab-824f-f37ed32501ff"},"vehicle_type_id":"4","last_reported":1721484408,"current_range_meters":20000,"station_id":"ce4bhbp2rcd13ifvqerg","pricing_plan_id":"cebpf4jnsgd1na2vs0mg"},{"bike_id":"e0215425-d0b2-4f97-a2d8-b70d86099e69","system_id":"levelo_inurba_marseille","lat":43.28275,"lon":5.3506,"is_reserved":false,"is_disabled":false,"rental_uris":{"android":"levelo://app?vid=e0215425-d0b2-4f97-a2d8-b70d86099e69","ios":"levelo://app?vid=e0215425-d0b2-4f97-a2d8-b70d86099e69"},"vehicle_type_id":"4","last_reported":1721484408,"current_range_meters":7200,"station_id":"ce4bhbp2rcd13ifvqerg","pricing_plan_id":"cebpf4jnsgd1na2vs0mg"},{"bike_id":"551b91fe-96af-4139-a741-7476c96d490d","system_id":"levelo_inurba_marseille","lat":43.282754,"lon":5.350519,"is_reserved":false,"is_disabled":false,"rental_uris":{"android":"levelo://app?vid=551b91fe-96af-4139-a741-7476c96d490d","ios":"levelo://app?vid=551b91fe-96af-4139-a741-7476c96d490d"},"vehicle_type_id":"4","last_reported":1721484408,"current_range_meters":31600,"station_id":"ce4bhbp2rcd13ifvqerg","pricing_plan_id":"cebpf4jnsgd1na2vs0mg"},{"bike_id":"f3b049e8-37cf-4fbd-9b07-43b8c374d445","system_id":"levelo_inurba_marseille","lat":43.28275,"lon":5.35058,"is_reserved":false,"is_disabled":false,"rental_uris":{"android":"levelo://app?vid=f3b049e8-37cf-4fbd-9b07-43b8c374d445","ios":"levelo://app?vid=f3b049e8-37cf-4fbd-9b07-43b8c374d445"},"vehicle_type_id":"4","last_reported":1721484408,"current_range_meters":2400,"station_id":"ce4bhbp2rcd13ifvqerg","pricing_plan_id":"cebpf4jnsgd1na2vs0mg"},{"bike_id":"beeb8db8-0ad4-4308-a5ca-11c4786e111a","system_id":"levelo_inurba_marseille","lat":43.28271,"lon":5.3507,"is_reserved":false,"is_disabled":false,"rental_uris":{"android":"levelo://app?vid=beeb8db8-0ad4-4308-a5ca-11c4786e111a","ios":"levelo://app?vid=beeb8db8-0ad4-4308-a5ca-11c4786e111a"},"vehicle_type_id":"4","last_reported":1721484408,"current_range_meters":31200,"station_id":"ce4bhbp2rcd13ifvqerg","pricing_plan_id":"cebpf4jnsgd1na2vs0mg"},{"bike_id":"94238bdb-2987-4eac-8849-f6d7d1668b63","system_id":"levelo_inurba_marseille","lat":43.28269,"lon":5.35076,"is_reserved":false,"is_disabled":false,"rental_uris":{"android":"levelo://app?vid=94238bdb-2987-4eac-8849-f6d7d1668b63","ios":"levelo://app?vid=94238bdb-2987-4eac-8849-f6d7d1668b63"},"vehicle_type_id":"4","last_reported":1721484408,"current_range_meters":20800,"station_id":"ce4bhbp2rcd13ifvqerg","pricing_plan_id":"cebpf4jnsgd1na2vs0mg"},{"bike_id":"bfd82aa6-aee3-4e00-89c7-c4e431c7f7a6","system_id":"levelo_inurba_marseille","lat":43.28269,"lon":5.35076,"is_reserved":false,"is_disabled":false,"rental_uris":{"android":"levelo://app?vid=bfd82aa6-aee3-4e00-89c7-c4e431c7f7a6","ios":"levelo://app?vid=bfd82aa6-aee3-4e00-89c7-c4e431c7f7a6"},