{"last_updated":1752790259,"ttl":60,"version":"2.2","data":{"bikes":[{"bike_id":"53b742a7-31ae-4272-9bba-7740339e2a2f","system_id":"levelo_inurba_marseille","lat":43.33747,"lon":5.37463,"is_reserved":false,"is_disabled":false,"rental_uris":{"android":"levelo://app?vid=53b742a7-31ae-4272-9bba-7740339e2a2f","ios":"levelo://app?vid=53b742a7-31ae-4272-9bba-7740339e2a2f"},"vehicle_type_id":"1","last_reported":1752790259,"current_range_meters":22800,"station_id":"","pricing_plan_id":"cebpf4jnsgd1na2vs0mg"},{"bike_id":"d98ef30e-38a0-41ef-a00a-304afa979a1e","system_id":"levelo_inurba_marseille","lat":43.29903,"lon":5.43684,"is_reserved":false,"is_disabled":false,"rental_uris":{"android":"levelo://app?vid=d98ef30e-38a0-41ef-a00a-304afa979a1e","ios":"levelo://app?vid=d98ef30e-38a0-41ef-a00a-304afa979a1e"},"vehicle_type_id":"4","last_reported":1752790259,"current_range_meters":2800,"station_id":"ce4bhpp2rcd13ifvqhfg","pricing_plan_id":"cebpf4jnsgd1na2vs0mg"},{"bike_id":"345aa432-8432-4627-960c-dfee97a11267","system_id":"levelo_inurba_marseille","lat":43.29282,"lon":5.40115,"is_reserved":false,"is_disabled":false,"rental_uris":{"android":"levelo://app?vid=345aa432-8432-4627-960c-dfee97a11267","ios":"levelo://app?vid=345aa432-8432-4627-960c-dfee97a11267"},"vehicle_type_id":"4","last_reported":1752790259,"current_range_meters":2800,"station_id":"ce4bh312rcd13ifvqdk0","pricing_plan_id":"cebpf4jnsgd1na2vs0mg"},{"bike_id":"1bb140ff-b8fc-4329-a9c5-1790ffb804a2","system_id":"levelo_inurba_marseille","lat":43.2652,"lon":5.39541,"is_reserved":false,"is_disabled":false,"rental_uris":{"android":"levelo://app?vid=1bb140ff-b8fc-4329-a9c5-1790ffb804a2","ios":"levelo://app?vid=1bb140ff-b8fc-4329-a9c5-1790ffb804a2"},"vehicle_type_id":"4","last_reported":1752790259,"current_range_meters":2800,"station_id":"ce4bhi12rcd13ifvqfq0","pricing_plan_id":"cebpf4jnsgd1na2vs0mg"},{"bike_id":"d555cc46-bc21-42fb-90d1-4983139444cc","system_id":"levelo_inurba_marseille","lat":43.292285,"lon":5.360515,"is_reserved":false,"is_disabled":true,"rental_uris":{"android":"levelo://app?vid=d555cc46-bc21-42fb-90d1-4983139444cc","ios":"levelo://app?vid=d555cc46-bc21-42fb-90d1-4983139444cc"},"vehicle_type_id":"4","last_reported":1752790259,"current_range_meters":2800,"station_id":"","pricing_plan_id":"cebpf4jnsgd1na2vs0mg"},{"bike_id":"1ad55bcf-baa2-4b8a-a203-ff032df333b8","system_id":"levelo_inurba_marseille","lat":43.30732,"lon":5.42431,"is_reserved":false,"is_disabled":false,"rental_uris":{"android":"levelo://app?vid=1ad55bcf-baa2-4b8a-a203-ff032df333b8","ios":"levelo://app?vid=1ad55bcf-baa2-4b8a-a203-ff032df333b8"},"vehicle_type_id":"4","last_reported":1752790259,"current_range_meters":2800,"station_id":"st_cvj6ca6bvosntc0bfgr0","pricing_plan_id":"cebpf4jnsgd1na2vs0mg"},{"bike_id":"080b0f22-14dd-4044-a18f-ee7f74366cea","system_id":"levelo_inurba_marseille","lat":43.32002,"lon":5.38107,"is_reserved":false,"is_disabled":true,"rental_uris":{"android":"levelo://app?vid=080b0f22-14dd-4044-a18f-ee7f74366cea","ios":"levelo://app?vid=080b0f22-14dd-4044-a18f-ee7f74366cea"},"vehicle_type_id":"4","last_reported":1752790259,"current_range_meters":2800,"station_id":"ce4bhr12rcd13ifvqhpg","pricing_plan_id":"cebpf4jnsgd1na2vs0mg"},{"bike_id":"613bd36d-51a1-4145-8b15-1f73a6ee3b00","system_id":"levelo_inurba_marseille","lat":43.30591,"lon":5.37224,"is_reserved":false,"is_disabled":false,"rental_uris":{"android":"levelo://app?vid=613bd36d-51a1-4145-8b15-1f73a6ee3b00","ios":"levelo://app?vid=613bd36d-51a1-4145-8b15-1f73a6ee3b00"},"vehicle_type_id":"4","last_reported":1752790259,"current_range_meters":3200,"station_id":"ce4bgqh2rcd13ifvqc4g","pricing_plan_id":"cebpf4jnsgd1na2vs0mg"},{"bike_id":"ccc57d19-b58f-4db2-86a9-e77a1790d05c","system_id":"levelo_inurba_marseille","lat":43.25492,"lon":5.3765,"is_reserved":false,"is_disabled":false,"rental_uris":{"android":"levelo://app?vid=ccc57d19-b58f-4db2-86a9-e77a1790d05c","ios":"levelo://app?vid=ccc57d19-b58f-4db2-86a9-e77a1790d05c"},"vehicle_type_id":"4","last_reported":1752790259,"current_range_meters":3200,"station_id":"ce4bhh12rcd13ifvqff0","pricing_plan_id":"cebpf4jnsgd1na2vs0mg"},{"bike_id":"af2c716e-e991-4e74-b673-738f4d81ff22","system_id":"levelo_inurba_marseille","lat":43.31327,"lon":5.39691,"is_reserved":false,"is_disabled":false,"rental_uris":{"android":"levelo://app?vid=af2c716e-e991-4e74-b673-738f4d81ff22","ios":"levelo://app?vid=af2c716e-e991-4e74-b673-738f4d81ff22"},"vehicle_type_id":"4","last_reported":1752790259,"current_range_meters":3600,"station_id":"ce4bgvp2rcd13ifvqcu0","pricing_plan_id":"cebpf4jnsgd1na2vs0mg"},{"bike_id":"24c73785-d4ba-4b56-92f0-5dc0002b02db","system_id":"levelo_inurba_marseille","lat":43.2406,"lon":5.37768,"is_reserved":false,"is_disabled":false,"rental_uris":{"android":"levelo://app?vid=24c73785-d4ba-4b56-92f0-5dc0002b02db","ios":"levelo://app?vid=24c73785-d4ba-4b56-92f0-5dc0002b02db"},"vehicle_type_id":"4","last_reported":1752790259,"current_range_meters":3600,"station_id":"ce4bhnp2rcd13ifvqgvg","pricing_plan_id":"cebpf4jnsgd1na2vs0mg"},{"bike_id":"3de2092b-b815-42f1-b153-536d7f74f6d6","system_id":"levelo_inurba_marseille","lat":43.25582,"lon":5.38223,"is_reserved":false,"is_disabled":false,"rental_uris":{"android":"levelo://app?vid=3de2092b-b815-42f1-b153-536d7f74f6d6","ios":"levelo://app?vid=3de2092b-b815-42f1-b153-536d7f74f6d6"},"vehicle_type_id":"4","last_reported":1752790259,"current_range_meters":4000,"station_id":"ce4bhih2rcd13ifvqfs0","pricing_plan_id":"cebpf4jnsgd1na2vs0mg"},{"bike_id":"4a6e94b0-beaa-40c4-8b23-ef8573eb88c4","system_id":"levelo_inurba_marseille","lat":43.23969,"lon":5.36624,"is_reserved":false,"is_disabled":false,"rental_uris":{"android":"levelo://app?vid=4a6e94b0-beaa-40c4-8b23-ef8573eb88c4","ios":"levelo://app?vid=4a6e94b0-beaa-40c4-8b23-ef8573eb88c4"},"vehicle_type_id":"4","last_reported":1752790259,"current_range_meters":4000,"station_id":"ce4bhi12rcd13ifvqfp0","pricing_plan_id":"cebpf4jnsgd1na2vs0mg"},{"bike_id":"51e9e988-3065-46d5-9269-3da343837f1e","system_id":"levelo_inurba_marseille","lat":43.2808,"lon":5.39659,"is_reserved":false,"is_disabled":false,"rental_uris":{"android":"levelo://app?vid=51e9e988-3065-46d5-9269-3da343837f1e","ios":"levelo://app?vid=51e9e988-3065-46d5-9269-3da343837f1e"},"vehicle_type_id":"4","last_reported":1752790259,"current_range_meters":4000,"station_id":"ce4bho12rcd13ifvqh2g","pricing_plan_id":"cebpf4jnsgd1na2vs0mg"},{"bike_id":"fff2683d-fbf7-43fc-bf05-8397b2564b85","system_id":"levelo_inurba_marseille","lat":43.29966,"lon":5.38506,"is_reserved":false,"is_disabled":false,"rental_uris":{"android":"levelo://app?vid=fff2683d-fbf7-43fc-bf05-8397b2564b85","ios":"levelo://app?vid=fff2683d-fbf7-43fc-bf05-8397b2564b85"},"vehicle_type_id":"4","last_reported":1752790259,"current_range_meters":4400,"station_id":"ce4bgj92rcd13ifvqbd0","pricing_plan_id":"cebpf4jnsgd1na2vs0mg"},{"bike_id":"fb11edbd-56e4-4ee8-895f-1c9c8d31d1b1","system_id":"levelo_inurba_marseille","lat":43.2953,"lon":5.3853,"is_reserved":false,"is_disabled":false,"rental_uris":{"android":"levelo://app?vid=fb11edbd-56e4-4ee8-895f-1c9c8d31d1b1","ios":"levelo://app?vid=fb11edbd-56e4-4ee8-895f-1c9c8d31d1b1"},"vehicle_type_id":"4","last_reported":1752790259,"current_range_meters":4800,"station_id":"ce4bgih2rcd13ifvqba0","pricing_plan_id":"cebpf4jnsgd1na2vs0mg"},{"bike_id":"9eb11d44-370d-464b-b78f-5461a3b04cc3","system_id":"levelo_inurba_marseille","lat":43.31071,"lon":5.38344,"is_reserved":false,"is_disabled":true,"rental_uris":{"android":"levelo://app?vid=9eb11d44-370d-464b-b78f-5461a3b04cc3","ios":"levelo://app?vid=9eb11d44-370d-464b-b78f-5461a3b04cc3"},"vehicle_type_id":"4","last_reported":1752790259,"current_range_meters":5600,"station_id":"ce4bgv92rcd13ifvqcr0","pricing_plan_id":"cebpf4jnsgd1na2vs0mg"},{"bike_id":"0f2b38d7-092e-4ce6-ab6c-5e5b46007c2d","system_id":"levelo_inurba_marseille","lat":43.2788,"lon":5.3814,"is_reserved":false,"is_disabled":false,"rental_uris":{"android":"levelo://app?vid=0f2b38d7-092e-4ce6-ab6c-5e5b46007c2d","ios":"levelo://app?vid=0f2b38d7-092e-4ce6-ab6c-5e5b46007c2d"},"vehicle_type_id":"4","last_reported":1752790259,"current_range_meters":5600,"station_id":"ce4bhf92rcd13ifvqf50","pricing_plan_id":"cebpf4jnsgd1na2vs0mg"},{"bike_id":"f6f236ff-60fd-4194-a6b1-4b305fcc4850","system_id":"levelo_inurba_marseille","lat":43.31247,"lon":5.4019,"is_reserved":false,"is_disabled":false,"rental_uris":{"android":"levelo://app?vid=f6f236ff-60fd-4194-a6b1-4b305fcc4850","ios":"levelo://app?vid=f6f236ff-60fd-4194-a6b1-4b305fcc4850"},"vehicle_type_id":"4","last_reported":1752790259,"current_range_meters":5600,"station_id":"ce4bh092rcd13ifvqd30","pricing_plan_id":"cebpf4jnsgd1na2vs0mg"},{"bike_id":"a821816b-26c9-49f4-b7df-008c3c79f821","system_id":"levelo_inurba_marseille","lat":43.31262,"lon":5.40192,"is_reserved":false,"is_disabled":false,"rental_uris":{"android":"levelo://app?vid=a821816b-26c9-49f4-b7df-008c3c79f821","ios":"levelo://app?vid=a821816b-26c9-49f4-b7df-008c3c79f821"},"vehicle_type_id":"4","last_reported":1752790259,"current_range_meters":6000,"station_id":"ce4bh092rcd13ifvqd30","pricing_plan_id":"cebpf4jnsgd1na2vs0mg"},{"bike_id":"8f14405a-fea8-4b11-887d-54f354875c28","system_id":"levelo_inurba_marseille","lat":43.2968,"lon":5.38564,"is_reserved":false,"is_disabled":false,"rental_uris":{"android":"levelo://app?vid=8f14405a-fea8-4b11-887d-54f354875c28","ios":"levelo://app?vid=8f14405a-fea8-4b11-887d-54f354875c28"},"vehicle_type_id":"4","last_reported":1752790259,"current_range_meters":6000,"station_id":"","pricing_plan_id":"cebpf4jnsgd1na2vs0mg"},{"bike_id":"fb02bb26-2d2f-4dbe-9574-6e5d29e204c2","system_id":"levelo_inurba_marseille","lat":43.30084,"lon":5.3908,"is_reserved":false,"is_disabled":false,"rental_uris":{"android":"levelo://app?vid=fb02bb26-2d2f-4dbe-9574-6e5d29e204c2","ios":"levelo://app?vid=fb02bb26-2d2f-4dbe-9574-6e5d29e204c2"},"vehicle_type_id":"4","last_reported":1752790259,"current_range_meters":6000,"station_id":"ce4bh192rcd13ifvqdb0","pricing_plan_id":"cebpf4jnsgd1na2vs0mg"},{"bike_id":"f6764e0b-78fa-4df6-a4aa-f1fef6ac3dc9","system_id":"levelo_inurba_marseille","lat":43.26681,"lon":5.38268,"is_reserved":false,"is_disabled":false,"rental_uris":{"android":"levelo://app?vid=f6764e0b-78fa-4df6-a4aa-f1fef6ac3dc9","ios":"levelo://app?vid=f6764e0b-78fa-4df6-a4aa-f1fef6ac3dc9"},"vehicle_type_id":"4","last_reported":1752790259,"current_range_meters":6000,"station_id":"ce4bhg92rcd13ifvqf90","pricing_plan_id":"cebpf4jnsgd1na2vs0mg"},{"bike_id":"3051449b-679c-47d5-9495-432a16a18d79","system_id":"levelo_inurba_marseille","lat":43.28414,"lon":5.38479,"is_reserved":false,"is_disabled":false,"rental_uris":{"android":"levelo://app?vid=3051449b-679c-47d5-9495-432a16a18d79","ios":"levelo://app?vid=3051449b-679c-47d5-9495-432a16a18d79"},"vehicle_type_id":"4","last_reported":1752790259,"current_range_meters":6000,"station_id":"","pricing_plan_id":"cebpf4jnsgd1na2vs0mg"},{"bike_id":"74fcd6be-747d-4dc2-b9b5-bac38f984230","system_id":"levelo_inurba_marseille","lat":43.30151,"lon":5.38061,"is_reserved":false,"is_disabled":false,"rental_uris":{"android":"levelo://app?vid=74fcd6be-747d-4dc2-b9b5-bac38f984230","ios":"levelo://app?vid=74fcd6be-747d-4dc2-b9b5-bac38f984230"},"vehicle_type_id":"4","last_reported":1752790259,"current_range_meters":6000,"station_id":"ce4bgjp2rcd13ifvqbh0","pricing_plan_id":"cebpf4jnsgd1na2vs0mg"},{"bike_id":"0bc2d1d0-ddb0-4b62-8a0b-4b6307185931","system_id":"levelo_inurba_marseille","lat":43.31883,"lon":5.40732,"is_reserved":false,"is_disabled":false,"rental_uris":{"android":"levelo://app?vid=0bc2d1d0-ddb0-4b62-8a0b-4b6307185931","ios":"levelo://app?vid=0bc2d1d0-ddb0-4b62-8a0b-4b6307185931"},"vehicle_type_id":"4","last_reported":1752790259,"current_range_meters":6400,"station_id":"ce4bhq12rcd13ifvqhig","pricing_plan_id":"cebpf4jnsgd1na2vs0mg"},{"bike_id":"c7771e75-d515-4cc1-9a5a-a9d2c29af9a9","system_id":"levelo_inurba_marseille","lat":43.287626,"lon":5.362174,"is_reserved":false,"is_disabled":false,"rental_uris":{"android":"levelo://app?vid=c7771e75-d515-4cc1-9a5a-a9d2c29af9a9","ios":"levelo://app?vid=c7771e75-d515-4cc1-9a5a-a9d2c29af9a9"},"vehicle_type_id":"4","last_reported":1752790259,"current_range_meters":7200,"station_id":"cki0cbj6b192h4jlfktg","pricing_plan_id":"cebpf4jnsgd1na2vs0mg"},{"bike_id":"1a04bfc1-437b-4258-95ee-ecc33e795a00","system_id":"levelo_inurba_marseille","lat":43.28156,"lon":5.42644,"is_reserved":false,"is_disabled":false,"rental_uris":{"android":"levelo://app?vid=1a04bfc1-437b-4258-95ee-ecc33e795a00","ios":"levelo://app?vid=1a04bfc1-437b-4258-95ee-ecc33e795a00"},"vehicle_type_id":"4","last_reported":1752790259,"current_range_meters":7200,"station_id":"ce4bhnh2rcd13ifvqgug","pricing_plan_id":"cebpf4jnsgd1na2vs0mg"},{"bike_id":"3521f346-fcb0-4db7-829f-cc4a35204be1","system_id":"levelo_inurba_marseille","lat":43.30329,"lon":5.40429,"is_reserved":false,"is_disabled":false,"rental_uris":{"android":"levelo://app?vid=3521f346-fcb0-4db7-829f-cc4a35204be1","ios":"levelo://app?vid=3521f346-fcb0-4db7-829f-cc4a35204be1"},"vehicle_type_id":"4","last_reported":1752790259,"current_range_meters":7200,"station_id":"ce4bh012rcd13ifvqd10","pricing_plan_id":"cebpf4jnsgd1na2vs0mg"},{"bike_id":"292c6c89-c7f8-4da9-beff-c7501f46c646","system_id":"levelo_inurba_marseille","lat":43.3024,"lon":5.40048,"is_reserved":false,"is_disabled":false,"rental_uris":{"android":"levelo://app?vid=292c6c89-c7f8-4da9-beff-c7501f46c646","ios":"levelo://app?vid=292c6c89-c7f8-4da9-beff-c7501f46c646"},"vehicle_type_id":"4","last_reported":1752790259,"current_range_meters":7200,"station_id":"ce4bgvh2rcd13ifvqcs0","pricing_plan_id":"cebpf4jnsgd1na2vs0mg"},{"bike_id":"83b3c9b8-d66e-43ea-82d7-ef2eeaff7945","system_id":"levelo_inurba_marseille","lat":43.267598,"lon":5.39435,"is_reserved":false,"is_disabled":true,"rental_uris":{"android":"levelo://app?vid=83b3c9b8-d66e-43ea-82d7-ef2eeaff7945","ios":"levelo://app?vid=83b3c9b8-d66e-43ea-82d7-ef2eeaff7945"},"vehicle_type_id":"4","last_reported":1752790259,"current_range_meters":7200,"station_id":"ce4bhh12rcd13ifvqfg0","pricing_plan_id":"cebpf4jnsgd1na2vs0mg"},{"bike_id":"fc5b9b6c-9561-4f28-90b7-d84e9b4d4f42","system_id":"levelo_inurba_marseille","lat":43.258227,"lon":5.394393,"is_reserved":false,"is_disabled":false,"rental_uris":{"android":"levelo://app?vid=fc5b9b6c-9561-4f28-90b7-d84e9b4d4f42","ios":"levelo://app?vid=fc5b9b6c-9561-4f28-90b7-d84e9b4d4f42"},"vehicle_type_id":"4","last_reported":1752790259,"current_range_meters":7200,"station_id":"ce4bhip2rcd13ifvqft0","pricing_plan_id":"cebpf4jnsgd1na2vs0mg"},{"bike_id":"1b36c4b0-e16c-425e-94a7-7f55f3cd80fe","system_id":"levelo_inurba_marseille","lat":43.30142,"lon":5.38801,"is_reserved":false,"is_disabled":false,"rental_uris":{"android":"levelo://app?vid=1b36c4b0-e16c-425e-94a7-7f55f3cd80fe","ios":"levelo://app?vid=1b36c4b0-e16c-425e-94a7-7f55f3cd80fe"},"vehicle_type_id":"4","last_reported":1752790259,"current_range_meters":8000,"station_id":"ce4bghh2rcd13ifvqb60","pricing_plan_id":"cebpf4jnsgd1na2vs0mg"},{"bike_id":"2e2feeb0-c637-4cd2-9b07-37eb238c845e","system_id":"levelo_inurba_marseille","lat":43.30145,"lon":5.39847,"is_reserved":false,"is_disabled":false,"rental_uris":{"android":"levelo://app?vid=2e2feeb0-c637-4cd2-9b07-37eb238c845e","ios":"levelo://app?vid=2e2feeb0-c637-4cd2-9b07-37eb238c845e"},"vehicle_type_id":"4","last_reported":1752790259,"current_range_meters":8000,"station_id":"ce4bh0h2rcd13ifvqd40","pricing_plan_id":"cebpf4jnsgd1na2vs0mg"},{"bike_id":"5bb93964-b29f-4fc5-924e-cd4d332b8842","system_id":"levelo_inurba_marseille","lat":43.29538,"lon":5.38535,"is_reserved":false,"is_disabled":false,"rental_uris":{"android":"levelo://app?vid=5bb93964-b29f-4fc5-924e-cd4d332b8842","ios":"levelo://app?vid=5bb93964-b29f-4fc5-924e-cd4d332b8842"},"vehicle_type_id":"4","last_reported":1752790259,"current_range_meters":8400,"station_id":"ce4bgih2rcd13ifvqba0","pricing_plan_id":"cebpf4jnsgd1na2vs0mg"},{"bike_id":"94b69e40-3760-41cd-8465-f1e4ad4bb7be","system_id":"levelo_inurba_marseille","lat":43.31384,"lon":5.36704,"is_reserved":false,"is_disabled":true,"rental_uris":{"android":"levelo://app?vid=94b69e40-3760-41cd-8465-f1e4ad4bb7be","ios":"levelo://app?vid=94b69e40-3760-41cd-8465-f1e4ad4bb7be"},"vehicle_type_id":"4","last_reported":1752790259,"current_range_meters":8400,"station_id":"","pricing_plan_id":"cebpf4jnsgd1na2vs0mg"},{"bike_id":"a4fd652b-34f8-4c68-a6e6-032a5cc5e418","system_id":"levelo_inurba_marseille","lat":43.31234,"lon":5.36865,"is_reserved":false,"is_disabled":true,"rental_uris":{"android":"levelo://app?vid=a4fd652b-34f8-4c68-a6e6-032a5cc5e418","ios":"levelo://app?vid=a4fd652b-34f8-4c68-a6e6-032a5cc5e418"},"vehicle_type_id":"4","last_reported":1752790259,"current_range_meters":8400,"station_id":"ce4bgl92rcd13ifvqbq0","pricing_plan_id":"cebpf4jnsgd1na2vs0mg"},{"bike_id":"08c79c67-0896-42eb-a04e-b313f1add29f","system_id":"levelo_inurba_marseille","lat":43.30594,"lon":5.39358,"is_reserved":false,"is_disabled":false,"rental_uris":{"android":"levelo://app?vid=08c79c67-0896-42eb-a04e-b313f1add29f","ios":"levelo://app?vid=08c79c67-0896-42eb-a04e-b313f1add29f"},"vehicle_type_id":"4","last_reported":1752790259,"current_range_meters":8400,"station_id":"ce4bh0p2rcd13ifvqd80","pricing_plan_id":"cebpf4jnsgd1na2vs0mg"},{"bike_id":"a3890b5c-d55d-476c-9ccd-d1c1ae774da8","system_id":"levelo_inurba_marseille","lat":43.2804,"lon":5.36938,"is_reserved":false,"is_disabled":false,"rental_uris":{"android":"levelo://app?vid=a3890b5c-d55d-476c-9ccd-d1c1ae774da8","ios":"levelo://app?vid=a3890b5c-d55d-476c-9ccd-d1c1ae774da8"},"vehicle_type_id":"4","last_reported":1752790259,"current_range_meters":8400,"station_id":"ce4bha12rcd13ifvqef0","pricing_plan_id":"cebpf4jnsgd1na2vs0mg"},{"bike_id":"09c5b9c5-b5f7-40b8-b50b-8886dbc6f8de","system_id":"levelo_inurba_marseille","lat":43.25111,"lon":5.40335,"is_reserved":false,"is_disabled":false,"rental_uris":{"android":"levelo://app?vid=09c5b9c5-b5f7-40b8-b50b-8886dbc6f8de","ios":"levelo://app?vid=09c5b9c5-b5f7-40b8-b50b-8886dbc6f8de"},"vehicle_type_id":"4","last_reported":1752790259,"current_range_meters":8400,"station_id":"ce4bhlh2rcd13ifvqgig","pricing_plan_id":"cebpf4jnsgd1na2vs0mg"},{"bike_id":"b2b6320d-f5e9-44e1-8562-aff4f09c6da1","system_id":"levelo_inurba_marseille","lat":43.29027,"lon":5.3999,"is_reserved":false,"is_disabled":false,"rental_uris":{"android":"levelo://app?vid=b2b6320d-f5e9-44e1-8562-aff4f09c6da1","ios":"levelo://app?vid=b2b6320d-f5e9-44e1-8562-aff4f09c6da1"},"vehicle_type_id":"4","last_reported":1752790259,"current_range_meters":8800,"station_id":"ce4bh392rcd13ifvqdm0","pricing_plan_id":"cebpf4jnsgd1na2vs0mg"},{"bike_id":"add7a190-c46a-4086-ac42-9737b9e1575f","system_id":"levelo_inurba_marseille","lat":43.32481,"lon":5.36564,"is_reserved":false,"is_disabled":false,"rental_uris":{"android":"levelo://app?vid=add7a190-c46a-4086-ac42-9737b9e1575f","ios":"levelo://app?vid=add7a190-c46a-4086-ac42-9737b9e1575f"},"vehicle_type_id":"4","last_reported":1752790259,"current_range_meters":8800,"station_id":"ce4bhs12rcd13ifvqhvg","pricing_plan_id":"cebpf4jnsgd1na2vs0mg"},{"bike_id":"a8828ca8-fdac-48cd-8e10-9e410175fdf5","system_id":"levelo_inurba_marseille","lat":43.28414,"lon":5.37504,"is_reserved":false,"is_disabled":false,"rental_uris":{"android":"levelo://app?vid=a8828ca8-fdac-48cd-8e10-9e410175fdf5","ios":"levelo://app?vid=a8828ca8-fdac-48cd-8e10-9e410175fdf5"},"vehicle_type_id":"4","last_reported":1752790259,"current_range_meters":8800,"station_id":"ce4bh412rcd13ifvqds0","pricing_plan_id":"cebpf4jnsgd1na2vs0mg"},{"bike_id":"c672974d-2bc0-42d9-bc24-46ac20f23154","system_id":"levelo_inurba_marseille","lat":43.24168,"lon":5.36396,"is_reserved":false,"is_disabled":false,"rental_uris":{"android":"levelo://app?vid=c672974d-2bc0-42d9-bc24-46ac20f23154","ios":"levelo://app?vid=c672974d-2bc0-42d9-bc24-46ac20f23154"},"vehicle_type_id":"4","last_reported":1752790259,"current_range_meters":8800,"station_id":"cpo36qri1sfpv3e86is0","pricing_plan_id":"cebpf4jnsgd1na2vs0mg"},{"bike_id":"4c6b39a9-12f1-4ea7-afd0-6f824d365cf5","system_id":"levelo_inurba_marseille","lat":43.28575,"lon":5.39487,"is_reserved":false,"is_disabled":false,"rental_uris":{"android":"levelo://app?vid=4c6b39a9-12f1-4ea7-afd0-6f824d365cf5","ios":"levelo://app?vid=4c6b39a9-12f1-4ea7-afd0-6f824d365cf5"},"vehicle_type_id":"4","last_reported":1752790259,"current_range_meters":8800,"station_id":"ce4bh292rcd13ifvqdg0","pricing_plan_id":"cebpf4jnsgd1na2vs0mg"},{"bike_id":"0577b7bf-ca29-428e-8abe-4be2a0462ad4","system_id":"levelo_inurba_marseille","lat":43.24168,"lon":5.36391,"is_reserved":false,"is_disabled":false,"rental_uris":{"android":"levelo://app?vid=0577b7bf-ca29-428e-8abe-4be2a0462ad4","ios":"levelo://app?vid=0577b7bf-ca29-428e-8abe-4be2a0462ad4"},"vehicle_type_id":"4","last_reported":1752790259,"current_range_meters":8800,"station_id":"cpo36qri1sfpv3e86is0","pricing_plan_id":"cebpf4jnsgd1na2vs0mg"},{"bike_id":"284e77d9-ff07-46f1-8f76-ffd17c0d0ea3","system_id":"levelo_inurba_marseille","lat":43.28664,"lon":5.36354,"is_reserved":false,"is_disabled":false,"rental_uris":{"android":"levelo://app?vid=284e77d9-ff07-46f1-8f76-ffd17c0d0ea3","ios":"levelo://app?vid=284e77d9-ff07-46f1-8f76-ffd17c0d0ea3"},"vehicle_type_id":"4","last_reported":1752790259,"current_range_meters":9200,"station_id":"ce4bhah2rcd13ifvqej0","pricing_plan_id":"cebpf4jnsgd1na2vs0mg"},{"bike_id":"14f6152e-d5b3-447f-bf43-14f4a5a408af","system_id":"levelo_inurba_marseille","lat":43.28716,"lon":5.37936,"is_reserved":false,"is_disabled":false,"rental_uris":{"android":"levelo://app?vid=14f6152e-d5b3-447f-bf43-14f4a5a408af","ios":"levelo://app?vid=14f6152e-d5b3-447f-bf43-14f4a5a408af"},"vehicle_type_id":"4","last_reported":1752790259,"current_range_meters":9200,"station_id":"ce4bh9p2rcd13ifvqec0","pricing_plan_id":"cebpf4jnsgd1na2vs0mg"},{"bike_id":"8344d023-8d62-44d6-a5ae-7546f076724b","system_id":"levelo_inurba_marseille","lat":43.305141,"lon":5.384476,"is_reserved":false,"is_disabled":false,"rental_uris":{"android":"levelo://app?vid=8344d023-8d62-44d6-a5ae-7546f076724b","ios":"levelo://app?vid=8344d023-8d62-44d6-a5ae-7546f076724b"},"vehicle_type_id":"4","last_reported":1752790259,"current_range_meters":9200,"station_id":"ce4bgg92rcd13ifvqb30","pricing_plan_id":"cebpf4jnsgd1na2vs0mg"},{"bike_id":"57239988-9161-49ce-a0a2-4581baf1b159","system_id":"levelo_inurba_marseille","lat":43.33769,"lon":5.37429,"is_reserved":false,"is_disabled":false,"rental_uris":{"android":"levelo://app?vid=57239988-9161-49ce-a0a2-4581baf1b159","ios":"levelo://app?vid=57239988-9161-49ce-a0a2-4581baf1b159"},"vehicle_type_id":"4","last_reported":1752790259,"current_range_meters":9200,"station_id":"","pricing_plan_id":"cebpf4jnsgd1na2vs0mg"},{"bike_id":"6b3b8af8-50ca-406a-9303-eb2e95f3c093","system_id":"levelo_inurba_marseille","lat":43.27948,"lon":5.41039,"is_reserved":false,"is_disabled":false,"rental_uris":{"android":"levelo://app?vid=6b3b8af8-50ca-406a-9303-eb2e95f3c093","ios":"levelo://app?vid=6b3b8af8-50ca-406a-9303-eb2e95f3c093"},"vehicle_type_id":"4","last_reported":1752790259,"current_range_meters":9200,"station_id":"ce4bhnp2rcd13ifvqh0g","pricing_plan_id":"cebpf4jnsgd1na2vs0mg"},{"bike_id":"cdcc7947-bcab-4d20-99f1-e61148bf3839","system_id":"levelo_inurba_marseille","lat":43.29535,"lon":5.39023,"is_reserved":false,"is_disabled":false,"rental_uris":{"android":"levelo://app?vid=cdcc7947-bcab-4d20-99f1-e61148bf3839","ios":"levelo://app?vid=cdcc7947-bcab-4d20-99f1-e61148bf3839"},"vehicle_type_id":"4","last_reported":1752790259,"current_range_meters":9200,"station_id":"ce4bh3p2rcd13ifvqdp0","pricing_plan_id":"cebpf4jnsgd1na2vs0mg"},{"bike_id":"81f88721-00d0-431c-83bf-446e11578408","system_id":"levelo_inurba_marseille","lat":43.225044,"lon":5.347758,"is_reserved":false,"is_disabled":false,"rental_uris":{"android":"levelo://app?vid=81f88721-00d0-431c-83bf-446e11578408","ios":"levelo://app?vid=81f88721-00d0-431c-83bf-446e11578408"},"vehicle_type_id":"4","last_reported":1752790259,"current_range_meters":9200,"station_id":"st_cvj5dfep6f1abm77gieg","pricing_plan_id":"cebpf4jnsgd1na2vs0mg"},{"bike_id":"f1db4996-5cb9-43ea-a530-912650134788","system_id":"levelo_inurba_marseille","lat":43.290383,"lon":5.399664,"is_reserved":false,"is_disabled":false,"rental_uris":{"android":"levelo://app?vid=f1db4996-5cb9-43ea-a530-912650134788","ios":"levelo://app?vid=f1db4996-5cb9-43ea-a530-912650134788"},"vehicle_type_id":"4","last_reported":1752790259,"current_range_meters":9600,"station_id":"ce4bh392rcd13ifvqdm0","pricing_plan_id":"cebpf4jnsgd1na2vs0mg"},{"bike_id":"27ab316c-d8f2-4ef7-8fc3-008d44820088","system_id":"levelo_inurba_marseille","lat":43.29003,"lon":5.35609,"is_reserved":false,"is_disabled":false,"rental_uris":{"android":"levelo://app?vid=27ab316c-d8f2-4ef7-8fc3-008d44820088","ios":"levelo://app?vid=27ab316c-d8f2-4ef7-8fc3-008d44820088"},"vehicle_type_id":"4","last_reported":1752790259,"current_range_meters":9200,"station_id":"ce4bhb92rcd13ifvqen0","pricing_plan_id":"cebpf4jnsgd1na2vs0mg"},{"bike_id":"139acd6c-d496-466b-a201-601abf871911","system_id":"levelo_inurba_marseille","lat":43.285706,"lon":5.394939,"is_reserved":false,"is_disabled":false,"rental_uris":{"android":"levelo://app?vid=139acd6c-d496-466b-a201-601abf871911","ios":"levelo://app?vid=139acd6c-d496-466b-a201-601abf871911"},"vehicle_type_id":"4","last_reported":1752790259,"current_range_meters":9600,"station_id":"ce4bh292rcd13ifvqdg0","pricing_plan_id":"cebpf4jnsgd1na2vs0mg"},{"bike_id":"06fde9c5-7c98-46c8-b08a-0f1168f34b3f","system_id":"levelo_inurba_marseille","lat":43.279766,"lon":5.387455,"is_reserved":false,"is_disabled":false,"rental_uris":{"android":"levelo://app?vid=06fde9c5-7c98-46c8-b08a-0f1168f34b3f","ios":"levelo://app?vid=06fde9c5-7c98-46c8-b08a-0f1168f34b3f"},"vehicle_type_id":"4","last_reported":1752790259,"current_range_meters":9600,"station_id":"ce4bhg12rcd13ifvqf80","pricing_plan_id":"cebpf4jnsgd1na2vs0mg"},{"bike_id":"4d45f1e9-194f-47b9-b021-5eab9e1c0b12","system_id":"levelo_inurba_marseille","lat":43.31208,"lon":5.36888,"is_reserved":false,"is_disabled":true,"rental_uris":{"android":"levelo://app?vid=4d45f1e9-194f-47b9-b021-5eab9e1c0b12","ios":"levelo://app?vid=4d45f1e9-194f-47b9-b021-5eab9e1c0b12"},"vehicle_type_id":"4","last_reported":1752790259,"current_range_meters":9600,"station_id":"ce4bgl92rcd13ifvqbq0","pricing_plan_id":"cebpf4jnsgd1na2vs0mg"},{"bike_id":"492a419e-7fc3-43b7-b688-aee4d064f5a3","system_id":"levelo_inurba_marseille","lat":43.29296,"lon":5.37183,"is_reserved":false,"is_disabled":true,"rental_uris":{"android":"levelo://app?vid=492a419e-7fc3-43b7-b688-aee4d064f5a3","ios":"levelo://app?vid=492a419e-7fc3-43b7-b688-aee4d064f5a3"},"vehicle_type_id":"4","last_reported":1752790259,"current_range_meters":9600,"station_id":"ce4bgh92rcd13ifvqb40","pricing_plan_id":"cebpf4jnsgd1na2vs0mg"},{"bike_id":"0b4aeec2-26f8-4cc4-b7a9-87e25034d77d","system_id":"levelo_inurba_marseille","lat":43.30375,"lon":5.42487,"is_reserved":false,"is_disabled":true,"rental_uris":{"android":"levelo://app?vid=0b4aeec2-26f8-4cc4-b7a9-87e25034d77d","ios":"levelo://app?vid=0b4aeec2-26f8-4cc4-b7a9-87e25034d77d"},"vehicle_type_id":"4","last_reported":1752790259,"current_range_meters":9600,"station_id":"ce4bhoh2rcd13ifvqh6g","pricing_plan_id":"cebpf4jnsgd1na2vs0mg"},{"bike_id":"ef3e594c-d5c7-4a2e-8037-5ad49443be06","system_id":"levelo_inurba_marseille","lat":43.2782,"lon":5.39213,"is_reserved":false,"is_disabled":false,"rental_uris":{"android":"levelo://app?vid=ef3e594c-d5c7-4a2e-8037-5ad49443be06","ios":"levelo://app?vid=ef3e594c-d5c7-4a2e-8037-5ad49443be06"},"vehicle_type_id":"4","last_reported":1752790259,"current_range_meters":9600,"station_id":"ce4bhjp2rcd13ifvqga0","pricing_plan_id":"cebpf4jnsgd1na2vs0mg"},{"bike_id":"90f54ea4-e306-4792-9966-1cc1bc24176c","system_id":"levelo_inurba_marseille","lat":43.26505,"lon":5.3955,"is_reserved":false,"is_disabled":true,"rental_uris":{"android":"levelo://app?vid=90f54ea4-e306-4792-9966-1cc1bc24176c","ios":"levelo://app?vid=90f54ea4-e306-4792-9966-1cc1bc24176c"},"vehicle_type_id":"4","last_reported":1752790259,"current_range_meters":9600,"station_id":"ce4bhi12rcd13ifvqfq0","pricing_plan_id":"cebpf4jnsgd1na2vs0mg"},{"bike_id":"f917674a-db6e-41d3-a9b6-f8499e0e194f","system_id":"levelo_inurba_marseille","lat":43.2925,"lon":5.38435,"is_reserved":false,"is_disabled":true,"rental_uris":{"android":"levelo://app?vid=f917674a-db6e-41d3-a9b6-f8499e0e194f","ios":"levelo://app?vid=f917674a-db6e-41d3-a9b6-f8499e0e194f"},"vehicle_type_id":"4","last_reported":1752790259,"current_range_meters":10000,"station_id":"ce4bh692rcd13ifvqea0","pricing_plan_id":"cebpf4jnsgd1na2vs0mg"},{"bike_id":"555bc53e-5286-4fb6-9154-af42b3fd9792","system_id":"levelo_inurba_marseille","lat":43.30076,"lon":5.372792,"is_reserved":false,"is_disabled":false,"rental_uris":{"android":"levelo://app?vid=555bc53e-5286-4fb6-9154-af42b3fd9792","ios":"levelo://app?vid=555bc53e-5286-4fb6-9154-af42b3fd9792"},"vehicle_type_id":"4","last_reported":1752790259,"current_range_meters":10000,"station_id":"","pricing_plan_id":"cebpf4jnsgd1na2vs0mg"},{"bike_id":"9b328d6e-289f-4d9c-a8c9-ee17aeee3035","system_id":"levelo_inurba_marseille","lat":43.29511,"lon":5.38548,"is_reserved":false,"is_disabled":false,"rental_uris":{"android":"levelo://app?vid=9b328d6e-289f-4d9c-a8c9-ee17aeee3035","ios":"levelo://app?vid=9b328d6e-289f-4d9c-a8c9-ee17aeee3035"},"vehicle_type_id":"4","last_reported":1752790259,"current_range_meters":10000,"station_id":"ce4bgih2rcd13ifvqba0","pricing_plan_id":"cebpf4jnsgd1na2vs0mg"},{"bike_id":"f65c0a8a-f21a-4850-808e-4af6bed1b93c","system_id":"levelo_inurba_marseille","lat":43.29969,"lon":5.38474,"is_reserved":false,"is_disabled":false,"rental_uris":{"android":"levelo://app?vid=f65c0a8a-f21a-4850-808e-4af6bed1b93c","ios":"levelo://app?vid=f65c0a8a-f21a-4850-808e-4af6bed1b93c"},"vehicle_type_id":"4","last_reported":1752790259,"current_range_meters":10000,"station_id":"ce4bgj92rcd13ifvqbd0","pricing_plan_id":"cebpf4jnsgd1na2vs0mg"},{"bike_id":"b0423b58-8a05-4825-88a0-a6ce8e76e11a","system_id":"levelo_inurba_marseille","lat":43.299685,"lon":5.384997,"is_reserved":false,"is_disabled":false,"rental_uris":{"android":"levelo://app?vid=b0423b58-8a05-4825-88a0-a6ce8e76e11a","ios":"levelo://app?vid=b0423b58-8a05-4825-88a0-a6ce8e76e11a"},"vehicle_type_id":"4","last_reported":1752790259,"current_range_meters":10000,"station_id":"ce4bgj92rcd13ifvqbd0","pricing_plan_id":"cebpf4jnsgd1na2vs0mg"},{"bike_id":"21cab301-3bfd-45f9-a560-95a5f4143113","system_id":"levelo_inurba_marseille","lat":43.3136,"lon":5.38493,"is_reserved":false,"is_disabled":false,"rental_uris":{"android":"levelo://app?vid=21cab301-3bfd-45f9-a560-95a5f4143113","ios":"levelo://app?vid=21cab301-3bfd-45f9-a560-95a5f4143113"},"vehicle_type_id":"4","last_reported":1752790259,"current_range_meters":10000,"station_id":"ce4bgt92rcd13ifvqcf0","pricing_plan_id":"cebpf4jnsgd1na2vs0mg"},{"bike_id":"72b33fc0-e9b3-40c8-bc7e-f852a1a39948","system_id":"levelo_inurba_marseille","lat":43.269811,"lon":5.387335,"is_reserved":false,"is_disabled":false,"rental_uris":{"android":"levelo://app?vid=72b33fc0-e9b3-40c8-bc7e-f852a1a39948","ios":"levelo://app?vid=72b33fc0-e9b3-40c8-bc7e-f852a1a39948"},"vehicle_type_id":"4","last_reported":1752790259,"current_range_meters":10000,"station_id":"ce501612rcd8frsf0b60","pricing_plan_id":"cebpf4jnsgd1na2vs0mg"},{"bike_id":"e5a43363-be62-4c1a-9e28-f90b5b50255d","system_id":"levelo_inurba_marseille","lat":43.245447,"lon":5.395209,"is_reserved":false,"is_disabled":false,"rental_uris":{"android":"levelo://app?vid=e5a43363-be62-4c1a-9e28-f90b5b50255d","ios":"levelo://app?vid=e5a43363-be62-4c1a-9e28-f90b5b50255d"},"vehicle_type_id":"4","last_reported":1752790259,"current_range_meters":10000,"station_id":"ce4bhlp2rcd13ifvqgjg","pricing_plan_id":"cebpf4jnsgd1na2vs0mg"},{"bike_id":"dfef3fa2-f761-4b92-8905-7e3cb4d78849","system_id":"levelo_inurba_marseille","lat":43.29249,"lon":5.40905,"is_reserved":false,"is_disabled":false,"rental_uris":{"android":"levelo://app?vid=dfef3fa2-f761-4b92-8905-7e3cb4d78849","ios":"levelo://app?vid=dfef3fa2-f761-4b92-8905-7e3cb4d78849"},"vehicle_type_id":"4","last_reported":1752790259,"current_range_meters":10800,"station_id":"ce4bh192rcd13ifvqdc0","pricing_plan_id":"cebpf4jnsgd1na2vs0mg"},{"bike_id":"e635f1a4-5039-413e-ba7b-f9965a1793b0","system_id":"levelo_inurba_marseille","lat":43.30599,"lon":5.37223,"is_reserved":false,"is_disabled":false,"rental_uris":{"android":"levelo://app?vid=e635f1a4-5039-413e-ba7b-f9965a1793b0","ios":"levelo://app?vid=e635f1a4-5039-413e-ba7b-f9965a1793b0"},"vehicle_type_id":"4","last_reported":1752790259,"current_range_meters":10800,"station_id":"ce4bgqh2rcd13ifvqc4g","pricing_plan_id":"cebpf4jnsgd1na2vs0mg"},{"bike_id":"8e6e1ca6-9684-4865-bcc2-4f4c40c74eff","system_id":"levelo_inurba_marseille","lat":43.29628,"lon":5.38747,"is_reserved":false,"is_disabled":false,"rental_uris":{"android":"levelo://app?vid=8e6e1ca6-9684-4865-bcc2-4f4c40c74eff","ios":"levelo://app?vid=8e6e1ca6-9684-4865-bcc2-4f4c40c74eff"},"vehicle_type_id":"4","last_reported":1752790259,"current_range_meters":10800,"station_id":"","pricing_plan_id":"cebpf4jnsgd1na2vs0mg"},{"bike_id":"be169f80-61ff-43b6-88e0-d778068efbe9","system_id":"levelo_inurba_marseille","lat":43.29191,"lon":5.39312,"is_reserved":false,"is_disabled":false,"rental_uris":{"android":"levelo://app?vid=be169f80-61ff-43b6-88e0-d778068efbe9","ios":"levelo://app?vid=be169f80-61ff-43b6-88e0-d778068efbe9"},"vehicle_type_id":"4","last_reported":1752790259,"current_range_meters":10800,"station_id":"ce4bh192rcd13ifvqdd0","pricing_plan_id":"cebpf4jnsgd1na2vs0mg"},{"bike_id":"2ba78f0b-5701-4f6f-af12-f47ff5f026e7","system_id":"levelo_inurba_marseille","lat":43.31176,"lon":5.38729,"is_reserved":false,"is_disabled":false,"rental_uris":{"android":"levelo://app?vid=2ba78f0b-5701-4f6f-af12-f47ff5f026e7","ios":"levelo://app?vid=2ba78f0b-5701-4f6f-af12-f47ff5f026e7"},"vehicle_type_id":"4","last_reported":1752790259,"current_range_meters":10800,"station_id":"ce4bgv12rcd13ifvqcp0","pricing_plan_id":"cebpf4jnsgd1na2vs0mg"},{"bike_id":"a10e333c-b401-47c7-8f7e-ecea5133b020","system_id":"levelo_inurba_marseille","lat":43.28069,"lon":5.39666,"is_reserved":false,"is_disabled":false,"rental_uris":{"android":"levelo://app?vid=a10e333c-b401-47c7-8f7e-ecea5133b020","ios":"levelo://app?vid=a10e333c-b401-47c7-8f7e-ecea5133b020"},"vehicle_type_id":"4","last_reported":1752790259,"current_range_meters":10800,"station_id":"ce4bho12rcd13ifvqh2g","pricing_plan_id":"cebpf4jnsgd1na2vs0mg"},{"bike_id":"8e43c8f7-3379-4524-b224-d1921a730973","system_id":"levelo_inurba_marseille","lat":43.29598,"lon":5.38094,"is_reserved":false,"is_disabled":false,"rental_uris":{"android":"levelo://app?vid=8e43c8f7-3379-4524-b224-d1921a730973","ios":"levelo://app?vid=8e43c8f7-3379-4524-b224-d1921a730973"},"vehicle_type_id":"4","last_reported":1752790259,"current_range_meters":10800,"station_id":"ce4bgl12rcd13ifvqbo0","pricing_plan_id":"cebpf4jnsgd1na2vs0mg"},{"bike_id":"c418f18c-5c6b-4e90-98fc-7f12db6e1e51","system_id":"levelo_inurba_marseille","lat":43.27919,"lon":5.39578,"is_reserved":false,"is_disabled":false,"rental_uris":{"android":"levelo://app?vid=c418f18c-5c6b-4e90-98fc-7f12db6e1e51","ios":"levelo://app?vid=c418f18c-5c6b-4e90-98fc-7f12db6e1e51"},"vehicle_type_id":"4","last_reported":1752790259,"current_range_meters":10800,"station_id":"ce4bhf92rcd13ifvqf40","pricing_plan_id":"cebpf4jnsgd1na2vs0mg"},{"bike_id":"b9116b35-96a7-4c82-9bbf-53c9f5bad46f","system_id":"levelo_inurba_marseille","lat":43.27937,"lon":5.38713,"is_reserved":false,"is_disabled":false,"rental_uris":{"android":"levelo://app?vid=b9116b35-96a7-4c82-9bbf-53c9f5bad46f","ios":"levelo://app?vid=b9116b35-96a7-4c82-9bbf-53c9f5bad46f"},"vehicle_type_id":"4","last_reported":1752790259,"current_range_meters":10800,"station_id":"ce4bhg12rcd13ifvqf80","pricing_plan_id":"cebpf4jnsgd1na2vs0mg"},{"bike_id":"03230b00-f9ac-45ae-ba31-f81c4f4c21cc","system_id":"levelo_inurba_marseille","lat":43.31527,"lon":5.38037,"is_reserved":false,"is_disabled":false,"rental_uris":{"android":"levelo://app?vid=03230b00-f9ac-45ae-ba31-f81c4f4c21cc","ios":"levelo://app?vid=03230b00-f9ac-45ae-ba31-f81c4f4c21cc"},"vehicle_type_id":"4","last_reported":1752790259,"current_range_meters":10800,"station_id":"ce4bhsp2rcd13ifvqi50","pricing_plan_id":"cebpf4jnsgd1na2vs0mg"},{"bike_id":"f60ad352-b67b-45ab-b596-432efa0c9111","system_id":"levelo_inurba_marseille","lat":43.270472,"lon":5.423167,"is_reserved":false,"is_disabled":false,"rental_uris":{"android":"levelo://app?vid=f60ad352-b67b-45ab-b596-432efa0c9111","ios":"levelo://app?vid=f60ad352-b67b-45ab-b596-432efa0c9111"},"vehicle_type_id":"4","last_reported":1752790259,"current_range_meters":10800,"station_id":"ce4bhk92rcd13ifvqgb0","pricing_plan_id":"cebpf4jnsgd1na2vs0mg"},{"bike_id":"4aff3131-c2f0-49aa-9f71-6988eb132719","system_id":"levelo_inurba_marseille","lat":43.29419,"lon":5.386285,"is_reserved":false,"is_disabled":true,"rental_uris":{"android":"levelo://app?vid=4aff3131-c2f0-49aa-9f71-6988eb132719","ios":"levelo://app?vid=4aff3131-c2f0-49aa-9f71-6988eb132719"},"vehicle_type_id":"4","last_reported":1752790259,"current_range_meters":11200,"station_id":"ce4bh2h2rcd13ifvqdh0","pricing_plan_id":"cebpf4jnsgd1na2vs0mg"},{"bike_id":"b2a298e9-19e9-4d30-9a09-a4722cdf6a7b","system_id":"levelo_inurba_marseille","lat":43.21179,"lon":5.35096,"is_reserved":false,"is_disabled":false,"rental_uris":{"android":"levelo://app?vid=b2a298e9-19e9-4d30-9a09-a4722cdf6a7b","ios":"levelo://app?vid=b2a298e9-19e9-4d30-9a09-a4722cdf6a7b"},"vehicle_type_id":"4","last_reported":1752790259,"current_range_meters":11200,"station_id":"st_cvj6sg6p6f1abm77japg","pricing_plan_id":"cebpf4jnsgd1na2vs0mg"},{"bike_id":"04d15a50-cb94-495c-969c-c09473f1fcda","system_id":"levelo_inurba_marseille","lat":43.296223,"lon":5.377025,"is_reserved":false,"is_disabled":false,"rental_uris":{"android":"levelo://app?vid=04d15a50-cb94-495c-969c-c09473f1fcda","ios":"levelo://app?vid=04d15a50-cb94-495c-969c-c09473f1fcda"},"vehicle_type_id":"4","last_reported":1752790259,"current_range_meters":11200,"station_id":"","pricing_plan_id":"cebpf4jnsgd1na2vs0mg"},{"bike_id":"54fb1483-75f5-44fc-a17d-23958900fb10","system_id":"levelo_inurba_marseille","lat":43.29034,"lon":5.37568,"is_reserved":false,"is_disabled":false,"rental_uris":{"android":"levelo://app?vid=54fb1483-75f5-44fc-a17d-23958900fb10","ios":"levelo://app?vid=54fb1483-75f5-44fc-a17d-23958900fb10"},"vehicle_type_id":"4","last_reported":1752790259,"current_range_meters":11200,"station_id":"ce4bh692rcd13ifvqe90","pricing_plan_id":"cebpf4jnsgd1na2vs0mg"},{"bike_id":"3db4a5e5-5d39-40d2-b000-dbde61c191eb","system_id":"levelo_inurba_marseille","lat":43.25727,"lon":5.41109,"is_reserved":false,"is_disabled":false,"rental_uris":{"android":"levelo://app?vid=3db4a5e5-5d39-40d2-b000-dbde61c191eb","ios":"levelo://app?vid=3db4a5e5-5d39-40d2-b000-dbde61c191eb"},"vehicle_type_id":"4","last_reported":1752790259,"current_range_meters":11200,"station_id":"ce4bhkp2rcd13ifvqgd0","pricing_plan_id":"cebpf4jnsgd1na2vs0mg"},{"bike_id":"ced25cef-3827-4a5e-9204-d9f61d1c7f6e","system_id":"levelo_inurba_marseille","lat":43.31327,"lon":5.39688,"is_reserved":false,"is_disabled":false,"rental_uris":{"android":"levelo://app?vid=ced25cef-3827-4a5e-9204-d9f61d1c7f6e","ios":"levelo://app?vid=ced25cef-3827-4a5e-9204-d9f61d1c7f6e"},"vehicle_type_id":"4","last_reported":1752790259,"current_range_meters":11200,"station_id":"ce4bgvp2rcd13ifvqcu0","pricing_plan_id":"cebpf4jnsgd1na2vs0mg"},{"bike_id":"9ff813f5-7ffe-477a-a652-434a34f03c1a","system_id":"levelo_inurba_marseille","lat":43.29246,"lon":5.38438,"is_reserved":false,"is_disabled":true,"rental_uris":{"android":"levelo://app?vid=9ff813f5-7ffe-477a-a652-434a34f03c1a","ios":"levelo://app?vid=9ff813f5-7ffe-477a-a652-434a34f03c1a"},"vehicle_type_id":"4","last_reported":1752790259,"current_range_meters":11200,"station_id":"ce4bh692rcd13ifvqea0","pricing_plan_id":"cebpf4jnsgd1na2vs0mg"},{"bike_id":"28d27c17-e6ca-4cec-aec9-f1f6696b8a12","system_id":"levelo_inurba_marseille","lat":43.29903,"lon":5.43653,"is_reserved":false,"is_disabled":true,"rental_uris":{"android":"levelo://app?vid=28d27c17-e6ca-4cec-aec9-f1f6696b8a12","ios":"levelo://app?vid=28d27c17-e6ca-4cec-aec9-f1f6696b8a12"},"vehicle_type_id":"4","last_reported":1752790259,"current_range_meters":11200,"station_id":"ce4bhpp2rcd13ifvqhfg","pricing_plan_id":"cebpf4jnsgd1na2vs0mg"},{"bike_id":"9a6f95cc-03ff-4bf2-90a5-8e63c80dfcbd","system_id":"levelo_inurba_marseille","lat":43.28438,"lon":5.39195,"is_reserved":false,"is_disabled":false,"rental_uris":{"android":"levelo://app?vid=9a6f95cc-03ff-4bf2-90a5-8e63c80dfcbd","ios":"levelo://app?vid=9a6f95cc-03ff-4bf2-90a5-8e63c80dfcbd"},"vehicle_type_id":"4","last_reported":1752790259,"current_range_meters":11200,"station_id":"ce4bhoh2rcd13ifvqh5g","pricing_plan_id":"cebpf4jnsgd1na2vs0mg"},{"bike_id":"994d3dc6-c07e-4859-8dcc-4b858e3792a6","system_id":"levelo_inurba_marseille","lat":43.27898,"lon":5.39586,"is_reserved":false,"is_disabled":false,"rental_uris":{"android":"levelo://app?vid=994d3dc6-c07e-4859-8dcc-4b858e3792a6","ios":"levelo://app?vid=994d3dc6-c07e-4859-8dcc-4b858e3792a6"},"vehicle_type_id":"4","last_reported":1752790259,"current_range_meters":11200,"station_id":"ce4bhf92rcd13ifvqf40","pricing_plan_id":"cebpf4jnsgd1na2vs0mg"},{"bike_id":"3444bdc6-514a-4ba6-9650-f9073305e33d","system_id":"levelo_inurba_marseille","lat":43.29682,"lon":5.3698,"is_reserved":false,"is_disabled":false,"rental_uris":{"android":"levelo://app?vid=3444bdc6-514a-4ba6-9650-f9073305e33d","ios":"levelo://app?vid=3444bdc6-514a-4ba6-9650-f9073305e33d"},"vehicle_type_id":"4","last_reported":1752790259,"current_range_meters":11600,"station_id":"","pricing_plan_id":"cebpf4jnsgd1na2vs0mg"},{"bike_id":"f74faeb5-f80c-4d88-b46a-f795b383b897","system_id":"levelo_inurba_marseille","lat":43.3046,"lon":5.37902,"is_reserved":false,"is_disabled":false,"rental_uris":{"android":"levelo://app?vid=f74faeb5-f80c-4d88-b46a-f795b383b897","ios":"levelo://app?vid=f74faeb5-f80c-4d88-b46a-f795b383b897"},"vehicle_type_id":"4","last_reported":1752790259,"current_range_meters":11600,"station_id":"ce4bgup2rcd13ifvqcn0","pricing_plan_id":"cebpf4jnsgd1na2vs0mg"},{"bike_id":"f4ade1ff-8dea-4dc2-93fb-135de0faf84b","system_id":"levelo_inurba_marseille","lat":43.26575,"lon":5.390103,"is_reserved":false,"is_disabled":false,"rental_uris":{"android":"levelo://app?vid=f4ade1ff-8dea-4dc2-93fb-135de0faf84b","ios":"levelo://app?vid=f4ade1ff-8dea-4dc2-93fb-135de0faf84b"},"vehicle_type_id":"4","last_reported":1752790259,"current_range_meters":11600,"station_id":"ce4bhe12rcd13ifvqf30","pricing_plan_id":"cebpf4jnsgd1na2vs0mg"},{"bike_id":"c7312d9a-d1a5-4a56-a429-049e15d2efd8","system_id":"levelo_inurba_marseille","lat":43.28838,"lon":5.3933,"is_reserved":false,"is_disabled":false,"rental_uris":{"android":"levelo://app?vid=c7312d9a-d1a5-4a56-a429-049e15d2efd8","ios":"levelo://app?vid=c7312d9a-d1a5-4a56-a429-049e15d2efd8"},"vehicle_type_id":"4","last_reported":1752790259,"current_range_meters":11600,"station_id":"ce4bh2p2rcd13ifvqdi0","pricing_plan_id":"cebpf4jnsgd1na2vs0mg"},{"bike_id":"e2f5f645-ea5c-4da4-9144-72d64e572eb1","system_id":"levelo_inurba_marseille","lat":43.29894,"lon":5.43671,"is_reserved":false,"is_disabled":false,"rental_uris":{"android":"levelo://app?vid=e2f5f645-ea5c-4da4-9144-72d64e572eb1","ios":"levelo://app?vid=e2f5f645-ea5c-4da4-9144-72d64e572eb1"},"vehicle_type_id":"4","last_reported":1752790259,"current_range_meters":11600,"station_id":"ce4bhpp2rcd13ifvqhfg","pricing_plan_id":"cebpf4jnsgd1na2vs0mg"},{"bike_id":"e5decb8b-8bf5-44fe-a198-a2033d0cdf4c","system_id":"levelo_inurba_marseille","lat":43.2885,"lon":5.39305,"is_reserved":false,"is_disabled":false,"rental_uris":{"android":"levelo://app?vid=e5decb8b-8bf5-44fe-a198-a2033d0cdf4c","ios":"levelo://app?vid=e5decb8b-8bf5-44fe-a198-a2033d0cdf4c"},"vehicle_type_id":"4","last_reported":1752790259,"current_range_meters":11600,"station_id":"ce4bh2p2rcd13ifvqdi0","pricing_plan_id":"cebpf4jnsgd1na2vs0mg"},{"bike_id":"59961a5c-6008-4288-809d-6658027f5769","system_id":"levelo_inurba_marseille","lat":43.26194,"lon":5.37464,"is_reserved":false,"is_disabled":false,"rental_uris":{"android":"levelo://app?vid=59961a5c-6008-4288-809d-6658027f5769","ios":"levelo://app?vid=59961a5c-6008-4288-809d-6658027f5769"},"vehicle_type_id":"4","last_reported":1752790259,"current_range_meters":11600,"station_id":"ce4bhgp2rcd13ifvqfc0","pricing_plan_id":"cebpf4jnsgd1na2vs0mg"},{"bike_id":"af4b8f22-7207-4213-a7f8-20ada6d043f3","system_id":"levelo_inurba_marseille","lat":43.313718,"lon":5.384865,"is_reserved":false,"is_disabled":false,"rental_uris":{"android":"levelo://app?vid=af4b8f22-7207-4213-a7f8-20ada6d043f3","ios":"levelo://app?vid=af4b8f22-7207-4213-a7f8-20ada6d043f3"},"vehicle_type_id":"4","last_reported":1752790259,"current_range_meters":11600,"station_id":"ce4bgt92rcd13ifvqcf0","pricing_plan_id":"cebpf4jnsgd1na2vs0mg"},{"bike_id":"a2852fd3-dd24-46f5-b66a-ccd79532d606","system_id":"levelo_inurba_marseille","lat":43.281018,"lon":5.378297,"is_reserved":false,"is_disabled":false,"rental_uris":{"android":"levelo://app?vid=a2852fd3-dd24-46f5-b66a-ccd79532d606","ios":"levelo://app?vid=a2852fd3-dd24-46f5-b66a-ccd79532d606"},"vehicle_type_id":"4","last_reported":1752790259,"current_range_meters":11200,"station_id":"ce4bha12rcd13ifvqee0","pricing_plan_id":"cebpf4jnsgd1na2vs0mg"},{"bike_id":"34baa971-4ba1-4fc3-bb92-33e000dd94ac","system_id":"levelo_inurba_marseille","lat":43.30607,"lon":5.39367,"is_reserved":false,"is_disabled":false,"rental_uris":{"android":"levelo://app?vid=34baa971-4ba1-4fc3-bb92-33e000dd94ac","ios":"levelo://app?vid=34baa971-4ba1-4fc3-bb92-33e000dd94ac"},"vehicle_type_id":"4","last_reported":1752790259,"current_range_meters":14800,"station_id":"ce4bh0p2rcd13ifvqd80","pricing_plan_id":"cebpf4jnsgd1na2vs0mg"},{"bike_id":"07f5ae19-0925-43ef-aab4-48ec58bc62b9","system_id":"levelo_inurba_marseille","lat":43.31442,"lon":5.37443,"is_reserved":false,"is_disabled":false,"rental_uris":{"android":"levelo://app?vid=07f5ae19-0925-43ef-aab4-48ec58bc62b9","ios":"levelo://app?vid=07f5ae19-0925-43ef-aab4-48ec58bc62b9"},"vehicle_type_id":"4","last_reported":1752790259,"current_range_meters":11600,"station_id":"","pricing_plan_id":"cebpf4jnsgd1na2vs0mg"},{"bike_id":"5aacfc69-a580-4097-8ded-d228599bc69f","system_id":"levelo_inurba_marseille","lat":43.30913,"lon":5.36849,"is_reserved":false,"is_disabled":false,"rental_uris":{"android":"levelo://app?vid=5aacfc69-a580-4097-8ded-d228599bc69f","ios":"levelo://app?vid=5aacfc69-a580-4097-8ded-d228599bc69f"},"vehicle_type_id":"4","last_reported":1752790259,"current_range_meters":11600,"station_id":"ce4bgn92rcd13ifvqbvg","pricing_plan_id":"cebpf4jnsgd1na2vs0mg"},{"bike_id":"d759638a-cbf9-40e7-8ce3-281cce7df020","system_id":"levelo_inurba_marseille","lat":43.25489,"lon":5.37647,"is_reserved":false,"is_disabled":false,"rental_uris":{"android":"levelo://app?vid=d759638a-cbf9-40e7-8ce3-281cce7df020","ios":"levelo://app?vid=d759638a-cbf9-40e7-8ce3-281cce7df020"},"vehicle_type_id":"4","last_reported":1752790259,"current_range_meters":12000,"station_id":"ce4bhh12rcd13ifvqff0","pricing_plan_id":"cebpf4jnsgd1na2vs0mg"},{"bike_id":"d1e94785-07c9-4567-977b-a1d086ccac8d","system_id":"levelo_inurba_marseille","lat":43.29891,"lon":5.43684,"is_reserved":false,"is_disabled":false,"rental_uris":{"android":"levelo://app?vid=d1e94785-07c9-4567-977b-a1d086ccac8d","ios":"levelo://app?vid=d1e94785-07c9-4567-977b-a1d086ccac8d"},"vehicle_type_id":"4","last_reported":1752790259,"current_range_meters":12400,"station_id":"ce4bhpp2rcd13ifvqhfg","pricing_plan_id":"cebpf4jnsgd1na2vs0mg"},{"bike_id":"06051794-4489-4e66-aac8-9405a0dd0f3e","system_id":"levelo_inurba_marseille","lat":43.29614,"lon":5.4063,"is_reserved":false,"is_disabled":false,"rental_uris":{"android":"levelo://app?vid=06051794-4489-4e66-aac8-9405a0dd0f3e","ios":"levelo://app?vid=06051794-4489-4e66-aac8-9405a0dd0f3e"},"vehicle_type_id":"4","last_reported":1752790259,"current_range_meters":12400,"station_id":"ce4bh0h2rcd13ifvqd60","pricing_plan_id":"cebpf4jnsgd1na2vs0mg"},{"bike_id":"57c10aef-3375-4a77-9864-0c2a1301425c","system_id":"levelo_inurba_marseille","lat":43.26224,"lon":5.40458,"is_reserved":false,"is_disabled":false,"rental_uris":{"android":"levelo://app?vid=57c10aef-3375-4a77-9864-0c2a1301425c","ios":"levelo://app?vid=57c10aef-3375-4a77-9864-0c2a1301425c"},"vehicle_type_id":"4","last_reported":1752790259,"current_range_meters":12400,"station_id":"ce4bhmh2rcd13ifvqgmg","pricing_plan_id":"cebpf4jnsgd1na2vs0mg"},{"bike_id":"337305b7-f818-42b1-b4a1-558f9af39448","system_id":"levelo_inurba_marseille","lat":43.2501,"lon":5.38922,"is_reserved":false,"is_disabled":false,"rental_uris":{"android":"levelo://app?vid=337305b7-f818-42b1-b4a1-558f9af39448","ios":"levelo://app?vid=337305b7-f818-42b1-b4a1-558f9af39448"},"vehicle_type_id":"4","last_reported":1752790259,"current_range_meters":12400,"station_id":"ce4bhgp2rcd13ifvqfd0","pricing_plan_id":"cebpf4jnsgd1na2vs0mg"},{"bike_id":"c07512f5-20de-47cc-9f7a-5bd8928a488f","system_id":"levelo_inurba_marseille","lat":43.31156,"lon":5.38727,"is_reserved":false,"is_disabled":false,"rental_uris":{"android":"levelo://app?vid=c07512f5-20de-47cc-9f7a-5bd8928a488f","ios":"levelo://app?vid=c07512f5-20de-47cc-9f7a-5bd8928a488f"},"vehicle_type_id":"4","last_reported":1752790259,"current_range_meters":12400,"station_id":"ce4bgv12rcd13ifvqcp0","pricing_plan_id":"cebpf4jnsgd1na2vs0mg"},{"bike_id":"3e2535f8-7d7e-418e-8d9a-1404dd8a8196","system_id":"levelo_inurba_marseille","lat":43.2931,"lon":5.37191,"is_reserved":false,"is_disabled":true,"rental_uris":{"android":"levelo://app?vid=3e2535f8-7d7e-418e-8d9a-1404dd8a8196","ios":"levelo://app?vid=3e2535f8-7d7e-418e-8d9a-1404dd8a8196"},"vehicle_type_id":"4","last_reported":1752790259,"current_range_meters":12400,"station_id":"ce4bgh92rcd13ifvqb40","pricing_plan_id":"cebpf4jnsgd1na2vs0mg"},{"bike_id":"78274e74-ab73-4fa7-b1a3-d1a684863996","system_id":"levelo_inurba_marseille","lat":43.22507,"lon":5.34788,"is_reserved":false,"is_disabled":false,"rental_uris":{"android":"levelo://app?vid=78274e74-ab73-4fa7-b1a3-d1a684863996","ios":"levelo://app?vid=78274e74-ab73-4fa7-b1a3-d1a684863996"},"vehicle_type_id":"4","last_reported":1752790259,"current_range_meters":12400,"station_id":"st_cvj5dfep6f1abm77gieg","pricing_plan_id":"cebpf4jnsgd1na2vs0mg"},{"bike_id":"fffad06e-bed8-4e73-ab4a-c4c2e82208b9","system_id":"levelo_inurba_marseille","lat":43.241647,"lon":5.36403,"is_reserved":false,"is_disabled":false,"rental_uris":{"android":"levelo://app?vid=fffad06e-bed8-4e73-ab4a-c4c2e82208b9","ios":"levelo://app?vid=fffad06e-bed8-4e73-ab4a-c4c2e82208b9"},"vehicle_type_id":"4","last_reported":1752790259,"current_range_meters":12400,"station_id":"cpo36qri1sfpv3e86is0","pricing_plan_id":"cebpf4jnsgd1na2vs0mg"},{"bike_id":"b861e845-045e-4bb7-9260-06d3fafca4ef","system_id":"levelo_inurba_marseille","lat":43.2989,"lon":5.43648,"is_reserved":false,"is_disabled":false,"rental_uris":{"android":"levelo://app?vid=b861e845-045e-4bb7-9260-06d3fafca4ef","ios":"levelo://app?vid=b861e845-045e-4bb7-9260-06d3fafca4ef"},"vehicle_type_id":"4","last_reported":1752790259,"current_range_meters":12800,"station_id":"ce4bhpp2rcd13ifvqhfg","pricing_plan_id":"cebpf4jnsgd1na2vs0mg"},{"bike_id":"4ca77f5c-7df8-408a-850e-187aa07c309b","system_id":"levelo_inurba_marseille","lat":43.31682,"lon":5.40472,"is_reserved":false,"is_disabled":false,"rental_uris":{"android":"levelo://app?vid=4ca77f5c-7df8-408a-850e-187aa07c309b","ios":"levelo://app?vid=4ca77f5c-7df8-408a-850e-187aa07c309b"},"vehicle_type_id":"4","last_reported":1752790259,"current_range_meters":12800,"station_id":"ce4bh012rcd13ifvqd00","pricing_plan_id":"cebpf4jnsgd1na2vs0mg"},{"bike_id":"6d70d6d4-7776-4d1e-a307-46e9e54de733","system_id":"levelo_inurba_marseille","lat":43.29572,"lon":5.39961,"is_reserved":false,"is_disabled":true,"rental_uris":{"android":"levelo://app?vid=6d70d6d4-7776-4d1e-a307-46e9e54de733","ios":"levelo://app?vid=6d70d6d4-7776-4d1e-a307-46e9e54de733"},"vehicle_type_id":"4","last_reported":1752790259,"current_range_meters":12800,"station_id":"ce4bh312rcd13ifvqdj0","pricing_plan_id":"cebpf4jnsgd1na2vs0mg"},{"bike_id":"2bb91dff-a0ef-4cad-a357-bea8d920f0b1","system_id":"levelo_inurba_marseille","lat":43.3118,"lon":5.38708,"is_reserved":false,"is_disabled":false,"rental_uris":{"android":"levelo://app?vid=2bb91dff-a0ef-4cad-a357-bea8d920f0b1","ios":"levelo://app?vid=2bb91dff-a0ef-4cad-a357-bea8d920f0b1"},"vehicle_type_id":"4","last_reported":1752790259,"current_range_meters":12800,"station_id":"ce4bgv12rcd13ifvqcp0","pricing_plan_id":"cebpf4jnsgd1na2vs0mg"},{"bike_id":"46ba418d-29e7-40ac-845a-614c86e866b4","system_id":"levelo_inurba_marseille","lat":43.31208,"lon":5.3688,"is_reserved":false,"is_disabled":false,"rental_uris":{"android":"levelo://app?vid=46ba418d-29e7-40ac-845a-614c86e866b4","ios":"levelo://app?vid=46ba418d-29e7-40ac-845a-614c86e866b4"},"vehicle_type_id":"4","last_reported":1752790259,"current_range_meters":12800,"station_id":"ce4bgl92rcd13ifvqbq0","pricing_plan_id":"cebpf4jnsgd1na2vs0mg"},{"bike_id":"0372a349-b2f5-4fc3-9213-b55b9514c770","system_id":"levelo_inurba_marseille","lat":43.30143,"lon":5.398413,"is_reserved":false,"is_disabled":false,"rental_uris":{"android":"levelo://app?vid=0372a349-b2f5-4fc3-9213-b55b9514c770","ios":"levelo://app?vid=0372a349-b2f5-4fc3-9213-b55b9514c770"},"vehicle_type_id":"4","last_reported":1752790259,"current_range_meters":12400,"station_id":"ce4bh0h2rcd13ifvqd40","pricing_plan_id":"cebpf4jnsgd1na2vs0mg"},{"bike_id":"858594fb-5080-41f8-9766-7d10dd18eed7","system_id":"levelo_inurba_marseille","lat":43.28336,"lon":5.38111,"is_reserved":false,"is_disabled":false,"rental_uris":{"android":"levelo://app?vid=858594fb-5080-41f8-9766-7d10dd18eed7","ios":"levelo://app?vid=858594fb-5080-41f8-9766-7d10dd18eed7"},"vehicle_type_id":"4","last_reported":1752790259,"current_range_meters":12800,"station_id":"ce4bh412rcd13ifvqdr0","pricing_plan_id":"cebpf4jnsgd1na2vs0mg"},{"bike_id":"3db96550-a9ec-4132-b46f-c87c5977f477","system_id":"levelo_inurba_marseille","lat":43.29888,"lon":5.39761,"is_reserved":false,"is_disabled":false,"rental_uris":{"android":"levelo://app?vid=3db96550-a9ec-4132-b46f-c87c5977f477","ios":"levelo://app?vid=3db96550-a9ec-4132-b46f-c87c5977f477"},"vehicle_type_id":"4","last_reported":1752790259,"current_range_meters":12800,"station_id":"ce4bh0h2rcd13ifvqd50","pricing_plan_id":"cebpf4jnsgd1na2vs0mg"},{"bike_id":"57cbafa2-24c1-4281-b248-5d36d1039620","system_id":"levelo_inurba_marseille","lat":43.26214,"lon":5.37441,"is_reserved":false,"is_disabled":false,"rental_uris":{"android":"levelo://app?vid=57cbafa2-24c1-4281-b248-5d36d1039620","ios":"levelo://app?vid=57cbafa2-24c1-4281-b248-5d36d1039620"},"vehicle_type_id":"4","last_reported":1752790259,"current_range_meters":12800,"station_id":"ce4bhgp2rcd13ifvqfc0","pricing_plan_id":"cebpf4jnsgd1na2vs0mg"},{"bike_id":"28c6535f-92d1-4633-8d3b-b4b649068887","system_id":"levelo_inurba_marseille","lat":43.295744,"lon":5.399712,"is_reserved":false,"is_disabled":false,"rental_uris":{"android":"levelo://app?vid=28c6535f-92d1-4633-8d3b-b4b649068887","ios":"levelo://app?vid=28c6535f-92d1-4633-8d3b-b4b649068887"},"vehicle_type_id":"4","last_reported":1752790259,"current_range_meters":12800,"station_id":"ce4bh312rcd13ifvqdj0","pricing_plan_id":"cebpf4jnsgd1na2vs0mg"},{"bike_id":"2c6e34ec-e4ad-4b55-908f-732bdcecdb2f","system_id":"levelo_inurba_marseille","lat":43.211972,"lon":5.35063,"is_reserved":false,"is_disabled":false,"rental_uris":{"android":"levelo://app?vid=2c6e34ec-e4ad-4b55-908f-732bdcecdb2f","ios":"levelo://app?vid=2c6e34ec-e4ad-4b55-908f-732bdcecdb2f"},"vehicle_type_id":"4","last_reported":1752790259,"current_range_meters":13600,"station_id":"st_cvj6sg6p6f1abm77japg","pricing_plan_id":"cebpf4jnsgd1na2vs0mg"},{"bike_id":"db35dc74-d5b9-48d3-9c6d-56ef0431ae28","system_id":"levelo_inurba_marseille","lat":43.29867,"lon":5.39747,"is_reserved":false,"is_disabled":false,"rental_uris":{"android":"levelo://app?vid=db35dc74-d5b9-48d3-9c6d-56ef0431ae28","ios":"levelo://app?vid=db35dc74-d5b9-48d3-9c6d-56ef0431ae28"},"vehicle_type_id":"4","last_reported":1752790259,"current_range_meters":13600,"station_id":"ce4bh0h2rcd13ifvqd50","pricing_plan_id":"cebpf4jnsgd1na2vs0mg"},{"bike_id":"c2e8406e-fca7-4a16-bfb2-b1b500bfb593","system_id":"levelo_inurba_marseille","lat":43.27495,"lon":5.42446,"is_reserved":false,"is_disabled":false,"rental_uris":{"android":"levelo://app?vid=c2e8406e-fca7-4a16-bfb2-b1b500bfb593","ios":"levelo://app?vid=c2e8406e-fca7-4a16-bfb2-b1b500bfb593"},"vehicle_type_id":"4","last_reported":1752790259,"current_range_meters":13600,"station_id":"ce4bhn92rcd13ifvqgrg","pricing_plan_id":"cebpf4jnsgd1na2vs0mg"},{"bike_id":"18b00500-9e6f-4c63-83db-832acb431780","system_id":"levelo_inurba_marseille","lat":43.3026,"lon":5.4008,"is_reserved":false,"is_disabled":false,"rental_uris":{"android":"levelo://app?vid=18b00500-9e6f-4c63-83db-832acb431780","ios":"levelo://app?vid=18b00500-9e6f-4c63-83db-832acb431780"},"vehicle_type_id":"4","last_reported":1752790259,"current_range_meters":13600,"station_id":"ce4bgvh2rcd13ifvqcs0","pricing_plan_id":"cebpf4jnsgd1na2vs0mg"},{"bike_id":"8d919345-6031-4385-83d7-fe34751c35be","system_id":"levelo_inurba_marseille","lat":43.27323,"lon":5.39073,"is_reserved":false,"is_disabled":false,"rental_uris":{"android":"levelo://app?vid=8d919345-6031-4385-83d7-fe34751c35be","ios":"levelo://app?vid=8d919345-6031-4385-83d7-fe34751c35be"},"vehicle_type_id":"4","last_reported":1752790259,"current_range_meters":13600,"station_id":"ce4bhgp2rcd13ifvqfe0","pricing_plan_id":"cebpf4jnsgd1na2vs0mg"},{"bike_id":"2ac93549-5c94-4228-8eea-782a21384d10","system_id":"levelo_inurba_marseille","lat":43.29634,"lon":5.37793,"is_reserved":false,"is_disabled":false,"rental_uris":{"android":"levelo://app?vid=2ac93549-5c94-4228-8eea-782a21384d10","ios":"levelo://app?vid=2ac93549-5c94-4228-8eea-782a21384d10"},"vehicle_type_id":"4","last_reported":1752790259,"current_range_meters":13600,"station_id":"","pricing_plan_id":"cebpf4jnsgd1na2vs0mg"},{"bike_id":"c79c0aa3-9776-4a69-b486-7542c1b0d00f","system_id":"levelo_inurba_marseille","lat":43.27995,"lon":5.41674,"is_reserved":false,"is_disabled":false,"rental_uris":{"android":"levelo://app?vid=c79c0aa3-9776-4a69-b486-7542c1b0d00f","ios":"levelo://app?vid=c79c0aa3-9776-4a69-b486-7542c1b0d00f"},"vehicle_type_id":"4","last_reported":1752790259,"current_range_meters":14000,"station_id":"ce4bho12rcd13ifvqh1g","pricing_plan_id":"cebpf4jnsgd1na2vs0mg"},{"bike_id":"da891840-0cec-4ccc-961c-48903736c6fa","system_id":"levelo_inurba_marseille","lat":43.31139,"lon":5.37692,"is_reserved":false,"is_disabled":false,"rental_uris":{"android":"levelo://app?vid=da891840-0cec-4ccc-961c-48903736c6fa","ios":"levelo://app?vid=da891840-0cec-4ccc-961c-48903736c6fa"},"vehicle_type_id":"4","last_reported":1752790259,"current_range_meters":14000,"station_id":"","pricing_plan_id":"cebpf4jnsgd1na2vs0mg"},{"bike_id":"7b9aef3d-ede2-4a13-91e2-1632cc179a23","system_id":"levelo_inurba_marseille","lat":43.32045,"lon":5.41556,"is_reserved":false,"is_disabled":false,"rental_uris":{"android":"levelo://app?vid=7b9aef3d-ede2-4a13-91e2-1632cc179a23","ios":"levelo://app?vid=7b9aef3d-ede2-4a13-91e2-1632cc179a23"},"vehicle_type_id":"4","last_reported":1752790259,"current_range_meters":14000,"station_id":"ce4bhq92rcd13ifvqhkg","pricing_plan_id":"cebpf4jnsgd1na2vs0mg"},{"bike_id":"0698bc0a-1356-460f-8b6d-fca0137a6217","system_id":"levelo_inurba_marseille","lat":43.21187,"lon":5.35099,"is_reserved":false,"is_disabled":false,"rental_uris":{"android":"levelo://app?vid=0698bc0a-1356-460f-8b6d-fca0137a6217","ios":"levelo://app?vid=0698bc0a-1356-460f-8b6d-fca0137a6217"},"vehicle_type_id":"4","last_reported":1752790259,"current_range_meters":14000,"station_id":"st_cvj6sg6p6f1abm77japg","pricing_plan_id":"cebpf4jnsgd1na2vs0mg"},{"bike_id":"e555b545-304c-4dce-8496-1643c0f2600e","system_id":"levelo_inurba_marseille","lat":43.337444,"lon":5.374475,"is_reserved":false,"is_disabled":false,"rental_uris":{"android":"levelo://app?vid=e555b545-304c-4dce-8496-1643c0f2600e","ios":"levelo://app?vid=e555b545-304c-4dce-8496-1643c0f2600e"},"vehicle_type_id":"4","last_reported":1752790259,"current_range_meters":14000,"station_id":"","pricing_plan_id":"cebpf4jnsgd1na2vs0mg"},{"bike_id":"ba3823fb-c6a3-4066-b41a-411ec979f129","system_id":"levelo_inurba_marseille","lat":43.32335,"lon":5.4063,"is_reserved":false,"is_disabled":false,"rental_uris":{"android":"levelo://app?vid=ba3823fb-c6a3-4066-b41a-411ec979f129","ios":"levelo://app?vid=ba3823fb-c6a3-4066-b41a-411ec979f129"},"vehicle_type_id":"4","last_reported":1752790259,"current_range_meters":14000,"station_id":"ce4bhq92rcd13ifvqhjg","pricing_plan_id":"cebpf4jnsgd1na2vs0mg"},{"bike_id":"fa952d17-ab1a-4475-9dcd-13ca92954e4b","system_id":"levelo_inurba_marseille","lat":43.29269,"lon":5.38452,"is_reserved":false,"is_disabled":false,"rental_uris":{"android":"levelo://app?vid=fa952d17-ab1a-4475-9dcd-13ca92954e4b","ios":"levelo://app?vid=fa952d17-ab1a-4475-9dcd-13ca92954e4b"},"vehicle_type_id":"4","last_reported":1752790259,"current_range_meters":14000,"station_id":"ce4bh692rcd13ifvqea0","pricing_plan_id":"cebpf4jnsgd1na2vs0mg"},{"bike_id":"ae28ea44-06e0-468d-b104-f45ecdf62a40","system_id":"levelo_inurba_marseille","lat":43.23187,"lon":5.35576,"is_reserved":false,"is_disabled":false,"rental_uris":{"android":"levelo://app?vid=ae28ea44-06e0-468d-b104-f45ecdf62a40","ios":"levelo://app?vid=ae28ea44-06e0-468d-b104-f45ecdf62a40"},"vehicle_type_id":"4","last_reported":1752790259,"current_range_meters":14400,"station_id":"ce4bhu92rcd13ifvqi70","pricing_plan_id":"cebpf4jnsgd1na2vs0mg"},{"bike_id":"f1a7f3b0-3bad-4ded-bc92-3fb1685f68ed","system_id":"levelo_inurba_marseille","lat":43.293638,"lon":5.378632,"is_reserved":false,"is_disabled":true,"rental_uris":{"android":"levelo://app?vid=f1a7f3b0-3bad-4ded-bc92-3fb1685f68ed","ios":"levelo://app?vid=f1a7f3b0-3bad-4ded-bc92-3fb1685f68ed"},"vehicle_type_id":"4","last_reported":1752790259,"current_range_meters":14400,"station_id":"ce4bgjh2rcd13ifvqbf0","pricing_plan_id":"cebpf4jnsgd1na2vs0mg"},{"bike_id":"72363da8-e89e-41f4-b909-1cd750ba8cd6","system_id":"levelo_inurba_marseille","lat":43.250883,"lon":5.395275,"is_reserved":false,"is_disabled":false,"rental_uris":{"android":"levelo://app?vid=72363da8-e89e-41f4-b909-1cd750ba8cd6","ios":"levelo://app?vid=72363da8-e89e-41f4-b909-1cd750ba8cd6"},"vehicle_type_id":"4","last_reported":1752790259,"current_range_meters":14400,"station_id":"ce4bhm12rcd13ifvqgkg","pricing_plan_id":"cebpf4jnsgd1na2vs0mg"},{"bike_id":"9c837b99-081f-4caa-a8a3-7d6dc61e9d18","system_id":"levelo_inurba_marseille","lat":43.23067,"lon":5.35503,"is_reserved":false,"is_disabled":false,"rental_uris":{"android":"levelo://app?vid=9c837b99-081f-4caa-a8a3-7d6dc61e9d18","ios":"levelo://app?vid=9c837b99-081f-4caa-a8a3-7d6dc61e9d18"},"vehicle_type_id":"4","last_reported":1752790259,"current_range_meters":14400,"station_id":"cpo3342slgdg3j2ifvpg","pricing_plan_id":"cebpf4jnsgd1na2vs0mg"},{"bike_id":"398d6518-63ea-41c2-90f5-21fa7f9671fe","system_id":"levelo_inurba_marseille","lat":43.28877,"lon":5.37885,"is_reserved":false,"is_disabled":false,"rental_uris":{"android":"levelo://app?vid=398d6518-63ea-41c2-90f5-21fa7f9671fe","ios":"levelo://app?vid=398d6518-63ea-41c2-90f5-21fa7f9671fe"},"vehicle_type_id":"4","last_reported":1752790259,"current_range_meters":14400,"station_id":"","pricing_plan_id":"cebpf4jnsgd1na2vs0mg"},{"bike_id":"51159242-2802-4242-ae38-f6edca6f6062","system_id":"levelo_inurba_marseille","lat":43.276685,"lon":5.388806,"is_reserved":false,"is_disabled":false,"rental_uris":{"android":"levelo://app?vid=51159242-2802-4242-ae38-f6edca6f6062","ios":"levelo://app?vid=51159242-2802-4242-ae38-f6edca6f6062"},"vehicle_type_id":"4","last_reported":1752790259,"current_range_meters":14000,"station_id":"ce4bhi12rcd13ifvqfo0","pricing_plan_id":"cebpf4jnsgd1na2vs0mg"},{"bike_id":"0880aca9-a238-418a-9746-0b7bde966b79","system_id":"levelo_inurba_marseille","lat":43.30256,"lon":5.40078,"is_reserved":false,"is_disabled":false,"rental_uris":{"android":"levelo://app?vid=0880aca9-a238-418a-9746-0b7bde966b79","ios":"levelo://app?vid=0880aca9-a238-418a-9746-0b7bde966b79"},"vehicle_type_id":"4","last_reported":1752790259,"current_range_meters":14400,"station_id":"ce4bgvh2rcd13ifvqcs0","pricing_plan_id":"cebpf4jnsgd1na2vs0mg"},{"bike_id":"440e20d6-bb11-4a82-9616-b5ad189f7d99","system_id":"levelo_inurba_marseille","lat":43.31361,"lon":5.38489,"is_reserved":false,"is_disabled":false,"rental_uris":{"android":"levelo://app?vid=440e20d6-bb11-4a82-9616-b5ad189f7d99","ios":"levelo://app?vid=440e20d6-bb11-4a82-9616-b5ad189f7d99"},"vehicle_type_id":"4","last_reported":1752790259,"current_range_meters":14400,"station_id":"ce4bgt92rcd13ifvqcf0","pricing_plan_id":"cebpf4jnsgd1na2vs0mg"},{"bike_id":"531dca68-8617-41b0-a6cd-abffc94e1d45","system_id":"levelo_inurba_marseille","lat":43.31201,"lon":5.37318,"is_reserved":false,"is_disabled":false,"rental_uris":{"android":"levelo://app?vid=531dca68-8617-41b0-a6cd-abffc94e1d45","ios":"levelo://app?vid=531dca68-8617-41b0-a6cd-abffc94e1d45"},"vehicle_type_id":"4","last_reported":1752790259,"current_range_meters":14400,"station_id":"","pricing_plan_id":"cebpf4jnsgd1na2vs0mg"},{"bike_id":"7915a477-0c41-4de8-819b-41552245944b","system_id":"levelo_inurba_marseille","lat":43.31364,"lon":5.385,"is_reserved":false,"is_disabled":false,"rental_uris":{"android":"levelo://app?vid=7915a477-0c41-4de8-819b-41552245944b","ios":"levelo://app?vid=7915a477-0c41-4de8-819b-41552245944b"},"vehicle_type_id":"4","last_reported":1752790259,"current_range_meters":14800,"station_id":"ce4bgt92rcd13ifvqcf0","pricing_plan_id":"cebpf4jnsgd1na2vs0mg"},{"bike_id":"168a7671-aba6-4148-ba70-c792dfe2e642","system_id":"levelo_inurba_marseille","lat":43.2118,"lon":5.35089,"is_reserved":false,"is_disabled":false,"rental_uris":{"android":"levelo://app?vid=168a7671-aba6-4148-ba70-c792dfe2e642","ios":"levelo://app?vid=168a7671-aba6-4148-ba70-c792dfe2e642"},"vehicle_type_id":"4","last_reported":1752790259,"current_range_meters":14800,"station_id":"st_cvj6sg6p6f1abm77japg","pricing_plan_id":"cebpf4jnsgd1na2vs0mg"},{"bike_id":"2272a1cb-30d4-47dd-bed5-39b01483f853","system_id":"levelo_inurba_marseille","lat":43.22928,"lon":5.35389,"is_reserved":false,"is_disabled":false,"rental_uris":{"android":"levelo://app?vid=2272a1cb-30d4-47dd-bed5-39b01483f853","ios":"levelo://app?vid=2272a1cb-30d4-47dd-bed5-39b01483f853"},"vehicle_type_id":"4","last_reported":1752790259,"current_range_meters":14800,"station_id":"cpo3532slgdg3j2ikp40","pricing_plan_id":"cebpf4jnsgd1na2vs0mg"},{"bike_id":"e5fae530-aa4d-419c-ab7d-2b2c826eb2cc","system_id":"levelo_inurba_marseille","lat":43.29251,"lon":5.40909,"is_reserved":false,"is_disabled":false,"rental_uris":{"android":"levelo://app?vid=e5fae530-aa4d-419c-ab7d-2b2c826eb2cc","ios":"levelo://app?vid=e5fae530-aa4d-419c-ab7d-2b2c826eb2cc"},"vehicle_type_id":"4","last_reported":1752790259,"current_range_meters":14800,"station_id":"ce4bh192rcd13ifvqdc0","pricing_plan_id":"cebpf4jnsgd1na2vs0mg"},{"bike_id":"5a53aea4-6ba9-4a21-96e1-b5898a42c2ca","system_id":"levelo_inurba_marseille","lat":43.29523,"lon":5.38524,"is_reserved":false,"is_disabled":false,"rental_uris":{"android":"levelo://app?vid=5a53aea4-6ba9-4a21-96e1-b5898a42c2ca","ios":"levelo://app?vid=5a53aea4-6ba9-4a21-96e1-b5898a42c2ca"},"vehicle_type_id":"4","last_reported":1752790259,"current_range_meters":14800,"station_id":"ce4bgih2rcd13ifvqba0","pricing_plan_id":"cebpf4jnsgd1na2vs0mg"},{"bike_id":"30f14ae8-f9b5-4f47-8ac7-d21346087559","system_id":"levelo_inurba_marseille","lat":43.28078,"lon":5.39662,"is_reserved":false,"is_disabled":false,"rental_uris":{"android":"levelo://app?vid=30f14ae8-f9b5-4f47-8ac7-d21346087559","ios":"levelo://app?vid=30f14ae8-f9b5-4f47-8ac7-d21346087559"},"vehicle_type_id":"4","last_reported":1752790259,"current_range_meters":15200,"station_id":"ce4bho12rcd13ifvqh2g","pricing_plan_id":"cebpf4jnsgd1na2vs0mg"},{"bike_id":"b9c220fa-ce21-46e5-9c5b-52d91725030b","system_id":"levelo_inurba_marseille","lat":43.22915,"lon":5.35396,"is_reserved":false,"is_disabled":false,"rental_uris":{"android":"levelo://app?vid=b9c220fa-ce21-46e5-9c5b-52d91725030b","ios":"levelo://app?vid=b9c220fa-ce21-46e5-9c5b-52d91725030b"},"vehicle_type_id":"4","last_reported":1752790259,"current_range_meters":15200,"station_id":"cpo3532slgdg3j2ikp40","pricing_plan_id":"cebpf4jnsgd1na2vs0mg"},{"bike_id":"cf875f67-a886-46fc-b2b8-7d996ce4f387","system_id":"levelo_inurba_marseille","lat":43.31168,"lon":5.38716,"is_reserved":false,"is_disabled":false,"rental_uris":{"android":"levelo://app?vid=cf875f67-a886-46fc-b2b8-7d996ce4f387","ios":"levelo://app?vid=cf875f67-a886-46fc-b2b8-7d996ce4f387"},"vehicle_type_id":"4","last_reported":1752790259,"current_range_meters":15200,"station_id":"ce4bgv12rcd13ifvqcp0","pricing_plan_id":"cebpf4jnsgd1na2vs0mg"},{"bike_id":"31695fe3-ba1a-451d-a7a2-e6e81aefdddc","system_id":"levelo_inurba_marseille","lat":43.286243,"lon":5.350977,"is_reserved":false,"is_disabled":true,"rental_uris":{"android":"levelo://app?vid=31695fe3-ba1a-451d-a7a2-e6e81aefdddc","ios":"levelo://app?vid=31695fe3-ba1a-451d-a7a2-e6e81aefdddc"},"vehicle_type_id":"4","last_reported":1752790259,"current_range_meters":15200,"station_id":"ce4bhch2rcd13ifvqeug","pricing_plan_id":"cebpf4jnsgd1na2vs0mg"},{"bike_id":"7418d060-141e-4d1b-8cca-1cd218c9466e","system_id":"levelo_inurba_marseille","lat":43.27048,"lon":5.4026,"is_reserved":false,"is_disabled":false,"rental_uris":{"android":"levelo://app?vid=7418d060-141e-4d1b-8cca-1cd218c9466e","ios":"levelo://app?vid=7418d060-141e-4d1b-8cca-1cd218c9466e"},"vehicle_type_id":"4","last_reported":1752790259,"current_range_meters":15200,"station_id":"ce4bhk92rcd13ifvqgc0","pricing_plan_id":"cebpf4jnsgd1na2vs0mg"},{"bike_id":"c71a84b3-ce99-45e8-8fd3-e7609c6d65f5","system_id":"levelo_inurba_marseille","lat":43.29534,"lon":5.38539,"is_reserved":false,"is_disabled":false,"rental_uris":{"android":"levelo://app?vid=c71a84b3-ce99-45e8-8fd3-e7609c6d65f5","ios":"levelo://app?vid=c71a84b3-ce99-45e8-8fd3-e7609c6d65f5"},"vehicle_type_id":"4","last_reported":1752790259,"current_range_meters":15200,"station_id":"ce4bgih2rcd13ifvqba0","pricing_plan_id":"cebpf4jnsgd1na2vs0mg"},{"bike_id":"e76c0254-f6c6-4a14-9ff8-4ab01deecf3d","system_id":"levelo_inurba_marseille","lat":43.29871,"lon":5.39735,"is_reserved":false,"is_disabled":false,"rental_uris":{"android":"levelo://app?vid=e76c0254-f6c6-4a14-9ff8-4ab01deecf3d","ios":"levelo://app?vid=e76c0254-f6c6-4a14-9ff8-4ab01deecf3d"},"vehicle_type_id":"4","last_reported":1752790259,"current_range_meters":15200,"station_id":"ce4bh0h2rcd13ifvqd50","pricing_plan_id":"cebpf4jnsgd1na2vs0mg"},{"bike_id":"6be86623-c65c-4a0d-b3a4-c58891bfa931","system_id":"levelo_inurba_marseille","lat":43.22503,"lon":5.34781,"is_reserved":false,"is_disabled":false,"rental_uris":{"android":"levelo://app?vid=6be86623-c65c-4a0d-b3a4-c58891bfa931","ios":"levelo://app?vid=6be86623-c65c-4a0d-b3a4-c58891bfa931"},"vehicle_type_id":"4","last_reported":1752790259,"current_range_meters":16000,"station_id":"st_cvj5dfep6f1abm77gieg","pricing_plan_id":"cebpf4jnsgd1na2vs0mg"},{"bike_id":"ad052428-87f6-4ad4-b01d-00ca0e47f564","system_id":"levelo_inurba_marseille","lat":43.29029,"lon":5.38654,"is_reserved":false,"is_disabled":false,"rental_uris":{"android":"levelo://app?vid=ad052428-87f6-4ad4-b01d-00ca0e47f564","ios":"levelo://app?vid=ad052428-87f6-4ad4-b01d-00ca0e47f564"},"vehicle_type_id":"4","last_reported":1752790259,"current_range_meters":16000,"station_id":"ce4bh4p2rcd13ifvqe0g","pricing_plan_id":"cebpf4jnsgd1na2vs0mg"},{"bike_id":"0d87ca24-976c-4967-995f-815e40a697aa","system_id":"levelo_inurba_marseille","lat":43.32087,"lon":5.36792,"is_reserved":false,"is_disabled":false,"rental_uris":{"android":"levelo://app?vid=0d87ca24-976c-4967-995f-815e40a697aa","ios":"levelo://app?vid=0d87ca24-976c-4967-995f-815e40a697aa"},"vehicle_type_id":"4","last_reported":1752790259,"current_range_meters":16000,"station_id":"ce4bhrh2rcd13ifvqhug","pricing_plan_id":"cebpf4jnsgd1na2vs0mg"},{"bike_id":"7a0cd2e2-6d57-4fc8-915b-e1a50174784f","system_id":"levelo_inurba_marseille","lat":43.30257,"lon":5.40078,"is_reserved":false,"is_disabled":false,"rental_uris":{"android":"levelo://app?vid=7a0cd2e2-6d57-4fc8-915b-e1a50174784f","ios":"levelo://app?vid=7a0cd2e2-6d57-4fc8-915b-e1a50174784f"},"vehicle_type_id":"4","last_reported":1752790259,"current_range_meters":16000,"station_id":"ce4bgvh2rcd13ifvqcs0","pricing_plan_id":"cebpf4jnsgd1na2vs0mg"},{"bike_id":"a092d05c-8017-44f5-ba8a-35792463d6a3","system_id":"levelo_inurba_marseille","lat":43.22473,"lon":5.34816,"is_reserved":false,"is_disabled":false,"rental_uris":{"android":"levelo://app?vid=a092d05c-8017-44f5-ba8a-35792463d6a3","ios":"levelo://app?vid=a092d05c-8017-44f5-ba8a-35792463d6a3"},"vehicle_type_id":"4","last_reported":1752790259,"current_range_meters":16000,"station_id":"st_cvj5dfep6f1abm77gieg","pricing_plan_id":"cebpf4jnsgd1na2vs0mg"},{"bike_id":"d0573d96-ddb4-4622-bd15-49483cac3810","system_id":"levelo_inurba_marseille","lat":43.258633,"lon":5.399035,"is_reserved":false,"is_disabled":true,"rental_uris":{"android":"levelo://app?vid=d0573d96-ddb4-4622-bd15-49483cac3810","ios":"levelo://app?vid=d0573d96-ddb4-4622-bd15-49483cac3810"},"vehicle_type_id":"4","last_reported":1752790259,"current_range_meters":16000,"station_id":"ce4bhl92rcd13ifvqghg","pricing_plan_id":"cebpf4jnsgd1na2vs0mg"},{"bike_id":"ccb5a41e-b7fe-43f3-9f92-4b95d9db1d2a","system_id":"levelo_inurba_marseille","lat":43.23189,"lon":5.39977,"is_reserved":false,"is_disabled":false,"rental_uris":{"android":"levelo://app?vid=ccb5a41e-b7fe-43f3-9f92-4b95d9db1d2a","ios":"levelo://app?vid=ccb5a41e-b7fe-43f3-9f92-4b95d9db1d2a"},"vehicle_type_id":"4","last_reported":1752790259,"current_range_meters":16000,"station_id":"ce4bhn12rcd13ifvqgqg","pricing_plan_id":"cebpf4jnsgd1na2vs0mg"},{"bike_id":"a2539042-8652-46c0-a7ae-56e5c63bcada","system_id":"levelo_inurba_marseille","lat":43.258693,"lon":5.398851,"is_reserved":false,"is_disabled":false,"rental_uris":{"android":"levelo://app?vid=a2539042-8652-46c0-a7ae-56e5c63bcada","ios":"levelo://app?vid=a2539042-8652-46c0-a7ae-56e5c63bcada"},"vehicle_type_id":"4","last_reported":1752790259,"current_range_meters":16000,"station_id":"ce4bhl92rcd13ifvqghg","pricing_plan_id":"cebpf4jnsgd1na2vs0mg"},{"bike_id":"b3d93b47-e588-45e1-bce7-00ad374ebca5","system_id":"levelo_inurba_marseille","lat":43.284643,"lon":5.359045,"is_reserved":false,"is_disabled":false,"rental_uris":{"android":"levelo://app?vid=b3d93b47-e588-45e1-bce7-00ad374ebca5","ios":"levelo://app?vid=b3d93b47-e588-45e1-bce7-00ad374ebca5"},"vehicle_type_id":"4","last_reported":1752790259,"current_range_meters":16000,"station_id":"ce4bhah2rcd13ifvqei0","pricing_plan_id":"cebpf4jnsgd1na2vs0mg"},{"bike_id":"e54582ed-ba92-4640-a97f-9e97144ce87f","system_id":"levelo_inurba_marseille","lat":43.32266,"lon":5.40659,"is_reserved":false,"is_disabled":false,"rental_uris":{"android":"levelo://app?vid=e54582ed-ba92-4640-a97f-9e97144ce87f","ios":"levelo://app?vid=e54582ed-ba92-4640-a97f-9e97144ce87f"},"vehicle_type_id":"4","last_reported":1752790259,"current_range_meters":16000,"station_id":"","pricing_plan_id":"cebpf4jnsgd1na2vs0mg"},{"bike_id":"7a6aca03-37b0-40ef-9d9a-27893d501471","system_id":"levelo_inurba_marseille","lat":43.25006,"lon":5.38932,"is_reserved":false,"is_disabled":false,"rental_uris":{"android":"levelo://app?vid=7a6aca03-37b0-40ef-9d9a-27893d501471","ios":"levelo://app?vid=7a6aca03-37b0-40ef-9d9a-27893d501471"},"vehicle_type_id":"4","last_reported":1752790259,"current_range_meters":16000,"station_id":"ce4bhgp2rcd13ifvqfd0","pricing_plan_id":"cebpf4jnsgd1na2vs0mg"},{"bike_id":"ead09c4a-6226-4ee7-b4b0-321133093605","system_id":"levelo_inurba_marseille","lat":43.26584,"lon":5.39067,"is_reserved":false,"is_disabled":false,"rental_uris":{"android":"levelo://app?vid=ead09c4a-6226-4ee7-b4b0-321133093605","ios":"levelo://app?vid=ead09c4a-6226-4ee7-b4b0-321133093605"},"vehicle_type_id":"4","last_reported":1752790259,"current_range_meters":16000,"station_id":"","pricing_plan_id":"cebpf4jnsgd1na2vs0mg"},{"bike_id":"3538844f-97a5-4583-9196-46449ee0c34d","system_id":"levelo_inurba_marseille","lat":43.30802,"lon":5.38137,"is_reserved":false,"is_disabled":false,"rental_uris":{"android":"levelo://app?vid=3538844f-97a5-4583-9196-46449ee0c34d","ios":"levelo://app?vid=3538844f-97a5-4583-9196-46449ee0c34d"},"vehicle_type_id":"4","last_reported":1752790259,"current_range_meters":16000,"station_id":"ce4bgt12rcd13ifvqce0","pricing_plan_id":"cebpf4jnsgd1na2vs0mg"},{"bike_id":"5c2c3db6-3940-44f5-b26f-2ea3c60b6226","system_id":"levelo_inurba_marseille","lat":43.29412,"lon":5.38619,"is_reserved":false,"is_disabled":true,"rental_uris":{"android":"levelo://app?vid=5c2c3db6-3940-44f5-b26f-2ea3c60b6226","ios":"levelo://app?vid=5c2c3db6-3940-44f5-b26f-2ea3c60b6226"},"vehicle_type_id":"4","last_reported":1752790259,"current_range_meters":16000,"station_id":"ce4bh2h2rcd13ifvqdh0","pricing_plan_id":"cebpf4jnsgd1na2vs0mg"},{"bike_id":"2ded6291-a823-49b5-9bc5-1374dd62faea","system_id":"levelo_inurba_marseille","lat":43.24401,"lon":5.37059,"is_reserved":false,"is_disabled":false,"rental_uris":{"android":"levelo://app?vid=2ded6291-a823-49b5-9bc5-1374dd62faea","ios":"levelo://app?vid=2ded6291-a823-49b5-9bc5-1374dd62faea"},"vehicle_type_id":"4","last_reported":1752790259,"current_range_meters":16000,"station_id":"ce4bhhh2rcd13ifvqfk0","pricing_plan_id":"cebpf4jnsgd1na2vs0mg"},{"bike_id":"93064a8f-6df9-4f93-85e3-ab80e6e91177","system_id":"levelo_inurba_marseille","lat":43.26218,"lon":5.40469,"is_reserved":false,"is_disabled":false,"rental_uris":{"android":"levelo://app?vid=93064a8f-6df9-4f93-85e3-ab80e6e91177","ios":"levelo://app?vid=93064a8f-6df9-4f93-85e3-ab80e6e91177"},"vehicle_type_id":"4","last_reported":1752790259,"current_range_meters":16400,"station_id":"ce4bhmh2rcd13ifvqgmg","pricing_plan_id":"cebpf4jnsgd1na2vs0mg"},{"bike_id":"52c5c06c-938f-4748-be82-bdf4ecb97f05","system_id":"levelo_inurba_marseille","lat":43.29255,"lon":5.40907,"is_reserved":false,"is_disabled":false,"rental_uris":{"android":"levelo://app?vid=52c5c06c-938f-4748-be82-bdf4ecb97f05","ios":"levelo://app?vid=52c5c06c-938f-4748-be82-bdf4ecb97f05"},"vehicle_type_id":"4","last_reported":1752790259,"current_range_meters":16400,"station_id":"ce4bh192rcd13ifvqdc0","pricing_plan_id":"cebpf4jnsgd1na2vs0mg"},{"bike_id":"a6a90828-338c-4d14-810b-f84163a63814","system_id":"levelo_inurba_marseille","lat":43.29868,"lon":5.39746,"is_reserved":false,"is_disabled":false,"rental_uris":{"android":"levelo://app?vid=a6a90828-338c-4d14-810b-f84163a63814","ios":"levelo://app?vid=a6a90828-338c-4d14-810b-f84163a63814"},"vehicle_type_id":"4","last_reported":1752790259,"current_range_meters":16400,"station_id":"ce4bh0h2rcd13ifvqd50","pricing_plan_id":"cebpf4jnsgd1na2vs0mg"},{"bike_id":"1d94feba-c90e-4d75-9f8d-9ea4bb03490e","system_id":"levelo_inurba_marseille","lat":43.29101,"lon":5.38162,"is_reserved":false,"is_disabled":true,"rental_uris":{"android":"levelo://app?vid=1d94feba-c90e-4d75-9f8d-9ea4bb03490e","ios":"levelo://app?vid=1d94feba-c90e-4d75-9f8d-9ea4bb03490e"},"vehicle_type_id":"4","last_reported":1752790259,"current_range_meters":16400,"station_id":"ce4bh512rcd13ifvqe2g","pricing_plan_id":"cebpf4jnsgd1na2vs0mg"},{"bike_id":"084eace8-045f-4012-9455-c501cad7ce10","system_id":"levelo_inurba_marseille","lat":43.22503,"lon":5.34773,"is_reserved":false,"is_disabled":false,"rental_uris":{"android":"levelo://app?vid=084eace8-045f-4012-9455-c501cad7ce10","ios":"levelo://app?vid=084eace8-045f-4012-9455-c501cad7ce10"},"vehicle_type_id":"4","last_reported":1752790259,"current_range_meters":16400,"station_id":"st_cvj5dfep6f1abm77gieg","pricing_plan_id":"cebpf4jnsgd1na2vs0mg"},{"bike_id":"4c0ea010-fab1-4680-b798-1d8aad58bcd3","system_id":"levelo_inurba_marseille","lat":43.27192,"lon":5.4103,"is_reserved":false,"is_disabled":false,"rental_uris":{"android":"levelo://app?vid=4c0ea010-fab1-4680-b798-1d8aad58bcd3","ios":"levelo://app?vid=4c0ea010-fab1-4680-b798-1d8aad58bcd3"},"vehicle_type_id":"4","last_reported":1752790259,"current_range_meters":16400,"station_id":"ce4bhl12rcd13ifvqgf0","pricing_plan_id":"cebpf4jnsgd1na2vs0mg"},{"bike_id":"ed822664-f978-4865-b4d3-8b7323601ddf","system_id":"levelo_inurba_marseille","lat":43.2979,"lon":5.39353,"is_reserved":false,"is_disabled":true,"rental_uris":{"android":"levelo://app?vid=ed822664-f978-4865-b4d3-8b7323601ddf","ios":"levelo://app?vid=ed822664-f978-4865-b4d3-8b7323601ddf"},"vehicle_type_id":"4","last_reported":1752790259,"current_range_meters":16400,"station_id":"chh1huq6cuj3fo74tm60","pricing_plan_id":"cebpf4jnsgd1na2vs0mg"},{"bike_id":"1fe65187-ac28-4e64-b7bb-a76e964c43b1","system_id":"levelo_inurba_marseille","lat":43.295172,"lon":5.390288,"is_reserved":false,"is_disabled":false,"rental_uris":{"android":"levelo://app?vid=1fe65187-ac28-4e64-b7bb-a76e964c43b1","ios":"levelo://app?vid=1fe65187-ac28-4e64-b7bb-a76e964c43b1"},"vehicle_type_id":"4","last_reported":1752790259,"current_range_meters":16400,"station_id":"ce4bh3p2rcd13ifvqdp0","pricing_plan_id":"cebpf4jnsgd1na2vs0mg"},{"bike_id":"5b4e5f0f-cac3-450a-9463-e6a77e2c277e","system_id":"levelo_inurba_marseille","lat":43.246423,"lon":5.388921,"is_reserved":false,"is_disabled":true,"rental_uris":{"android":"levelo://app?vid=5b4e5f0f-cac3-450a-9463-e6a77e2c277e","ios":"levelo://app?vid=5b4e5f0f-cac3-450a-9463-e6a77e2c277e"},"vehicle_type_id":"4","last_reported":1752790259,"current_range_meters":16400,"station_id":"ce4bhg12rcd13ifvqf60","pricing_plan_id":"cebpf4jnsgd1na2vs0mg"},{"bike_id":"be60c88c-1453-4626-be80-200258f79626","system_id":"levelo_inurba_marseille","lat":43.23195,"lon":5.35547,"is_reserved":false,"is_disabled":false,"rental_uris":{"android":"levelo://app?vid=be60c88c-1453-4626-be80-200258f79626","ios":"levelo://app?vid=be60c88c-1453-4626-be80-200258f79626"},"vehicle_type_id":"4","last_reported":1752790259,"current_range_meters":16400,"station_id":"ce4bhu92rcd13ifvqi70","pricing_plan_id":"cebpf4jnsgd1na2vs0mg"},{"bike_id":"409515f8-3415-426d-b0c7-61f840c7c187","system_id":"levelo_inurba_marseille","lat":43.22492,"lon":5.34796,"is_reserved":false,"is_disabled":false,"rental_uris":{"android":"levelo://app?vid=409515f8-3415-426d-b0c7-61f840c7c187","ios":"levelo://app?vid=409515f8-3415-426d-b0c7-61f840c7c187"},"vehicle_type_id":"4","last_reported":1752790259,"current_range_meters":16400,"station_id":"st_cvj5dfep6f1abm77gieg","pricing_plan_id":"cebpf4jnsgd1na2vs0mg"},{"bike_id":"ea42e4a5-0e57-44d1-96f4-e0abd2b11dba","system_id":"levelo_inurba_marseille","lat":43.31289,"lon":5.40155,"is_reserved":false,"is_disabled":false,"rental_uris":{"android":"levelo://app?vid=ea42e4a5-0e57-44d1-96f4-e0abd2b11dba","ios":"levelo://app?vid=ea42e4a5-0e57-44d1-96f4-e0abd2b11dba"},"vehicle_type_id":"4","last_reported":1752790259,"current_range_meters":16400,"station_id":"ce4bh092rcd13ifvqd30","pricing_plan_id":"cebpf4jnsgd1na2vs0mg"},{"bike_id":"d122ac21-bf61-4cfc-a2b3-e264cb061432","system_id":"levelo_inurba_marseille","lat":43.283544,"lon":5.381057,"is_reserved":false,"is_disabled":false,"rental_uris":{"android":"levelo://app?vid=d122ac21-bf61-4cfc-a2b3-e264cb061432","ios":"levelo://app?vid=d122ac21-bf61-4cfc-a2b3-e264cb061432"},"vehicle_type_id":"4","last_reported":1752790259,"current_range_meters":16400,"station_id":"ce4bh412rcd13ifvqdr0","pricing_plan_id":"cebpf4jnsgd1na2vs0mg"},{"bike_id":"c6db0f6a-96fe-4e1d-8ded-c2ef38c9bab4","system_id":"levelo_inurba_marseille","lat":43.304183,"lon":5.412838,"is_reserved":false,"is_disabled":true,"rental_uris":{"android":"levelo://app?vid=c6db0f6a-96fe-4e1d-8ded-c2ef38c9bab4","ios":"levelo://app?vid=c6db0f6a-96fe-4e1d-8ded-c2ef38c9bab4"},"vehicle_type_id":"4","last_reported":1752790259,"current_range_meters":16800,"station_id":"ce4bhop2rcd13ifvqh8g","pricing_plan_id":"cebpf4jnsgd1na2vs0mg"},{"bike_id":"506fd1ff-4e41-4280-b071-1603e2b99302","system_id":"levelo_inurba_marseille","lat":43.28979,"lon":5.37852,"is_reserved":false,"is_disabled":false,"rental_uris":{"android":"levelo://app?vid=506fd1ff-4e41-4280-b071-1603e2b99302","ios":"levelo://app?vid=506fd1ff-4e41-4280-b071-1603e2b99302"},"vehicle_type_id":"4","last_reported":1752790259,"current_range_meters":16800,"station_id":"ce4bh9p2rcd13ifvqed0","pricing_plan_id":"cebpf4jnsgd1na2vs0mg"},{"bike_id":"b1411f20-9712-40f9-a9cc-407b4e40f865","system_id":"levelo_inurba_marseille","lat":43.26788,"lon":5.41501,"is_reserved":false,"is_disabled":false,"rental_uris":{"android":"levelo://app?vid=b1411f20-9712-40f9-a9cc-407b4e40f865","ios":"levelo://app?vid=b1411f20-9712-40f9-a9cc-407b4e40f865"},"vehicle_type_id":"4","last_reported":1752790259,"current_range_meters":16800,"station_id":"","pricing_plan_id":"cebpf4jnsgd1na2vs0mg"},{"bike_id":"20b742d9-3a67-4d69-88e1-761543279f9f","system_id":"levelo_inurba_marseille","lat":43.28674,"lon":5.38665,"is_reserved":false,"is_disabled":false,"rental_uris":{"android":"levelo://app?vid=20b742d9-3a67-4d69-88e1-761543279f9f","ios":"levelo://app?vid=20b742d9-3a67-4d69-88e1-761543279f9f"},"vehicle_type_id":"4","last_reported":1752790259,"current_range_meters":16800,"station_id":"ce4bh492rcd13ifvqdug","pricing_plan_id":"cebpf4jnsgd1na2vs0mg"},{"bike_id":"dba9ad02-c391-4468-bc6b-ecee0a550373","system_id":"levelo_inurba_marseille","lat":43.271854,"lon":5.362776,"is_reserved":false,"is_disabled":false,"rental_uris":{"android":"levelo://app?vid=dba9ad02-c391-4468-bc6b-ecee0a550373","ios":"levelo://app?vid=dba9ad02-c391-4468-bc6b-ecee0a550373"},"vehicle_type_id":"4","last_reported":1752790259,"current_range_meters":16800,"station_id":"","pricing_plan_id":"cebpf4jnsgd1na2vs0mg"},{"bike_id":"21c28a41-5988-44fd-bd9c-8737f24b78b9","system_id":"levelo_inurba_marseille","lat":43.27205,"lon":5.4015,"is_reserved":false,"is_disabled":false,"rental_uris":{"android":"levelo://app?vid=21c28a41-5988-44fd-bd9c-8737f24b78b9","ios":"levelo://app?vid=21c28a41-5988-44fd-bd9c-8737f24b78b9"},"vehicle_type_id":"4","last_reported":1752790259,"current_range_meters":16800,"station_id":"","pricing_plan_id":"cebpf4jnsgd1na2vs0mg"},{"bike_id":"008d9fa4-24c0-40e3-afc2-6e09b4bdbf02","system_id":"levelo_inurba_marseille","lat":43.30648,"lon":5.40081,"is_reserved":false,"is_disabled":false,"rental_uris":{"android":"levelo://app?vid=008d9fa4-24c0-40e3-afc2-6e09b4bdbf02","ios":"levelo://app?vid=008d9fa4-24c0-40e3-afc2-6e09b4bdbf02"},"vehicle_type_id":"4","last_reported":1752790259,"current_range_meters":16800,"station_id":"ce4bh112rcd13ifvqda0","pricing_plan_id":"cebpf4jnsgd1na2vs0mg"},{"bike_id":"297914b4-f29d-4efa-a16f-6b7800ec2454","system_id":"levelo_inurba_marseille","lat":43.290133,"lon":5.371823,"is_reserved":false,"is_disabled":false,"rental_uris":{"android":"levelo://app?vid=297914b4-f29d-4efa-a16f-6b7800ec2454","ios":"levelo://app?vid=297914b4-f29d-4efa-a16f-6b7800ec2454"},"vehicle_type_id":"4","last_reported":1752790259,"current_range_meters":16800,"station_id":"","pricing_plan_id":"cebpf4jnsgd1na2vs0mg"},{"bike_id":"a82d675d-f65f-415d-abab-aca85261effa","system_id":"levelo_inurba_marseille","lat":43.2953,"lon":5.3938,"is_reserved":false,"is_disabled":false,"rental_uris":{"android":"levelo://app?vid=a82d675d-f65f-415d-abab-aca85261effa","ios":"levelo://app?vid=a82d675d-f65f-415d-abab-aca85261effa"},"vehicle_type_id":"4","last_reported":1752790259,"current_range_meters":17200,"station_id":"ce4bh292rcd13ifvqdf0","pricing_plan_id":"cebpf4jnsgd1na2vs0mg"},{"bike_id":"d6720b8f-c6d3-488f-978f-0140ead3d727","system_id":"levelo_inurba_marseille","lat":43.25118,"lon":5.40321,"is_reserved":false,"is_disabled":false,"rental_uris":{"android":"levelo://app?vid=d6720b8f-c6d3-488f-978f-0140ead3d727","ios":"levelo://app?vid=d6720b8f-c6d3-488f-978f-0140ead3d727"},"vehicle_type_id":"4","last_reported":1752790259,"current_range_meters":17200,"station_id":"ce4bhlh2rcd13ifvqgig","pricing_plan_id":"cebpf4jnsgd1na2vs0mg"},{"bike_id":"c443e4d0-e59b-45c1-8bb3-94439eafe524","system_id":"levelo_inurba_marseille","lat":43.30963,"lon":5.3904,"is_reserved":false,"is_disabled":false,"rental_uris":{"android":"levelo://app?vid=c443e4d0-e59b-45c1-8bb3-94439eafe524","ios":"levelo://app?vid=c443e4d0-e59b-45c1-8bb3-94439eafe524"},"vehicle_type_id":"4","last_reported":1752790259,"current_range_meters":17200,"station_id":"ce4bgup2rcd13ifvqco0","pricing_plan_id":"cebpf4jnsgd1na2vs0mg"},{"bike_id":"e2107f52-eb7a-4f3e-85a4-9ed03b6f7fcf","system_id":"levelo_inurba_marseille","lat":43.295313,"lon":5.385428,"is_reserved":false,"is_disabled":false,"rental_uris":{"android":"levelo://app?vid=e2107f52-eb7a-4f3e-85a4-9ed03b6f7fcf","ios":"levelo://app?vid=e2107f52-eb7a-4f3e-85a4-9ed03b6f7fcf"},"vehicle_type_id":"4","last_reported":1752790259,"current_range_meters":17200,"station_id":"ce4bgih2rcd13ifvqba0","pricing_plan_id":"cebpf4jnsgd1na2vs0mg"},{"bike_id":"649f8ba3-b75a-4b2f-b0ee-d99f6b13344a","system_id":"levelo_inurba_marseille","lat":43.313683,"lon":5.38483,"is_reserved":false,"is_disabled":false,"rental_uris":{"android":"levelo://app?vid=649f8ba3-b75a-4b2f-b0ee-d99f6b13344a","ios":"levelo://app?vid=649f8ba3-b75a-4b2f-b0ee-d99f6b13344a"},"vehicle_type_id":"4","last_reported":1752790259,"current_range_meters":17200,"station_id":"ce4bgt92rcd13ifvqcf0","pricing_plan_id":"cebpf4jnsgd1na2vs0mg"},{"bike_id":"2ed1350f-0b6e-4182-a8b4-561741333858","system_id":"levelo_inurba_marseille","lat":43.27944,"lon":5.41041,"is_reserved":false,"is_disabled":false,"rental_uris":{"android":"levelo://app?vid=2ed1350f-0b6e-4182-a8b4-561741333858","ios":"levelo://app?vid=2ed1350f-0b6e-4182-a8b4-561741333858"},"vehicle_type_id":"4","last_reported":1752790259,"current_range_meters":17200,"station_id":"ce4bhnp2rcd13ifvqh0g","pricing_plan_id":"cebpf4jnsgd1na2vs0mg"},{"bike_id":"5bddd393-d9ee-4909-a787-4d987a46f1a6","system_id":"levelo_inurba_marseille","lat":43.27823,"lon":5.40689,"is_reserved":false,"is_disabled":false,"rental_uris":{"android":"levelo://app?vid=5bddd393-d9ee-4909-a787-4d987a46f1a6","ios":"levelo://app?vid=5bddd393-d9ee-4909-a787-4d987a46f1a6"},"vehicle_type_id":"4","last_reported":1752790259,"current_range_meters":17200,"station_id":"ce4bhnh2rcd13ifvqgtg","pricing_plan_id":"cebpf4jnsgd1na2vs0mg"},{"bike_id":"ce40837d-3edf-4cc2-a747-2f8d4ee2c7fb","system_id":"levelo_inurba_marseille","lat":43.22486,"lon":5.34805,"is_reserved":false,"is_disabled":false,"rental_uris":{"android":"levelo://app?vid=ce40837d-3edf-4cc2-a747-2f8d4ee2c7fb","ios":"levelo://app?vid=ce40837d-3edf-4cc2-a747-2f8d4ee2c7fb"},"vehicle_type_id":"4","last_reported":1752790259,"current_range_meters":17200,"station_id":"st_cvj5dfep6f1abm77gieg","pricing_plan_id":"cebpf4jnsgd1na2vs0mg"},{"bike_id":"9e46aa88-7b19-47c3-b789-71b8902b53cb","system_id":"levelo_inurba_marseille","lat":43.28156,"lon":5.426278,"is_reserved":false,"is_disabled":false,"rental_uris":{"android":"levelo://app?vid=9e46aa88-7b19-47c3-b789-71b8902b53cb","ios":"levelo://app?vid=9e46aa88-7b19-47c3-b789-71b8902b53cb"},"vehicle_type_id":"4","last_reported":1752790259,"current_range_meters":17200,"station_id":"ce4bhnh2rcd13ifvqgug","pricing_plan_id":"cebpf4jnsgd1na2vs0mg"},{"bike_id":"ce7bd25b-5213-4881-a28b-f582e6a1d712","system_id":"levelo_inurba_marseille","lat":43.31288,"lon":5.36734,"is_reserved":false,"is_disabled":true,"rental_uris":{"android":"levelo://app?vid=ce7bd25b-5213-4881-a28b-f582e6a1d712","ios":"levelo://app?vid=ce7bd25b-5213-4881-a28b-f582e6a1d712"},"vehicle_type_id":"4","last_reported":1752790259,"current_range_meters":17200,"station_id":"ce4bgr92rcd13ifvqc6g","pricing_plan_id":"cebpf4jnsgd1na2vs0mg"},{"bike_id":"00cb9e03-8028-497f-8c29-77cd4bf2e8d6","system_id":"levelo_inurba_marseille","lat":43.286154,"lon":5.350963,"is_reserved":false,"is_disabled":true,"rental_uris":{"android":"levelo://app?vid=00cb9e03-8028-497f-8c29-77cd4bf2e8d6","ios":"levelo://app?vid=00cb9e03-8028-497f-8c29-77cd4bf2e8d6"},"vehicle_type_id":"4","last_reported":1752790259,"current_range_meters":17200,"station_id":"ce4bhch2rcd13ifvqeug","pricing_plan_id":"cebpf4jnsgd1na2vs0mg"},{"bike_id":"dae05621-e174-4ad1-ae88-3a8038512e1f","system_id":"levelo_inurba_marseille","lat":43.30792,"lon":5.38153,"is_reserved":false,"is_disabled":false,"rental_uris":{"android":"levelo://app?vid=dae05621-e174-4ad1-ae88-3a8038512e1f","ios":"levelo://app?vid=dae05621-e174-4ad1-ae88-3a8038512e1f"},"vehicle_type_id":"4","last_reported":1752790259,"current_range_meters":17200,"station_id":"ce4bgt12rcd13ifvqce0","pricing_plan_id":"cebpf4jnsgd1na2vs0mg"},{"bike_id":"88761124-1b21-4ab5-a7df-57a53f764661","system_id":"levelo_inurba_marseille","lat":43.3127,"lon":5.40168,"is_reserved":false,"is_disabled":false,"rental_uris":{"android":"levelo://app?vid=88761124-1b21-4ab5-a7df-57a53f764661","ios":"levelo://app?vid=88761124-1b21-4ab5-a7df-57a53f764661"},"vehicle_type_id":"4","last_reported":1752790259,"current_range_meters":17600,"station_id":"ce4bh092rcd13ifvqd30","pricing_plan_id":"cebpf4jnsgd1na2vs0mg"},{"bike_id":"8ca35254-0a78-41fe-ba14-d16c8017b384","system_id":"levelo_inurba_marseille","lat":43.28084,"lon":5.39664,"is_reserved":false,"is_disabled":false,"rental_uris":{"android":"levelo://app?vid=8ca35254-0a78-41fe-ba14-d16c8017b384","ios":"levelo://app?vid=8ca35254-0a78-41fe-ba14-d16c8017b384"},"vehicle_type_id":"4","last_reported":1752790259,"current_range_meters":17600,"station_id":"ce4bho12rcd13ifvqh2g","pricing_plan_id":"cebpf4jnsgd1na2vs0mg"},{"bike_id":"1ec34b9c-3971-44c8-af48-30a92b642a2d","system_id":"levelo_inurba_marseille","lat":43.27053,"lon":5.4026,"is_reserved":false,"is_disabled":false,"rental_uris":{"android":"levelo://app?vid=1ec34b9c-3971-44c8-af48-30a92b642a2d","ios":"levelo://app?vid=1ec34b9c-3971-44c8-af48-30a92b642a2d"},"vehicle_type_id":"4","last_reported":1752790259,"current_range_meters":17600,"station_id":"ce4bhk92rcd13ifvqgc0","pricing_plan_id":"cebpf4jnsgd1na2vs0mg"},{"bike_id":"8009a5fa-6258-4320-920e-f7e5cd54501a","system_id":"levelo_inurba_marseille","lat":43.303,"lon":5.36904,"is_reserved":false,"is_disabled":false,"rental_uris":{"android":"levelo://app?vid=8009a5fa-6258-4320-920e-f7e5cd54501a","ios":"levelo://app?vid=8009a5fa-6258-4320-920e-f7e5cd54501a"},"vehicle_type_id":"4","last_reported":1752790259,"current_range_meters":17600,"station_id":"ce4bgqh2rcd13ifvqc5g","pricing_plan_id":"cebpf4jnsgd1na2vs0mg"},{"bike_id":"9ff20376-409c-4158-a4c4-3f4412e0aaa7","system_id":"levelo_inurba_marseille","lat":43.29236,"lon":5.38447,"is_reserved":false,"is_disabled":false,"rental_uris":{"android":"levelo://app?vid=9ff20376-409c-4158-a4c4-3f4412e0aaa7","ios":"levelo://app?vid=9ff20376-409c-4158-a4c4-3f4412e0aaa7"},"vehicle_type_id":"4","last_reported":1752790259,"current_range_meters":17600,"station_id":"ce4bh692rcd13ifvqea0","pricing_plan_id":"cebpf4jnsgd1na2vs0mg"},{"bike_id":"e622471f-e223-45c0-979c-dbbcfdfe8946","system_id":"levelo_inurba_marseille","lat":43.313945,"lon":5.39898,"is_reserved":false,"is_disabled":false,"rental_uris":{"android":"levelo://app?vid=e622471f-e223-45c0-979c-dbbcfdfe8946","ios":"levelo://app?vid=e622471f-e223-45c0-979c-dbbcfdfe8946"},"vehicle_type_id":"4","last_reported":1752790259,"current_range_meters":17600,"station_id":"","pricing_plan_id":"cebpf4jnsgd1na2vs0mg"},{"bike_id":"1fa6e47a-247c-43f3-a2d5-2457ee6c5d39","system_id":"levelo_inurba_marseille","lat":43.21174,"lon":5.35099,"is_reserved":false,"is_disabled":false,"rental_uris":{"android":"levelo://app?vid=1fa6e47a-247c-43f3-a2d5-2457ee6c5d39","ios":"levelo://app?vid=1fa6e47a-247c-43f3-a2d5-2457ee6c5d39"},"vehicle_type_id":"4","last_reported":1752790259,"current_range_meters":17600,"station_id":"st_cvj6sg6p6f1abm77japg","pricing_plan_id":"cebpf4jnsgd1na2vs0mg"},{"bike_id":"748871f7-a8a8-41ec-aca7-636ee62609af","system_id":"levelo_inurba_marseille","lat":43.3361,"lon":5.41033,"is_reserved":false,"is_disabled":false,"rental_uris":{"android":"levelo://app?vid=748871f7-a8a8-41ec-aca7-636ee62609af","ios":"levelo://app?vid=748871f7-a8a8-41ec-aca7-636ee62609af"},"vehicle_type_id":"4","last_reported":1752790259,"current_range_meters":17600,"station_id":"ce4bhqh2rcd13ifvqhmg","pricing_plan_id":"cebpf4jnsgd1na2vs0mg"},{"bike_id":"c0756183-d701-4ad8-a255-a0a9f43c534c","system_id":"levelo_inurba_marseille","lat":43.29628,"lon":5.40602,"is_reserved":false,"is_disabled":false,"rental_uris":{"android":"levelo://app?vid=c0756183-d701-4ad8-a255-a0a9f43c534c","ios":"levelo://app?vid=c0756183-d701-4ad8-a255-a0a9f43c534c"},"vehicle_type_id":"4","last_reported":1752790259,"current_range_meters":17600,"station_id":"ce4bh0h2rcd13ifvqd60","pricing_plan_id":"cebpf4jnsgd1na2vs0mg"},{"bike_id":"70f36cd6-eecf-472e-bdbf-2ef46198c2cb","system_id":"levelo_inurba_marseille","lat":43.25724,"lon":5.41106,"is_reserved":false,"is_disabled":false,"rental_uris":{"android":"levelo://app?vid=70f36cd6-eecf-472e-bdbf-2ef46198c2cb","ios":"levelo://app?vid=70f36cd6-eecf-472e-bdbf-2ef46198c2cb"},"vehicle_type_id":"4","last_reported":1752790259,"current_range_meters":17600,"station_id":"ce4bhkp2rcd13ifvqgd0","pricing_plan_id":"cebpf4jnsgd1na2vs0mg"},{"bike_id":"cfb52d04-9134-4c86-8269-771716b20f27","system_id":"levelo_inurba_marseille","lat":43.21198,"lon":5.35071,"is_reserved":false,"is_disabled":false,"rental_uris":{"android":"levelo://app?vid=cfb52d04-9134-4c86-8269-771716b20f27","ios":"levelo://app?vid=cfb52d04-9134-4c86-8269-771716b20f27"},"vehicle_type_id":"4","last_reported":1752790259,"current_range_meters":17600,"station_id":"st_cvj6sg6p6f1abm77japg","pricing_plan_id":"cebpf4jnsgd1na2vs0mg"},{"bike_id":"88c58a67-929d-4068-bb2b-02e860d4ad07","system_id":"levelo_inurba_marseille","lat":43.28105,"lon":5.37841,"is_reserved":false,"is_disabled":false,"rental_uris":{"android":"levelo://app?vid=88c58a67-929d-4068-bb2b-02e860d4ad07","ios":"levelo://app?vid=88c58a67-929d-4068-bb2b-02e860d4ad07"},"vehicle_type_id":"4","last_reported":1752790259,"current_range_meters":17600,"station_id":"ce4bha12rcd13ifvqee0","pricing_plan_id":"cebpf4jnsgd1na2vs0mg"},{"bike_id":"8cb63193-36a4-4198-9c24-3076de2a4ac6","system_id":"levelo_inurba_marseille","lat":43.30633,"lon":5.40091,"is_reserved":false,"is_disabled":false,"rental_uris":{"android":"levelo://app?vid=8cb63193-36a4-4198-9c24-3076de2a4ac6","ios":"levelo://app?vid=8cb63193-36a4-4198-9c24-3076de2a4ac6"},"vehicle_type_id":"4","last_reported":1752790259,"current_range_meters":18000,"station_id":"ce4bh112rcd13ifvqda0","pricing_plan_id":"cebpf4jnsgd1na2vs0mg"},{"bike_id":"9e8e3fca-2acb-4fbe-8a82-96c4f3e74feb","system_id":"levelo_inurba_marseille","lat":43.30249,"lon":5.40062,"is_reserved":false,"is_disabled":false,"rental_uris":{"android":"levelo://app?vid=9e8e3fca-2acb-4fbe-8a82-96c4f3e74feb","ios":"levelo://app?vid=9e8e3fca-2acb-4fbe-8a82-96c4f3e74feb"},"vehicle_type_id":"4","last_reported":1752790259,"current_range_meters":18000,"station_id":"ce4bgvh2rcd13ifvqcs0","pricing_plan_id":"cebpf4jnsgd1na2vs0mg"},{"bike_id":"3dd53699-95df-4ee3-81a9-ba42f3db478b","system_id":"levelo_inurba_marseille","lat":43.30318,"lon":5.40469,"is_reserved":false,"is_disabled":false,"rental_uris":{"android":"levelo://app?vid=3dd53699-95df-4ee3-81a9-ba42f3db478b","ios":"levelo://app?vid=3dd53699-95df-4ee3-81a9-ba42f3db478b"},"vehicle_type_id":"4","last_reported":1752790259,"current_range_meters":18000,"station_id":"ce4bh012rcd13ifvqd10","pricing_plan_id":"cebpf4jnsgd1na2vs0mg"},{"bike_id":"2d95b47d-d06f-40a4-bb6e-c13e954e3c8f","system_id":"levelo_inurba_marseille","lat":43.27716,"lon":5.41428,"is_reserved":false,"is_disabled":false,"rental_uris":{"android":"levelo://app?vid=2d95b47d-d06f-40a4-bb6e-c13e954e3c8f","ios":"levelo://app?vid=2d95b47d-d06f-40a4-bb6e-c13e954e3c8f"},