{"last_updated":1728307090,"ttl":60,"version":"2.2","data":{"bikes":[{"bike_id":"ab9ab981-3f02-42a9-8346-875472e0b2b5","system_id":"levelo_inurba_marseille","lat":43.29251,"lon":5.38447,"is_reserved":false,"is_disabled":false,"rental_uris":{"android":"levelo://app?vid=ab9ab981-3f02-42a9-8346-875472e0b2b5","ios":"levelo://app?vid=ab9ab981-3f02-42a9-8346-875472e0b2b5"},"vehicle_type_id":"4","last_reported":1728307090,"current_range_meters":10000,"station_id":"ce4bh692rcd13ifvqea0","pricing_plan_id":"cebpf4jnsgd1na2vs0mg"},{"bike_id":"5cc8d285-4fd4-4862-98ec-a3ae40dbae5b","system_id":"levelo_inurba_marseille","lat":43.309259,"lon":5.401463,"is_reserved":false,"is_disabled":false,"rental_uris":{"android":"levelo://app?vid=5cc8d285-4fd4-4862-98ec-a3ae40dbae5b","ios":"levelo://app?vid=5cc8d285-4fd4-4862-98ec-a3ae40dbae5b"},"vehicle_type_id":"4","last_reported":1728307090,"current_range_meters":25600,"station_id":"ce4bgvp2rcd13ifvqct0","pricing_plan_id":"cebpf4jnsgd1na2vs0mg"},{"bike_id":"4a54c7ac-8cbf-487c-a629-2fa393032eb4","system_id":"levelo_inurba_marseille","lat":43.27177,"lon":5.40995,"is_reserved":false,"is_disabled":false,"rental_uris":{"android":"levelo://app?vid=4a54c7ac-8cbf-487c-a629-2fa393032eb4","ios":"levelo://app?vid=4a54c7ac-8cbf-487c-a629-2fa393032eb4"},"vehicle_type_id":"4","last_reported":1728307090,"current_range_meters":20000,"station_id":"ce4bhl12rcd13ifvqgf0","pricing_plan_id":"cebpf4jnsgd1na2vs0mg"},{"bike_id":"01128b53-26b1-471a-b267-4cf298395c84","system_id":"levelo_inurba_marseille","lat":43.31323,"lon":5.39693,"is_reserved":false,"is_disabled":false,"rental_uris":{"android":"levelo://app?vid=01128b53-26b1-471a-b267-4cf298395c84","ios":"levelo://app?vid=01128b53-26b1-471a-b267-4cf298395c84"},"vehicle_type_id":"4","last_reported":1728307090,"current_range_meters":22000,"station_id":"ce4bgvp2rcd13ifvqcu0","pricing_plan_id":"cebpf4jnsgd1na2vs0mg"},{"bike_id":"9840128e-20cc-4d85-941b-d961e61c1c08","system_id":"levelo_inurba_marseille","lat":43.23147,"lon":5.43715,"is_reserved":false,"is_disabled":false,"rental_uris":{"android":"levelo://app?vid=9840128e-20cc-4d85-941b-d961e61c1c08","ios":"levelo://app?vid=9840128e-20cc-4d85-941b-d961e61c1c08"},"vehicle_type_id":"4","last_reported":1728307090,"current_range_meters":8000,"station_id":"ce4bhmp2rcd13ifvqgog","pricing_plan_id":"cebpf4jnsgd1na2vs0mg"},{"bike_id":"5d7d21fd-8801-4341-87fb-c738f32e90a0","system_id":"levelo_inurba_marseille","lat":43.32537,"lon":5.41444,"is_reserved":false,"is_disabled":false,"rental_uris":{"android":"levelo://app?vid=5d7d21fd-8801-4341-87fb-c738f32e90a0","ios":"levelo://app?vid=5d7d21fd-8801-4341-87fb-c738f32e90a0"},"vehicle_type_id":"4","last_reported":1728307090,"current_range_meters":32400,"station_id":"ce4bhq12rcd13ifvqhhg","pricing_plan_id":"cebpf4jnsgd1na2vs0mg"},{"bike_id":"8a874caf-3db6-4bc3-b3d8-4f7a2a032123","system_id":"levelo_inurba_marseille","lat":43.229334,"lon":5.35375,"is_reserved":false,"is_disabled":false,"rental_uris":{"android":"levelo://app?vid=8a874caf-3db6-4bc3-b3d8-4f7a2a032123","ios":"levelo://app?vid=8a874caf-3db6-4bc3-b3d8-4f7a2a032123"},"vehicle_type_id":"4","last_reported":1728307090,"current_range_meters":25200,"station_id":"cpo3532slgdg3j2ikp40","pricing_plan_id":"cebpf4jnsgd1na2vs0mg"},{"bike_id":"3edccbad-c604-40df-acb2-6e9d91b67298","system_id":"levelo_inurba_marseille","lat":43.23058,"lon":5.35492,"is_reserved":false,"is_disabled":false,"rental_uris":{"android":"levelo://app?vid=3edccbad-c604-40df-acb2-6e9d91b67298","ios":"levelo://app?vid=3edccbad-c604-40df-acb2-6e9d91b67298"},"vehicle_type_id":"4","last_reported":1728307090,"current_range_meters":20400,"station_id":"cpo3342slgdg3j2ifvpg","pricing_plan_id":"cebpf4jnsgd1na2vs0mg"},{"bike_id":"e46b40c9-1399-4fd4-b51a-703bb0e13487","system_id":"levelo_inurba_marseille","lat":43.29058,"lon":5.3998,"is_reserved":false,"is_disabled":false,"rental_uris":{"android":"levelo://app?vid=e46b40c9-1399-4fd4-b51a-703bb0e13487","ios":"levelo://app?vid=e46b40c9-1399-4fd4-b51a-703bb0e13487"},"vehicle_type_id":"4","last_reported":1728307090,"current_range_meters":38400,"station_id":"ce4bh392rcd13ifvqdm0","pricing_plan_id":"cebpf4jnsgd1na2vs0mg"},{"bike_id":"e9404fff-d158-4e89-b2e4-35f93119e5d4","system_id":"levelo_inurba_marseille","lat":43.30131,"lon":5.37415,"is_reserved":false,"is_disabled":false,"rental_uris":{"android":"levelo://app?vid=e9404fff-d158-4e89-b2e4-35f93119e5d4","ios":"levelo://app?vid=e9404fff-d158-4e89-b2e4-35f93119e5d4"},"vehicle_type_id":"4","last_reported":1728307090,"current_range_meters":11600,"station_id":"ce4bgs92rcd13ifvqcc0","pricing_plan_id":"cebpf4jnsgd1na2vs0mg"},{"bike_id":"1e4db23e-6721-48f6-8f77-6c6c5d6be2ff","system_id":"levelo_inurba_marseille","lat":43.28861,"lon":5.39323,"is_reserved":false,"is_disabled":false,"rental_uris":{"android":"levelo://app?vid=1e4db23e-6721-48f6-8f77-6c6c5d6be2ff","ios":"levelo://app?vid=1e4db23e-6721-48f6-8f77-6c6c5d6be2ff"},"vehicle_type_id":"4","last_reported":1728307090,"current_range_meters":26800,"station_id":"ce4bh2p2rcd13ifvqdi0","pricing_plan_id":"cebpf4jnsgd1na2vs0mg"},{"bike_id":"dbecab53-ad66-4758-8acf-50523fa05612","system_id":"levelo_inurba_marseille","lat":43.29023,"lon":5.38641,"is_reserved":false,"is_disabled":false,"rental_uris":{"android":"levelo://app?vid=dbecab53-ad66-4758-8acf-50523fa05612","ios":"levelo://app?vid=dbecab53-ad66-4758-8acf-50523fa05612"},"vehicle_type_id":"4","last_reported":1728307090,"current_range_meters":4000,"station_id":"ce4bh4p2rcd13ifvqe0g","pricing_plan_id":"cebpf4jnsgd1na2vs0mg"},{"bike_id":"9b90015d-afd1-4ef9-a9ac-a8694f237c16","system_id":"levelo_inurba_marseille","lat":43.2315,"lon":5.43714,"is_reserved":false,"is_disabled":false,"rental_uris":{"android":"levelo://app?vid=9b90015d-afd1-4ef9-a9ac-a8694f237c16","ios":"levelo://app?vid=9b90015d-afd1-4ef9-a9ac-a8694f237c16"},"vehicle_type_id":"4","last_reported":1728307090,"current_range_meters":15200,"station_id":"ce4bhmp2rcd13ifvqgog","pricing_plan_id":"cebpf4jnsgd1na2vs0mg"},{"bike_id":"36046fb3-2ac2-4b39-8b54-9fabbd6a6524","system_id":"levelo_inurba_marseille","lat":43.31116,"lon":5.37774,"is_reserved":false,"is_disabled":false,"rental_uris":{"android":"levelo://app?vid=36046fb3-2ac2-4b39-8b54-9fabbd6a6524","ios":"levelo://app?vid=36046fb3-2ac2-4b39-8b54-9fabbd6a6524"},"vehicle_type_id":"4","last_reported":1728307090,"current_range_meters":33200,"station_id":"ce4bgt92rcd13ifvqcg0","pricing_plan_id":"cebpf4jnsgd1na2vs0mg"},{"bike_id":"2514f891-7dfb-454b-b9d5-38ca3a5eee5f","system_id":"levelo_inurba_marseille","lat":43.26789,"lon":5.39422,"is_reserved":false,"is_disabled":false,"rental_uris":{"android":"levelo://app?vid=2514f891-7dfb-454b-b9d5-38ca3a5eee5f","ios":"levelo://app?vid=2514f891-7dfb-454b-b9d5-38ca3a5eee5f"},"vehicle_type_id":"4","last_reported":1728307090,"current_range_meters":26000,"station_id":"ce4bhh12rcd13ifvqfg0","pricing_plan_id":"cebpf4jnsgd1na2vs0mg"},{"bike_id":"7c3acb4c-8811-42c8-98ab-05cf388495cd","system_id":"levelo_inurba_marseille","lat":43.25928,"lon":5.40907,"is_reserved":false,"is_disabled":false,"rental_uris":{"android":"levelo://app?vid=7c3acb4c-8811-42c8-98ab-05cf388495cd","ios":"levelo://app?vid=7c3acb4c-8811-42c8-98ab-05cf388495cd"},"vehicle_type_id":"4","last_reported":1728307090,"current_range_meters":27200,"station_id":"ce4bhm92rcd13ifvqglg","pricing_plan_id":"cebpf4jnsgd1na2vs0mg"},{"bike_id":"182c9312-1c0f-460c-8f28-44e0e2bc6c77","system_id":"levelo_inurba_marseille","lat":43.26059,"lon":5.39398,"is_reserved":false,"is_disabled":false,"rental_uris":{"android":"levelo://app?vid=182c9312-1c0f-460c-8f28-44e0e2bc6c77","ios":"levelo://app?vid=182c9312-1c0f-460c-8f28-44e0e2bc6c77"},"vehicle_type_id":"4","last_reported":1728307090,"current_range_meters":30800,"station_id":"ce4bhh92rcd13ifvqfj0","pricing_plan_id":"cebpf4jnsgd1na2vs0mg"},{"bike_id":"860447d6-5786-4eee-93a5-0ae421cfc011","system_id":"levelo_inurba_marseille","lat":43.292267,"lon":5.360687,"is_reserved":false,"is_disabled":false,"rental_uris":{"android":"levelo://app?vid=860447d6-5786-4eee-93a5-0ae421cfc011","ios":"levelo://app?vid=860447d6-5786-4eee-93a5-0ae421cfc011"},"vehicle_type_id":"4","last_reported":1728307090,"current_range_meters":15200,"station_id":"ce4bhb92rcd13ifvqen0","pricing_plan_id":"cebpf4jnsgd1na2vs0mg"},{"bike_id":"5ee7c659-a96f-40cd-a29d-b0d94909ec23","system_id":"levelo_inurba_marseille","lat":43.28614,"lon":5.35097,"is_reserved":false,"is_disabled":false,"rental_uris":{"android":"levelo://app?vid=5ee7c659-a96f-40cd-a29d-b0d94909ec23","ios":"levelo://app?vid=5ee7c659-a96f-40cd-a29d-b0d94909ec23"},"vehicle_type_id":"4","last_reported":1728307090,"current_range_meters":25200,"station_id":"ce4bhch2rcd13ifvqeug","pricing_plan_id":"cebpf4jnsgd1na2vs0mg"},{"bike_id":"6f7b3a87-41ce-483d-a7ea-51a3979ba39a","system_id":"levelo_inurba_marseille","lat":43.29779,"lon":5.37091,"is_reserved":false,"is_disabled":false,"rental_uris":{"android":"levelo://app?vid=6f7b3a87-41ce-483d-a7ea-51a3979ba39a","ios":"levelo://app?vid=6f7b3a87-41ce-483d-a7ea-51a3979ba39a"},"vehicle_type_id":"4","last_reported":1728307090,"current_range_meters":37600,"station_id":"ce4bgop2rcd13ifvqc1g","pricing_plan_id":"cebpf4jnsgd1na2vs0mg"},{"bike_id":"81b07a05-4c57-4e76-99d6-5f6e3acbb201","system_id":"levelo_inurba_marseille","lat":43.23059,"lon":5.35491,"is_reserved":false,"is_disabled":false,"rental_uris":{"android":"levelo://app?vid=81b07a05-4c57-4e76-99d6-5f6e3acbb201","ios":"levelo://app?vid=81b07a05-4c57-4e76-99d6-5f6e3acbb201"},"vehicle_type_id":"4","last_reported":1728307090,"current_range_meters":12000,"station_id":"cpo3342slgdg3j2ifvpg","pricing_plan_id":"cebpf4jnsgd1na2vs0mg"},{"bike_id":"e60bbbd0-387d-4477-9954-d38aa9bd46bf","system_id":"levelo_inurba_marseille","lat":43.2668,"lon":5.38271,"is_reserved":false,"is_disabled":false,"rental_uris":{"android":"levelo://app?vid=e60bbbd0-387d-4477-9954-d38aa9bd46bf","ios":"levelo://app?vid=e60bbbd0-387d-4477-9954-d38aa9bd46bf"},"vehicle_type_id":"4","last_reported":1728307090,"current_range_meters":28000,"station_id":"ce4bhg92rcd13ifvqf90","pricing_plan_id":"cebpf4jnsgd1na2vs0mg"},{"bike_id":"23c5a382-240b-479e-9cea-e5f248736ea2","system_id":"levelo_inurba_marseille","lat":43.26675,"lon":5.38264,"is_reserved":false,"is_disabled":false,"rental_uris":{"android":"levelo://app?vid=23c5a382-240b-479e-9cea-e5f248736ea2","ios":"levelo://app?vid=23c5a382-240b-479e-9cea-e5f248736ea2"},"vehicle_type_id":"4","last_reported":1728307090,"current_range_meters":11200,"station_id":"ce4bhg92rcd13ifvqf90","pricing_plan_id":"cebpf4jnsgd1na2vs0mg"},{"bike_id":"7b5acb30-7728-4d2f-b8de-cc88114cf385","system_id":"levelo_inurba_marseille","lat":43.23144,"lon":5.43719,"is_reserved":false,"is_disabled":false,"rental_uris":{"android":"levelo://app?vid=7b5acb30-7728-4d2f-b8de-cc88114cf385","ios":"levelo://app?vid=7b5acb30-7728-4d2f-b8de-cc88114cf385"},"vehicle_type_id":"4","last_reported":1728307090,"current_range_meters":38800,"station_id":"ce4bhmp2rcd13ifvqgog","pricing_plan_id":"cebpf4jnsgd1na2vs0mg"},{"bike_id":"a457447b-4bca-443c-9763-c6e8562c6453","system_id":"levelo_inurba_marseille","lat":43.32043,"lon":5.41542,"is_reserved":false,"is_disabled":false,"rental_uris":{"android":"levelo://app?vid=a457447b-4bca-443c-9763-c6e8562c6453","ios":"levelo://app?vid=a457447b-4bca-443c-9763-c6e8562c6453"},"vehicle_type_id":"4","last_reported":1728307090,"current_range_meters":39200,"station_id":"ce4bhq92rcd13ifvqhkg","pricing_plan_id":"cebpf4jnsgd1na2vs0mg"},{"bike_id":"55e0fec4-89c4-403b-a5f1-f9effe3110c1","system_id":"levelo_inurba_marseille","lat":43.29937,"lon":5.36553,"is_reserved":false,"is_disabled":false,"rental_uris":{"android":"levelo://app?vid=55e0fec4-89c4-403b-a5f1-f9effe3110c1","ios":"levelo://app?vid=55e0fec4-89c4-403b-a5f1-f9effe3110c1"},"vehicle_type_id":"4","last_reported":1728307090,"current_range_meters":24800,"station_id":"ce4bgm92rcd13ifvqbr0","pricing_plan_id":"cebpf4jnsgd1na2vs0mg"},{"bike_id":"b0e13951-974c-44e5-b17f-75c491d79231","system_id":"levelo_inurba_marseille","lat":43.3091,"lon":5.3685,"is_reserved":false,"is_disabled":false,"rental_uris":{"android":"levelo://app?vid=b0e13951-974c-44e5-b17f-75c491d79231","ios":"levelo://app?vid=b0e13951-974c-44e5-b17f-75c491d79231"},"vehicle_type_id":"4","last_reported":1728307090,"current_range_meters":38800,"station_id":"ce4bgn92rcd13ifvqbvg","pricing_plan_id":"cebpf4jnsgd1na2vs0mg"},{"bike_id":"c7ea1aab-9c62-49b5-8a07-a7ca866b08d3","system_id":"levelo_inurba_marseille","lat":43.337444,"lon":5.374475,"is_reserved":false,"is_disabled":false,"rental_uris":{"android":"levelo://app?vid=c7ea1aab-9c62-49b5-8a07-a7ca866b08d3","ios":"levelo://app?vid=c7ea1aab-9c62-49b5-8a07-a7ca866b08d3"},"vehicle_type_id":"4","last_reported":1728307090,"current_range_meters":28800,"station_id":"","pricing_plan_id":"cebpf4jnsgd1na2vs0mg"},{"bike_id":"48a43036-d79d-45c7-808a-09eeaeb71c88","system_id":"levelo_inurba_marseille","lat":43.30915,"lon":5.3685,"is_reserved":false,"is_disabled":false,"rental_uris":{"android":"levelo://app?vid=48a43036-d79d-45c7-808a-09eeaeb71c88","ios":"levelo://app?vid=48a43036-d79d-45c7-808a-09eeaeb71c88"},"vehicle_type_id":"4","last_reported":1728307090,"current_range_meters":38800,"station_id":"ce4bgn92rcd13ifvqbvg","pricing_plan_id":"cebpf4jnsgd1na2vs0mg"},{"bike_id":"e80af89a-4066-4eb9-98ed-76a2ded367b2","system_id":"levelo_inurba_marseille","lat":43.30551,"lon":5.36702,"is_reserved":false,"is_disabled":false,"rental_uris":{"android":"levelo://app?vid=e80af89a-4066-4eb9-98ed-76a2ded367b2","ios":"levelo://app?vid=e80af89a-4066-4eb9-98ed-76a2ded367b2"},"vehicle_type_id":"4","last_reported":1728307090,"current_range_meters":35600,"station_id":"ce4bgrp2rcd13ifvqc9g","pricing_plan_id":"cebpf4jnsgd1na2vs0mg"},{"bike_id":"00da2976-3493-4bc8-94d2-f051823aec2a","system_id":"levelo_inurba_marseille","lat":43.29522,"lon":5.38535,"is_reserved":false,"is_disabled":false,"rental_uris":{"android":"levelo://app?vid=00da2976-3493-4bc8-94d2-f051823aec2a","ios":"levelo://app?vid=00da2976-3493-4bc8-94d2-f051823aec2a"},"vehicle_type_id":"4","last_reported":1728307090,"current_range_meters":27600,"station_id":"ce4bgih2rcd13ifvqba0","pricing_plan_id":"cebpf4jnsgd1na2vs0mg"},{"bike_id":"35db5aab-a536-4286-87d7-90ec43783f24","system_id":"levelo_inurba_marseille","lat":43.231931,"lon":5.355568,"is_reserved":false,"is_disabled":false,"rental_uris":{"android":"levelo://app?vid=35db5aab-a536-4286-87d7-90ec43783f24","ios":"levelo://app?vid=35db5aab-a536-4286-87d7-90ec43783f24"},"vehicle_type_id":"4","last_reported":1728307090,"current_range_meters":36000,"station_id":"ce4bhu92rcd13ifvqi70","pricing_plan_id":"cebpf4jnsgd1na2vs0mg"},{"bike_id":"62dfd99c-f976-4937-b2d0-5b50f5ae699f","system_id":"levelo_inurba_marseille","lat":43.24166,"lon":5.36405,"is_reserved":false,"is_disabled":false,"rental_uris":{"android":"levelo://app?vid=62dfd99c-f976-4937-b2d0-5b50f5ae699f","ios":"levelo://app?vid=62dfd99c-f976-4937-b2d0-5b50f5ae699f"},"vehicle_type_id":"4","last_reported":1728307090,"current_range_meters":10000,"station_id":"cpo36qri1sfpv3e86is0","pricing_plan_id":"cebpf4jnsgd1na2vs0mg"},{"bike_id":"d0e1ea43-d73d-4e39-b4f6-42e9dca2a02f","system_id":"levelo_inurba_marseille","lat":43.30103,"lon":5.3908,"is_reserved":false,"is_disabled":false,"rental_uris":{"android":"levelo://app?vid=d0e1ea43-d73d-4e39-b4f6-42e9dca2a02f","ios":"levelo://app?vid=d0e1ea43-d73d-4e39-b4f6-42e9dca2a02f"},"vehicle_type_id":"4","last_reported":1728307090,"current_range_meters":39200,"station_id":"ce4bh192rcd13ifvqdb0","pricing_plan_id":"cebpf4jnsgd1na2vs0mg"},{"bike_id":"36cd3467-84af-40be-b216-a733e634a71c","system_id":"levelo_inurba_marseille","lat":43.30541,"lon":5.36706,"is_reserved":false,"is_disabled":false,"rental_uris":{"android":"levelo://app?vid=36cd3467-84af-40be-b216-a733e634a71c","ios":"levelo://app?vid=36cd3467-84af-40be-b216-a733e634a71c"},"vehicle_type_id":"4","last_reported":1728307090,"current_range_meters":11200,"station_id":"ce4bgrp2rcd13ifvqc9g","pricing_plan_id":"cebpf4jnsgd1na2vs0mg"},{"bike_id":"7d8e2075-dfbf-45ea-a039-461732e9d7a3","system_id":"levelo_inurba_marseille","lat":43.26063,"lon":5.39395,"is_reserved":false,"is_disabled":false,"rental_uris":{"android":"levelo://app?vid=7d8e2075-dfbf-45ea-a039-461732e9d7a3","ios":"levelo://app?vid=7d8e2075-dfbf-45ea-a039-461732e9d7a3"},"vehicle_type_id":"4","last_reported":1728307090,"current_range_meters":12800,"station_id":"ce4bhh92rcd13ifvqfj0","pricing_plan_id":"cebpf4jnsgd1na2vs0mg"},{"bike_id":"3afb0b09-65c2-428e-a9dc-c6a984dbc947","system_id":"levelo_inurba_marseille","lat":43.30434,"lon":5.39324,"is_reserved":false,"is_disabled":false,"rental_uris":{"android":"levelo://app?vid=3afb0b09-65c2-428e-a9dc-c6a984dbc947","ios":"levelo://app?vid=3afb0b09-65c2-428e-a9dc-c6a984dbc947"},"vehicle_type_id":"4","last_reported":1728307090,"current_range_meters":38400,"station_id":"ce4bh0p2rcd13ifvqd70","pricing_plan_id":"cebpf4jnsgd1na2vs0mg"},{"bike_id":"6e6cfeaa-eec4-47aa-9433-c3377fc92303","system_id":"levelo_inurba_marseille","lat":43.261017,"lon":5.375198,"is_reserved":false,"is_disabled":false,"rental_uris":{"android":"levelo://app?vid=6e6cfeaa-eec4-47aa-9433-c3377fc92303","ios":"levelo://app?vid=6e6cfeaa-eec4-47aa-9433-c3377fc92303"},"vehicle_type_id":"4","last_reported":1728307090,"current_range_meters":34800,"station_id":"ce4bh612rcd13ifvqe6g","pricing_plan_id":"cebpf4jnsgd1na2vs0mg"},{"bike_id":"c2d96dd9-9e45-44ba-8318-74b4e8bd2695","system_id":"levelo_inurba_marseille","lat":43.28268,"lon":5.35057,"is_reserved":false,"is_disabled":false,"rental_uris":{"android":"levelo://app?vid=c2d96dd9-9e45-44ba-8318-74b4e8bd2695","ios":"levelo://app?vid=c2d96dd9-9e45-44ba-8318-74b4e8bd2695"},"vehicle_type_id":"4","last_reported":1728307090,"current_range_meters":7200,"station_id":"ce4bhbp2rcd13ifvqerg","pricing_plan_id":"cebpf4jnsgd1na2vs0mg"},{"bike_id":"1508c135-fbc2-4953-a749-509d8b0d7b7d","system_id":"levelo_inurba_marseille","lat":43.30465,"lon":5.37905,"is_reserved":false,"is_disabled":false,"rental_uris":{"android":"levelo://app?vid=1508c135-fbc2-4953-a749-509d8b0d7b7d","ios":"levelo://app?vid=1508c135-fbc2-4953-a749-509d8b0d7b7d"},"vehicle_type_id":"4","last_reported":1728307090,"current_range_meters":32800,"station_id":"ce4bgup2rcd13ifvqcn0","pricing_plan_id":"cebpf4jnsgd1na2vs0mg"},{"bike_id":"b13a2c26-8084-44d0-a628-946489b8bc6f","system_id":"levelo_inurba_marseille","lat":43.31266,"lon":5.4017,"is_reserved":false,"is_disabled":false,"rental_uris":{"android":"levelo://app?vid=b13a2c26-8084-44d0-a628-946489b8bc6f","ios":"levelo://app?vid=b13a2c26-8084-44d0-a628-946489b8bc6f"},"vehicle_type_id":"4","last_reported":1728307090,"current_range_meters":9200,"station_id":"ce4bh092rcd13ifvqd30","pricing_plan_id":"cebpf4jnsgd1na2vs0mg"},{"bike_id":"baba7691-81ff-4c7d-90d9-c89eba9696cb","system_id":"levelo_inurba_marseille","lat":43.25925,"lon":5.40906,"is_reserved":false,"is_disabled":false,"rental_uris":{"android":"levelo://app?vid=baba7691-81ff-4c7d-90d9-c89eba9696cb","ios":"levelo://app?vid=baba7691-81ff-4c7d-90d9-c89eba9696cb"},"vehicle_type_id":"4","last_reported":1728307090,"current_range_meters":27600,"station_id":"ce4bhm92rcd13ifvqglg","pricing_plan_id":"cebpf4jnsgd1na2vs0mg"},{"bike_id":"b1a42782-3ee6-4e5c-aa06-ed242166d1ed","system_id":"levelo_inurba_marseille","lat":43.3211,"lon":5.3677,"is_reserved":false,"is_disabled":false,"rental_uris":{"android":"levelo://app?vid=b1a42782-3ee6-4e5c-aa06-ed242166d1ed","ios":"levelo://app?vid=b1a42782-3ee6-4e5c-aa06-ed242166d1ed"},"vehicle_type_id":"4","last_reported":1728307090,"current_range_meters":32800,"station_id":"ce4bhrh2rcd13ifvqhug","pricing_plan_id":"cebpf4jnsgd1na2vs0mg"},{"bike_id":"11d714b7-1569-4f07-831f-05b1fcaf7f1e","system_id":"levelo_inurba_marseille","lat":43.30924,"lon":5.4014,"is_reserved":false,"is_disabled":false,"rental_uris":{"android":"levelo://app?vid=11d714b7-1569-4f07-831f-05b1fcaf7f1e","ios":"levelo://app?vid=11d714b7-1569-4f07-831f-05b1fcaf7f1e"},"vehicle_type_id":"4","last_reported":1728307090,"current_range_meters":38800,"station_id":"ce4bgvp2rcd13ifvqct0","pricing_plan_id":"cebpf4jnsgd1na2vs0mg"},{"bike_id":"fec885cd-387f-4f71-9e64-7a12f33aa81b","system_id":"levelo_inurba_marseille","lat":43.24384,"lon":5.37049,"is_reserved":false,"is_disabled":false,"rental_uris":{"android":"levelo://app?vid=fec885cd-387f-4f71-9e64-7a12f33aa81b","ios":"levelo://app?vid=fec885cd-387f-4f71-9e64-7a12f33aa81b"},"vehicle_type_id":"4","last_reported":1728307090,"current_range_meters":24800,"station_id":"ce4bhhh2rcd13ifvqfk0","pricing_plan_id":"cebpf4jnsgd1na2vs0mg"},{"bike_id":"c93b1da1-edd2-49e3-a11b-9a2f82bab027","system_id":"levelo_inurba_marseille","lat":43.27811,"lon":5.40713,"is_reserved":false,"is_disabled":false,"rental_uris":{"android":"levelo://app?vid=c93b1da1-edd2-49e3-a11b-9a2f82bab027","ios":"levelo://app?vid=c93b1da1-edd2-49e3-a11b-9a2f82bab027"},"vehicle_type_id":"4","last_reported":1728307090,"current_range_meters":27200,"station_id":"ce4bhnh2rcd13ifvqgtg","pricing_plan_id":"cebpf4jnsgd1na2vs0mg"},{"bike_id":"2b92dace-4c92-4924-aaa3-1b889c7c1e13","system_id":"levelo_inurba_marseille","lat":43.2999,"lon":5.38483,"is_reserved":false,"is_disabled":false,"rental_uris":{"android":"levelo://app?vid=2b92dace-4c92-4924-aaa3-1b889c7c1e13","ios":"levelo://app?vid=2b92dace-4c92-4924-aaa3-1b889c7c1e13"},"vehicle_type_id":"4","last_reported":1728307090,"current_range_meters":37600,"station_id":"ce4bgj92rcd13ifvqbd0","pricing_plan_id":"cebpf4jnsgd1na2vs0mg"},{"bike_id":"836bd6f3-de69-4a2b-8759-1db8ff4cd2d4","system_id":"levelo_inurba_marseille","lat":43.29782,"lon":5.37111,"is_reserved":false,"is_disabled":false,"rental_uris":{"android":"levelo://app?vid=836bd6f3-de69-4a2b-8759-1db8ff4cd2d4","ios":"levelo://app?vid=836bd6f3-de69-4a2b-8759-1db8ff4cd2d4"},"vehicle_type_id":"4","last_reported":1728307090,"current_range_meters":30000,"station_id":"ce4bgop2rcd13ifvqc1g","pricing_plan_id":"cebpf4jnsgd1na2vs0mg"},{"bike_id":"4af55307-045f-4c66-a045-a91d88bb4c16","system_id":"levelo_inurba_marseille","lat":43.22926,"lon":5.35372,"is_reserved":false,"is_disabled":false,"rental_uris":{"android":"levelo://app?vid=4af55307-045f-4c66-a045-a91d88bb4c16","ios":"levelo://app?vid=4af55307-045f-4c66-a045-a91d88bb4c16"},"vehicle_type_id":"4","last_reported":1728307090,"current_range_meters":26800,"station_id":"cpo3532slgdg3j2ikp40","pricing_plan_id":"cebpf4jnsgd1na2vs0mg"},{"bike_id":"aa598db1-3c3a-48c0-acd0-1929a2b13407","system_id":"levelo_inurba_marseille","lat":43.31716,"lon":5.43709,"is_reserved":false,"is_disabled":false,"rental_uris":{"android":"levelo://app?vid=aa598db1-3c3a-48c0-acd0-1929a2b13407","ios":"levelo://app?vid=aa598db1-3c3a-48c0-acd0-1929a2b13407"},"vehicle_type_id":"4","last_reported":1728307090,"current_range_meters":22400,"station_id":"ce4bhp92rcd13ifvqhcg","pricing_plan_id":"cebpf4jnsgd1na2vs0mg"},{"bike_id":"47efe985-66e3-4fb1-a00d-60851f779f19","system_id":"levelo_inurba_marseille","lat":43.32538,"lon":5.41422,"is_reserved":false,"is_disabled":false,"rental_uris":{"android":"levelo://app?vid=47efe985-66e3-4fb1-a00d-60851f779f19","ios":"levelo://app?vid=47efe985-66e3-4fb1-a00d-60851f779f19"},"vehicle_type_id":"4","last_reported":1728307090,"current_range_meters":30000,"station_id":"ce4bhq12rcd13ifvqhhg","pricing_plan_id":"cebpf4jnsgd1na2vs0mg"},{"bike_id":"6482b1fb-67cb-4384-a7c9-6c0a7b56e3b4","system_id":"levelo_inurba_marseille","lat":43.28846,"lon":5.43323,"is_reserved":false,"is_disabled":false,"rental_uris":{"android":"levelo://app?vid=6482b1fb-67cb-4384-a7c9-6c0a7b56e3b4","ios":"levelo://app?vid=6482b1fb-67cb-4384-a7c9-6c0a7b56e3b4"},"vehicle_type_id":"4","last_reported":1728307090,"current_range_meters":6000,"station_id":"","pricing_plan_id":"cebpf4jnsgd1na2vs0mg"},{"bike_id":"cbc4f34b-849b-4157-b7fd-f9a2c32ae847","system_id":"levelo_inurba_marseille","lat":43.30936,"lon":5.40149,"is_reserved":false,"is_disabled":false,"rental_uris":{"android":"levelo://app?vid=cbc4f34b-849b-4157-b7fd-f9a2c32ae847","ios":"levelo://app?vid=cbc4f34b-849b-4157-b7fd-f9a2c32ae847"},"vehicle_type_id":"4","last_reported":1728307090,"current_range_meters":7200,"station_id":"ce4bgvp2rcd13ifvqct0","pricing_plan_id":"cebpf4jnsgd1na2vs0mg"},{"bike_id":"1e592842-3390-46e6-95ec-f120a36922c9","system_id":"levelo_inurba_marseille","lat":43.23151,"lon":5.43704,"is_reserved":false,"is_disabled":false,"rental_uris":{"android":"levelo://app?vid=1e592842-3390-46e6-95ec-f120a36922c9","ios":"levelo://app?vid=1e592842-3390-46e6-95ec-f120a36922c9"},"vehicle_type_id":"4","last_reported":1728307090,"current_range_meters":17200,"station_id":"ce4bhmp2rcd13ifvqgog","pricing_plan_id":"cebpf4jnsgd1na2vs0mg"},{"bike_id":"4c57ea36-0258-43bd-9d60-14ee0eb21b25","system_id":"levelo_inurba_marseille","lat":43.30908,"lon":5.36852,"is_reserved":false,"is_disabled":false,"rental_uris":{"android":"levelo://app?vid=4c57ea36-0258-43bd-9d60-14ee0eb21b25","ios":"levelo://app?vid=4c57ea36-0258-43bd-9d60-14ee0eb21b25"},"vehicle_type_id":"4","last_reported":1728307090,"current_range_meters":24400,"station_id":"ce4bgn92rcd13ifvqbvg","pricing_plan_id":"cebpf4jnsgd1na2vs0mg"},{"bike_id":"97ef281f-c717-429c-a078-d6a368902950","system_id":"levelo_inurba_marseille","lat":43.24175,"lon":5.3639,"is_reserved":false,"is_disabled":false,"rental_uris":{"android":"levelo://app?vid=97ef281f-c717-429c-a078-d6a368902950","ios":"levelo://app?vid=97ef281f-c717-429c-a078-d6a368902950"},"vehicle_type_id":"4","last_reported":1728307090,"current_range_meters":19200,"station_id":"cpo36qri1sfpv3e86is0","pricing_plan_id":"cebpf4jnsgd1na2vs0mg"},{"bike_id":"8c7a88ce-3ed4-4212-a65a-9f6d49446c03","system_id":"levelo_inurba_marseille","lat":43.3237,"lon":5.38884,"is_reserved":false,"is_disabled":false,"rental_uris":{"android":"levelo://app?vid=8c7a88ce-3ed4-4212-a65a-9f6d49446c03","ios":"levelo://app?vid=8c7a88ce-3ed4-4212-a65a-9f6d49446c03"},"vehicle_type_id":"4","last_reported":1728307090,"current_range_meters":25200,"station_id":"ce4bhqp2rcd13ifvqhog","pricing_plan_id":"cebpf4jnsgd1na2vs0mg"},{"bike_id":"c12c46a4-bd86-493d-803e-5d507cd7924b","system_id":"levelo_inurba_marseille","lat":43.23201,"lon":5.35549,"is_reserved":false,"is_disabled":false,"rental_uris":{"android":"levelo://app?vid=c12c46a4-bd86-493d-803e-5d507cd7924b","ios":"levelo://app?vid=c12c46a4-bd86-493d-803e-5d507cd7924b"},"vehicle_type_id":"4","last_reported":1728307090,"current_range_meters":30800,"station_id":"ce4bhu92rcd13ifvqi70","pricing_plan_id":"cebpf4jnsgd1na2vs0mg"},{"bike_id":"8d5796b8-a6ed-48cb-b542-23a0f07d9178","system_id":"levelo_inurba_marseille","lat":43.305272,"lon":5.393846,"is_reserved":false,"is_disabled":false,"rental_uris":{"android":"levelo://app?vid=8d5796b8-a6ed-48cb-b542-23a0f07d9178","ios":"levelo://app?vid=8d5796b8-a6ed-48cb-b542-23a0f07d9178"},"vehicle_type_id":"4","last_reported":1728307090,"current_range_meters":28800,"station_id":"","pricing_plan_id":"cebpf4jnsgd1na2vs0mg"},{"bike_id":"e0e6b6e8-a26e-4255-b71a-75c0752c9d62","system_id":"levelo_inurba_marseille","lat":43.24656,"lon":5.38889,"is_reserved":false,"is_disabled":false,"rental_uris":{"android":"levelo://app?vid=e0e6b6e8-a26e-4255-b71a-75c0752c9d62","ios":"levelo://app?vid=e0e6b6e8-a26e-4255-b71a-75c0752c9d62"},"vehicle_type_id":"4","last_reported":1728307090,"current_range_meters":38400,"station_id":"ce4bhg12rcd13ifvqf60","pricing_plan_id":"cebpf4jnsgd1na2vs0mg"},{"bike_id":"0d8c132e-6028-490d-b78f-9ee244fd1c97","system_id":"levelo_inurba_marseille","lat":43.25501,"lon":5.37648,"is_reserved":false,"is_disabled":false,"rental_uris":{"android":"levelo://app?vid=0d8c132e-6028-490d-b78f-9ee244fd1c97","ios":"levelo://app?vid=0d8c132e-6028-490d-b78f-9ee244fd1c97"},"vehicle_type_id":"4","last_reported":1728307090,"current_range_meters":38800,"station_id":"ce4bhh12rcd13ifvqff0","pricing_plan_id":"cebpf4jnsgd1na2vs0mg"},{"bike_id":"85a8b07e-682b-4725-800e-b0749654fba5","system_id":"levelo_inurba_marseille","lat":43.24168,"lon":5.36393,"is_reserved":false,"is_disabled":false,"rental_uris":{"android":"levelo://app?vid=85a8b07e-682b-4725-800e-b0749654fba5","ios":"levelo://app?vid=85a8b07e-682b-4725-800e-b0749654fba5"},"vehicle_type_id":"4","last_reported":1728307090,"current_range_meters":24000,"station_id":"cpo36qri1sfpv3e86is0","pricing_plan_id":"cebpf4jnsgd1na2vs0mg"},{"bike_id":"742b0a39-2ee6-4a7f-970b-979e89ae43ed","system_id":"levelo_inurba_marseille","lat":43.30901,"lon":5.37444,"is_reserved":false,"is_disabled":false,"rental_uris":{"android":"levelo://app?vid=742b0a39-2ee6-4a7f-970b-979e89ae43ed","ios":"levelo://app?vid=742b0a39-2ee6-4a7f-970b-979e89ae43ed"},"vehicle_type_id":"4","last_reported":1728307090,"current_range_meters":17200,"station_id":"","pricing_plan_id":"cebpf4jnsgd1na2vs0mg"},{"bike_id":"0113313d-561c-48d2-8adf-0a8f5aae5029","system_id":"levelo_inurba_marseille","lat":43.28995,"lon":5.35549,"is_reserved":false,"is_disabled":false,"rental_uris":{"android":"levelo://app?vid=0113313d-561c-48d2-8adf-0a8f5aae5029","ios":"levelo://app?vid=0113313d-561c-48d2-8adf-0a8f5aae5029"},"vehicle_type_id":"4","last_reported":1728307090,"current_range_meters":25200,"station_id":"","pricing_plan_id":"cebpf4jnsgd1na2vs0mg"},{"bike_id":"a96a4eb8-17a7-4208-83a3-e282fcb317a7","system_id":"levelo_inurba_marseille","lat":43.29594,"lon":5.381,"is_reserved":false,"is_disabled":false,"rental_uris":{"android":"levelo://app?vid=a96a4eb8-17a7-4208-83a3-e282fcb317a7","ios":"levelo://app?vid=a96a4eb8-17a7-4208-83a3-e282fcb317a7"},"vehicle_type_id":"4","last_reported":1728307090,"current_range_meters":6000,"station_id":"ce4bgt92rcd13ifvqcg0","pricing_plan_id":"cebpf4jnsgd1na2vs0mg"},{"bike_id":"838d381c-adf1-4abe-a46f-bece8b59fa73","system_id":"levelo_inurba_marseille","lat":43.311615,"lon":5.387212,"is_reserved":false,"is_disabled":false,"rental_uris":{"android":"levelo://app?vid=838d381c-adf1-4abe-a46f-bece8b59fa73","ios":"levelo://app?vid=838d381c-adf1-4abe-a46f-bece8b59fa73"},"vehicle_type_id":"4","last_reported":1728307090,"current_range_meters":25600,"station_id":"ce4bgv12rcd13ifvqcp0","pricing_plan_id":"cebpf4jnsgd1na2vs0mg"},{"bike_id":"41e7a0e4-f499-4294-8eec-f43e05684312","system_id":"levelo_inurba_marseille","lat":43.29206,"lon":5.35796,"is_reserved":false,"is_disabled":false,"rental_uris":{"android":"levelo://app?vid=41e7a0e4-f499-4294-8eec-f43e05684312","ios":"levelo://app?vid=41e7a0e4-f499-4294-8eec-f43e05684312"},"vehicle_type_id":"4","last_reported":1728307090,"current_range_meters":29600,"station_id":"ce4bhb12rcd13ifvqel0","pricing_plan_id":"cebpf4jnsgd1na2vs0mg"},{"bike_id":"8d125674-77e3-45bd-a159-dda65fb39d20","system_id":"levelo_inurba_marseille","lat":43.29981,"lon":5.38479,"is_reserved":false,"is_disabled":false,"rental_uris":{"android":"levelo://app?vid=8d125674-77e3-45bd-a159-dda65fb39d20","ios":"levelo://app?vid=8d125674-77e3-45bd-a159-dda65fb39d20"},"vehicle_type_id":"4","last_reported":1728307090,"current_range_meters":38800,"station_id":"ce4bgj92rcd13ifvqbd0","pricing_plan_id":"cebpf4jnsgd1na2vs0mg"},{"bike_id":"05ddab4b-2219-453e-b9f6-9211ae63c830","system_id":"levelo_inurba_marseille","lat":43.24165,"lon":5.36396,"is_reserved":false,"is_disabled":false,"rental_uris":{"android":"levelo://app?vid=05ddab4b-2219-453e-b9f6-9211ae63c830","ios":"levelo://app?vid=05ddab4b-2219-453e-b9f6-9211ae63c830"},"vehicle_type_id":"4","last_reported":1728307090,"current_range_meters":28000,"station_id":"cpo36qri1sfpv3e86is0","pricing_plan_id":"cebpf4jnsgd1na2vs0mg"},{"bike_id":"ed0f1ea2-c470-469b-aeae-9a8b7a3c4567","system_id":"levelo_inurba_marseille","lat":43.27619,"lon":5.3611,"is_reserved":false,"is_disabled":false,"rental_uris":{"android":"levelo://app?vid=ed0f1ea2-c470-469b-aeae-9a8b7a3c4567","ios":"levelo://app?vid=ed0f1ea2-c470-469b-aeae-9a8b7a3c4567"},"vehicle_type_id":"4","last_reported":1728307090,"current_range_meters":28800,"station_id":"ce4bgj92rcd13ifvqbe0","pricing_plan_id":"cebpf4jnsgd1na2vs0mg"},{"bike_id":"aa6a835e-7c99-4f80-9677-a9bc58c08d09","system_id":"levelo_inurba_marseille","lat":43.26195,"lon":5.37926,"is_reserved":false,"is_disabled":false,"rental_uris":{"android":"levelo://app?vid=aa6a835e-7c99-4f80-9677-a9bc58c08d09","ios":"levelo://app?vid=aa6a835e-7c99-4f80-9677-a9bc58c08d09"},"vehicle_type_id":"4","last_reported":1728307090,"current_range_meters":38400,"station_id":"ce4bhjp2rcd13ifvqg90","pricing_plan_id":"cebpf4jnsgd1na2vs0mg"},{"bike_id":"94c2943d-7899-48fa-9d2a-7595a8956fae","system_id":"levelo_inurba_marseille","lat":43.26033,"lon":5.37552,"is_reserved":false,"is_disabled":false,"rental_uris":{"android":"levelo://app?vid=94c2943d-7899-48fa-9d2a-7595a8956fae","ios":"levelo://app?vid=94c2943d-7899-48fa-9d2a-7595a8956fae"},"vehicle_type_id":"4","last_reported":1728307090,"current_range_meters":15200,"station_id":"ce4bhgh2rcd13ifvqfa0","pricing_plan_id":"cebpf4jnsgd1na2vs0mg"},{"bike_id":"cd35eee6-03f0-48eb-87d3-b95e88b2c311","system_id":"levelo_inurba_marseille","lat":43.23148,"lon":5.43715,"is_reserved":false,"is_disabled":false,"rental_uris":{"android":"levelo://app?vid=cd35eee6-03f0-48eb-87d3-b95e88b2c311","ios":"levelo://app?vid=cd35eee6-03f0-48eb-87d3-b95e88b2c311"},"vehicle_type_id":"4","last_reported":1728307090,"current_range_meters":38800,"station_id":"ce4bhmp2rcd13ifvqgog","pricing_plan_id":"cebpf4jnsgd1na2vs0mg"},{"bike_id":"d0ca1193-12e8-4ac2-9a60-4ae6e0040151","system_id":"levelo_inurba_marseille","lat":43.22935,"lon":5.35379,"is_reserved":false,"is_disabled":false,"rental_uris":{"android":"levelo://app?vid=d0ca1193-12e8-4ac2-9a60-4ae6e0040151","ios":"levelo://app?vid=d0ca1193-12e8-4ac2-9a60-4ae6e0040151"},"vehicle_type_id":"4","last_reported":1728307090,"current_range_meters":23200,"station_id":"cpo3532slgdg3j2ikp40","pricing_plan_id":"cebpf4jnsgd1na2vs0mg"},{"bike_id":"3dafb8e5-84bd-4b49-8ab3-75020a961a71","system_id":"levelo_inurba_marseille","lat":43.27996,"lon":5.41661,"is_reserved":false,"is_disabled":false,"rental_uris":{"android":"levelo://app?vid=3dafb8e5-84bd-4b49-8ab3-75020a961a71","ios":"levelo://app?vid=3dafb8e5-84bd-4b49-8ab3-75020a961a71"},"vehicle_type_id":"4","last_reported":1728307090,"current_range_meters":8000,"station_id":"ce4bho12rcd13ifvqh1g","pricing_plan_id":"cebpf4jnsgd1na2vs0mg"},{"bike_id":"5426ecb5-4d2e-4c65-a5e5-6fa42a39b860","system_id":"levelo_inurba_marseille","lat":43.23056,"lon":5.35492,"is_reserved":false,"is_disabled":false,"rental_uris":{"android":"levelo://app?vid=5426ecb5-4d2e-4c65-a5e5-6fa42a39b860","ios":"levelo://app?vid=5426ecb5-4d2e-4c65-a5e5-6fa42a39b860"},"vehicle_type_id":"4","last_reported":1728307090,"current_range_meters":9200,"station_id":"cpo3342slgdg3j2ifvpg","pricing_plan_id":"cebpf4jnsgd1na2vs0mg"},{"bike_id":"137b3ec5-6045-4b88-adc2-0ae9b7121cea","system_id":"levelo_inurba_marseille","lat":43.29801,"lon":5.3809,"is_reserved":false,"is_disabled":false,"rental_uris":{"android":"levelo://app?vid=137b3ec5-6045-4b88-adc2-0ae9b7121cea","ios":"levelo://app?vid=137b3ec5-6045-4b88-adc2-0ae9b7121cea"},"vehicle_type_id":"4","last_reported":1728307090,"current_range_meters":10000,"station_id":"ce4bgip2rcd13ifvqbb0","pricing_plan_id":"cebpf4jnsgd1na2vs0mg"},{"bike_id":"0be75fa3-f24f-46e6-9585-5cdb9e876f5e","system_id":"levelo_inurba_marseille","lat":43.29026,"lon":5.38632,"is_reserved":false,"is_disabled":false,"rental_uris":{"android":"levelo://app?vid=0be75fa3-f24f-46e6-9585-5cdb9e876f5e","ios":"levelo://app?vid=0be75fa3-f24f-46e6-9585-5cdb9e876f5e"},"vehicle_type_id":"4","last_reported":1728307090,"current_range_meters":12400,"station_id":"ce4bh4p2rcd13ifvqe0g","pricing_plan_id":"cebpf4jnsgd1na2vs0mg"},{"bike_id":"5fd97b48-8eeb-44e8-bc7a-e8fa9d0cf5b6","system_id":"levelo_inurba_marseille","lat":43.307254,"lon":5.397041,"is_reserved":false,"is_disabled":false,"rental_uris":{"android":"levelo://app?vid=5fd97b48-8eeb-44e8-bc7a-e8fa9d0cf5b6","ios":"levelo://app?vid=5fd97b48-8eeb-44e8-bc7a-e8fa9d0cf5b6"},"vehicle_type_id":"4","last_reported":1728307090,"current_range_meters":9200,"station_id":"","pricing_plan_id":"cebpf4jnsgd1na2vs0mg"},{"bike_id":"296f4de8-6ad7-42c2-9cb7-fae7ad524bb8","system_id":"levelo_inurba_marseille","lat":43.29069,"lon":5.37166,"is_reserved":false,"is_disabled":false,"rental_uris":{"android":"levelo://app?vid=296f4de8-6ad7-42c2-9cb7-fae7ad524bb8","ios":"levelo://app?vid=296f4de8-6ad7-42c2-9cb7-fae7ad524bb8"},"vehicle_type_id":"4","last_reported":1728307090,"current_range_meters":12800,"station_id":"ce4bh5p2rcd13ifvqe4g","pricing_plan_id":"cebpf4jnsgd1na2vs0mg"},{"bike_id":"73a75457-8ce6-4e52-8590-01a046b5df78","system_id":"levelo_inurba_marseille","lat":43.28471,"lon":5.38555,"is_reserved":false,"is_disabled":false,"rental_uris":{"android":"levelo://app?vid=73a75457-8ce6-4e52-8590-01a046b5df78","ios":"levelo://app?vid=73a75457-8ce6-4e52-8590-01a046b5df78"},"vehicle_type_id":"4","last_reported":1728307090,"current_range_meters":2000,"station_id":"ce4bh8p2rcd13ifvqeb0","pricing_plan_id":"cebpf4jnsgd1na2vs0mg"},{"bike_id":"e8f38f77-6572-42be-9296-0cbe6e7cb972","system_id":"levelo_inurba_marseille","lat":43.23054,"lon":5.35492,"is_reserved":false,"is_disabled":false,"rental_uris":{"android":"levelo://app?vid=e8f38f77-6572-42be-9296-0cbe6e7cb972","ios":"levelo://app?vid=e8f38f77-6572-42be-9296-0cbe6e7cb972"},"vehicle_type_id":"4","last_reported":1728307090,"current_range_meters":36800,"station_id":"cpo3342slgdg3j2ifvpg","pricing_plan_id":"cebpf4jnsgd1na2vs0mg"},{"bike_id":"f9fc3a60-9bb8-4827-b7cf-9f551b69b853","system_id":"levelo_inurba_marseille","lat":43.275707,"lon":5.384334,"is_reserved":false,"is_disabled":false,"rental_uris":{"android":"levelo://app?vid=f9fc3a60-9bb8-4827-b7cf-9f551b69b853","ios":"levelo://app?vid=f9fc3a60-9bb8-4827-b7cf-9f551b69b853"},"vehicle_type_id":"4","last_reported":1728307090,"current_range_meters":25200,"station_id":"ce4bhh92rcd13ifvqfi0","pricing_plan_id":"cebpf4jnsgd1na2vs0mg"},{"bike_id":"bb1241e4-0f2c-4e92-bbe4-90da56bad811","system_id":"levelo_inurba_marseille","lat":43.30098,"lon":5.39081,"is_reserved":false,"is_disabled":false,"rental_uris":{"android":"levelo://app?vid=bb1241e4-0f2c-4e92-bbe4-90da56bad811","ios":"levelo://app?vid=bb1241e4-0f2c-4e92-bbe4-90da56bad811"},"vehicle_type_id":"4","last_reported":1728307090,"current_range_meters":20000,"station_id":"ce4bh192rcd13ifvqdb0","pricing_plan_id":"cebpf4jnsgd1na2vs0mg"},{"bike_id":"6383107e-a90b-48e5-ad67-a00f3da06e6b","system_id":"levelo_inurba_marseille","lat":43.28083,"lon":5.39661,"is_reserved":false,"is_disabled":false,"rental_uris":{"android":"levelo://app?vid=6383107e-a90b-48e5-ad67-a00f3da06e6b","ios":"levelo://app?vid=6383107e-a90b-48e5-ad67-a00f3da06e6b"},"vehicle_type_id":"4","last_reported":1728307090,"current_range_meters":17600,"station_id":"ce4bho12rcd13ifvqh2g","pricing_plan_id":"cebpf4jnsgd1na2vs0mg"},{"bike_id":"127a21b3-bfbb-411a-b285-0f312bd4d505","system_id":"levelo_inurba_marseille","lat":43.29202,"lon":5.39317,"is_reserved":false,"is_disabled":false,"rental_uris":{"android":"levelo://app?vid=127a21b3-bfbb-411a-b285-0f312bd4d505","ios":"levelo://app?vid=127a21b3-bfbb-411a-b285-0f312bd4d505"},"vehicle_type_id":"4","last_reported":1728307090,"current_range_meters":20400,"station_id":"ce4bh192rcd13ifvqdd0","pricing_plan_id":"cebpf4jnsgd1na2vs0mg"},{"bike_id":"40ecc7ac-a60a-4cf7-9da6-0929e1e88753","system_id":"levelo_inurba_marseille","lat":43.27179,"lon":5.40998,"is_reserved":false,"is_disabled":false,"rental_uris":{"android":"levelo://app?vid=40ecc7ac-a60a-4cf7-9da6-0929e1e88753","ios":"levelo://app?vid=40ecc7ac-a60a-4cf7-9da6-0929e1e88753"},"vehicle_type_id":"4","last_reported":1728307090,"current_range_meters":3200,"station_id":"ce4bhl12rcd13ifvqgf0","pricing_plan_id":"cebpf4jnsgd1na2vs0mg"},{"bike_id":"b3576681-ace2-4183-b12d-e87c0c5a344d","system_id":"levelo_inurba_marseille","lat":43.25507,"lon":5.37649,"is_reserved":false,"is_disabled":false,"rental_uris":{"android":"levelo://app?vid=b3576681-ace2-4183-b12d-e87c0c5a344d","ios":"levelo://app?vid=b3576681-ace2-4183-b12d-e87c0c5a344d"},"vehicle_type_id":"4","last_reported":1728307090,"current_range_meters":36000,"station_id":"ce4bhh12rcd13ifvqff0","pricing_plan_id":"cebpf4jnsgd1na2vs0mg"},{"bike_id":"1dad735d-481e-47ff-8bf7-942577eed167","system_id":"levelo_inurba_marseille","lat":43.23151,"lon":5.43706,"is_reserved":false,"is_disabled":false,"rental_uris":{"android":"levelo://app?vid=1dad735d-481e-47ff-8bf7-942577eed167","ios":"levelo://app?vid=1dad735d-481e-47ff-8bf7-942577eed167"},"vehicle_type_id":"4","last_reported":1728307090,"current_range_meters":19600,"station_id":"ce4bhmp2rcd13ifvqgog","pricing_plan_id":"cebpf4jnsgd1na2vs0mg"},{"bike_id":"b102376b-d162-4f40-bc77-7d93ca52fc36","system_id":"levelo_inurba_marseille","lat":43.27054,"lon":5.4027,"is_reserved":false,"is_disabled":false,"rental_uris":{"android":"levelo://app?vid=b102376b-d162-4f40-bc77-7d93ca52fc36","ios":"levelo://app?vid=b102376b-d162-4f40-bc77-7d93ca52fc36"},"vehicle_type_id":"4","last_reported":1728307090,"current_range_meters":36800,"station_id":"ce4bhk92rcd13ifvqgc0","pricing_plan_id":"cebpf4jnsgd1na2vs0mg"},{"bike_id":"490889b1-cee9-4892-9db5-299333956c90","system_id":"levelo_inurba_marseille","lat":43.34145,"lon":5.40915,"is_reserved":false,"is_disabled":false,"rental_uris":{"android":"levelo://app?vid=490889b1-cee9-4892-9db5-299333956c90","ios":"levelo://app?vid=490889b1-cee9-4892-9db5-299333956c90"},"vehicle_type_id":"4","last_reported":1728307090,"current_range_meters":38800,"station_id":"ce4bhqh2rcd13ifvqhlg","pricing_plan_id":"cebpf4jnsgd1na2vs0mg"},{"bike_id":"10315fd6-48d5-4b6b-b7d4-62499876786f","system_id":"levelo_inurba_marseille","lat":43.28155,"lon":5.42642,"is_reserved":false,"is_disabled":false,"rental_uris":{"android":"levelo://app?vid=10315fd6-48d5-4b6b-b7d4-62499876786f","ios":"levelo://app?vid=10315fd6-48d5-4b6b-b7d4-62499876786f"},"vehicle_type_id":"4","last_reported":1728307090,"current_range_meters":9200,"station_id":"ce4bhnh2rcd13ifvqgug","pricing_plan_id":"cebpf4jnsgd1na2vs0mg"},{"bike_id":"4dfd3349-76fa-4bbe-be53-0642535854eb","system_id":"levelo_inurba_marseille","lat":43.29628,"lon":5.37742,"is_reserved":false,"is_disabled":false,"rental_uris":{"android":"levelo://app?vid=4dfd3349-76fa-4bbe-be53-0642535854eb","ios":"levelo://app?vid=4dfd3349-76fa-4bbe-be53-0642535854eb"},"vehicle_type_id":"4","last_reported":1728307090,"current_range_meters":18000,"station_id":"ce4bgi92rcd13ifvqb90","pricing_plan_id":"cebpf4jnsgd1na2vs0mg"},{"bike_id":"4378a0dd-7ddd-4246-9294-1e2af02e0700","system_id":"levelo_inurba_marseille","lat":43.23192,"lon":5.35545,"is_reserved":false,"is_disabled":false,"rental_uris":{"android":"levelo://app?vid=4378a0dd-7ddd-4246-9294-1e2af02e0700","ios":"levelo://app?vid=4378a0dd-7ddd-4246-9294-1e2af02e0700"},"vehicle_type_id":"4","last_reported":1728307090,"current_range_meters":4800,"station_id":"ce4bhu92rcd13ifvqi70","pricing_plan_id":"cebpf4jnsgd1na2vs0mg"},{"bike_id":"6c9119f6-a1ac-4755-9824-edcb969c8040","system_id":"levelo_inurba_marseille","lat":43.31269,"lon":5.40165,"is_reserved":false,"is_disabled":false,"rental_uris":{"android":"levelo://app?vid=6c9119f6-a1ac-4755-9824-edcb969c8040","ios":"levelo://app?vid=6c9119f6-a1ac-4755-9824-edcb969c8040"},"vehicle_type_id":"4","last_reported":1728307090,"current_range_meters":20000,"station_id":"ce4bh092rcd13ifvqd30","pricing_plan_id":"cebpf4jnsgd1na2vs0mg"},{"bike_id":"11a60370-6f5b-45b9-bb60-1be47b791b26","system_id":"levelo_inurba_marseille","lat":43.29519,"lon":5.38878,"is_reserved":false,"is_disabled":false,"rental_uris":{"android":"levelo://app?vid=11a60370-6f5b-45b9-bb60-1be47b791b26","ios":"levelo://app?vid=11a60370-6f5b-45b9-bb60-1be47b791b26"},"vehicle_type_id":"4","last_reported":1728307090,"current_range_meters":30400,"station_id":"","pricing_plan_id":"cebpf4jnsgd1na2vs0mg"},{"bike_id":"8c9d3733-168f-4426-863c-f6c97950eb9a","system_id":"levelo_inurba_marseille","lat":43.31119,"lon":5.37767,"is_reserved":false,"is_disabled":false,"rental_uris":{"android":"levelo://app?vid=8c9d3733-168f-4426-863c-f6c97950eb9a","ios":"levelo://app?vid=8c9d3733-168f-4426-863c-f6c97950eb9a"},"vehicle_type_id":"4","last_reported":1728307090,"current_range_meters":8400,"station_id":"ce4bgt92rcd13ifvqcg0","pricing_plan_id":"cebpf4jnsgd1na2vs0mg"},{"bike_id":"93d45870-2e1c-4ed1-9664-7b219a4ed443","system_id":"levelo_inurba_marseille","lat":43.22931,"lon":5.35382,"is_reserved":false,"is_disabled":false,"rental_uris":{"android":"levelo://app?vid=93d45870-2e1c-4ed1-9664-7b219a4ed443","ios":"levelo://app?vid=93d45870-2e1c-4ed1-9664-7b219a4ed443"},"vehicle_type_id":"4","last_reported":1728307090,"current_range_meters":36800,"station_id":"cpo3532slgdg3j2ikp40","pricing_plan_id":"cebpf4jnsgd1na2vs0mg"},{"bike_id":"8aa18e24-5de9-4b8a-9c05-5ef6a37f9a09","system_id":"levelo_inurba_marseille","lat":43.30141,"lon":5.37418,"is_reserved":false,"is_disabled":false,"rental_uris":{"android":"levelo://app?vid=8aa18e24-5de9-4b8a-9c05-5ef6a37f9a09","ios":"levelo://app?vid=8aa18e24-5de9-4b8a-9c05-5ef6a37f9a09"},"vehicle_type_id":"4","last_reported":1728307090,"current_range_meters":36800,"station_id":"ce4bgs92rcd13ifvqcc0","pricing_plan_id":"cebpf4jnsgd1na2vs0mg"},{"bike_id":"4f4eac5c-b016-46ed-8160-703262b73c0e","system_id":"levelo_inurba_marseille","lat":43.30933,"lon":5.40145,"is_reserved":false,"is_disabled":false,"rental_uris":{"android":"levelo://app?vid=4f4eac5c-b016-46ed-8160-703262b73c0e","ios":"levelo://app?vid=4f4eac5c-b016-46ed-8160-703262b73c0e"},"vehicle_type_id":"4","last_reported":1728307090,"current_range_meters":32400,"station_id":"ce4bgvp2rcd13ifvqct0","pricing_plan_id":"cebpf4jnsgd1na2vs0mg"},{"bike_id":"319b9ac7-cd83-40a9-8070-33d01f4f79a1","system_id":"levelo_inurba_marseille","lat":43.30904,"lon":5.36849,"is_reserved":false,"is_disabled":false,"rental_uris":{"android":"levelo://app?vid=319b9ac7-cd83-40a9-8070-33d01f4f79a1","ios":"levelo://app?vid=319b9ac7-cd83-40a9-8070-33d01f4f79a1"},"vehicle_type_id":"4","last_reported":1728307090,"current_range_meters":26000,"station_id":"ce4bgn92rcd13ifvqbvg","pricing_plan_id":"cebpf4jnsgd1na2vs0mg"},{"bike_id":"6e512044-ef12-457b-bcca-26bd86c5618a","system_id":"levelo_inurba_marseille","lat":43.23061,"lon":5.3549,"is_reserved":false,"is_disabled":false,"rental_uris":{"android":"levelo://app?vid=6e512044-ef12-457b-bcca-26bd86c5618a","ios":"levelo://app?vid=6e512044-ef12-457b-bcca-26bd86c5618a"},"vehicle_type_id":"4","last_reported":1728307090,"current_range_meters":36800,"station_id":"cpo3342slgdg3j2ifvpg","pricing_plan_id":"cebpf4jnsgd1na2vs0mg"},{"bike_id":"84f478f4-cf76-4208-b60a-2cb50ea94ebf","system_id":"levelo_inurba_marseille","lat":43.29032,"lon":5.39955,"is_reserved":false,"is_disabled":false,"rental_uris":{"android":"levelo://app?vid=84f478f4-cf76-4208-b60a-2cb50ea94ebf","ios":"levelo://app?vid=84f478f4-cf76-4208-b60a-2cb50ea94ebf"},"vehicle_type_id":"4","last_reported":1728307090,"current_range_meters":8000,"station_id":"ce4bh392rcd13ifvqdm0","pricing_plan_id":"cebpf4jnsgd1na2vs0mg"},{"bike_id":"682cb7cc-00cd-435b-a401-357f5f988a6f","system_id":"levelo_inurba_marseille","lat":43.29057,"lon":5.37173,"is_reserved":false,"is_disabled":false,"rental_uris":{"android":"levelo://app?vid=682cb7cc-00cd-435b-a401-357f5f988a6f","ios":"levelo://app?vid=682cb7cc-00cd-435b-a401-357f5f988a6f"},"vehicle_type_id":"4","last_reported":1728307090,"current_range_meters":28000,"station_id":"ce4bh5p2rcd13ifvqe4g","pricing_plan_id":"cebpf4jnsgd1na2vs0mg"},{"bike_id":"385b1e92-0cd5-4282-905d-2e075ac555ed","system_id":"levelo_inurba_marseille","lat":43.29785,"lon":5.371,"is_reserved":false,"is_disabled":false,"rental_uris":{"android":"levelo://app?vid=385b1e92-0cd5-4282-905d-2e075ac555ed","ios":"levelo://app?vid=385b1e92-0cd5-4282-905d-2e075ac555ed"},"vehicle_type_id":"4","last_reported":1728307090,"current_range_meters":35600,"station_id":"ce4bgop2rcd13ifvqc1g","pricing_plan_id":"cebpf4jnsgd1na2vs0mg"},{"bike_id":"7d601151-3b59-4207-b073-bfbb1e14e7be","system_id":"levelo_inurba_marseille","lat":43.30787,"lon":5.38152,"is_reserved":false,"is_disabled":false,"rental_uris":{"android":"levelo://app?vid=7d601151-3b59-4207-b073-bfbb1e14e7be","ios":"levelo://app?vid=7d601151-3b59-4207-b073-bfbb1e14e7be"},"vehicle_type_id":"4","last_reported":1728307090,"current_range_meters":36000,"station_id":"ce4bgt12rcd13ifvqce0","pricing_plan_id":"cebpf4jnsgd1na2vs0mg"},{"bike_id":"270b90ca-7521-4165-af49-e1c727e5fa34","system_id":"levelo_inurba_marseille","lat":43.24165,"lon":5.36395,"is_reserved":false,"is_disabled":false,"rental_uris":{"android":"levelo://app?vid=270b90ca-7521-4165-af49-e1c727e5fa34","ios":"levelo://app?vid=270b90ca-7521-4165-af49-e1c727e5fa34"},"vehicle_type_id":"4","last_reported":1728307090,"current_range_meters":28800,"station_id":"cpo36qri1sfpv3e86is0","pricing_plan_id":"cebpf4jnsgd1na2vs0mg"},{"bike_id":"17321ad0-22b3-46ce-bb11-f4de00ad657a","system_id":"levelo_inurba_marseille","lat":43.29903,"lon":5.38144,"is_reserved":false,"is_disabled":false,"rental_uris":{"android":"levelo://app?vid=17321ad0-22b3-46ce-bb11-f4de00ad657a","ios":"levelo://app?vid=17321ad0-22b3-46ce-bb11-f4de00ad657a"},"vehicle_type_id":"4","last_reported":1728307090,"current_range_meters":25200,"station_id":"ce4bgj12rcd13ifvqbc0","pricing_plan_id":"cebpf4jnsgd1na2vs0mg"},{"bike_id":"eadc232f-99da-41e1-9109-11fae5d42940","system_id":"levelo_inurba_marseille","lat":43.29524,"lon":5.38534,"is_reserved":false,"is_disabled":false,"rental_uris":{"android":"levelo://app?vid=eadc232f-99da-41e1-9109-11fae5d42940","ios":"levelo://app?vid=eadc232f-99da-41e1-9109-11fae5d42940"},"vehicle_type_id":"4","last_reported":1728307090,"current_range_meters":36400,"station_id":"ce4bgih2rcd13ifvqba0","pricing_plan_id":"cebpf4jnsgd1na2vs0mg"},{"bike_id":"33077378-0a62-4a89-9bf5-914b7e06faba","system_id":"levelo_inurba_marseille","lat":43.3255,"lon":5.41444,"is_reserved":false,"is_disabled":false,"rental_uris":{"android":"levelo://app?vid=33077378-0a62-4a89-9bf5-914b7e06faba","ios":"levelo://app?vid=33077378-0a62-4a89-9bf5-914b7e06faba"},"vehicle_type_id":"4","last_reported":1728307090,"current_range_meters":8000,"station_id":"ce4bhq12rcd13ifvqhhg","pricing_plan_id":"cebpf4jnsgd1na2vs0mg"},{"bike_id":"95b5dbea-0454-42ef-8526-fe9b0586422e","system_id":"levelo_inurba_marseille","lat":43.26779,"lon":5.39416,"is_reserved":false,"is_disabled":false,"rental_uris":{"android":"levelo://app?vid=95b5dbea-0454-42ef-8526-fe9b0586422e","ios":"levelo://app?vid=95b5dbea-0454-42ef-8526-fe9b0586422e"},"vehicle_type_id":"4","last_reported":1728307090,"current_range_meters":22800,"station_id":"ce4bhh12rcd13ifvqfg0","pricing_plan_id":"cebpf4jnsgd1na2vs0mg"},{"bike_id":"36ce7bd9-8557-4fa1-b635-55b5a0b1fac8","system_id":"levelo_inurba_marseille","lat":43.31085,"lon":5.42429,"is_reserved":false,"is_disabled":false,"rental_uris":{"android":"levelo://app?vid=36ce7bd9-8557-4fa1-b635-55b5a0b1fac8","ios":"levelo://app?vid=36ce7bd9-8557-4fa1-b635-55b5a0b1fac8"},"vehicle_type_id":"4","last_reported":1728307090,"current_range_meters":31200,"station_id":"ce4bhp92rcd13ifvqhag","pricing_plan_id":"cebpf4jnsgd1na2vs0mg"},{"bike_id":"679e84bc-8e5a-42bd-9849-11cf26c07dfe","system_id":"levelo_inurba_marseille","lat":43.29523,"lon":5.39035,"is_reserved":false,"is_disabled":false,"rental_uris":{"android":"levelo://app?vid=679e84bc-8e5a-42bd-9849-11cf26c07dfe","ios":"levelo://app?vid=679e84bc-8e5a-42bd-9849-11cf26c07dfe"},"vehicle_type_id":"4","last_reported":1728307090,"current_range_meters":40000,"station_id":"ce4bh3p2rcd13ifvqdp0","pricing_plan_id":"cebpf4jnsgd1na2vs0mg"},{"bike_id":"b571b658-8934-4eef-807c-1d84eb8d0261","system_id":"levelo_inurba_marseille","lat":43.26217,"lon":5.37441,"is_reserved":false,"is_disabled":false,"rental_uris":{"android":"levelo://app?vid=b571b658-8934-4eef-807c-1d84eb8d0261","ios":"levelo://app?vid=b571b658-8934-4eef-807c-1d84eb8d0261"},"vehicle_type_id":"4","last_reported":1728307090,"current_range_meters":27200,"station_id":"ce4bhgp2rcd13ifvqfc0","pricing_plan_id":"cebpf4jnsgd1na2vs0mg"},{"bike_id":"902f1dd3-2823-47db-b406-eab8e03f74d1","system_id":"levelo_inurba_marseille","lat":43.29582,"lon":5.36745,"is_reserved":false,"is_disabled":false,"rental_uris":{"android":"levelo://app?vid=902f1dd3-2823-47db-b406-eab8e03f74d1","ios":"levelo://app?vid=902f1dd3-2823-47db-b406-eab8e03f74d1"},"vehicle_type_id":"4","last_reported":1728307090,"current_range_meters":31200,"station_id":"ce4bgph2rcd13ifvqc2g","pricing_plan_id":"cebpf4jnsgd1na2vs0mg"},{"bike_id":"c9651067-4e70-4339-85de-92650ede4d57","system_id":"levelo_inurba_marseille","lat":43.3054,"lon":5.36713,"is_reserved":false,"is_disabled":false,"rental_uris":{"android":"levelo://app?vid=c9651067-4e70-4339-85de-92650ede4d57","ios":"levelo://app?vid=c9651067-4e70-4339-85de-92650ede4d57"},"vehicle_type_id":"4","last_reported":1728307090,"current_range_meters":28800,"station_id":"ce4bgrp2rcd13ifvqc9g","pricing_plan_id":"cebpf4jnsgd1na2vs0mg"},{"bike_id":"ca150432-5632-417f-a220-d6e10e3598a2","system_id":"levelo_inurba_marseille","lat":43.29893,"lon":5.43668,"is_reserved":false,"is_disabled":false,"rental_uris":{"android":"levelo://app?vid=ca150432-5632-417f-a220-d6e10e3598a2","ios":"levelo://app?vid=ca150432-5632-417f-a220-d6e10e3598a2"},"vehicle_type_id":"4","last_reported":1728307090,"current_range_meters":39200,"station_id":"ce4bhpp2rcd13ifvqhfg","pricing_plan_id":"cebpf4jnsgd1na2vs0mg"},{"bike_id":"6fea6536-76dc-430b-b546-c9439597e325","system_id":"levelo_inurba_marseille","lat":43.27175,"lon":5.40998,"is_reserved":false,"is_disabled":false,"rental_uris":{"android":"levelo://app?vid=6fea6536-76dc-430b-b546-c9439597e325","ios":"levelo://app?vid=6fea6536-76dc-430b-b546-c9439597e325"},"vehicle_type_id":"4","last_reported":1728307090,"current_range_meters":37600,"station_id":"ce4bhl12rcd13ifvqgf0","pricing_plan_id":"cebpf4jnsgd1na2vs0mg"},{"bike_id":"2d5b20f8-7a5a-4d9d-87c8-96e5169df8aa","system_id":"levelo_inurba_marseille","lat":43.30279,"lon":5.37689,"is_reserved":false,"is_disabled":false,"rental_uris":{"android":"levelo://app?vid=2d5b20f8-7a5a-4d9d-87c8-96e5169df8aa","ios":"levelo://app?vid=2d5b20f8-7a5a-4d9d-87c8-96e5169df8aa"},"vehicle_type_id":"4","last_reported":1728307090,"current_range_meters":38800,"station_id":"ce4bguh2rcd13ifvqcj0","pricing_plan_id":"cebpf4jnsgd1na2vs0mg"},{"bike_id":"24a081d0-5e86-4333-93b1-30c5ff60abf5","system_id":"levelo_inurba_marseille","lat":43.27209,"lon":5.39193,"is_reserved":false,"is_disabled":false,"rental_uris":{"android":"levelo://app?vid=24a081d0-5e86-4333-93b1-30c5ff60abf5","ios":"levelo://app?vid=24a081d0-5e86-4333-93b1-30c5ff60abf5"},"vehicle_type_id":"4","last_reported":1728307090,"current_range_meters":38400,"station_id":"ce4bhhp2rcd13ifvqfm0","pricing_plan_id":"cebpf4jnsgd1na2vs0mg"},{"bike_id":"de7b61ce-9a77-48b8-b281-c8a3b04be6be","system_id":"levelo_inurba_marseille","lat":43.31952,"lon":5.3688,"is_reserved":false,"is_disabled":false,"rental_uris":{"android":"levelo://app?vid=de7b61ce-9a77-48b8-b281-c8a3b04be6be","ios":"levelo://app?vid=de7b61ce-9a77-48b8-b281-c8a3b04be6be"},"vehicle_type_id":"4","last_reported":1728307090,"current_range_meters":20400,"station_id":"ce4bhrh2rcd13ifvqhug","pricing_plan_id":"cebpf4jnsgd1na2vs0mg"},{"bike_id":"c2eafa11-ad6c-4f3b-b6e4-6e6fc5d9785c","system_id":"levelo_inurba_marseille","lat":43.29895,"lon":5.43665,"is_reserved":false,"is_disabled":false,"rental_uris":{"android":"levelo://app?vid=c2eafa11-ad6c-4f3b-b6e4-6e6fc5d9785c","ios":"levelo://app?vid=c2eafa11-ad6c-4f3b-b6e4-6e6fc5d9785c"},"vehicle_type_id":"4","last_reported":1728307090,"current_range_meters":39200,"station_id":"ce4bhpp2rcd13ifvqhfg","pricing_plan_id":"cebpf4jnsgd1na2vs0mg"},{"bike_id":"ab0ef8f6-2d64-477f-ab35-7e54daa51f0f","system_id":"levelo_inurba_marseille","lat":43.31712,"lon":5.4371,"is_reserved":false,"is_disabled":false,"rental_uris":{"android":"levelo://app?vid=ab0ef8f6-2d64-477f-ab35-7e54daa51f0f","ios":"levelo://app?vid=ab0ef8f6-2d64-477f-ab35-7e54daa51f0f"},"vehicle_type_id":"4","last_reported":1728307090,"current_range_meters":25600,"station_id":"ce4bhp92rcd13ifvqhcg","pricing_plan_id":"cebpf4jnsgd1na2vs0mg"},{"bike_id":"b8109038-15b8-4a2f-921c-8b710daa47ac","system_id":"levelo_inurba_marseille","lat":43.302612,"lon":5.377195,"is_reserved":false,"is_disabled":false,"rental_uris":{"android":"levelo://app?vid=b8109038-15b8-4a2f-921c-8b710daa47ac","ios":"levelo://app?vid=b8109038-15b8-4a2f-921c-8b710daa47ac"},"vehicle_type_id":"4","last_reported":1728307090,"current_range_meters":11600,"station_id":"ce4bguh2rcd13ifvqcj0","pricing_plan_id":"cebpf4jnsgd1na2vs0mg"},{"bike_id":"4697ea21-5cb2-4198-84b3-cdfaa97aa534","system_id":"levelo_inurba_marseille","lat":43.26942,"lon":5.40251,"is_reserved":false,"is_disabled":false,"rental_uris":{"android":"levelo://app?vid=4697ea21-5cb2-4198-84b3-cdfaa97aa534","ios":"levelo://app?vid=4697ea21-5cb2-4198-84b3-cdfaa97aa534"},"vehicle_type_id":"4","last_reported":1728307090,"current_range_meters":37600,"station_id":"cjm6bp8fraef2m0cb0m0","pricing_plan_id":"cebpf4jnsgd1na2vs0mg"},{"bike_id":"87cdcd03-5e58-46b7-a71b-50d9299f8dc1","system_id":"levelo_inurba_marseille","lat":43.31487,"lon":5.37307,"is_reserved":false,"is_disabled":false,"rental_uris":{"android":"levelo://app?vid=87cdcd03-5e58-46b7-a71b-50d9299f8dc1","ios":"levelo://app?vid=87cdcd03-5e58-46b7-a71b-50d9299f8dc1"},"vehicle_type_id":"4","last_reported":1728307090,"current_range_meters":20000,"station_id":"ce4bgt12rcd13ifvqcd0","pricing_plan_id":"cebpf4jnsgd1na2vs0mg"},{"bike_id":"f6849e98-e59e-4bc2-8e5a-02bcbb272aa6","system_id":"levelo_inurba_marseille","lat":43.33757,"lon":5.37459,"is_reserved":false,"is_disabled":false,"rental_uris":{"android":"levelo://app?vid=f6849e98-e59e-4bc2-8e5a-02bcbb272aa6","ios":"levelo://app?vid=f6849e98-e59e-4bc2-8e5a-02bcbb272aa6"},"vehicle_type_id":"4","last_reported":1728307090,"current_range_meters":38000,"station_id":"","pricing_plan_id":"cebpf4jnsgd1na2vs0mg"},{"bike_id":"2e603353-811a-4609-a1f4-5212a2fe6b5c","system_id":"levelo_inurba_marseille","lat":43.337444,"lon":5.374475,"is_reserved":false,"is_disabled":false,"rental_uris":{"android":"levelo://app?vid=2e603353-811a-4609-a1f4-5212a2fe6b5c","ios":"levelo://app?vid=2e603353-811a-4609-a1f4-5212a2fe6b5c"},"vehicle_type_id":"4","last_reported":1728307090,"current_range_meters":36800,"station_id":"","pricing_plan_id":"cebpf4jnsgd1na2vs0mg"},{"bike_id":"f7612392-4f4b-453b-a64c-499de3c2600f","system_id":"levelo_inurba_marseille","lat":43.24172,"lon":5.36388,"is_reserved":false,"is_disabled":false,"rental_uris":{"android":"levelo://app?vid=f7612392-4f4b-453b-a64c-499de3c2600f","ios":"levelo://app?vid=f7612392-4f4b-453b-a64c-499de3c2600f"},"vehicle_type_id":"4","last_reported":1728307090,"current_range_meters":36400,"station_id":"cpo36qri1sfpv3e86is0","pricing_plan_id":"cebpf4jnsgd1na2vs0mg"},{"bike_id":"b49d3aee-23cd-474f-83fb-21577687d057","system_id":"levelo_inurba_marseille","lat":43.24389,"lon":5.37055,"is_reserved":false,"is_disabled":false,"rental_uris":{"android":"levelo://app?vid=b49d3aee-23cd-474f-83fb-21577687d057","ios":"levelo://app?vid=b49d3aee-23cd-474f-83fb-21577687d057"},"vehicle_type_id":"4","last_reported":1728307090,"current_range_meters":7200,"station_id":"ce4bhhh2rcd13ifvqfk0","pricing_plan_id":"cebpf4jnsgd1na2vs0mg"},{"bike_id":"d564790b-0852-4675-98f3-130b2123dbf4","system_id":"levelo_inurba_marseille","lat":43.25584,"lon":5.38244,"is_reserved":false,"is_disabled":false,"rental_uris":{"android":"levelo://app?vid=d564790b-0852-4675-98f3-130b2123dbf4","ios":"levelo://app?vid=d564790b-0852-4675-98f3-130b2123dbf4"},"vehicle_type_id":"4","last_reported":1728307090,"current_range_meters":38800,"station_id":"ce4bhih2rcd13ifvqfs0","pricing_plan_id":"cebpf4jnsgd1na2vs0mg"},{"bike_id":"a9f4d2c3-5688-48ad-94d7-466aa8445f96","system_id":"levelo_inurba_marseille","lat":43.26958,"lon":5.38633,"is_reserved":false,"is_disabled":false,"rental_uris":{"android":"levelo://app?vid=a9f4d2c3-5688-48ad-94d7-466aa8445f96","ios":"levelo://app?vid=a9f4d2c3-5688-48ad-94d7-466aa8445f96"},"vehicle_type_id":"4","last_reported":1728307090,"current_range_meters":31200,"station_id":"ce4bhh92rcd13ifvqfh0","pricing_plan_id":"cebpf4jnsgd1na2vs0mg"},{"bike_id":"acc4a158-79c4-46ea-892f-f92f49cbf36e","system_id":"levelo_inurba_marseille","lat":43.29847,"lon":5.36287,"is_reserved":false,"is_disabled":false,"rental_uris":{"android":"levelo://app?vid=acc4a158-79c4-46ea-892f-f92f49cbf36e","ios":"levelo://app?vid=acc4a158-79c4-46ea-892f-f92f49cbf36e"},"vehicle_type_id":"4","last_reported":1728307090,"current_range_meters":39200,"station_id":"ce4bgpp2rcd13ifvqc3g","pricing_plan_id":"cebpf4jnsgd1na2vs0mg"},{"bike_id":"0fae0579-21a9-437c-87f5-9c07357a6f20","system_id":"levelo_inurba_marseille","lat":43.25926,"lon":5.40905,"is_reserved":false,"is_disabled":false,"rental_uris":{"android":"levelo://app?vid=0fae0579-21a9-437c-87f5-9c07357a6f20","ios":"levelo://app?vid=0fae0579-21a9-437c-87f5-9c07357a6f20"},"vehicle_type_id":"4","last_reported":1728307090,"current_range_meters":21600,"station_id":"ce4bhm92rcd13ifvqglg","pricing_plan_id":"cebpf4jnsgd1na2vs0mg"},{"bike_id":"2d424544-332f-45a8-8d54-6ae9533d8e3d","system_id":"levelo_inurba_marseille","lat":43.31221,"lon":5.3685,"is_reserved":false,"is_disabled":false,"rental_uris":{"android":"levelo://app?vid=2d424544-332f-45a8-8d54-6ae9533d8e3d","ios":"levelo://app?vid=2d424544-332f-45a8-8d54-6ae9533d8e3d"},"vehicle_type_id":"4","last_reported":1728307090,"current_range_meters":34000,"station_id":"ce4bgl92rcd13ifvqbq0","pricing_plan_id":"cebpf4jnsgd1na2vs0mg"},{"bike_id":"66a81085-1a96-4f65-934a-3195a2059afa","system_id":"levelo_inurba_marseille","lat":43.24645,"lon":5.38898,"is_reserved":false,"is_disabled":false,"rental_uris":{"android":"levelo://app?vid=66a81085-1a96-4f65-934a-3195a2059afa","ios":"levelo://app?vid=66a81085-1a96-4f65-934a-3195a2059afa"},"vehicle_type_id":"4","last_reported":1728307090,"current_range_meters":38800,"station_id":"ce4bhg12rcd13ifvqf60","pricing_plan_id":"cebpf4jnsgd1na2vs0mg"},{"bike_id":"ab1618e0-2572-41ef-8dd5-92073ee89692","system_id":"levelo_inurba_marseille","lat":43.27069,"lon":5.42279,"is_reserved":false,"is_disabled":false,"rental_uris":{"android":"levelo://app?vid=ab1618e0-2572-41ef-8dd5-92073ee89692","ios":"levelo://app?vid=ab1618e0-2572-41ef-8dd5-92073ee89692"},"vehicle_type_id":"4","last_reported":1728307090,"current_range_meters":16000,"station_id":"ce4bhk92rcd13ifvqgb0","pricing_plan_id":"cebpf4jnsgd1na2vs0mg"},{"bike_id":"ac628847-21d5-434d-9db9-532fbbed3684","system_id":"levelo_inurba_marseille","lat":43.27565,"lon":5.38419,"is_reserved":false,"is_disabled":false,"rental_uris":{"android":"levelo://app?vid=ac628847-21d5-434d-9db9-532fbbed3684","ios":"levelo://app?vid=ac628847-21d5-434d-9db9-532fbbed3684"},"vehicle_type_id":"4","last_reported":1728307090,"current_range_meters":22000,"station_id":"ce4bhh92rcd13ifvqfi0","pricing_plan_id":"cebpf4jnsgd1na2vs0mg"},{"bike_id":"2bdb65cd-1e63-4874-80ab-bd72b908164f","system_id":"levelo_inurba_marseille","lat":43.2315,"lon":5.43695,"is_reserved":false,"is_disabled":false,"rental_uris":{"android":"levelo://app?vid=2bdb65cd-1e63-4874-80ab-bd72b908164f","ios":"levelo://app?vid=2bdb65cd-1e63-4874-80ab-bd72b908164f"},"vehicle_type_id":"4","last_reported":1728307090,"current_range_meters":25200,"station_id":"ce4bhmp2rcd13ifvqgog","pricing_plan_id":"cebpf4jnsgd1na2vs0mg"},{"bike_id":"7b40e6b2-0194-4468-8184-063b52611a56","system_id":"levelo_inurba_marseille","lat":43.29783,"lon":5.38082,"is_reserved":false,"is_disabled":false,"rental_uris":{"android":"levelo://app?vid=7b40e6b2-0194-4468-8184-063b52611a56","ios":"levelo://app?vid=7b40e6b2-0194-4468-8184-063b52611a56"},"vehicle_type_id":"4","last_reported":1728307090,"current_range_meters":16800,"station_id":"ce4bgip2rcd13ifvqbb0","pricing_plan_id":"cebpf4jnsgd1na2vs0mg"},{"bike_id":"54687c1c-03cb-4bea-8bc3-24b65f1021ea","system_id":"levelo_inurba_marseille","lat":43.243853,"lon":5.370624,"is_reserved":false,"is_disabled":false,"rental_uris":{"android":"levelo://app?vid=54687c1c-03cb-4bea-8bc3-24b65f1021ea","ios":"levelo://app?vid=54687c1c-03cb-4bea-8bc3-24b65f1021ea"},"vehicle_type_id":"4","last_reported":1728307090,"current_range_meters":8000,"station_id":"ce4bgh92rcd13ifvqb50","pricing_plan_id":"cebpf4jnsgd1na2vs0mg"},{"bike_id":"025b2914-5a55-4831-9515-ed51afbb3e15","system_id":"levelo_inurba_marseille","lat":43.23149,"lon":5.43704,"is_reserved":false,"is_disabled":false,"rental_uris":{"android":"levelo://app?vid=025b2914-5a55-4831-9515-ed51afbb3e15","ios":"levelo://app?vid=025b2914-5a55-4831-9515-ed51afbb3e15"},"vehicle_type_id":"4","last_reported":1728307090,"current_range_meters":18000,"station_id":"ce4bhmp2rcd13ifvqgog","pricing_plan_id":"cebpf4jnsgd1na2vs0mg"},{"bike_id":"bd88a319-f200-45cd-af41-94b3ab7a6a8f","system_id":"levelo_inurba_marseille","lat":43.29848,"lon":5.36282,"is_reserved":false,"is_disabled":false,"rental_uris":{"android":"levelo://app?vid=bd88a319-f200-45cd-af41-94b3ab7a6a8f","ios":"levelo://app?vid=bd88a319-f200-45cd-af41-94b3ab7a6a8f"},"vehicle_type_id":"4","last_reported":1728307090,"current_range_meters":9200,"station_id":"ce4bgpp2rcd13ifvqc3g","pricing_plan_id":"cebpf4jnsgd1na2vs0mg"},{"bike_id":"539a8f4c-2281-49e5-83a2-e1626c21c4f4","system_id":"levelo_inurba_marseille","lat":43.30916,"lon":5.36858,"is_reserved":false,"is_disabled":false,"rental_uris":{"android":"levelo://app?vid=539a8f4c-2281-49e5-83a2-e1626c21c4f4","ios":"levelo://app?vid=539a8f4c-2281-49e5-83a2-e1626c21c4f4"},"vehicle_type_id":"4","last_reported":1728307090,"current_range_meters":38800,"station_id":"ce4bgn92rcd13ifvqbvg","pricing_plan_id":"cebpf4jnsgd1na2vs0mg"},{"bike_id":"5cd6fe71-ff11-4818-b639-ba170b0da2cd","system_id":"levelo_inurba_marseille","lat":43.29263,"lon":5.38427,"is_reserved":false,"is_disabled":false,"rental_uris":{"android":"levelo://app?vid=5cd6fe71-ff11-4818-b639-ba170b0da2cd","ios":"levelo://app?vid=5cd6fe71-ff11-4818-b639-ba170b0da2cd"},"vehicle_type_id":"4","last_reported":1728307090,"current_range_meters":10000,"station_id":"ce4bh692rcd13ifvqea0","pricing_plan_id":"cebpf4jnsgd1na2vs0mg"},{"bike_id":"0616df7b-ed5d-4574-aa64-a9fce054b495","system_id":"levelo_inurba_marseille","lat":43.262,"lon":5.37923,"is_reserved":false,"is_disabled":false,"rental_uris":{"android":"levelo://app?vid=0616df7b-ed5d-4574-aa64-a9fce054b495","ios":"levelo://app?vid=0616df7b-ed5d-4574-aa64-a9fce054b495"},"vehicle_type_id":"4","last_reported":1728307090,"current_range_meters":37600,"station_id":"ce4bhjp2rcd13ifvqg90","pricing_plan_id":"cebpf4jnsgd1na2vs0mg"},{"bike_id":"02918d95-b819-4c37-babb-dd52b6c6980f","system_id":"levelo_inurba_marseille","lat":43.30881,"lon":5.37192,"is_reserved":false,"is_disabled":false,"rental_uris":{"android":"levelo://app?vid=02918d95-b819-4c37-babb-dd52b6c6980f","ios":"levelo://app?vid=02918d95-b819-4c37-babb-dd52b6c6980f"},"vehicle_type_id":"4","last_reported":1728307090,"current_range_meters":8400,"station_id":"ce4bguh2rcd13ifvqckg","pricing_plan_id":"cebpf4jnsgd1na2vs0mg"},{"bike_id":"035169f9-3688-40e7-b630-6e0665ca7977","system_id":"levelo_inurba_marseille","lat":43.27811,"lon":5.40715,"is_reserved":false,"is_disabled":false,"rental_uris":{"android":"levelo://app?vid=035169f9-3688-40e7-b630-6e0665ca7977","ios":"levelo://app?vid=035169f9-3688-40e7-b630-6e0665ca7977"},"vehicle_type_id":"4","last_reported":1728307090,"current_range_meters":29600,"station_id":"ce4bhnh2rcd13ifvqgtg","pricing_plan_id":"cebpf4jnsgd1na2vs0mg"},{"bike_id":"271949df-b061-4edf-a109-ac910b3f5558","system_id":"levelo_inurba_marseille","lat":43.29626,"lon":5.37152,"is_reserved":false,"is_disabled":false,"rental_uris":{"android":"levelo://app?vid=271949df-b061-4edf-a109-ac910b3f5558","ios":"levelo://app?vid=271949df-b061-4edf-a109-ac910b3f5558"},"vehicle_type_id":"4","last_reported":1728307090,"current_range_meters":36800,"station_id":"ce4bgnh2rcd13ifvqc0g","pricing_plan_id":"cebpf4jnsgd1na2vs0mg"},{"bike_id":"9f705245-65c0-457b-91bb-f95a537a5a13","system_id":"levelo_inurba_marseille","lat":43.2998,"lon":5.38486,"is_reserved":false,"is_disabled":false,"rental_uris":{"android":"levelo://app?vid=9f705245-65c0-457b-91bb-f95a537a5a13","ios":"levelo://app?vid=9f705245-65c0-457b-91bb-f95a537a5a13"},"vehicle_type_id":"4","last_reported":1728307090,"current_range_meters":25600,"station_id":"ce4bgj92rcd13ifvqbd0","pricing_plan_id":"cebpf4jnsgd1na2vs0mg"},{"bike_id":"7015adda-36ba-490e-9041-0df976d3621d","system_id":"levelo_inurba_marseille","lat":43.29616,"lon":5.37154,"is_reserved":false,"is_disabled":false,"rental_uris":{"android":"levelo://app?vid=7015adda-36ba-490e-9041-0df976d3621d","ios":"levelo://app?vid=7015adda-36ba-490e-9041-0df976d3621d"},"vehicle_type_id":"4","last_reported":1728307090,"current_range_meters":35200,"station_id":"ce4bgnh2rcd13ifvqc0g","pricing_plan_id":"cebpf4jnsgd1na2vs0mg"},{"bike_id":"35fc32a2-b83d-4142-b9a9-1a30ab9adab5","system_id":"levelo_inurba_marseille","lat":43.29571,"lon":5.37523,"is_reserved":false,"is_disabled":false,"rental_uris":{"android":"levelo://app?vid=35fc32a2-b83d-4142-b9a9-1a30ab9adab5","ios":"levelo://app?vid=35fc32a2-b83d-4142-b9a9-1a30ab9adab5"},"vehicle_type_id":"4","last_reported":1728307090,"current_range_meters":25600,"station_id":"ce4bgh92rcd13ifvqb50","pricing_plan_id":"cebpf4jnsgd1na2vs0mg"},{"bike_id":"8aff9c66-e091-44a4-8267-b3d8e0230a34","system_id":"levelo_inurba_marseille","lat":43.29917,"lon":5.38444,"is_reserved":false,"is_disabled":false,"rental_uris":{"android":"levelo://app?vid=8aff9c66-e091-44a4-8267-b3d8e0230a34","ios":"levelo://app?vid=8aff9c66-e091-44a4-8267-b3d8e0230a34"},"vehicle_type_id":"4","last_reported":1728307090,"current_range_meters":10000,"station_id":"ce4bgj12rcd13ifvqbc0","pricing_plan_id":"cebpf4jnsgd1na2vs0mg"},{"bike_id":"50686b05-2812-4016-aa5f-49047dd90ebf","system_id":"levelo_inurba_marseille","lat":43.26791,"lon":5.39415,"is_reserved":false,"is_disabled":false,"rental_uris":{"android":"levelo://app?vid=50686b05-2812-4016-aa5f-49047dd90ebf","ios":"levelo://app?vid=50686b05-2812-4016-aa5f-49047dd90ebf"},"vehicle_type_id":"4","last_reported":1728307090,"current_range_meters":38000,"station_id":"ce4bhh12rcd13ifvqfg0","pricing_plan_id":"cebpf4jnsgd1na2vs0mg"},{"bike_id":"09f5e835-e735-4fb5-9785-3e8a138bf169","system_id":"levelo_inurba_marseille","lat":43.31124,"lon":5.37786,"is_reserved":false,"is_disabled":false,"rental_uris":{"android":"levelo://app?vid=09f5e835-e735-4fb5-9785-3e8a138bf169","ios":"levelo://app?vid=09f5e835-e735-4fb5-9785-3e8a138bf169"},"vehicle_type_id":"4","last_reported":1728307090,"current_range_meters":37600,"station_id":"ce4bgt92rcd13ifvqcg0","pricing_plan_id":"cebpf4jnsgd1na2vs0mg"},{"bike_id":"17de3f45-0e1e-4614-94ac-fe58190fce7b","system_id":"levelo_inurba_marseille","lat":43.29198,"lon":5.39317,"is_reserved":false,"is_disabled":false,"rental_uris":{"android":"levelo://app?vid=17de3f45-0e1e-4614-94ac-fe58190fce7b","ios":"levelo://app?vid=17de3f45-0e1e-4614-94ac-fe58190fce7b"},"vehicle_type_id":"4","last_reported":1728307090,"current_range_meters":30400,"station_id":"ce4bh192rcd13ifvqdd0","pricing_plan_id":"cebpf4jnsgd1na2vs0mg"},{"bike_id":"ec804d39-867f-4f08-a7b6-cd55c18050c3","system_id":"levelo_inurba_marseille","lat":43.26065,"lon":5.39396,"is_reserved":false,"is_disabled":false,"rental_uris":{"android":"levelo://app?vid=ec804d39-867f-4f08-a7b6-cd55c18050c3","ios":"levelo://app?vid=ec804d39-867f-4f08-a7b6-cd55c18050c3"},"vehicle_type_id":"4","last_reported":1728307090,"current_range_meters":2000,"station_id":"ce4bhh92rcd13ifvqfj0","pricing_plan_id":"cebpf4jnsgd1na2vs0mg"},{"bike_id":"d194773e-fe06-4f06-8a17-4f237c3f1f3a","system_id":"levelo_inurba_marseille","lat":43.2603,"lon":5.37555,"is_reserved":false,"is_disabled":false,"rental_uris":{"android":"levelo://app?vid=d194773e-fe06-4f06-8a17-4f237c3f1f3a","ios":"levelo://app?vid=d194773e-fe06-4f06-8a17-4f237c3f1f3a"},"vehicle_type_id":"4","last_reported":1728307090,"current_range_meters":3200,"station_id":"ce4bhgh2rcd13ifvqfa0","pricing_plan_id":"cebpf4jnsgd1na2vs0mg"},{"bike_id":"c15182f4-4a84-459a-86d5-9941bcbb1ea5","system_id":"levelo_inurba_marseille","lat":43.27684,"lon":5.38878,"is_reserved":false,"is_disabled":false,"rental_uris":{"android":"levelo://app?vid=c15182f4-4a84-459a-86d5-9941bcbb1ea5","ios":"levelo://app?vid=c15182f4-4a84-459a-86d5-9941bcbb1ea5"},"vehicle_type_id":"4","last_reported":1728307090,"current_range_meters":4000,"station_id":"ce4bhi12rcd13ifvqfo0","pricing_plan_id":"cebpf4jnsgd1na2vs0mg"},{"bike_id":"ebbed3dd-0ca8-4bf1-92fc-a5ef8c955629","system_id":"levelo_inurba_marseille","lat":43.29905,"lon":5.38141,"is_reserved":false,"is_disabled":false,"rental_uris":{"android":"levelo://app?vid=ebbed3dd-0ca8-4bf1-92fc-a5ef8c955629","ios":"levelo://app?vid=ebbed3dd-0ca8-4bf1-92fc-a5ef8c955629"},"vehicle_type_id":"4","last_reported":1728307090,"current_range_meters":11600,"station_id":"ce4bgj12rcd13ifvqbc0","pricing_plan_id":"cebpf4jnsgd1na2vs0mg"},{"bike_id":"f1d1cc4f-19cc-42e2-87d5-427f21344530","system_id":"levelo_inurba_marseille","lat":43.30547,"lon":5.38447,"is_reserved":false,"is_disabled":false,"rental_uris":{"android":"levelo://app?vid=f1d1cc4f-19cc-42e2-87d5-427f21344530","ios":"levelo://app?vid=f1d1cc4f-19cc-42e2-87d5-427f21344530"},"vehicle_type_id":"4","last_reported":1728307090,"current_range_meters":22000,"station_id":"ce4bh312rcd13ifvqdk0","pricing_plan_id":"cebpf4jnsgd1na2vs0mg"},{"bike_id":"5a790196-eb66-477f-871f-410c6648ae5b","system_id":"levelo_inurba_marseille","lat":43.28858,"lon":5.39317,"is_reserved":false,"is_disabled":false,"rental_uris":{"android":"levelo://app?vid=5a790196-eb66-477f-871f-410c6648ae5b","ios":"levelo://app?vid=5a790196-eb66-477f-871f-410c6648ae5b"},"vehicle_type_id":"4","last_reported":1728307090,"current_range_meters":38800,"station_id":"ce4bh2p2rcd13ifvqdi0","pricing_plan_id":"cebpf4jnsgd1na2vs0mg"},{"bike_id":"d3a07cbe-0a10-4121-a526-dd5b0955fe87","system_id":"levelo_inurba_marseille","lat":43.31112,"lon":5.38323,"is_reserved":false,"is_disabled":false,"rental_uris":{"android":"levelo://app?vid=d3a07cbe-0a10-4121-a526-dd5b0955fe87","ios":"levelo://app?vid=d3a07cbe-0a10-4121-a526-dd5b0955fe87"},"vehicle_type_id":"4","last_reported":1728307090,"current_range_meters":2000,"station_id":"ce4bgv92rcd13ifvqcr0","pricing_plan_id":"cebpf4jnsgd1na2vs0mg"},{"bike_id":"9ae01abf-f7db-4c6a-8cfd-0adffb37a1f9","system_id":"levelo_inurba_marseille","lat":43.282623,"lon":5.350612,"is_reserved":false,"is_disabled":false,"rental_uris":{"android":"levelo://app?vid=9ae01abf-f7db-4c6a-8cfd-0adffb37a1f9","ios":"levelo://app?vid=9ae01abf-f7db-4c6a-8cfd-0adffb37a1f9"},"vehicle_type_id":"4","last_reported":1728307090,"current_range_meters":31200,"station_id":"ce4bhbp2rcd13ifvqerg","pricing_plan_id":"cebpf4jnsgd1na2vs0mg"},{"bike_id":"63905476-2890-443e-983a-17cf520e6a49","system_id":"levelo_inurba_marseille","lat":43.28269,"lon":5.35057,"is_reserved":false,"is_disabled":false,"rental_uris":{"android":"levelo://app?vid=63905476-2890-443e-983a-17cf520e6a49","ios":"levelo://app?vid=63905476-2890-443e-983a-17cf520e6a49"},"vehicle_type_id":"4","last_reported":1728307090,"current_range_meters":11200,"station_id":"ce4bhbp2rcd13ifvqerg","pricing_plan_id":"cebpf4jnsgd1na2vs0mg"},{"bike_id":"7c8a5718-e8d1-437a-b538-3ab7ecf572a8","system_id":"levelo_inurba_marseille","lat":43.28934,"lon":5.36391,"is_reserved":false,"is_disabled":false,"rental_uris":{"android":"levelo://app?vid=7c8a5718-e8d1-437a-b538-3ab7ecf572a8","ios":"levelo://app?vid=7c8a5718-e8d1-437a-b538-3ab7ecf572a8"},"vehicle_type_id":"4","last_reported":1728307090,"current_range_meters":28000,"station_id":"ce4bhc92rcd13ifvqetg","pricing_plan_id":"cebpf4jnsgd1na2vs0mg"},{"bike_id":"c190b4a1-ea1d-47e2-b2e8-eefa3099f9cc","system_id":"levelo_inurba_marseille","lat":43.23191,"lon":5.35556,"is_reserved":false,"is_disabled":false,"rental_uris":{"android":"levelo://app?vid=c190b4a1-ea1d-47e2-b2e8-eefa3099f9cc","ios":"levelo://app?vid=c190b4a1-ea1d-47e2-b2e8-eefa3099f9cc"},"vehicle_type_id":"4","last_reported":1728307090,"current_range_meters":38800,"station_id":"ce4bhu92rcd13ifvqi70","pricing_plan_id":"cebpf4jnsgd1na2vs0mg"},{"bike_id":"920dc27e-bf5b-4417-99ec-8732ae0408ac","system_id":"levelo_inurba_marseille","lat":43.29592,"lon":5.38094,"is_reserved":false,"is_disabled":false,"rental_uris":{"android":"levelo://app?vid=920dc27e-bf5b-4417-99ec-8732ae0408ac","ios":"levelo://app?vid=920dc27e-bf5b-4417-99ec-8732ae0408ac"},"vehicle_type_id":"4","last_reported":1728307090,"current_range_meters":22000,"station_id":"ce4bgl12rcd13ifvqbo0","pricing_plan_id":"cebpf4jnsgd1na2vs0mg"},{"bike_id":"2a214ee3-d8f7-4505-9648-52bff47285eb","system_id":"levelo_inurba_marseille","lat":43.337444,"lon":5.374475,"is_reserved":false,"is_disabled":false,"rental_uris":{"android":"levelo://app?vid=2a214ee3-d8f7-4505-9648-52bff47285eb","ios":"levelo://app?vid=2a214ee3-d8f7-4505-9648-52bff47285eb"},"vehicle_type_id":"4","last_reported":1728307090,"current_range_meters":7200,"station_id":"ce4bgvp2rcd13ifvqct0","pricing_plan_id":"cebpf4jnsgd1na2vs0mg"},{"bike_id":"245c3c0e-e2fa-4514-a116-bb79f840307a","system_id":"levelo_inurba_marseille","lat":43.27679,"lon":5.38888,"is_reserved":false,"is_disabled":false,"rental_uris":{"android":"levelo://app?vid=245c3c0e-e2fa-4514-a116-bb79f840307a","ios":"levelo://app?vid=245c3c0e-e2fa-4514-a116-bb79f840307a"},"vehicle_type_id":"4","last_reported":1728307090,"current_range_meters":4800,"station_id":"ce4bhi12rcd13ifvqfo0","pricing_plan_id":"cebpf4jnsgd1na2vs0mg"},{"bike_id":"9803f1a9-f386-4cd5-82ea-b6bb5d8e42db","system_id":"levelo_inurba_marseille","lat":43.26947,"lon":5.3864,"is_reserved":false,"is_disabled":false,"rental_uris":{"android":"levelo://app?vid=9803f1a9-f386-4cd5-82ea-b6bb5d8e42db","ios":"levelo://app?vid=9803f1a9-f386-4cd5-82ea-b6bb5d8e42db"},"vehicle_type_id":"4","last_reported":1728307090,"current_range_meters":39200,"station_id":"ce4bhh92rcd13ifvqfh0","pricing_plan_id":"cebpf4jnsgd1na2vs0mg"},{"bike_id":"f1a587de-a4d9-42a8-8fe6-d4518f6dd1b0","system_id":"levelo_inurba_marseille","lat":43.23063,"lon":5.35493,"is_reserved":false,"is_disabled":false,"rental_uris":{"android":"levelo://app?vid=f1a587de-a4d9-42a8-8fe6-d4518f6dd1b0","ios":"levelo://app?vid=f1a587de-a4d9-42a8-8fe6-d4518f6dd1b0"},"vehicle_type_id":"4","last_reported":1728307090,"current_range_meters":12000,"station_id":"cpo3342slgdg3j2ifvpg","pricing_plan_id":"cebpf4jnsgd1na2vs0mg"},{"bike_id":"6b4618ac-bf15-42bd-b8ce-f62f3e28352b","system_id":"levelo_inurba_marseille","lat":43.23193,"lon":5.35554,"is_reserved":false,"is_disabled":false,"rental_uris":{"android":"levelo://app?vid=6b4618ac-bf15-42bd-b8ce-f62f3e28352b","ios":"levelo://app?vid=6b4618ac-bf15-42bd-b8ce-f62f3e28352b"},"vehicle_type_id":"4","last_reported":1728307090,"current_range_meters":33600,"station_id":"ce4bhu92rcd13ifvqi70","pricing_plan_id":"cebpf4jnsgd1na2vs0mg"},{"bike_id":"470fa41f-82f4-47a8-8790-86b159d8934b","system_id":"levelo_inurba_marseille","lat":43.29281,"lon":5.40121,"is_reserved":false,"is_disabled":false,"rental_uris":{"android":"levelo://app?vid=470fa41f-82f4-47a8-8790-86b159d8934b","ios":"levelo://app?vid=470fa41f-82f4-47a8-8790-86b159d8934b"},"vehicle_type_id":"4","last_reported":1728307090,"current_range_meters":9200,"station_id":"ce4bh312rcd13ifvqdk0","pricing_plan_id":"cebpf4jnsgd1na2vs0mg"},{"bike_id":"a69fd01b-3806-4b2c-a0dc-9fb7dfe4ac36","system_id":"levelo_inurba_marseille","lat":43.33025,"lon":5.39041,"is_reserved":false,"is_disabled":false,"rental_uris":{"android":"levelo://app?vid=a69fd01b-3806-4b2c-a0dc-9fb7dfe4ac36","ios":"levelo://app?vid=a69fd01b-3806-4b2c-a0dc-9fb7dfe4ac36"},"vehicle_type_id":"4","last_reported":1728307090,"current_range_meters":27600,"station_id":"ce4bhr92rcd13ifvqhrg","pricing_plan_id":"cebpf4jnsgd1na2vs0mg"},{"bike_id":"b19aacc4-ffb7-4c00-b0b8-19ba0523b4b6","system_id":"levelo_inurba_marseille","lat":43.30466,"lon":5.37902,"is_reserved":false,"is_disabled":false,"rental_uris":{"android":"levelo://app?vid=b19aacc4-ffb7-4c00-b0b8-19ba0523b4b6","ios":"levelo://app?vid=b19aacc4-ffb7-4c00-b0b8-19ba0523b4b6"},"vehicle_type_id":"4","last_reported":1728307090,"current_range_meters":38000,"station_id":"ce4bgup2rcd13ifvqcn0","pricing_plan_id":"cebpf4jnsgd1na2vs0mg"},{"bike_id":"4f97ac57-8a86-491c-8243-20ca2189cc8d","system_id":"levelo_inurba_marseille","lat":43.32657,"lon":5.40992,"is_reserved":false,"is_disabled":false,"rental_uris":{"android":"levelo://app?vid=4f97ac57-8a86-491c-8243-20ca2189cc8d","ios":"levelo://app?vid=4f97ac57-8a86-491c-8243-20ca2189cc8d"},"vehicle_type_id":"4","last_reported":1728307090,"current_range_meters":38800,"station_id":"ce4bhpp2rcd13ifvqhgg","pricing_plan_id":"cebpf4jnsgd1na2vs0mg"},{"bike_id":"481b7fa0-9287-46f7-aafe-0ea9386bd9be","system_id":"levelo_inurba_marseille","lat":43.27428,"lon":5.394187,"is_reserved":false,"is_disabled":false,"rental_uris":{"android":"levelo://app?vid=481b7fa0-9287-46f7-aafe-0ea9386bd9be","ios":"levelo://app?vid=481b7fa0-9287-46f7-aafe-0ea9386bd9be"},"vehicle_type_id":"4","last_reported":1728307090,"current_range_meters":32800,"station_id":"ce4bhdp2rcd13ifvqf20","pricing_plan_id":"cebpf4jnsgd1na2vs0mg"},{"bike_id":"fe1602a7-2a79-4709-82b6-934b909dfa97","system_id":"levelo_inurba_marseille","lat":43.282562,"lon":5.351086,"is_reserved":false,"is_disabled":false,"rental_uris":{"android":"levelo://app?vid=fe1602a7-2a79-4709-82b6-934b909dfa97","ios":"levelo://app?vid=fe1602a7-2a79-4709-82b6-934b909dfa97"},"vehicle_type_id":"4","last_reported":1728307090,"current_range_meters":16400,"station_id":"ce4bhbp2rcd13ifvqerg","pricing_plan_id":"cebpf4jnsgd1na2vs0mg"},{"bike_id":"25fca34d-d1d1-4912-9ad1-ead795e3fa9a","system_id":"levelo_inurba_marseille","lat":43.3089,"lon":5.37303,"is_reserved":false,"is_disabled":false,"rental_uris":{"android":"levelo://app?vid=25fca34d-d1d1-4912-9ad1-ead795e3fa9a","ios":"levelo://app?vid=25fca34d-d1d1-4912-9ad1-ead795e3fa9a"},"vehicle_type_id":"4","last_reported":1728307090,"current_range_meters":36000,"station_id":"","pricing_plan_id":"cebpf4jnsgd1na2vs0mg"},{"bike_id":"50b0c6ff-7fd3-4414-b412-cb2656e077b2","system_id":"levelo_inurba_marseille","lat":43.31164,"lon":5.38706,"is_reserved":false,"is_disabled":false,"rental_uris":{"android":"levelo://app?vid=50b0c6ff-7fd3-4414-b412-cb2656e077b2","ios":"levelo://app?vid=50b0c6ff-7fd3-4414-b412-cb2656e077b2"},"vehicle_type_id":"4","last_reported":1728307090,"current_range_meters":28800,"station_id":"ce4bgv12rcd13ifvqcp0","pricing_plan_id":"cebpf4jnsgd1na2vs0mg"},{"bike_id":"23be5d4b-a160-4df5-8f45-6a04bc1ea92b","system_id":"levelo_inurba_marseille","lat":43.29787,"lon":5.37105,"is_reserved":false,"is_disabled":false,"rental_uris":{"android":"levelo://app?vid=23be5d4b-a160-4df5-8f45-6a04bc1ea92b","ios":"levelo://app?vid=23be5d4b-a160-4df5-8f45-6a04bc1ea92b"},"vehicle_type_id":"4","last_reported":1728307090,"current_range_meters":16400,"station_id":"ce4bgop2rcd13ifvqc1g","pricing_plan_id":"cebpf4jnsgd1na2vs0mg"},{"bike_id":"ceae7ede-a81e-41c8-b671-3d168e17e516","system_id":"levelo_inurba_marseille","lat":43.243957,"lon":5.370574,"is_reserved":false,"is_disabled":false,"rental_uris":{"android":"levelo://app?vid=ceae7ede-a81e-41c8-b671-3d168e17e516","ios":"levelo://app?vid=ceae7ede-a81e-41c8-b671-3d168e17e516"},"vehicle_type_id":"4","last_reported":1728307090,"current_range_meters":38800,"station_id":"ce4bhhh2rcd13ifvqfk0","pricing_plan_id":"cebpf4jnsgd1na2vs0mg"},{"bike_id":"ed818a19-bd11-4031-8b4b-d68f1c05888a","system_id":"levelo_inurba_marseille","lat":43.27208,"lon":5.39184,"is_reserved":false,"is_disabled":false,"rental_uris":{"android":"levelo://app?vid=ed818a19-bd11-4031-8b4b-d68f1c05888a","ios":"levelo://app?vid=ed818a19-bd11-4031-8b4b-d68f1c05888a"},"vehicle_type_id":"4","last_reported":1728307090,"current_range_meters":22800,"station_id":"ce4bhhp2rcd13ifvqfm0","pricing_plan_id":"cebpf4jnsgd1na2vs0mg"},{"bike_id":"8311540e-06e6-4f8c-9f75-d28d3b3022ed","system_id":"levelo_inurba_marseille","lat":43.28043,"lon":5.36941,"is_reserved":false,"is_disabled":false,"rental_uris":{"android":"levelo://app?vid=8311540e-06e6-4f8c-9f75-d28d3b3022ed","ios":"levelo://app?vid=8311540e-06e6-4f8c-9f75-d28d3b3022ed"},"vehicle_type_id":"4","last_reported":1728307090,"current_range_meters":26000,"station_id":"ce4bha12rcd13ifvqef0","pricing_plan_id":"cebpf4jnsgd1na2vs0mg"},{"bike_id":"926380f0-4ec2-45d5-8c58-de39b75f601e","system_id":"levelo_inurba_marseille","lat":43.23064,"lon":5.3549,"is_reserved":false,"is_disabled":false,"rental_uris":{"android":"levelo://app?vid=926380f0-4ec2-45d5-8c58-de39b75f601e","ios":"levelo://app?vid=926380f0-4ec2-45d5-8c58-de39b75f601e"},"vehicle_type_id":"4","last_reported":1728307090,"current_range_meters":16400,"station_id":"cpo3342slgdg3j2ifvpg","pricing_plan_id":"cebpf4jnsgd1na2vs0mg"},{"bike_id":"f6e4e970-5306-4145-9423-2196716cdeb6","system_id":"levelo_inurba_marseille","lat":43.29581,"lon":5.36738,"is_reserved":false,"is_disabled":false,"rental_uris":{"android":"levelo://app?vid=f6e4e970-5306-4145-9423-2196716cdeb6","ios":"levelo://app?vid=f6e4e970-5306-4145-9423-2196716cdeb6"},"vehicle_type_id":"4","last_reported":1728307090,"current_range_meters":24800,"station_id":"ce4bgph2rcd13ifvqc2g","pricing_plan_id":"cebpf4jnsgd1na2vs0mg"},{"bike_id":"114dbd04-f02e-4a0e-8ca1-55f348020f86","system_id":"levelo_inurba_marseille","lat":43.30909,"lon":5.36854,"is_reserved":false,"is_disabled":false,"rental_uris":{"android":"levelo://app?vid=114dbd04-f02e-4a0e-8ca1-55f348020f86","ios":"levelo://app?vid=114dbd04-f02e-4a0e-8ca1-55f348020f86"},"vehicle_type_id":"4","last_reported":1728307090,"current_range_meters":38800,"station_id":"ce4bgn92rcd13ifvqbvg","pricing_plan_id":"cebpf4jnsgd1na2vs0mg"},{"bike_id":"edd3636a-9816-4ae7-a792-03d002fc77b9","system_id":"levelo_inurba_marseille","lat":43.28515,"lon":5.37079,"is_reserved":false,"is_disabled":false,"rental_uris":{"android":"levelo://app?vid=edd3636a-9816-4ae7-a792-03d002fc77b9","ios":"levelo://app?vid=edd3636a-9816-4ae7-a792-03d002fc77b9"},"vehicle_type_id":"4","last_reported":1728307090,"current_range_meters":37600,"station_id":"ce4bht12rcd13ifvqi60","pricing_plan_id":"cebpf4jnsgd1na2vs0mg"},{"bike_id":"4e82e7f9-1659-40fd-9b56-c0d67ee99f0d","system_id":"levelo_inurba_marseille","lat":43.29362,"lon":5.37832,"is_reserved":false,"is_disabled":false,"rental_uris":{"android":"levelo://app?vid=4e82e7f9-1659-40fd-9b56-c0d67ee99f0d","ios":"levelo://app?vid=4e82e7f9-1659-40fd-9b56-c0d67ee99f0d"},"vehicle_type_id":"4","last_reported":1728307090,"current_range_meters":32400,"station_id":"ce4bgjh2rcd13ifvqbf0","pricing_plan_id":"cebpf4jnsgd1na2vs0mg"},{"bike_id":"8e1e3d2c-16e0-4046-976f-28fa8b9977b3","system_id":"levelo_inurba_marseille","lat":43.26797,"lon":5.39413,"is_reserved":false,"is_disabled":false,"rental_uris":{"android":"levelo://app?vid=8e1e3d2c-16e0-4046-976f-28fa8b9977b3","ios":"levelo://app?vid=8e1e3d2c-16e0-4046-976f-28fa8b9977b3"},"vehicle_type_id":"4","last_reported":1728307090,"current_range_meters":27200,"station_id":"ce4bhh12rcd13ifvqfg0","pricing_plan_id":"cebpf4jnsgd1na2vs0mg"},{"bike_id":"ab6e6edb-0739-4561-acb1-ffa3c039975c","system_id":"levelo_inurba_marseille","lat":43.26034,"lon":5.37548,"is_reserved":false,"is_disabled":false,"rental_uris":{"android":"levelo://app?vid=ab6e6edb-0739-4561-acb1-ffa3c039975c","ios":"levelo://app?vid=ab6e6edb-0739-4561-acb1-ffa3c039975c"},"vehicle_type_id":"4","last_reported":1728307090,"current_range_meters":25600,"station_id":"ce4bhgh2rcd13ifvqfa0","pricing_plan_id":"cebpf4jnsgd1na2vs0mg"},{"bike_id":"55f60291-0c24-40ec-bd13-614d92df54b6","system_id":"levelo_inurba_marseille","lat":43.30933,"lon":5.40146,"is_reserved":false,"is_disabled":false,"rental_uris":{"android":"levelo://app?vid=55f60291-0c24-40ec-bd13-614d92df54b6","ios":"levelo://app?vid=55f60291-0c24-40ec-bd13-614d92df54b6"},"vehicle_type_id":"4","last_reported":1728307090,"current_range_meters":36000,"station_id":"ce4bgvp2rcd13ifvqct0","pricing_plan_id":"cebpf4jnsgd1na2vs0mg"},{"bike_id":"65a9b3a1-1d72-474d-9e16-637c602561b7","system_id":"levelo_inurba_marseille","lat":43.32559,"lon":5.41476,"is_reserved":false,"is_disabled":false,"rental_uris":{"android":"levelo://app?vid=65a9b3a1-1d72-474d-9e16-637c602561b7","ios":"levelo://app?vid=65a9b3a1-1d72-474d-9e16-637c602561b7"},"vehicle_type_id":"4","last_reported":1728307090,"current_range_meters":38000,"station_id":"ce4bhq12rcd13ifvqhhg","pricing_plan_id":"cebpf4jnsgd1na2vs0mg"},{"bike_id":"ee919583-acf1-410a-a1dc-eab2743e96fc","system_id":"levelo_inurba_marseille","lat":43.30884,"lon":5.37197,"is_reserved":false,"is_disabled":false,"rental_uris":{"android":"levelo://app?vid=ee919583-acf1-410a-a1dc-eab2743e96fc","ios":"levelo://app?vid=ee919583-acf1-410a-a1dc-eab2743e96fc"},"vehicle_type_id":"4","last_reported":1728307090,"current_range_meters":37600,"station_id":"ce4bguh2rcd13ifvqckg","pricing_plan_id":"cebpf4jnsgd1na2vs0mg"},{"bike_id":"cf103bc3-846c-4937-9f52-3983e21f817e","system_id":"levelo_inurba_marseille","lat":43.27941,"lon":5.41048,"is_reserved":false,"is_disabled":false,"rental_uris":{"android":"levelo://app?vid=cf103bc3-846c-4937-9f52-3983e21f817e","ios":"levelo://app?vid=cf103bc3-846c-4937-9f52-3983e21f817e"},"vehicle_type_id":"4","last_reported":1728307090,"current_range_meters":31200,"station_id":"ce4bhnp2rcd13ifvqh0g","pricing_plan_id":"cebpf4jnsgd1na2vs0mg"},{"bike_id":"9aac7612-b9b7-4180-ae0e-3326a7e2dbbd","system_id":"levelo_inurba_marseille","lat":43.29617,"lon":5.3717,"is_reserved":false,"is_disabled":false,"rental_uris":{"android":"levelo://app?vid=9aac7612-b9b7-4180-ae0e-3326a7e2dbbd","ios":"levelo://app?vid=9aac7612-b9b7-4180-ae0e-3326a7e2dbbd"},"vehicle_type_id":"4","last_reported":1728307090,"current_range_meters":8400,"station_id":"ce4bgnh2rcd13ifvqc0g","pricing_plan_id":"cebpf4jnsgd1na2vs0mg"},{"bike_id":"7667f4fa-05a8-49e9-a60c-4172475b64a6","system_id":"levelo_inurba_marseille","lat":43.24545,"lon":5.39527,"is_reserved":false,"is_disabled":false,"rental_uris":{"android":"levelo://app?vid=7667f4fa-05a8-49e9-a60c-4172475b64a6","ios":"levelo://app?vid=7667f4fa-05a8-49e9-a60c-4172475b64a6"},"vehicle_type_id":"4","last_reported":1728307090,"current_range_meters":31200,"station_id":"ce4bhlp2rcd13ifvqgjg","pricing_plan_id":"cebpf4jnsgd1na2vs0mg"},{"bike_id":"b553a0b4-54e4-4ab3-8483-2e5640c6e842","system_id":"levelo_inurba_marseille","lat":43.313527,"lon":5.367114,"is_reserved":false,"is_disabled":false,"rental_uris":{"android":"levelo://app?vid=b553a0b4-54e4-4ab3-8483-2e5640c6e842","ios":"levelo://app?vid=b553a0b4-54e4-4ab3-8483-2e5640c6e842"},"vehicle_type_id":"4","last_reported":1728307090,"current_range_meters":33200,"station_id":"ce4bgr92rcd13ifvqc6g","pricing_plan_id":"cebpf4jnsgd1na2vs0mg"},{"bike_id":"0e9bf4d1-0450-418f-9b74-0151534ef107","system_id":"levelo_inurba_marseille","lat":43.30862,"lon":5.36649,"is_reserved":false,"is_disabled":false,"rental_uris":{"android":"levelo://app?vid=0e9bf4d1-0450-418f-9b74-0151534ef107","ios":"levelo://app?vid=0e9bf4d1-0450-418f-9b74-0151534ef107"},"vehicle_type_id":"4","last_reported":1728307090,"current_range_meters":29600,"station_id":"","pricing_plan_id":"cebpf4jnsgd1na2vs0mg"},{"bike_id":"bdd4afea-f375-469f-ad99-b4cbbd1a7801","system_id":"levelo_inurba_marseille","lat":43.29042,"lon":5.39971,"is_reserved":false,"is_disabled":false,"rental_uris":{"android":"levelo://app?vid=bdd4afea-f375-469f-ad99-b4cbbd1a7801","ios":"levelo://app?vid=bdd4afea-f375-469f-ad99-b4cbbd1a7801"},"vehicle_type_id":"4","last_reported":1728307090,"current_range_meters":10800,"station_id":"ce4bh392rcd13ifvqdm0","pricing_plan_id":"cebpf4jnsgd1na2vs0mg"},{"bike_id":"5790fc04-5122-40c2-bb4f-ff0994be96ba","system_id":"levelo_inurba_marseille","lat":43.25499,"lon":5.37643,"is_reserved":false,"is_disabled":false,"rental_uris":{"android":"levelo://app?vid=5790fc04-5122-40c2-bb4f-ff0994be96ba","ios":"levelo://app?vid=5790fc04-5122-40c2-bb4f-ff0994be96ba"},"vehicle_type_id":"4","last_reported":1728307090,"current_range_meters":38800,"station_id":"ce4bhh12rcd13ifvqff0","pricing_plan_id":"cebpf4jnsgd1na2vs0mg"},{"bike_id":"56b6fd59-75e4-4531-8391-9ea094f65b50","system_id":"levelo_inurba_marseille","lat":43.25931,"lon":5.40906,"is_reserved":false,"is_disabled":false,"rental_uris":{"android":"levelo://app?vid=56b6fd59-75e4-4531-8391-9ea094f65b50","ios":"levelo://app?vid=56b6fd59-75e4-4531-8391-9ea094f65b50"},"vehicle_type_id":"4","last_reported":1728307090,"current_range_meters":23200,"station_id":"ce4bhm92rcd13ifvqglg","pricing_plan_id":"cebpf4jnsgd1na2vs0mg"},{"bike_id":"c7ccc41e-a0a0-40ee-b7dc-86e99a5fb199","system_id":"levelo_inurba_marseille","lat":43.30879,"lon":5.37187,"is_reserved":false,"is_disabled":false,"rental_uris":{"android":"levelo://app?vid=c7ccc41e-a0a0-40ee-b7dc-86e99a5fb199","ios":"levelo://app?vid=c7ccc41e-a0a0-40ee-b7dc-86e99a5fb199"},"vehicle_type_id":"4","last_reported":1728307090,"current_range_meters":10800,"station_id":"ce4bguh2rcd13ifvqckg","pricing_plan_id":"cebpf4jnsgd1na2vs0mg"},{"bike_id":"5470a415-1840-43b1-b3ff-d642b0682683","system_id":"levelo_inurba_marseille","lat":43.27055,"lon":5.40263,"is_reserved":false,"is_disabled":false,"rental_uris":{"android":"levelo://app?vid=5470a415-1840-43b1-b3ff-d642b0682683","ios":"levelo://app?vid=5470a415-1840-43b1-b3ff-d642b0682683"},"vehicle_type_id":"4","last_reported":1728307090,"current_range_meters":4400,"station_id":"ce4bhk92rcd13ifvqgc0","pricing_plan_id":"cebpf4jnsgd1na2vs0mg"},{"bike_id":"475e0eb9-a4d5-4b17-a1bf-e8dd8e446492","system_id":"levelo_inurba_marseille","lat":43.29789,"lon":5.38109,"is_reserved":false,"is_disabled":false,"rental_uris":{"android":"levelo://app?vid=475e0eb9-a4d5-4b17-a1bf-e8dd8e446492","ios":"levelo://app?vid=475e0eb9-a4d5-4b17-a1bf-e8dd8e446492"},"vehicle_type_id":"4","last_reported":1728307090,"current_range_meters":38800,"station_id":"ce4bgip2rcd13ifvqbb0","pricing_plan_id":"cebpf4jnsgd1na2vs0mg"},{"bike_id":"062c735b-9e2e-4d95-8ba0-c53c606015a8","system_id":"levelo_inurba_marseille","lat":43.28155,"lon":5.42653,"is_reserved":false,"is_disabled":false,"rental_uris":{"android":"levelo://app?vid=062c735b-9e2e-4d95-8ba0-c53c606015a8","ios":"levelo://app?vid=062c735b-9e2e-4d95-8ba0-c53c606015a8"},"vehicle_type_id":"4","last_reported":1728307090,"current_range_meters":30400,"station_id":"ce4bhnh2rcd13ifvqgug","pricing_plan_id":"cebpf4jnsgd1na2vs0mg"},{"bike_id":"c81690ba-c97e-496a-b65a-ed8cdb40cfe4","system_id":"levelo_inurba_marseille","lat":43.29799,"lon":5.38095,"is_reserved":false,"is_disabled":false,"rental_uris":{"android":"levelo://app?vid=c81690ba-c97e-496a-b65a-ed8cdb40cfe4","ios":"levelo://app?vid=c81690ba-c97e-496a-b65a-ed8cdb40cfe4"},"vehicle_type_id":"4","last_reported":1728307090,"current_range_meters":14000,"station_id":"ce4bgip2rcd13ifvqbb0","pricing_plan_id":"cebpf4jnsgd1na2vs0mg"},{"bike_id":"e4b36900-d4b6-4ad1-8e07-396be2681c2a","system_id":"levelo_inurba_marseille","lat":43.292786,"lon":5.390451,"is_reserved":false,"is_disabled":false,"rental_uris":{"android":"levelo://app?vid=e4b36900-d4b6-4ad1-8e07-396be2681c2a","ios":"levelo://app?vid=e4b36900-d4b6-4ad1-8e07-396be2681c2a"},"vehicle_type_id":"4","last_reported":1728307090,"current_range_meters":9200,"station_id":"ce4bh192rcd13ifvqdd0","pricing_plan_id":"cebpf4jnsgd1na2vs0mg"},{"bike_id":"af101257-97d8-427d-926c-bfd575a5c827","system_id":"levelo_inurba_marseille","lat":43.23067,"lon":5.35486,"is_reserved":false,"is_disabled":false,"rental_uris":{"android":"levelo://app?vid=af101257-97d8-427d-926c-bfd575a5c827","ios":"levelo://app?vid=af101257-97d8-427d-926c-bfd575a5c827"},"vehicle_type_id":"4","last_reported":1728307090,"current_range_meters":9600,"station_id":"cpo3342slgdg3j2ifvpg","pricing_plan_id":"cebpf4jnsgd1na2vs0mg"},{"bike_id":"79d4ce44-dde0-4856-adfb-9d048612b764","system_id":"levelo_inurba_marseille","lat":43.24173,"lon":5.36397,"is_reserved":false,"is_disabled":false,"rental_uris":{"android":"levelo://app?vid=79d4ce44-dde0-4856-adfb-9d048612b764","ios":"levelo://app?vid=79d4ce44-dde0-4856-adfb-9d048612b764"},"vehicle_type_id":"4","last_reported":1728307090,"current_range_meters":28400,"station_id":"cpo36qri1sfpv3e86is0","pricing_plan_id":"cebpf4jnsgd1na2vs0mg"},{"bike_id":"a3d5cfb4-d35b-4563-a9ae-e4550614fa56","system_id":"levelo_inurba_marseille","lat":43.28272,"lon":5.35067,"is_reserved":false,"is_disabled":false,"rental_uris":{"android":"levelo://app?vid=a3d5cfb4-d35b-4563-a9ae-e4550614fa56","ios":"levelo://app?vid=a3d5cfb4-d35b-4563-a9ae-e4550614fa56"},"vehicle_type_id":"4","last_reported":1728307090,"current_range_meters":38800,"station_id":"ce4bhbp2rcd13ifvqerg","pricing_plan_id":"cebpf4jnsgd1na2vs0mg"},{"bike_id":"6362dd7e-711b-4b82-af8e-291ea8f6ea1e","system_id":"levelo_inurba_marseille","lat":43.23068,"lon":5.35493,"is_reserved":false,"is_disabled":false,"rental_uris":{"android":"levelo://app?vid=6362dd7e-711b-4b82-af8e-291ea8f6ea1e","ios":"levelo://app?vid=6362dd7e-711b-4b82-af8e-291ea8f6ea1e"},"vehicle_type_id":"4","last_reported":1728307090,"current_range_meters":26000,"station_id":"cpo3342slgdg3j2ifvpg","pricing_plan_id":"cebpf4jnsgd1na2vs0mg"},{"bike_id":"2b50d858-5911-4fa7-9d01-57dec5fbffbb","system_id":"levelo_inurba_marseille","lat":43.27618,"lon":5.36103,"is_reserved":false,"is_disabled":false,"rental_uris":{"android":"levelo://app?vid=2b50d858-5911-4fa7-9d01-57dec5fbffbb","ios":"levelo://app?vid=2b50d858-5911-4fa7-9d01-57dec5fbffbb"},"vehicle_type_id":"4","last_reported":1728307090,"current_range_meters":37600,"station_id":"ce4bgj92rcd13ifvqbe0","pricing_plan_id":"cebpf4jnsgd1na2vs0mg"},{"bike_id":"65923719-5b89-4f0c-a5e7-3e51a32525f1","system_id":"levelo_inurba_marseille","lat":43.29,"lon":5.36791,"is_reserved":false,"is_disabled":false,"rental_uris":{"android":"levelo://app?vid=65923719-5b89-4f0c-a5e7-3e51a32525f1","ios":"levelo://app?vid=65923719-5b89-4f0c-a5e7-3e51a32525f1"},"vehicle_type_id":"4","last_reported":1728307090,"current_range_meters":32400,"station_id":"ce4bh5p2rcd13ifvqe4g","pricing_plan_id":"cebpf4jnsgd1na2vs0mg"},{"bike_id":"5786a073-7039-49f5-afe1-361d229ae250","system_id":"levelo_inurba_marseille","lat":43.29852,"lon":5.36284,"is_reserved":false,"is_disabled":false,"rental_uris":{"android":"levelo://app?vid=5786a073-7039-49f5-afe1-361d229ae250","ios":"levelo://app?vid=5786a073-7039-49f5-afe1-361d229ae250"},"vehicle_type_id":"4","last_reported":1728307090,"current_range_meters":38800,"station_id":"ce4bgpp2rcd13ifvqc3g","pricing_plan_id":"cebpf4jnsgd1na2vs0mg"},{"bike_id":"bcd0522c-85b3-4e71-aa29-1747bacffd01","system_id":"levelo_inurba_marseille","lat":43.29786,"lon":5.39332,"is_reserved":false,"is_disabled":false,"rental_uris":{"android":"levelo://app?vid=bcd0522c-85b3-4e71-aa29-1747bacffd01","ios":"levelo://app?vid=bcd0522c-85b3-4e71-aa29-1747bacffd01"},"vehicle_type_id":"4","last_reported":1728307090,"current_range_meters":32000,"station_id":"chh1huq6cuj3fo74tm60","pricing_plan_id":"cebpf4jnsgd1na2vs0mg"},{"bike_id":"a6eb02c9-05b8-44b0-90b0-1198a1aead23","system_id":"levelo_inurba_marseille","lat":43.26058,"lon":5.3939,"is_reserved":false,"is_disabled":false,"rental_uris":{"android":"levelo://app?vid=a6eb02c9-05b8-44b0-90b0-1198a1aead23","ios":"levelo://app?vid=a6eb02c9-05b8-44b0-90b0-1198a1aead23"},"vehicle_type_id":"4","last_reported":1728307090,"current_range_meters":40000,"station_id":"ce4bhh92rcd13ifvqfj0","pricing_plan_id":"cebpf4jnsgd1na2vs0mg"},{"bike_id":"67910c1d-577f-4dcc-8e4f-8df039e776ae","system_id":"levelo_inurba_marseille","lat":43.30326,"lon":5.40433,"is_reserved":false,"is_disabled":false,"rental_uris":{"android":"levelo://app?vid=67910c1d-577f-4dcc-8e4f-8df039e776ae","ios":"levelo://app?vid=67910c1d-577f-4dcc-8e4f-8df039e776ae"},"vehicle_type_id":"4","last_reported":1728307090,"current_range_meters":28400,"station_id":"ce4bh012rcd13ifvqd10","pricing_plan_id":"cebpf4jnsgd1na2vs0mg"},