{"last_updated":1727197699,"ttl":60,"version":"2.2","data":{"bikes":[{"bike_id":"60a9d761-6157-4e9c-b9d2-5e1b390b3720","system_id":"levelo_inurba_marseille","lat":43.292456,"lon":5.380032,"is_reserved":false,"is_disabled":false,"rental_uris":{"android":"levelo://app?vid=60a9d761-6157-4e9c-b9d2-5e1b390b3720","ios":"levelo://app?vid=60a9d761-6157-4e9c-b9d2-5e1b390b3720"},"vehicle_type_id":"4","last_reported":1727197699,"current_range_meters":12400,"station_id":"","pricing_plan_id":"cebpf4jnsgd1na2vs0mg"},{"bike_id":"8ee7fb84-da46-476f-a091-3c35d33d7645","system_id":"levelo_inurba_marseille","lat":43.27944,"lon":5.41044,"is_reserved":false,"is_disabled":false,"rental_uris":{"android":"levelo://app?vid=8ee7fb84-da46-476f-a091-3c35d33d7645","ios":"levelo://app?vid=8ee7fb84-da46-476f-a091-3c35d33d7645"},"vehicle_type_id":"4","last_reported":1727197699,"current_range_meters":15200,"station_id":"ce4bhnp2rcd13ifvqh0g","pricing_plan_id":"cebpf4jnsgd1na2vs0mg"},{"bike_id":"a5cd771a-136c-4089-9540-92a43f84b30a","system_id":"levelo_inurba_marseille","lat":43.3234,"lon":5.40615,"is_reserved":false,"is_disabled":false,"rental_uris":{"android":"levelo://app?vid=a5cd771a-136c-4089-9540-92a43f84b30a","ios":"levelo://app?vid=a5cd771a-136c-4089-9540-92a43f84b30a"},"vehicle_type_id":"4","last_reported":1727197699,"current_range_meters":27200,"station_id":"ce4bhq92rcd13ifvqhjg","pricing_plan_id":"cebpf4jnsgd1na2vs0mg"},{"bike_id":"c85c3ac1-ec61-453b-a260-9f3875c4a0d0","system_id":"levelo_inurba_marseille","lat":43.27949,"lon":5.41061,"is_reserved":false,"is_disabled":false,"rental_uris":{"android":"levelo://app?vid=c85c3ac1-ec61-453b-a260-9f3875c4a0d0","ios":"levelo://app?vid=c85c3ac1-ec61-453b-a260-9f3875c4a0d0"},"vehicle_type_id":"4","last_reported":1727197699,"current_range_meters":29600,"station_id":"ce4bhnp2rcd13ifvqh0g","pricing_plan_id":"cebpf4jnsgd1na2vs0mg"},{"bike_id":"c6274dea-4d64-4afb-9655-251f555df2a8","system_id":"levelo_inurba_marseille","lat":43.28272,"lon":5.35073,"is_reserved":false,"is_disabled":false,"rental_uris":{"android":"levelo://app?vid=c6274dea-4d64-4afb-9655-251f555df2a8","ios":"levelo://app?vid=c6274dea-4d64-4afb-9655-251f555df2a8"},"vehicle_type_id":"4","last_reported":1727197699,"current_range_meters":12000,"station_id":"ce4bhbp2rcd13ifvqerg","pricing_plan_id":"cebpf4jnsgd1na2vs0mg"},{"bike_id":"2de0ede3-be63-4f4e-bf16-11471ca6a1a1","system_id":"levelo_inurba_marseille","lat":43.32657,"lon":5.4099,"is_reserved":false,"is_disabled":false,"rental_uris":{"android":"levelo://app?vid=2de0ede3-be63-4f4e-bf16-11471ca6a1a1","ios":"levelo://app?vid=2de0ede3-be63-4f4e-bf16-11471ca6a1a1"},"vehicle_type_id":"4","last_reported":1727197699,"current_range_meters":36800,"station_id":"ce4bhpp2rcd13ifvqhgg","pricing_plan_id":"cebpf4jnsgd1na2vs0mg"},{"bike_id":"c6cd9b70-3b14-42a0-9ee3-01408936a20e","system_id":"levelo_inurba_marseille","lat":43.27792,"lon":5.40754,"is_reserved":false,"is_disabled":false,"rental_uris":{"android":"levelo://app?vid=c6cd9b70-3b14-42a0-9ee3-01408936a20e","ios":"levelo://app?vid=c6cd9b70-3b14-42a0-9ee3-01408936a20e"},"vehicle_type_id":"4","last_reported":1727197699,"current_range_meters":19200,"station_id":"ce4bhnh2rcd13ifvqgtg","pricing_plan_id":"cebpf4jnsgd1na2vs0mg"},{"bike_id":"9926f8d4-52ff-41d7-995b-39e4b6d4cdc0","system_id":"levelo_inurba_marseille","lat":43.32472,"lon":5.36575,"is_reserved":false,"is_disabled":false,"rental_uris":{"android":"levelo://app?vid=9926f8d4-52ff-41d7-995b-39e4b6d4cdc0","ios":"levelo://app?vid=9926f8d4-52ff-41d7-995b-39e4b6d4cdc0"},"vehicle_type_id":"4","last_reported":1727197699,"current_range_meters":24400,"station_id":"ce4bhs12rcd13ifvqhvg","pricing_plan_id":"cebpf4jnsgd1na2vs0mg"},{"bike_id":"9aa9c027-f725-404f-b822-5106e41a7b2b","system_id":"levelo_inurba_marseille","lat":43.28348,"lon":5.38108,"is_reserved":false,"is_disabled":false,"rental_uris":{"android":"levelo://app?vid=9aa9c027-f725-404f-b822-5106e41a7b2b","ios":"levelo://app?vid=9aa9c027-f725-404f-b822-5106e41a7b2b"},"vehicle_type_id":"4","last_reported":1727197699,"current_range_meters":18000,"station_id":"ce4bh412rcd13ifvqdr0","pricing_plan_id":"cebpf4jnsgd1na2vs0mg"},{"bike_id":"9c03e0f0-96c4-48fe-a0c9-2ff39af48c29","system_id":"levelo_inurba_marseille","lat":43.31993,"lon":5.38148,"is_reserved":false,"is_disabled":false,"rental_uris":{"android":"levelo://app?vid=9c03e0f0-96c4-48fe-a0c9-2ff39af48c29","ios":"levelo://app?vid=9c03e0f0-96c4-48fe-a0c9-2ff39af48c29"},"vehicle_type_id":"4","last_reported":1727197699,"current_range_meters":35200,"station_id":"ce4bhr12rcd13ifvqhpg","pricing_plan_id":"cebpf4jnsgd1na2vs0mg"},{"bike_id":"aac9cc22-82f8-4d02-834c-82ba838a38c5","system_id":"levelo_inurba_marseille","lat":43.29532,"lon":5.38539,"is_reserved":false,"is_disabled":false,"rental_uris":{"android":"levelo://app?vid=aac9cc22-82f8-4d02-834c-82ba838a38c5","ios":"levelo://app?vid=aac9cc22-82f8-4d02-834c-82ba838a38c5"},"vehicle_type_id":"4","last_reported":1727197699,"current_range_meters":22800,"station_id":"ce4bgih2rcd13ifvqba0","pricing_plan_id":"cebpf4jnsgd1na2vs0mg"},{"bike_id":"2ec5f482-ef2f-4ef8-b42f-3ca6cf554387","system_id":"levelo_inurba_marseille","lat":43.31335,"lon":5.39701,"is_reserved":false,"is_disabled":false,"rental_uris":{"android":"levelo://app?vid=2ec5f482-ef2f-4ef8-b42f-3ca6cf554387","ios":"levelo://app?vid=2ec5f482-ef2f-4ef8-b42f-3ca6cf554387"},"vehicle_type_id":"4","last_reported":1727197699,"current_range_meters":40000,"station_id":"ce4bgvp2rcd13ifvqcu0","pricing_plan_id":"cebpf4jnsgd1na2vs0mg"},{"bike_id":"7737b815-6daf-41f0-8354-4b28ba75917f","system_id":"levelo_inurba_marseille","lat":43.30189,"lon":5.39838,"is_reserved":false,"is_disabled":false,"rental_uris":{"android":"levelo://app?vid=7737b815-6daf-41f0-8354-4b28ba75917f","ios":"levelo://app?vid=7737b815-6daf-41f0-8354-4b28ba75917f"},"vehicle_type_id":"4","last_reported":1727197699,"current_range_meters":22400,"station_id":"ce4bgvp2rcd13ifvqct0","pricing_plan_id":"cebpf4jnsgd1na2vs0mg"},{"bike_id":"c545149f-ec87-4d0d-96fe-b6637783f5e8","system_id":"levelo_inurba_marseille","lat":43.24802,"lon":5.37456,"is_reserved":false,"is_disabled":false,"rental_uris":{"android":"levelo://app?vid=c545149f-ec87-4d0d-96fe-b6637783f5e8","ios":"levelo://app?vid=c545149f-ec87-4d0d-96fe-b6637783f5e8"},"vehicle_type_id":"4","last_reported":1727197699,"current_range_meters":32400,"station_id":"ce4bhgh2rcd13ifvqfb0","pricing_plan_id":"cebpf4jnsgd1na2vs0mg"},{"bike_id":"f8c704cc-636c-4268-80af-5309e4b09904","system_id":"levelo_inurba_marseille","lat":43.24185,"lon":5.39735,"is_reserved":false,"is_disabled":false,"rental_uris":{"android":"levelo://app?vid=f8c704cc-636c-4268-80af-5309e4b09904","ios":"levelo://app?vid=f8c704cc-636c-4268-80af-5309e4b09904"},"vehicle_type_id":"4","last_reported":1727197699,"current_range_meters":36800,"station_id":"ce4bhn12rcd13ifvqgpg","pricing_plan_id":"cebpf4jnsgd1na2vs0mg"},{"bike_id":"8db4eeae-90dc-450b-8149-34b6ce69b1f8","system_id":"levelo_inurba_marseille","lat":43.23182,"lon":5.39991,"is_reserved":false,"is_disabled":false,"rental_uris":{"android":"levelo://app?vid=8db4eeae-90dc-450b-8149-34b6ce69b1f8","ios":"levelo://app?vid=8db4eeae-90dc-450b-8149-34b6ce69b1f8"},"vehicle_type_id":"4","last_reported":1727197699,"current_range_meters":30800,"station_id":"ce4bhn12rcd13ifvqgqg","pricing_plan_id":"cebpf4jnsgd1na2vs0mg"},{"bike_id":"c106d7d4-05d2-447e-b173-8cc4a0392e72","system_id":"levelo_inurba_marseille","lat":43.29001,"lon":5.35617,"is_reserved":false,"is_disabled":false,"rental_uris":{"android":"levelo://app?vid=c106d7d4-05d2-447e-b173-8cc4a0392e72","ios":"levelo://app?vid=c106d7d4-05d2-447e-b173-8cc4a0392e72"},"vehicle_type_id":"4","last_reported":1727197699,"current_range_meters":14000,"station_id":"ce4bhb92rcd13ifvqen0","pricing_plan_id":"cebpf4jnsgd1na2vs0mg"},{"bike_id":"ede4cdfe-0f49-4a49-aea2-90985b5f4364","system_id":"levelo_inurba_marseille","lat":43.25586,"lon":5.3824,"is_reserved":false,"is_disabled":false,"rental_uris":{"android":"levelo://app?vid=ede4cdfe-0f49-4a49-aea2-90985b5f4364","ios":"levelo://app?vid=ede4cdfe-0f49-4a49-aea2-90985b5f4364"},"vehicle_type_id":"4","last_reported":1727197699,"current_range_meters":26000,"station_id":"ce4bhih2rcd13ifvqfs0","pricing_plan_id":"cebpf4jnsgd1na2vs0mg"},{"bike_id":"2b53c05c-7e74-451c-9f0a-5f217febdc56","system_id":"levelo_inurba_marseille","lat":43.30143,"lon":5.37711,"is_reserved":false,"is_disabled":false,"rental_uris":{"android":"levelo://app?vid=2b53c05c-7e74-451c-9f0a-5f217febdc56","ios":"levelo://app?vid=2b53c05c-7e74-451c-9f0a-5f217febdc56"},"vehicle_type_id":"4","last_reported":1727197699,"current_range_meters":8000,"station_id":"","pricing_plan_id":"cebpf4jnsgd1na2vs0mg"},{"bike_id":"7a8458d5-44ac-4f2e-abef-3f01eb31f7ca","system_id":"levelo_inurba_marseille","lat":43.337444,"lon":5.374475,"is_reserved":false,"is_disabled":false,"rental_uris":{"android":"levelo://app?vid=7a8458d5-44ac-4f2e-abef-3f01eb31f7ca","ios":"levelo://app?vid=7a8458d5-44ac-4f2e-abef-3f01eb31f7ca"},"vehicle_type_id":"4","last_reported":1727197699,"current_range_meters":29600,"station_id":"","pricing_plan_id":"cebpf4jnsgd1na2vs0mg"},{"bike_id":"f462d7aa-a379-4efa-84c4-fb58d8300c79","system_id":"levelo_inurba_marseille","lat":43.296692,"lon":5.372952,"is_reserved":false,"is_disabled":false,"rental_uris":{"android":"levelo://app?vid=f462d7aa-a379-4efa-84c4-fb58d8300c79","ios":"levelo://app?vid=f462d7aa-a379-4efa-84c4-fb58d8300c79"},"vehicle_type_id":"4","last_reported":1727197699,"current_range_meters":39200,"station_id":"ce4bgk12rcd13ifvqbj0","pricing_plan_id":"cebpf4jnsgd1na2vs0mg"},{"bike_id":"c9b5ec6f-9235-414f-8086-a847b21c71d9","system_id":"levelo_inurba_marseille","lat":43.32001,"lon":5.38157,"is_reserved":false,"is_disabled":false,"rental_uris":{"android":"levelo://app?vid=c9b5ec6f-9235-414f-8086-a847b21c71d9","ios":"levelo://app?vid=c9b5ec6f-9235-414f-8086-a847b21c71d9"},"vehicle_type_id":"4","last_reported":1727197699,"current_range_meters":39200,"station_id":"ce4bhr12rcd13ifvqhpg","pricing_plan_id":"cebpf4jnsgd1na2vs0mg"},{"bike_id":"6c2eedce-f9e9-432e-a42e-54dee7a2c2bb","system_id":"levelo_inurba_marseille","lat":43.26212,"lon":5.37439,"is_reserved":false,"is_disabled":false,"rental_uris":{"android":"levelo://app?vid=6c2eedce-f9e9-432e-a42e-54dee7a2c2bb","ios":"levelo://app?vid=6c2eedce-f9e9-432e-a42e-54dee7a2c2bb"},"vehicle_type_id":"4","last_reported":1727197699,"current_range_meters":6400,"station_id":"ce4bhgp2rcd13ifvqfc0","pricing_plan_id":"cebpf4jnsgd1na2vs0mg"},{"bike_id":"63581894-1abf-4fc5-a93b-fa9445e5a943","system_id":"levelo_inurba_marseille","lat":43.31537,"lon":5.38034,"is_reserved":false,"is_disabled":false,"rental_uris":{"android":"levelo://app?vid=63581894-1abf-4fc5-a93b-fa9445e5a943","ios":"levelo://app?vid=63581894-1abf-4fc5-a93b-fa9445e5a943"},"vehicle_type_id":"4","last_reported":1727197699,"current_range_meters":35200,"station_id":"ce4bhsp2rcd13ifvqi50","pricing_plan_id":"cebpf4jnsgd1na2vs0mg"},{"bike_id":"05d7c424-170a-4f44-b039-a6859469eec7","system_id":"levelo_inurba_marseille","lat":43.29618,"lon":5.37006,"is_reserved":false,"is_disabled":false,"rental_uris":{"android":"levelo://app?vid=05d7c424-170a-4f44-b039-a6859469eec7","ios":"levelo://app?vid=05d7c424-170a-4f44-b039-a6859469eec7"},"vehicle_type_id":"4","last_reported":1727197699,"current_range_meters":35600,"station_id":"ce4bgnh2rcd13ifvqc0g","pricing_plan_id":"cebpf4jnsgd1na2vs0mg"},{"bike_id":"375e9d9b-859d-43b9-8b4e-c1f8743e14dd","system_id":"levelo_inurba_marseille","lat":43.25577,"lon":5.38228,"is_reserved":false,"is_disabled":false,"rental_uris":{"android":"levelo://app?vid=375e9d9b-859d-43b9-8b4e-c1f8743e14dd","ios":"levelo://app?vid=375e9d9b-859d-43b9-8b4e-c1f8743e14dd"},"vehicle_type_id":"4","last_reported":1727197699,"current_range_meters":8400,"station_id":"ce4bhih2rcd13ifvqfs0","pricing_plan_id":"cebpf4jnsgd1na2vs0mg"},{"bike_id":"9e176831-71b2-4a7b-901d-fc0737fa1c8f","system_id":"levelo_inurba_marseille","lat":43.30892,"lon":5.39652,"is_reserved":false,"is_disabled":false,"rental_uris":{"android":"levelo://app?vid=9e176831-71b2-4a7b-901d-fc0737fa1c8f","ios":"levelo://app?vid=9e176831-71b2-4a7b-901d-fc0737fa1c8f"},"vehicle_type_id":"4","last_reported":1727197699,"current_range_meters":23200,"station_id":"ce4bh012rcd13ifvqcv0","pricing_plan_id":"cebpf4jnsgd1na2vs0mg"},{"bike_id":"0187dbe4-866c-4031-9cbb-94cdd92f6a82","system_id":"levelo_inurba_marseille","lat":43.29258,"lon":5.36662,"is_reserved":false,"is_disabled":false,"rental_uris":{"android":"levelo://app?vid=0187dbe4-866c-4031-9cbb-94cdd92f6a82","ios":"levelo://app?vid=0187dbe4-866c-4031-9cbb-94cdd92f6a82"},"vehicle_type_id":"4","last_reported":1727197699,"current_range_meters":3600,"station_id":"","pricing_plan_id":"cebpf4jnsgd1na2vs0mg"},{"bike_id":"195e040e-9409-49d3-9dd3-bcac34d34007","system_id":"levelo_inurba_marseille","lat":43.22933,"lon":5.35378,"is_reserved":false,"is_disabled":false,"rental_uris":{"android":"levelo://app?vid=195e040e-9409-49d3-9dd3-bcac34d34007","ios":"levelo://app?vid=195e040e-9409-49d3-9dd3-bcac34d34007"},"vehicle_type_id":"4","last_reported":1727197699,"current_range_meters":18000,"station_id":"cpo3532slgdg3j2ikp40","pricing_plan_id":"cebpf4jnsgd1na2vs0mg"},{"bike_id":"cefb6643-fc89-4b04-b95f-6cff2759399c","system_id":"levelo_inurba_marseille","lat":43.32292,"lon":5.38275,"is_reserved":false,"is_disabled":false,"rental_uris":{"android":"levelo://app?vid=cefb6643-fc89-4b04-b95f-6cff2759399c","ios":"levelo://app?vid=cefb6643-fc89-4b04-b95f-6cff2759399c"},"vehicle_type_id":"4","last_reported":1727197699,"current_range_meters":38800,"station_id":"ce4bhr12rcd13ifvqhqg","pricing_plan_id":"cebpf4jnsgd1na2vs0mg"},{"bike_id":"59076984-aeee-480e-ad47-62b5a7a0c08d","system_id":"levelo_inurba_marseille","lat":43.28616,"lon":5.35104,"is_reserved":false,"is_disabled":false,"rental_uris":{"android":"levelo://app?vid=59076984-aeee-480e-ad47-62b5a7a0c08d","ios":"levelo://app?vid=59076984-aeee-480e-ad47-62b5a7a0c08d"},"vehicle_type_id":"4","last_reported":1727197699,"current_range_meters":37600,"station_id":"ce4bhch2rcd13ifvqeug","pricing_plan_id":"cebpf4jnsgd1na2vs0mg"},{"bike_id":"2f8d9341-c701-4263-8df9-b24c7be06c12","system_id":"levelo_inurba_marseille","lat":43.29,"lon":5.35615,"is_reserved":false,"is_disabled":false,"rental_uris":{"android":"levelo://app?vid=2f8d9341-c701-4263-8df9-b24c7be06c12","ios":"levelo://app?vid=2f8d9341-c701-4263-8df9-b24c7be06c12"},"vehicle_type_id":"4","last_reported":1727197699,"current_range_meters":20000,"station_id":"ce4bgkh2rcd13ifvqbl0","pricing_plan_id":"cebpf4jnsgd1na2vs0mg"},{"bike_id":"9fe7ff57-6a83-42be-bb53-66de4be3d662","system_id":"levelo_inurba_marseille","lat":43.31074,"lon":5.38368,"is_reserved":false,"is_disabled":false,"rental_uris":{"android":"levelo://app?vid=9fe7ff57-6a83-42be-bb53-66de4be3d662","ios":"levelo://app?vid=9fe7ff57-6a83-42be-bb53-66de4be3d662"},"vehicle_type_id":"4","last_reported":1727197699,"current_range_meters":35200,"station_id":"ce4bgv92rcd13ifvqcr0","pricing_plan_id":"cebpf4jnsgd1na2vs0mg"},{"bike_id":"0bee5a77-db9e-4e51-8e05-715a9d68c8c0","system_id":"levelo_inurba_marseille","lat":43.28266,"lon":5.35076,"is_reserved":false,"is_disabled":false,"rental_uris":{"android":"levelo://app?vid=0bee5a77-db9e-4e51-8e05-715a9d68c8c0","ios":"levelo://app?vid=0bee5a77-db9e-4e51-8e05-715a9d68c8c0"},"vehicle_type_id":"4","last_reported":1727197699,"current_range_meters":26800,"station_id":"ce4bhbp2rcd13ifvqerg","pricing_plan_id":"cebpf4jnsgd1na2vs0mg"},{"bike_id":"2da24b92-3734-492c-9a6c-8b09da92c194","system_id":"levelo_inurba_marseille","lat":43.337444,"lon":5.374475,"is_reserved":false,"is_disabled":false,"rental_uris":{"android":"levelo://app?vid=2da24b92-3734-492c-9a6c-8b09da92c194","ios":"levelo://app?vid=2da24b92-3734-492c-9a6c-8b09da92c194"},"vehicle_type_id":"4","last_reported":1727197699,"current_range_meters":25200,"station_id":"","pricing_plan_id":"cebpf4jnsgd1na2vs0mg"},{"bike_id":"498e2d2f-35e4-4dec-a279-8e488f0277bb","system_id":"levelo_inurba_marseille","lat":43.2827,"lon":5.35072,"is_reserved":false,"is_disabled":false,"rental_uris":{"android":"levelo://app?vid=498e2d2f-35e4-4dec-a279-8e488f0277bb","ios":"levelo://app?vid=498e2d2f-35e4-4dec-a279-8e488f0277bb"},"vehicle_type_id":"4","last_reported":1727197699,"current_range_meters":9200,"station_id":"ce4bhbp2rcd13ifvqerg","pricing_plan_id":"cebpf4jnsgd1na2vs0mg"},{"bike_id":"30623a50-8b71-4ff0-b85a-5f6d698f9db5","system_id":"levelo_inurba_marseille","lat":43.27328,"lon":5.39075,"is_reserved":false,"is_disabled":false,"rental_uris":{"android":"levelo://app?vid=30623a50-8b71-4ff0-b85a-5f6d698f9db5","ios":"levelo://app?vid=30623a50-8b71-4ff0-b85a-5f6d698f9db5"},"vehicle_type_id":"4","last_reported":1727197699,"current_range_meters":6000,"station_id":"ce4bhgp2rcd13ifvqfe0","pricing_plan_id":"cebpf4jnsgd1na2vs0mg"},{"bike_id":"7aaef547-c4bb-4eff-84b5-8bd945c10089","system_id":"levelo_inurba_marseille","lat":43.25201,"lon":5.40047,"is_reserved":false,"is_disabled":false,"rental_uris":{"android":"levelo://app?vid=7aaef547-c4bb-4eff-84b5-8bd945c10089","ios":"levelo://app?vid=7aaef547-c4bb-4eff-84b5-8bd945c10089"},"vehicle_type_id":"4","last_reported":1727197699,"current_range_meters":2800,"station_id":"ce4bhm12rcd13ifvqgkg","pricing_plan_id":"cebpf4jnsgd1na2vs0mg"},{"bike_id":"028c7dd9-5a6a-49ba-8f54-2dd7765a50a4","system_id":"levelo_inurba_marseille","lat":43.24653,"lon":5.38896,"is_reserved":false,"is_disabled":false,"rental_uris":{"android":"levelo://app?vid=028c7dd9-5a6a-49ba-8f54-2dd7765a50a4","ios":"levelo://app?vid=028c7dd9-5a6a-49ba-8f54-2dd7765a50a4"},"vehicle_type_id":"4","last_reported":1727197699,"current_range_meters":7200,"station_id":"ce4bhg12rcd13ifvqf60","pricing_plan_id":"cebpf4jnsgd1na2vs0mg"},{"bike_id":"40a5dd0c-9cff-4bc9-b214-d88e60e02be8","system_id":"levelo_inurba_marseille","lat":43.27172,"lon":5.4099,"is_reserved":false,"is_disabled":false,"rental_uris":{"android":"levelo://app?vid=40a5dd0c-9cff-4bc9-b214-d88e60e02be8","ios":"levelo://app?vid=40a5dd0c-9cff-4bc9-b214-d88e60e02be8"},"vehicle_type_id":"4","last_reported":1727197699,"current_range_meters":11200,"station_id":"ce4bhl12rcd13ifvqgf0","pricing_plan_id":"cebpf4jnsgd1na2vs0mg"},{"bike_id":"1fcf21b8-2121-43cc-94f1-918f534d3905","system_id":"levelo_inurba_marseille","lat":43.28433,"lon":5.39201,"is_reserved":false,"is_disabled":false,"rental_uris":{"android":"levelo://app?vid=1fcf21b8-2121-43cc-94f1-918f534d3905","ios":"levelo://app?vid=1fcf21b8-2121-43cc-94f1-918f534d3905"},"vehicle_type_id":"4","last_reported":1727197699,"current_range_meters":18000,"station_id":"ce4bhoh2rcd13ifvqh5g","pricing_plan_id":"cebpf4jnsgd1na2vs0mg"},{"bike_id":"a153b14c-6fa7-479e-9760-1547c4f02762","system_id":"levelo_inurba_marseille","lat":43.28927,"lon":5.38401,"is_reserved":false,"is_disabled":false,"rental_uris":{"android":"levelo://app?vid=a153b14c-6fa7-479e-9760-1547c4f02762","ios":"levelo://app?vid=a153b14c-6fa7-479e-9760-1547c4f02762"},"vehicle_type_id":"4","last_reported":1727197699,"current_range_meters":6000,"station_id":"ce4bh612rcd13ifvqe6g","pricing_plan_id":"cebpf4jnsgd1na2vs0mg"},{"bike_id":"865486bf-ecf4-4695-aa81-8d1b6e41faa8","system_id":"levelo_inurba_marseille","lat":43.29514,"lon":5.39406,"is_reserved":false,"is_disabled":false,"rental_uris":{"android":"levelo://app?vid=865486bf-ecf4-4695-aa81-8d1b6e41faa8","ios":"levelo://app?vid=865486bf-ecf4-4695-aa81-8d1b6e41faa8"},"vehicle_type_id":"4","last_reported":1727197699,"current_range_meters":36400,"station_id":"ce4bh292rcd13ifvqdf0","pricing_plan_id":"cebpf4jnsgd1na2vs0mg"},{"bike_id":"ecb70881-b110-48a8-b751-24b4690d4031","system_id":"levelo_inurba_marseille","lat":43.23181,"lon":5.39989,"is_reserved":false,"is_disabled":false,"rental_uris":{"android":"levelo://app?vid=ecb70881-b110-48a8-b751-24b4690d4031","ios":"levelo://app?vid=ecb70881-b110-48a8-b751-24b4690d4031"},"vehicle_type_id":"4","last_reported":1727197699,"current_range_meters":10800,"station_id":"ce4bhn12rcd13ifvqgqg","pricing_plan_id":"cebpf4jnsgd1na2vs0mg"},{"bike_id":"6b815718-720c-4f52-9ced-2cd6897b9344","system_id":"levelo_inurba_marseille","lat":43.29265,"lon":5.38438,"is_reserved":false,"is_disabled":false,"rental_uris":{"android":"levelo://app?vid=6b815718-720c-4f52-9ced-2cd6897b9344","ios":"levelo://app?vid=6b815718-720c-4f52-9ced-2cd6897b9344"},"vehicle_type_id":"4","last_reported":1727197699,"current_range_meters":24000,"station_id":"ce4bh692rcd13ifvqea0","pricing_plan_id":"cebpf4jnsgd1na2vs0mg"},{"bike_id":"25bd7405-be80-4a77-a761-8a1efed52652","system_id":"levelo_inurba_marseille","lat":43.29896,"lon":5.43658,"is_reserved":false,"is_disabled":false,"rental_uris":{"android":"levelo://app?vid=25bd7405-be80-4a77-a761-8a1efed52652","ios":"levelo://app?vid=25bd7405-be80-4a77-a761-8a1efed52652"},"vehicle_type_id":"4","last_reported":1727197699,"current_range_meters":30400,"station_id":"ce4bhpp2rcd13ifvqhfg","pricing_plan_id":"cebpf4jnsgd1na2vs0mg"},{"bike_id":"11c4f5be-b465-471a-b3d0-dbbc3061010b","system_id":"levelo_inurba_marseille","lat":43.30801,"lon":5.43526,"is_reserved":false,"is_disabled":false,"rental_uris":{"android":"levelo://app?vid=11c4f5be-b465-471a-b3d0-dbbc3061010b","ios":"levelo://app?vid=11c4f5be-b465-471a-b3d0-dbbc3061010b"},"vehicle_type_id":"4","last_reported":1727197699,"current_range_meters":22000,"station_id":"ce4bhph2rcd13ifvqheg","pricing_plan_id":"cebpf4jnsgd1na2vs0mg"},{"bike_id":"162ee78d-83e3-4081-92bd-328649d7b4ba","system_id":"levelo_inurba_marseille","lat":43.31743,"lon":5.39025,"is_reserved":false,"is_disabled":false,"rental_uris":{"android":"levelo://app?vid=162ee78d-83e3-4081-92bd-328649d7b4ba","ios":"levelo://app?vid=162ee78d-83e3-4081-92bd-328649d7b4ba"},"vehicle_type_id":"4","last_reported":1727197699,"current_range_meters":11600,"station_id":"ce4bhqp2rcd13ifvqhng","pricing_plan_id":"cebpf4jnsgd1na2vs0mg"},{"bike_id":"db667191-09c8-4e55-9fde-2e2f9cfc359f","system_id":"levelo_inurba_marseille","lat":43.27563,"lon":5.38426,"is_reserved":false,"is_disabled":false,"rental_uris":{"android":"levelo://app?vid=db667191-09c8-4e55-9fde-2e2f9cfc359f","ios":"levelo://app?vid=db667191-09c8-4e55-9fde-2e2f9cfc359f"},"vehicle_type_id":"4","last_reported":1727197699,"current_range_meters":20400,"station_id":"ce4bhh92rcd13ifvqfi0","pricing_plan_id":"cebpf4jnsgd1na2vs0mg"},{"bike_id":"b76accd3-cbb3-425b-ac2d-be3c9519561e","system_id":"levelo_inurba_marseille","lat":43.30891,"lon":5.39658,"is_reserved":false,"is_disabled":false,"rental_uris":{"android":"levelo://app?vid=b76accd3-cbb3-425b-ac2d-be3c9519561e","ios":"levelo://app?vid=b76accd3-cbb3-425b-ac2d-be3c9519561e"},"vehicle_type_id":"4","last_reported":1727197699,"current_range_meters":28400,"station_id":"ce4bh012rcd13ifvqcv0","pricing_plan_id":"cebpf4jnsgd1na2vs0mg"},{"bike_id":"eea2cd5a-ea70-49e4-b38f-c464fb6c5cc3","system_id":"levelo_inurba_marseille","lat":43.337444,"lon":5.374475,"is_reserved":false,"is_disabled":false,"rental_uris":{"android":"levelo://app?vid=eea2cd5a-ea70-49e4-b38f-c464fb6c5cc3","ios":"levelo://app?vid=eea2cd5a-ea70-49e4-b38f-c464fb6c5cc3"},"vehicle_type_id":"4","last_reported":1727197699,"current_range_meters":33600,"station_id":"","pricing_plan_id":"cebpf4jnsgd1na2vs0mg"},{"bike_id":"5b66a18a-7b28-47ed-8206-555ce5354164","system_id":"levelo_inurba_marseille","lat":43.29558,"lon":5.42288,"is_reserved":false,"is_disabled":false,"rental_uris":{"android":"levelo://app?vid=5b66a18a-7b28-47ed-8206-555ce5354164","ios":"levelo://app?vid=5b66a18a-7b28-47ed-8206-555ce5354164"},"vehicle_type_id":"4","last_reported":1727197699,"current_range_meters":16400,"station_id":"ce4bhph2rcd13ifvqhdg","pricing_plan_id":"cebpf4jnsgd1na2vs0mg"},{"bike_id":"35724323-fe56-4243-a441-fdc880225102","system_id":"levelo_inurba_marseille","lat":43.26762,"lon":5.39426,"is_reserved":false,"is_disabled":false,"rental_uris":{"android":"levelo://app?vid=35724323-fe56-4243-a441-fdc880225102","ios":"levelo://app?vid=35724323-fe56-4243-a441-fdc880225102"},"vehicle_type_id":"4","last_reported":1727197699,"current_range_meters":10800,"station_id":"ce4bhh12rcd13ifvqfg0","pricing_plan_id":"cebpf4jnsgd1na2vs0mg"},{"bike_id":"d303cde3-de9e-4b81-a3fa-71d4c0983bb9","system_id":"levelo_inurba_marseille","lat":43.29195,"lon":5.35821,"is_reserved":false,"is_disabled":false,"rental_uris":{"android":"levelo://app?vid=d303cde3-de9e-4b81-a3fa-71d4c0983bb9","ios":"levelo://app?vid=d303cde3-de9e-4b81-a3fa-71d4c0983bb9"},"vehicle_type_id":"4","last_reported":1727197699,"current_range_meters":30400,"station_id":"ce4bhb12rcd13ifvqel0","pricing_plan_id":"cebpf4jnsgd1na2vs0mg"},{"bike_id":"a66e2231-c3cd-4538-afa2-9c963cba7101","system_id":"levelo_inurba_marseille","lat":43.28614,"lon":5.35107,"is_reserved":false,"is_disabled":false,"rental_uris":{"android":"levelo://app?vid=a66e2231-c3cd-4538-afa2-9c963cba7101","ios":"levelo://app?vid=a66e2231-c3cd-4538-afa2-9c963cba7101"},"vehicle_type_id":"4","last_reported":1727197699,"current_range_meters":14800,"station_id":"ce4bhch2rcd13ifvqeug","pricing_plan_id":"cebpf4jnsgd1na2vs0mg"},{"bike_id":"2f50cbf1-cbe8-434b-80ce-4da3c637a8ef","system_id":"levelo_inurba_marseille","lat":43.29199,"lon":5.35811,"is_reserved":false,"is_disabled":false,"rental_uris":{"android":"levelo://app?vid=2f50cbf1-cbe8-434b-80ce-4da3c637a8ef","ios":"levelo://app?vid=2f50cbf1-cbe8-434b-80ce-4da3c637a8ef"},"vehicle_type_id":"4","last_reported":1727197699,"current_range_meters":9600,"station_id":"ce4bhb12rcd13ifvqel0","pricing_plan_id":"cebpf4jnsgd1na2vs0mg"},{"bike_id":"f64945c3-db12-4e2d-926f-977df7660df5","system_id":"levelo_inurba_marseille","lat":43.27813,"lon":5.40721,"is_reserved":false,"is_disabled":false,"rental_uris":{"android":"levelo://app?vid=f64945c3-db12-4e2d-926f-977df7660df5","ios":"levelo://app?vid=f64945c3-db12-4e2d-926f-977df7660df5"},"vehicle_type_id":"4","last_reported":1727197699,"current_range_meters":24800,"station_id":"ce4bhnh2rcd13ifvqgtg","pricing_plan_id":"cebpf4jnsgd1na2vs0mg"},{"bike_id":"1802deb5-1c46-4f67-afa3-157e0fdc0220","system_id":"levelo_inurba_marseille","lat":43.27819,"lon":5.40728,"is_reserved":false,"is_disabled":false,"rental_uris":{"android":"levelo://app?vid=1802deb5-1c46-4f67-afa3-157e0fdc0220","ios":"levelo://app?vid=1802deb5-1c46-4f67-afa3-157e0fdc0220"},"vehicle_type_id":"4","last_reported":1727197699,"current_range_meters":28400,"station_id":"ce4bhnh2rcd13ifvqgtg","pricing_plan_id":"cebpf4jnsgd1na2vs0mg"},{"bike_id":"da6e12ae-2b58-484f-a056-156a09262cea","system_id":"levelo_inurba_marseille","lat":43.29517,"lon":5.37498,"is_reserved":false,"is_disabled":false,"rental_uris":{"android":"levelo://app?vid=da6e12ae-2b58-484f-a056-156a09262cea","ios":"levelo://app?vid=da6e12ae-2b58-484f-a056-156a09262cea"},"vehicle_type_id":"4","last_reported":1727197699,"current_range_meters":38400,"station_id":"ce4bgkp2rcd13ifvqbmg","pricing_plan_id":"cebpf4jnsgd1na2vs0mg"},{"bike_id":"b582e3a2-58ff-44fb-a717-28485afbefcd","system_id":"levelo_inurba_marseille","lat":43.256012,"lon":5.382339,"is_reserved":false,"is_disabled":false,"rental_uris":{"android":"levelo://app?vid=b582e3a2-58ff-44fb-a717-28485afbefcd","ios":"levelo://app?vid=b582e3a2-58ff-44fb-a717-28485afbefcd"},"vehicle_type_id":"4","last_reported":1727197699,"current_range_meters":24400,"station_id":"ce4bhih2rcd13ifvqfs0","pricing_plan_id":"cebpf4jnsgd1na2vs0mg"},{"bike_id":"edfbc8a5-a951-44f0-b058-eea7185085c5","system_id":"levelo_inurba_marseille","lat":43.31361,"lon":5.38488,"is_reserved":false,"is_disabled":false,"rental_uris":{"android":"levelo://app?vid=edfbc8a5-a951-44f0-b058-eea7185085c5","ios":"levelo://app?vid=edfbc8a5-a951-44f0-b058-eea7185085c5"},"vehicle_type_id":"4","last_reported":1727197699,"current_range_meters":11200,"station_id":"ce4bgt92rcd13ifvqcf0","pricing_plan_id":"cebpf4jnsgd1na2vs0mg"},{"bike_id":"528e65a0-b8b0-4efa-abaf-3a84a377bcfb","system_id":"levelo_inurba_marseille","lat":43.27994,"lon":5.40011,"is_reserved":false,"is_disabled":false,"rental_uris":{"android":"levelo://app?vid=528e65a0-b8b0-4efa-abaf-3a84a377bcfb","ios":"levelo://app?vid=528e65a0-b8b0-4efa-abaf-3a84a377bcfb"},"vehicle_type_id":"4","last_reported":1727197699,"current_range_meters":2800,"station_id":"ce4bho92rcd13ifvqh4g","pricing_plan_id":"cebpf4jnsgd1na2vs0mg"},{"bike_id":"9a2f54a3-4b65-4128-b508-ec927ecddb86","system_id":"levelo_inurba_marseille","lat":43.28724,"lon":5.36099,"is_reserved":false,"is_disabled":false,"rental_uris":{"android":"levelo://app?vid=9a2f54a3-4b65-4128-b508-ec927ecddb86","ios":"levelo://app?vid=9a2f54a3-4b65-4128-b508-ec927ecddb86"},"vehicle_type_id":"4","last_reported":1727197699,"current_range_meters":16000,"station_id":"cki0cbj6b192h4jlfktg","pricing_plan_id":"cebpf4jnsgd1na2vs0mg"},{"bike_id":"993e5387-18e9-4508-b9fe-7292df811257","system_id":"levelo_inurba_marseille","lat":43.26213,"lon":5.37453,"is_reserved":false,"is_disabled":false,"rental_uris":{"android":"levelo://app?vid=993e5387-18e9-4508-b9fe-7292df811257","ios":"levelo://app?vid=993e5387-18e9-4508-b9fe-7292df811257"},"vehicle_type_id":"4","last_reported":1727197699,"current_range_meters":30400,"station_id":"ce4bhgp2rcd13ifvqfc0","pricing_plan_id":"cebpf4jnsgd1na2vs0mg"},{"bike_id":"51d91a43-84b2-40b6-932b-bc0a234cebe8","system_id":"levelo_inurba_marseille","lat":43.28456,"lon":5.35896,"is_reserved":false,"is_disabled":false,"rental_uris":{"android":"levelo://app?vid=51d91a43-84b2-40b6-932b-bc0a234cebe8","ios":"levelo://app?vid=51d91a43-84b2-40b6-932b-bc0a234cebe8"},"vehicle_type_id":"4","last_reported":1727197699,"current_range_meters":18800,"station_id":"ce4bhah2rcd13ifvqei0","pricing_plan_id":"cebpf4jnsgd1na2vs0mg"},{"bike_id":"b90111fb-05ab-4e50-9bcf-b903b2cee391","system_id":"levelo_inurba_marseille","lat":43.28083,"lon":5.39664,"is_reserved":false,"is_disabled":false,"rental_uris":{"android":"levelo://app?vid=b90111fb-05ab-4e50-9bcf-b903b2cee391","ios":"levelo://app?vid=b90111fb-05ab-4e50-9bcf-b903b2cee391"},"vehicle_type_id":"4","last_reported":1727197699,"current_range_meters":12800,"station_id":"ce4bho12rcd13ifvqh2g","pricing_plan_id":"cebpf4jnsgd1na2vs0mg"},{"bike_id":"6526731a-ee9f-4734-a22f-1cda8622d732","system_id":"levelo_inurba_marseille","lat":43.29525,"lon":5.39409,"is_reserved":false,"is_disabled":false,"rental_uris":{"android":"levelo://app?vid=6526731a-ee9f-4734-a22f-1cda8622d732","ios":"levelo://app?vid=6526731a-ee9f-4734-a22f-1cda8622d732"},"vehicle_type_id":"4","last_reported":1727197699,"current_range_meters":9600,"station_id":"ce4bh292rcd13ifvqdf0","pricing_plan_id":"cebpf4jnsgd1na2vs0mg"},{"bike_id":"80143bc3-ddd4-4006-b0b4-ca310099ac4c","system_id":"levelo_inurba_marseille","lat":43.2962,"lon":5.37705,"is_reserved":false,"is_disabled":false,"rental_uris":{"android":"levelo://app?vid=80143bc3-ddd4-4006-b0b4-ca310099ac4c","ios":"levelo://app?vid=80143bc3-ddd4-4006-b0b4-ca310099ac4c"},"vehicle_type_id":"4","last_reported":1727197699,"current_range_meters":3600,"station_id":"ce4bgi92rcd13ifvqb90","pricing_plan_id":"cebpf4jnsgd1na2vs0mg"},{"bike_id":"5459e5dd-02cf-41c0-a77a-9053bdc92a78","system_id":"levelo_inurba_marseille","lat":43.30793,"lon":5.43529,"is_reserved":false,"is_disabled":false,"rental_uris":{"android":"levelo://app?vid=5459e5dd-02cf-41c0-a77a-9053bdc92a78","ios":"levelo://app?vid=5459e5dd-02cf-41c0-a77a-9053bdc92a78"},"vehicle_type_id":"4","last_reported":1727197699,"current_range_meters":10000,"station_id":"ce4bhph2rcd13ifvqheg","pricing_plan_id":"cebpf4jnsgd1na2vs0mg"},{"bike_id":"3922599f-3ab6-47ad-8ea5-e51e6fc7b668","system_id":"levelo_inurba_marseille","lat":43.27381,"lon":5.36264,"is_reserved":false,"is_disabled":false,"rental_uris":{"android":"levelo://app?vid=3922599f-3ab6-47ad-8ea5-e51e6fc7b668","ios":"levelo://app?vid=3922599f-3ab6-47ad-8ea5-e51e6fc7b668"},"vehicle_type_id":"4","last_reported":1727197699,"current_range_meters":8400,"station_id":"ce4bhbh2rcd13ifvqeo0","pricing_plan_id":"cebpf4jnsgd1na2vs0mg"},{"bike_id":"10b9f85e-e4ee-4f70-979e-f255ac0bd659","system_id":"levelo_inurba_marseille","lat":43.22932,"lon":5.35377,"is_reserved":false,"is_disabled":false,"rental_uris":{"android":"levelo://app?vid=10b9f85e-e4ee-4f70-979e-f255ac0bd659","ios":"levelo://app?vid=10b9f85e-e4ee-4f70-979e-f255ac0bd659"},"vehicle_type_id":"4","last_reported":1727197699,"current_range_meters":7200,"station_id":"cpo3532slgdg3j2ikp40","pricing_plan_id":"cebpf4jnsgd1na2vs0mg"},{"bike_id":"b1c6a4d1-d0ef-41c5-9c0a-a79121bea7bd","system_id":"levelo_inurba_marseille","lat":43.28272,"lon":5.35066,"is_reserved":false,"is_disabled":false,"rental_uris":{"android":"levelo://app?vid=b1c6a4d1-d0ef-41c5-9c0a-a79121bea7bd","ios":"levelo://app?vid=b1c6a4d1-d0ef-41c5-9c0a-a79121bea7bd"},"vehicle_type_id":"4","last_reported":1727197699,"current_range_meters":30000,"station_id":"ce4bhbp2rcd13ifvqerg","pricing_plan_id":"cebpf4jnsgd1na2vs0mg"},{"bike_id":"aadc46d2-fe20-4c48-81b2-2e8cd1e1f651","system_id":"levelo_inurba_marseille","lat":43.23958,"lon":5.36641,"is_reserved":false,"is_disabled":false,"rental_uris":{"android":"levelo://app?vid=aadc46d2-fe20-4c48-81b2-2e8cd1e1f651","ios":"levelo://app?vid=aadc46d2-fe20-4c48-81b2-2e8cd1e1f651"},"vehicle_type_id":"4","last_reported":1727197699,"current_range_meters":8800,"station_id":"ce4bhi12rcd13ifvqfp0","pricing_plan_id":"cebpf4jnsgd1na2vs0mg"},{"bike_id":"f8b518c8-570a-494c-8f38-08313f86e141","system_id":"levelo_inurba_marseille","lat":43.28265,"lon":5.3506,"is_reserved":false,"is_disabled":false,"rental_uris":{"android":"levelo://app?vid=f8b518c8-570a-494c-8f38-08313f86e141","ios":"levelo://app?vid=f8b518c8-570a-494c-8f38-08313f86e141"},"vehicle_type_id":"4","last_reported":1727197699,"current_range_meters":27200,"station_id":"ce4bhbp2rcd13ifvqerg","pricing_plan_id":"cebpf4jnsgd1na2vs0mg"},{"bike_id":"8d8a2372-b40a-42a2-9800-7b9268fd5af0","system_id":"levelo_inurba_marseille","lat":43.26201,"lon":5.37933,"is_reserved":false,"is_disabled":false,"rental_uris":{"android":"levelo://app?vid=8d8a2372-b40a-42a2-9800-7b9268fd5af0","ios":"levelo://app?vid=8d8a2372-b40a-42a2-9800-7b9268fd5af0"},"vehicle_type_id":"4","last_reported":1727197699,"current_range_meters":14800,"station_id":"ce4bhjp2rcd13ifvqg90","pricing_plan_id":"cebpf4jnsgd1na2vs0mg"},{"bike_id":"06138e05-a18e-4a99-9c79-38670e01d35d","system_id":"levelo_inurba_marseille","lat":43.28616,"lon":5.35101,"is_reserved":false,"is_disabled":false,"rental_uris":{"android":"levelo://app?vid=06138e05-a18e-4a99-9c79-38670e01d35d","ios":"levelo://app?vid=06138e05-a18e-4a99-9c79-38670e01d35d"},"vehicle_type_id":"4","last_reported":1727197699,"current_range_meters":30800,"station_id":"ce4bhch2rcd13ifvqeug","pricing_plan_id":"cebpf4jnsgd1na2vs0mg"},{"bike_id":"3b2dc4ab-437e-4e45-9121-34aeaa52cc2d","system_id":"levelo_inurba_marseille","lat":43.25495,"lon":5.37655,"is_reserved":false,"is_disabled":false,"rental_uris":{"android":"levelo://app?vid=3b2dc4ab-437e-4e45-9121-34aeaa52cc2d","ios":"levelo://app?vid=3b2dc4ab-437e-4e45-9121-34aeaa52cc2d"},"vehicle_type_id":"4","last_reported":1727197699,"current_range_meters":39200,"station_id":"ce4bhh12rcd13ifvqff0","pricing_plan_id":"cebpf4jnsgd1na2vs0mg"},{"bike_id":"ebec7cd5-5fed-46ce-abdb-3cd659f607ac","system_id":"levelo_inurba_marseille","lat":43.29551,"lon":5.42282,"is_reserved":false,"is_disabled":false,"rental_uris":{"android":"levelo://app?vid=ebec7cd5-5fed-46ce-abdb-3cd659f607ac","ios":"levelo://app?vid=ebec7cd5-5fed-46ce-abdb-3cd659f607ac"},"vehicle_type_id":"4","last_reported":1727197699,"current_range_meters":37600,"station_id":"ce4bhph2rcd13ifvqhdg","pricing_plan_id":"cebpf4jnsgd1na2vs0mg"},{"bike_id":"ca3edcd3-705c-48af-80a7-ed285389a603","system_id":"levelo_inurba_marseille","lat":43.28271,"lon":5.35066,"is_reserved":false,"is_disabled":false,"rental_uris":{"android":"levelo://app?vid=ca3edcd3-705c-48af-80a7-ed285389a603","ios":"levelo://app?vid=ca3edcd3-705c-48af-80a7-ed285389a603"},"vehicle_type_id":"4","last_reported":1727197699,"current_range_meters":18800,"station_id":"ce4bhbp2rcd13ifvqerg","pricing_plan_id":"cebpf4jnsgd1na2vs0mg"},{"bike_id":"584dc729-0cb1-4902-8a6c-23dc123e7906","system_id":"levelo_inurba_marseille","lat":43.22924,"lon":5.35377,"is_reserved":false,"is_disabled":false,"rental_uris":{"android":"levelo://app?vid=584dc729-0cb1-4902-8a6c-23dc123e7906","ios":"levelo://app?vid=584dc729-0cb1-4902-8a6c-23dc123e7906"},"vehicle_type_id":"4","last_reported":1727197699,"current_range_meters":24800,"station_id":"cpo3532slgdg3j2ikp40","pricing_plan_id":"cebpf4jnsgd1na2vs0mg"},{"bike_id":"df5b38d2-64cb-4df0-856f-ea9bd22c082c","system_id":"levelo_inurba_marseille","lat":43.23185,"lon":5.35559,"is_reserved":false,"is_disabled":false,"rental_uris":{"android":"levelo://app?vid=df5b38d2-64cb-4df0-856f-ea9bd22c082c","ios":"levelo://app?vid=df5b38d2-64cb-4df0-856f-ea9bd22c082c"},"vehicle_type_id":"4","last_reported":1727197699,"current_range_meters":11200,"station_id":"ce4bhu92rcd13ifvqi70","pricing_plan_id":"cebpf4jnsgd1na2vs0mg"},{"bike_id":"9e3ee06d-3564-4a83-8e76-1a0dde5d6fae","system_id":"levelo_inurba_marseille","lat":43.30884,"lon":5.3965,"is_reserved":false,"is_disabled":false,"rental_uris":{"android":"levelo://app?vid=9e3ee06d-3564-4a83-8e76-1a0dde5d6fae","ios":"levelo://app?vid=9e3ee06d-3564-4a83-8e76-1a0dde5d6fae"},"vehicle_type_id":"4","last_reported":1727197699,"current_range_meters":8400,"station_id":"ce4bh012rcd13ifvqcv0","pricing_plan_id":"cebpf4jnsgd1na2vs0mg"},{"bike_id":"834700ed-efab-45f0-a82e-3b2642bcdb94","system_id":"levelo_inurba_marseille","lat":43.24665,"lon":5.38171,"is_reserved":false,"is_disabled":false,"rental_uris":{"android":"levelo://app?vid=834700ed-efab-45f0-a82e-3b2642bcdb94","ios":"levelo://app?vid=834700ed-efab-45f0-a82e-3b2642bcdb94"},"vehicle_type_id":"4","last_reported":1727197699,"current_range_meters":18800,"station_id":"ce4bhih2rcd13ifvqfr0","pricing_plan_id":"cebpf4jnsgd1na2vs0mg"},{"bike_id":"3192ffe3-8f3d-4aeb-a8e9-aae331b0b4e2","system_id":"levelo_inurba_marseille","lat":43.26803,"lon":5.40272,"is_reserved":false,"is_disabled":false,"rental_uris":{"android":"levelo://app?vid=3192ffe3-8f3d-4aeb-a8e9-aae331b0b4e2","ios":"levelo://app?vid=3192ffe3-8f3d-4aeb-a8e9-aae331b0b4e2"},"vehicle_type_id":"4","last_reported":1727197699,"current_range_meters":6000,"station_id":"ce501612rcd8frsf0b60","pricing_plan_id":"cebpf4jnsgd1na2vs0mg"},{"bike_id":"38ffcc1f-53c6-4b29-bebb-593938a0de5c","system_id":"levelo_inurba_marseille","lat":43.23961,"lon":5.36641,"is_reserved":false,"is_disabled":false,"rental_uris":{"android":"levelo://app?vid=38ffcc1f-53c6-4b29-bebb-593938a0de5c","ios":"levelo://app?vid=38ffcc1f-53c6-4b29-bebb-593938a0de5c"},"vehicle_type_id":"4","last_reported":1727197699,"current_range_meters":2800,"station_id":"ce4bhi12rcd13ifvqfp0","pricing_plan_id":"cebpf4jnsgd1na2vs0mg"},{"bike_id":"17b1cd1a-7803-4ca9-91f3-73c4fa44f09e","system_id":"levelo_inurba_marseille","lat":43.29554,"lon":5.42286,"is_reserved":false,"is_disabled":false,"rental_uris":{"android":"levelo://app?vid=17b1cd1a-7803-4ca9-91f3-73c4fa44f09e","ios":"levelo://app?vid=17b1cd1a-7803-4ca9-91f3-73c4fa44f09e"},"vehicle_type_id":"4","last_reported":1727197699,"current_range_meters":8000,"station_id":"ce4bhph2rcd13ifvqhdg","pricing_plan_id":"cebpf4jnsgd1na2vs0mg"},{"bike_id":"83bc7326-175e-4303-97b7-756f4e3d670e","system_id":"levelo_inurba_marseille","lat":43.273925,"lon":5.36244,"is_reserved":false,"is_disabled":false,"rental_uris":{"android":"levelo://app?vid=83bc7326-175e-4303-97b7-756f4e3d670e","ios":"levelo://app?vid=83bc7326-175e-4303-97b7-756f4e3d670e"},"vehicle_type_id":"4","last_reported":1727197699,"current_range_meters":4400,"station_id":"ce4bhbh2rcd13ifvqeo0","pricing_plan_id":"cebpf4jnsgd1na2vs0mg"},{"bike_id":"6250a19f-eafd-4ebe-be2b-2d4bff43d936","system_id":"levelo_inurba_marseille","lat":43.25086,"lon":5.39514,"is_reserved":false,"is_disabled":false,"rental_uris":{"android":"levelo://app?vid=6250a19f-eafd-4ebe-be2b-2d4bff43d936","ios":"levelo://app?vid=6250a19f-eafd-4ebe-be2b-2d4bff43d936"},"vehicle_type_id":"4","last_reported":1727197699,"current_range_meters":36000,"station_id":"ce4bhm12rcd13ifvqgkg","pricing_plan_id":"cebpf4jnsgd1na2vs0mg"},{"bike_id":"d3aa0548-dc0e-451f-8f9e-b3b5e14011fa","system_id":"levelo_inurba_marseille","lat":43.28615,"lon":5.35108,"is_reserved":false,"is_disabled":false,"rental_uris":{"android":"levelo://app?vid=d3aa0548-dc0e-451f-8f9e-b3b5e14011fa","ios":"levelo://app?vid=d3aa0548-dc0e-451f-8f9e-b3b5e14011fa"},"vehicle_type_id":"4","last_reported":1727197699,"current_range_meters":30800,"station_id":"ce4bhch2rcd13ifvqeug","pricing_plan_id":"cebpf4jnsgd1na2vs0mg"},{"bike_id":"6d3d01e4-dbdb-45d8-9078-92d67f73aae7","system_id":"levelo_inurba_marseille","lat":43.31358,"lon":5.38493,"is_reserved":false,"is_disabled":false,"rental_uris":{"android":"levelo://app?vid=6d3d01e4-dbdb-45d8-9078-92d67f73aae7","ios":"levelo://app?vid=6d3d01e4-dbdb-45d8-9078-92d67f73aae7"},"vehicle_type_id":"4","last_reported":1727197699,"current_range_meters":24000,"station_id":"ce4bgt92rcd13ifvqcf0","pricing_plan_id":"cebpf4jnsgd1na2vs0mg"},{"bike_id":"8e2ed437-a79e-4ecb-9f43-b77398df59a2","system_id":"levelo_inurba_marseille","lat":43.27999,"lon":5.40013,"is_reserved":false,"is_disabled":false,"rental_uris":{"android":"levelo://app?vid=8e2ed437-a79e-4ecb-9f43-b77398df59a2","ios":"levelo://app?vid=8e2ed437-a79e-4ecb-9f43-b77398df59a2"},"vehicle_type_id":"4","last_reported":1727197699,"current_range_meters":4400,"station_id":"ce4bho92rcd13ifvqh4g","pricing_plan_id":"cebpf4jnsgd1na2vs0mg"},{"bike_id":"c39b9ebf-3474-4128-98e6-09b47ddcbf97","system_id":"levelo_inurba_marseille","lat":43.2707,"lon":5.42281,"is_reserved":false,"is_disabled":false,"rental_uris":{"android":"levelo://app?vid=c39b9ebf-3474-4128-98e6-09b47ddcbf97","ios":"levelo://app?vid=c39b9ebf-3474-4128-98e6-09b47ddcbf97"},"vehicle_type_id":"4","last_reported":1727197699,"current_range_meters":8400,"station_id":"ce4bhk92rcd13ifvqgb0","pricing_plan_id":"cebpf4jnsgd1na2vs0mg"},{"bike_id":"b1f73128-5271-43d8-af34-94e10e3b804a","system_id":"levelo_inurba_marseille","lat":43.33024,"lon":5.39309,"is_reserved":false,"is_disabled":false,"rental_uris":{"android":"levelo://app?vid=b1f73128-5271-43d8-af34-94e10e3b804a","ios":"levelo://app?vid=b1f73128-5271-43d8-af34-94e10e3b804a"},"vehicle_type_id":"4","last_reported":1727197699,"current_range_meters":38800,"station_id":"","pricing_plan_id":"cebpf4jnsgd1na2vs0mg"},{"bike_id":"08c63a6e-c29e-42f1-8f60-27a2a902fce9","system_id":"levelo_inurba_marseille","lat":43.28054,"lon":5.38653,"is_reserved":false,"is_disabled":false,"rental_uris":{"android":"levelo://app?vid=08c63a6e-c29e-42f1-8f60-27a2a902fce9","ios":"levelo://app?vid=08c63a6e-c29e-42f1-8f60-27a2a902fce9"},"vehicle_type_id":"4","last_reported":1727197699,"current_range_meters":19600,"station_id":"ce4bgh92rcd13ifvqb50","pricing_plan_id":"cebpf4jnsgd1na2vs0mg"},{"bike_id":"e1161fb6-04f8-49d2-bfcb-45a6908c7773","system_id":"levelo_inurba_marseille","lat":43.2717,"lon":5.40985,"is_reserved":false,"is_disabled":false,"rental_uris":{"android":"levelo://app?vid=e1161fb6-04f8-49d2-bfcb-45a6908c7773","ios":"levelo://app?vid=e1161fb6-04f8-49d2-bfcb-45a6908c7773"},"vehicle_type_id":"4","last_reported":1727197699,"current_range_meters":19200,"station_id":"ce4bhl12rcd13ifvqgf0","pricing_plan_id":"cebpf4jnsgd1na2vs0mg"},{"bike_id":"9fbf48b7-8efe-482d-9e8c-afafd6f0902f","system_id":"levelo_inurba_marseille","lat":43.28003,"lon":5.40004,"is_reserved":false,"is_disabled":false,"rental_uris":{"android":"levelo://app?vid=9fbf48b7-8efe-482d-9e8c-afafd6f0902f","ios":"levelo://app?vid=9fbf48b7-8efe-482d-9e8c-afafd6f0902f"},"vehicle_type_id":"4","last_reported":1727197699,"current_range_meters":10800,"station_id":"ce4bho92rcd13ifvqh4g","pricing_plan_id":"cebpf4jnsgd1na2vs0mg"},{"bike_id":"1166f6b1-5b87-4bc1-b21d-c61655b2fee0","system_id":"levelo_inurba_marseille","lat":43.294465,"lon":5.380597,"is_reserved":false,"is_disabled":false,"rental_uris":{"android":"levelo://app?vid=1166f6b1-5b87-4bc1-b21d-c61655b2fee0","ios":"levelo://app?vid=1166f6b1-5b87-4bc1-b21d-c61655b2fee0"},"vehicle_type_id":"4","last_reported":1727197699,"current_range_meters":37600,"station_id":"","pricing_plan_id":"cebpf4jnsgd1na2vs0mg"},{"bike_id":"b05c80cd-69c3-47ad-a7de-95f56d99a5ec","system_id":"levelo_inurba_marseille","lat":43.29716,"lon":5.37692,"is_reserved":false,"is_disabled":false,"rental_uris":{"android":"levelo://app?vid=b05c80cd-69c3-47ad-a7de-95f56d99a5ec","ios":"levelo://app?vid=b05c80cd-69c3-47ad-a7de-95f56d99a5ec"},"vehicle_type_id":"4","last_reported":1727197699,"current_range_meters":6800,"station_id":"ce4bgkh2rcd13ifvqbl0","pricing_plan_id":"cebpf4jnsgd1na2vs0mg"},{"bike_id":"e1795019-8f30-497c-8957-dd02477936ec","system_id":"levelo_inurba_marseille","lat":43.27997,"lon":5.40006,"is_reserved":false,"is_disabled":false,"rental_uris":{"android":"levelo://app?vid=e1795019-8f30-497c-8957-dd02477936ec","ios":"levelo://app?vid=e1795019-8f30-497c-8957-dd02477936ec"},"vehicle_type_id":"4","last_reported":1727197699,"current_range_meters":32000,"station_id":"ce4bho92rcd13ifvqh4g","pricing_plan_id":"cebpf4jnsgd1na2vs0mg"},{"bike_id":"6cf02193-3ded-4cde-a5e9-273e1e7f9133","system_id":"levelo_inurba_marseille","lat":43.308,"lon":5.43518,"is_reserved":false,"is_disabled":false,"rental_uris":{"android":"levelo://app?vid=6cf02193-3ded-4cde-a5e9-273e1e7f9133","ios":"levelo://app?vid=6cf02193-3ded-4cde-a5e9-273e1e7f9133"},"vehicle_type_id":"4","last_reported":1727197699,"current_range_meters":24400,"station_id":"ce4bhph2rcd13ifvqheg","pricing_plan_id":"cebpf4jnsgd1na2vs0mg"},{"bike_id":"9cb4bec5-304c-4c7e-a605-55a15f200018","system_id":"levelo_inurba_marseille","lat":43.282699,"lon":5.350613,"is_reserved":false,"is_disabled":false,"rental_uris":{"android":"levelo://app?vid=9cb4bec5-304c-4c7e-a605-55a15f200018","ios":"levelo://app?vid=9cb4bec5-304c-4c7e-a605-55a15f200018"},"vehicle_type_id":"4","last_reported":1727197699,"current_range_meters":38800,"station_id":"ce4bhbp2rcd13ifvqerg","pricing_plan_id":"cebpf4jnsgd1na2vs0mg"},{"bike_id":"51f51aa3-a42e-4536-b461-92ac0adeb60f","system_id":"levelo_inurba_marseille","lat":43.28719,"lon":5.37939,"is_reserved":false,"is_disabled":false,"rental_uris":{"android":"levelo://app?vid=51f51aa3-a42e-4536-b461-92ac0adeb60f","ios":"levelo://app?vid=51f51aa3-a42e-4536-b461-92ac0adeb60f"},"vehicle_type_id":"4","last_reported":1727197699,"current_range_meters":23200,"station_id":"ce4bh9p2rcd13ifvqec0","pricing_plan_id":"cebpf4jnsgd1na2vs0mg"},{"bike_id":"26c2aed2-aaa8-4e2d-9818-cb1c3fb87147","system_id":"levelo_inurba_marseille","lat":43.24991,"lon":5.38949,"is_reserved":false,"is_disabled":false,"rental_uris":{"android":"levelo://app?vid=26c2aed2-aaa8-4e2d-9818-cb1c3fb87147","ios":"levelo://app?vid=26c2aed2-aaa8-4e2d-9818-cb1c3fb87147"},"vehicle_type_id":"4","last_reported":1727197699,"current_range_meters":6800,"station_id":"ce4bhgp2rcd13ifvqfd0","pricing_plan_id":"cebpf4jnsgd1na2vs0mg"},{"bike_id":"96087b1f-0bef-48b9-8043-36d38d71f738","system_id":"levelo_inurba_marseille","lat":43.26558,"lon":5.39006,"is_reserved":false,"is_disabled":false,"rental_uris":{"android":"levelo://app?vid=96087b1f-0bef-48b9-8043-36d38d71f738","ios":"levelo://app?vid=96087b1f-0bef-48b9-8043-36d38d71f738"},"vehicle_type_id":"4","last_reported":1727197699,"current_range_meters":23200,"station_id":"ce4bhe12rcd13ifvqf30","pricing_plan_id":"cebpf4jnsgd1na2vs0mg"},{"bike_id":"17701005-77c3-4e4f-a0b4-b2ece630517d","system_id":"levelo_inurba_marseille","lat":43.239565,"lon":5.366327,"is_reserved":false,"is_disabled":false,"rental_uris":{"android":"levelo://app?vid=17701005-77c3-4e4f-a0b4-b2ece630517d","ios":"levelo://app?vid=17701005-77c3-4e4f-a0b4-b2ece630517d"},"vehicle_type_id":"4","last_reported":1727197699,"current_range_meters":38800,"station_id":"ce4bhi12rcd13ifvqfp0","pricing_plan_id":"cebpf4jnsgd1na2vs0mg"},{"bike_id":"4555ca34-67c7-4b8e-a295-4471cd230d16","system_id":"levelo_inurba_marseille","lat":43.2861,"lon":5.37072,"is_reserved":false,"is_disabled":false,"rental_uris":{"android":"levelo://app?vid=4555ca34-67c7-4b8e-a295-4471cd230d16","ios":"levelo://app?vid=4555ca34-67c7-4b8e-a295-4471cd230d16"},"vehicle_type_id":"4","last_reported":1727197699,"current_range_meters":30000,"station_id":"ce4bht12rcd13ifvqi60","pricing_plan_id":"cebpf4jnsgd1na2vs0mg"},{"bike_id":"ab565563-00c4-40e4-a05f-d4e36486a3ac","system_id":"levelo_inurba_marseille","lat":43.28614,"lon":5.3511,"is_reserved":false,"is_disabled":false,"rental_uris":{"android":"levelo://app?vid=ab565563-00c4-40e4-a05f-d4e36486a3ac","ios":"levelo://app?vid=ab565563-00c4-40e4-a05f-d4e36486a3ac"},"vehicle_type_id":"4","last_reported":1727197699,"current_range_meters":10800,"station_id":"ce4bhch2rcd13ifvqeug","pricing_plan_id":"cebpf4jnsgd1na2vs0mg"},{"bike_id":"36480d9e-7737-4009-ba0e-252b20d7d9f8","system_id":"levelo_inurba_marseille","lat":43.26061,"lon":5.39398,"is_reserved":false,"is_disabled":false,"rental_uris":{"android":"levelo://app?vid=36480d9e-7737-4009-ba0e-252b20d7d9f8","ios":"levelo://app?vid=36480d9e-7737-4009-ba0e-252b20d7d9f8"},"vehicle_type_id":"4","last_reported":1727197699,"current_range_meters":9200,"station_id":"ce4bhh92rcd13ifvqfj0","pricing_plan_id":"cebpf4jnsgd1na2vs0mg"},{"bike_id":"5346ee10-1d5a-4bfe-a23a-b055d5843958","system_id":"levelo_inurba_marseille","lat":43.31526,"lon":5.38038,"is_reserved":false,"is_disabled":false,"rental_uris":{"android":"levelo://app?vid=5346ee10-1d5a-4bfe-a23a-b055d5843958","ios":"levelo://app?vid=5346ee10-1d5a-4bfe-a23a-b055d5843958"},"vehicle_type_id":"4","last_reported":1727197699,"current_range_meters":26800,"station_id":"ce4bhsp2rcd13ifvqi50","pricing_plan_id":"cebpf4jnsgd1na2vs0mg"},{"bike_id":"2a4bdd31-635e-499a-b984-944c53b136a2","system_id":"levelo_inurba_marseille","lat":43.24656,"lon":5.38896,"is_reserved":false,"is_disabled":false,"rental_uris":{"android":"levelo://app?vid=2a4bdd31-635e-499a-b984-944c53b136a2","ios":"levelo://app?vid=2a4bdd31-635e-499a-b984-944c53b136a2"},"vehicle_type_id":"4","last_reported":1727197699,"current_range_meters":19200,"station_id":"ce4bhg12rcd13ifvqf60","pricing_plan_id":"cebpf4jnsgd1na2vs0mg"},{"bike_id":"05cd16b5-50c6-42e7-a9bb-b14402cf6c66","system_id":"levelo_inurba_marseille","lat":43.30293,"lon":5.40064,"is_reserved":false,"is_disabled":false,"rental_uris":{"android":"levelo://app?vid=05cd16b5-50c6-42e7-a9bb-b14402cf6c66","ios":"levelo://app?vid=05cd16b5-50c6-42e7-a9bb-b14402cf6c66"},"vehicle_type_id":"4","last_reported":1727197699,"current_range_meters":13600,"station_id":"ce4bh092rcd13ifvqd20","pricing_plan_id":"cebpf4jnsgd1na2vs0mg"},{"bike_id":"2088798f-7b90-4d08-9796-a79931ed5182","system_id":"levelo_inurba_marseille","lat":43.30093,"lon":5.39079,"is_reserved":false,"is_disabled":false,"rental_uris":{"android":"levelo://app?vid=2088798f-7b90-4d08-9796-a79931ed5182","ios":"levelo://app?vid=2088798f-7b90-4d08-9796-a79931ed5182"},"vehicle_type_id":"4","last_reported":1727197699,"current_range_meters":19200,"station_id":"ce4bh192rcd13ifvqdb0","pricing_plan_id":"cebpf4jnsgd1na2vs0mg"},{"bike_id":"caf068f5-4cb3-457a-87fd-c778f3e10488","system_id":"levelo_inurba_marseille","lat":43.29932,"lon":5.36568,"is_reserved":false,"is_disabled":false,"rental_uris":{"android":"levelo://app?vid=caf068f5-4cb3-457a-87fd-c778f3e10488","ios":"levelo://app?vid=caf068f5-4cb3-457a-87fd-c778f3e10488"},"vehicle_type_id":"4","last_reported":1727197699,"current_range_meters":38800,"station_id":"ce4bgm92rcd13ifvqbr0","pricing_plan_id":"cebpf4jnsgd1na2vs0mg"},{"bike_id":"a7bca3df-0344-4204-86d7-b742d4769839","system_id":"levelo_inurba_marseille","lat":43.30863,"lon":5.3685,"is_reserved":false,"is_disabled":false,"rental_uris":{"android":"levelo://app?vid=a7bca3df-0344-4204-86d7-b742d4769839","ios":"levelo://app?vid=a7bca3df-0344-4204-86d7-b742d4769839"},"vehicle_type_id":"4","last_reported":1727197699,"current_range_meters":32400,"station_id":"ce4bgn92rcd13ifvqbvg","pricing_plan_id":"cebpf4jnsgd1na2vs0mg"},{"bike_id":"fe7a402e-e2a8-457b-bf0d-fc33ee334ae9","system_id":"levelo_inurba_marseille","lat":43.28277,"lon":5.35074,"is_reserved":false,"is_disabled":false,"rental_uris":{"android":"levelo://app?vid=fe7a402e-e2a8-457b-bf0d-fc33ee334ae9","ios":"levelo://app?vid=fe7a402e-e2a8-457b-bf0d-fc33ee334ae9"},"vehicle_type_id":"4","last_reported":1727197699,"current_range_meters":17600,"station_id":"ce4bhbp2rcd13ifvqerg","pricing_plan_id":"cebpf4jnsgd1na2vs0mg"},{"bike_id":"28bc4daf-4d1a-409c-8b9c-59636d64ab20","system_id":"levelo_inurba_marseille","lat":43.25723,"lon":5.41101,"is_reserved":false,"is_disabled":false,"rental_uris":{"android":"levelo://app?vid=28bc4daf-4d1a-409c-8b9c-59636d64ab20","ios":"levelo://app?vid=28bc4daf-4d1a-409c-8b9c-59636d64ab20"},"vehicle_type_id":"4","last_reported":1727197699,"current_range_meters":8800,"station_id":"ce4bhkp2rcd13ifvqgd0","pricing_plan_id":"cebpf4jnsgd1na2vs0mg"},{"bike_id":"b3697f2e-5990-434e-9f4e-c456ec422898","system_id":"levelo_inurba_marseille","lat":43.23181,"lon":5.3999,"is_reserved":false,"is_disabled":false,"rental_uris":{"android":"levelo://app?vid=b3697f2e-5990-434e-9f4e-c456ec422898","ios":"levelo://app?vid=b3697f2e-5990-434e-9f4e-c456ec422898"},"vehicle_type_id":"4","last_reported":1727197699,"current_range_meters":2000,"station_id":"ce4bhn12rcd13ifvqgqg","pricing_plan_id":"cebpf4jnsgd1na2vs0mg"},{"bike_id":"14bb3ee1-8dcf-4ea8-bda7-4684bef163ee","system_id":"levelo_inurba_marseille","lat":43.31758,"lon":5.39023,"is_reserved":false,"is_disabled":false,"rental_uris":{"android":"levelo://app?vid=14bb3ee1-8dcf-4ea8-bda7-4684bef163ee","ios":"levelo://app?vid=14bb3ee1-8dcf-4ea8-bda7-4684bef163ee"},"vehicle_type_id":"4","last_reported":1727197699,"current_range_meters":32000,"station_id":"ce4bhqp2rcd13ifvqhng","pricing_plan_id":"cebpf4jnsgd1na2vs0mg"},{"bike_id":"58d245f6-bcb2-4e4d-8404-3a158430f902","system_id":"levelo_inurba_marseille","lat":43.304932,"lon":5.36721,"is_reserved":false,"is_disabled":false,"rental_uris":{"android":"levelo://app?vid=58d245f6-bcb2-4e4d-8404-3a158430f902","ios":"levelo://app?vid=58d245f6-bcb2-4e4d-8404-3a158430f902"},"vehicle_type_id":"4","last_reported":1727197699,"current_range_meters":16400,"station_id":"ce4bgrp2rcd13ifvqc9g","pricing_plan_id":"cebpf4jnsgd1na2vs0mg"},{"bike_id":"37ea3e6e-16e9-42b3-b4f9-836c84a7a894","system_id":"levelo_inurba_marseille","lat":43.2319,"lon":5.39988,"is_reserved":false,"is_disabled":false,"rental_uris":{"android":"levelo://app?vid=37ea3e6e-16e9-42b3-b4f9-836c84a7a894","ios":"levelo://app?vid=37ea3e6e-16e9-42b3-b4f9-836c84a7a894"},"vehicle_type_id":"4","last_reported":1727197699,"current_range_meters":33200,"station_id":"ce4bhn12rcd13ifvqgqg","pricing_plan_id":"cebpf4jnsgd1na2vs0mg"},{"bike_id":"337d797f-5bad-4e42-a3a9-741eceae0aa0","system_id":"levelo_inurba_marseille","lat":43.33725,"lon":5.39175,"is_reserved":false,"is_disabled":false,"rental_uris":{"android":"levelo://app?vid=337d797f-5bad-4e42-a3a9-741eceae0aa0","ios":"levelo://app?vid=337d797f-5bad-4e42-a3a9-741eceae0aa0"},"vehicle_type_id":"4","last_reported":1727197699,"current_range_meters":36000,"station_id":"ce4bhr92rcd13ifvqhsg","pricing_plan_id":"cebpf4jnsgd1na2vs0mg"},{"bike_id":"8d8bfa6a-4f62-4d4d-94bc-6dee11be5bfd","system_id":"levelo_inurba_marseille","lat":43.31227,"lon":5.36874,"is_reserved":false,"is_disabled":false,"rental_uris":{"android":"levelo://app?vid=8d8bfa6a-4f62-4d4d-94bc-6dee11be5bfd","ios":"levelo://app?vid=8d8bfa6a-4f62-4d4d-94bc-6dee11be5bfd"},"vehicle_type_id":"4","last_reported":1727197699,"current_range_meters":24800,"station_id":"ce4bgl92rcd13ifvqbq0","pricing_plan_id":"cebpf4jnsgd1na2vs0mg"},{"bike_id":"4a4bfd88-bdfc-4802-b3a8-e798e4274727","system_id":"levelo_inurba_marseille","lat":43.32289,"lon":5.3827,"is_reserved":false,"is_disabled":false,"rental_uris":{"android":"levelo://app?vid=4a4bfd88-bdfc-4802-b3a8-e798e4274727","ios":"levelo://app?vid=4a4bfd88-bdfc-4802-b3a8-e798e4274727"},"vehicle_type_id":"4","last_reported":1727197699,"current_range_meters":32400,"station_id":"ce4bhr12rcd13ifvqhqg","pricing_plan_id":"cebpf4jnsgd1na2vs0mg"},{"bike_id":"86898526-a4d9-47cf-b306-df317b0d9e78","system_id":"levelo_inurba_marseille","lat":43.23195,"lon":5.35556,"is_reserved":false,"is_disabled":false,"rental_uris":{"android":"levelo://app?vid=86898526-a4d9-47cf-b306-df317b0d9e78","ios":"levelo://app?vid=86898526-a4d9-47cf-b306-df317b0d9e78"},"vehicle_type_id":"4","last_reported":1727197699,"current_range_meters":24000,"station_id":"ce4bhu92rcd13ifvqi70","pricing_plan_id":"cebpf4jnsgd1na2vs0mg"},{"bike_id":"193e9b28-8ece-4967-bcd8-8399876bd3e8","system_id":"levelo_inurba_marseille","lat":43.28272,"lon":5.35066,"is_reserved":false,"is_disabled":false,"rental_uris":{"android":"levelo://app?vid=193e9b28-8ece-4967-bcd8-8399876bd3e8","ios":"levelo://app?vid=193e9b28-8ece-4967-bcd8-8399876bd3e8"},"vehicle_type_id":"4","last_reported":1727197699,"current_range_meters":16400,"station_id":"ce4bhbp2rcd13ifvqerg","pricing_plan_id":"cebpf4jnsgd1na2vs0mg"},{"bike_id":"611d677c-7f05-4b1b-ac2a-15ded4ceee0f","system_id":"levelo_inurba_marseille","lat":43.299347,"lon":5.365543,"is_reserved":false,"is_disabled":false,"rental_uris":{"android":"levelo://app?vid=611d677c-7f05-4b1b-ac2a-15ded4ceee0f","ios":"levelo://app?vid=611d677c-7f05-4b1b-ac2a-15ded4ceee0f"},"vehicle_type_id":"4","last_reported":1727197699,"current_range_meters":10800,"station_id":"ce4bgm92rcd13ifvqbr0","pricing_plan_id":"cebpf4jnsgd1na2vs0mg"},{"bike_id":"ac498797-992e-419d-91ee-4116b85d4f65","system_id":"levelo_inurba_marseille","lat":43.30886,"lon":5.39656,"is_reserved":false,"is_disabled":false,"rental_uris":{"android":"levelo://app?vid=ac498797-992e-419d-91ee-4116b85d4f65","ios":"levelo://app?vid=ac498797-992e-419d-91ee-4116b85d4f65"},"vehicle_type_id":"4","last_reported":1727197699,"current_range_meters":22000,"station_id":"ce4bh012rcd13ifvqcv0","pricing_plan_id":"cebpf4jnsgd1na2vs0mg"},{"bike_id":"d8daf0e1-b827-4c3b-b919-560167bb0d5a","system_id":"levelo_inurba_marseille","lat":43.26026,"lon":5.37549,"is_reserved":false,"is_disabled":false,"rental_uris":{"android":"levelo://app?vid=d8daf0e1-b827-4c3b-b919-560167bb0d5a","ios":"levelo://app?vid=d8daf0e1-b827-4c3b-b919-560167bb0d5a"},"vehicle_type_id":"4","last_reported":1727197699,"current_range_meters":27600,"station_id":"ce4bhgh2rcd13ifvqfa0","pricing_plan_id":"cebpf4jnsgd1na2vs0mg"},{"bike_id":"649ac2aa-b218-46c8-b46b-ab13f1dc706e","system_id":"levelo_inurba_marseille","lat":43.31534,"lon":5.38033,"is_reserved":false,"is_disabled":false,"rental_uris":{"android":"levelo://app?vid=649ac2aa-b218-46c8-b46b-ab13f1dc706e","ios":"levelo://app?vid=649ac2aa-b218-46c8-b46b-ab13f1dc706e"},"vehicle_type_id":"4","last_reported":1727197699,"current_range_meters":17600,"station_id":"ce4bhsp2rcd13ifvqi50","pricing_plan_id":"cebpf4jnsgd1na2vs0mg"},{"bike_id":"366d28fc-9007-4a28-af76-0b1003d1aeba","system_id":"levelo_inurba_marseille","lat":43.31331,"lon":5.39693,"is_reserved":false,"is_disabled":false,"rental_uris":{"android":"levelo://app?vid=366d28fc-9007-4a28-af76-0b1003d1aeba","ios":"levelo://app?vid=366d28fc-9007-4a28-af76-0b1003d1aeba"},"vehicle_type_id":"4","last_reported":1727197699,"current_range_meters":32400,"station_id":"ce4bgvp2rcd13ifvqcu0","pricing_plan_id":"cebpf4jnsgd1na2vs0mg"},{"bike_id":"c1914418-929f-4475-a940-125a7adb7c5e","system_id":"levelo_inurba_marseille","lat":43.33724,"lon":5.39184,"is_reserved":false,"is_disabled":false,"rental_uris":{"android":"levelo://app?vid=c1914418-929f-4475-a940-125a7adb7c5e","ios":"levelo://app?vid=c1914418-929f-4475-a940-125a7adb7c5e"},"vehicle_type_id":"4","last_reported":1727197699,"current_range_meters":30800,"station_id":"ce4bhr92rcd13ifvqhsg","pricing_plan_id":"cebpf4jnsgd1na2vs0mg"},{"bike_id":"ede37da0-431f-462e-af97-45c71435ab2a","system_id":"levelo_inurba_marseille","lat":43.24184,"lon":5.39713,"is_reserved":false,"is_disabled":false,"rental_uris":{"android":"levelo://app?vid=ede37da0-431f-462e-af97-45c71435ab2a","ios":"levelo://app?vid=ede37da0-431f-462e-af97-45c71435ab2a"},"vehicle_type_id":"4","last_reported":1727197699,"current_range_meters":25200,"station_id":"ce4bhn12rcd13ifvqgpg","pricing_plan_id":"cebpf4jnsgd1na2vs0mg"},{"bike_id":"424f5c75-0602-4856-80b7-b41775b68eae","system_id":"levelo_inurba_marseille","lat":43.29522,"lon":5.39403,"is_reserved":false,"is_disabled":false,"rental_uris":{"android":"levelo://app?vid=424f5c75-0602-4856-80b7-b41775b68eae","ios":"levelo://app?vid=424f5c75-0602-4856-80b7-b41775b68eae"},"vehicle_type_id":"4","last_reported":1727197699,"current_range_meters":8800,"station_id":"ce4bh292rcd13ifvqdf0","pricing_plan_id":"cebpf4jnsgd1na2vs0mg"},{"bike_id":"9559b53b-c56e-48cd-8fc6-433930529f8d","system_id":"levelo_inurba_marseille","lat":43.27911,"lon":5.39585,"is_reserved":false,"is_disabled":false,"rental_uris":{"android":"levelo://app?vid=9559b53b-c56e-48cd-8fc6-433930529f8d","ios":"levelo://app?vid=9559b53b-c56e-48cd-8fc6-433930529f8d"},"vehicle_type_id":"4","last_reported":1727197699,"current_range_meters":28000,"station_id":"ce4bhf92rcd13ifvqf40","pricing_plan_id":"cebpf4jnsgd1na2vs0mg"},{"bike_id":"19b29eaa-fc59-4c92-b80c-b69e78c26612","system_id":"levelo_inurba_marseille","lat":43.29895,"lon":5.43674,"is_reserved":false,"is_disabled":false,"rental_uris":{"android":"levelo://app?vid=19b29eaa-fc59-4c92-b80c-b69e78c26612","ios":"levelo://app?vid=19b29eaa-fc59-4c92-b80c-b69e78c26612"},"vehicle_type_id":"4","last_reported":1727197699,"current_range_meters":24800,"station_id":"ce4bhpp2rcd13ifvqhfg","pricing_plan_id":"cebpf4jnsgd1na2vs0mg"},{"bike_id":"dbd7099e-68c7-4730-839d-c5149bd7d256","system_id":"levelo_inurba_marseille","lat":43.26557,"lon":5.39001,"is_reserved":false,"is_disabled":false,"rental_uris":{"android":"levelo://app?vid=dbd7099e-68c7-4730-839d-c5149bd7d256","ios":"levelo://app?vid=dbd7099e-68c7-4730-839d-c5149bd7d256"},"vehicle_type_id":"4","last_reported":1727197699,"current_range_meters":24400,"station_id":"ce4bhe12rcd13ifvqf30","pricing_plan_id":"cebpf4jnsgd1na2vs0mg"},{"bike_id":"9355b769-996d-4f4f-b5dd-c0b8373b1b70","system_id":"levelo_inurba_marseille","lat":43.31324,"lon":5.39702,"is_reserved":false,"is_disabled":false,"rental_uris":{"android":"levelo://app?vid=9355b769-996d-4f4f-b5dd-c0b8373b1b70","ios":"levelo://app?vid=9355b769-996d-4f4f-b5dd-c0b8373b1b70"},"vehicle_type_id":"4","last_reported":1727197699,"current_range_meters":24400,"station_id":"ce4bgvp2rcd13ifvqcu0","pricing_plan_id":"cebpf4jnsgd1na2vs0mg"},{"bike_id":"c69be875-7dd6-4952-a815-1d4781c46e8a","system_id":"levelo_inurba_marseille","lat":43.2972,"lon":5.36609,"is_reserved":false,"is_disabled":false,"rental_uris":{"android":"levelo://app?vid=c69be875-7dd6-4952-a815-1d4781c46e8a","ios":"levelo://app?vid=c69be875-7dd6-4952-a815-1d4781c46e8a"},"vehicle_type_id":"4","last_reported":1727197699,"current_range_meters":38400,"station_id":"ce4bh292rcd13ifvqdg0","pricing_plan_id":"cebpf4jnsgd1na2vs0mg"},{"bike_id":"80329149-e8bc-4596-bad1-22668b073896","system_id":"levelo_inurba_marseille","lat":43.31173,"lon":5.38731,"is_reserved":false,"is_disabled":false,"rental_uris":{"android":"levelo://app?vid=80329149-e8bc-4596-bad1-22668b073896","ios":"levelo://app?vid=80329149-e8bc-4596-bad1-22668b073896"},"vehicle_type_id":"4","last_reported":1727197699,"current_range_meters":8000,"station_id":"ce4bgv12rcd13ifvqcp0","pricing_plan_id":"cebpf4jnsgd1na2vs0mg"},{"bike_id":"9772998c-2089-4fea-ad97-2dcfbb28f75e","system_id":"levelo_inurba_marseille","lat":43.28727,"lon":5.3608,"is_reserved":false,"is_disabled":false,"rental_uris":{"android":"levelo://app?vid=9772998c-2089-4fea-ad97-2dcfbb28f75e","ios":"levelo://app?vid=9772998c-2089-4fea-ad97-2dcfbb28f75e"},"vehicle_type_id":"4","last_reported":1727197699,"current_range_meters":16800,"station_id":"cki0cbj6b192h4jlfktg","pricing_plan_id":"cebpf4jnsgd1na2vs0mg"},{"bike_id":"f74738e8-c776-4fe7-82af-791699b059c6","system_id":"levelo_inurba_marseille","lat":43.30188,"lon":5.36615,"is_reserved":false,"is_disabled":false,"rental_uris":{"android":"levelo://app?vid=f74738e8-c776-4fe7-82af-791699b059c6","ios":"levelo://app?vid=f74738e8-c776-4fe7-82af-791699b059c6"},"vehicle_type_id":"4","last_reported":1727197699,"current_range_meters":39200,"station_id":"ce4bgrh2rcd13ifvqc8g","pricing_plan_id":"cebpf4jnsgd1na2vs0mg"},{"bike_id":"9c7f6a06-7341-4585-8079-f24ad0f2b479","system_id":"levelo_inurba_marseille","lat":43.26563,"lon":5.39008,"is_reserved":false,"is_disabled":false,"rental_uris":{"android":"levelo://app?vid=9c7f6a06-7341-4585-8079-f24ad0f2b479","ios":"levelo://app?vid=9c7f6a06-7341-4585-8079-f24ad0f2b479"},"vehicle_type_id":"4","last_reported":1727197699,"current_range_meters":5600,"station_id":"ce4bhe12rcd13ifvqf30","pricing_plan_id":"cebpf4jnsgd1na2vs0mg"},{"bike_id":"c707e9f2-8200-4e75-ba39-a1695690a59a","system_id":"levelo_inurba_marseille","lat":43.32362,"lon":5.38879,"is_reserved":false,"is_disabled":false,"rental_uris":{"android":"levelo://app?vid=c707e9f2-8200-4e75-ba39-a1695690a59a","ios":"levelo://app?vid=c707e9f2-8200-4e75-ba39-a1695690a59a"},"vehicle_type_id":"4","last_reported":1727197699,"current_range_meters":38800,"station_id":"ce4bhqp2rcd13ifvqhog","pricing_plan_id":"cebpf4jnsgd1na2vs0mg"},{"bike_id":"70df401c-fd80-471b-818d-8c4957e23ad2","system_id":"levelo_inurba_marseille","lat":43.29963,"lon":5.41325,"is_reserved":false,"is_disabled":false,"rental_uris":{"android":"levelo://app?vid=70df401c-fd80-471b-818d-8c4957e23ad2","ios":"levelo://app?vid=70df401c-fd80-471b-818d-8c4957e23ad2"},"vehicle_type_id":"4","last_reported":1727197699,"current_range_meters":38800,"station_id":"ce4bhp12rcd13ifvqh9g","pricing_plan_id":"cebpf4jnsgd1na2vs0mg"},{"bike_id":"387b39ff-ea7f-4a2f-b358-2b5e139dc1c9","system_id":"levelo_inurba_marseille","lat":43.28623,"lon":5.35115,"is_reserved":false,"is_disabled":false,"rental_uris":{"android":"levelo://app?vid=387b39ff-ea7f-4a2f-b358-2b5e139dc1c9","ios":"levelo://app?vid=387b39ff-ea7f-4a2f-b358-2b5e139dc1c9"},"vehicle_type_id":"4","last_reported":1727197699,"current_range_meters":36400,"station_id":"ce4bhch2rcd13ifvqeug","pricing_plan_id":"cebpf4jnsgd1na2vs0mg"},{"bike_id":"3cdb199b-bacd-44b6-8eed-476c74758fbd","system_id":"levelo_inurba_marseille","lat":43.32102,"lon":5.37468,"is_reserved":false,"is_disabled":false,"rental_uris":{"android":"levelo://app?vid=3cdb199b-bacd-44b6-8eed-476c74758fbd","ios":"levelo://app?vid=3cdb199b-bacd-44b6-8eed-476c74758fbd"},"vehicle_type_id":"4","last_reported":1727197699,"current_range_meters":28800,"station_id":"","pricing_plan_id":"cebpf4jnsgd1na2vs0mg"},{"bike_id":"842ee6cc-6e3c-4d8f-85db-ac9743e34299","system_id":"levelo_inurba_marseille","lat":43.296995,"lon":5.376626,"is_reserved":false,"is_disabled":false,"rental_uris":{"android":"levelo://app?vid=842ee6cc-6e3c-4d8f-85db-ac9743e34299","ios":"levelo://app?vid=842ee6cc-6e3c-4d8f-85db-ac9743e34299"},"vehicle_type_id":"4","last_reported":1727197699,"current_range_meters":9600,"station_id":"ce4bgkh2rcd13ifvqbl0","pricing_plan_id":"cebpf4jnsgd1na2vs0mg"},{"bike_id":"6ddafbe1-16f1-463a-be44-0bef68acf23b","system_id":"levelo_inurba_marseille","lat":43.2718,"lon":5.40995,"is_reserved":false,"is_disabled":false,"rental_uris":{"android":"levelo://app?vid=6ddafbe1-16f1-463a-be44-0bef68acf23b","ios":"levelo://app?vid=6ddafbe1-16f1-463a-be44-0bef68acf23b"},"vehicle_type_id":"4","last_reported":1727197699,"current_range_meters":30400,"station_id":"ce4bhl12rcd13ifvqgf0","pricing_plan_id":"cebpf4jnsgd1na2vs0mg"},{"bike_id":"b219c087-d36f-4a90-91d2-5f7e3bc4b276","system_id":"levelo_inurba_marseille","lat":43.30801,"lon":5.43522,"is_reserved":false,"is_disabled":false,"rental_uris":{"android":"levelo://app?vid=b219c087-d36f-4a90-91d2-5f7e3bc4b276","ios":"levelo://app?vid=b219c087-d36f-4a90-91d2-5f7e3bc4b276"},"vehicle_type_id":"4","last_reported":1727197699,"current_range_meters":22800,"station_id":"ce4bhph2rcd13ifvqheg","pricing_plan_id":"cebpf4jnsgd1na2vs0mg"},{"bike_id":"1fd13afa-1971-4b08-8c6a-940d6d171c93","system_id":"levelo_inurba_marseille","lat":43.29024,"lon":5.38652,"is_reserved":false,"is_disabled":false,"rental_uris":{"android":"levelo://app?vid=1fd13afa-1971-4b08-8c6a-940d6d171c93","ios":"levelo://app?vid=1fd13afa-1971-4b08-8c6a-940d6d171c93"},"vehicle_type_id":"4","last_reported":1727197699,"current_range_meters":32400,"station_id":"ce4bh4p2rcd13ifvqe0g","pricing_plan_id":"cebpf4jnsgd1na2vs0mg"},{"bike_id":"dcfd1a3f-06b1-4c63-993b-b79e5484eea9","system_id":"levelo_inurba_marseille","lat":43.31709,"lon":5.43708,"is_reserved":false,"is_disabled":false,"rental_uris":{"android":"levelo://app?vid=dcfd1a3f-06b1-4c63-993b-b79e5484eea9","ios":"levelo://app?vid=dcfd1a3f-06b1-4c63-993b-b79e5484eea9"},"vehicle_type_id":"4","last_reported":1727197699,"current_range_meters":30000,"station_id":"ce4bhp92rcd13ifvqhcg","pricing_plan_id":"cebpf4jnsgd1na2vs0mg"},{"bike_id":"e1b39757-eaf7-4530-9283-1bd0e00b9aba","system_id":"levelo_inurba_marseille","lat":43.24397,"lon":5.37056,"is_reserved":false,"is_disabled":false,"rental_uris":{"android":"levelo://app?vid=e1b39757-eaf7-4530-9283-1bd0e00b9aba","ios":"levelo://app?vid=e1b39757-eaf7-4530-9283-1bd0e00b9aba"},"vehicle_type_id":"4","last_reported":1727197699,"current_range_meters":16400,"station_id":"ce4bhhh2rcd13ifvqfk0","pricing_plan_id":"cebpf4jnsgd1na2vs0mg"},{"bike_id":"87609928-6088-4ae0-a23b-50d440fc42e0","system_id":"levelo_inurba_marseille","lat":43.32368,"lon":5.38888,"is_reserved":false,"is_disabled":false,"rental_uris":{"android":"levelo://app?vid=87609928-6088-4ae0-a23b-50d440fc42e0","ios":"levelo://app?vid=87609928-6088-4ae0-a23b-50d440fc42e0"},"vehicle_type_id":"4","last_reported":1727197699,"current_range_meters":14000,"station_id":"ce4bhqp2rcd13ifvqhog","pricing_plan_id":"cebpf4jnsgd1na2vs0mg"},{"bike_id":"bb3308a7-db84-4cda-a60d-c75fcc4dd8c5","system_id":"levelo_inurba_marseille","lat":43.29527,"lon":5.38543,"is_reserved":false,"is_disabled":false,"rental_uris":{"android":"levelo://app?vid=bb3308a7-db84-4cda-a60d-c75fcc4dd8c5","ios":"levelo://app?vid=bb3308a7-db84-4cda-a60d-c75fcc4dd8c5"},"vehicle_type_id":"4","last_reported":1727197699,"current_range_meters":28000,"station_id":"ce4bgih2rcd13ifvqba0","pricing_plan_id":"cebpf4jnsgd1na2vs0mg"},{"bike_id":"f669f569-6c68-48bb-ada3-d69fc62060c4","system_id":"levelo_inurba_marseille","lat":43.30124,"lon":5.39859,"is_reserved":false,"is_disabled":false,"rental_uris":{"android":"levelo://app?vid=f669f569-6c68-48bb-ada3-d69fc62060c4","ios":"levelo://app?vid=f669f569-6c68-48bb-ada3-d69fc62060c4"},"vehicle_type_id":"4","last_reported":1727197699,"current_range_meters":25200,"station_id":"ce4bh0h2rcd13ifvqd40","pricing_plan_id":"cebpf4jnsgd1na2vs0mg"},{"bike_id":"64023802-4dfa-4d30-8e2c-0b2e1d5f13fa","system_id":"levelo_inurba_marseille","lat":43.31323,"lon":5.39698,"is_reserved":false,"is_disabled":false,"rental_uris":{"android":"levelo://app?vid=64023802-4dfa-4d30-8e2c-0b2e1d5f13fa","ios":"levelo://app?vid=64023802-4dfa-4d30-8e2c-0b2e1d5f13fa"},"vehicle_type_id":"4","last_reported":1727197699,"current_range_meters":2000,"station_id":"ce4bgvp2rcd13ifvqcu0","pricing_plan_id":"cebpf4jnsgd1na2vs0mg"},{"bike_id":"68081c0b-9a92-490a-bdd1-ff5103721787","system_id":"levelo_inurba_marseille","lat":43.27071,"lon":5.42279,"is_reserved":false,"is_disabled":false,"rental_uris":{"android":"levelo://app?vid=68081c0b-9a92-490a-bdd1-ff5103721787","ios":"levelo://app?vid=68081c0b-9a92-490a-bdd1-ff5103721787"},"vehicle_type_id":"4","last_reported":1727197699,"current_range_meters":16800,"station_id":"ce4bhk92rcd13ifvqgb0","pricing_plan_id":"cebpf4jnsgd1na2vs0mg"},{"bike_id":"69aae0c0-8704-47b8-8759-b7fa3b6dd031","system_id":"levelo_inurba_marseille","lat":43.27374,"lon":5.36262,"is_reserved":false,"is_disabled":false,"rental_uris":{"android":"levelo://app?vid=69aae0c0-8704-47b8-8759-b7fa3b6dd031","ios":"levelo://app?vid=69aae0c0-8704-47b8-8759-b7fa3b6dd031"},"vehicle_type_id":"4","last_reported":1727197699,"current_range_meters":10000,"station_id":"ce4bhbh2rcd13ifvqeo0","pricing_plan_id":"cebpf4jnsgd1na2vs0mg"},{"bike_id":"bfabd464-eaf6-4e3f-ad68-9e91fb5c1fbb","system_id":"levelo_inurba_marseille","lat":43.30138,"lon":5.399,"is_reserved":false,"is_disabled":false,"rental_uris":{"android":"levelo://app?vid=bfabd464-eaf6-4e3f-ad68-9e91fb5c1fbb","ios":"levelo://app?vid=bfabd464-eaf6-4e3f-ad68-9e91fb5c1fbb"},"vehicle_type_id":"4","last_reported":1727197699,"current_range_meters":22000,"station_id":"ce4bh0h2rcd13ifvqd40","pricing_plan_id":"cebpf4jnsgd1na2vs0mg"},{"bike_id":"62b10a0a-1fae-4760-aa13-f00befe0fb3c","system_id":"levelo_inurba_marseille","lat":43.27178,"lon":5.40984,"is_reserved":false,"is_disabled":false,"rental_uris":{"android":"levelo://app?vid=62b10a0a-1fae-4760-aa13-f00befe0fb3c","ios":"levelo://app?vid=62b10a0a-1fae-4760-aa13-f00befe0fb3c"},"vehicle_type_id":"4","last_reported":1727197699,"current_range_meters":37600,"station_id":"ce4bhl12rcd13ifvqgf0","pricing_plan_id":"cebpf4jnsgd1na2vs0mg"},{"bike_id":"8c62139a-8d03-44e8-8897-1a2a9f29bcb9","system_id":"levelo_inurba_marseille","lat":43.27566,"lon":5.38433,"is_reserved":false,"is_disabled":false,"rental_uris":{"android":"levelo://app?vid=8c62139a-8d03-44e8-8897-1a2a9f29bcb9","ios":"levelo://app?vid=8c62139a-8d03-44e8-8897-1a2a9f29bcb9"},"vehicle_type_id":"4","last_reported":1727197699,"current_range_meters":17200,"station_id":"ce4bhh92rcd13ifvqfi0","pricing_plan_id":"cebpf4jnsgd1na2vs0mg"},{"bike_id":"95f8ac12-05ad-433a-bab5-6c2ee3d4d27e","system_id":"levelo_inurba_marseille","lat":43.31995,"lon":5.38158,"is_reserved":false,"is_disabled":false,"rental_uris":{"android":"levelo://app?vid=95f8ac12-05ad-433a-bab5-6c2ee3d4d27e","ios":"levelo://app?vid=95f8ac12-05ad-433a-bab5-6c2ee3d4d27e"},"vehicle_type_id":"4","last_reported":1727197699,"current_range_meters":23200,"station_id":"ce4bhr12rcd13ifvqhpg","pricing_plan_id":"cebpf4jnsgd1na2vs0mg"},{"bike_id":"7f585e94-9eea-4a0a-9b0e-9673f8eef042","system_id":"levelo_inurba_marseille","lat":43.293762,"lon":5.392206,"is_reserved":false,"is_disabled":false,"rental_uris":{"android":"levelo://app?vid=7f585e94-9eea-4a0a-9b0e-9673f8eef042","ios":"levelo://app?vid=7f585e94-9eea-4a0a-9b0e-9673f8eef042"},"vehicle_type_id":"4","last_reported":1727197699,"current_range_meters":14000,"station_id":"ce4bhjp2rcd13ifvqga0","pricing_plan_id":"cebpf4jnsgd1na2vs0mg"},{"bike_id":"424da7cf-25e8-444e-98f1-96d24b7b78b7","system_id":"levelo_inurba_marseille","lat":43.25577,"lon":5.382453,"is_reserved":false,"is_disabled":false,"rental_uris":{"android":"levelo://app?vid=424da7cf-25e8-444e-98f1-96d24b7b78b7","ios":"levelo://app?vid=424da7cf-25e8-444e-98f1-96d24b7b78b7"},"vehicle_type_id":"4","last_reported":1727197699,"current_range_meters":20000,"station_id":"ce4bhih2rcd13ifvqfs0","pricing_plan_id":"cebpf4jnsgd1na2vs0mg"},{"bike_id":"f6854ccc-c1fa-48e0-92f7-f670b0d2f83f","system_id":"levelo_inurba_marseille","lat":43.27898,"lon":5.42614,"is_reserved":false,"is_disabled":false,"rental_uris":{"android":"levelo://app?vid=f6854ccc-c1fa-48e0-92f7-f670b0d2f83f","ios":"levelo://app?vid=f6854ccc-c1fa-48e0-92f7-f670b0d2f83f"},"vehicle_type_id":"4","last_reported":1727197699,"current_range_meters":27600,"station_id":"","pricing_plan_id":"cebpf4jnsgd1na2vs0mg"},{"bike_id":"f674083a-b6ee-4ade-9641-0c775b2871cd","system_id":"levelo_inurba_marseille","lat":43.29029,"lon":5.38647,"is_reserved":false,"is_disabled":false,"rental_uris":{"android":"levelo://app?vid=f674083a-b6ee-4ade-9641-0c775b2871cd","ios":"levelo://app?vid=f674083a-b6ee-4ade-9641-0c775b2871cd"},"vehicle_type_id":"4","last_reported":1727197699,"current_range_meters":19200,"station_id":"ce4bh4p2rcd13ifvqe0g","pricing_plan_id":"cebpf4jnsgd1na2vs0mg"},{"bike_id":"1c1274dd-9f96-49d3-9484-dc491a899e31","system_id":"levelo_inurba_marseille","lat":43.30593,"lon":5.37228,"is_reserved":false,"is_disabled":false,"rental_uris":{"android":"levelo://app?vid=1c1274dd-9f96-49d3-9484-dc491a899e31","ios":"levelo://app?vid=1c1274dd-9f96-49d3-9484-dc491a899e31"},"vehicle_type_id":"4","last_reported":1727197699,"current_range_meters":5600,"station_id":"ce4bgqh2rcd13ifvqc4g","pricing_plan_id":"cebpf4jnsgd1na2vs0mg"},{"bike_id":"84c225a5-9c41-4c8f-888b-d7001441f1b8","system_id":"levelo_inurba_marseille","lat":43.26064,"lon":5.39397,"is_reserved":false,"is_disabled":false,"rental_uris":{"android":"levelo://app?vid=84c225a5-9c41-4c8f-888b-d7001441f1b8","ios":"levelo://app?vid=84c225a5-9c41-4c8f-888b-d7001441f1b8"},"vehicle_type_id":"4","last_reported":1727197699,"current_range_meters":36400,"station_id":"ce4bhh92rcd13ifvqfj0","pricing_plan_id":"cebpf4jnsgd1na2vs0mg"},{"bike_id":"b8d52647-6f92-451a-a3f1-37f303cfb931","system_id":"levelo_inurba_marseille","lat":43.27818,"lon":5.40715,"is_reserved":false,"is_disabled":false,"rental_uris":{"android":"levelo://app?vid=b8d52647-6f92-451a-a3f1-37f303cfb931","ios":"levelo://app?vid=b8d52647-6f92-451a-a3f1-37f303cfb931"},"vehicle_type_id":"4","last_reported":1727197699,"current_range_meters":38800,"station_id":"ce4bhnh2rcd13ifvqgtg","pricing_plan_id":"cebpf4jnsgd1na2vs0mg"},{"bike_id":"f808c29f-833c-4be9-94ba-f5bbf2d86de8","system_id":"levelo_inurba_marseille","lat":43.29551,"lon":5.42284,"is_reserved":false,"is_disabled":false,"rental_uris":{"android":"levelo://app?vid=f808c29f-833c-4be9-94ba-f5bbf2d86de8","ios":"levelo://app?vid=f808c29f-833c-4be9-94ba-f5bbf2d86de8"},"vehicle_type_id":"4","last_reported":1727197699,"current_range_meters":40000,"station_id":"ce4bhph2rcd13ifvqhdg","pricing_plan_id":"cebpf4jnsgd1na2vs0mg"},{"bike_id":"59e896f4-f52a-483d-b0d5-ba8264c166a0","system_id":"levelo_inurba_marseille","lat":43.29529,"lon":5.37503,"is_reserved":false,"is_disabled":false,"rental_uris":{"android":"levelo://app?vid=59e896f4-f52a-483d-b0d5-ba8264c166a0","ios":"levelo://app?vid=59e896f4-f52a-483d-b0d5-ba8264c166a0"},"vehicle_type_id":"4","last_reported":1727197699,"current_range_meters":5600,"station_id":"ce4bgkp2rcd13ifvqbmg","pricing_plan_id":"cebpf4jnsgd1na2vs0mg"},{"bike_id":"ef1bcdaf-ad41-4f13-b79c-6a2d8cd8f3f4","system_id":"levelo_inurba_marseille","lat":43.32329,"lon":5.40621,"is_reserved":false,"is_disabled":false,"rental_uris":{"android":"levelo://app?vid=ef1bcdaf-ad41-4f13-b79c-6a2d8cd8f3f4","ios":"levelo://app?vid=ef1bcdaf-ad41-4f13-b79c-6a2d8cd8f3f4"},"vehicle_type_id":"4","last_reported":1727197699,"current_range_meters":16800,"station_id":"ce4bhq92rcd13ifvqhjg","pricing_plan_id":"cebpf4jnsgd1na2vs0mg"},{"bike_id":"4faaf425-eb7d-4f3f-ac78-2efeba0f86fa","system_id":"levelo_inurba_marseille","lat":43.27073,"lon":5.42289,"is_reserved":false,"is_disabled":false,"rental_uris":{"android":"levelo://app?vid=4faaf425-eb7d-4f3f-ac78-2efeba0f86fa","ios":"levelo://app?vid=4faaf425-eb7d-4f3f-ac78-2efeba0f86fa"},"vehicle_type_id":"4","last_reported":1727197699,"current_range_meters":3600,"station_id":"ce4bhk92rcd13ifvqgb0","pricing_plan_id":"cebpf4jnsgd1na2vs0mg"},{"bike_id":"0d10df79-c284-4e2b-b1b7-57df367c1091","system_id":"levelo_inurba_marseille","lat":43.24808,"lon":5.37461,"is_reserved":false,"is_disabled":false,"rental_uris":{"android":"levelo://app?vid=0d10df79-c284-4e2b-b1b7-57df367c1091","ios":"levelo://app?vid=0d10df79-c284-4e2b-b1b7-57df367c1091"},"vehicle_type_id":"4","last_reported":1727197699,"current_range_meters":6400,"station_id":"ce4bhgh2rcd13ifvqfb0","pricing_plan_id":"cebpf4jnsgd1na2vs0mg"},{"bike_id":"e42186fb-4fb9-4e53-802f-6e7e0496cd0c","system_id":"levelo_inurba_marseille","lat":43.29007,"lon":5.35614,"is_reserved":false,"is_disabled":false,"rental_uris":{"android":"levelo://app?vid=e42186fb-4fb9-4e53-802f-6e7e0496cd0c","ios":"levelo://app?vid=e42186fb-4fb9-4e53-802f-6e7e0496cd0c"},"vehicle_type_id":"4","last_reported":1727197699,"current_range_meters":4400,"station_id":"ce4bhb92rcd13ifvqen0","pricing_plan_id":"cebpf4jnsgd1na2vs0mg"},{"bike_id":"b8b97219-f1cb-41e9-93a1-6062897ad601","system_id":"levelo_inurba_marseille","lat":43.24177,"lon":5.39735,"is_reserved":false,"is_disabled":false,"rental_uris":{"android":"levelo://app?vid=b8b97219-f1cb-41e9-93a1-6062897ad601","ios":"levelo://app?vid=b8b97219-f1cb-41e9-93a1-6062897ad601"},"vehicle_type_id":"4","last_reported":1727197699,"current_range_meters":12000,"station_id":"ce4bhn12rcd13ifvqgpg","pricing_plan_id":"cebpf4jnsgd1na2vs0mg"},{"bike_id":"2a01d5ab-952f-433a-8f91-0171a6729d79","system_id":"levelo_inurba_marseille","lat":43.31716,"lon":5.4371,"is_reserved":false,"is_disabled":false,"rental_uris":{"android":"levelo://app?vid=2a01d5ab-952f-433a-8f91-0171a6729d79","ios":"levelo://app?vid=2a01d5ab-952f-433a-8f91-0171a6729d79"},"vehicle_type_id":"4","last_reported":1727197699,"current_range_meters":34800,"station_id":"ce4bhp92rcd13ifvqhcg","pricing_plan_id":"cebpf4jnsgd1na2vs0mg"},{"bike_id":"889e42cb-353f-4ed3-b65e-a89090f5f414","system_id":"levelo_inurba_marseille","lat":43.31709,"lon":5.37736,"is_reserved":false,"is_disabled":false,"rental_uris":{"android":"levelo://app?vid=889e42cb-353f-4ed3-b65e-a89090f5f414","ios":"levelo://app?vid=889e42cb-353f-4ed3-b65e-a89090f5f414"},"vehicle_type_id":"4","last_reported":1727197699,"current_range_meters":24400,"station_id":"ce4bgth2rcd13ifvqch0","pricing_plan_id":"cebpf4jnsgd1na2vs0mg"},{"bike_id":"7ecb6003-d5da-4b70-a48d-dac9ad53edaa","system_id":"levelo_inurba_marseille","lat":43.29559,"lon":5.42296,"is_reserved":false,"is_disabled":false,"rental_uris":{"android":"levelo://app?vid=7ecb6003-d5da-4b70-a48d-dac9ad53edaa","ios":"levelo://app?vid=7ecb6003-d5da-4b70-a48d-dac9ad53edaa"},"vehicle_type_id":"4","last_reported":1727197699,"current_range_meters":32000,"station_id":"ce4bhph2rcd13ifvqhdg","pricing_plan_id":"cebpf4jnsgd1na2vs0mg"},{"bike_id":"f63139f3-7864-43f0-b2c4-8ee79a8a20bd","system_id":"levelo_inurba_marseille","lat":43.3229,"lon":5.38273,"is_reserved":false,"is_disabled":false,"rental_uris":{"android":"levelo://app?vid=f63139f3-7864-43f0-b2c4-8ee79a8a20bd","ios":"levelo://app?vid=f63139f3-7864-43f0-b2c4-8ee79a8a20bd"},"vehicle_type_id":"4","last_reported":1727197699,"current_range_meters":35600,"station_id":"ce4bhr12rcd13ifvqhqg","pricing_plan_id":"cebpf4jnsgd1na2vs0mg"},{"bike_id":"bc029bae-9b22-4f50-b298-88d24fa620ca","system_id":"levelo_inurba_marseille","lat":43.29555,"lon":5.42279,"is_reserved":false,"is_disabled":false,"rental_uris":{"android":"levelo://app?vid=bc029bae-9b22-4f50-b298-88d24fa620ca","ios":"levelo://app?vid=bc029bae-9b22-4f50-b298-88d24fa620ca"},"vehicle_type_id":"4","last_reported":1727197699,"current_range_meters":38400,"station_id":"ce4bhph2rcd13ifvqhdg","pricing_plan_id":"cebpf4jnsgd1na2vs0mg"},{"bike_id":"d99eb340-9e69-425a-8235-517854e3b819","system_id":"levelo_inurba_marseille","lat":43.26955,"lon":5.38634,"is_reserved":false,"is_disabled":false,"rental_uris":{"android":"levelo://app?vid=d99eb340-9e69-425a-8235-517854e3b819","ios":"levelo://app?vid=d99eb340-9e69-425a-8235-517854e3b819"},"vehicle_type_id":"4","last_reported":1727197699,"current_range_meters":37600,"station_id":"ce4bhh92rcd13ifvqfh0","pricing_plan_id":"cebpf4jnsgd1na2vs0mg"},{"bike_id":"37df3f46-7ac4-4082-97c9-895be07b2911","system_id":"levelo_inurba_marseille","lat":43.296287,"lon":5.400268,"is_reserved":false,"is_disabled":false,"rental_uris":{"android":"levelo://app?vid=37df3f46-7ac4-4082-97c9-895be07b2911","ios":"levelo://app?vid=37df3f46-7ac4-4082-97c9-895be07b2911"},"vehicle_type_id":"4","last_reported":1727197699,"current_range_meters":4400,"station_id":"ce4bgg92rcd13ifvqb30","pricing_plan_id":"cebpf4jnsgd1na2vs0mg"},{"bike_id":"2fb56565-6708-44f9-aab3-cd4d038eca59","system_id":"levelo_inurba_marseille","lat":43.28273,"lon":5.35084,"is_reserved":false,"is_disabled":false,"rental_uris":{"android":"levelo://app?vid=2fb56565-6708-44f9-aab3-cd4d038eca59","ios":"levelo://app?vid=2fb56565-6708-44f9-aab3-cd4d038eca59"},"vehicle_type_id":"4","last_reported":1727197699,"current_range_meters":8000,"station_id":"ce4bhbp2rcd13ifvqerg","pricing_plan_id":"cebpf4jnsgd1na2vs0mg"},{"bike_id":"28e64d8f-faff-4ba9-ac34-1c815ad9b58e","system_id":"levelo_inurba_marseille","lat":43.29557,"lon":5.42292,"is_reserved":false,"is_disabled":false,"rental_uris":{"android":"levelo://app?vid=28e64d8f-faff-4ba9-ac34-1c815ad9b58e","ios":"levelo://app?vid=28e64d8f-faff-4ba9-ac34-1c815ad9b58e"},"vehicle_type_id":"4","last_reported":1727197699,"current_range_meters":10800,"station_id":"ce4bhph2rcd13ifvqhdg","pricing_plan_id":"cebpf4jnsgd1na2vs0mg"},{"bike_id":"6f0982c5-31a8-40f7-8039-21dea6a0b8ae","system_id":"levelo_inurba_marseille","lat":43.23061,"lon":5.35493,"is_reserved":false,"is_disabled":false,"rental_uris":{"android":"levelo://app?vid=6f0982c5-31a8-40f7-8039-21dea6a0b8ae","ios":"levelo://app?vid=6f0982c5-31a8-40f7-8039-21dea6a0b8ae"},"vehicle_type_id":"4","last_reported":1727197699,"current_range_meters":8000,"station_id":"cpo3342slgdg3j2ifvpg","pricing_plan_id":"cebpf4jnsgd1na2vs0mg"},{"bike_id":"e3d8882f-4011-45a7-87c7-4f5b01dd120d","system_id":"levelo_inurba_marseille","lat":43.27366,"lon":5.3626,"is_reserved":false,"is_disabled":false,"rental_uris":{"android":"levelo://app?vid=e3d8882f-4011-45a7-87c7-4f5b01dd120d","ios":"levelo://app?vid=e3d8882f-4011-45a7-87c7-4f5b01dd120d"},"vehicle_type_id":"4","last_reported":1727197699,"current_range_meters":9600,"station_id":"ce4bhbh2rcd13ifvqeo0","pricing_plan_id":"cebpf4jnsgd1na2vs0mg"},{"bike_id":"7483848f-1fd1-49f6-8cfd-eb587be040ef","system_id":"levelo_inurba_marseille","lat":43.27997,"lon":5.400092,"is_reserved":false,"is_disabled":false,"rental_uris":{"android":"levelo://app?vid=7483848f-1fd1-49f6-8cfd-eb587be040ef","ios":"levelo://app?vid=7483848f-1fd1-49f6-8cfd-eb587be040ef"},"vehicle_type_id":"4","last_reported":1727197699,"current_range_meters":39200,"station_id":"ce4bho12rcd13ifvqh2g","pricing_plan_id":"cebpf4jnsgd1na2vs0mg"},{"bike_id":"eead70c3-caf7-41a7-8175-9208ed99f051","system_id":"levelo_inurba_marseille","lat":43.30355,"lon":5.41888,"is_reserved":false,"is_disabled":false,"rental_uris":{"android":"levelo://app?vid=eead70c3-caf7-41a7-8175-9208ed99f051","ios":"levelo://app?vid=eead70c3-caf7-41a7-8175-9208ed99f051"},"vehicle_type_id":"4","last_reported":1727197699,"current_range_meters":8800,"station_id":"ce4bhop2rcd13ifvqh7g","pricing_plan_id":"cebpf4jnsgd1na2vs0mg"},{"bike_id":"be2028c8-dff4-4fc4-9730-036220b1db33","system_id":"levelo_inurba_marseille","lat":43.29921,"lon":5.38597,"is_reserved":false,"is_disabled":false,"rental_uris":{"android":"levelo://app?vid=be2028c8-dff4-4fc4-9730-036220b1db33","ios":"levelo://app?vid=be2028c8-dff4-4fc4-9730-036220b1db33"},"vehicle_type_id":"4","last_reported":1727197699,"current_range_meters":34800,"station_id":"","pricing_plan_id":"cebpf4jnsgd1na2vs0mg"},{"bike_id":"5f5dfa34-35fc-4945-b75e-5583132407dc","system_id":"levelo_inurba_marseille","lat":43.29635,"lon":5.40602,"is_reserved":false,"is_disabled":false,"rental_uris":{"android":"levelo://app?vid=5f5dfa34-35fc-4945-b75e-5583132407dc","ios":"levelo://app?vid=5f5dfa34-35fc-4945-b75e-5583132407dc"},"vehicle_type_id":"4","last_reported":1727197699,"current_range_meters":3200,"station_id":"ce4bh0h2rcd13ifvqd60","pricing_plan_id":"cebpf4jnsgd1na2vs0mg"},{"bike_id":"295700c1-0152-458e-aaa0-d1ef6a96baba","system_id":"levelo_inurba_marseille","lat":43.29423,"lon":5.38631,"is_reserved":false,"is_disabled":false,"rental_uris":{"android":"levelo://app?vid=295700c1-0152-458e-aaa0-d1ef6a96baba","ios":"levelo://app?vid=295700c1-0152-458e-aaa0-d1ef6a96baba"},"vehicle_type_id":"4","last_reported":1727197699,"current_range_meters":9200,"station_id":"ce4bh2h2rcd13ifvqdh0","pricing_plan_id":"cebpf4jnsgd1na2vs0mg"},{"bike_id":"f1bf3f0b-5fc6-4307-b0ea-5f4b216e8f5a","system_id":"levelo_inurba_marseille","lat":43.23192,"lon":5.35545,"is_reserved":false,"is_disabled":false,"rental_uris":{"android":"levelo://app?vid=f1bf3f0b-5fc6-4307-b0ea-5f4b216e8f5a","ios":"levelo://app?vid=f1bf3f0b-5fc6-4307-b0ea-5f4b216e8f5a"},"vehicle_type_id":"4","last_reported":1727197699,"current_range_meters":40000,"station_id":"ce4bhu92rcd13ifvqi70","pricing_plan_id":"cebpf4jnsgd1na2vs0mg"},{"bike_id":"7700d58a-c3b6-429f-9157-883db9599f72","system_id":"levelo_inurba_marseille","lat":43.28465,"lon":5.35899,"is_reserved":false,"is_disabled":false,"rental_uris":{"android":"levelo://app?vid=7700d58a-c3b6-429f-9157-883db9599f72","ios":"levelo://app?vid=7700d58a-c3b6-429f-9157-883db9599f72"},"vehicle_type_id":"4","last_reported":1727197699,"current_range_meters":18800,"station_id":"ce4bhah2rcd13ifvqei0","pricing_plan_id":"cebpf4jnsgd1na2vs0mg"},{"bike_id":"ed9fb978-00ec-4d2b-9018-4d2bad1bbe44","system_id":"levelo_inurba_marseille","lat":43.32355,"lon":5.38897,"is_reserved":false,"is_disabled":false,"rental_uris":{"android":"levelo://app?vid=ed9fb978-00ec-4d2b-9018-4d2bad1bbe44","ios":"levelo://app?vid=ed9fb978-00ec-4d2b-9018-4d2bad1bbe44"},"vehicle_type_id":"4","last_reported":1727197699,"current_range_meters":30800,"station_id":"ce4bhqp2rcd13ifvqhog","pricing_plan_id":"cebpf4jnsgd1na2vs0mg"},{"bike_id":"b856784d-662c-4848-bd16-c7869c4dd8a1","system_id":"levelo_inurba_marseille","lat":43.27377,"lon":5.36268,"is_reserved":false,"is_disabled":false,"rental_uris":{"android":"levelo://app?vid=b856784d-662c-4848-bd16-c7869c4dd8a1","ios":"levelo://app?vid=b856784d-662c-4848-bd16-c7869c4dd8a1"},"vehicle_type_id":"4","last_reported":1727197699,"current_range_meters":8800,"station_id":"ce4bhbh2rcd13ifvqeo0","pricing_plan_id":"cebpf4jnsgd1na2vs0mg"},{"bike_id":"6196cc7b-86d6-44ad-ac3b-7bc3a58dfea8","system_id":"levelo_inurba_marseille","lat":43.27901,"lon":5.38008,"is_reserved":false,"is_disabled":false,"rental_uris":{"android":"levelo://app?vid=6196cc7b-86d6-44ad-ac3b-7bc3a58dfea8","ios":"levelo://app?vid=6196cc7b-86d6-44ad-ac3b-7bc3a58dfea8"},"vehicle_type_id":"4","last_reported":1727197699,"current_range_meters":17600,"station_id":"ce4bhf92rcd13ifvqf50","pricing_plan_id":"cebpf4jnsgd1na2vs0mg"},{"bike_id":"8d7a392c-480f-465b-8e28-d9e863724f0a","system_id":"levelo_inurba_marseille","lat":43.28335,"lon":5.38102,"is_reserved":false,"is_disabled":false,"rental_uris":{"android":"levelo://app?vid=8d7a392c-480f-465b-8e28-d9e863724f0a","ios":"levelo://app?vid=8d7a392c-480f-465b-8e28-d9e863724f0a"},"vehicle_type_id":"4","last_reported":1727197699,"current_range_meters":27600,"station_id":"ce4bh412rcd13ifvqdr0","pricing_plan_id":"cebpf4jnsgd1na2vs0mg"},{"bike_id":"91bbe8fe-feda-4fe3-9e45-d6204bc41c55","system_id":"levelo_inurba_marseille","lat":43.25091,"lon":5.39528,"is_reserved":false,"is_disabled":false,"rental_uris":{"android":"levelo://app?vid=91bbe8fe-feda-4fe3-9e45-d6204bc41c55","ios":"levelo://app?vid=91bbe8fe-feda-4fe3-9e45-d6204bc41c55"},"vehicle_type_id":"4","last_reported":1727197699,"current_range_meters":10000,"station_id":"ce4bhm12rcd13ifvqgkg","pricing_plan_id":"cebpf4jnsgd1na2vs0mg"},{"bike_id":"a2788f44-919b-412d-bc91-dd253920415e","system_id":"levelo_inurba_marseille","lat":43.29552,"lon":5.42286,"is_reserved":false,"is_disabled":false,"rental_uris":{"android":"levelo://app?vid=a2788f44-919b-412d-bc91-dd253920415e","ios":"levelo://app?vid=a2788f44-919b-412d-bc91-dd253920415e"},"vehicle_type_id":"4","last_reported":1727197699,"current_range_meters":17200,"station_id":"ce4bhph2rcd13ifvqhdg","pricing_plan_id":"cebpf4jnsgd1na2vs0mg"},{"bike_id":"bfbd7ce3-57c8-4c62-aaa8-52c7c05e68d8","system_id":"levelo_inurba_marseille","lat":43.337444,"lon":5.374475,"is_reserved":false,"is_disabled":false,"rental_uris":{"android":"levelo://app?vid=bfbd7ce3-57c8-4c62-aaa8-52c7c05e68d8","ios":"levelo://app?vid=bfbd7ce3-57c8-4c62-aaa8-52c7c05e68d8"},"vehicle_type_id":"4","last_reported":1727197699,"current_range_meters":16800,"station_id":"","pricing_plan_id":"cebpf4jnsgd1na2vs0mg"},{"bike_id":"cc4a9ff0-6d4b-4415-9c13-4ff1c54eadd6","system_id":"levelo_inurba_marseille","lat":43.27071,"lon":5.42282,"is_reserved":false,"is_disabled":false,"rental_uris":{"android":"levelo://app?vid=cc4a9ff0-6d4b-4415-9c13-4ff1c54eadd6","ios":"levelo://app?vid=cc4a9ff0-6d4b-4415-9c13-4ff1c54eadd6"},"vehicle_type_id":"4","last_reported":1727197699,"current_range_meters":9200,"station_id":"ce4bhk92rcd13ifvqgb0","pricing_plan_id":"cebpf4jnsgd1na2vs0mg"},{"bike_id":"3a7eb840-3bbc-44ae-bc88-6d37c5430e11","system_id":"levelo_inurba_marseille","lat":43.33721,"lon":5.39189,"is_reserved":false,"is_disabled":false,"rental_uris":{"android":"levelo://app?vid=3a7eb840-3bbc-44ae-bc88-6d37c5430e11","ios":"levelo://app?vid=3a7eb840-3bbc-44ae-bc88-6d37c5430e11"},"vehicle_type_id":"4","last_reported":1727197699,"current_range_meters":15200,"station_id":"ce4bhr92rcd13ifvqhsg","pricing_plan_id":"cebpf4jnsgd1na2vs0mg"},{"bike_id":"095fcd16-2ca6-45ff-9341-42e6fea5d89d","system_id":"levelo_inurba_marseille","lat":43.26934,"lon":5.40266,"is_reserved":false,"is_disabled":false,"rental_uris":{"android":"levelo://app?vid=095fcd16-2ca6-45ff-9341-42e6fea5d89d","ios":"levelo://app?vid=095fcd16-2ca6-45ff-9341-42e6fea5d89d"},"vehicle_type_id":"4","last_reported":1727197699,"current_range_meters":22800,"station_id":"cjm6bp8fraef2m0cb0m0","pricing_plan_id":"cebpf4jnsgd1na2vs0mg"},{"bike_id":"ed0e6d45-590c-4e81-9722-31b19121501a","system_id":"levelo_inurba_marseille","lat":43.29276,"lon":5.40119,"is_reserved":false,"is_disabled":false,"rental_uris":{"android":"levelo://app?vid=ed0e6d45-590c-4e81-9722-31b19121501a","ios":"levelo://app?vid=ed0e6d45-590c-4e81-9722-31b19121501a"},"vehicle_type_id":"4","last_reported":1727197699,"current_range_meters":2800,"station_id":"ce4bh312rcd13ifvqdk0","pricing_plan_id":"cebpf4jnsgd1na2vs0mg"},{"bike_id":"cd9e2f82-a2a3-49ad-827b-abfe3f46ef0e","system_id":"levelo_inurba_marseille","lat":43.27812,"lon":5.40715,"is_reserved":false,"is_disabled":false,"rental_uris":{"android":"levelo://app?vid=cd9e2f82-a2a3-49ad-827b-abfe3f46ef0e","ios":"levelo://app?vid=cd9e2f82-a2a3-49ad-827b-abfe3f46ef0e"},"vehicle_type_id":"4","last_reported":1727197699,"current_range_meters":21600,"station_id":"ce4bhnh2rcd13ifvqgtg","pricing_plan_id":"cebpf4jnsgd1na2vs0mg"},{"bike_id":"c8eeb706-dbc9-4ffd-a344-759d467e4c78","system_id":"levelo_inurba_marseille","lat":43.31713,"lon":5.43711,"is_reserved":false,"is_disabled":false,"rental_uris":{"android":"levelo://app?vid=c8eeb706-dbc9-4ffd-a344-759d467e4c78","ios":"levelo://app?vid=c8eeb706-dbc9-4ffd-a344-759d467e4c78"},"vehicle_type_id":"4","last_reported":1727197699,"current_range_meters":10000,"station_id":"ce4bhp92rcd13ifvqhcg","pricing_plan_id":"cebpf4jnsgd1na2vs0mg"},{"bike_id":"891301ed-5352-46df-bbf0-120d1f96149f","system_id":"levelo_inurba_marseille","lat":43.30026,"lon":5.37989,"is_reserved":false,"is_disabled":false,"rental_uris":{"android":"levelo://app?vid=891301ed-5352-46df-bbf0-120d1f96149f","ios":"levelo://app?vid=891301ed-5352-46df-bbf0-120d1f96149f"},"vehicle_type_id":"4","last_reported":1727197699,"current_range_meters":18000,"station_id":"","pricing_plan_id":"cebpf4jnsgd1na2vs0mg"},{"bike_id":"eefa632d-5a41-42f3-a141-ac47d7886fc0","system_id":"levelo_inurba_marseille","lat":43.23967,"lon":5.36642,"is_reserved":false,"is_disabled":false,"rental_uris":{"android":"levelo://app?vid=eefa632d-5a41-42f3-a141-ac47d7886fc0","ios":"levelo://app?vid=eefa632d-5a41-42f3-a141-ac47d7886fc0"},"vehicle_type_id":"4","last_reported":1727197699,"current_range_meters":16000,"station_id":"ce4bhi12rcd13ifvqfp0","pricing_plan_id":"cebpf4jnsgd1na2vs0mg"},{"bike_id":"d2d6b265-3b76-4043-92c9-2c92fb1182db","system_id":"levelo_inurba_marseille","lat":43.27944,"lon":5.4105,"is_reserved":false,"is_disabled":false,"rental_uris":{"android":"levelo://app?vid=d2d6b265-3b76-4043-92c9-2c92fb1182db","ios":"levelo://app?vid=d2d6b265-3b76-4043-92c9-2c92fb1182db"},"vehicle_type_id":"4","last_reported":1727197699,"current_range_meters":12000,"station_id":"ce4bhnp2rcd13ifvqh0g","pricing_plan_id":"cebpf4jnsgd1na2vs0mg"},{"bike_id":"79a35a6d-fa9b-4b3c-b1de-266695189051","system_id":"levelo_inurba_marseille","lat":43.2926,"lon":5.38438,"is_reserved":false,"is_disabled":false,"rental_uris":{"android":"levelo://app?vid=79a35a6d-fa9b-4b3c-b1de-266695189051","ios":"levelo://app?vid=79a35a6d-fa9b-4b3c-b1de-266695189051"},"vehicle_type_id":"4","last_reported":1727197699,"current_range_meters":21600,"station_id":"ce4bguh2rcd13ifvqckg","pricing_plan_id":"cebpf4jnsgd1na2vs0mg"},{"bike_id":"6395827d-3e69-49fc-8bb0-864d1d54123d","system_id":"levelo_inurba_marseille","lat":43.26954,"lon":5.38622,"is_reserved":false,"is_disabled":false,"rental_uris":{"android":"levelo://app?vid=6395827d-3e69-49fc-8bb0-864d1d54123d","ios":"levelo://app?vid=6395827d-3e69-49fc-8bb0-864d1d54123d"},"vehicle_type_id":"4","last_reported":1727197699,"current_range_meters":6400,"station_id":"ce4bhh92rcd13ifvqfh0","pricing_plan_id":"cebpf4jnsgd1na2vs0mg"},{"bike_id":"d7861c40-12a1-4e5d-a180-ae6a0db80e6c","system_id":"levelo_inurba_marseille","lat":43.28452,"lon":5.3588,"is_reserved":false,"is_disabled":false,"rental_uris":{"android":"levelo://app?vid=d7861c40-12a1-4e5d-a180-ae6a0db80e6c","ios":"levelo://app?vid=d7861c40-12a1-4e5d-a180-ae6a0db80e6c"},"vehicle_type_id":"4","last_reported":1727197699,"current_range_meters":18800,"station_id":"ce4bhah2rcd13ifvqei0","pricing_plan_id":"cebpf4jnsgd1na2vs0mg"},{"bike_id":"4efaa5b9-c821-4c9a-84c3-a19eec64c8e1","system_id":"levelo_inurba_marseille","lat":43.284852,"lon":5.385736,"is_reserved":false,"is_disabled":false,"rental_uris":{"android":"levelo://app?vid=4efaa5b9-c821-4c9a-84c3-a19eec64c8e1","ios":"levelo://app?vid=4efaa5b9-c821-4c9a-84c3-a19eec64c8e1"},"vehicle_type_id":"4","last_reported":1727197699,"current_range_meters":32800,"station_id":"ce4bh8p2rcd13ifvqeb0","pricing_plan_id":"cebpf4jnsgd1na2vs0mg"},{"bike_id":"d23b582f-a480-4e2f-9327-2e37869fcea5","system_id":"levelo_inurba_marseille","lat":43.27374,"lon":5.36263,"is_reserved":false,"is_disabled":false,"rental_uris":{"android":"levelo://app?vid=d23b582f-a480-4e2f-9327-2e37869fcea5","ios":"levelo://app?vid=d23b582f-a480-4e2f-9327-2e37869fcea5"},"vehicle_type_id":"4","last_reported":1727197699,"current_range_meters":2800,"station_id":"ce4bhbh2rcd13ifvqeo0","pricing_plan_id":"cebpf4jnsgd1na2vs0mg"},{"bike_id":"8d597c2c-8660-4b64-a7c1-8cf37ae96ec3","system_id":"levelo_inurba_marseille","lat":43.31759,"lon":5.39023,"is_reserved":false,"is_disabled":false,"rental_uris":{"android":"levelo://app?vid=8d597c2c-8660-4b64-a7c1-8cf37ae96ec3","ios":"levelo://app?vid=8d597c2c-8660-4b64-a7c1-8cf37ae96ec3"},"vehicle_type_id":"4","last_reported":1727197699,"current_range_meters":27200,"station_id":"ce4bhqp2rcd13ifvqhng","pricing_plan_id":"cebpf4jnsgd1na2vs0mg"},{"bike_id":"3d41109e-01d4-4f20-96fc-6bd185920fe6","system_id":"levelo_inurba_marseille","lat":43.308,"lon":5.43532,"is_reserved":false,"is_disabled":false,"rental_uris":{"android":"levelo://app?vid=3d41109e-01d4-4f20-96fc-6bd185920fe6","ios":"levelo://app?vid=3d41109e-01d4-4f20-96fc-6bd185920fe6"},"vehicle_type_id":"4","last_reported":1727197699,"current_range_meters":29600,"station_id":"ce4bhph2rcd13ifvqheg","pricing_plan_id":"cebpf4jnsgd1na2vs0mg"},{"bike_id":"57d81ff8-5c29-49fd-b983-967c18c5b699","system_id":"levelo_inurba_marseille","lat":43.28613,"lon":5.35114,"is_reserved":false,"is_disabled":false,"rental_uris":{"android":"levelo://app?vid=57d81ff8-5c29-49fd-b983-967c18c5b699","ios":"levelo://app?vid=57d81ff8-5c29-49fd-b983-967c18c5b699"},"vehicle_type_id":"4","last_reported":1727197699,"current_range_meters":16400,"station_id":"ce4bhch2rcd13ifvqeug","pricing_plan_id":"cebpf4jnsgd1na2vs0mg"},{"bike_id":"0b2414d2-4a7f-4827-a498-6f11fa059276","system_id":"levelo_inurba_marseille","lat":43.26059,"lon":5.394,"is_reserved":false,"is_disabled":false,"rental_uris":{"android":"levelo://app?vid=0b2414d2-4a7f-4827-a498-6f11fa059276","ios":"levelo://app?vid=0b2414d2-4a7f-4827-a498-6f11fa059276"},"vehicle_type_id":"4","last_reported":1727197699,"current_range_meters":8800,"station_id":"ce4bhh92rcd13ifvqfj0","pricing_plan_id":"cebpf4jnsgd1na2vs0mg"},