{"last_updated":1687198119,"ttl":30,"version":"2.2","data":{"bikes":[{"bike_id":"220ffc48-6ee7-414b-93f2-56a6d4a3c8cf","system_id":"levelo_inurba_marseille","lat":43.314811,"lon":5.373103,"is_reserved":false,"is_disabled":false,"rental_uris":{"android":"levelo://app?vid=220ffc48-6ee7-414b-93f2-56a6d4a3c8cf","ios":"levelo://app?vid=220ffc48-6ee7-414b-93f2-56a6d4a3c8cf"},"vehicle_type_id":"4","last_reported":1687198120,"current_range_meters":25600,"station_id":"ce4bgt12rcd13ifvqcd0","pricing_plan_id":"free"},{"bike_id":"2fbed188-2881-472a-9468-f30fbb2c33ab","system_id":"levelo_inurba_marseille","lat":43.314811,"lon":5.373103,"is_reserved":false,"is_disabled":false,"rental_uris":{"android":"levelo://app?vid=2fbed188-2881-472a-9468-f30fbb2c33ab","ios":"levelo://app?vid=2fbed188-2881-472a-9468-f30fbb2c33ab"},"vehicle_type_id":"4","last_reported":1687198120,"current_range_meters":30000,"station_id":"ce4bgt12rcd13ifvqcd0","pricing_plan_id":"free"},{"bike_id":"477cb207-3b9a-4b04-b990-5fa6ccd3bf70","system_id":"levelo_inurba_marseille","lat":43.314811,"lon":5.373104,"is_reserved":false,"is_disabled":false,"rental_uris":{"android":"levelo://app?vid=477cb207-3b9a-4b04-b990-5fa6ccd3bf70","ios":"levelo://app?vid=477cb207-3b9a-4b04-b990-5fa6ccd3bf70"},"vehicle_type_id":"4","last_reported":1687198120,"current_range_meters":29200,"station_id":"ce4bgt12rcd13ifvqcd0","pricing_plan_id":"free"},{"bike_id":"6eb2d025-77f2-46fb-a6de-ba5fdf1407cf","system_id":"levelo_inurba_marseille","lat":43.31898,"lon":5.37318,"is_reserved":false,"is_disabled":false,"rental_uris":{"android":"levelo://app?vid=6eb2d025-77f2-46fb-a6de-ba5fdf1407cf","ios":"levelo://app?vid=6eb2d025-77f2-46fb-a6de-ba5fdf1407cf"},"vehicle_type_id":"4","last_reported":1687198120,"current_range_meters":0,"station_id":"","pricing_plan_id":"free"},{"bike_id":"c02589e0-fb1c-4dee-b1b8-beb03163884b","system_id":"levelo_inurba_marseille","lat":43.311131,"lon":5.377651,"is_reserved":false,"is_disabled":false,"rental_uris":{"android":"levelo://app?vid=c02589e0-fb1c-4dee-b1b8-beb03163884b","ios":"levelo://app?vid=c02589e0-fb1c-4dee-b1b8-beb03163884b"},"vehicle_type_id":"4","last_reported":1687198120,"current_range_meters":23200,"station_id":"ce4bgt92rcd13ifvqcg0","pricing_plan_id":"free"},{"bike_id":"c26a7043-5879-401b-b82c-0402b3514aed","system_id":"levelo_inurba_marseille","lat":43.311125,"lon":5.377624,"is_reserved":false,"is_disabled":false,"rental_uris":{"android":"levelo://app?vid=c26a7043-5879-401b-b82c-0402b3514aed","ios":"levelo://app?vid=c26a7043-5879-401b-b82c-0402b3514aed"},"vehicle_type_id":"4","last_reported":1687198120,"current_range_meters":3600,"station_id":"ce4bgt92rcd13ifvqcg0","pricing_plan_id":"free"},{"bike_id":"bb7efcb4-fba5-47ab-89df-cac5cd915867","system_id":"levelo_inurba_marseille","lat":43.311125,"lon":5.377624,"is_reserved":false,"is_disabled":false,"rental_uris":{"android":"levelo://app?vid=bb7efcb4-fba5-47ab-89df-cac5cd915867","ios":"levelo://app?vid=bb7efcb4-fba5-47ab-89df-cac5cd915867"},"vehicle_type_id":"4","last_reported":1687198120,"current_range_meters":0,"station_id":"ce4bgt92rcd13ifvqcg0","pricing_plan_id":"free"},{"bike_id":"26e80dbc-a997-4056-9eac-6c504988b688","system_id":"levelo_inurba_marseille","lat":43.311125,"lon":5.377624,"is_reserved":false,"is_disabled":false,"rental_uris":{"android":"levelo://app?vid=26e80dbc-a997-4056-9eac-6c504988b688","ios":"levelo://app?vid=26e80dbc-a997-4056-9eac-6c504988b688"},"vehicle_type_id":"4","last_reported":1687198120,"current_range_meters":0,"station_id":"ce4bgt92rcd13ifvqcg0","pricing_plan_id":"free"},{"bike_id":"4d044c9f-070b-4764-8ba9-4e7d66b13721","system_id":"levelo_inurba_marseille","lat":43.311125,"lon":5.377624,"is_reserved":false,"is_disabled":false,"rental_uris":{"android":"levelo://app?vid=4d044c9f-070b-4764-8ba9-4e7d66b13721","ios":"levelo://app?vid=4d044c9f-070b-4764-8ba9-4e7d66b13721"},"vehicle_type_id":"4","last_reported":1687198120,"current_range_meters":5600,"station_id":"ce4bgt92rcd13ifvqcg0","pricing_plan_id":"free"},{"bike_id":"e394e8a3-8395-4593-825c-5dec0d725b94","system_id":"levelo_inurba_marseille","lat":43.30969,"lon":5.37939,"is_reserved":false,"is_disabled":false,"rental_uris":{"android":"levelo://app?vid=e394e8a3-8395-4593-825c-5dec0d725b94","ios":"levelo://app?vid=e394e8a3-8395-4593-825c-5dec0d725b94"},"vehicle_type_id":"4","last_reported":1687198120,"current_range_meters":18000,"station_id":"","pricing_plan_id":"free"},{"bike_id":"42ca8b03-b89a-4548-865c-54181a7d6b09","system_id":"levelo_inurba_marseille","lat":43.315289,"lon":5.380349,"is_reserved":false,"is_disabled":false,"rental_uris":{"android":"levelo://app?vid=42ca8b03-b89a-4548-865c-54181a7d6b09","ios":"levelo://app?vid=42ca8b03-b89a-4548-865c-54181a7d6b09"},"vehicle_type_id":"4","last_reported":1687198120,"current_range_meters":12400,"station_id":"ce4bhsp2rcd13ifvqi50","pricing_plan_id":"free"},{"bike_id":"28c906fd-ae46-485e-8f81-ba6b6a7f661f","system_id":"levelo_inurba_marseille","lat":43.328371,"lon":5.366909,"is_reserved":false,"is_disabled":false,"rental_uris":{"android":"levelo://app?vid=28c906fd-ae46-485e-8f81-ba6b6a7f661f","ios":"levelo://app?vid=28c906fd-ae46-485e-8f81-ba6b6a7f661f"},"vehicle_type_id":"4","last_reported":1687198120,"current_range_meters":1200,"station_id":"ce4bhs92rcd13ifvqi0g","pricing_plan_id":"free"},{"bike_id":"ae33307b-fcd5-479b-9ae1-9002ed226c6e","system_id":"levelo_inurba_marseille","lat":43.308012,"lon":5.381511,"is_reserved":false,"is_disabled":false,"rental_uris":{"android":"levelo://app?vid=ae33307b-fcd5-479b-9ae1-9002ed226c6e","ios":"levelo://app?vid=ae33307b-fcd5-479b-9ae1-9002ed226c6e"},"vehicle_type_id":"4","last_reported":1687198120,"current_range_meters":24000,"station_id":"ce4bgt12rcd13ifvqce0","pricing_plan_id":"free"},{"bike_id":"65c7b2db-0ef7-4508-bdf3-9c1f60b7f1c4","system_id":"levelo_inurba_marseille","lat":43.30799,"lon":5.38156,"is_reserved":false,"is_disabled":false,"rental_uris":{"android":"levelo://app?vid=65c7b2db-0ef7-4508-bdf3-9c1f60b7f1c4","ios":"levelo://app?vid=65c7b2db-0ef7-4508-bdf3-9c1f60b7f1c4"},"vehicle_type_id":"4","last_reported":1687198120,"current_range_meters":2000,"station_id":"ce4bgt12rcd13ifvqce0","pricing_plan_id":"free"},{"bike_id":"b9365dc1-202b-4f52-8919-619de8f643e1","system_id":"levelo_inurba_marseille","lat":43.304606,"lon":5.379026,"is_reserved":false,"is_disabled":false,"rental_uris":{"android":"levelo://app?vid=b9365dc1-202b-4f52-8919-619de8f643e1","ios":"levelo://app?vid=b9365dc1-202b-4f52-8919-619de8f643e1"},"vehicle_type_id":"4","last_reported":1687198120,"current_range_meters":28400,"station_id":"ce4bgup2rcd13ifvqcn0","pricing_plan_id":"free"},{"bike_id":"43fc693e-f2a9-4aec-8fd9-d094bb02cb70","system_id":"levelo_inurba_marseille","lat":43.304606,"lon":5.379026,"is_reserved":false,"is_disabled":false,"rental_uris":{"android":"levelo://app?vid=43fc693e-f2a9-4aec-8fd9-d094bb02cb70","ios":"levelo://app?vid=43fc693e-f2a9-4aec-8fd9-d094bb02cb70"},"vehicle_type_id":"4","last_reported":1687198120,"current_range_meters":12800,"station_id":"ce4bgup2rcd13ifvqcn0","pricing_plan_id":"free"},{"bike_id":"e251509e-7369-4d5d-900b-a1bcf106392e","system_id":"levelo_inurba_marseille","lat":43.301429,"lon":5.37413,"is_reserved":false,"is_disabled":false,"rental_uris":{"android":"levelo://app?vid=e251509e-7369-4d5d-900b-a1bcf106392e","ios":"levelo://app?vid=e251509e-7369-4d5d-900b-a1bcf106392e"},"vehicle_type_id":"4","last_reported":1687198120,"current_range_meters":19200,"station_id":"ce4bgs92rcd13ifvqcc0","pricing_plan_id":"free"},{"bike_id":"2ce6183e-7766-4988-9a52-9f1c8e856575","system_id":"levelo_inurba_marseille","lat":43.313571,"lon":5.384829,"is_reserved":false,"is_disabled":false,"rental_uris":{"android":"levelo://app?vid=2ce6183e-7766-4988-9a52-9f1c8e856575","ios":"levelo://app?vid=2ce6183e-7766-4988-9a52-9f1c8e856575"},"vehicle_type_id":"4","last_reported":1687198120,"current_range_meters":3600,"station_id":"ce4bgt92rcd13ifvqcf0","pricing_plan_id":"free"},{"bike_id":"1d349b10-2a08-46b8-9b78-3c872aa2b6ea","system_id":"levelo_inurba_marseille","lat":43.313571,"lon":5.384829,"is_reserved":false,"is_disabled":false,"rental_uris":{"android":"levelo://app?vid=1d349b10-2a08-46b8-9b78-3c872aa2b6ea","ios":"levelo://app?vid=1d349b10-2a08-46b8-9b78-3c872aa2b6ea"},"vehicle_type_id":"4","last_reported":1687198120,"current_range_meters":11200,"station_id":"ce4bgt92rcd13ifvqcf0","pricing_plan_id":"free"},{"bike_id":"96da26d5-8963-4309-b708-0b621f9ea6ea","system_id":"levelo_inurba_marseille","lat":43.313571,"lon":5.384829,"is_reserved":false,"is_disabled":false,"rental_uris":{"android":"levelo://app?vid=96da26d5-8963-4309-b708-0b621f9ea6ea","ios":"levelo://app?vid=96da26d5-8963-4309-b708-0b621f9ea6ea"},"vehicle_type_id":"4","last_reported":1687198120,"current_range_meters":0,"station_id":"ce4bgt92rcd13ifvqcf0","pricing_plan_id":"free"},{"bike_id":"88891ba8-b823-4940-ae8b-8c5976032a51","system_id":"levelo_inurba_marseille","lat":43.32626,"lon":5.36747,"is_reserved":false,"is_disabled":false,"rental_uris":{"android":"levelo://app?vid=88891ba8-b823-4940-ae8b-8c5976032a51","ios":"levelo://app?vid=88891ba8-b823-4940-ae8b-8c5976032a51"},"vehicle_type_id":"4","last_reported":1687198120,"current_range_meters":23200,"station_id":"","pricing_plan_id":"free"},{"bike_id":"8c36a403-105d-454f-9b4d-de3a6095102f","system_id":"levelo_inurba_marseille","lat":43.328371,"lon":5.366909,"is_reserved":false,"is_disabled":false,"rental_uris":{"android":"levelo://app?vid=8c36a403-105d-454f-9b4d-de3a6095102f","ios":"levelo://app?vid=8c36a403-105d-454f-9b4d-de3a6095102f"},"vehicle_type_id":"4","last_reported":1687198120,"current_range_meters":10800,"station_id":"ce4bhs92rcd13ifvqi0g","pricing_plan_id":"free"},{"bike_id":"832e1273-fa14-42aa-b411-4f520f45589b","system_id":"levelo_inurba_marseille","lat":43.328371,"lon":5.366909,"is_reserved":false,"is_disabled":false,"rental_uris":{"android":"levelo://app?vid=832e1273-fa14-42aa-b411-4f520f45589b","ios":"levelo://app?vid=832e1273-fa14-42aa-b411-4f520f45589b"},"vehicle_type_id":"4","last_reported":1687198120,"current_range_meters":12000,"station_id":"ce4bhs92rcd13ifvqi0g","pricing_plan_id":"free"},{"bike_id":"2a4c1dc3-4e3c-4ab9-bb46-5e19f27e0907","system_id":"levelo_inurba_marseille","lat":43.328371,"lon":5.366909,"is_reserved":false,"is_disabled":false,"rental_uris":{"android":"levelo://app?vid=2a4c1dc3-4e3c-4ab9-bb46-5e19f27e0907","ios":"levelo://app?vid=2a4c1dc3-4e3c-4ab9-bb46-5e19f27e0907"},"vehicle_type_id":"4","last_reported":1687198120,"current_range_meters":16400,"station_id":"ce4bhs92rcd13ifvqi0g","pricing_plan_id":"free"},{"bike_id":"f5c7f8b6-0397-45cd-aaf7-282381eb2475","system_id":"levelo_inurba_marseille","lat":43.29706,"lon":5.36617,"is_reserved":false,"is_disabled":false,"rental_uris":{"android":"levelo://app?vid=f5c7f8b6-0397-45cd-aaf7-282381eb2475","ios":"levelo://app?vid=f5c7f8b6-0397-45cd-aaf7-282381eb2475"},"vehicle_type_id":"4","last_reported":1687198120,"current_range_meters":30000,"station_id":"","pricing_plan_id":"free"},{"bike_id":"176f4894-d7fc-460e-aa5d-7c8c1e206dc3","system_id":"levelo_inurba_marseille","lat":43.29704,"lon":5.3662,"is_reserved":false,"is_disabled":false,"rental_uris":{"android":"levelo://app?vid=176f4894-d7fc-460e-aa5d-7c8c1e206dc3","ios":"levelo://app?vid=176f4894-d7fc-460e-aa5d-7c8c1e206dc3"},"vehicle_type_id":"4","last_reported":1687198120,"current_range_meters":28400,"station_id":"","pricing_plan_id":"free"},{"bike_id":"dfb89c83-b1d8-4912-a602-c1e4df1fcb70","system_id":"levelo_inurba_marseille","lat":43.29675,"lon":5.37276,"is_reserved":false,"is_disabled":false,"rental_uris":{"android":"levelo://app?vid=dfb89c83-b1d8-4912-a602-c1e4df1fcb70","ios":"levelo://app?vid=dfb89c83-b1d8-4912-a602-c1e4df1fcb70"},"vehicle_type_id":"4","last_reported":1687198120,"current_range_meters":22400,"station_id":"ce4bgk12rcd13ifvqbj0","pricing_plan_id":"free"},{"bike_id":"702a9da0-1ac3-4753-93c0-30dd564db13e","system_id":"levelo_inurba_marseille","lat":43.303672,"lon":5.386227,"is_reserved":false,"is_disabled":false,"rental_uris":{"android":"levelo://app?vid=702a9da0-1ac3-4753-93c0-30dd564db13e","ios":"levelo://app?vid=702a9da0-1ac3-4753-93c0-30dd564db13e"},"vehicle_type_id":"4","last_reported":1687198120,"current_range_meters":27200,"station_id":"","pricing_plan_id":"free"},{"bike_id":"24f41ca5-b432-4feb-a0c8-a15026b97306","system_id":"levelo_inurba_marseille","lat":43.296131,"lon":5.370773,"is_reserved":false,"is_disabled":false,"rental_uris":{"android":"levelo://app?vid=24f41ca5-b432-4feb-a0c8-a15026b97306","ios":"levelo://app?vid=24f41ca5-b432-4feb-a0c8-a15026b97306"},"vehicle_type_id":"4","last_reported":1687198120,"current_range_meters":7600,"station_id":"ce4bgnh2rcd13ifvqc0g","pricing_plan_id":"free"},{"bike_id":"331b6937-fa93-495c-a1fd-384caf105e0c","system_id":"levelo_inurba_marseille","lat":43.299028,"lon":5.381509,"is_reserved":false,"is_disabled":false,"rental_uris":{"android":"levelo://app?vid=331b6937-fa93-495c-a1fd-384caf105e0c","ios":"levelo://app?vid=331b6937-fa93-495c-a1fd-384caf105e0c"},"vehicle_type_id":"4","last_reported":1687198120,"current_range_meters":10400,"station_id":"ce4bgj12rcd13ifvqbc0","pricing_plan_id":"free"},{"bike_id":"b5c9b367-bf87-4704-9ae1-97b3ce8adfed","system_id":"levelo_inurba_marseille","lat":43.309589,"lon":5.390258,"is_reserved":false,"is_disabled":false,"rental_uris":{"android":"levelo://app?vid=b5c9b367-bf87-4704-9ae1-97b3ce8adfed","ios":"levelo://app?vid=b5c9b367-bf87-4704-9ae1-97b3ce8adfed"},"vehicle_type_id":"4","last_reported":1687198120,"current_range_meters":0,"station_id":"ce4bgup2rcd13ifvqco0","pricing_plan_id":"free"},{"bike_id":"b9ee4170-0d84-4e12-bc8b-06efe74d2d32","system_id":"levelo_inurba_marseille","lat":43.309589,"lon":5.390258,"is_reserved":false,"is_disabled":false,"rental_uris":{"android":"levelo://app?vid=b9ee4170-0d84-4e12-bc8b-06efe74d2d32","ios":"levelo://app?vid=b9ee4170-0d84-4e12-bc8b-06efe74d2d32"},"vehicle_type_id":"4","last_reported":1687198120,"current_range_meters":1200,"station_id":"ce4bgup2rcd13ifvqco0","pricing_plan_id":"free"},{"bike_id":"734ce217-e6fb-41df-bb44-4b53bd35a53a","system_id":"levelo_inurba_marseille","lat":43.317557,"lon":5.390173,"is_reserved":false,"is_disabled":false,"rental_uris":{"android":"levelo://app?vid=734ce217-e6fb-41df-bb44-4b53bd35a53a","ios":"levelo://app?vid=734ce217-e6fb-41df-bb44-4b53bd35a53a"},"vehicle_type_id":"4","last_reported":1687198120,"current_range_meters":3200,"station_id":"ce4bhqp2rcd13ifvqhng","pricing_plan_id":"free"},{"bike_id":"5e40a05d-11b0-4724-a677-0b8186b76417","system_id":"levelo_inurba_marseille","lat":43.317557,"lon":5.390173,"is_reserved":false,"is_disabled":false,"rental_uris":{"android":"levelo://app?vid=5e40a05d-11b0-4724-a677-0b8186b76417","ios":"levelo://app?vid=5e40a05d-11b0-4724-a677-0b8186b76417"},"vehicle_type_id":"4","last_reported":1687198120,"current_range_meters":10400,"station_id":"ce4bhqp2rcd13ifvqhng","pricing_plan_id":"free"},{"bike_id":"fc9d606e-3277-4aba-84e5-aebfee91689f","system_id":"levelo_inurba_marseille","lat":43.298,"lon":5.3807,"is_reserved":false,"is_disabled":false,"rental_uris":{"android":"levelo://app?vid=fc9d606e-3277-4aba-84e5-aebfee91689f","ios":"levelo://app?vid=fc9d606e-3277-4aba-84e5-aebfee91689f"},"vehicle_type_id":"4","last_reported":1687198120,"current_range_meters":31200,"station_id":"","pricing_plan_id":"free"},{"bike_id":"5f74662f-5b6c-4ccc-88a7-4c83743f741c","system_id":"levelo_inurba_marseille","lat":43.297966,"lon":5.380732,"is_reserved":false,"is_disabled":false,"rental_uris":{"android":"levelo://app?vid=5f74662f-5b6c-4ccc-88a7-4c83743f741c","ios":"levelo://app?vid=5f74662f-5b6c-4ccc-88a7-4c83743f741c"},"vehicle_type_id":"4","last_reported":1687198120,"current_range_meters":31200,"station_id":"ce4bgip2rcd13ifvqbb0","pricing_plan_id":"free"},{"bike_id":"9ab1fffb-2d64-4d9f-bfe0-4c4857dc223d","system_id":"levelo_inurba_marseille","lat":43.2979,"lon":5.38076,"is_reserved":false,"is_disabled":false,"rental_uris":{"android":"levelo://app?vid=9ab1fffb-2d64-4d9f-bfe0-4c4857dc223d","ios":"levelo://app?vid=9ab1fffb-2d64-4d9f-bfe0-4c4857dc223d"},"vehicle_type_id":"4","last_reported":1687198120,"current_range_meters":28000,"station_id":"","pricing_plan_id":"free"},{"bike_id":"6081c3d6-ef7b-4860-ab97-620d85c8f00c","system_id":"levelo_inurba_marseille","lat":43.295761,"lon":5.375029,"is_reserved":false,"is_disabled":false,"rental_uris":{"android":"levelo://app?vid=6081c3d6-ef7b-4860-ab97-620d85c8f00c","ios":"levelo://app?vid=6081c3d6-ef7b-4860-ab97-620d85c8f00c"},"vehicle_type_id":"4","last_reported":1687198120,"current_range_meters":12400,"station_id":"","pricing_plan_id":"free"},{"bike_id":"e9d31359-7851-4abb-bdc4-03fa9e2682d2","system_id":"levelo_inurba_marseille","lat":43.29792,"lon":5.38092,"is_reserved":false,"is_disabled":false,"rental_uris":{"android":"levelo://app?vid=e9d31359-7851-4abb-bdc4-03fa9e2682d2","ios":"levelo://app?vid=e9d31359-7851-4abb-bdc4-03fa9e2682d2"},"vehicle_type_id":"4","last_reported":1687198120,"current_range_meters":31200,"station_id":"ce4bgip2rcd13ifvqbb0","pricing_plan_id":"free"},{"bike_id":"250c8a96-8498-4211-b8f3-1b00a8d1fbaf","system_id":"levelo_inurba_marseille","lat":43.296477,"lon":5.37768,"is_reserved":false,"is_disabled":false,"rental_uris":{"android":"levelo://app?vid=250c8a96-8498-4211-b8f3-1b00a8d1fbaf","ios":"levelo://app?vid=250c8a96-8498-4211-b8f3-1b00a8d1fbaf"},"vehicle_type_id":"4","last_reported":1687198120,"current_range_meters":8000,"station_id":"","pricing_plan_id":"free"},{"bike_id":"10c2d7a0-75db-49d3-b3e9-91cae4fba7b7","system_id":"levelo_inurba_marseille","lat":43.30421,"lon":5.38882,"is_reserved":false,"is_disabled":false,"rental_uris":{"android":"levelo://app?vid=10c2d7a0-75db-49d3-b3e9-91cae4fba7b7","ios":"levelo://app?vid=10c2d7a0-75db-49d3-b3e9-91cae4fba7b7"},"vehicle_type_id":"4","last_reported":1687198120,"current_range_meters":16800,"station_id":"ce4bgk12rcd13ifvqbi0","pricing_plan_id":"free"},{"bike_id":"8569647c-4137-4c90-bc05-48edf298f59e","system_id":"levelo_inurba_marseille","lat":43.304274,"lon":5.388873,"is_reserved":false,"is_disabled":false,"rental_uris":{"android":"levelo://app?vid=8569647c-4137-4c90-bc05-48edf298f59e","ios":"levelo://app?vid=8569647c-4137-4c90-bc05-48edf298f59e"},"vehicle_type_id":"4","last_reported":1687198120,"current_range_meters":0,"station_id":"ce4bgk12rcd13ifvqbi0","pricing_plan_id":"free"},{"bike_id":"1660ceee-84f2-4b8a-8fd1-26618a4f1377","system_id":"levelo_inurba_marseille","lat":43.311722,"lon":5.387247,"is_reserved":false,"is_disabled":false,"rental_uris":{"android":"levelo://app?vid=1660ceee-84f2-4b8a-8fd1-26618a4f1377","ios":"levelo://app?vid=1660ceee-84f2-4b8a-8fd1-26618a4f1377"},"vehicle_type_id":"4","last_reported":1687198120,"current_range_meters":18000,"station_id":"ce4bgv12rcd13ifvqcp0","pricing_plan_id":"free"},{"bike_id":"eb56f040-d7e3-440c-9d05-82afe187dd21","system_id":"levelo_inurba_marseille","lat":43.299717,"lon":5.384845,"is_reserved":false,"is_disabled":false,"rental_uris":{"android":"levelo://app?vid=eb56f040-d7e3-440c-9d05-82afe187dd21","ios":"levelo://app?vid=eb56f040-d7e3-440c-9d05-82afe187dd21"},"vehicle_type_id":"4","last_reported":1687198120,"current_range_meters":30400,"station_id":"ce4bgj92rcd13ifvqbd0","pricing_plan_id":"free"},{"bike_id":"c25bbca6-334a-48c9-b2aa-c69eb97c9d81","system_id":"levelo_inurba_marseille","lat":43.32367,"lon":5.388836,"is_reserved":false,"is_disabled":false,"rental_uris":{"android":"levelo://app?vid=c25bbca6-334a-48c9-b2aa-c69eb97c9d81","ios":"levelo://app?vid=c25bbca6-334a-48c9-b2aa-c69eb97c9d81"},"vehicle_type_id":"4","last_reported":1687198120,"current_range_meters":25200,"station_id":"ce4bhqp2rcd13ifvqhog","pricing_plan_id":"free"},{"bike_id":"665dc543-31c6-44d7-a8ef-9e22bd9e9d82","system_id":"levelo_inurba_marseille","lat":43.305994,"lon":5.393687,"is_reserved":false,"is_disabled":false,"rental_uris":{"android":"levelo://app?vid=665dc543-31c6-44d7-a8ef-9e22bd9e9d82","ios":"levelo://app?vid=665dc543-31c6-44d7-a8ef-9e22bd9e9d82"},"vehicle_type_id":"4","last_reported":1687198120,"current_range_meters":1600,"station_id":"ce4bh0p2rcd13ifvqd80","pricing_plan_id":"free"},{"bike_id":"66b480a6-9947-4496-98e2-93e61a3244b4","system_id":"levelo_inurba_marseille","lat":43.305994,"lon":5.393687,"is_reserved":false,"is_disabled":false,"rental_uris":{"android":"levelo://app?vid=66b480a6-9947-4496-98e2-93e61a3244b4","ios":"levelo://app?vid=66b480a6-9947-4496-98e2-93e61a3244b4"},"vehicle_type_id":"4","last_reported":1687198120,"current_range_meters":30000,"station_id":"ce4bh0p2rcd13ifvqd80","pricing_plan_id":"free"},{"bike_id":"f96bc5ef-773a-4c29-b818-b40707fecfaa","system_id":"levelo_inurba_marseille","lat":43.305994,"lon":5.393687,"is_reserved":false,"is_disabled":false,"rental_uris":{"android":"levelo://app?vid=f96bc5ef-773a-4c29-b818-b40707fecfaa","ios":"levelo://app?vid=f96bc5ef-773a-4c29-b818-b40707fecfaa"},"vehicle_type_id":"4","last_reported":1687198120,"current_range_meters":31200,"station_id":"ce4bh0p2rcd13ifvqd80","pricing_plan_id":"free"},{"bike_id":"46384a2f-367c-40b1-96f9-a8560c572cd8","system_id":"levelo_inurba_marseille","lat":43.305994,"lon":5.393687,"is_reserved":false,"is_disabled":false,"rental_uris":{"android":"levelo://app?vid=46384a2f-367c-40b1-96f9-a8560c572cd8","ios":"levelo://app?vid=46384a2f-367c-40b1-96f9-a8560c572cd8"},"vehicle_type_id":"4","last_reported":1687198120,"current_range_meters":28400,"station_id":"ce4bh0p2rcd13ifvqd80","pricing_plan_id":"free"},{"bike_id":"be706311-2c84-4d61-b00c-a51da744be93","system_id":"levelo_inurba_marseille","lat":43.3031,"lon":5.39209,"is_reserved":false,"is_disabled":false,"rental_uris":{"android":"levelo://app?vid=be706311-2c84-4d61-b00c-a51da744be93","ios":"levelo://app?vid=be706311-2c84-4d61-b00c-a51da744be93"},"vehicle_type_id":"4","last_reported":1687198120,"current_range_meters":21200,"station_id":"ce4bgkh2rcd13ifvqbk0","pricing_plan_id":"free"},{"bike_id":"b2e84a52-43df-4406-91b0-b29705444d27","system_id":"levelo_inurba_marseille","lat":43.2923,"lon":5.36248,"is_reserved":false,"is_disabled":false,"rental_uris":{"android":"levelo://app?vid=b2e84a52-43df-4406-91b0-b29705444d27","ios":"levelo://app?vid=b2e84a52-43df-4406-91b0-b29705444d27"},"vehicle_type_id":"4","last_reported":1687198120,"current_range_meters":29600,"station_id":"","pricing_plan_id":"free"},{"bike_id":"7ee8e857-e58f-4d0f-9ec8-cf55d6494b29","system_id":"levelo_inurba_marseille","lat":43.29263,"lon":5.35972,"is_reserved":false,"is_disabled":false,"rental_uris":{"android":"levelo://app?vid=7ee8e857-e58f-4d0f-9ec8-cf55d6494b29","ios":"levelo://app?vid=7ee8e857-e58f-4d0f-9ec8-cf55d6494b29"},"vehicle_type_id":"4","last_reported":1687198120,"current_range_meters":6000,"station_id":"","pricing_plan_id":"free"},{"bike_id":"659b5d8b-1631-48ee-8cff-de6411143e1c","system_id":"levelo_inurba_marseille","lat":43.30301,"lon":5.39218,"is_reserved":false,"is_disabled":false,"rental_uris":{"android":"levelo://app?vid=659b5d8b-1631-48ee-8cff-de6411143e1c","ios":"levelo://app?vid=659b5d8b-1631-48ee-8cff-de6411143e1c"},"vehicle_type_id":"4","last_reported":1687198120,"current_range_meters":0,"station_id":"ce4bgkh2rcd13ifvqbk0","pricing_plan_id":"free"},{"bike_id":"62952215-0ed5-4f74-afd5-9506633d43c6","system_id":"levelo_inurba_marseille","lat":43.303,"lon":5.39218,"is_reserved":false,"is_disabled":false,"rental_uris":{"android":"levelo://app?vid=62952215-0ed5-4f74-afd5-9506633d43c6","ios":"levelo://app?vid=62952215-0ed5-4f74-afd5-9506633d43c6"},"vehicle_type_id":"4","last_reported":1687198120,"current_range_meters":28800,"station_id":"ce4bgkh2rcd13ifvqbk0","pricing_plan_id":"free"},{"bike_id":"d38c5de4-1b75-44fb-88b5-eb30bcdcd7d0","system_id":"levelo_inurba_marseille","lat":43.31325,"lon":5.396882,"is_reserved":false,"is_disabled":false,"rental_uris":{"android":"levelo://app?vid=d38c5de4-1b75-44fb-88b5-eb30bcdcd7d0","ios":"levelo://app?vid=d38c5de4-1b75-44fb-88b5-eb30bcdcd7d0"},"vehicle_type_id":"4","last_reported":1687198120,"current_range_meters":25200,"station_id":"","pricing_plan_id":"free"},{"bike_id":"17d953cf-8b9f-49af-b0a5-41f361e8ccd5","system_id":"levelo_inurba_marseille","lat":43.313291,"lon":5.396838,"is_reserved":false,"is_disabled":false,"rental_uris":{"android":"levelo://app?vid=17d953cf-8b9f-49af-b0a5-41f361e8ccd5","ios":"levelo://app?vid=17d953cf-8b9f-49af-b0a5-41f361e8ccd5"},"vehicle_type_id":"4","last_reported":1687198120,"current_range_meters":15600,"station_id":"ce4bgvp2rcd13ifvqcu0","pricing_plan_id":"free"},{"bike_id":"b1e729cb-80f8-4569-a4e5-a398e8767339","system_id":"levelo_inurba_marseille","lat":43.291994,"lon":5.357886,"is_reserved":false,"is_disabled":false,"rental_uris":{"android":"levelo://app?vid=b1e729cb-80f8-4569-a4e5-a398e8767339","ios":"levelo://app?vid=b1e729cb-80f8-4569-a4e5-a398e8767339"},"vehicle_type_id":"4","last_reported":1687198120,"current_range_meters":19600,"station_id":"ce4bhb12rcd13ifvqel0","pricing_plan_id":"free"},{"bike_id":"f84a845d-af50-4a67-a8e3-7540c384ebb4","system_id":"levelo_inurba_marseille","lat":43.313291,"lon":5.396838,"is_reserved":false,"is_disabled":false,"rental_uris":{"android":"levelo://app?vid=f84a845d-af50-4a67-a8e3-7540c384ebb4","ios":"levelo://app?vid=f84a845d-af50-4a67-a8e3-7540c384ebb4"},"vehicle_type_id":"4","last_reported":1687198120,"current_range_meters":5200,"station_id":"ce4bgvp2rcd13ifvqcu0","pricing_plan_id":"free"},{"bike_id":"b6694224-4300-4b6a-b83c-528008116ac4","system_id":"levelo_inurba_marseille","lat":43.309038,"lon":5.396546,"is_reserved":false,"is_disabled":false,"rental_uris":{"android":"levelo://app?vid=b6694224-4300-4b6a-b83c-528008116ac4","ios":"levelo://app?vid=b6694224-4300-4b6a-b83c-528008116ac4"},"vehicle_type_id":"4","last_reported":1687198120,"current_range_meters":4000,"station_id":"ce4bh012rcd13ifvqcv0","pricing_plan_id":"free"},{"bike_id":"9252f1f9-2017-4894-a3bb-07e89a912cb5","system_id":"levelo_inurba_marseille","lat":43.29152,"lon":5.3774,"is_reserved":false,"is_disabled":false,"rental_uris":{"android":"levelo://app?vid=9252f1f9-2017-4894-a3bb-07e89a912cb5","ios":"levelo://app?vid=9252f1f9-2017-4894-a3bb-07e89a912cb5"},"vehicle_type_id":"4","last_reported":1687198120,"current_range_meters":10000,"station_id":"","pricing_plan_id":"free"},{"bike_id":"9147ca3f-43e5-4fd1-860b-98e993a136b1","system_id":"levelo_inurba_marseille","lat":43.302008,"lon":5.394694,"is_reserved":false,"is_disabled":false,"rental_uris":{"android":"levelo://app?vid=9147ca3f-43e5-4fd1-860b-98e993a136b1","ios":"levelo://app?vid=9147ca3f-43e5-4fd1-860b-98e993a136b1"},"vehicle_type_id":"4","last_reported":1687198120,"current_range_meters":12000,"station_id":"ce4bh0p2rcd13ifvqd70","pricing_plan_id":"free"},{"bike_id":"000be868-d079-4ba8-92ca-0312f3b20857","system_id":"levelo_inurba_marseille","lat":43.290624,"lon":5.359245,"is_reserved":false,"is_disabled":false,"rental_uris":{"android":"levelo://app?vid=000be868-d079-4ba8-92ca-0312f3b20857","ios":"levelo://app?vid=000be868-d079-4ba8-92ca-0312f3b20857"},"vehicle_type_id":"4","last_reported":1687198120,"current_range_meters":30400,"station_id":"ce4bha92rcd13ifvqeg0","pricing_plan_id":"free"},{"bike_id":"a86667ea-6e8a-4380-bcb7-eda6244eb36a","system_id":"levelo_inurba_marseille","lat":43.290624,"lon":5.359245,"is_reserved":false,"is_disabled":false,"rental_uris":{"android":"levelo://app?vid=a86667ea-6e8a-4380-bcb7-eda6244eb36a","ios":"levelo://app?vid=a86667ea-6e8a-4380-bcb7-eda6244eb36a"},"vehicle_type_id":"4","last_reported":1687198120,"current_range_meters":16800,"station_id":"ce4bha92rcd13ifvqeg0","pricing_plan_id":"free"},{"bike_id":"669f56b2-196b-4188-bfcc-fd243b3b60e9","system_id":"levelo_inurba_marseille","lat":43.29032,"lon":5.35927,"is_reserved":false,"is_disabled":false,"rental_uris":{"android":"levelo://app?vid=669f56b2-196b-4188-bfcc-fd243b3b60e9","ios":"levelo://app?vid=669f56b2-196b-4188-bfcc-fd243b3b60e9"},"vehicle_type_id":"4","last_reported":1687198120,"current_range_meters":17600,"station_id":"","pricing_plan_id":"free"},{"bike_id":"5d6ad315-fe2d-4257-9740-c855270004ff","system_id":"levelo_inurba_marseille","lat":43.29032,"lon":5.35917,"is_reserved":false,"is_disabled":false,"rental_uris":{"android":"levelo://app?vid=5d6ad315-fe2d-4257-9740-c855270004ff","ios":"levelo://app?vid=5d6ad315-fe2d-4257-9740-c855270004ff"},"vehicle_type_id":"4","last_reported":1687198120,"current_range_meters":12400,"station_id":"","pricing_plan_id":"free"},{"bike_id":"ee4e5183-011d-4901-a1ae-3ecfdb8d8006","system_id":"levelo_inurba_marseille","lat":43.294153,"lon":5.386305,"is_reserved":false,"is_disabled":false,"rental_uris":{"android":"levelo://app?vid=ee4e5183-011d-4901-a1ae-3ecfdb8d8006","ios":"levelo://app?vid=ee4e5183-011d-4901-a1ae-3ecfdb8d8006"},"vehicle_type_id":"4","last_reported":1687198120,"current_range_meters":1200,"station_id":"ce4bh2h2rcd13ifvqdh0","pricing_plan_id":"free"},{"bike_id":"35c8f637-9044-4197-bdb3-14998fcee6ed","system_id":"levelo_inurba_marseille","lat":43.294162,"lon":5.386292,"is_reserved":false,"is_disabled":false,"rental_uris":{"android":"levelo://app?vid=35c8f637-9044-4197-bdb3-14998fcee6ed","ios":"levelo://app?vid=35c8f637-9044-4197-bdb3-14998fcee6ed"},"vehicle_type_id":"4","last_reported":1687198120,"current_range_meters":3600,"station_id":"ce4bh2h2rcd13ifvqdh0","pricing_plan_id":"free"},{"bike_id":"eb2fe43a-5824-480c-b605-d95bf08f2fd2","system_id":"levelo_inurba_marseille","lat":43.29038,"lon":5.37563,"is_reserved":false,"is_disabled":false,"rental_uris":{"android":"levelo://app?vid=eb2fe43a-5824-480c-b605-d95bf08f2fd2","ios":"levelo://app?vid=eb2fe43a-5824-480c-b605-d95bf08f2fd2"},"vehicle_type_id":"4","last_reported":1687198120,"current_range_meters":29200,"station_id":"ce4bh692rcd13ifvqe90","pricing_plan_id":"free"},{"bike_id":"44bb67be-0988-4eb1-a52d-0cc5eef5fb73","system_id":"levelo_inurba_marseille","lat":43.294153,"lon":5.386305,"is_reserved":false,"is_disabled":false,"rental_uris":{"android":"levelo://app?vid=44bb67be-0988-4eb1-a52d-0cc5eef5fb73","ios":"levelo://app?vid=44bb67be-0988-4eb1-a52d-0cc5eef5fb73"},"vehicle_type_id":"4","last_reported":1687198120,"current_range_meters":28800,"station_id":"ce4bh2h2rcd13ifvqdh0","pricing_plan_id":"free"},{"bike_id":"dbbb8af6-e59a-41f7-b162-bbfa220d4262","system_id":"levelo_inurba_marseille","lat":43.294162,"lon":5.386292,"is_reserved":false,"is_disabled":false,"rental_uris":{"android":"levelo://app?vid=dbbb8af6-e59a-41f7-b162-bbfa220d4262","ios":"levelo://app?vid=dbbb8af6-e59a-41f7-b162-bbfa220d4262"},"vehicle_type_id":"4","last_reported":1687198120,"current_range_meters":0,"station_id":"ce4bh2h2rcd13ifvqdh0","pricing_plan_id":"free"},{"bike_id":"ce6143bd-d172-4e49-b6ad-04ae6ca6b8e0","system_id":"levelo_inurba_marseille","lat":43.294162,"lon":5.386292,"is_reserved":false,"is_disabled":false,"rental_uris":{"android":"levelo://app?vid=ce6143bd-d172-4e49-b6ad-04ae6ca6b8e0","ios":"levelo://app?vid=ce6143bd-d172-4e49-b6ad-04ae6ca6b8e0"},"vehicle_type_id":"4","last_reported":1687198120,"current_range_meters":0,"station_id":"ce4bh2h2rcd13ifvqdh0","pricing_plan_id":"free"},{"bike_id":"0609f09b-61e5-40d1-a057-3a5b9409ddd1","system_id":"levelo_inurba_marseille","lat":43.294153,"lon":5.386305,"is_reserved":false,"is_disabled":false,"rental_uris":{"android":"levelo://app?vid=0609f09b-61e5-40d1-a057-3a5b9409ddd1","ios":"levelo://app?vid=0609f09b-61e5-40d1-a057-3a5b9409ddd1"},"vehicle_type_id":"4","last_reported":1687198120,"current_range_meters":28400,"station_id":"ce4bh2h2rcd13ifvqdh0","pricing_plan_id":"free"},{"bike_id":"b118bebd-c4e5-4cbc-b17b-5d9e0534156a","system_id":"levelo_inurba_marseille","lat":43.294162,"lon":5.386292,"is_reserved":false,"is_disabled":false,"rental_uris":{"android":"levelo://app?vid=b118bebd-c4e5-4cbc-b17b-5d9e0534156a","ios":"levelo://app?vid=b118bebd-c4e5-4cbc-b17b-5d9e0534156a"},"vehicle_type_id":"4","last_reported":1687198120,"current_range_meters":28400,"station_id":"ce4bh2h2rcd13ifvqdh0","pricing_plan_id":"free"},{"bike_id":"58a48371-534e-41e5-8459-626be01901de","system_id":"levelo_inurba_marseille","lat":43.29412,"lon":5.38624,"is_reserved":false,"is_disabled":false,"rental_uris":{"android":"levelo://app?vid=58a48371-534e-41e5-8459-626be01901de","ios":"levelo://app?vid=58a48371-534e-41e5-8459-626be01901de"},"vehicle_type_id":"4","last_reported":1687198120,"current_range_meters":800,"station_id":"ce4bh2h2rcd13ifvqdh0","pricing_plan_id":"free"},{"bike_id":"e8bfe2db-f286-4c32-b8a3-7b7eca6e0fd0","system_id":"levelo_inurba_marseille","lat":43.294162,"lon":5.386292,"is_reserved":false,"is_disabled":false,"rental_uris":{"android":"levelo://app?vid=e8bfe2db-f286-4c32-b8a3-7b7eca6e0fd0","ios":"levelo://app?vid=e8bfe2db-f286-4c32-b8a3-7b7eca6e0fd0"},"vehicle_type_id":"4","last_reported":1687198120,"current_range_meters":4400,"station_id":"ce4bh2h2rcd13ifvqdh0","pricing_plan_id":"free"},{"bike_id":"aad43379-c451-4b41-929b-493155b795df","system_id":"levelo_inurba_marseille","lat":43.294162,"lon":5.386292,"is_reserved":false,"is_disabled":false,"rental_uris":{"android":"levelo://app?vid=aad43379-c451-4b41-929b-493155b795df","ios":"levelo://app?vid=aad43379-c451-4b41-929b-493155b795df"},"vehicle_type_id":"4","last_reported":1687198120,"current_range_meters":10400,"station_id":"ce4bh2h2rcd13ifvqdh0","pricing_plan_id":"free"},{"bike_id":"2c4a5e44-cd5d-4b03-8aed-ac3cfd3e205b","system_id":"levelo_inurba_marseille","lat":43.289184,"lon":5.366408,"is_reserved":false,"is_disabled":false,"rental_uris":{"android":"levelo://app?vid=2c4a5e44-cd5d-4b03-8aed-ac3cfd3e205b","ios":"levelo://app?vid=2c4a5e44-cd5d-4b03-8aed-ac3cfd3e205b"},"vehicle_type_id":"4","last_reported":1687198120,"current_range_meters":28800,"station_id":"ce4bhap2rcd13ifvqek0","pricing_plan_id":"free"},{"bike_id":"8898698c-ee64-4592-a7a1-611429c4b134","system_id":"levelo_inurba_marseille","lat":43.289468,"lon":5.363719,"is_reserved":false,"is_disabled":false,"rental_uris":{"android":"levelo://app?vid=8898698c-ee64-4592-a7a1-611429c4b134","ios":"levelo://app?vid=8898698c-ee64-4592-a7a1-611429c4b134"},"vehicle_type_id":"4","last_reported":1687198120,"current_range_meters":24400,"station_id":"ce4bhc92rcd13ifvqetg","pricing_plan_id":"free"},{"bike_id":"38eb09af-7166-42b9-865e-84246929498f","system_id":"levelo_inurba_marseille","lat":43.292644,"lon":5.384257,"is_reserved":false,"is_disabled":false,"rental_uris":{"android":"levelo://app?vid=38eb09af-7166-42b9-865e-84246929498f","ios":"levelo://app?vid=38eb09af-7166-42b9-865e-84246929498f"},"vehicle_type_id":"4","last_reported":1687198120,"current_range_meters":31200,"station_id":"ce4bh692rcd13ifvqea0","pricing_plan_id":"free"},{"bike_id":"77ad13e7-fc05-4f6a-a5f4-dcc587d34bdd","system_id":"levelo_inurba_marseille","lat":43.29008,"lon":5.35609,"is_reserved":false,"is_disabled":false,"rental_uris":{"android":"levelo://app?vid=77ad13e7-fc05-4f6a-a5f4-dcc587d34bdd","ios":"levelo://app?vid=77ad13e7-fc05-4f6a-a5f4-dcc587d34bdd"},"vehicle_type_id":"4","last_reported":1687198120,"current_range_meters":30400,"station_id":"ce4bhb92rcd13ifvqen0","pricing_plan_id":"free"},{"bike_id":"107b6a33-6aed-45b4-87c0-63bdd650efc5","system_id":"levelo_inurba_marseille","lat":43.290103,"lon":5.356114,"is_reserved":false,"is_disabled":false,"rental_uris":{"android":"levelo://app?vid=107b6a33-6aed-45b4-87c0-63bdd650efc5","ios":"levelo://app?vid=107b6a33-6aed-45b4-87c0-63bdd650efc5"},"vehicle_type_id":"4","last_reported":1687198120,"current_range_meters":19200,"station_id":"ce4bhb92rcd13ifvqen0","pricing_plan_id":"free"},{"bike_id":"d3cbb2fd-e5ac-47b3-a2ad-8333be012c50","system_id":"levelo_inurba_marseille","lat":43.290103,"lon":5.356114,"is_reserved":false,"is_disabled":false,"rental_uris":{"android":"levelo://app?vid=d3cbb2fd-e5ac-47b3-a2ad-8333be012c50","ios":"levelo://app?vid=d3cbb2fd-e5ac-47b3-a2ad-8333be012c50"},"vehicle_type_id":"4","last_reported":1687198120,"current_range_meters":22000,"station_id":"ce4bhb92rcd13ifvqen0","pricing_plan_id":"free"},{"bike_id":"3bb8aa89-71fc-4466-9dd7-69fb92eae768","system_id":"levelo_inurba_marseille","lat":43.290995,"lon":5.381361,"is_reserved":false,"is_disabled":false,"rental_uris":{"android":"levelo://app?vid=3bb8aa89-71fc-4466-9dd7-69fb92eae768","ios":"levelo://app?vid=3bb8aa89-71fc-4466-9dd7-69fb92eae768"},"vehicle_type_id":"4","last_reported":1687198120,"current_range_meters":22400,"station_id":"ce4bh512rcd13ifvqe2g","pricing_plan_id":"free"},{"bike_id":"0a82a79a-0a19-422f-8821-c7dc4a1c374a","system_id":"levelo_inurba_marseille","lat":43.290995,"lon":5.381361,"is_reserved":false,"is_disabled":false,"rental_uris":{"android":"levelo://app?vid=0a82a79a-0a19-422f-8821-c7dc4a1c374a","ios":"levelo://app?vid=0a82a79a-0a19-422f-8821-c7dc4a1c374a"},"vehicle_type_id":"4","last_reported":1687198120,"current_range_meters":30400,"station_id":"ce4bh512rcd13ifvqe2g","pricing_plan_id":"free"},{"bike_id":"e832ffbc-7b1c-43ff-ae4a-f8ed9c50df1e","system_id":"levelo_inurba_marseille","lat":43.290995,"lon":5.381361,"is_reserved":false,"is_disabled":false,"rental_uris":{"android":"levelo://app?vid=e832ffbc-7b1c-43ff-ae4a-f8ed9c50df1e","ios":"levelo://app?vid=e832ffbc-7b1c-43ff-ae4a-f8ed9c50df1e"},"vehicle_type_id":"4","last_reported":1687198120,"current_range_meters":28800,"station_id":"ce4bh512rcd13ifvqe2g","pricing_plan_id":"free"},{"bike_id":"c326ecc8-b73d-4d38-b0d4-f33f341fac1d","system_id":"levelo_inurba_marseille","lat":43.295169,"lon":5.390426,"is_reserved":false,"is_disabled":false,"rental_uris":{"android":"levelo://app?vid=c326ecc8-b73d-4d38-b0d4-f33f341fac1d","ios":"levelo://app?vid=c326ecc8-b73d-4d38-b0d4-f33f341fac1d"},"vehicle_type_id":"4","last_reported":1687198120,"current_range_meters":3600,"station_id":"ce4bh3p2rcd13ifvqdp0","pricing_plan_id":"free"},{"bike_id":"33510915-09ce-4b3d-948a-520fc36327fb","system_id":"levelo_inurba_marseille","lat":43.295169,"lon":5.390426,"is_reserved":false,"is_disabled":false,"rental_uris":{"android":"levelo://app?vid=33510915-09ce-4b3d-948a-520fc36327fb","ios":"levelo://app?vid=33510915-09ce-4b3d-948a-520fc36327fb"},"vehicle_type_id":"4","last_reported":1687198120,"current_range_meters":10800,"station_id":"ce4bh3p2rcd13ifvqdp0","pricing_plan_id":"free"},{"bike_id":"afd9a4f9-5606-43c7-8251-1cf84c6278c3","system_id":"levelo_inurba_marseille","lat":43.2979,"lon":5.39353,"is_reserved":false,"is_disabled":false,"rental_uris":{"android":"levelo://app?vid=afd9a4f9-5606-43c7-8251-1cf84c6278c3","ios":"levelo://app?vid=afd9a4f9-5606-43c7-8251-1cf84c6278c3"},"vehicle_type_id":"4","last_reported":1687198120,"current_range_meters":8400,"station_id":"chh1huq6cuj3fo74tm60","pricing_plan_id":"free"},{"bike_id":"b9b44b37-7edf-4ab6-8685-17eb58a26dbc","system_id":"levelo_inurba_marseille","lat":43.295169,"lon":5.390426,"is_reserved":false,"is_disabled":false,"rental_uris":{"android":"levelo://app?vid=b9b44b37-7edf-4ab6-8685-17eb58a26dbc","ios":"levelo://app?vid=b9b44b37-7edf-4ab6-8685-17eb58a26dbc"},"vehicle_type_id":"4","last_reported":1687198120,"current_range_meters":31200,"station_id":"ce4bh3p2rcd13ifvqdp0","pricing_plan_id":"free"},{"bike_id":"ace4734b-0e45-46ab-bade-3aea0f72a9f1","system_id":"levelo_inurba_marseille","lat":43.29785,"lon":5.39355,"is_reserved":false,"is_disabled":false,"rental_uris":{"android":"levelo://app?vid=ace4734b-0e45-46ab-bade-3aea0f72a9f1","ios":"levelo://app?vid=ace4734b-0e45-46ab-bade-3aea0f72a9f1"},"vehicle_type_id":"4","last_reported":1687198120,"current_range_meters":19200,"station_id":"chh1huq6cuj3fo74tm60","pricing_plan_id":"free"},{"bike_id":"64453c8f-ef26-434a-851e-8ff3878897a4","system_id":"levelo_inurba_marseille","lat":43.29779,"lon":5.39356,"is_reserved":false,"is_disabled":false,"rental_uris":{"android":"levelo://app?vid=64453c8f-ef26-434a-851e-8ff3878897a4","ios":"levelo://app?vid=64453c8f-ef26-434a-851e-8ff3878897a4"},"vehicle_type_id":"4","last_reported":1687198120,"current_range_meters":12400,"station_id":"chh1huq6cuj3fo74tm60","pricing_plan_id":"free"},{"bike_id":"dbf061f2-72bf-4ade-b69a-4b731333442f","system_id":"levelo_inurba_marseille","lat":43.295169,"lon":5.390426,"is_reserved":false,"is_disabled":false,"rental_uris":{"android":"levelo://app?vid=dbf061f2-72bf-4ade-b69a-4b731333442f","ios":"levelo://app?vid=dbf061f2-72bf-4ade-b69a-4b731333442f"},"vehicle_type_id":"4","last_reported":1687198120,"current_range_meters":17200,"station_id":"ce4bh3p2rcd13ifvqdp0","pricing_plan_id":"free"},{"bike_id":"ee840612-603f-452d-8690-d1fd3c70a0d4","system_id":"levelo_inurba_marseille","lat":43.28856,"lon":5.358371,"is_reserved":false,"is_disabled":false,"rental_uris":{"android":"levelo://app?vid=ee840612-603f-452d-8690-d1fd3c70a0d4","ios":"levelo://app?vid=ee840612-603f-452d-8690-d1fd3c70a0d4"},"vehicle_type_id":"4","last_reported":1687198120,"current_range_meters":18000,"station_id":"ce4bhb12rcd13ifvqem0","pricing_plan_id":"free"},{"bike_id":"e1d2bcdd-523a-4dfc-97bd-c80cf157c34b","system_id":"levelo_inurba_marseille","lat":43.28856,"lon":5.358371,"is_reserved":false,"is_disabled":false,"rental_uris":{"android":"levelo://app?vid=e1d2bcdd-523a-4dfc-97bd-c80cf157c34b","ios":"levelo://app?vid=e1d2bcdd-523a-4dfc-97bd-c80cf157c34b"},"vehicle_type_id":"4","last_reported":1687198120,"current_range_meters":13600,"station_id":"ce4bhb12rcd13ifvqem0","pricing_plan_id":"free"},{"bike_id":"3f50ab8c-2491-42ca-8c41-5373a49ad8e9","system_id":"levelo_inurba_marseille","lat":43.28856,"lon":5.358371,"is_reserved":false,"is_disabled":false,"rental_uris":{"android":"levelo://app?vid=3f50ab8c-2491-42ca-8c41-5373a49ad8e9","ios":"levelo://app?vid=3f50ab8c-2491-42ca-8c41-5373a49ad8e9"},"vehicle_type_id":"4","last_reported":1687198120,"current_range_meters":23200,"station_id":"ce4bhb12rcd13ifvqem0","pricing_plan_id":"free"},{"bike_id":"ef0e23a3-560e-4358-9406-b3ba8a441459","system_id":"levelo_inurba_marseille","lat":43.28856,"lon":5.358371,"is_reserved":false,"is_disabled":false,"rental_uris":{"android":"levelo://app?vid=ef0e23a3-560e-4358-9406-b3ba8a441459","ios":"levelo://app?vid=ef0e23a3-560e-4358-9406-b3ba8a441459"},"vehicle_type_id":"4","last_reported":1687198120,"current_range_meters":0,"station_id":"ce4bhb12rcd13ifvqem0","pricing_plan_id":"free"},{"bike_id":"37049aa3-e019-4c68-8d41-4d2078e0b8ac","system_id":"levelo_inurba_marseille","lat":43.28856,"lon":5.358371,"is_reserved":false,"is_disabled":false,"rental_uris":{"android":"levelo://app?vid=37049aa3-e019-4c68-8d41-4d2078e0b8ac","ios":"levelo://app?vid=37049aa3-e019-4c68-8d41-4d2078e0b8ac"},"vehicle_type_id":"4","last_reported":1687198120,"current_range_meters":21200,"station_id":"ce4bhb12rcd13ifvqem0","pricing_plan_id":"free"},{"bike_id":"ffe1090a-2198-4a75-be8b-6098ed1a1e0f","system_id":"levelo_inurba_marseille","lat":43.28856,"lon":5.358371,"is_reserved":false,"is_disabled":false,"rental_uris":{"android":"levelo://app?vid=ffe1090a-2198-4a75-be8b-6098ed1a1e0f","ios":"levelo://app?vid=ffe1090a-2198-4a75-be8b-6098ed1a1e0f"},"vehicle_type_id":"4","last_reported":1687198120,"current_range_meters":6400,"station_id":"ce4bhb12rcd13ifvqem0","pricing_plan_id":"free"},{"bike_id":"fd2f6396-d6eb-4a9e-aa6d-387861434165","system_id":"levelo_inurba_marseille","lat":43.28856,"lon":5.358371,"is_reserved":false,"is_disabled":false,"rental_uris":{"android":"levelo://app?vid=fd2f6396-d6eb-4a9e-aa6d-387861434165","ios":"levelo://app?vid=fd2f6396-d6eb-4a9e-aa6d-387861434165"},"vehicle_type_id":"4","last_reported":1687198120,"current_range_meters":18800,"station_id":"ce4bhb12rcd13ifvqem0","pricing_plan_id":"free"},{"bike_id":"101497e9-751b-48f5-af1f-3e10bc05f182","system_id":"levelo_inurba_marseille","lat":43.28856,"lon":5.358371,"is_reserved":false,"is_disabled":false,"rental_uris":{"android":"levelo://app?vid=101497e9-751b-48f5-af1f-3e10bc05f182","ios":"levelo://app?vid=101497e9-751b-48f5-af1f-3e10bc05f182"},"vehicle_type_id":"4","last_reported":1687198120,"current_range_meters":6400,"station_id":"ce4bhb12rcd13ifvqem0","pricing_plan_id":"free"},{"bike_id":"c13022c2-7bc9-4ed8-a7a6-ed9ece21bf93","system_id":"levelo_inurba_marseille","lat":43.28856,"lon":5.358371,"is_reserved":false,"is_disabled":false,"rental_uris":{"android":"levelo://app?vid=c13022c2-7bc9-4ed8-a7a6-ed9ece21bf93","ios":"levelo://app?vid=c13022c2-7bc9-4ed8-a7a6-ed9ece21bf93"},"vehicle_type_id":"4","last_reported":1687198120,"current_range_meters":9600,"station_id":"ce4bhb12rcd13ifvqem0","pricing_plan_id":"free"},{"bike_id":"fb5dc900-f9f2-4729-ab17-0570d313aa16","system_id":"levelo_inurba_marseille","lat":43.28847,"lon":5.35838,"is_reserved":false,"is_disabled":false,"rental_uris":{"android":"levelo://app?vid=fb5dc900-f9f2-4729-ab17-0570d313aa16","ios":"levelo://app?vid=fb5dc900-f9f2-4729-ab17-0570d313aa16"},"vehicle_type_id":"4","last_reported":1687198120,"current_range_meters":8400,"station_id":"ce4bhb12rcd13ifvqem0","pricing_plan_id":"free"},{"bike_id":"396def44-dfd9-48d4-aeb0-a559d25546cf","system_id":"levelo_inurba_marseille","lat":43.30931,"lon":5.40136,"is_reserved":false,"is_disabled":false,"rental_uris":{"android":"levelo://app?vid=396def44-dfd9-48d4-aeb0-a559d25546cf","ios":"levelo://app?vid=396def44-dfd9-48d4-aeb0-a559d25546cf"},"vehicle_type_id":"4","last_reported":1687198120,"current_range_meters":27200,"station_id":"ce4bgvp2rcd13ifvqct0","pricing_plan_id":"free"},{"bike_id":"af662e15-832b-4533-af9d-1a4e41167610","system_id":"levelo_inurba_marseille","lat":43.309371,"lon":5.401449,"is_reserved":false,"is_disabled":false,"rental_uris":{"android":"levelo://app?vid=af662e15-832b-4533-af9d-1a4e41167610","ios":"levelo://app?vid=af662e15-832b-4533-af9d-1a4e41167610"},"vehicle_type_id":"4","last_reported":1687198120,"current_range_meters":17200,"station_id":"ce4bgvp2rcd13ifvqct0","pricing_plan_id":"free"},{"bike_id":"e006e3f1-73af-4d4d-8626-313aed5b5829","system_id":"levelo_inurba_marseille","lat":43.30927,"lon":5.40144,"is_reserved":false,"is_disabled":false,"rental_uris":{"android":"levelo://app?vid=e006e3f1-73af-4d4d-8626-313aed5b5829","ios":"levelo://app?vid=e006e3f1-73af-4d4d-8626-313aed5b5829"},"vehicle_type_id":"4","last_reported":1687198120,"current_range_meters":8400,"station_id":"ce4bgvp2rcd13ifvqct0","pricing_plan_id":"free"},{"bike_id":"88e31033-4f89-4587-8c47-fe8ed0779fbc","system_id":"levelo_inurba_marseille","lat":43.30925,"lon":5.40145,"is_reserved":false,"is_disabled":false,"rental_uris":{"android":"levelo://app?vid=88e31033-4f89-4587-8c47-fe8ed0779fbc","ios":"levelo://app?vid=88e31033-4f89-4587-8c47-fe8ed0779fbc"},"vehicle_type_id":"4","last_reported":1687198120,"current_range_meters":11200,"station_id":"ce4bgvp2rcd13ifvqct0","pricing_plan_id":"free"},{"bike_id":"3deb1f6e-0ab3-474e-b8bb-a5863c327db0","system_id":"levelo_inurba_marseille","lat":43.30935,"lon":5.40147,"is_reserved":false,"is_disabled":false,"rental_uris":{"android":"levelo://app?vid=3deb1f6e-0ab3-474e-b8bb-a5863c327db0","ios":"levelo://app?vid=3deb1f6e-0ab3-474e-b8bb-a5863c327db0"},"vehicle_type_id":"4","last_reported":1687198120,"current_range_meters":18800,"station_id":"ce4bgvp2rcd13ifvqct0","pricing_plan_id":"free"},{"bike_id":"d23da691-1ad9-401f-8ad8-0a9defbe9b1a","system_id":"levelo_inurba_marseille","lat":43.30919,"lon":5.40144,"is_reserved":false,"is_disabled":false,"rental_uris":{"android":"levelo://app?vid=d23da691-1ad9-401f-8ad8-0a9defbe9b1a","ios":"levelo://app?vid=d23da691-1ad9-401f-8ad8-0a9defbe9b1a"},"vehicle_type_id":"4","last_reported":1687198120,"current_range_meters":4000,"station_id":"ce4bgvp2rcd13ifvqct0","pricing_plan_id":"free"},{"bike_id":"41a8749b-6d93-4d1b-8e52-c5f60f65ae7c","system_id":"levelo_inurba_marseille","lat":43.33756,"lon":5.3745,"is_reserved":false,"is_disabled":false,"rental_uris":{"android":"levelo://app?vid=41a8749b-6d93-4d1b-8e52-c5f60f65ae7c","ios":"levelo://app?vid=41a8749b-6d93-4d1b-8e52-c5f60f65ae7c"},"vehicle_type_id":"4","last_reported":1687198120,"current_range_meters":30800,"station_id":"","pricing_plan_id":"free"},{"bike_id":"597f3c43-c39f-4923-a2b3-d905b18f3e9a","system_id":"levelo_inurba_marseille","lat":43.30642,"lon":5.401031,"is_reserved":false,"is_disabled":false,"rental_uris":{"android":"levelo://app?vid=597f3c43-c39f-4923-a2b3-d905b18f3e9a","ios":"levelo://app?vid=597f3c43-c39f-4923-a2b3-d905b18f3e9a"},"vehicle_type_id":"4","last_reported":1687198120,"current_range_meters":10000,"station_id":"ce4bh112rcd13ifvqda0","pricing_plan_id":"free"},{"bike_id":"e978cb04-7113-4d7a-be41-e1fcdc864d71","system_id":"levelo_inurba_marseille","lat":43.301117,"lon":5.398795,"is_reserved":false,"is_disabled":false,"rental_uris":{"android":"levelo://app?vid=e978cb04-7113-4d7a-be41-e1fcdc864d71","ios":"levelo://app?vid=e978cb04-7113-4d7a-be41-e1fcdc864d71"},"vehicle_type_id":"4","last_reported":1687198120,"current_range_meters":18400,"station_id":"ce4bh0h2rcd13ifvqd40","pricing_plan_id":"free"},{"bike_id":"84cbbf3f-2053-4a01-8822-7c881be5cf73","system_id":"levelo_inurba_marseille","lat":43.306412,"lon":5.401035,"is_reserved":false,"is_disabled":false,"rental_uris":{"android":"levelo://app?vid=84cbbf3f-2053-4a01-8822-7c881be5cf73","ios":"levelo://app?vid=84cbbf3f-2053-4a01-8822-7c881be5cf73"},"vehicle_type_id":"4","last_reported":1687198120,"current_range_meters":5600,"station_id":"ce4bh112rcd13ifvqda0","pricing_plan_id":"free"},{"bike_id":"42a2a75a-9d72-4603-bca9-e6720bab50e0","system_id":"levelo_inurba_marseille","lat":43.306412,"lon":5.401035,"is_reserved":false,"is_disabled":false,"rental_uris":{"android":"levelo://app?vid=42a2a75a-9d72-4603-bca9-e6720bab50e0","ios":"levelo://app?vid=42a2a75a-9d72-4603-bca9-e6720bab50e0"},"vehicle_type_id":"4","last_reported":1687198120,"current_range_meters":24400,"station_id":"ce4bh112rcd13ifvqda0","pricing_plan_id":"free"},{"bike_id":"1f9c80ba-b104-4519-8825-c520393008e4","system_id":"levelo_inurba_marseille","lat":43.306412,"lon":5.401035,"is_reserved":false,"is_disabled":false,"rental_uris":{"android":"levelo://app?vid=1f9c80ba-b104-4519-8825-c520393008e4","ios":"levelo://app?vid=1f9c80ba-b104-4519-8825-c520393008e4"},"vehicle_type_id":"4","last_reported":1687198120,"current_range_meters":22000,"station_id":"ce4bh112rcd13ifvqda0","pricing_plan_id":"free"},{"bike_id":"3fd4b7f3-3ef0-4bf9-9564-bf41ebb7accd","system_id":"levelo_inurba_marseille","lat":43.30137,"lon":5.39868,"is_reserved":false,"is_disabled":false,"rental_uris":{"android":"levelo://app?vid=3fd4b7f3-3ef0-4bf9-9564-bf41ebb7accd","ios":"levelo://app?vid=3fd4b7f3-3ef0-4bf9-9564-bf41ebb7accd"},"vehicle_type_id":"4","last_reported":1687198120,"current_range_meters":400,"station_id":"","pricing_plan_id":"free"},{"bike_id":"b34b0b72-8cc8-4086-a968-440a07c19996","system_id":"levelo_inurba_marseille","lat":43.30583,"lon":5.40103,"is_reserved":false,"is_disabled":false,"rental_uris":{"android":"levelo://app?vid=b34b0b72-8cc8-4086-a968-440a07c19996","ios":"levelo://app?vid=b34b0b72-8cc8-4086-a968-440a07c19996"},"vehicle_type_id":"4","last_reported":1687198120,"current_range_meters":16000,"station_id":"","pricing_plan_id":"free"},{"bike_id":"6a3c6689-b880-42b9-8763-69e2ba781ecf","system_id":"levelo_inurba_marseille","lat":43.301117,"lon":5.398795,"is_reserved":false,"is_disabled":false,"rental_uris":{"android":"levelo://app?vid=6a3c6689-b880-42b9-8763-69e2ba781ecf","ios":"levelo://app?vid=6a3c6689-b880-42b9-8763-69e2ba781ecf"},"vehicle_type_id":"4","last_reported":1687198120,"current_range_meters":1200,"station_id":"ce4bh0h2rcd13ifvqd40","pricing_plan_id":"free"},{"bike_id":"af02b8ff-b2de-4e7a-807a-76fd7369539e","system_id":"levelo_inurba_marseille","lat":43.29873,"lon":5.39722,"is_reserved":false,"is_disabled":false,"rental_uris":{"android":"levelo://app?vid=af02b8ff-b2de-4e7a-807a-76fd7369539e","ios":"levelo://app?vid=af02b8ff-b2de-4e7a-807a-76fd7369539e"},"vehicle_type_id":"4","last_reported":1687198120,"current_range_meters":16400,"station_id":"ce4bh0h2rcd13ifvqd50","pricing_plan_id":"free"},{"bike_id":"fe95d729-7cc9-443d-90bc-817248a8094b","system_id":"levelo_inurba_marseille","lat":43.298681,"lon":5.397225,"is_reserved":false,"is_disabled":false,"rental_uris":{"android":"levelo://app?vid=fe95d729-7cc9-443d-90bc-817248a8094b","ios":"levelo://app?vid=fe95d729-7cc9-443d-90bc-817248a8094b"},"vehicle_type_id":"4","last_reported":1687198120,"current_range_meters":10400,"station_id":"ce4bh0h2rcd13ifvqd50","pricing_plan_id":"free"},{"bike_id":"eca0acdc-7d10-4eea-aa74-3b0ef91d232d","system_id":"levelo_inurba_marseille","lat":43.286593,"lon":5.363346,"is_reserved":false,"is_disabled":false,"rental_uris":{"android":"levelo://app?vid=eca0acdc-7d10-4eea-aa74-3b0ef91d232d","ios":"levelo://app?vid=eca0acdc-7d10-4eea-aa74-3b0ef91d232d"},"vehicle_type_id":"4","last_reported":1687198120,"current_range_meters":11600,"station_id":"ce4bhah2rcd13ifvqej0","pricing_plan_id":"free"},{"bike_id":"f6a9d880-3c4c-4303-9e41-a38c3d4fb2d9","system_id":"levelo_inurba_marseille","lat":43.286591,"lon":5.363346,"is_reserved":false,"is_disabled":false,"rental_uris":{"android":"levelo://app?vid=f6a9d880-3c4c-4303-9e41-a38c3d4fb2d9","ios":"levelo://app?vid=f6a9d880-3c4c-4303-9e41-a38c3d4fb2d9"},"vehicle_type_id":"4","last_reported":1687198120,"current_range_meters":16800,"station_id":"ce4bhah2rcd13ifvqej0","pricing_plan_id":"free"},{"bike_id":"a859e5bc-6ff4-4b17-a34d-b8d8f44c2788","system_id":"levelo_inurba_marseille","lat":43.28701,"lon":5.37395,"is_reserved":false,"is_disabled":false,"rental_uris":{"android":"levelo://app?vid=a859e5bc-6ff4-4b17-a34d-b8d8f44c2788","ios":"levelo://app?vid=a859e5bc-6ff4-4b17-a34d-b8d8f44c2788"},"vehicle_type_id":"4","last_reported":1687198120,"current_range_meters":9600,"station_id":"","pricing_plan_id":"free"},{"bike_id":"5bd24d25-dbfc-4194-9a30-1f85667f506b","system_id":"levelo_inurba_marseille","lat":43.287,"lon":5.37394,"is_reserved":false,"is_disabled":false,"rental_uris":{"android":"levelo://app?vid=5bd24d25-dbfc-4194-9a30-1f85667f506b","ios":"levelo://app?vid=5bd24d25-dbfc-4194-9a30-1f85667f506b"},"vehicle_type_id":"4","last_reported":1687198120,"current_range_meters":0,"station_id":"ce4bh3p2rcd13ifvqdq0","pricing_plan_id":"free"},{"bike_id":"42ff071e-316a-4b7a-9675-009743f02561","system_id":"levelo_inurba_marseille","lat":43.28697,"lon":5.37385,"is_reserved":false,"is_disabled":false,"rental_uris":{"android":"levelo://app?vid=42ff071e-316a-4b7a-9675-009743f02561","ios":"levelo://app?vid=42ff071e-316a-4b7a-9675-009743f02561"},"vehicle_type_id":"4","last_reported":1687198120,"current_range_meters":4800,"station_id":"ce4bh3p2rcd13ifvqdq0","pricing_plan_id":"free"},{"bike_id":"4db8605a-3609-4f0d-848c-e86100b5f0f8","system_id":"levelo_inurba_marseille","lat":43.278401,"lon":5.392152,"is_reserved":false,"is_disabled":false,"rental_uris":{"android":"levelo://app?vid=4db8605a-3609-4f0d-848c-e86100b5f0f8","ios":"levelo://app?vid=4db8605a-3609-4f0d-848c-e86100b5f0f8"},"vehicle_type_id":"4","last_reported":1687198120,"current_range_meters":6400,"station_id":"ce4bhjp2rcd13ifvqga0","pricing_plan_id":"free"},{"bike_id":"c476a54f-8d83-4e77-a2f2-049d903ad886","system_id":"levelo_inurba_marseille","lat":43.28696,"lon":5.37395,"is_reserved":false,"is_disabled":false,"rental_uris":{"android":"levelo://app?vid=c476a54f-8d83-4e77-a2f2-049d903ad886","ios":"levelo://app?vid=c476a54f-8d83-4e77-a2f2-049d903ad886"},"vehicle_type_id":"4","last_reported":1687198120,"current_range_meters":25200,"station_id":"ce4bh3p2rcd13ifvqdq0","pricing_plan_id":"free"},{"bike_id":"6de98da6-6b85-4650-826c-cee1e1701899","system_id":"levelo_inurba_marseille","lat":43.28696,"lon":5.37397,"is_reserved":false,"is_disabled":false,"rental_uris":{"android":"levelo://app?vid=6de98da6-6b85-4650-826c-cee1e1701899","ios":"levelo://app?vid=6de98da6-6b85-4650-826c-cee1e1701899"},"vehicle_type_id":"4","last_reported":1687198120,"current_range_meters":21200,"station_id":"ce4bh3p2rcd13ifvqdq0","pricing_plan_id":"free"},{"bike_id":"74bd893a-d183-4975-a74c-9e7eb43bc9f4","system_id":"levelo_inurba_marseille","lat":43.286591,"lon":5.363346,"is_reserved":false,"is_disabled":false,"rental_uris":{"android":"levelo://app?vid=74bd893a-d183-4975-a74c-9e7eb43bc9f4","ios":"levelo://app?vid=74bd893a-d183-4975-a74c-9e7eb43bc9f4"},"vehicle_type_id":"4","last_reported":1687198120,"current_range_meters":10400,"station_id":"ce4bhah2rcd13ifvqej0","pricing_plan_id":"free"},{"bike_id":"77f87782-71ce-4bfc-b347-ed91a6cb4e6b","system_id":"levelo_inurba_marseille","lat":43.286961,"lon":5.373785,"is_reserved":false,"is_disabled":false,"rental_uris":{"android":"levelo://app?vid=77f87782-71ce-4bfc-b347-ed91a6cb4e6b","ios":"levelo://app?vid=77f87782-71ce-4bfc-b347-ed91a6cb4e6b"},"vehicle_type_id":"4","last_reported":1687198120,"current_range_meters":11600,"station_id":"ce4bh3p2rcd13ifvqdq0","pricing_plan_id":"free"},{"bike_id":"910b273a-2078-4be7-9a1b-47952e614627","system_id":"levelo_inurba_marseille","lat":43.295194,"lon":5.39397,"is_reserved":false,"is_disabled":false,"rental_uris":{"android":"levelo://app?vid=910b273a-2078-4be7-9a1b-47952e614627","ios":"levelo://app?vid=910b273a-2078-4be7-9a1b-47952e614627"},"vehicle_type_id":"4","last_reported":1687198120,"current_range_meters":29600,"station_id":"ce4bh292rcd13ifvqdf0","pricing_plan_id":"free"},{"bike_id":"7d9876a4-6d60-4a00-913f-f07acb5c951d","system_id":"levelo_inurba_marseille","lat":43.2869,"lon":5.37408,"is_reserved":false,"is_disabled":false,"rental_uris":{"android":"levelo://app?vid=7d9876a4-6d60-4a00-913f-f07acb5c951d","ios":"levelo://app?vid=7d9876a4-6d60-4a00-913f-f07acb5c951d"},"vehicle_type_id":"4","last_reported":1687198120,"current_range_meters":5200,"station_id":"ce4bh3p2rcd13ifvqdq0","pricing_plan_id":"free"},{"bike_id":"dfe6b77a-ca0b-464f-a8fe-7a4dcfc8bf71","system_id":"levelo_inurba_marseille","lat":43.295196,"lon":5.39397,"is_reserved":false,"is_disabled":false,"rental_uris":{"android":"levelo://app?vid=dfe6b77a-ca0b-464f-a8fe-7a4dcfc8bf71","ios":"levelo://app?vid=dfe6b77a-ca0b-464f-a8fe-7a4dcfc8bf71"},"vehicle_type_id":"4","last_reported":1687198120,"current_range_meters":15200,"station_id":"ce4bh292rcd13ifvqdf0","pricing_plan_id":"free"},{"bike_id":"5284f260-dd31-4cd9-8ac9-e0974e8922dc","system_id":"levelo_inurba_marseille","lat":43.295194,"lon":5.39397,"is_reserved":false,"is_disabled":false,"rental_uris":{"android":"levelo://app?vid=5284f260-dd31-4cd9-8ac9-e0974e8922dc","ios":"levelo://app?vid=5284f260-dd31-4cd9-8ac9-e0974e8922dc"},"vehicle_type_id":"4","last_reported":1687198120,"current_range_meters":14400,"station_id":"ce4bh292rcd13ifvqdf0","pricing_plan_id":"free"},{"bike_id":"55cbd42b-f431-4b13-b156-c20991e98812","system_id":"levelo_inurba_marseille","lat":43.295196,"lon":5.39397,"is_reserved":false,"is_disabled":false,"rental_uris":{"android":"levelo://app?vid=55cbd42b-f431-4b13-b156-c20991e98812","ios":"levelo://app?vid=55cbd42b-f431-4b13-b156-c20991e98812"},"vehicle_type_id":"4","last_reported":1687198120,"current_range_meters":29600,"station_id":"ce4bh292rcd13ifvqdf0","pricing_plan_id":"free"},{"bike_id":"0896dc81-9870-4d05-9d15-ec1bb925afc2","system_id":"levelo_inurba_marseille","lat":43.286593,"lon":5.363346,"is_reserved":false,"is_disabled":false,"rental_uris":{"android":"levelo://app?vid=0896dc81-9870-4d05-9d15-ec1bb925afc2","ios":"levelo://app?vid=0896dc81-9870-4d05-9d15-ec1bb925afc2"},"vehicle_type_id":"4","last_reported":1687198120,"current_range_meters":15600,"station_id":"ce4bhah2rcd13ifvqej0","pricing_plan_id":"free"},{"bike_id":"a9052c9d-a238-4c9e-8d3a-c936c59203ce","system_id":"levelo_inurba_marseille","lat":43.290345,"lon":5.38646,"is_reserved":false,"is_disabled":false,"rental_uris":{"android":"levelo://app?vid=a9052c9d-a238-4c9e-8d3a-c936c59203ce","ios":"levelo://app?vid=a9052c9d-a238-4c9e-8d3a-c936c59203ce"},"vehicle_type_id":"4","last_reported":1687198120,"current_range_meters":10400,"station_id":"ce4bh4p2rcd13ifvqe0g","pricing_plan_id":"free"},{"bike_id":"b3e8c0f1-66e1-4a7e-bd8c-fef7e2832616","system_id":"levelo_inurba_marseille","lat":43.290336,"lon":5.386425,"is_reserved":false,"is_disabled":false,"rental_uris":{"android":"levelo://app?vid=b3e8c0f1-66e1-4a7e-bd8c-fef7e2832616","ios":"levelo://app?vid=b3e8c0f1-66e1-4a7e-bd8c-fef7e2832616"},"vehicle_type_id":"4","last_reported":1687198120,"current_range_meters":23200,"station_id":"ce4bh4p2rcd13ifvqe0g","pricing_plan_id":"free"},{"bike_id":"6508969b-e311-4e99-a7e1-d3604e63463d","system_id":"levelo_inurba_marseille","lat":43.2866,"lon":5.37422,"is_reserved":false,"is_disabled":false,"rental_uris":{"android":"levelo://app?vid=6508969b-e311-4e99-a7e1-d3604e63463d","ios":"levelo://app?vid=6508969b-e311-4e99-a7e1-d3604e63463d"},"vehicle_type_id":"4","last_reported":1687198120,"current_range_meters":10400,"station_id":"ce4bh3p2rcd13ifvqdq0","pricing_plan_id":"free"},{"bike_id":"24207eb3-198d-46d3-9dc6-e02c9504d132","system_id":"levelo_inurba_marseille","lat":43.286039,"lon":5.370679,"is_reserved":false,"is_disabled":false,"rental_uris":{"android":"levelo://app?vid=24207eb3-198d-46d3-9dc6-e02c9504d132","ios":"levelo://app?vid=24207eb3-198d-46d3-9dc6-e02c9504d132"},"vehicle_type_id":"4","last_reported":1687198120,"current_range_meters":10400,"station_id":"ce4bht12rcd13ifvqi60","pricing_plan_id":"free"},{"bike_id":"a9f795b5-e874-4ef7-a488-5af35dccbd65","system_id":"levelo_inurba_marseille","lat":43.286039,"lon":5.370679,"is_reserved":false,"is_disabled":false,"rental_uris":{"android":"levelo://app?vid=a9f795b5-e874-4ef7-a488-5af35dccbd65","ios":"levelo://app?vid=a9f795b5-e874-4ef7-a488-5af35dccbd65"},"vehicle_type_id":"4","last_reported":1687198120,"current_range_meters":0,"station_id":"ce4bht12rcd13ifvqi60","pricing_plan_id":"free"},{"bike_id":"b613340d-97ad-41ba-88b8-091efd369248","system_id":"levelo_inurba_marseille","lat":43.28608,"lon":5.37062,"is_reserved":false,"is_disabled":false,"rental_uris":{"android":"levelo://app?vid=b613340d-97ad-41ba-88b8-091efd369248","ios":"levelo://app?vid=b613340d-97ad-41ba-88b8-091efd369248"},"vehicle_type_id":"4","last_reported":1687198120,"current_range_meters":13600,"station_id":"ce4bht12rcd13ifvqi60","pricing_plan_id":"free"},{"bike_id":"be821724-5bb3-499c-a063-37a60b49f0a9","system_id":"levelo_inurba_marseille","lat":43.286039,"lon":5.370679,"is_reserved":false,"is_disabled":false,"rental_uris":{"android":"levelo://app?vid=be821724-5bb3-499c-a063-37a60b49f0a9","ios":"levelo://app?vid=be821724-5bb3-499c-a063-37a60b49f0a9"},"vehicle_type_id":"4","last_reported":1687198120,"current_range_meters":24000,"station_id":"ce4bht12rcd13ifvqi60","pricing_plan_id":"free"},{"bike_id":"c67abad2-7d99-4a97-b547-4caf697f84d5","system_id":"levelo_inurba_marseille","lat":43.286039,"lon":5.370679,"is_reserved":false,"is_disabled":false,"rental_uris":{"android":"levelo://app?vid=c67abad2-7d99-4a97-b547-4caf697f84d5","ios":"levelo://app?vid=c67abad2-7d99-4a97-b547-4caf697f84d5"},"vehicle_type_id":"4","last_reported":1687198120,"current_range_meters":3600,"station_id":"ce4bht12rcd13ifvqi60","pricing_plan_id":"free"},{"bike_id":"cec1084b-23a4-4864-9ec1-5b5d1bbfaf21","system_id":"levelo_inurba_marseille","lat":43.287184,"lon":5.37937,"is_reserved":false,"is_disabled":false,"rental_uris":{"android":"levelo://app?vid=cec1084b-23a4-4864-9ec1-5b5d1bbfaf21","ios":"levelo://app?vid=cec1084b-23a4-4864-9ec1-5b5d1bbfaf21"},"vehicle_type_id":"4","last_reported":1687198120,"current_range_meters":9200,"station_id":"ce4bh9p2rcd13ifvqec0","pricing_plan_id":"free"},{"bike_id":"68d29c3c-27dc-4a62-b94d-08c324e0552d","system_id":"levelo_inurba_marseille","lat":43.28713,"lon":5.3794,"is_reserved":false,"is_disabled":false,"rental_uris":{"android":"levelo://app?vid=68d29c3c-27dc-4a62-b94d-08c324e0552d","ios":"levelo://app?vid=68d29c3c-27dc-4a62-b94d-08c324e0552d"},"vehicle_type_id":"4","last_reported":1687198120,"current_range_meters":5200,"station_id":"","pricing_plan_id":"free"},{"bike_id":"c9fda62e-244f-42eb-bc80-4d8b976d4022","system_id":"levelo_inurba_marseille","lat":43.287185,"lon":5.379373,"is_reserved":false,"is_disabled":false,"rental_uris":{"android":"levelo://app?vid=c9fda62e-244f-42eb-bc80-4d8b976d4022","ios":"levelo://app?vid=c9fda62e-244f-42eb-bc80-4d8b976d4022"},"vehicle_type_id":"4","last_reported":1687198120,"current_range_meters":4000,"station_id":"ce4bh9p2rcd13ifvqec0","pricing_plan_id":"free"},{"bike_id":"31771ac7-a077-4d64-a94f-0cbcdeac74ca","system_id":"levelo_inurba_marseille","lat":43.287184,"lon":5.37937,"is_reserved":false,"is_disabled":false,"rental_uris":{"android":"levelo://app?vid=31771ac7-a077-4d64-a94f-0cbcdeac74ca","ios":"levelo://app?vid=31771ac7-a077-4d64-a94f-0cbcdeac74ca"},"vehicle_type_id":"4","last_reported":1687198120,"current_range_meters":15200,"station_id":"ce4bh9p2rcd13ifvqec0","pricing_plan_id":"free"},{"bike_id":"f225a38e-c86b-44a4-bb24-d1177c9f7169","system_id":"levelo_inurba_marseille","lat":43.3164,"lon":5.40432,"is_reserved":false,"is_disabled":false,"rental_uris":{"android":"levelo://app?vid=f225a38e-c86b-44a4-bb24-d1177c9f7169","ios":"levelo://app?vid=f225a38e-c86b-44a4-bb24-d1177c9f7169"},"vehicle_type_id":"4","last_reported":1687198120,"current_range_meters":2000,"station_id":"ce4bh012rcd13ifvqd00","pricing_plan_id":"free"},{"bike_id":"588cb08b-7841-4614-93d1-566388f1e3a3","system_id":"levelo_inurba_marseille","lat":43.31644,"lon":5.40433,"is_reserved":false,"is_disabled":false,"rental_uris":{"android":"levelo://app?vid=588cb08b-7841-4614-93d1-566388f1e3a3","ios":"levelo://app?vid=588cb08b-7841-4614-93d1-566388f1e3a3"},"vehicle_type_id":"4","last_reported":1687198120,"current_range_meters":16000,"station_id":"ce4bh012rcd13ifvqd00","pricing_plan_id":"free"},{"bike_id":"989a1ca8-b1a3-45b0-8454-b1ddabda1356","system_id":"levelo_inurba_marseille","lat":43.31643,"lon":5.40437,"is_reserved":false,"is_disabled":false,"rental_uris":{"android":"levelo://app?vid=989a1ca8-b1a3-45b0-8454-b1ddabda1356","ios":"levelo://app?vid=989a1ca8-b1a3-45b0-8454-b1ddabda1356"},"vehicle_type_id":"4","last_reported":1687198120,"current_range_meters":0,"station_id":"ce4bh012rcd13ifvqd00","pricing_plan_id":"free"},{"bike_id":"bdfcb0fa-50ae-4b97-a28f-179fcd11df45","system_id":"levelo_inurba_marseille","lat":43.31647,"lon":5.40437,"is_reserved":false,"is_disabled":false,"rental_uris":{"android":"levelo://app?vid=bdfcb0fa-50ae-4b97-a28f-179fcd11df45","ios":"levelo://app?vid=bdfcb0fa-50ae-4b97-a28f-179fcd11df45"},"vehicle_type_id":"4","last_reported":1687198120,"current_range_meters":7200,"station_id":"ce4bh012rcd13ifvqd00","pricing_plan_id":"free"},{"bike_id":"7f3f05b8-3426-414a-8379-9e1a502c8b34","system_id":"levelo_inurba_marseille","lat":43.28606,"lon":5.37754,"is_reserved":false,"is_disabled":false,"rental_uris":{"android":"levelo://app?vid=7f3f05b8-3426-414a-8379-9e1a502c8b34","ios":"levelo://app?vid=7f3f05b8-3426-414a-8379-9e1a502c8b34"},"vehicle_type_id":"4","last_reported":1687198120,"current_range_meters":13200,"station_id":"","pricing_plan_id":"free"},{"bike_id":"5c9e1ea1-30bc-4955-863e-689493c46550","system_id":"levelo_inurba_marseille","lat":43.291994,"lon":5.392907,"is_reserved":false,"is_disabled":false,"rental_uris":{"android":"levelo://app?vid=5c9e1ea1-30bc-4955-863e-689493c46550","ios":"levelo://app?vid=5c9e1ea1-30bc-4955-863e-689493c46550"},"vehicle_type_id":"4","last_reported":1687198120,"current_range_meters":12400,"station_id":"ce4bh192rcd13ifvqdd0","pricing_plan_id":"free"},{"bike_id":"ebbd621e-4f0a-446a-95c7-ee85a8ca66ad","system_id":"levelo_inurba_marseille","lat":43.291994,"lon":5.392907,"is_reserved":false,"is_disabled":false,"rental_uris":{"android":"levelo://app?vid=ebbd621e-4f0a-446a-95c7-ee85a8ca66ad","ios":"levelo://app?vid=ebbd621e-4f0a-446a-95c7-ee85a8ca66ad"},"vehicle_type_id":"4","last_reported":1687198120,"current_range_meters":8800,"station_id":"ce4bh192rcd13ifvqdd0","pricing_plan_id":"free"},{"bike_id":"e89c237a-29c3-4233-a09a-bae9af71b09f","system_id":"levelo_inurba_marseille","lat":43.284793,"lon":5.384119,"is_reserved":false,"is_disabled":false,"rental_uris":{"android":"levelo://app?vid=e89c237a-29c3-4233-a09a-bae9af71b09f","ios":"levelo://app?vid=e89c237a-29c3-4233-a09a-bae9af71b09f"},"vehicle_type_id":"4","last_reported":1687198120,"current_range_meters":30800,"station_id":"ce4bh512rcd13ifvqe3g","pricing_plan_id":"free"},{"bike_id":"049e32a1-da27-4312-a841-22700bd6fd5f","system_id":"levelo_inurba_marseille","lat":43.291994,"lon":5.392907,"is_reserved":false,"is_disabled":false,"rental_uris":{"android":"levelo://app?vid=049e32a1-da27-4312-a841-22700bd6fd5f","ios":"levelo://app?vid=049e32a1-da27-4312-a841-22700bd6fd5f"},"vehicle_type_id":"4","last_reported":1687198120,"current_range_meters":27200,"station_id":"ce4bh192rcd13ifvqdd0","pricing_plan_id":"free"},{"bike_id":"3b2f76b7-c379-4bd1-8bfe-2ae46fb3669d","system_id":"levelo_inurba_marseille","lat":43.291994,"lon":5.392907,"is_reserved":false,"is_disabled":false,"rental_uris":{"android":"levelo://app?vid=3b2f76b7-c379-4bd1-8bfe-2ae46fb3669d","ios":"levelo://app?vid=3b2f76b7-c379-4bd1-8bfe-2ae46fb3669d"},"vehicle_type_id":"4","last_reported":1687198120,"current_range_meters":6800,"station_id":"ce4bh192rcd13ifvqdd0","pricing_plan_id":"free"},{"bike_id":"a7fc1897-79df-49f5-b5a0-3a86b7ed938b","system_id":"levelo_inurba_marseille","lat":43.33353,"lon":5.39378,"is_reserved":false,"is_disabled":false,"rental_uris":{"android":"levelo://app?vid=a7fc1897-79df-49f5-b5a0-3a86b7ed938b","ios":"levelo://app?vid=a7fc1897-79df-49f5-b5a0-3a86b7ed938b"},"vehicle_type_id":"4","last_reported":1687198120,"current_range_meters":4800,"station_id":"","pricing_plan_id":"free"},{"bike_id":"c7875f67-2e7b-4098-b5c9-cfd1f193f550","system_id":"levelo_inurba_marseille","lat":43.284534,"lon":5.358662,"is_reserved":false,"is_disabled":false,"rental_uris":{"android":"levelo://app?vid=c7875f67-2e7b-4098-b5c9-cfd1f193f550","ios":"levelo://app?vid=c7875f67-2e7b-4098-b5c9-cfd1f193f550"},"vehicle_type_id":"4","last_reported":1687198120,"current_range_meters":19200,"station_id":"ce4bhah2rcd13ifvqei0","pricing_plan_id":"free"},{"bike_id":"a4fc25d8-3414-4bad-acdf-d56eca010e0a","system_id":"levelo_inurba_marseille","lat":43.284534,"lon":5.358662,"is_reserved":false,"is_disabled":false,"rental_uris":{"android":"levelo://app?vid=a4fc25d8-3414-4bad-acdf-d56eca010e0a","ios":"levelo://app?vid=a4fc25d8-3414-4bad-acdf-d56eca010e0a"},"vehicle_type_id":"4","last_reported":1687198120,"current_range_meters":22000,"station_id":"ce4bhah2rcd13ifvqei0","pricing_plan_id":"free"},{"bike_id":"067d59e0-5c7b-4b23-a85c-32d2e7405ead","system_id":"levelo_inurba_marseille","lat":43.284534,"lon":5.358662,"is_reserved":false,"is_disabled":false,"rental_uris":{"android":"levelo://app?vid=067d59e0-5c7b-4b23-a85c-32d2e7405ead","ios":"levelo://app?vid=067d59e0-5c7b-4b23-a85c-32d2e7405ead"},"vehicle_type_id":"4","last_reported":1687198120,"current_range_meters":16800,"station_id":"ce4bhah2rcd13ifvqei0","pricing_plan_id":"free"},{"bike_id":"92511ac5-cefe-4f24-a0b8-998109d1c924","system_id":"levelo_inurba_marseille","lat":43.284534,"lon":5.358662,"is_reserved":false,"is_disabled":false,"rental_uris":{"android":"levelo://app?vid=92511ac5-cefe-4f24-a0b8-998109d1c924","ios":"levelo://app?vid=92511ac5-cefe-4f24-a0b8-998109d1c924"},"vehicle_type_id":"4","last_reported":1687198120,"current_range_meters":15200,"station_id":"ce4bhah2rcd13ifvqei0","pricing_plan_id":"free"},{"bike_id":"1fe5100e-f94d-400b-9d37-3ec5e01219da","system_id":"levelo_inurba_marseille","lat":43.284534,"lon":5.358662,"is_reserved":false,"is_disabled":false,"rental_uris":{"android":"levelo://app?vid=1fe5100e-f94d-400b-9d37-3ec5e01219da","ios":"levelo://app?vid=1fe5100e-f94d-400b-9d37-3ec5e01219da"},"vehicle_type_id":"4","last_reported":1687198120,"current_range_meters":11200,"station_id":"ce4bhah2rcd13ifvqei0","pricing_plan_id":"free"},{"bike_id":"3eff5fdd-0391-4072-bf77-7fb98feb0723","system_id":"levelo_inurba_marseille","lat":43.284534,"lon":5.358662,"is_reserved":false,"is_disabled":false,"rental_uris":{"android":"levelo://app?vid=3eff5fdd-0391-4072-bf77-7fb98feb0723","ios":"levelo://app?vid=3eff5fdd-0391-4072-bf77-7fb98feb0723"},"vehicle_type_id":"4","last_reported":1687198120,"current_range_meters":18800,"station_id":"ce4bhah2rcd13ifvqei0","pricing_plan_id":"free"},{"bike_id":"e226e841-1364-4611-b448-ae7345d0816a","system_id":"levelo_inurba_marseille","lat":43.284534,"lon":5.358662,"is_reserved":false,"is_disabled":false,"rental_uris":{"android":"levelo://app?vid=e226e841-1364-4611-b448-ae7345d0816a","ios":"levelo://app?vid=e226e841-1364-4611-b448-ae7345d0816a"},"vehicle_type_id":"4","last_reported":1687198120,"current_range_meters":13200,"station_id":"ce4bhah2rcd13ifvqei0","pricing_plan_id":"free"},{"bike_id":"f0ae1263-172f-46cc-b476-ab8b5e0f0312","system_id":"levelo_inurba_marseille","lat":43.284534,"lon":5.358662,"is_reserved":false,"is_disabled":false,"rental_uris":{"android":"levelo://app?vid=f0ae1263-172f-46cc-b476-ab8b5e0f0312","ios":"levelo://app?vid=f0ae1263-172f-46cc-b476-ab8b5e0f0312"},"vehicle_type_id":"4","last_reported":1687198120,"current_range_meters":23200,"station_id":"ce4bhah2rcd13ifvqei0","pricing_plan_id":"free"},{"bike_id":"4c8facad-c2ab-43db-880d-c066e0a6dfa9","system_id":"levelo_inurba_marseille","lat":43.284534,"lon":5.358662,"is_reserved":false,"is_disabled":false,"rental_uris":{"android":"levelo://app?vid=4c8facad-c2ab-43db-880d-c066e0a6dfa9","ios":"levelo://app?vid=4c8facad-c2ab-43db-880d-c066e0a6dfa9"},"vehicle_type_id":"4","last_reported":1687198120,"current_range_meters":10000,"station_id":"ce4bhah2rcd13ifvqei0","pricing_plan_id":"free"},{"bike_id":"3b818723-c420-4f99-923e-0e40dec0b476","system_id":"levelo_inurba_marseille","lat":43.284534,"lon":5.358662,"is_reserved":false,"is_disabled":false,"rental_uris":{"android":"levelo://app?vid=3b818723-c420-4f99-923e-0e40dec0b476","ios":"levelo://app?vid=3b818723-c420-4f99-923e-0e40dec0b476"},"vehicle_type_id":"4","last_reported":1687198120,"current_range_meters":8800,"station_id":"ce4bhah2rcd13ifvqei0","pricing_plan_id":"free"},{"bike_id":"fafa1ebe-3264-48de-a5a9-d148e565eb30","system_id":"levelo_inurba_marseille","lat":43.284534,"lon":5.358662,"is_reserved":false,"is_disabled":false,"rental_uris":{"android":"levelo://app?vid=fafa1ebe-3264-48de-a5a9-d148e565eb30","ios":"levelo://app?vid=fafa1ebe-3264-48de-a5a9-d148e565eb30"},"vehicle_type_id":"4","last_reported":1687198120,"current_range_meters":26000,"station_id":"ce4bhah2rcd13ifvqei0","pricing_plan_id":"free"},{"bike_id":"591335ee-a30e-4a91-aaa4-21528922eea4","system_id":"levelo_inurba_marseille","lat":43.284534,"lon":5.358662,"is_reserved":false,"is_disabled":false,"rental_uris":{"android":"levelo://app?vid=591335ee-a30e-4a91-aaa4-21528922eea4","ios":"levelo://app?vid=591335ee-a30e-4a91-aaa4-21528922eea4"},"vehicle_type_id":"4","last_reported":1687198120,"current_range_meters":4800,"station_id":"ce4bhah2rcd13ifvqei0","pricing_plan_id":"free"},{"bike_id":"87ba3843-7f13-459c-a8b8-3e43c845081b","system_id":"levelo_inurba_marseille","lat":43.284534,"lon":5.358662,"is_reserved":false,"is_disabled":false,"rental_uris":{"android":"levelo://app?vid=87ba3843-7f13-459c-a8b8-3e43c845081b","ios":"levelo://app?vid=87ba3843-7f13-459c-a8b8-3e43c845081b"},"vehicle_type_id":"4","last_reported":1687198120,"current_range_meters":6800,"station_id":"ce4bhah2rcd13ifvqei0","pricing_plan_id":"free"},{"bike_id":"7f684ca4-bf5b-4229-993b-ffee8bd6d310","system_id":"levelo_inurba_marseille","lat":43.294314,"lon":5.397498,"is_reserved":false,"is_disabled":false,"rental_uris":{"android":"levelo://app?vid=7f684ca4-bf5b-4229-993b-ffee8bd6d310","ios":"levelo://app?vid=7f684ca4-bf5b-4229-993b-ffee8bd6d310"},"vehicle_type_id":"4","last_reported":1687198120,"current_range_meters":28000,"station_id":"ce4bh3h2rcd13ifvqdo0","pricing_plan_id":"free"},{"bike_id":"112c4fef-0cd3-4194-a6ae-e92e70b287e5","system_id":"levelo_inurba_marseille","lat":43.284534,"lon":5.358662,"is_reserved":false,"is_disabled":false,"rental_uris":{"android":"levelo://app?vid=112c4fef-0cd3-4194-a6ae-e92e70b287e5","ios":"levelo://app?vid=112c4fef-0cd3-4194-a6ae-e92e70b287e5"},"vehicle_type_id":"4","last_reported":1687198120,"current_range_meters":26000,"station_id":"ce4bhah2rcd13ifvqei0","pricing_plan_id":"free"},{"bike_id":"574d0051-386c-4c59-aa68-c10eead93831","system_id":"levelo_inurba_marseille","lat":43.28457,"lon":5.35891,"is_reserved":false,"is_disabled":false,"rental_uris":{"android":"levelo://app?vid=574d0051-386c-4c59-aa68-c10eead93831","ios":"levelo://app?vid=574d0051-386c-4c59-aa68-c10eead93831"},"vehicle_type_id":"4","last_reported":1687198120,"current_range_meters":17200,"station_id":"ce4bhah2rcd13ifvqei0","pricing_plan_id":"free"},{"bike_id":"9e45e0fc-2192-4800-9e7b-3b671c1d3977","system_id":"levelo_inurba_marseille","lat":43.284534,"lon":5.358662,"is_reserved":false,"is_disabled":false,"rental_uris":{"android":"levelo://app?vid=9e45e0fc-2192-4800-9e7b-3b671c1d3977","ios":"levelo://app?vid=9e45e0fc-2192-4800-9e7b-3b671c1d3977"},"vehicle_type_id":"4","last_reported":1687198120,"current_range_meters":400,"station_id":"ce4bhah2rcd13ifvqei0","pricing_plan_id":"free"},{"bike_id":"1315a5c3-75d6-4610-af85-28e786b5d881","system_id":"levelo_inurba_marseille","lat":43.284534,"lon":5.358662,"is_reserved":false,"is_disabled":false,"rental_uris":{"android":"levelo://app?vid=1315a5c3-75d6-4610-af85-28e786b5d881","ios":"levelo://app?vid=1315a5c3-75d6-4610-af85-28e786b5d881"},"vehicle_type_id":"4","last_reported":1687198120,"current_range_meters":12400,"station_id":"ce4bhah2rcd13ifvqei0","pricing_plan_id":"free"},{"bike_id":"b086daeb-f46f-46b6-8420-2ec2c974bd0e","system_id":"levelo_inurba_marseille","lat":43.284534,"lon":5.358662,"is_reserved":false,"is_disabled":false,"rental_uris":{"android":"levelo://app?vid=b086daeb-f46f-46b6-8420-2ec2c974bd0e","ios":"levelo://app?vid=b086daeb-f46f-46b6-8420-2ec2c974bd0e"},"vehicle_type_id":"4","last_reported":1687198120,"current_range_meters":27600,"station_id":"ce4bhah2rcd13ifvqei0","pricing_plan_id":"free"},{"bike_id":"6acb5946-8287-438e-ae89-64070f57df09","system_id":"levelo_inurba_marseille","lat":43.29439,"lon":5.39756,"is_reserved":false,"is_disabled":false,"rental_uris":{"android":"levelo://app?vid=6acb5946-8287-438e-ae89-64070f57df09","ios":"levelo://app?vid=6acb5946-8287-438e-ae89-64070f57df09"},"vehicle_type_id":"4","last_reported":1687198120,"current_range_meters":0,"station_id":"ce4bh3h2rcd13ifvqdo0","pricing_plan_id":"free"},{"bike_id":"39a4a11c-e1b8-43c7-869f-0a61b4fe15e0","system_id":"levelo_inurba_marseille","lat":43.285856,"lon":5.350771,"is_reserved":false,"is_disabled":false,"rental_uris":{"android":"levelo://app?vid=39a4a11c-e1b8-43c7-869f-0a61b4fe15e0","ios":"levelo://app?vid=39a4a11c-e1b8-43c7-869f-0a61b4fe15e0"},"vehicle_type_id":"4","last_reported":1687198120,"current_range_meters":12000,"station_id":"ce4bhch2rcd13ifvqeug","pricing_plan_id":"free"},{"bike_id":"ada583ac-0e71-4c7a-86d3-b00aa180fc53","system_id":"levelo_inurba_marseille","lat":43.285856,"lon":5.350771,"is_reserved":false,"is_disabled":false,"rental_uris":{"android":"levelo://app?vid=ada583ac-0e71-4c7a-86d3-b00aa180fc53","ios":"levelo://app?vid=ada583ac-0e71-4c7a-86d3-b00aa180fc53"},"vehicle_type_id":"4","last_reported":1687198120,"current_range_meters":0,"station_id":"ce4bhch2rcd13ifvqeug","pricing_plan_id":"free"},{"bike_id":"dc4fb1cd-db8d-44a7-b710-863cdcd393bd","system_id":"levelo_inurba_marseille","lat":43.285848,"lon":5.350787,"is_reserved":false,"is_disabled":false,"rental_uris":{"android":"levelo://app?vid=dc4fb1cd-db8d-44a7-b710-863cdcd393bd","ios":"levelo://app?vid=dc4fb1cd-db8d-44a7-b710-863cdcd393bd"},"vehicle_type_id":"4","last_reported":1687198120,"current_range_meters":25200,"station_id":"ce4bhch2rcd13ifvqeug","pricing_plan_id":"free"},{"bike_id":"17219ff2-9c3d-46f2-9d7c-f49b1c92c256","system_id":"levelo_inurba_marseille","lat":43.285856,"lon":5.350771,"is_reserved":false,"is_disabled":false,"rental_uris":{"android":"levelo://app?vid=17219ff2-9c3d-46f2-9d7c-f49b1c92c256","ios":"levelo://app?vid=17219ff2-9c3d-46f2-9d7c-f49b1c92c256"},"vehicle_type_id":"4","last_reported":1687198120,"current_range_meters":9200,"station_id":"ce4bhch2rcd13ifvqeug","pricing_plan_id":"free"},{"bike_id":"9be2bffd-45b8-47a5-9adb-7034d9ee0d45","system_id":"levelo_inurba_marseille","lat":43.285856,"lon":5.350771,"is_reserved":false,"is_disabled":false,"rental_uris":{"android":"levelo://app?vid=9be2bffd-45b8-47a5-9adb-7034d9ee0d45","ios":"levelo://app?vid=9be2bffd-45b8-47a5-9adb-7034d9ee0d45"},"vehicle_type_id":"4","last_reported":1687198120,"current_range_meters":11200,"station_id":"ce4bhch2rcd13ifvqeug","pricing_plan_id":"free"},{"bike_id":"2251dfc3-0f25-406d-a0ae-d03db34f424a","system_id":"levelo_inurba_marseille","lat":43.28432,"lon":5.3753,"is_reserved":false,"is_disabled":false,"rental_uris":{"android":"levelo://app?vid=2251dfc3-0f25-406d-a0ae-d03db34f424a","ios":"levelo://app?vid=2251dfc3-0f25-406d-a0ae-d03db34f424a"},"vehicle_type_id":"4","last_reported":1687198120,"current_range_meters":29600,"station_id":"ce4bh412rcd13ifvqds0","pricing_plan_id":"free"},{"bike_id":"c2fc17e8-278e-4b45-9871-2b1a7d329028","system_id":"levelo_inurba_marseille","lat":43.283998,"lon":5.375062,"is_reserved":false,"is_disabled":false,"rental_uris":{"android":"levelo://app?vid=c2fc17e8-278e-4b45-9871-2b1a7d329028","ios":"levelo://app?vid=c2fc17e8-278e-4b45-9871-2b1a7d329028"},"vehicle_type_id":"4","last_reported":1687198120,"current_range_meters":26000,"station_id":"ce4bh412rcd13ifvqds0","pricing_plan_id":"free"},{"bike_id":"bc91a154-5a26-4cf5-8415-238092932230","system_id":"levelo_inurba_marseille","lat":43.283998,"lon":5.375062,"is_reserved":false,"is_disabled":false,"rental_uris":{"android":"levelo://app?vid=bc91a154-5a26-4cf5-8415-238092932230","ios":"levelo://app?vid=bc91a154-5a26-4cf5-8415-238092932230"},"vehicle_type_id":"4","last_reported":1687198120,"current_range_meters":0,"station_id":"ce4bh412rcd13ifvqds0","pricing_plan_id":"free"},{"bike_id":"9da09770-2afe-4153-8ca1-4116afec7a91","system_id":"levelo_inurba_marseille","lat":43.283998,"lon":5.375062,"is_reserved":false,"is_disabled":false,"rental_uris":{"android":"levelo://app?vid=9da09770-2afe-4153-8ca1-4116afec7a91","ios":"levelo://app?vid=9da09770-2afe-4153-8ca1-4116afec7a91"},"vehicle_type_id":"4","last_reported":1687198120,"current_range_meters":6400,"station_id":"ce4bh412rcd13ifvqds0","pricing_plan_id":"free"},{"bike_id":"78cf3edc-5a9b-4583-8344-82c4fe9a157f","system_id":"levelo_inurba_marseille","lat":43.28405,"lon":5.37523,"is_reserved":false,"is_disabled":false,"rental_uris":{"android":"levelo://app?vid=78cf3edc-5a9b-4583-8344-82c4fe9a157f","ios":"levelo://app?vid=78cf3edc-5a9b-4583-8344-82c4fe9a157f"},"vehicle_type_id":"4","last_reported":1687198120,"current_range_meters":23200,"station_id":"ce4bh412rcd13ifvqds0","pricing_plan_id":"free"},{"bike_id":"2bcd41da-e9b6-41e8-9fd5-dcbbab901545","system_id":"levelo_inurba_marseille","lat":43.295713,"lon":5.399639,"is_reserved":false,"is_disabled":false,"rental_uris":{"android":"levelo://app?vid=2bcd41da-e9b6-41e8-9fd5-dcbbab901545","ios":"levelo://app?vid=2bcd41da-e9b6-41e8-9fd5-dcbbab901545"},"vehicle_type_id":"4","last_reported":1687198120,"current_range_meters":23600,"station_id":"ce4bh312rcd13ifvqdj0","pricing_plan_id":"free"},{"bike_id":"0e37b443-9bb3-4eb5-90df-1bc83cfe7057","system_id":"levelo_inurba_marseille","lat":43.295713,"lon":5.399639,"is_reserved":false,"is_disabled":false,"rental_uris":{"android":"levelo://app?vid=0e37b443-9bb3-4eb5-90df-1bc83cfe7057","ios":"levelo://app?vid=0e37b443-9bb3-4eb5-90df-1bc83cfe7057"},"vehicle_type_id":"4","last_reported":1687198120,"current_range_meters":8400,"station_id":"ce4bh312rcd13ifvqdj0","pricing_plan_id":"free"},{"bike_id":"23e290ac-4807-40fd-8dd7-3d6c67349ae7","system_id":"levelo_inurba_marseille","lat":43.295713,"lon":5.399639,"is_reserved":false,"is_disabled":false,"rental_uris":{"android":"levelo://app?vid=23e290ac-4807-40fd-8dd7-3d6c67349ae7","ios":"levelo://app?vid=23e290ac-4807-40fd-8dd7-3d6c67349ae7"},"vehicle_type_id":"4","last_reported":1687198120,"current_range_meters":12800,"station_id":"ce4bh312rcd13ifvqdj0","pricing_plan_id":"free"},{"bike_id":"c239d64e-cb04-4183-b52e-a0b1be3b8fb7","system_id":"levelo_inurba_marseille","lat":43.28395,"lon":5.37513,"is_reserved":false,"is_disabled":false,"rental_uris":{"android":"levelo://app?vid=c239d64e-cb04-4183-b52e-a0b1be3b8fb7","ios":"levelo://app?vid=c239d64e-cb04-4183-b52e-a0b1be3b8fb7"},"vehicle_type_id":"4","last_reported":1687198120,"current_range_meters":19200,"station_id":"ce4bh412rcd13ifvqds0","pricing_plan_id":"free"},{"bike_id":"b4182b12-cb0b-43c7-a215-f9c5eec275a9","system_id":"levelo_inurba_marseille","lat":43.295713,"lon":5.399639,"is_reserved":false,"is_disabled":false,"rental_uris":{"android":"levelo://app?vid=b4182b12-cb0b-43c7-a215-f9c5eec275a9","ios":"levelo://app?vid=b4182b12-cb0b-43c7-a215-f9c5eec275a9"},"vehicle_type_id":"4","last_reported":1687198120,"current_range_meters":18400,"station_id":"ce4bh312rcd13ifvqdj0","pricing_plan_id":"free"},{"bike_id":"75fe3b12-faf9-49a4-9cfb-13672a7e2268","system_id":"levelo_inurba_marseille","lat":43.295713,"lon":5.399639,"is_reserved":false,"is_disabled":false,"rental_uris":{"android":"levelo://app?vid=75fe3b12-faf9-49a4-9cfb-13672a7e2268","ios":"levelo://app?vid=75fe3b12-faf9-49a4-9cfb-13672a7e2268"},"vehicle_type_id":"4","last_reported":1687198120,"current_range_meters":12000,"station_id":"ce4bh312rcd13ifvqdj0","pricing_plan_id":"free"},{"bike_id":"2ca0e64c-3dff-4f5e-a93e-71f58537b4fe","system_id":"levelo_inurba_marseille","lat":43.286595,"lon":5.386795,"is_reserved":false,"is_disabled":false,"rental_uris":{"android":"levelo://app?vid=2ca0e64c-3dff-4f5e-a93e-71f58537b4fe","ios":"levelo://app?vid=2ca0e64c-3dff-4f5e-a93e-71f58537b4fe"},"vehicle_type_id":"4","last_reported":1687198120,"current_range_meters":400,"station_id":"ce4bh492rcd13ifvqdug","pricing_plan_id":"free"},{"bike_id":"f6fda2f2-04f1-4377-bae3-2fc212d95c47","system_id":"levelo_inurba_marseille","lat":43.34231,"lon":5.36183,"is_reserved":false,"is_disabled":false,"rental_uris":{"android":"levelo://app?vid=f6fda2f2-04f1-4377-bae3-2fc212d95c47","ios":"levelo://app?vid=f6fda2f2-04f1-4377-bae3-2fc212d95c47"},"vehicle_type_id":"4","last_reported":1687198120,"current_range_meters":14400,"station_id":"","pricing_plan_id":"free"},{"bike_id":"a1c8ee6f-2199-4c03-904d-fd737f40cbfc","system_id":"levelo_inurba_marseille","lat":43.286039,"lon":5.370679,"is_reserved":false,"is_disabled":false,"rental_uris":{"android":"levelo://app?vid=a1c8ee6f-2199-4c03-904d-fd737f40cbfc","ios":"levelo://app?vid=a1c8ee6f-2199-4c03-904d-fd737f40cbfc"},"vehicle_type_id":"4","last_reported":1687198120,"current_range_meters":12000,"station_id":"ce4bht12rcd13ifvqi60","pricing_plan_id":"free"},{"bike_id":"43275ef6-770c-4f0e-926c-1c3aecd7abec","system_id":"levelo_inurba_marseille","lat":43.287909,"lon":5.390554,"is_reserved":false,"is_disabled":false,"rental_uris":{"android":"levelo://app?vid=43275ef6-770c-4f0e-926c-1c3aecd7abec","ios":"levelo://app?vid=43275ef6-770c-4f0e-926c-1c3aecd7abec"},"vehicle_type_id":"4","last_reported":1687198120,"current_range_meters":8000,"station_id":"","pricing_plan_id":"free"},{"bike_id":"14d270a5-75fb-413d-8925-06816be270c9","system_id":"levelo_inurba_marseille","lat":43.284787,"lon":5.384116,"is_reserved":false,"is_disabled":false,"rental_uris":{"android":"levelo://app?vid=14d270a5-75fb-413d-8925-06816be270c9","ios":"levelo://app?vid=14d270a5-75fb-413d-8925-06816be270c9"},"vehicle_type_id":"4","last_reported":1687198120,"current_range_meters":26400,"station_id":"ce4bh512rcd13ifvqe3g","pricing_plan_id":"free"},{"bike_id":"8947bce6-a450-42ba-b02e-bd34dbc5479d","system_id":"levelo_inurba_marseille","lat":43.284793,"lon":5.384113,"is_reserved":false,"is_disabled":false,"rental_uris":{"android":"levelo://app?vid=8947bce6-a450-42ba-b02e-bd34dbc5479d","ios":"levelo://app?vid=8947bce6-a450-42ba-b02e-bd34dbc5479d"},"vehicle_type_id":"4","last_reported":1687198120,"current_range_meters":26800,"station_id":"ce4bh512rcd13ifvqe3g","pricing_plan_id":"free"},{"bike_id":"686f45d6-8f53-4ae2-ab9e-cfa3796ed642","system_id":"levelo_inurba_marseille","lat":43.284787,"lon":5.384116,"is_reserved":false,"is_disabled":false,"rental_uris":{"android":"levelo://app?vid=686f45d6-8f53-4ae2-ab9e-cfa3796ed642","ios":"levelo://app?vid=686f45d6-8f53-4ae2-ab9e-cfa3796ed642"},"vehicle_type_id":"4","last_reported":1687198120,"current_range_meters":30800,"station_id":"ce4bh512rcd13ifvqe3g","pricing_plan_id":"free"},{"bike_id":"5ff2df48-9956-4b06-9e07-8231da9fcdc6","system_id":"levelo_inurba_marseille","lat":43.284793,"lon":5.384113,"is_reserved":false,"is_disabled":false,"rental_uris":{"android":"levelo://app?vid=5ff2df48-9956-4b06-9e07-8231da9fcdc6","ios":"levelo://app?vid=5ff2df48-9956-4b06-9e07-8231da9fcdc6"},"vehicle_type_id":"4","last_reported":1687198120,"current_range_meters":0,"station_id":"ce4bh512rcd13ifvqe3g","pricing_plan_id":"free"},{"bike_id":"00b4d942-d645-4a17-a320-9c02b5ecca68","system_id":"levelo_inurba_marseille","lat":43.288501,"lon":5.393087,"is_reserved":false,"is_disabled":false,"rental_uris":{"android":"levelo://app?vid=00b4d942-d645-4a17-a320-9c02b5ecca68","ios":"levelo://app?vid=00b4d942-d645-4a17-a320-9c02b5ecca68"},"vehicle_type_id":"4","last_reported":1687198120,"current_range_meters":17200,"station_id":"ce4bh2p2rcd13ifvqdi0","pricing_plan_id":"free"},{"bike_id":"98d96f13-02e0-4402-9bc8-f5ae9f99adae","system_id":"levelo_inurba_marseille","lat":43.288497,"lon":5.393089,"is_reserved":false,"is_disabled":false,"rental_uris":{"android":"levelo://app?vid=98d96f13-02e0-4402-9bc8-f5ae9f99adae","ios":"levelo://app?vid=98d96f13-02e0-4402-9bc8-f5ae9f99adae"},"vehicle_type_id":"4","last_reported":1687198120,"current_range_meters":2400,"station_id":"ce4bh2p2rcd13ifvqdi0","pricing_plan_id":"free"},{"bike_id":"a68bfb4d-5b8d-4302-8192-e93d118d0da3","system_id":"levelo_inurba_marseille","lat":43.288497,"lon":5.393089,"is_reserved":false,"is_disabled":false,"rental_uris":{"android":"levelo://app?vid=a68bfb4d-5b8d-4302-8192-e93d118d0da3","ios":"levelo://app?vid=a68bfb4d-5b8d-4302-8192-e93d118d0da3"},"vehicle_type_id":"4","last_reported":1687198120,"current_range_meters":8400,"station_id":"ce4bh2p2rcd13ifvqdi0","pricing_plan_id":"free"},{"bike_id":"ed5886c0-5f5a-4d7b-ba20-562ccdefca65","system_id":"levelo_inurba_marseille","lat":43.288501,"lon":5.393087,"is_reserved":false,"is_disabled":false,"rental_uris":{"android":"levelo://app?vid=ed5886c0-5f5a-4d7b-ba20-562ccdefca65","ios":"levelo://app?vid=ed5886c0-5f5a-4d7b-ba20-562ccdefca65"},"vehicle_type_id":"4","last_reported":1687198120,"current_range_meters":0,"station_id":"ce4bh2p2rcd13ifvqdi0","pricing_plan_id":"free"},{"bike_id":"57dfe98c-0b99-4f06-978a-cc752cebdc31","system_id":"levelo_inurba_marseille","lat":43.288497,"lon":5.393089,"is_reserved":false,"is_disabled":false,"rental_uris":{"android":"levelo://app?vid=57dfe98c-0b99-4f06-978a-cc752cebdc31","ios":"levelo://app?vid=57dfe98c-0b99-4f06-978a-cc752cebdc31"},"vehicle_type_id":"4","last_reported":1687198120,"current_range_meters":0,"station_id":"ce4bh2p2rcd13ifvqdi0","pricing_plan_id":"free"},{"bike_id":"696f0080-3714-4f35-94fd-ee2ddbfb7e84","system_id":"levelo_inurba_marseille","lat":43.284793,"lon":5.384119,"is_reserved":false,"is_disabled":false,"rental_uris":{"android":"levelo://app?vid=696f0080-3714-4f35-94fd-ee2ddbfb7e84","ios":"levelo://app?vid=696f0080-3714-4f35-94fd-ee2ddbfb7e84"},"vehicle_type_id":"4","last_reported":1687198120,"current_range_meters":7600,"station_id":"ce4bh512rcd13ifvqe3g","pricing_plan_id":"free"},{"bike_id":"7daeeeda-b5b3-4ae4-b5cf-8941ebba1343","system_id":"levelo_inurba_marseille","lat":43.28352,"lon":5.38103,"is_reserved":false,"is_disabled":false,"rental_uris":{"android":"levelo://app?vid=7daeeeda-b5b3-4ae4-b5cf-8941ebba1343","ios":"levelo://app?vid=7daeeeda-b5b3-4ae4-b5cf-8941ebba1343"},"vehicle_type_id":"4","last_reported":1687198120,"current_range_meters":13200,"station_id":"ce4bh412rcd13ifvqdr0","pricing_plan_id":"free"},{"bike_id":"16c4be49-504a-4a51-9588-bce1e8289599","system_id":"levelo_inurba_marseille","lat":43.284219,"lon":5.3497,"is_reserved":false,"is_disabled":false,"rental_uris":{"android":"levelo://app?vid=16c4be49-504a-4a51-9588-bce1e8289599","ios":"levelo://app?vid=16c4be49-504a-4a51-9588-bce1e8289599"},"vehicle_type_id":"4","last_reported":1687198120,"current_range_meters":25200,"station_id":"ce4bhbh2rcd13ifvqepg","pricing_plan_id":"free"},{"bike_id":"fb062bfa-2de6-440e-bd0f-ecf3e67c9fe5","system_id":"levelo_inurba_marseille","lat":43.284219,"lon":5.3497,"is_reserved":false,"is_disabled":false,"rental_uris":{"android":"levelo://app?vid=fb062bfa-2de6-440e-bd0f-ecf3e67c9fe5","ios":"levelo://app?vid=fb062bfa-2de6-440e-bd0f-ecf3e67c9fe5"},"vehicle_type_id":"4","last_reported":1687198120,"current_range_meters":11600,"station_id":"ce4bhbh2rcd13ifvqepg","pricing_plan_id":"free"},{"bike_id":"16e5fedd-6e86-436a-a0a2-72c7cd60a6ea","system_id":"levelo_inurba_marseille","lat":43.32183,"lon":5.40785,"is_reserved":false,"is_disabled":false,"rental_uris":{"android":"levelo://app?vid=16e5fedd-6e86-436a-a0a2-72c7cd60a6ea","ios":"levelo://app?vid=16e5fedd-6e86-436a-a0a2-72c7cd60a6ea"},"vehicle_type_id":"4","last_reported":1687198120,"current_range_meters":27600,"station_id":"","pricing_plan_id":"free"},{"bike_id":"81f810c9-90a3-45c7-a29e-11b0bad2a1a6","system_id":"levelo_inurba_marseille","lat":43.284219,"lon":5.3497,"is_reserved":false,"is_disabled":false,"rental_uris":{"android":"levelo://app?vid=81f810c9-90a3-45c7-a29e-11b0bad2a1a6","ios":"levelo://app?vid=81f810c9-90a3-45c7-a29e-11b0bad2a1a6"},"vehicle_type_id":"4","last_reported":1687198120,"current_range_meters":14400,"station_id":"ce4bhbh2rcd13ifvqepg","pricing_plan_id":"free"},{"bike_id":"8f80e79b-cc4a-4d72-96ff-ff3778e0de37","system_id":"levelo_inurba_marseille","lat":43.284217,"lon":5.349697,"is_reserved":false,"is_disabled":false,"rental_uris":{"android":"levelo://app?vid=8f80e79b-cc4a-4d72-96ff-ff3778e0de37","ios":"levelo://app?vid=8f80e79b-cc4a-4d72-96ff-ff3778e0de37"},"vehicle_type_id":"4","last_reported":1687198120,"current_range_meters":2400,"station_id":"ce4bhbh2rcd13ifvqepg","pricing_plan_id":"free"},{"bike_id":"4f0abde2-f669-4aca-b7ba-a59dccf79904","system_id":"levelo_inurba_marseille","lat":43.282754,"lon":5.350519,"is_reserved":false,"is_disabled":false,"rental_uris":{"android":"levelo://app?vid=4f0abde2-f669-4aca-b7ba-a59dccf79904","ios":"levelo://app?vid=4f0abde2-f669-4aca-b7ba-a59dccf79904"},"vehicle_type_id":"4","last_reported":1687198120,"current_range_meters":22400,"station_id":"ce4bhbp2rcd13ifvqerg","pricing_plan_id":"free"},{"bike_id":"a19157ff-fa68-4b19-83cf-de5b0745d64f","system_id":"levelo_inurba_marseille","lat":43.28265,"lon":5.35069,"is_reserved":false,"is_disabled":false,"rental_uris":{"android":"levelo://app?vid=a19157ff-fa68-4b19-83cf-de5b0745d64f","ios":"levelo://app?vid=a19157ff-fa68-4b19-83cf-de5b0745d64f"},"vehicle_type_id":"4","last_reported":1687198120,"current_range_meters":31200,"station_id":"ce4bhbp2rcd13ifvqerg","pricing_plan_id":"free"},{"bike_id":"1fc4d478-27ea-421e-832f-eabb66e84d23","system_id":"levelo_inurba_marseille","lat":43.282754,"lon":5.350519,"is_reserved":false,"is_disabled":false,"rental_uris":{"android":"levelo://app?vid=1fc4d478-27ea-421e-832f-eabb66e84d23","ios":"levelo://app?vid=1fc4d478-27ea-421e-832f-eabb66e84d23"},"vehicle_type_id":"4","last_reported":1687198120,"current_range_meters":31200,"station_id":"ce4bhbp2rcd13ifvqerg","pricing_plan_id":"free"},{"bike_id":"0f47e78b-5d09-4d81-8935-4bfbb111c959","system_id":"levelo_inurba_marseille","lat":43.282754,"lon":5.350519,"is_reserved":false,"is_disabled":false,"rental_uris":{"android":"levelo://app?vid=0f47e78b-5d09-4d81-8935-4bfbb111c959","ios":"levelo://app?vid=0f47e78b-5d09-4d81-8935-4bfbb111c959"},"vehicle_type_id":"4","last_reported":1687198120,"current_range_meters":18800,"station_id":"ce4bhbp2rcd13ifvqerg","pricing_plan_id":"free"},{"bike_id":"0e2da401-449e-442a-9acf-4fa9db32e78b","system_id":"levelo_inurba_marseille","lat":43.282754,"lon":5.350519,"is_reserved":false,"is_disabled":false,"rental_uris":{"android":"levelo://app?vid=0e2da401-449e-442a-9acf-4fa9db32e78b","ios":"levelo://app?vid=0e2da401-449e-442a-9acf-4fa9db32e78b"},"vehicle_type_id":"4","last_reported":1687198120,"current_range_meters":20000,"station_id":"ce4bhbp2rcd13ifvqerg","pricing_plan_id":"free"},{"bike_id":"ecc6c497-f73b-416a-8a53-ca0bc7b90bd4","system_id":"levelo_inurba_marseille","lat":43.282754,"lon":5.350519,"is_reserved":false,"is_disabled":false,"rental_uris":{"android":"levelo://app?vid=ecc6c497-f73b-416a-8a53-ca0bc7b90bd4","ios":"levelo://app?vid=ecc6c497-f73b-416a-8a53-ca0bc7b90bd4"},"vehicle_type_id":"4","last_reported":1687198120,"current_range_meters":18400,"station_id":"ce4bhbp2rcd13ifvqerg","pricing_plan_id":"free"},{"bike_id":"a79deca2-293c-4902-bf1d-5be24a79318e","system_id":"levelo_inurba_marseille","lat":43.283502,"lon":5.386471,"is_reserved":false,"is_disabled":false,"rental_uris":{"android":"levelo://app?vid=a79deca2-293c-4902-bf1d-5be24a79318e","ios":"levelo://app?vid=a79deca2-293c-4902-bf1d-5be24a79318e"},"vehicle_type_id":"4","last_reported":1687198120,"current_range_meters":18400,"station_id":"ce4bh492rcd13ifvqdvg","pricing_plan_id":"free"},{"bike_id":"69f1f95e-6f52-402c-ae06-164c54eb99fa","system_id":"levelo_inurba_marseille","lat":43.282744,"lon":5.350533,"is_reserved":false,"is_disabled":false,"rental_uris":{"android":"levelo://app?vid=69f1f95e-6f52-402c-ae06-164c54eb99fa","ios":"levelo://app?vid=69f1f95e-6f52-402c-ae06-164c54eb99fa"},"vehicle_type_id":"4","last_reported":1687198120,"current_range_meters":0,"station_id":"ce4bhbp2rcd13ifvqerg","pricing_plan_id":"free"},{"bike_id":"5a41da40-edcd-4e63-b372-5e67dd4dcda0","system_id":"levelo_inurba_marseille","lat":43.28039,"lon":5.369297,"is_reserved":false,"is_disabled":false,"rental_uris":{"android":"levelo://app?vid=5a41da40-edcd-4e63-b372-5e67dd4dcda0","ios":"levelo://app?vid=5a41da40-edcd-4e63-b372-5e67dd4dcda0"},"vehicle_type_id":"4","last_reported":1687198120,"current_range_meters":11600,"station_id":"ce4bha12rcd13ifvqef0","pricing_plan_id":"free"},{"bike_id":"200e20c4-25d9-447c-b37d-62db20cff1a0","system_id":"levelo_inurba_marseille","lat":43.280382,"lon":5.369291,"is_reserved":false,"is_disabled":false,"rental_uris":{"android":"levelo://app?vid=200e20c4-25d9-447c-b37d-62db20cff1a0","ios":"levelo://app?vid=200e20c4-25d9-447c-b37d-62db20cff1a0"},"vehicle_type_id":"4","last_reported":1687198120,"current_range_meters":10400,"station_id":"ce4bha12rcd13ifvqef0","pricing_plan_id":"free"},{"bike_id":"ac07783e-2789-42d0-9404-1ff72eb5e322","system_id":"levelo_inurba_marseille","lat":43.282744,"lon":5.350533,"is_reserved":false,"is_disabled":false,"rental_uris":{"android":"levelo://app?vid=ac07783e-2789-42d0-9404-1ff72eb5e322","ios":"levelo://app?vid=ac07783e-2789-42d0-9404-1ff72eb5e322"},"vehicle_type_id":"4","last_reported":1687198120,"current_range_meters":28000,"station_id":"ce4bhbp2rcd13ifvqerg","pricing_plan_id":"free"},{"bike_id":"94067215-1275-483b-935c-0bc89d2174dd","system_id":"levelo_inurba_marseille","lat":43.282754,"lon":5.350519,"is_reserved":false,"is_disabled":false,"rental_uris":{"android":"levelo://app?vid=94067215-1275-483b-935c-0bc89d2174dd","ios":"levelo://app?vid=94067215-1275-483b-935c-0bc89d2174dd"},"vehicle_type_id":"4","last_reported":1687198120,"current_range_meters":18000,"station_id":"ce4bhbp2rcd13ifvqerg","pricing_plan_id":"free"},{"bike_id":"a7874da0-17a4-43d8-97ab-f9dec97093cd","system_id":"levelo_inurba_marseille","lat":43.28039,"lon":5.369297,"is_reserved":false,"is_disabled":false,"rental_uris":{"android":"levelo://app?vid=a7874da0-17a4-43d8-97ab-f9dec97093cd","ios":"levelo://app?vid=a7874da0-17a4-43d8-97ab-f9dec97093cd"},"vehicle_type_id":"4","last_reported":1687198120,"current_range_meters":1600,"station_id":"ce4bha12rcd13ifvqef0","pricing_plan_id":"free"},