{"last_updated":1727298524,"ttl":60,"version":"2.2","data":{"bikes":[{"bike_id":"37b15667-67ff-41ed-b0a1-646a36346350","system_id":"levelo_inurba_marseille","lat":43.28484,"lon":5.38553,"is_reserved":false,"is_disabled":false,"rental_uris":{"android":"levelo://app?vid=37b15667-67ff-41ed-b0a1-646a36346350","ios":"levelo://app?vid=37b15667-67ff-41ed-b0a1-646a36346350"},"vehicle_type_id":"4","last_reported":1727298524,"current_range_meters":24400,"station_id":"ce4bh8p2rcd13ifvqeb0","pricing_plan_id":"cebpf4jnsgd1na2vs0mg"},{"bike_id":"c36fda85-951a-4b1f-b0af-a9786a66c63e","system_id":"levelo_inurba_marseille","lat":43.31278,"lon":5.40167,"is_reserved":false,"is_disabled":false,"rental_uris":{"android":"levelo://app?vid=c36fda85-951a-4b1f-b0af-a9786a66c63e","ios":"levelo://app?vid=c36fda85-951a-4b1f-b0af-a9786a66c63e"},"vehicle_type_id":"4","last_reported":1727298524,"current_range_meters":37600,"station_id":"ce4bh092rcd13ifvqd30","pricing_plan_id":"cebpf4jnsgd1na2vs0mg"},{"bike_id":"3c7f3bda-f84a-4a0b-98d0-fbf6bcdc394c","system_id":"levelo_inurba_marseille","lat":43.293701,"lon":5.387519,"is_reserved":false,"is_disabled":false,"rental_uris":{"android":"levelo://app?vid=3c7f3bda-f84a-4a0b-98d0-fbf6bcdc394c","ios":"levelo://app?vid=3c7f3bda-f84a-4a0b-98d0-fbf6bcdc394c"},"vehicle_type_id":"4","last_reported":1727298524,"current_range_meters":38800,"station_id":"","pricing_plan_id":"cebpf4jnsgd1na2vs0mg"},{"bike_id":"00016f13-b63c-43ff-ab5f-39da0fc9f78a","system_id":"levelo_inurba_marseille","lat":43.28485,"lon":5.35895,"is_reserved":false,"is_disabled":false,"rental_uris":{"android":"levelo://app?vid=00016f13-b63c-43ff-ab5f-39da0fc9f78a","ios":"levelo://app?vid=00016f13-b63c-43ff-ab5f-39da0fc9f78a"},"vehicle_type_id":"4","last_reported":1727298524,"current_range_meters":32400,"station_id":"ce4bhah2rcd13ifvqei0","pricing_plan_id":"cebpf4jnsgd1na2vs0mg"},{"bike_id":"b23afdd4-2489-41c0-b1ad-5711f3898380","system_id":"levelo_inurba_marseille","lat":43.3096,"lon":5.39044,"is_reserved":false,"is_disabled":false,"rental_uris":{"android":"levelo://app?vid=b23afdd4-2489-41c0-b1ad-5711f3898380","ios":"levelo://app?vid=b23afdd4-2489-41c0-b1ad-5711f3898380"},"vehicle_type_id":"4","last_reported":1727298524,"current_range_meters":32800,"station_id":"ce4bgup2rcd13ifvqco0","pricing_plan_id":"cebpf4jnsgd1na2vs0mg"},{"bike_id":"bd46753b-4c9a-4376-83bc-9b183a6fcfcc","system_id":"levelo_inurba_marseille","lat":43.26207,"lon":5.37928,"is_reserved":false,"is_disabled":false,"rental_uris":{"android":"levelo://app?vid=bd46753b-4c9a-4376-83bc-9b183a6fcfcc","ios":"levelo://app?vid=bd46753b-4c9a-4376-83bc-9b183a6fcfcc"},"vehicle_type_id":"4","last_reported":1727298524,"current_range_meters":38800,"station_id":"ce4bhjp2rcd13ifvqg90","pricing_plan_id":"cebpf4jnsgd1na2vs0mg"},{"bike_id":"5d48984e-baf8-4188-9a24-86b384dd2876","system_id":"levelo_inurba_marseille","lat":43.3064,"lon":5.40096,"is_reserved":false,"is_disabled":false,"rental_uris":{"android":"levelo://app?vid=5d48984e-baf8-4188-9a24-86b384dd2876","ios":"levelo://app?vid=5d48984e-baf8-4188-9a24-86b384dd2876"},"vehicle_type_id":"4","last_reported":1727298524,"current_range_meters":32800,"station_id":"ce4bh112rcd13ifvqda0","pricing_plan_id":"cebpf4jnsgd1na2vs0mg"},{"bike_id":"311c0952-3a11-42d5-9cb0-6f3ee043b4f3","system_id":"levelo_inurba_marseille","lat":43.28078,"lon":5.39664,"is_reserved":false,"is_disabled":false,"rental_uris":{"android":"levelo://app?vid=311c0952-3a11-42d5-9cb0-6f3ee043b4f3","ios":"levelo://app?vid=311c0952-3a11-42d5-9cb0-6f3ee043b4f3"},"vehicle_type_id":"4","last_reported":1727298524,"current_range_meters":23200,"station_id":"ce4bho12rcd13ifvqh2g","pricing_plan_id":"cebpf4jnsgd1na2vs0mg"},{"bike_id":"d3ce0e04-dccf-4e83-9200-edab7a080f39","system_id":"levelo_inurba_marseille","lat":43.31319,"lon":5.39684,"is_reserved":false,"is_disabled":false,"rental_uris":{"android":"levelo://app?vid=d3ce0e04-dccf-4e83-9200-edab7a080f39","ios":"levelo://app?vid=d3ce0e04-dccf-4e83-9200-edab7a080f39"},"vehicle_type_id":"4","last_reported":1727298524,"current_range_meters":17200,"station_id":"ce4bgvp2rcd13ifvqcu0","pricing_plan_id":"cebpf4jnsgd1na2vs0mg"},{"bike_id":"45eba069-19b2-45c4-a67b-478acc0442e0","system_id":"levelo_inurba_marseille","lat":43.32657,"lon":5.40994,"is_reserved":false,"is_disabled":false,"rental_uris":{"android":"levelo://app?vid=45eba069-19b2-45c4-a67b-478acc0442e0","ios":"levelo://app?vid=45eba069-19b2-45c4-a67b-478acc0442e0"},"vehicle_type_id":"4","last_reported":1727298524,"current_range_meters":38800,"station_id":"ce4bhpp2rcd13ifvqhgg","pricing_plan_id":"cebpf4jnsgd1na2vs0mg"},{"bike_id":"0caf68fe-9464-43a8-a8c7-db8a706f9ec7","system_id":"levelo_inurba_marseille","lat":43.28565,"lon":5.39496,"is_reserved":false,"is_disabled":false,"rental_uris":{"android":"levelo://app?vid=0caf68fe-9464-43a8-a8c7-db8a706f9ec7","ios":"levelo://app?vid=0caf68fe-9464-43a8-a8c7-db8a706f9ec7"},"vehicle_type_id":"4","last_reported":1727298524,"current_range_meters":21600,"station_id":"ce4bh292rcd13ifvqdg0","pricing_plan_id":"cebpf4jnsgd1na2vs0mg"},{"bike_id":"4e970e14-412f-46b5-83dd-1847cb8a1288","system_id":"levelo_inurba_marseille","lat":43.29253,"lon":5.4092,"is_reserved":false,"is_disabled":false,"rental_uris":{"android":"levelo://app?vid=4e970e14-412f-46b5-83dd-1847cb8a1288","ios":"levelo://app?vid=4e970e14-412f-46b5-83dd-1847cb8a1288"},"vehicle_type_id":"4","last_reported":1727298524,"current_range_meters":22000,"station_id":"ce4bh192rcd13ifvqdc0","pricing_plan_id":"cebpf4jnsgd1na2vs0mg"},{"bike_id":"42a38fb8-549c-4925-bfd5-059df21d4756","system_id":"levelo_inurba_marseille","lat":43.33025,"lon":5.39036,"is_reserved":false,"is_disabled":false,"rental_uris":{"android":"levelo://app?vid=42a38fb8-549c-4925-bfd5-059df21d4756","ios":"levelo://app?vid=42a38fb8-549c-4925-bfd5-059df21d4756"},"vehicle_type_id":"4","last_reported":1727298524,"current_range_meters":19600,"station_id":"ce4bhr92rcd13ifvqhrg","pricing_plan_id":"cebpf4jnsgd1na2vs0mg"},{"bike_id":"125bc7f2-ac1c-4a66-9a4d-848e4a6a1eb3","system_id":"levelo_inurba_marseille","lat":43.27946,"lon":5.41049,"is_reserved":false,"is_disabled":false,"rental_uris":{"android":"levelo://app?vid=125bc7f2-ac1c-4a66-9a4d-848e4a6a1eb3","ios":"levelo://app?vid=125bc7f2-ac1c-4a66-9a4d-848e4a6a1eb3"},"vehicle_type_id":"4","last_reported":1727298524,"current_range_meters":34000,"station_id":"ce4bhnp2rcd13ifvqh0g","pricing_plan_id":"cebpf4jnsgd1na2vs0mg"},{"bike_id":"9fa4f99d-a411-4ef4-b6c8-d9fd7e40a915","system_id":"levelo_inurba_marseille","lat":43.2319,"lon":5.35545,"is_reserved":false,"is_disabled":false,"rental_uris":{"android":"levelo://app?vid=9fa4f99d-a411-4ef4-b6c8-d9fd7e40a915","ios":"levelo://app?vid=9fa4f99d-a411-4ef4-b6c8-d9fd7e40a915"},"vehicle_type_id":"4","last_reported":1727298524,"current_range_meters":30000,"station_id":"ce4bhu92rcd13ifvqi70","pricing_plan_id":"cebpf4jnsgd1na2vs0mg"},{"bike_id":"bdf247ae-bc02-4762-979a-3a1ad75c6085","system_id":"levelo_inurba_marseille","lat":43.30801,"lon":5.43526,"is_reserved":false,"is_disabled":false,"rental_uris":{"android":"levelo://app?vid=bdf247ae-bc02-4762-979a-3a1ad75c6085","ios":"levelo://app?vid=bdf247ae-bc02-4762-979a-3a1ad75c6085"},"vehicle_type_id":"4","last_reported":1727298524,"current_range_meters":8000,"station_id":"ce4bhph2rcd13ifvqheg","pricing_plan_id":"cebpf4jnsgd1na2vs0mg"},{"bike_id":"3fa6b996-85c3-4fb6-898b-e56a0b115858","system_id":"levelo_inurba_marseille","lat":43.30881,"lon":5.39623,"is_reserved":false,"is_disabled":false,"rental_uris":{"android":"levelo://app?vid=3fa6b996-85c3-4fb6-898b-e56a0b115858","ios":"levelo://app?vid=3fa6b996-85c3-4fb6-898b-e56a0b115858"},"vehicle_type_id":"4","last_reported":1727298524,"current_range_meters":38800,"station_id":"ce4bh012rcd13ifvqcv0","pricing_plan_id":"cebpf4jnsgd1na2vs0mg"},{"bike_id":"0832ab03-5265-4f26-afe8-b1c7627b35f2","system_id":"levelo_inurba_marseille","lat":43.30135,"lon":5.37405,"is_reserved":false,"is_disabled":false,"rental_uris":{"android":"levelo://app?vid=0832ab03-5265-4f26-afe8-b1c7627b35f2","ios":"levelo://app?vid=0832ab03-5265-4f26-afe8-b1c7627b35f2"},"vehicle_type_id":"4","last_reported":1727298524,"current_range_meters":37600,"station_id":"ce4bgs92rcd13ifvqcc0","pricing_plan_id":"cebpf4jnsgd1na2vs0mg"},{"bike_id":"4ea554d3-0fd6-4fea-afe2-4a04762caa44","system_id":"levelo_inurba_marseille","lat":43.2707,"lon":5.42281,"is_reserved":false,"is_disabled":false,"rental_uris":{"android":"levelo://app?vid=4ea554d3-0fd6-4fea-afe2-4a04762caa44","ios":"levelo://app?vid=4ea554d3-0fd6-4fea-afe2-4a04762caa44"},"vehicle_type_id":"4","last_reported":1727298524,"current_range_meters":22400,"station_id":"ce4bhk92rcd13ifvqgb0","pricing_plan_id":"cebpf4jnsgd1na2vs0mg"},{"bike_id":"cf90c1c6-7296-4f21-ba68-eb1cd7295b1e","system_id":"levelo_inurba_marseille","lat":43.28076,"lon":5.39658,"is_reserved":false,"is_disabled":false,"rental_uris":{"android":"levelo://app?vid=cf90c1c6-7296-4f21-ba68-eb1cd7295b1e","ios":"levelo://app?vid=cf90c1c6-7296-4f21-ba68-eb1cd7295b1e"},"vehicle_type_id":"4","last_reported":1727298524,"current_range_meters":16000,"station_id":"ce4bho12rcd13ifvqh2g","pricing_plan_id":"cebpf4jnsgd1na2vs0mg"},{"bike_id":"8f8dacb8-6dcb-4759-a64f-b83f5109a5b9","system_id":"levelo_inurba_marseille","lat":43.30784,"lon":5.3765,"is_reserved":false,"is_disabled":false,"rental_uris":{"android":"levelo://app?vid=8f8dacb8-6dcb-4759-a64f-b83f5109a5b9","ios":"levelo://app?vid=8f8dacb8-6dcb-4759-a64f-b83f5109a5b9"},"vehicle_type_id":"4","last_reported":1727298524,"current_range_meters":38400,"station_id":"ce4bgv92rcd13ifvqcq0","pricing_plan_id":"cebpf4jnsgd1na2vs0mg"},{"bike_id":"7737b815-6daf-41f0-8354-4b28ba75917f","system_id":"levelo_inurba_marseille","lat":43.301921,"lon":5.39828,"is_reserved":false,"is_disabled":false,"rental_uris":{"android":"levelo://app?vid=7737b815-6daf-41f0-8354-4b28ba75917f","ios":"levelo://app?vid=7737b815-6daf-41f0-8354-4b28ba75917f"},"vehicle_type_id":"4","last_reported":1727298524,"current_range_meters":16000,"station_id":"ce4bgvp2rcd13ifvqct0","pricing_plan_id":"cebpf4jnsgd1na2vs0mg"},{"bike_id":"952dab7a-0a86-46bf-9253-024894e735ca","system_id":"levelo_inurba_marseille","lat":43.28427,"lon":5.37518,"is_reserved":false,"is_disabled":false,"rental_uris":{"android":"levelo://app?vid=952dab7a-0a86-46bf-9253-024894e735ca","ios":"levelo://app?vid=952dab7a-0a86-46bf-9253-024894e735ca"},"vehicle_type_id":"4","last_reported":1727298524,"current_range_meters":11600,"station_id":"ce4bh412rcd13ifvqds0","pricing_plan_id":"cebpf4jnsgd1na2vs0mg"},{"bike_id":"55a7076d-21c1-4a1b-8d06-1ae9e159c4f6","system_id":"levelo_inurba_marseille","lat":43.312861,"lon":5.401824,"is_reserved":false,"is_disabled":false,"rental_uris":{"android":"levelo://app?vid=55a7076d-21c1-4a1b-8d06-1ae9e159c4f6","ios":"levelo://app?vid=55a7076d-21c1-4a1b-8d06-1ae9e159c4f6"},"vehicle_type_id":"4","last_reported":1727298524,"current_range_meters":38000,"station_id":"ce4bh092rcd13ifvqd30","pricing_plan_id":"cebpf4jnsgd1na2vs0mg"},{"bike_id":"35c25ea8-b1e8-498f-925f-282bbbea92fd","system_id":"levelo_inurba_marseille","lat":43.31121,"lon":5.37776,"is_reserved":false,"is_disabled":false,"rental_uris":{"android":"levelo://app?vid=35c25ea8-b1e8-498f-925f-282bbbea92fd","ios":"levelo://app?vid=35c25ea8-b1e8-498f-925f-282bbbea92fd"},"vehicle_type_id":"4","last_reported":1727298524,"current_range_meters":29600,"station_id":"ce4bgt92rcd13ifvqcg0","pricing_plan_id":"cebpf4jnsgd1na2vs0mg"},{"bike_id":"73955810-b304-4bc7-b896-d1aee1d9f290","system_id":"levelo_inurba_marseille","lat":43.2603,"lon":5.37548,"is_reserved":false,"is_disabled":false,"rental_uris":{"android":"levelo://app?vid=73955810-b304-4bc7-b896-d1aee1d9f290","ios":"levelo://app?vid=73955810-b304-4bc7-b896-d1aee1d9f290"},"vehicle_type_id":"4","last_reported":1727298524,"current_range_meters":38000,"station_id":"ce4bhgh2rcd13ifvqfa0","pricing_plan_id":"cebpf4jnsgd1na2vs0mg"},{"bike_id":"a6ceaa53-b040-4bed-a5a4-04e99e38d93e","system_id":"levelo_inurba_marseille","lat":43.25719,"lon":5.41117,"is_reserved":false,"is_disabled":false,"rental_uris":{"android":"levelo://app?vid=a6ceaa53-b040-4bed-a5a4-04e99e38d93e","ios":"levelo://app?vid=a6ceaa53-b040-4bed-a5a4-04e99e38d93e"},"vehicle_type_id":"4","last_reported":1727298524,"current_range_meters":14400,"station_id":"ce4bhkp2rcd13ifvqgd0","pricing_plan_id":"cebpf4jnsgd1na2vs0mg"},{"bike_id":"50c5315e-fcc7-49c6-9aca-599d410c7ddd","system_id":"levelo_inurba_marseille","lat":43.281027,"lon":5.3785,"is_reserved":false,"is_disabled":false,"rental_uris":{"android":"levelo://app?vid=50c5315e-fcc7-49c6-9aca-599d410c7ddd","ios":"levelo://app?vid=50c5315e-fcc7-49c6-9aca-599d410c7ddd"},"vehicle_type_id":"4","last_reported":1727298524,"current_range_meters":16400,"station_id":"ce4bha12rcd13ifvqee0","pricing_plan_id":"cebpf4jnsgd1na2vs0mg"},{"bike_id":"7d9426ef-7b50-4a2b-9fde-784c040316a3","system_id":"levelo_inurba_marseille","lat":43.29883,"lon":5.38911,"is_reserved":false,"is_disabled":false,"rental_uris":{"android":"levelo://app?vid=7d9426ef-7b50-4a2b-9fde-784c040316a3","ios":"levelo://app?vid=7d9426ef-7b50-4a2b-9fde-784c040316a3"},"vehicle_type_id":"4","last_reported":1727298524,"current_range_meters":36000,"station_id":"ce4bh392rcd13ifvqdl0","pricing_plan_id":"cebpf4jnsgd1na2vs0mg"},{"bike_id":"67ea5e6a-7b71-4b5f-a92b-e6708a512df0","system_id":"levelo_inurba_marseille","lat":43.33025,"lon":5.39048,"is_reserved":false,"is_disabled":false,"rental_uris":{"android":"levelo://app?vid=67ea5e6a-7b71-4b5f-a92b-e6708a512df0","ios":"levelo://app?vid=67ea5e6a-7b71-4b5f-a92b-e6708a512df0"},"vehicle_type_id":"4","last_reported":1727298524,"current_range_meters":34000,"station_id":"ce4bhr92rcd13ifvqhrg","pricing_plan_id":"cebpf4jnsgd1na2vs0mg"},{"bike_id":"dab37bf3-4a86-4251-b6a1-c4d272e4ea4d","system_id":"levelo_inurba_marseille","lat":43.336067,"lon":5.410348,"is_reserved":false,"is_disabled":false,"rental_uris":{"android":"levelo://app?vid=dab37bf3-4a86-4251-b6a1-c4d272e4ea4d","ios":"levelo://app?vid=dab37bf3-4a86-4251-b6a1-c4d272e4ea4d"},"vehicle_type_id":"4","last_reported":1727298524,"current_range_meters":38800,"station_id":"ce4bhqh2rcd13ifvqhmg","pricing_plan_id":"cebpf4jnsgd1na2vs0mg"},{"bike_id":"ede609f3-73c9-48c0-9297-561a9b09ac98","system_id":"levelo_inurba_marseille","lat":43.30665,"lon":5.4009,"is_reserved":false,"is_disabled":false,"rental_uris":{"android":"levelo://app?vid=ede609f3-73c9-48c0-9297-561a9b09ac98","ios":"levelo://app?vid=ede609f3-73c9-48c0-9297-561a9b09ac98"},"vehicle_type_id":"4","last_reported":1727298524,"current_range_meters":38800,"station_id":"ce4bh112rcd13ifvqda0","pricing_plan_id":"cebpf4jnsgd1na2vs0mg"},{"bike_id":"62c456f4-6a38-4279-92c1-2ca853cb18a8","system_id":"levelo_inurba_marseille","lat":43.30641,"lon":5.40077,"is_reserved":false,"is_disabled":false,"rental_uris":{"android":"levelo://app?vid=62c456f4-6a38-4279-92c1-2ca853cb18a8","ios":"levelo://app?vid=62c456f4-6a38-4279-92c1-2ca853cb18a8"},"vehicle_type_id":"4","last_reported":1727298524,"current_range_meters":2800,"station_id":"ce4bh112rcd13ifvqda0","pricing_plan_id":"cebpf4jnsgd1na2vs0mg"},{"bike_id":"f2054fb1-1e8c-42c6-be9f-bbfe0f85dcc6","system_id":"levelo_inurba_marseille","lat":43.29556,"lon":5.42284,"is_reserved":false,"is_disabled":false,"rental_uris":{"android":"levelo://app?vid=f2054fb1-1e8c-42c6-be9f-bbfe0f85dcc6","ios":"levelo://app?vid=f2054fb1-1e8c-42c6-be9f-bbfe0f85dcc6"},"vehicle_type_id":"4","last_reported":1727298524,"current_range_meters":23200,"station_id":"ce4bhph2rcd13ifvqhdg","pricing_plan_id":"cebpf4jnsgd1na2vs0mg"},{"bike_id":"823494d0-99f0-4a70-8cb1-a3100041268e","system_id":"levelo_inurba_marseille","lat":43.28659,"lon":5.38658,"is_reserved":false,"is_disabled":false,"rental_uris":{"android":"levelo://app?vid=823494d0-99f0-4a70-8cb1-a3100041268e","ios":"levelo://app?vid=823494d0-99f0-4a70-8cb1-a3100041268e"},"vehicle_type_id":"4","last_reported":1727298524,"current_range_meters":21600,"station_id":"ce4bh492rcd13ifvqdug","pricing_plan_id":"cebpf4jnsgd1na2vs0mg"},{"bike_id":"7a8458d5-44ac-4f2e-abef-3f01eb31f7ca","system_id":"levelo_inurba_marseille","lat":43.337444,"lon":5.374475,"is_reserved":false,"is_disabled":false,"rental_uris":{"android":"levelo://app?vid=7a8458d5-44ac-4f2e-abef-3f01eb31f7ca","ios":"levelo://app?vid=7a8458d5-44ac-4f2e-abef-3f01eb31f7ca"},"vehicle_type_id":"4","last_reported":1727298524,"current_range_meters":24000,"station_id":"","pricing_plan_id":"cebpf4jnsgd1na2vs0mg"},{"bike_id":"41b9a237-ad2d-4e20-9ddd-a0e26c3d5a88","system_id":"levelo_inurba_marseille","lat":43.31184,"lon":5.38712,"is_reserved":false,"is_disabled":false,"rental_uris":{"android":"levelo://app?vid=41b9a237-ad2d-4e20-9ddd-a0e26c3d5a88","ios":"levelo://app?vid=41b9a237-ad2d-4e20-9ddd-a0e26c3d5a88"},"vehicle_type_id":"4","last_reported":1727298524,"current_range_meters":24800,"station_id":"ce4bgv12rcd13ifvqcp0","pricing_plan_id":"cebpf4jnsgd1na2vs0mg"},{"bike_id":"518e4ab3-62f5-49d0-8c11-c0007f16dd7e","system_id":"levelo_inurba_marseille","lat":43.292555,"lon":5.383847,"is_reserved":false,"is_disabled":false,"rental_uris":{"android":"levelo://app?vid=518e4ab3-62f5-49d0-8c11-c0007f16dd7e","ios":"levelo://app?vid=518e4ab3-62f5-49d0-8c11-c0007f16dd7e"},"vehicle_type_id":"4","last_reported":1727298524,"current_range_meters":24800,"station_id":"ce4bh692rcd13ifvqea0","pricing_plan_id":"cebpf4jnsgd1na2vs0mg"},{"bike_id":"59233330-600d-4e2b-84c8-7ab9dfe26a1f","system_id":"levelo_inurba_marseille","lat":43.24653,"lon":5.38893,"is_reserved":false,"is_disabled":false,"rental_uris":{"android":"levelo://app?vid=59233330-600d-4e2b-84c8-7ab9dfe26a1f","ios":"levelo://app?vid=59233330-600d-4e2b-84c8-7ab9dfe26a1f"},"vehicle_type_id":"4","last_reported":1727298524,"current_range_meters":23200,"station_id":"ce4bhg12rcd13ifvqf60","pricing_plan_id":"cebpf4jnsgd1na2vs0mg"},{"bike_id":"88f78d45-17d5-4b8a-af19-f4e14649fbe9","system_id":"levelo_inurba_marseille","lat":43.28462,"lon":5.3588,"is_reserved":false,"is_disabled":false,"rental_uris":{"android":"levelo://app?vid=88f78d45-17d5-4b8a-af19-f4e14649fbe9","ios":"levelo://app?vid=88f78d45-17d5-4b8a-af19-f4e14649fbe9"},"vehicle_type_id":"4","last_reported":1727298524,"current_range_meters":3200,"station_id":"ce4bhah2rcd13ifvqei0","pricing_plan_id":"cebpf4jnsgd1na2vs0mg"},{"bike_id":"9d128452-2447-4cd4-acb6-7a266eb4c875","system_id":"levelo_inurba_marseille","lat":43.27378,"lon":5.36253,"is_reserved":false,"is_disabled":false,"rental_uris":{"android":"levelo://app?vid=9d128452-2447-4cd4-acb6-7a266eb4c875","ios":"levelo://app?vid=9d128452-2447-4cd4-acb6-7a266eb4c875"},"vehicle_type_id":"4","last_reported":1727298524,"current_range_meters":38800,"station_id":"ce4bhbh2rcd13ifvqeo0","pricing_plan_id":"cebpf4jnsgd1na2vs0mg"},{"bike_id":"7e88f0d3-56a1-427f-83c7-1a73ca8b9647","system_id":"levelo_inurba_marseille","lat":43.31276,"lon":5.40176,"is_reserved":false,"is_disabled":false,"rental_uris":{"android":"levelo://app?vid=7e88f0d3-56a1-427f-83c7-1a73ca8b9647","ios":"levelo://app?vid=7e88f0d3-56a1-427f-83c7-1a73ca8b9647"},"vehicle_type_id":"4","last_reported":1727298524,"current_range_meters":24400,"station_id":"ce4bh092rcd13ifvqd30","pricing_plan_id":"cebpf4jnsgd1na2vs0mg"},{"bike_id":"ed9d69a6-a921-4251-b073-fdfe53c8cdc2","system_id":"levelo_inurba_marseille","lat":43.24079,"lon":5.37761,"is_reserved":false,"is_disabled":false,"rental_uris":{"android":"levelo://app?vid=ed9d69a6-a921-4251-b073-fdfe53c8cdc2","ios":"levelo://app?vid=ed9d69a6-a921-4251-b073-fdfe53c8cdc2"},"vehicle_type_id":"4","last_reported":1727298524,"current_range_meters":38400,"station_id":"ce4bhnp2rcd13ifvqgvg","pricing_plan_id":"cebpf4jnsgd1na2vs0mg"},{"bike_id":"64923289-9af6-43c3-b827-82741e0af2f5","system_id":"levelo_inurba_marseille","lat":43.28458,"lon":5.35876,"is_reserved":false,"is_disabled":false,"rental_uris":{"android":"levelo://app?vid=64923289-9af6-43c3-b827-82741e0af2f5","ios":"levelo://app?vid=64923289-9af6-43c3-b827-82741e0af2f5"},"vehicle_type_id":"4","last_reported":1727298524,"current_range_meters":6000,"station_id":"ce4bhah2rcd13ifvqei0","pricing_plan_id":"cebpf4jnsgd1na2vs0mg"},{"bike_id":"7de5ca1e-fa2c-427e-813a-699af6c1acc2","system_id":"levelo_inurba_marseille","lat":43.31083,"lon":5.42433,"is_reserved":false,"is_disabled":false,"rental_uris":{"android":"levelo://app?vid=7de5ca1e-fa2c-427e-813a-699af6c1acc2","ios":"levelo://app?vid=7de5ca1e-fa2c-427e-813a-699af6c1acc2"},"vehicle_type_id":"4","last_reported":1727298524,"current_range_meters":30000,"station_id":"ce4bhp92rcd13ifvqhag","pricing_plan_id":"cebpf4jnsgd1na2vs0mg"},{"bike_id":"9245460e-c7a0-43cd-952a-5816cabbfeae","system_id":"levelo_inurba_marseille","lat":43.28852,"lon":5.35857,"is_reserved":false,"is_disabled":false,"rental_uris":{"android":"levelo://app?vid=9245460e-c7a0-43cd-952a-5816cabbfeae","ios":"levelo://app?vid=9245460e-c7a0-43cd-952a-5816cabbfeae"},"vehicle_type_id":"4","last_reported":1727298524,"current_range_meters":4400,"station_id":"ce4bhb12rcd13ifvqem0","pricing_plan_id":"cebpf4jnsgd1na2vs0mg"},{"bike_id":"e0321300-37ad-4bce-a17c-4bf73cb9114f","system_id":"levelo_inurba_marseille","lat":43.298981,"lon":5.436699,"is_reserved":false,"is_disabled":false,"rental_uris":{"android":"levelo://app?vid=e0321300-37ad-4bce-a17c-4bf73cb9114f","ios":"levelo://app?vid=e0321300-37ad-4bce-a17c-4bf73cb9114f"},"vehicle_type_id":"4","last_reported":1727298524,"current_range_meters":38000,"station_id":"ce4bhpp2rcd13ifvqhfg","pricing_plan_id":"cebpf4jnsgd1na2vs0mg"},{"bike_id":"a40b1a52-57eb-4a1f-aa43-64a12c323c0e","system_id":"levelo_inurba_marseille","lat":43.27942,"lon":5.41045,"is_reserved":false,"is_disabled":false,"rental_uris":{"android":"levelo://app?vid=a40b1a52-57eb-4a1f-aa43-64a12c323c0e","ios":"levelo://app?vid=a40b1a52-57eb-4a1f-aa43-64a12c323c0e"},"vehicle_type_id":"4","last_reported":1727298524,"current_range_meters":35600,"station_id":"ce4bhnp2rcd13ifvqh0g","pricing_plan_id":"cebpf4jnsgd1na2vs0mg"},{"bike_id":"52fbdfdd-a0fb-41a5-ac85-c694294ce5a1","system_id":"levelo_inurba_marseille","lat":43.3065,"lon":5.40079,"is_reserved":false,"is_disabled":false,"rental_uris":{"android":"levelo://app?vid=52fbdfdd-a0fb-41a5-ac85-c694294ce5a1","ios":"levelo://app?vid=52fbdfdd-a0fb-41a5-ac85-c694294ce5a1"},"vehicle_type_id":"4","last_reported":1727298524,"current_range_meters":38800,"station_id":"ce4bh112rcd13ifvqda0","pricing_plan_id":"cebpf4jnsgd1na2vs0mg"},{"bike_id":"79a05bb1-ccec-47f0-8ebd-1f95854549f8","system_id":"levelo_inurba_marseille","lat":43.31285,"lon":5.38042,"is_reserved":false,"is_disabled":false,"rental_uris":{"android":"levelo://app?vid=79a05bb1-ccec-47f0-8ebd-1f95854549f8","ios":"levelo://app?vid=79a05bb1-ccec-47f0-8ebd-1f95854549f8"},"vehicle_type_id":"4","last_reported":1727298524,"current_range_meters":9600,"station_id":"","pricing_plan_id":"cebpf4jnsgd1na2vs0mg"},{"bike_id":"e95e9cae-05c8-4a40-b4be-c503476546c5","system_id":"levelo_inurba_marseille","lat":43.2963,"lon":5.40595,"is_reserved":false,"is_disabled":false,"rental_uris":{"android":"levelo://app?vid=e95e9cae-05c8-4a40-b4be-c503476546c5","ios":"levelo://app?vid=e95e9cae-05c8-4a40-b4be-c503476546c5"},"vehicle_type_id":"4","last_reported":1727298524,"current_range_meters":32000,"station_id":"ce4bh0h2rcd13ifvqd60","pricing_plan_id":"cebpf4jnsgd1na2vs0mg"},{"bike_id":"03d78123-f4df-424b-ad49-3854c9ebad3b","system_id":"levelo_inurba_marseille","lat":43.30326,"lon":5.40441,"is_reserved":false,"is_disabled":false,"rental_uris":{"android":"levelo://app?vid=03d78123-f4df-424b-ad49-3854c9ebad3b","ios":"levelo://app?vid=03d78123-f4df-424b-ad49-3854c9ebad3b"},"vehicle_type_id":"4","last_reported":1727298524,"current_range_meters":9200,"station_id":"ce4bh012rcd13ifvqd10","pricing_plan_id":"cebpf4jnsgd1na2vs0mg"},{"bike_id":"79bcd95b-c98a-4a88-8c23-cb2457601db8","system_id":"levelo_inurba_marseille","lat":43.30969,"lon":5.39036,"is_reserved":false,"is_disabled":false,"rental_uris":{"android":"levelo://app?vid=79bcd95b-c98a-4a88-8c23-cb2457601db8","ios":"levelo://app?vid=79bcd95b-c98a-4a88-8c23-cb2457601db8"},"vehicle_type_id":"4","last_reported":1727298524,"current_range_meters":38800,"station_id":"ce4bgup2rcd13ifvqco0","pricing_plan_id":"cebpf4jnsgd1na2vs0mg"},{"bike_id":"42fcc54d-0b83-4da5-9487-0464e074b699","system_id":"levelo_inurba_marseille","lat":43.28265,"lon":5.35064,"is_reserved":false,"is_disabled":false,"rental_uris":{"android":"levelo://app?vid=42fcc54d-0b83-4da5-9487-0464e074b699","ios":"levelo://app?vid=42fcc54d-0b83-4da5-9487-0464e074b699"},"vehicle_type_id":"4","last_reported":1727298524,"current_range_meters":23200,"station_id":"ce4bhbp2rcd13ifvqerg","pricing_plan_id":"cebpf4jnsgd1na2vs0mg"},{"bike_id":"d312ddd4-1b08-4dff-b093-776f1f63c34e","system_id":"levelo_inurba_marseille","lat":43.23183,"lon":5.39988,"is_reserved":false,"is_disabled":false,"rental_uris":{"android":"levelo://app?vid=d312ddd4-1b08-4dff-b093-776f1f63c34e","ios":"levelo://app?vid=d312ddd4-1b08-4dff-b093-776f1f63c34e"},"vehicle_type_id":"4","last_reported":1727298524,"current_range_meters":22400,"station_id":"ce4bhn12rcd13ifvqgqg","pricing_plan_id":"cebpf4jnsgd1na2vs0mg"},{"bike_id":"2c57d5ac-90ad-47db-924c-bef59c9cb929","system_id":"levelo_inurba_marseille","lat":43.29033,"lon":5.39958,"is_reserved":false,"is_disabled":false,"rental_uris":{"android":"levelo://app?vid=2c57d5ac-90ad-47db-924c-bef59c9cb929","ios":"levelo://app?vid=2c57d5ac-90ad-47db-924c-bef59c9cb929"},"vehicle_type_id":"4","last_reported":1727298524,"current_range_meters":15200,"station_id":"ce4bh392rcd13ifvqdm0","pricing_plan_id":"cebpf4jnsgd1na2vs0mg"},{"bike_id":"8495f46c-5e36-48ec-8428-111b147aa47a","system_id":"levelo_inurba_marseille","lat":43.28425,"lon":5.37514,"is_reserved":false,"is_disabled":false,"rental_uris":{"android":"levelo://app?vid=8495f46c-5e36-48ec-8428-111b147aa47a","ios":"levelo://app?vid=8495f46c-5e36-48ec-8428-111b147aa47a"},"vehicle_type_id":"4","last_reported":1727298524,"current_range_meters":8800,"station_id":"ce4bh412rcd13ifvqds0","pricing_plan_id":"cebpf4jnsgd1na2vs0mg"},{"bike_id":"1759d5b7-6786-44db-8c79-c4b09fc6ec40","system_id":"levelo_inurba_marseille","lat":43.30931,"lon":5.40146,"is_reserved":false,"is_disabled":false,"rental_uris":{"android":"levelo://app?vid=1759d5b7-6786-44db-8c79-c4b09fc6ec40","ios":"levelo://app?vid=1759d5b7-6786-44db-8c79-c4b09fc6ec40"},"vehicle_type_id":"4","last_reported":1727298524,"current_range_meters":13600,"station_id":"ce4bgvp2rcd13ifvqct0","pricing_plan_id":"cebpf4jnsgd1na2vs0mg"},{"bike_id":"8f5130c0-b468-42e5-9eaa-eba14b292a2c","system_id":"levelo_inurba_marseille","lat":43.3025,"lon":5.40048,"is_reserved":false,"is_disabled":false,"rental_uris":{"android":"levelo://app?vid=8f5130c0-b468-42e5-9eaa-eba14b292a2c","ios":"levelo://app?vid=8f5130c0-b468-42e5-9eaa-eba14b292a2c"},"vehicle_type_id":"4","last_reported":1727298524,"current_range_meters":38800,"station_id":"ce4bgvh2rcd13ifvqcs0","pricing_plan_id":"cebpf4jnsgd1na2vs0mg"},{"bike_id":"ad84095a-e147-4aab-9d6e-2b2c09979d65","system_id":"levelo_inurba_marseille","lat":43.28002,"lon":5.40004,"is_reserved":false,"is_disabled":false,"rental_uris":{"android":"levelo://app?vid=ad84095a-e147-4aab-9d6e-2b2c09979d65","ios":"levelo://app?vid=ad84095a-e147-4aab-9d6e-2b2c09979d65"},"vehicle_type_id":"4","last_reported":1727298524,"current_range_meters":22000,"station_id":"ce4bho92rcd13ifvqh4g","pricing_plan_id":"cebpf4jnsgd1na2vs0mg"},{"bike_id":"ccdf2e4a-ab19-45c2-a765-42e1119859e3","system_id":"levelo_inurba_marseille","lat":43.28701,"lon":5.39977,"is_reserved":false,"is_disabled":false,"rental_uris":{"android":"levelo://app?vid=ccdf2e4a-ab19-45c2-a765-42e1119859e3","ios":"levelo://app?vid=ccdf2e4a-ab19-45c2-a765-42e1119859e3"},"vehicle_type_id":"4","last_reported":1727298524,"current_range_meters":7200,"station_id":"ce4bho92rcd13ifvqh3g","pricing_plan_id":"cebpf4jnsgd1na2vs0mg"},{"bike_id":"59275bc6-d288-4f6b-b5f6-3e196197889e","system_id":"levelo_inurba_marseille","lat":43.32,"lon":5.38149,"is_reserved":false,"is_disabled":false,"rental_uris":{"android":"levelo://app?vid=59275bc6-d288-4f6b-b5f6-3e196197889e","ios":"levelo://app?vid=59275bc6-d288-4f6b-b5f6-3e196197889e"},"vehicle_type_id":"4","last_reported":1727298524,"current_range_meters":38800,"station_id":"ce4bhr12rcd13ifvqhpg","pricing_plan_id":"cebpf4jnsgd1na2vs0mg"},{"bike_id":"cd424e99-ee3a-45f1-a6b9-de45578e06d3","system_id":"levelo_inurba_marseille","lat":43.29782,"lon":5.39328,"is_reserved":false,"is_disabled":false,"rental_uris":{"android":"levelo://app?vid=cd424e99-ee3a-45f1-a6b9-de45578e06d3","ios":"levelo://app?vid=cd424e99-ee3a-45f1-a6b9-de45578e06d3"},"vehicle_type_id":"4","last_reported":1727298524,"current_range_meters":10800,"station_id":"chh1huq6cuj3fo74tm60","pricing_plan_id":"cebpf4jnsgd1na2vs0mg"},{"bike_id":"abb1da47-bf56-425f-bddd-b875994c1112","system_id":"levelo_inurba_marseille","lat":43.31753,"lon":5.39018,"is_reserved":false,"is_disabled":false,"rental_uris":{"android":"levelo://app?vid=abb1da47-bf56-425f-bddd-b875994c1112","ios":"levelo://app?vid=abb1da47-bf56-425f-bddd-b875994c1112"},"vehicle_type_id":"4","last_reported":1727298524,"current_range_meters":36000,"station_id":"ce4bhqp2rcd13ifvqhng","pricing_plan_id":"cebpf4jnsgd1na2vs0mg"},{"bike_id":"0bc69e2d-7e7d-48bc-8afa-79aa7978c804","system_id":"levelo_inurba_marseille","lat":43.31883,"lon":5.40748,"is_reserved":false,"is_disabled":false,"rental_uris":{"android":"levelo://app?vid=0bc69e2d-7e7d-48bc-8afa-79aa7978c804","ios":"levelo://app?vid=0bc69e2d-7e7d-48bc-8afa-79aa7978c804"},"vehicle_type_id":"4","last_reported":1727298524,"current_range_meters":25200,"station_id":"ce4bhq12rcd13ifvqhig","pricing_plan_id":"cebpf4jnsgd1na2vs0mg"},{"bike_id":"63744131-e298-4c0b-81e7-987738355832","system_id":"levelo_inurba_marseille","lat":43.27911,"lon":5.39589,"is_reserved":false,"is_disabled":false,"rental_uris":{"android":"levelo://app?vid=63744131-e298-4c0b-81e7-987738355832","ios":"levelo://app?vid=63744131-e298-4c0b-81e7-987738355832"},"vehicle_type_id":"4","last_reported":1727298524,"current_range_meters":11200,"station_id":"ce4bhf92rcd13ifvqf40","pricing_plan_id":"cebpf4jnsgd1na2vs0mg"},{"bike_id":"65063097-6998-460f-ac17-9ddd6188ee3b","system_id":"levelo_inurba_marseille","lat":43.3107,"lon":5.38346,"is_reserved":false,"is_disabled":false,"rental_uris":{"android":"levelo://app?vid=65063097-6998-460f-ac17-9ddd6188ee3b","ios":"levelo://app?vid=65063097-6998-460f-ac17-9ddd6188ee3b"},"vehicle_type_id":"4","last_reported":1727298524,"current_range_meters":38800,"station_id":"ce4bgv92rcd13ifvqcr0","pricing_plan_id":"cebpf4jnsgd1na2vs0mg"},{"bike_id":"99f8ad48-51db-4466-be29-2d7cf85a553b","system_id":"levelo_inurba_marseille","lat":43.31362,"lon":5.38495,"is_reserved":false,"is_disabled":false,"rental_uris":{"android":"levelo://app?vid=99f8ad48-51db-4466-be29-2d7cf85a553b","ios":"levelo://app?vid=99f8ad48-51db-4466-be29-2d7cf85a553b"},"vehicle_type_id":"4","last_reported":1727298524,"current_range_meters":38800,"station_id":"ce4bgt92rcd13ifvqcf0","pricing_plan_id":"cebpf4jnsgd1na2vs0mg"},{"bike_id":"01c541f6-d851-4c8e-abbf-f0520681b5b4","system_id":"levelo_inurba_marseille","lat":43.2454,"lon":5.39521,"is_reserved":false,"is_disabled":false,"rental_uris":{"android":"levelo://app?vid=01c541f6-d851-4c8e-abbf-f0520681b5b4","ios":"levelo://app?vid=01c541f6-d851-4c8e-abbf-f0520681b5b4"},"vehicle_type_id":"4","last_reported":1727298524,"current_range_meters":38800,"station_id":"ce4bhlp2rcd13ifvqgjg","pricing_plan_id":"cebpf4jnsgd1na2vs0mg"},{"bike_id":"97bcd627-3f6f-426d-aa0e-9462a321b97f","system_id":"levelo_inurba_marseille","lat":43.29793,"lon":5.39355,"is_reserved":false,"is_disabled":false,"rental_uris":{"android":"levelo://app?vid=97bcd627-3f6f-426d-aa0e-9462a321b97f","ios":"levelo://app?vid=97bcd627-3f6f-426d-aa0e-9462a321b97f"},"vehicle_type_id":"4","last_reported":1727298524,"current_range_meters":36800,"station_id":"chh1huq6cuj3fo74tm60","pricing_plan_id":"cebpf4jnsgd1na2vs0mg"},{"bike_id":"0ed61cb4-e911-4b18-937c-4ea0664db6da","system_id":"levelo_inurba_marseille","lat":43.297455,"lon":5.381088,"is_reserved":false,"is_disabled":false,"rental_uris":{"android":"levelo://app?vid=0ed61cb4-e911-4b18-937c-4ea0664db6da","ios":"levelo://app?vid=0ed61cb4-e911-4b18-937c-4ea0664db6da"},"vehicle_type_id":"4","last_reported":1727298524,"current_range_meters":2800,"station_id":"ce4bgip2rcd13ifvqbb0","pricing_plan_id":"cebpf4jnsgd1na2vs0mg"},{"bike_id":"59110eaf-d528-474b-9446-365ef418fedb","system_id":"levelo_inurba_marseille","lat":43.29278,"lon":5.40122,"is_reserved":false,"is_disabled":false,"rental_uris":{"android":"levelo://app?vid=59110eaf-d528-474b-9446-365ef418fedb","ios":"levelo://app?vid=59110eaf-d528-474b-9446-365ef418fedb"},"vehicle_type_id":"4","last_reported":1727298524,"current_range_meters":38800,"station_id":"ce4bh312rcd13ifvqdk0","pricing_plan_id":"cebpf4jnsgd1na2vs0mg"},{"bike_id":"0f4af939-a5d3-4019-8f99-f4920ced632e","system_id":"levelo_inurba_marseille","lat":43.31882,"lon":5.40731,"is_reserved":false,"is_disabled":false,"rental_uris":{"android":"levelo://app?vid=0f4af939-a5d3-4019-8f99-f4920ced632e","ios":"levelo://app?vid=0f4af939-a5d3-4019-8f99-f4920ced632e"},"vehicle_type_id":"4","last_reported":1727298524,"current_range_meters":22800,"station_id":"ce4bhq12rcd13ifvqhig","pricing_plan_id":"cebpf4jnsgd1na2vs0mg"},{"bike_id":"38674e62-e768-405d-9590-89d89d7b7b0f","system_id":"levelo_inurba_marseille","lat":43.26065,"lon":5.394,"is_reserved":false,"is_disabled":false,"rental_uris":{"android":"levelo://app?vid=38674e62-e768-405d-9590-89d89d7b7b0f","ios":"levelo://app?vid=38674e62-e768-405d-9590-89d89d7b7b0f"},"vehicle_type_id":"4","last_reported":1727298524,"current_range_meters":38000,"station_id":"ce4bhh92rcd13ifvqfj0","pricing_plan_id":"cebpf4jnsgd1na2vs0mg"},{"bike_id":"6aeee1aa-489a-4cb7-9bbf-57c495c2e7ff","system_id":"levelo_inurba_marseille","lat":43.32365,"lon":5.38886,"is_reserved":false,"is_disabled":false,"rental_uris":{"android":"levelo://app?vid=6aeee1aa-489a-4cb7-9bbf-57c495c2e7ff","ios":"levelo://app?vid=6aeee1aa-489a-4cb7-9bbf-57c495c2e7ff"},"vehicle_type_id":"4","last_reported":1727298524,"current_range_meters":32000,"station_id":"ce4bhqp2rcd13ifvqhog","pricing_plan_id":"cebpf4jnsgd1na2vs0mg"},{"bike_id":"9df2bede-fbe1-4c5f-85da-3d7007b4d93f","system_id":"levelo_inurba_marseille","lat":43.30888,"lon":5.3963,"is_reserved":false,"is_disabled":false,"rental_uris":{"android":"levelo://app?vid=9df2bede-fbe1-4c5f-85da-3d7007b4d93f","ios":"levelo://app?vid=9df2bede-fbe1-4c5f-85da-3d7007b4d93f"},"vehicle_type_id":"4","last_reported":1727298524,"current_range_meters":28400,"station_id":"ce4bh012rcd13ifvqcv0","pricing_plan_id":"cebpf4jnsgd1na2vs0mg"},{"bike_id":"6ff2343d-b29d-484d-b89d-073d663c29ac","system_id":"levelo_inurba_marseille","lat":43.31372,"lon":5.38499,"is_reserved":false,"is_disabled":false,"rental_uris":{"android":"levelo://app?vid=6ff2343d-b29d-484d-b89d-073d663c29ac","ios":"levelo://app?vid=6ff2343d-b29d-484d-b89d-073d663c29ac"},"vehicle_type_id":"4","last_reported":1727298524,"current_range_meters":38800,"station_id":"ce4bgt92rcd13ifvqcf0","pricing_plan_id":"cebpf4jnsgd1na2vs0mg"},{"bike_id":"a3f7c797-2788-4cea-aa51-2735e90fcd90","system_id":"levelo_inurba_marseille","lat":43.30795,"lon":5.4353,"is_reserved":false,"is_disabled":false,"rental_uris":{"android":"levelo://app?vid=a3f7c797-2788-4cea-aa51-2735e90fcd90","ios":"levelo://app?vid=a3f7c797-2788-4cea-aa51-2735e90fcd90"},"vehicle_type_id":"4","last_reported":1727298524,"current_range_meters":27600,"station_id":"ce4bhph2rcd13ifvqheg","pricing_plan_id":"cebpf4jnsgd1na2vs0mg"},{"bike_id":"d58cce04-53dd-4318-a45c-63684365314b","system_id":"levelo_inurba_marseille","lat":43.2963,"lon":5.40598,"is_reserved":false,"is_disabled":false,"rental_uris":{"android":"levelo://app?vid=d58cce04-53dd-4318-a45c-63684365314b","ios":"levelo://app?vid=d58cce04-53dd-4318-a45c-63684365314b"},"vehicle_type_id":"4","last_reported":1727298524,"current_range_meters":25600,"station_id":"ce4bh0h2rcd13ifvqd60","pricing_plan_id":"cebpf4jnsgd1na2vs0mg"},{"bike_id":"b8265e77-c510-430c-9b27-d54ecb0610d0","system_id":"levelo_inurba_marseille","lat":43.25081,"lon":5.39519,"is_reserved":false,"is_disabled":false,"rental_uris":{"android":"levelo://app?vid=b8265e77-c510-430c-9b27-d54ecb0610d0","ios":"levelo://app?vid=b8265e77-c510-430c-9b27-d54ecb0610d0"},"vehicle_type_id":"4","last_reported":1727298524,"current_range_meters":24000,"station_id":"ce4bhm12rcd13ifvqgkg","pricing_plan_id":"cebpf4jnsgd1na2vs0mg"},{"bike_id":"50783ba4-bb0c-492d-8eac-2b1373f8f6a4","system_id":"levelo_inurba_marseille","lat":43.30531,"lon":5.36716,"is_reserved":false,"is_disabled":false,"rental_uris":{"android":"levelo://app?vid=50783ba4-bb0c-492d-8eac-2b1373f8f6a4","ios":"levelo://app?vid=50783ba4-bb0c-492d-8eac-2b1373f8f6a4"},"vehicle_type_id":"4","last_reported":1727298524,"current_range_meters":12400,"station_id":"ce4bgrp2rcd13ifvqc9g","pricing_plan_id":"cebpf4jnsgd1na2vs0mg"},{"bike_id":"5ee16ce5-e564-4a44-a6eb-16aad7da495c","system_id":"levelo_inurba_marseille","lat":43.29917,"lon":5.37485,"is_reserved":false,"is_disabled":false,"rental_uris":{"android":"levelo://app?vid=5ee16ce5-e564-4a44-a6eb-16aad7da495c","ios":"levelo://app?vid=5ee16ce5-e564-4a44-a6eb-16aad7da495c"},"vehicle_type_id":"4","last_reported":1727298524,"current_range_meters":36000,"station_id":"ce4bgjh2rcd13ifvqbg0","pricing_plan_id":"cebpf4jnsgd1na2vs0mg"},{"bike_id":"5c93b95c-0549-41f0-a4a9-6211e260d1dc","system_id":"levelo_inurba_marseille","lat":43.3189,"lon":5.40731,"is_reserved":false,"is_disabled":false,"rental_uris":{"android":"levelo://app?vid=5c93b95c-0549-41f0-a4a9-6211e260d1dc","ios":"levelo://app?vid=5c93b95c-0549-41f0-a4a9-6211e260d1dc"},"vehicle_type_id":"4","last_reported":1727298524,"current_range_meters":6400,"station_id":"ce4bhq12rcd13ifvqhig","pricing_plan_id":"cebpf4jnsgd1na2vs0mg"},{"bike_id":"031c2443-9ee1-436c-9b5c-61dfa2758075","system_id":"levelo_inurba_marseille","lat":43.30791,"lon":5.37656,"is_reserved":false,"is_disabled":false,"rental_uris":{"android":"levelo://app?vid=031c2443-9ee1-436c-9b5c-61dfa2758075","ios":"levelo://app?vid=031c2443-9ee1-436c-9b5c-61dfa2758075"},"vehicle_type_id":"4","last_reported":1727298524,"current_range_meters":7200,"station_id":"ce4bgv92rcd13ifvqcq0","pricing_plan_id":"cebpf4jnsgd1na2vs0mg"},{"bike_id":"920b7059-efc6-4750-96fa-124c71e8a324","system_id":"levelo_inurba_marseille","lat":43.28709,"lon":5.37393,"is_reserved":false,"is_disabled":false,"rental_uris":{"android":"levelo://app?vid=920b7059-efc6-4750-96fa-124c71e8a324","ios":"levelo://app?vid=920b7059-efc6-4750-96fa-124c71e8a324"},"vehicle_type_id":"4","last_reported":1727298524,"current_range_meters":38800,"station_id":"ce4bh3p2rcd13ifvqdq0","pricing_plan_id":"cebpf4jnsgd1na2vs0mg"},{"bike_id":"19309ef8-ba58-45a5-8f62-d42eb4958490","system_id":"levelo_inurba_marseille","lat":43.30935,"lon":5.40139,"is_reserved":false,"is_disabled":false,"rental_uris":{"android":"levelo://app?vid=19309ef8-ba58-45a5-8f62-d42eb4958490","ios":"levelo://app?vid=19309ef8-ba58-45a5-8f62-d42eb4958490"},"vehicle_type_id":"4","last_reported":1727298524,"current_range_meters":23200,"station_id":"ce4bgvp2rcd13ifvqct0","pricing_plan_id":"cebpf4jnsgd1na2vs0mg"},{"bike_id":"f15fd042-8eed-43d8-828e-ffd3cc371dfe","system_id":"levelo_inurba_marseille","lat":43.3058,"lon":5.39919,"is_reserved":false,"is_disabled":false,"rental_uris":{"android":"levelo://app?vid=f15fd042-8eed-43d8-828e-ffd3cc371dfe","ios":"levelo://app?vid=f15fd042-8eed-43d8-828e-ffd3cc371dfe"},"vehicle_type_id":"4","last_reported":1727298524,"current_range_meters":23200,"station_id":"ce4bgvp2rcd13ifvqct0","pricing_plan_id":"cebpf4jnsgd1na2vs0mg"},{"bike_id":"6954fd7e-728c-4dac-9e64-3fa4e20ee438","system_id":"levelo_inurba_marseille","lat":43.33728,"lon":5.3918,"is_reserved":false,"is_disabled":false,"rental_uris":{"android":"levelo://app?vid=6954fd7e-728c-4dac-9e64-3fa4e20ee438","ios":"levelo://app?vid=6954fd7e-728c-4dac-9e64-3fa4e20ee438"},"vehicle_type_id":"4","last_reported":1727298524,"current_range_meters":37600,"station_id":"ce4bhr92rcd13ifvqhsg","pricing_plan_id":"cebpf4jnsgd1na2vs0mg"},{"bike_id":"eab5a9e2-402e-41da-921c-d31391bad40e","system_id":"levelo_inurba_marseille","lat":43.24663,"lon":5.38168,"is_reserved":false,"is_disabled":false,"rental_uris":{"android":"levelo://app?vid=eab5a9e2-402e-41da-921c-d31391bad40e","ios":"levelo://app?vid=eab5a9e2-402e-41da-921c-d31391bad40e"},"vehicle_type_id":"4","last_reported":1727298524,"current_range_meters":14800,"station_id":"ce4bhih2rcd13ifvqfr0","pricing_plan_id":"cebpf4jnsgd1na2vs0mg"},{"bike_id":"7e728d8d-05e7-4fdc-9396-6a8290dfa07b","system_id":"levelo_inurba_marseille","lat":43.26614,"lon":5.38986,"is_reserved":false,"is_disabled":false,"rental_uris":{"android":"levelo://app?vid=7e728d8d-05e7-4fdc-9396-6a8290dfa07b","ios":"levelo://app?vid=7e728d8d-05e7-4fdc-9396-6a8290dfa07b"},"vehicle_type_id":"4","last_reported":1727298524,"current_range_meters":36800,"station_id":"ce4bhi12rcd13ifvqfo0","pricing_plan_id":"cebpf4jnsgd1na2vs0mg"},{"bike_id":"7bd1f9cd-8b82-486c-8e77-f4da96f27ef9","system_id":"levelo_inurba_marseille","lat":43.24665,"lon":5.38163,"is_reserved":false,"is_disabled":false,"rental_uris":{"android":"levelo://app?vid=7bd1f9cd-8b82-486c-8e77-f4da96f27ef9","ios":"levelo://app?vid=7bd1f9cd-8b82-486c-8e77-f4da96f27ef9"},"vehicle_type_id":"4","last_reported":1727298524,"current_range_meters":36400,"station_id":"ce4bhih2rcd13ifvqfr0","pricing_plan_id":"cebpf4jnsgd1na2vs0mg"},{"bike_id":"d0d07880-62b3-4c52-b862-412a7e5558bd","system_id":"levelo_inurba_marseille","lat":43.27997,"lon":5.41665,"is_reserved":false,"is_disabled":false,"rental_uris":{"android":"levelo://app?vid=d0d07880-62b3-4c52-b862-412a7e5558bd","ios":"levelo://app?vid=d0d07880-62b3-4c52-b862-412a7e5558bd"},"vehicle_type_id":"4","last_reported":1727298524,"current_range_meters":20800,"station_id":"ce4bho12rcd13ifvqh1g","pricing_plan_id":"cebpf4jnsgd1na2vs0mg"},{"bike_id":"cba95091-7984-4b96-9b49-853952a62f5f","system_id":"levelo_inurba_marseille","lat":43.28456,"lon":5.35891,"is_reserved":false,"is_disabled":false,"rental_uris":{"android":"levelo://app?vid=cba95091-7984-4b96-9b49-853952a62f5f","ios":"levelo://app?vid=cba95091-7984-4b96-9b49-853952a62f5f"},"vehicle_type_id":"4","last_reported":1727298524,"current_range_meters":20400,"station_id":"ce4bhah2rcd13ifvqei0","pricing_plan_id":"cebpf4jnsgd1na2vs0mg"},{"bike_id":"920936a9-2bd7-4506-9543-c06109854d8e","system_id":"levelo_inurba_marseille","lat":43.28658,"lon":5.36355,"is_reserved":false,"is_disabled":false,"rental_uris":{"android":"levelo://app?vid=920936a9-2bd7-4506-9543-c06109854d8e","ios":"levelo://app?vid=920936a9-2bd7-4506-9543-c06109854d8e"},"vehicle_type_id":"4","last_reported":1727298524,"current_range_meters":17200,"station_id":"ce4bhah2rcd13ifvqej0","pricing_plan_id":"cebpf4jnsgd1na2vs0mg"},{"bike_id":"89685f51-8676-45f9-b167-709e27038cfa","system_id":"levelo_inurba_marseille","lat":43.27839,"lon":5.39202,"is_reserved":false,"is_disabled":false,"rental_uris":{"android":"levelo://app?vid=89685f51-8676-45f9-b167-709e27038cfa","ios":"levelo://app?vid=89685f51-8676-45f9-b167-709e27038cfa"},"vehicle_type_id":"4","last_reported":1727298524,"current_range_meters":30400,"station_id":"ce4bhjp2rcd13ifvqga0","pricing_plan_id":"cebpf4jnsgd1na2vs0mg"},{"bike_id":"cf36a53a-3509-423f-8075-777dbf5a32a1","system_id":"levelo_inurba_marseille","lat":43.22941,"lon":5.35381,"is_reserved":false,"is_disabled":false,"rental_uris":{"android":"levelo://app?vid=cf36a53a-3509-423f-8075-777dbf5a32a1","ios":"levelo://app?vid=cf36a53a-3509-423f-8075-777dbf5a32a1"},"vehicle_type_id":"4","last_reported":1727298524,"current_range_meters":28000,"station_id":"cpo3532slgdg3j2ikp40","pricing_plan_id":"cebpf4jnsgd1na2vs0mg"},{"bike_id":"a75d11e4-5000-41f8-9ff2-fbd2a76366d5","system_id":"levelo_inurba_marseille","lat":43.3395,"lon":5.42082,"is_reserved":false,"is_disabled":false,"rental_uris":{"android":"levelo://app?vid=a75d11e4-5000-41f8-9ff2-fbd2a76366d5","ios":"levelo://app?vid=a75d11e4-5000-41f8-9ff2-fbd2a76366d5"},"vehicle_type_id":"4","last_reported":1727298524,"current_range_meters":18000,"station_id":"","pricing_plan_id":"cebpf4jnsgd1na2vs0mg"},{"bike_id":"3dee0047-4e2c-490b-9230-09a4c8d3bf08","system_id":"levelo_inurba_marseille","lat":43.28461,"lon":5.35889,"is_reserved":false,"is_disabled":false,"rental_uris":{"android":"levelo://app?vid=3dee0047-4e2c-490b-9230-09a4c8d3bf08","ios":"levelo://app?vid=3dee0047-4e2c-490b-9230-09a4c8d3bf08"},"vehicle_type_id":"4","last_reported":1727298524,"current_range_meters":35600,"station_id":"ce4bhah2rcd13ifvqei0","pricing_plan_id":"cebpf4jnsgd1na2vs0mg"},{"bike_id":"ea49d9e8-8e06-4151-b49f-455334378a83","system_id":"levelo_inurba_marseille","lat":43.25725,"lon":5.41108,"is_reserved":false,"is_disabled":false,"rental_uris":{"android":"levelo://app?vid=ea49d9e8-8e06-4151-b49f-455334378a83","ios":"levelo://app?vid=ea49d9e8-8e06-4151-b49f-455334378a83"},"vehicle_type_id":"4","last_reported":1727298524,"current_range_meters":6400,"station_id":"ce4bhkp2rcd13ifvqgd0","pricing_plan_id":"cebpf4jnsgd1na2vs0mg"},{"bike_id":"2f2c48a7-330b-44c3-b52f-a01c344118c9","system_id":"levelo_inurba_marseille","lat":43.32286,"lon":5.38275,"is_reserved":false,"is_disabled":false,"rental_uris":{"android":"levelo://app?vid=2f2c48a7-330b-44c3-b52f-a01c344118c9","ios":"levelo://app?vid=2f2c48a7-330b-44c3-b52f-a01c344118c9"},"vehicle_type_id":"4","last_reported":1727298524,"current_range_meters":19600,"station_id":"ce4bhr12rcd13ifvqhqg","pricing_plan_id":"cebpf4jnsgd1na2vs0mg"},{"bike_id":"3ece0bdb-3e12-4873-a225-f929d21ee483","system_id":"levelo_inurba_marseille","lat":43.29972,"lon":5.38489,"is_reserved":false,"is_disabled":false,"rental_uris":{"android":"levelo://app?vid=3ece0bdb-3e12-4873-a225-f929d21ee483","ios":"levelo://app?vid=3ece0bdb-3e12-4873-a225-f929d21ee483"},"vehicle_type_id":"4","last_reported":1727298524,"current_range_meters":36800,"station_id":"ce4bgj92rcd13ifvqbd0","pricing_plan_id":"cebpf4jnsgd1na2vs0mg"},{"bike_id":"858ca720-3eaf-4793-8994-cd32470e7cc9","system_id":"levelo_inurba_marseille","lat":43.28709,"lon":5.3739,"is_reserved":false,"is_disabled":false,"rental_uris":{"android":"levelo://app?vid=858ca720-3eaf-4793-8994-cd32470e7cc9","ios":"levelo://app?vid=858ca720-3eaf-4793-8994-cd32470e7cc9"},"vehicle_type_id":"4","last_reported":1727298524,"current_range_meters":38000,"station_id":"ce4bh3p2rcd13ifvqdq0","pricing_plan_id":"cebpf4jnsgd1na2vs0mg"},{"bike_id":"f0968598-49eb-41fc-8807-ca4c62626d0f","system_id":"levelo_inurba_marseille","lat":43.27687,"lon":5.38899,"is_reserved":false,"is_disabled":false,"rental_uris":{"android":"levelo://app?vid=f0968598-49eb-41fc-8807-ca4c62626d0f","ios":"levelo://app?vid=f0968598-49eb-41fc-8807-ca4c62626d0f"},"vehicle_type_id":"4","last_reported":1727298524,"current_range_meters":12000,"station_id":"ce4bhi12rcd13ifvqfo0","pricing_plan_id":"cebpf4jnsgd1na2vs0mg"},{"bike_id":"362d6825-6219-416f-b86d-6c9c61d5f4f6","system_id":"levelo_inurba_marseille","lat":43.28413,"lon":5.37517,"is_reserved":false,"is_disabled":false,"rental_uris":{"android":"levelo://app?vid=362d6825-6219-416f-b86d-6c9c61d5f4f6","ios":"levelo://app?vid=362d6825-6219-416f-b86d-6c9c61d5f4f6"},"vehicle_type_id":"4","last_reported":1727298524,"current_range_meters":30400,"station_id":"ce4bh412rcd13ifvqds0","pricing_plan_id":"cebpf4jnsgd1na2vs0mg"},{"bike_id":"e5bd0fa9-5f87-41bf-b1c3-9068bc1e13e2","system_id":"levelo_inurba_marseille","lat":43.32361,"lon":5.38887,"is_reserved":false,"is_disabled":false,"rental_uris":{"android":"levelo://app?vid=e5bd0fa9-5f87-41bf-b1c3-9068bc1e13e2","ios":"levelo://app?vid=e5bd0fa9-5f87-41bf-b1c3-9068bc1e13e2"},"vehicle_type_id":"4","last_reported":1727298524,"current_range_meters":20400,"station_id":"ce4bhqp2rcd13ifvqhog","pricing_plan_id":"cebpf4jnsgd1na2vs0mg"},{"bike_id":"8fb1aede-6cd4-4030-8f61-8691fe51cbc3","system_id":"levelo_inurba_marseille","lat":43.28707,"lon":5.39979,"is_reserved":false,"is_disabled":false,"rental_uris":{"android":"levelo://app?vid=8fb1aede-6cd4-4030-8f61-8691fe51cbc3","ios":"levelo://app?vid=8fb1aede-6cd4-4030-8f61-8691fe51cbc3"},"vehicle_type_id":"4","last_reported":1727298524,"current_range_meters":25600,"station_id":"ce4bho92rcd13ifvqh3g","pricing_plan_id":"cebpf4jnsgd1na2vs0mg"},{"bike_id":"16d7ccce-0e49-414a-829d-4cc48f8810c4","system_id":"levelo_inurba_marseille","lat":43.29891,"lon":5.39741,"is_reserved":false,"is_disabled":false,"rental_uris":{"android":"levelo://app?vid=16d7ccce-0e49-414a-829d-4cc48f8810c4","ios":"levelo://app?vid=16d7ccce-0e49-414a-829d-4cc48f8810c4"},"vehicle_type_id":"4","last_reported":1727298524,"current_range_meters":12400,"station_id":"ce4bh0h2rcd13ifvqd50","pricing_plan_id":"cebpf4jnsgd1na2vs0mg"},{"bike_id":"a45e9f79-9d87-4ae1-bb1b-a1720214dd8e","system_id":"levelo_inurba_marseille","lat":43.31336,"lon":5.39696,"is_reserved":false,"is_disabled":false,"rental_uris":{"android":"levelo://app?vid=a45e9f79-9d87-4ae1-bb1b-a1720214dd8e","ios":"levelo://app?vid=a45e9f79-9d87-4ae1-bb1b-a1720214dd8e"},"vehicle_type_id":"4","last_reported":1727298524,"current_range_meters":38800,"station_id":"ce4bgvp2rcd13ifvqcu0","pricing_plan_id":"cebpf4jnsgd1na2vs0mg"},{"bike_id":"fc9c5792-d459-492d-9e15-eeb2e88813b3","system_id":"levelo_inurba_marseille","lat":43.3009,"lon":5.39079,"is_reserved":false,"is_disabled":false,"rental_uris":{"android":"levelo://app?vid=fc9c5792-d459-492d-9e15-eeb2e88813b3","ios":"levelo://app?vid=fc9c5792-d459-492d-9e15-eeb2e88813b3"},"vehicle_type_id":"4","last_reported":1727298524,"current_range_meters":38000,"station_id":"ce4bh192rcd13ifvqdb0","pricing_plan_id":"cebpf4jnsgd1na2vs0mg"},{"bike_id":"d43c85ca-4c93-4962-8e62-f8d251e36364","system_id":"levelo_inurba_marseille","lat":43.28153,"lon":5.42643,"is_reserved":false,"is_disabled":false,"rental_uris":{"android":"levelo://app?vid=d43c85ca-4c93-4962-8e62-f8d251e36364","ios":"levelo://app?vid=d43c85ca-4c93-4962-8e62-f8d251e36364"},"vehicle_type_id":"4","last_reported":1727298524,"current_range_meters":36800,"station_id":"ce4bhnh2rcd13ifvqgug","pricing_plan_id":"cebpf4jnsgd1na2vs0mg"},{"bike_id":"579ca450-e0c2-45fa-b5c3-22c592624e30","system_id":"levelo_inurba_marseille","lat":43.33025,"lon":5.39042,"is_reserved":false,"is_disabled":false,"rental_uris":{"android":"levelo://app?vid=579ca450-e0c2-45fa-b5c3-22c592624e30","ios":"levelo://app?vid=579ca450-e0c2-45fa-b5c3-22c592624e30"},"vehicle_type_id":"4","last_reported":1727298524,"current_range_meters":10800,"station_id":"ce4bhr92rcd13ifvqhrg","pricing_plan_id":"cebpf4jnsgd1na2vs0mg"},{"bike_id":"b860d883-c194-47c2-a427-633aacf2d83d","system_id":"levelo_inurba_marseille","lat":43.33602,"lon":5.41036,"is_reserved":false,"is_disabled":false,"rental_uris":{"android":"levelo://app?vid=b860d883-c194-47c2-a427-633aacf2d83d","ios":"levelo://app?vid=b860d883-c194-47c2-a427-633aacf2d83d"},"vehicle_type_id":"4","last_reported":1727298524,"current_range_meters":26800,"station_id":"ce4bhqh2rcd13ifvqhmg","pricing_plan_id":"cebpf4jnsgd1na2vs0mg"},{"bike_id":"c9e95cdf-c110-4e14-adcd-d941fe5fe0c9","system_id":"levelo_inurba_marseille","lat":43.28663,"lon":5.36344,"is_reserved":false,"is_disabled":false,"rental_uris":{"android":"levelo://app?vid=c9e95cdf-c110-4e14-adcd-d941fe5fe0c9","ios":"levelo://app?vid=c9e95cdf-c110-4e14-adcd-d941fe5fe0c9"},"vehicle_type_id":"4","last_reported":1727298524,"current_range_meters":30800,"station_id":"ce4bhah2rcd13ifvqej0","pricing_plan_id":"cebpf4jnsgd1na2vs0mg"},{"bike_id":"f2ef5102-6b9b-41a6-9e50-e7b3a0230a29","system_id":"levelo_inurba_marseille","lat":43.28469,"lon":5.3588,"is_reserved":false,"is_disabled":false,"rental_uris":{"android":"levelo://app?vid=f2ef5102-6b9b-41a6-9e50-e7b3a0230a29","ios":"levelo://app?vid=f2ef5102-6b9b-41a6-9e50-e7b3a0230a29"},"vehicle_type_id":"4","last_reported":1727298524,"current_range_meters":4400,"station_id":"ce4bhah2rcd13ifvqei0","pricing_plan_id":"cebpf4jnsgd1na2vs0mg"},{"bike_id":"1c4f5f16-bf4b-4d09-84d9-5b03e476d207","system_id":"levelo_inurba_marseille","lat":43.29415,"lon":5.386169,"is_reserved":false,"is_disabled":false,"rental_uris":{"android":"levelo://app?vid=1c4f5f16-bf4b-4d09-84d9-5b03e476d207","ios":"levelo://app?vid=1c4f5f16-bf4b-4d09-84d9-5b03e476d207"},"vehicle_type_id":"4","last_reported":1727298524,"current_range_meters":23200,"station_id":"ce4bhb12rcd13ifvqel0","pricing_plan_id":"cebpf4jnsgd1na2vs0mg"},{"bike_id":"c2bdf32c-f616-4cec-8d5e-330373c3c441","system_id":"levelo_inurba_marseille","lat":43.2439,"lon":5.37054,"is_reserved":false,"is_disabled":false,"rental_uris":{"android":"levelo://app?vid=c2bdf32c-f616-4cec-8d5e-330373c3c441","ios":"levelo://app?vid=c2bdf32c-f616-4cec-8d5e-330373c3c441"},"vehicle_type_id":"4","last_reported":1727298524,"current_range_meters":39200,"station_id":"ce4bhhh2rcd13ifvqfk0","pricing_plan_id":"cebpf4jnsgd1na2vs0mg"},{"bike_id":"82625ba3-6e8c-4ba9-9ab8-9a0261ad03b3","system_id":"levelo_inurba_marseille","lat":43.27818,"lon":5.40711,"is_reserved":false,"is_disabled":false,"rental_uris":{"android":"levelo://app?vid=82625ba3-6e8c-4ba9-9ab8-9a0261ad03b3","ios":"levelo://app?vid=82625ba3-6e8c-4ba9-9ab8-9a0261ad03b3"},"vehicle_type_id":"4","last_reported":1727298524,"current_range_meters":12000,"station_id":"ce4bhnh2rcd13ifvqgtg","pricing_plan_id":"cebpf4jnsgd1na2vs0mg"},{"bike_id":"d20b87a8-1ff0-4fbb-9a79-5be841e624b8","system_id":"levelo_inurba_marseille","lat":43.28,"lon":5.41663,"is_reserved":false,"is_disabled":false,"rental_uris":{"android":"levelo://app?vid=d20b87a8-1ff0-4fbb-9a79-5be841e624b8","ios":"levelo://app?vid=d20b87a8-1ff0-4fbb-9a79-5be841e624b8"},"vehicle_type_id":"4","last_reported":1727298524,"current_range_meters":4400,"station_id":"ce4bho12rcd13ifvqh1g","pricing_plan_id":"cebpf4jnsgd1na2vs0mg"},{"bike_id":"8d3ecac4-8e0f-45f1-b81a-9b3dacb760a4","system_id":"levelo_inurba_marseille","lat":43.31169,"lon":5.38709,"is_reserved":false,"is_disabled":false,"rental_uris":{"android":"levelo://app?vid=8d3ecac4-8e0f-45f1-b81a-9b3dacb760a4","ios":"levelo://app?vid=8d3ecac4-8e0f-45f1-b81a-9b3dacb760a4"},"vehicle_type_id":"4","last_reported":1727298524,"current_range_meters":36400,"station_id":"ce4bgv12rcd13ifvqcp0","pricing_plan_id":"cebpf4jnsgd1na2vs0mg"},{"bike_id":"553ffebd-ccf7-4a7c-86b4-9395eafe055b","system_id":"levelo_inurba_marseille","lat":43.31332,"lon":5.39694,"is_reserved":false,"is_disabled":false,"rental_uris":{"android":"levelo://app?vid=553ffebd-ccf7-4a7c-86b4-9395eafe055b","ios":"levelo://app?vid=553ffebd-ccf7-4a7c-86b4-9395eafe055b"},"vehicle_type_id":"4","last_reported":1727298524,"current_range_meters":38000,"station_id":"ce4bgvp2rcd13ifvqcu0","pricing_plan_id":"cebpf4jnsgd1na2vs0mg"},{"bike_id":"c0aa79ae-abc3-4d5c-9c45-9f6f7b8a7d6f","system_id":"levelo_inurba_marseille","lat":43.303,"lon":5.39208,"is_reserved":false,"is_disabled":false,"rental_uris":{"android":"levelo://app?vid=c0aa79ae-abc3-4d5c-9c45-9f6f7b8a7d6f","ios":"levelo://app?vid=c0aa79ae-abc3-4d5c-9c45-9f6f7b8a7d6f"},"vehicle_type_id":"4","last_reported":1727298524,"current_range_meters":5600,"station_id":"ce4bgkh2rcd13ifvqbk0","pricing_plan_id":"cebpf4jnsgd1na2vs0mg"},{"bike_id":"9d6da82d-c178-42a9-8398-55555317c0bd","system_id":"levelo_inurba_marseille","lat":43.2511,"lon":5.40329,"is_reserved":false,"is_disabled":false,"rental_uris":{"android":"levelo://app?vid=9d6da82d-c178-42a9-8398-55555317c0bd","ios":"levelo://app?vid=9d6da82d-c178-42a9-8398-55555317c0bd"},"vehicle_type_id":"4","last_reported":1727298524,"current_range_meters":6800,"station_id":"ce4bhlh2rcd13ifvqgig","pricing_plan_id":"cebpf4jnsgd1na2vs0mg"},{"bike_id":"1a476630-bedf-4ba8-99d5-0807e62471cf","system_id":"levelo_inurba_marseille","lat":43.29774,"lon":5.39352,"is_reserved":false,"is_disabled":false,"rental_uris":{"android":"levelo://app?vid=1a476630-bedf-4ba8-99d5-0807e62471cf","ios":"levelo://app?vid=1a476630-bedf-4ba8-99d5-0807e62471cf"},"vehicle_type_id":"4","last_reported":1727298524,"current_range_meters":31200,"station_id":"chh1huq6cuj3fo74tm60","pricing_plan_id":"cebpf4jnsgd1na2vs0mg"},{"bike_id":"1f7ff787-d63b-4f22-bca9-e14bf846e06d","system_id":"levelo_inurba_marseille","lat":43.27175,"lon":5.40993,"is_reserved":false,"is_disabled":false,"rental_uris":{"android":"levelo://app?vid=1f7ff787-d63b-4f22-bca9-e14bf846e06d","ios":"levelo://app?vid=1f7ff787-d63b-4f22-bca9-e14bf846e06d"},"vehicle_type_id":"4","last_reported":1727298524,"current_range_meters":2000,"station_id":"ce4bhl12rcd13ifvqgf0","pricing_plan_id":"cebpf4jnsgd1na2vs0mg"},{"bike_id":"1c49a05f-67c8-4c00-8e75-d9e27089a285","system_id":"levelo_inurba_marseille","lat":43.32488,"lon":5.36559,"is_reserved":false,"is_disabled":false,"rental_uris":{"android":"levelo://app?vid=1c49a05f-67c8-4c00-8e75-d9e27089a285","ios":"levelo://app?vid=1c49a05f-67c8-4c00-8e75-d9e27089a285"},"vehicle_type_id":"4","last_reported":1727298524,"current_range_meters":14800,"station_id":"ce4bhs12rcd13ifvqhvg","pricing_plan_id":"cebpf4jnsgd1na2vs0mg"},{"bike_id":"a780aadc-9a62-4786-9004-8da841f3c6dd","system_id":"levelo_inurba_marseille","lat":43.25118,"lon":5.40319,"is_reserved":false,"is_disabled":false,"rental_uris":{"android":"levelo://app?vid=a780aadc-9a62-4786-9004-8da841f3c6dd","ios":"levelo://app?vid=a780aadc-9a62-4786-9004-8da841f3c6dd"},"vehicle_type_id":"4","last_reported":1727298524,"current_range_meters":21600,"station_id":"ce4bhlh2rcd13ifvqgig","pricing_plan_id":"cebpf4jnsgd1na2vs0mg"},{"bike_id":"d14d52e5-75cc-4a1f-90ea-cce4ddff11b1","system_id":"levelo_inurba_marseille","lat":43.31186,"lon":5.3871,"is_reserved":false,"is_disabled":false,"rental_uris":{"android":"levelo://app?vid=d14d52e5-75cc-4a1f-90ea-cce4ddff11b1","ios":"levelo://app?vid=d14d52e5-75cc-4a1f-90ea-cce4ddff11b1"},"vehicle_type_id":"4","last_reported":1727298524,"current_range_meters":38800,"station_id":"ce4bgv12rcd13ifvqcp0","pricing_plan_id":"cebpf4jnsgd1na2vs0mg"},{"bike_id":"6c335da8-07df-43e1-a668-04092bf6675e","system_id":"levelo_inurba_marseille","lat":43.29255,"lon":5.40915,"is_reserved":false,"is_disabled":false,"rental_uris":{"android":"levelo://app?vid=6c335da8-07df-43e1-a668-04092bf6675e","ios":"levelo://app?vid=6c335da8-07df-43e1-a668-04092bf6675e"},"vehicle_type_id":"4","last_reported":1727298524,"current_range_meters":16000,"station_id":"ce4bh192rcd13ifvqdc0","pricing_plan_id":"cebpf4jnsgd1na2vs0mg"},{"bike_id":"b10fb30b-3e5a-4b1b-a265-336e3e5742a3","system_id":"levelo_inurba_marseille","lat":43.28101,"lon":5.37845,"is_reserved":false,"is_disabled":false,"rental_uris":{"android":"levelo://app?vid=b10fb30b-3e5a-4b1b-a265-336e3e5742a3","ios":"levelo://app?vid=b10fb30b-3e5a-4b1b-a265-336e3e5742a3"},"vehicle_type_id":"4","last_reported":1727298524,"current_range_meters":31200,"station_id":"ce4bha12rcd13ifvqee0","pricing_plan_id":"cebpf4jnsgd1na2vs0mg"},{"bike_id":"a1e9bad9-395e-4713-bfb8-a7896c4afc46","system_id":"levelo_inurba_marseille","lat":43.30935,"lon":5.40148,"is_reserved":false,"is_disabled":false,"rental_uris":{"android":"levelo://app?vid=a1e9bad9-395e-4713-bfb8-a7896c4afc46","ios":"levelo://app?vid=a1e9bad9-395e-4713-bfb8-a7896c4afc46"},"vehicle_type_id":"4","last_reported":1727298524,"current_range_meters":34000,"station_id":"ce4bgvp2rcd13ifvqct0","pricing_plan_id":"cebpf4jnsgd1na2vs0mg"},{"bike_id":"47ba0401-8be6-4c89-8eef-6bff009d65b5","system_id":"levelo_inurba_marseille","lat":43.3229,"lon":5.3826,"is_reserved":false,"is_disabled":false,"rental_uris":{"android":"levelo://app?vid=47ba0401-8be6-4c89-8eef-6bff009d65b5","ios":"levelo://app?vid=47ba0401-8be6-4c89-8eef-6bff009d65b5"},"vehicle_type_id":"4","last_reported":1727298524,"current_range_meters":14000,"station_id":"ce4bhr12rcd13ifvqhqg","pricing_plan_id":"cebpf4jnsgd1na2vs0mg"},{"bike_id":"6e835b2f-2956-4ae6-af81-2b38c35a3f6d","system_id":"levelo_inurba_marseille","lat":43.29872,"lon":5.3974,"is_reserved":false,"is_disabled":false,"rental_uris":{"android":"levelo://app?vid=6e835b2f-2956-4ae6-af81-2b38c35a3f6d","ios":"levelo://app?vid=6e835b2f-2956-4ae6-af81-2b38c35a3f6d"},"vehicle_type_id":"4","last_reported":1727298524,"current_range_meters":24000,"station_id":"ce4bh0h2rcd13ifvqd50","pricing_plan_id":"cebpf4jnsgd1na2vs0mg"},{"bike_id":"64a56750-bb84-4478-9eb0-b6ec75f8dbb6","system_id":"levelo_inurba_marseille","lat":43.284445,"lon":5.391885,"is_reserved":false,"is_disabled":false,"rental_uris":{"android":"levelo://app?vid=64a56750-bb84-4478-9eb0-b6ec75f8dbb6","ios":"levelo://app?vid=64a56750-bb84-4478-9eb0-b6ec75f8dbb6"},"vehicle_type_id":"4","last_reported":1727298524,"current_range_meters":8400,"station_id":"ce4bhoh2rcd13ifvqh5g","pricing_plan_id":"cebpf4jnsgd1na2vs0mg"},{"bike_id":"0391e3a2-fd40-4d68-a5c4-49e601d853ff","system_id":"levelo_inurba_marseille","lat":43.27904,"lon":5.38006,"is_reserved":false,"is_disabled":false,"rental_uris":{"android":"levelo://app?vid=0391e3a2-fd40-4d68-a5c4-49e601d853ff","ios":"levelo://app?vid=0391e3a2-fd40-4d68-a5c4-49e601d853ff"},"vehicle_type_id":"4","last_reported":1727298524,"current_range_meters":6400,"station_id":"ce4bhf92rcd13ifvqf50","pricing_plan_id":"cebpf4jnsgd1na2vs0mg"},{"bike_id":"f31471b4-8878-4440-a6e4-24148b775865","system_id":"levelo_inurba_marseille","lat":43.29415,"lon":5.38628,"is_reserved":false,"is_disabled":false,"rental_uris":{"android":"levelo://app?vid=f31471b4-8878-4440-a6e4-24148b775865","ios":"levelo://app?vid=f31471b4-8878-4440-a6e4-24148b775865"},"vehicle_type_id":"4","last_reported":1727298524,"current_range_meters":38800,"station_id":"ce4bh2h2rcd13ifvqdh0","pricing_plan_id":"cebpf4jnsgd1na2vs0mg"},{"bike_id":"5f6c79fc-4a32-4034-b731-a210b1c8c48d","system_id":"levelo_inurba_marseille","lat":43.30477,"lon":5.36615,"is_reserved":false,"is_disabled":false,"rental_uris":{"android":"levelo://app?vid=5f6c79fc-4a32-4034-b731-a210b1c8c48d","ios":"levelo://app?vid=5f6c79fc-4a32-4034-b731-a210b1c8c48d"},"vehicle_type_id":"4","last_reported":1727298524,"current_range_meters":9600,"station_id":"ce4bgrp2rcd13ifvqc9g","pricing_plan_id":"cebpf4jnsgd1na2vs0mg"},{"bike_id":"f9cb7584-63c2-4fdf-8dc4-cedac79188e6","system_id":"levelo_inurba_marseille","lat":43.29445,"lon":5.39753,"is_reserved":false,"is_disabled":false,"rental_uris":{"android":"levelo://app?vid=f9cb7584-63c2-4fdf-8dc4-cedac79188e6","ios":"levelo://app?vid=f9cb7584-63c2-4fdf-8dc4-cedac79188e6"},"vehicle_type_id":"4","last_reported":1727298524,"current_range_meters":16800,"station_id":"ce4bh3h2rcd13ifvqdo0","pricing_plan_id":"cebpf4jnsgd1na2vs0mg"},{"bike_id":"3dbd4749-a24c-43cd-9def-67297f866862","system_id":"levelo_inurba_marseille","lat":43.32366,"lon":5.38878,"is_reserved":false,"is_disabled":false,"rental_uris":{"android":"levelo://app?vid=3dbd4749-a24c-43cd-9def-67297f866862","ios":"levelo://app?vid=3dbd4749-a24c-43cd-9def-67297f866862"},"vehicle_type_id":"4","last_reported":1727298524,"current_range_meters":14000,"station_id":"ce4bhqp2rcd13ifvqhog","pricing_plan_id":"cebpf4jnsgd1na2vs0mg"},{"bike_id":"18a052cd-2557-4072-ba19-24c6149d8795","system_id":"levelo_inurba_marseille","lat":43.32481,"lon":5.36561,"is_reserved":false,"is_disabled":false,"rental_uris":{"android":"levelo://app?vid=18a052cd-2557-4072-ba19-24c6149d8795","ios":"levelo://app?vid=18a052cd-2557-4072-ba19-24c6149d8795"},"vehicle_type_id":"4","last_reported":1727298524,"current_range_meters":38800,"station_id":"ce4bhs12rcd13ifvqhvg","pricing_plan_id":"cebpf4jnsgd1na2vs0mg"},{"bike_id":"b89f3c75-62ef-439a-891a-3e5717a4b61a","system_id":"levelo_inurba_marseille","lat":43.27935,"lon":5.37952,"is_reserved":false,"is_disabled":false,"rental_uris":{"android":"levelo://app?vid=b89f3c75-62ef-439a-891a-3e5717a4b61a","ios":"levelo://app?vid=b89f3c75-62ef-439a-891a-3e5717a4b61a"},"vehicle_type_id":"4","last_reported":1727298524,"current_range_meters":26000,"station_id":"","pricing_plan_id":"cebpf4jnsgd1na2vs0mg"},{"bike_id":"7823eef2-38a6-4e33-823d-6328e877baad","system_id":"levelo_inurba_marseille","lat":43.30326,"lon":5.40439,"is_reserved":false,"is_disabled":false,"rental_uris":{"android":"levelo://app?vid=7823eef2-38a6-4e33-823d-6328e877baad","ios":"levelo://app?vid=7823eef2-38a6-4e33-823d-6328e877baad"},"vehicle_type_id":"4","last_reported":1727298524,"current_range_meters":8400,"station_id":"ce4bh012rcd13ifvqd10","pricing_plan_id":"cebpf4jnsgd1na2vs0mg"},{"bike_id":"e298d003-1456-4a5e-823d-55caf6e3f2a5","system_id":"levelo_inurba_marseille","lat":43.28658,"lon":5.36355,"is_reserved":false,"is_disabled":false,"rental_uris":{"android":"levelo://app?vid=e298d003-1456-4a5e-823d-55caf6e3f2a5","ios":"levelo://app?vid=e298d003-1456-4a5e-823d-55caf6e3f2a5"},"vehicle_type_id":"4","last_reported":1727298524,"current_range_meters":38800,"station_id":"ce4bhah2rcd13ifvqej0","pricing_plan_id":"cebpf4jnsgd1na2vs0mg"},{"bike_id":"fafd56ad-9f23-4d7b-a83d-bf9f04416663","system_id":"levelo_inurba_marseille","lat":43.30547,"lon":5.36701,"is_reserved":false,"is_disabled":false,"rental_uris":{"android":"levelo://app?vid=fafd56ad-9f23-4d7b-a83d-bf9f04416663","ios":"levelo://app?vid=fafd56ad-9f23-4d7b-a83d-bf9f04416663"},"vehicle_type_id":"4","last_reported":1727298524,"current_range_meters":37600,"station_id":"ce4bgrp2rcd13ifvqc9g","pricing_plan_id":"cebpf4jnsgd1na2vs0mg"},{"bike_id":"35d3fc74-fe6d-4fdc-9fc2-d877ab207e83","system_id":"levelo_inurba_marseille","lat":43.31077,"lon":5.38358,"is_reserved":false,"is_disabled":false,"rental_uris":{"android":"levelo://app?vid=35d3fc74-fe6d-4fdc-9fc2-d877ab207e83","ios":"levelo://app?vid=35d3fc74-fe6d-4fdc-9fc2-d877ab207e83"},"vehicle_type_id":"4","last_reported":1727298524,"current_range_meters":22400,"station_id":"ce4bgv92rcd13ifvqcr0","pricing_plan_id":"cebpf4jnsgd1na2vs0mg"},{"bike_id":"47de00e4-1075-47a7-9556-2aacc5f5e20c","system_id":"levelo_inurba_marseille","lat":43.299,"lon":5.37476,"is_reserved":false,"is_disabled":false,"rental_uris":{"android":"levelo://app?vid=47de00e4-1075-47a7-9556-2aacc5f5e20c","ios":"levelo://app?vid=47de00e4-1075-47a7-9556-2aacc5f5e20c"},"vehicle_type_id":"4","last_reported":1727298524,"current_range_meters":38800,"station_id":"ce4bgjh2rcd13ifvqbg0","pricing_plan_id":"cebpf4jnsgd1na2vs0mg"},{"bike_id":"e7538fd8-10d9-40e4-aff9-8eb2f36b73c6","system_id":"levelo_inurba_marseille","lat":43.32487,"lon":5.3656,"is_reserved":false,"is_disabled":false,"rental_uris":{"android":"levelo://app?vid=e7538fd8-10d9-40e4-aff9-8eb2f36b73c6","ios":"levelo://app?vid=e7538fd8-10d9-40e4-aff9-8eb2f36b73c6"},"vehicle_type_id":"4","last_reported":1727298524,"current_range_meters":31200,"station_id":"ce4bhs12rcd13ifvqhvg","pricing_plan_id":"cebpf4jnsgd1na2vs0mg"},{"bike_id":"73a3ce1a-4081-46c0-bd05-2394f4c5b5d9","system_id":"levelo_inurba_marseille","lat":43.30885,"lon":5.39637,"is_reserved":false,"is_disabled":false,"rental_uris":{"android":"levelo://app?vid=73a3ce1a-4081-46c0-bd05-2394f4c5b5d9","ios":"levelo://app?vid=73a3ce1a-4081-46c0-bd05-2394f4c5b5d9"},"vehicle_type_id":"4","last_reported":1727298524,"current_range_meters":38400,"station_id":"ce4bh012rcd13ifvqcv0","pricing_plan_id":"cebpf4jnsgd1na2vs0mg"},{"bike_id":"ff2f4b55-b80f-45bb-8f2a-174dcea7dc1d","system_id":"levelo_inurba_marseille","lat":43.23959,"lon":5.36629,"is_reserved":false,"is_disabled":false,"rental_uris":{"android":"levelo://app?vid=ff2f4b55-b80f-45bb-8f2a-174dcea7dc1d","ios":"levelo://app?vid=ff2f4b55-b80f-45bb-8f2a-174dcea7dc1d"},"vehicle_type_id":"4","last_reported":1727298524,"current_range_meters":39200,"station_id":"ce4bhi12rcd13ifvqfp0","pricing_plan_id":"cebpf4jnsgd1na2vs0mg"},{"bike_id":"57970dc6-2fc2-4a4a-ad6f-bca0af7bf8ec","system_id":"levelo_inurba_marseille","lat":43.24674,"lon":5.38165,"is_reserved":false,"is_disabled":false,"rental_uris":{"android":"levelo://app?vid=57970dc6-2fc2-4a4a-ad6f-bca0af7bf8ec","ios":"levelo://app?vid=57970dc6-2fc2-4a4a-ad6f-bca0af7bf8ec"},"vehicle_type_id":"4","last_reported":1727298524,"current_range_meters":9200,"station_id":"ce4bhih2rcd13ifvqfr0","pricing_plan_id":"cebpf4jnsgd1na2vs0mg"},{"bike_id":"6dd7a628-1809-4a0a-8970-b097202fbafd","system_id":"levelo_inurba_marseille","lat":43.30642,"lon":5.40078,"is_reserved":false,"is_disabled":false,"rental_uris":{"android":"levelo://app?vid=6dd7a628-1809-4a0a-8970-b097202fbafd","ios":"levelo://app?vid=6dd7a628-1809-4a0a-8970-b097202fbafd"},"vehicle_type_id":"4","last_reported":1727298524,"current_range_meters":28000,"station_id":"ce4bh112rcd13ifvqda0","pricing_plan_id":"cebpf4jnsgd1na2vs0mg"},{"bike_id":"3b1858ef-b0ea-4ee8-84d9-7918de71a317","system_id":"levelo_inurba_marseille","lat":43.29273,"lon":5.36845,"is_reserved":false,"is_disabled":false,"rental_uris":{"android":"levelo://app?vid=3b1858ef-b0ea-4ee8-84d9-7918de71a317","ios":"levelo://app?vid=3b1858ef-b0ea-4ee8-84d9-7918de71a317"},"vehicle_type_id":"4","last_reported":1727298524,"current_range_meters":28400,"station_id":"ce4bhbp2rcd13ifvqesg","pricing_plan_id":"cebpf4jnsgd1na2vs0mg"},{"bike_id":"88a5c6eb-3c78-499b-b132-594fb6a10d64","system_id":"levelo_inurba_marseille","lat":43.24388,"lon":5.37056,"is_reserved":false,"is_disabled":false,"rental_uris":{"android":"levelo://app?vid=88a5c6eb-3c78-499b-b132-594fb6a10d64","ios":"levelo://app?vid=88a5c6eb-3c78-499b-b132-594fb6a10d64"},"vehicle_type_id":"4","last_reported":1727298524,"current_range_meters":38800,"station_id":"ce4bhhh2rcd13ifvqfk0","pricing_plan_id":"cebpf4jnsgd1na2vs0mg"},{"bike_id":"8f7337c9-a5b8-40bb-bd09-46f955380f7f","system_id":"levelo_inurba_marseille","lat":43.30799,"lon":5.43524,"is_reserved":false,"is_disabled":false,"rental_uris":{"android":"levelo://app?vid=8f7337c9-a5b8-40bb-bd09-46f955380f7f","ios":"levelo://app?vid=8f7337c9-a5b8-40bb-bd09-46f955380f7f"},"vehicle_type_id":"4","last_reported":1727298524,"current_range_meters":39200,"station_id":"ce4bhph2rcd13ifvqheg","pricing_plan_id":"cebpf4jnsgd1na2vs0mg"},{"bike_id":"c3be56fd-94af-4761-9c42-4ce060421866","system_id":"levelo_inurba_marseille","lat":43.2783,"lon":5.39203,"is_reserved":false,"is_disabled":false,"rental_uris":{"android":"levelo://app?vid=c3be56fd-94af-4761-9c42-4ce060421866","ios":"levelo://app?vid=c3be56fd-94af-4761-9c42-4ce060421866"},"vehicle_type_id":"4","last_reported":1727298524,"current_range_meters":12000,"station_id":"ce4bhjp2rcd13ifvqga0","pricing_plan_id":"cebpf4jnsgd1na2vs0mg"},{"bike_id":"0bfb858d-fafa-4c90-90c8-f301c779e9f2","system_id":"levelo_inurba_marseille","lat":43.28719,"lon":5.37948,"is_reserved":false,"is_disabled":false,"rental_uris":{"android":"levelo://app?vid=0bfb858d-fafa-4c90-90c8-f301c779e9f2","ios":"levelo://app?vid=0bfb858d-fafa-4c90-90c8-f301c779e9f2"},"vehicle_type_id":"4","last_reported":1727298524,"current_range_meters":19200,"station_id":"ce4bh9p2rcd13ifvqec0","pricing_plan_id":"cebpf4jnsgd1na2vs0mg"},{"bike_id":"f56e08ee-227a-4481-84ce-6f391e127161","system_id":"levelo_inurba_marseille","lat":43.28284,"lon":5.35064,"is_reserved":false,"is_disabled":false,"rental_uris":{"android":"levelo://app?vid=f56e08ee-227a-4481-84ce-6f391e127161","ios":"levelo://app?vid=f56e08ee-227a-4481-84ce-6f391e127161"},"vehicle_type_id":"4","last_reported":1727298524,"current_range_meters":32000,"station_id":"ce4bhbp2rcd13ifvqerg","pricing_plan_id":"cebpf4jnsgd1na2vs0mg"},{"bike_id":"164c5150-fd82-49d7-aff9-b769aa561f0f","system_id":"levelo_inurba_marseille","lat":43.31993,"lon":5.3815,"is_reserved":false,"is_disabled":false,"rental_uris":{"android":"levelo://app?vid=164c5150-fd82-49d7-aff9-b769aa561f0f","ios":"levelo://app?vid=164c5150-fd82-49d7-aff9-b769aa561f0f"},"vehicle_type_id":"4","last_reported":1727298524,"current_range_meters":28800,"station_id":"ce4bhr12rcd13ifvqhpg","pricing_plan_id":"cebpf4jnsgd1na2vs0mg"},{"bike_id":"666cfbb3-1b46-4df5-a347-94d4c62ca70f","system_id":"levelo_inurba_marseille","lat":43.24073,"lon":5.37756,"is_reserved":false,"is_disabled":false,"rental_uris":{"android":"levelo://app?vid=666cfbb3-1b46-4df5-a347-94d4c62ca70f","ios":"levelo://app?vid=666cfbb3-1b46-4df5-a347-94d4c62ca70f"},"vehicle_type_id":"4","last_reported":1727298524,"current_range_meters":9200,"station_id":"ce4bhnp2rcd13ifvqgvg","pricing_plan_id":"cebpf4jnsgd1na2vs0mg"},{"bike_id":"5ece6534-697d-4101-8fbb-94c5df553a2d","system_id":"levelo_inurba_marseille","lat":43.24079,"lon":5.37758,"is_reserved":false,"is_disabled":false,"rental_uris":{"android":"levelo://app?vid=5ece6534-697d-4101-8fbb-94c5df553a2d","ios":"levelo://app?vid=5ece6534-697d-4101-8fbb-94c5df553a2d"},"vehicle_type_id":"4","last_reported":1727298524,"current_range_meters":36800,"station_id":"ce4bhnp2rcd13ifvqgvg","pricing_plan_id":"cebpf4jnsgd1na2vs0mg"},{"bike_id":"68917096-6777-499c-a691-e15c4e05d386","system_id":"levelo_inurba_marseille","lat":43.29703,"lon":5.36634,"is_reserved":false,"is_disabled":false,"rental_uris":{"android":"levelo://app?vid=68917096-6777-499c-a691-e15c4e05d386","ios":"levelo://app?vid=68917096-6777-499c-a691-e15c4e05d386"},"vehicle_type_id":"4","last_reported":1727298524,"current_range_meters":38400,"station_id":"ce4bgn12rcd13ifvqbt0","pricing_plan_id":"cebpf4jnsgd1na2vs0mg"},{"bike_id":"a7bca3df-0344-4204-86d7-b742d4769839","system_id":"levelo_inurba_marseille","lat":43.30863,"lon":5.3685,"is_reserved":false,"is_disabled":false,"rental_uris":{"android":"levelo://app?vid=a7bca3df-0344-4204-86d7-b742d4769839","ios":"levelo://app?vid=a7bca3df-0344-4204-86d7-b742d4769839"},"vehicle_type_id":"4","last_reported":1727298524,"current_range_meters":26000,"station_id":"ce4bgn92rcd13ifvqbvg","pricing_plan_id":"cebpf4jnsgd1na2vs0mg"},{"bike_id":"95ac2f31-14c0-4d4a-9ad7-33c2aa1a759f","system_id":"levelo_inurba_marseille","lat":43.31171,"lon":5.38713,"is_reserved":false,"is_disabled":false,"rental_uris":{"android":"levelo://app?vid=95ac2f31-14c0-4d4a-9ad7-33c2aa1a759f","ios":"levelo://app?vid=95ac2f31-14c0-4d4a-9ad7-33c2aa1a759f"},"vehicle_type_id":"4","last_reported":1727298524,"current_range_meters":36800,"station_id":"ce4bgv12rcd13ifvqcp0","pricing_plan_id":"cebpf4jnsgd1na2vs0mg"},{"bike_id":"236411ee-57a3-460b-be4a-cbcb250cd13d","system_id":"levelo_inurba_marseille","lat":43.29944,"lon":5.37354,"is_reserved":false,"is_disabled":false,"rental_uris":{"android":"levelo://app?vid=236411ee-57a3-460b-be4a-cbcb250cd13d","ios":"levelo://app?vid=236411ee-57a3-460b-be4a-cbcb250cd13d"},"vehicle_type_id":"4","last_reported":1727298524,"current_range_meters":20800,"station_id":"ce4bgjh2rcd13ifvqbg0","pricing_plan_id":"cebpf4jnsgd1na2vs0mg"},{"bike_id":"3b95d26e-f06e-49bf-b839-e0adcd439c46","system_id":"levelo_inurba_marseille","lat":43.23188,"lon":5.39987,"is_reserved":false,"is_disabled":false,"rental_uris":{"android":"levelo://app?vid=3b95d26e-f06e-49bf-b839-e0adcd439c46","ios":"levelo://app?vid=3b95d26e-f06e-49bf-b839-e0adcd439c46"},"vehicle_type_id":"4","last_reported":1727298524,"current_range_meters":39200,"station_id":"ce4bhn12rcd13ifvqgqg","pricing_plan_id":"cebpf4jnsgd1na2vs0mg"},{"bike_id":"0ba19d1e-f9de-4bd6-8315-89e620ffead5","system_id":"levelo_inurba_marseille","lat":43.29792,"lon":5.39348,"is_reserved":false,"is_disabled":false,"rental_uris":{"android":"levelo://app?vid=0ba19d1e-f9de-4bd6-8315-89e620ffead5","ios":"levelo://app?vid=0ba19d1e-f9de-4bd6-8315-89e620ffead5"},"vehicle_type_id":"4","last_reported":1727298524,"current_range_meters":28400,"station_id":"chh1huq6cuj3fo74tm60","pricing_plan_id":"cebpf4jnsgd1na2vs0mg"},{"bike_id":"7827170f-fe53-4f76-acc5-1f9d10e67145","system_id":"levelo_inurba_marseille","lat":43.2293,"lon":5.35375,"is_reserved":false,"is_disabled":false,"rental_uris":{"android":"levelo://app?vid=7827170f-fe53-4f76-acc5-1f9d10e67145","ios":"levelo://app?vid=7827170f-fe53-4f76-acc5-1f9d10e67145"},"vehicle_type_id":"4","last_reported":1727298524,"current_range_meters":36800,"station_id":"cpo3532slgdg3j2ikp40","pricing_plan_id":"cebpf4jnsgd1na2vs0mg"},{"bike_id":"2dfddc36-7904-464e-872c-8f7ba9c1db5c","system_id":"levelo_inurba_marseille","lat":43.29421,"lon":5.38631,"is_reserved":false,"is_disabled":false,"rental_uris":{"android":"levelo://app?vid=2dfddc36-7904-464e-872c-8f7ba9c1db5c","ios":"levelo://app?vid=2dfddc36-7904-464e-872c-8f7ba9c1db5c"},"vehicle_type_id":"4","last_reported":1727298524,"current_range_meters":38800,"station_id":"ce4bh2h2rcd13ifvqdh0","pricing_plan_id":"cebpf4jnsgd1na2vs0mg"},{"bike_id":"ed5f0f27-c5ae-4b32-b269-acbb0091e787","system_id":"levelo_inurba_marseille","lat":43.295685,"lon":5.399676,"is_reserved":false,"is_disabled":false,"rental_uris":{"android":"levelo://app?vid=ed5f0f27-c5ae-4b32-b269-acbb0091e787","ios":"levelo://app?vid=ed5f0f27-c5ae-4b32-b269-acbb0091e787"},"vehicle_type_id":"4","last_reported":1727298524,"current_range_meters":5600,"station_id":"ce4bh0p2rcd13ifvqd80","pricing_plan_id":"cebpf4jnsgd1na2vs0mg"},{"bike_id":"419bb6d9-bb03-454a-b123-d730bb1a392c","system_id":"levelo_inurba_marseille","lat":43.29522,"lon":5.39404,"is_reserved":false,"is_disabled":false,"rental_uris":{"android":"levelo://app?vid=419bb6d9-bb03-454a-b123-d730bb1a392c","ios":"levelo://app?vid=419bb6d9-bb03-454a-b123-d730bb1a392c"},"vehicle_type_id":"4","last_reported":1727298524,"current_range_meters":14400,"station_id":"ce4bh292rcd13ifvqdf0","pricing_plan_id":"cebpf4jnsgd1na2vs0mg"},{"bike_id":"0f56a0f8-2995-448e-a3f5-4953d2415d16","system_id":"levelo_inurba_marseille","lat":43.24543,"lon":5.39523,"is_reserved":false,"is_disabled":false,"rental_uris":{"android":"levelo://app?vid=0f56a0f8-2995-448e-a3f5-4953d2415d16","ios":"levelo://app?vid=0f56a0f8-2995-448e-a3f5-4953d2415d16"},"vehicle_type_id":"4","last_reported":1727298524,"current_range_meters":38800,"station_id":"ce4bhlp2rcd13ifvqgjg","pricing_plan_id":"cebpf4jnsgd1na2vs0mg"},{"bike_id":"4a4bfd88-bdfc-4802-b3a8-e798e4274727","system_id":"levelo_inurba_marseille","lat":43.32292,"lon":5.3826,"is_reserved":false,"is_disabled":false,"rental_uris":{"android":"levelo://app?vid=4a4bfd88-bdfc-4802-b3a8-e798e4274727","ios":"levelo://app?vid=4a4bfd88-bdfc-4802-b3a8-e798e4274727"},"vehicle_type_id":"4","last_reported":1727298524,"current_range_meters":27200,"station_id":"ce4bhr12rcd13ifvqhqg","pricing_plan_id":"cebpf4jnsgd1na2vs0mg"},{"bike_id":"0308244d-0f02-48b3-95c7-e95edd88ab06","system_id":"levelo_inurba_marseille","lat":43.2707,"lon":5.42279,"is_reserved":false,"is_disabled":false,"rental_uris":{"android":"levelo://app?vid=0308244d-0f02-48b3-95c7-e95edd88ab06","ios":"levelo://app?vid=0308244d-0f02-48b3-95c7-e95edd88ab06"},"vehicle_type_id":"4","last_reported":1727298524,"current_range_meters":26800,"station_id":"ce4bhk92rcd13ifvqgb0","pricing_plan_id":"cebpf4jnsgd1na2vs0mg"},{"bike_id":"c70311bf-0a57-4784-b746-7a37cd7ea80b","system_id":"levelo_inurba_marseille","lat":43.303131,"lon":5.36879,"is_reserved":false,"is_disabled":false,"rental_uris":{"android":"levelo://app?vid=c70311bf-0a57-4784-b746-7a37cd7ea80b","ios":"levelo://app?vid=c70311bf-0a57-4784-b746-7a37cd7ea80b"},"vehicle_type_id":"4","last_reported":1727298524,"current_range_meters":38800,"station_id":"ce4bgqh2rcd13ifvqc5g","pricing_plan_id":"cebpf4jnsgd1na2vs0mg"},{"bike_id":"de8ff9a9-709a-4424-83ed-039925aabde2","system_id":"levelo_inurba_marseille","lat":43.24071,"lon":5.37763,"is_reserved":false,"is_disabled":false,"rental_uris":{"android":"levelo://app?vid=de8ff9a9-709a-4424-83ed-039925aabde2","ios":"levelo://app?vid=de8ff9a9-709a-4424-83ed-039925aabde2"},"vehicle_type_id":"4","last_reported":1727298524,"current_range_meters":16400,"station_id":"ce4bhnp2rcd13ifvqgvg","pricing_plan_id":"cebpf4jnsgd1na2vs0mg"},{"bike_id":"4660de8f-6b1d-4ec7-86e9-b37d4a58ce76","system_id":"levelo_inurba_marseille","lat":43.32293,"lon":5.38269,"is_reserved":false,"is_disabled":false,"rental_uris":{"android":"levelo://app?vid=4660de8f-6b1d-4ec7-86e9-b37d4a58ce76","ios":"levelo://app?vid=4660de8f-6b1d-4ec7-86e9-b37d4a58ce76"},"vehicle_type_id":"4","last_reported":1727298524,"current_range_meters":36000,"station_id":"ce4bhr12rcd13ifvqhqg","pricing_plan_id":"cebpf4jnsgd1na2vs0mg"},{"bike_id":"883c07b5-0a75-489d-906d-16f5b0d514a5","system_id":"levelo_inurba_marseille","lat":43.28074,"lon":5.39651,"is_reserved":false,"is_disabled":false,"rental_uris":{"android":"levelo://app?vid=883c07b5-0a75-489d-906d-16f5b0d514a5","ios":"levelo://app?vid=883c07b5-0a75-489d-906d-16f5b0d514a5"},"vehicle_type_id":"4","last_reported":1727298524,"current_range_meters":22800,"station_id":"ce4bho12rcd13ifvqh2g","pricing_plan_id":"cebpf4jnsgd1na2vs0mg"},{"bike_id":"a38b3fd7-438a-4200-988d-1f8eacd3c11a","system_id":"levelo_inurba_marseille","lat":43.28984,"lon":5.378406,"is_reserved":false,"is_disabled":false,"rental_uris":{"android":"levelo://app?vid=a38b3fd7-438a-4200-988d-1f8eacd3c11a","ios":"levelo://app?vid=a38b3fd7-438a-4200-988d-1f8eacd3c11a"},"vehicle_type_id":"4","last_reported":1727298524,"current_range_meters":24800,"station_id":"ce4bh5p2rcd13ifvqe4g","pricing_plan_id":"cebpf4jnsgd1na2vs0mg"},{"bike_id":"4fc0ef81-a692-4f7c-9d38-77b16cc04b2c","system_id":"levelo_inurba_marseille","lat":43.31755,"lon":5.39021,"is_reserved":false,"is_disabled":false,"rental_uris":{"android":"levelo://app?vid=4fc0ef81-a692-4f7c-9d38-77b16cc04b2c","ios":"levelo://app?vid=4fc0ef81-a692-4f7c-9d38-77b16cc04b2c"},"vehicle_type_id":"4","last_reported":1727298524,"current_range_meters":36000,"station_id":"ce4bhqp2rcd13ifvqhng","pricing_plan_id":"cebpf4jnsgd1na2vs0mg"},{"bike_id":"6d32ef58-74d1-400f-80b3-2e537483836d","system_id":"levelo_inurba_marseille","lat":43.29568,"lon":5.39967,"is_reserved":false,"is_disabled":false,"rental_uris":{"android":"levelo://app?vid=6d32ef58-74d1-400f-80b3-2e537483836d","ios":"levelo://app?vid=6d32ef58-74d1-400f-80b3-2e537483836d"},"vehicle_type_id":"4","last_reported":1727298524,"current_range_meters":20000,"station_id":"ce4bh312rcd13ifvqdj0","pricing_plan_id":"cebpf4jnsgd1na2vs0mg"},{"bike_id":"98e022d5-04ba-4478-afd9-31e626239962","system_id":"levelo_inurba_marseille","lat":43.31119,"lon":5.3776,"is_reserved":false,"is_disabled":false,"rental_uris":{"android":"levelo://app?vid=98e022d5-04ba-4478-afd9-31e626239962","ios":"levelo://app?vid=98e022d5-04ba-4478-afd9-31e626239962"},"vehicle_type_id":"4","last_reported":1727298524,"current_range_meters":17600,"station_id":"ce4bgt92rcd13ifvqcg0","pricing_plan_id":"cebpf4jnsgd1na2vs0mg"},{"bike_id":"eda8bcde-5e1d-4538-802b-7a2e14d9f52d","system_id":"levelo_inurba_marseille","lat":43.22928,"lon":5.35374,"is_reserved":false,"is_disabled":false,"rental_uris":{"android":"levelo://app?vid=eda8bcde-5e1d-4538-802b-7a2e14d9f52d","ios":"levelo://app?vid=eda8bcde-5e1d-4538-802b-7a2e14d9f52d"},"vehicle_type_id":"4","last_reported":1727298524,"current_range_meters":24800,"station_id":"cpo3532slgdg3j2ikp40","pricing_plan_id":"cebpf4jnsgd1na2vs0mg"},{"bike_id":"51f4d75c-79c5-47e9-8fcd-05825786ca23","system_id":"levelo_inurba_marseille","lat":43.23182,"lon":5.39984,"is_reserved":false,"is_disabled":false,"rental_uris":{"android":"levelo://app?vid=51f4d75c-79c5-47e9-8fcd-05825786ca23","ios":"levelo://app?vid=51f4d75c-79c5-47e9-8fcd-05825786ca23"},"vehicle_type_id":"4","last_reported":1727298524,"current_range_meters":39200,"station_id":"ce4bhn12rcd13ifvqgqg","pricing_plan_id":"cebpf4jnsgd1na2vs0mg"},{"bike_id":"4b3e205f-10fb-4168-b2a1-66aa2c34efeb","system_id":"levelo_inurba_marseille","lat":43.290192,"lon":5.381391,"is_reserved":false,"is_disabled":false,"rental_uris":{"android":"levelo://app?vid=4b3e205f-10fb-4168-b2a1-66aa2c34efeb","ios":"levelo://app?vid=4b3e205f-10fb-4168-b2a1-66aa2c34efeb"},"vehicle_type_id":"4","last_reported":1727298524,"current_range_meters":34000,"station_id":"ce4bh4p2rcd13ifvqe1g","pricing_plan_id":"cebpf4jnsgd1na2vs0mg"},{"bike_id":"81099428-60d1-4686-8925-5cafa1b7d3aa","system_id":"levelo_inurba_marseille","lat":43.2846,"lon":5.35885,"is_reserved":false,"is_disabled":false,"rental_uris":{"android":"levelo://app?vid=81099428-60d1-4686-8925-5cafa1b7d3aa","ios":"levelo://app?vid=81099428-60d1-4686-8925-5cafa1b7d3aa"},"vehicle_type_id":"4","last_reported":1727298524,"current_range_meters":36800,"station_id":"ce4bhah2rcd13ifvqei0","pricing_plan_id":"cebpf4jnsgd1na2vs0mg"},{"bike_id":"8d0aea32-2de9-4b62-a270-84de4041090e","system_id":"levelo_inurba_marseille","lat":43.25117,"lon":5.40321,"is_reserved":false,"is_disabled":false,"rental_uris":{"android":"levelo://app?vid=8d0aea32-2de9-4b62-a270-84de4041090e","ios":"levelo://app?vid=8d0aea32-2de9-4b62-a270-84de4041090e"},"vehicle_type_id":"4","last_reported":1727298524,"current_range_meters":22800,"station_id":"ce4bhlh2rcd13ifvqgig","pricing_plan_id":"cebpf4jnsgd1na2vs0mg"},{"bike_id":"31a289d9-900c-4013-b582-e117035840fd","system_id":"levelo_inurba_marseille","lat":43.28666,"lon":5.36348,"is_reserved":false,"is_disabled":false,"rental_uris":{"android":"levelo://app?vid=31a289d9-900c-4013-b582-e117035840fd","ios":"levelo://app?vid=31a289d9-900c-4013-b582-e117035840fd"},"vehicle_type_id":"4","last_reported":1727298524,"current_range_meters":5600,"station_id":"ce4bhah2rcd13ifvqej0","pricing_plan_id":"cebpf4jnsgd1na2vs0mg"},{"bike_id":"786b0b61-29eb-41cd-ad9d-2904ec794fc3","system_id":"levelo_inurba_marseille","lat":43.24179,"lon":5.39723,"is_reserved":false,"is_disabled":false,"rental_uris":{"android":"levelo://app?vid=786b0b61-29eb-41cd-ad9d-2904ec794fc3","ios":"levelo://app?vid=786b0b61-29eb-41cd-ad9d-2904ec794fc3"},"vehicle_type_id":"4","last_reported":1727298524,"current_range_meters":6400,"station_id":"ce4bhn12rcd13ifvqgpg","pricing_plan_id":"cebpf4jnsgd1na2vs0mg"},{"bike_id":"544a8d06-079f-4845-a140-952e96616f81","system_id":"levelo_inurba_marseille","lat":43.30794,"lon":5.38152,"is_reserved":false,"is_disabled":false,"rental_uris":{"android":"levelo://app?vid=544a8d06-079f-4845-a140-952e96616f81","ios":"levelo://app?vid=544a8d06-079f-4845-a140-952e96616f81"},"vehicle_type_id":"4","last_reported":1727298524,"current_range_meters":6400,"station_id":"ce4bgt12rcd13ifvqce0","pricing_plan_id":"cebpf4jnsgd1na2vs0mg"},{"bike_id":"6de022fc-6851-467a-8c07-3c458eaca8e2","system_id":"levelo_inurba_marseille","lat":43.23188,"lon":5.39989,"is_reserved":false,"is_disabled":false,"rental_uris":{"android":"levelo://app?vid=6de022fc-6851-467a-8c07-3c458eaca8e2","ios":"levelo://app?vid=6de022fc-6851-467a-8c07-3c458eaca8e2"},"vehicle_type_id":"4","last_reported":1727298524,"current_range_meters":8800,"station_id":"ce4bhn12rcd13ifvqgqg","pricing_plan_id":"cebpf4jnsgd1na2vs0mg"},{"bike_id":"1cafb7e2-bb2d-4cdd-850c-a35197648656","system_id":"levelo_inurba_marseille","lat":43.32293,"lon":5.3827,"is_reserved":false,"is_disabled":false,"rental_uris":{"android":"levelo://app?vid=1cafb7e2-bb2d-4cdd-850c-a35197648656","ios":"levelo://app?vid=1cafb7e2-bb2d-4cdd-850c-a35197648656"},"vehicle_type_id":"4","last_reported":1727298524,"current_range_meters":38400,"station_id":"ce4bhr12rcd13ifvqhqg","pricing_plan_id":"cebpf4jnsgd1na2vs0mg"},{"bike_id":"8840a4d5-503e-4d31-8f8a-17449bdc9af3","system_id":"levelo_inurba_marseille","lat":43.29041,"lon":5.39955,"is_reserved":false,"is_disabled":false,"rental_uris":{"android":"levelo://app?vid=8840a4d5-503e-4d31-8f8a-17449bdc9af3","ios":"levelo://app?vid=8840a4d5-503e-4d31-8f8a-17449bdc9af3"},"vehicle_type_id":"4","last_reported":1727298524,"current_range_meters":19600,"station_id":"ce4bh392rcd13ifvqdm0","pricing_plan_id":"cebpf4jnsgd1na2vs0mg"},{"bike_id":"827e4a82-8f19-4d7f-b9b7-eef3dbdccd5c","system_id":"levelo_inurba_marseille","lat":43.29258,"lon":5.40909,"is_reserved":false,"is_disabled":false,"rental_uris":{"android":"levelo://app?vid=827e4a82-8f19-4d7f-b9b7-eef3dbdccd5c","ios":"levelo://app?vid=827e4a82-8f19-4d7f-b9b7-eef3dbdccd5c"},"vehicle_type_id":"4","last_reported":1727298524,"current_range_meters":36800,"station_id":"ce4bh192rcd13ifvqdc0","pricing_plan_id":"cebpf4jnsgd1na2vs0mg"},{"bike_id":"cb10bc90-4ee1-4b82-b49d-6dbc34d1a350","system_id":"levelo_inurba_marseille","lat":43.30299,"lon":5.3688,"is_reserved":false,"is_disabled":false,"rental_uris":{"android":"levelo://app?vid=cb10bc90-4ee1-4b82-b49d-6dbc34d1a350","ios":"levelo://app?vid=cb10bc90-4ee1-4b82-b49d-6dbc34d1a350"},"vehicle_type_id":"4","last_reported":1727298524,"current_range_meters":38000,"station_id":"ce4bgqh2rcd13ifvqc5g","pricing_plan_id":"cebpf4jnsgd1na2vs0mg"},{"bike_id":"c9bc9cb1-e9f4-418a-8cbe-ef8499ab2b4a","system_id":"levelo_inurba_marseille","lat":43.31991,"lon":5.38157,"is_reserved":false,"is_disabled":false,"rental_uris":{"android":"levelo://app?vid=c9bc9cb1-e9f4-418a-8cbe-ef8499ab2b4a","ios":"levelo://app?vid=c9bc9cb1-e9f4-418a-8cbe-ef8499ab2b4a"},"vehicle_type_id":"4","last_reported":1727298524,"current_range_meters":26000,"station_id":"ce4bhr12rcd13ifvqhpg","pricing_plan_id":"cebpf4jnsgd1na2vs0mg"},{"bike_id":"fc09ae45-1afc-4cd0-a841-ed2588645d04","system_id":"levelo_inurba_marseille","lat":43.27623,"lon":5.39472,"is_reserved":false,"is_disabled":false,"rental_uris":{"android":"levelo://app?vid=fc09ae45-1afc-4cd0-a841-ed2588645d04","ios":"levelo://app?vid=fc09ae45-1afc-4cd0-a841-ed2588645d04"},"vehicle_type_id":"4","last_reported":1727298524,"current_range_meters":29600,"station_id":"ce4bha92rcd13ifvqeg0","pricing_plan_id":"cebpf4jnsgd1na2vs0mg"},{"bike_id":"38bf0490-7118-4a85-b014-989b96e221e1","system_id":"levelo_inurba_marseille","lat":43.24069,"lon":5.37763,"is_reserved":false,"is_disabled":false,"rental_uris":{"android":"levelo://app?vid=38bf0490-7118-4a85-b014-989b96e221e1","ios":"levelo://app?vid=38bf0490-7118-4a85-b014-989b96e221e1"},"vehicle_type_id":"4","last_reported":1727298524,"current_range_meters":28400,"station_id":"ce4bhnp2rcd13ifvqgvg","pricing_plan_id":"cebpf4jnsgd1na2vs0mg"},{"bike_id":"df99573f-fc55-4e76-b178-5d7109f51b6b","system_id":"levelo_inurba_marseille","lat":43.25119,"lon":5.40317,"is_reserved":false,"is_disabled":false,"rental_uris":{"android":"levelo://app?vid=df99573f-fc55-4e76-b178-5d7109f51b6b","ios":"levelo://app?vid=df99573f-fc55-4e76-b178-5d7109f51b6b"},"vehicle_type_id":"4","last_reported":1727298524,"current_range_meters":22400,"station_id":"ce4bhlh2rcd13ifvqgig","pricing_plan_id":"cebpf4jnsgd1na2vs0mg"},{"bike_id":"45591acd-fab2-4f05-b19f-c0a642747ac2","system_id":"levelo_inurba_marseille","lat":43.29516,"lon":5.39036,"is_reserved":false,"is_disabled":false,"rental_uris":{"android":"levelo://app?vid=45591acd-fab2-4f05-b19f-c0a642747ac2","ios":"levelo://app?vid=45591acd-fab2-4f05-b19f-c0a642747ac2"},"vehicle_type_id":"4","last_reported":1727298524,"current_range_meters":37600,"station_id":"ce4bh3p2rcd13ifvqdp0","pricing_plan_id":"cebpf4jnsgd1na2vs0mg"},{"bike_id":"98324ce1-3333-424e-a6ca-f873c3f4f064","system_id":"levelo_inurba_marseille","lat":43.28656,"lon":5.36351,"is_reserved":false,"is_disabled":false,"rental_uris":{"android":"levelo://app?vid=98324ce1-3333-424e-a6ca-f873c3f4f064","ios":"levelo://app?vid=98324ce1-3333-424e-a6ca-f873c3f4f064"},"vehicle_type_id":"4","last_reported":1727298524,"current_range_meters":16000,"station_id":"ce4bhah2rcd13ifvqej0","pricing_plan_id":"cebpf4jnsgd1na2vs0mg"},{"bike_id":"5233b258-d8cc-4598-91f4-da1dcac32f51","system_id":"levelo_inurba_marseille","lat":43.30325,"lon":5.40442,"is_reserved":false,"is_disabled":false,"rental_uris":{"android":"levelo://app?vid=5233b258-d8cc-4598-91f4-da1dcac32f51","ios":"levelo://app?vid=5233b258-d8cc-4598-91f4-da1dcac32f51"},"vehicle_type_id":"4","last_reported":1727298524,"current_range_meters":20400,"station_id":"ce4bh012rcd13ifvqd10","pricing_plan_id":"cebpf4jnsgd1na2vs0mg"},{"bike_id":"b1baf846-5a81-4945-b33c-1b7c437265f4","system_id":"levelo_inurba_marseille","lat":43.28972,"lon":5.37834,"is_reserved":false,"is_disabled":false,"rental_uris":{"android":"levelo://app?vid=b1baf846-5a81-4945-b33c-1b7c437265f4","ios":"levelo://app?vid=b1baf846-5a81-4945-b33c-1b7c437265f4"},"vehicle_type_id":"4","last_reported":1727298524,"current_range_meters":36000,"station_id":"ce4bh9p2rcd13ifvqed0","pricing_plan_id":"cebpf4jnsgd1na2vs0mg"},{"bike_id":"b0053d03-0b48-4f82-afb9-81e9e95a6ffc","system_id":"levelo_inurba_marseille","lat":43.32494,"lon":5.36565,"is_reserved":false,"is_disabled":false,"rental_uris":{"android":"levelo://app?vid=b0053d03-0b48-4f82-afb9-81e9e95a6ffc","ios":"levelo://app?vid=b0053d03-0b48-4f82-afb9-81e9e95a6ffc"},"vehicle_type_id":"4","last_reported":1727298524,"current_range_meters":38800,"station_id":"ce4bhs12rcd13ifvqhvg","pricing_plan_id":"cebpf4jnsgd1na2vs0mg"},{"bike_id":"0756ae1f-f3f4-4899-886a-94b73a93f74d","system_id":"levelo_inurba_marseille","lat":43.32479,"lon":5.3656,"is_reserved":false,"is_disabled":false,"rental_uris":{"android":"levelo://app?vid=0756ae1f-f3f4-4899-886a-94b73a93f74d","ios":"levelo://app?vid=0756ae1f-f3f4-4899-886a-94b73a93f74d"},"vehicle_type_id":"4","last_reported":1727298524,"current_range_meters":38800,"station_id":"ce4bhs12rcd13ifvqhvg","pricing_plan_id":"cebpf4jnsgd1na2vs0mg"},{"bike_id":"3ab75d53-6a7e-4b6a-85bc-da7cb0348b8e","system_id":"levelo_inurba_marseille","lat":43.25118,"lon":5.40311,"is_reserved":false,"is_disabled":false,"rental_uris":{"android":"levelo://app?vid=3ab75d53-6a7e-4b6a-85bc-da7cb0348b8e","ios":"levelo://app?vid=3ab75d53-6a7e-4b6a-85bc-da7cb0348b8e"},"vehicle_type_id":"4","last_reported":1727298524,"current_range_meters":16000,"station_id":"ce4bhlh2rcd13ifvqgig","pricing_plan_id":"cebpf4jnsgd1na2vs0mg"},{"bike_id":"bfefb91a-3f4d-4b87-ab75-925a26fa2bac","system_id":"levelo_inurba_marseille","lat":43.29439,"lon":5.38638,"is_reserved":false,"is_disabled":false,"rental_uris":{"android":"levelo://app?vid=bfefb91a-3f4d-4b87-ab75-925a26fa2bac","ios":"levelo://app?vid=bfefb91a-3f4d-4b87-ab75-925a26fa2bac"},"vehicle_type_id":"4","last_reported":1727298524,"current_range_meters":25200,"station_id":"ce4bh2h2rcd13ifvqdh0","pricing_plan_id":"cebpf4jnsgd1na2vs0mg"},{"bike_id":"d6855356-e979-4a89-ac1d-2d77da8747fc","system_id":"levelo_inurba_marseille","lat":43.25822,"lon":5.39438,"is_reserved":false,"is_disabled":false,"rental_uris":{"android":"levelo://app?vid=d6855356-e979-4a89-ac1d-2d77da8747fc","ios":"levelo://app?vid=d6855356-e979-4a89-ac1d-2d77da8747fc"},"vehicle_type_id":"4","last_reported":1727298524,"current_range_meters":6000,"station_id":"ce4bhip2rcd13ifvqft0","pricing_plan_id":"cebpf4jnsgd1na2vs0mg"},{"bike_id":"534c9c5e-0b74-4945-9829-e1094f107b9a","system_id":"levelo_inurba_marseille","lat":43.295273,"lon":5.39387,"is_reserved":false,"is_disabled":false,"rental_uris":{"android":"levelo://app?vid=534c9c5e-0b74-4945-9829-e1094f107b9a","ios":"levelo://app?vid=534c9c5e-0b74-4945-9829-e1094f107b9a"},"vehicle_type_id":"4","last_reported":1727298524,"current_range_meters":16400,"station_id":"ce4bh292rcd13ifvqdf0","pricing_plan_id":"cebpf4jnsgd1na2vs0mg"},{"bike_id":"d3a61b6a-71e8-4c6c-8c6c-30262b2b9bc2","system_id":"levelo_inurba_marseille","lat":43.337444,"lon":5.374475,"is_reserved":false,"is_disabled":false,"rental_uris":{"android":"levelo://app?vid=d3a61b6a-71e8-4c6c-8c6c-30262b2b9bc2","ios":"levelo://app?vid=d3a61b6a-71e8-4c6c-8c6c-30262b2b9bc2"},"vehicle_type_id":"4","last_reported":1727298524,"current_range_meters":34800,"station_id":"","pricing_plan_id":"cebpf4jnsgd1na2vs0mg"},{"bike_id":"a36a07ac-2d7d-4905-be4a-0f24203a2b1c","system_id":"levelo_inurba_marseille","lat":43.31889,"lon":5.40732,"is_reserved":false,"is_disabled":false,"rental_uris":{"android":"levelo://app?vid=a36a07ac-2d7d-4905-be4a-0f24203a2b1c","ios":"levelo://app?vid=a36a07ac-2d7d-4905-be4a-0f24203a2b1c"},"vehicle_type_id":"4","last_reported":1727298524,"current_range_meters":10800,"station_id":"ce4bhq12rcd13ifvqhig","pricing_plan_id":"cebpf4jnsgd1na2vs0mg"},{"bike_id":"b2fdafd7-66ba-415e-868d-2ba27bc18be5","system_id":"levelo_inurba_marseille","lat":43.31725,"lon":5.42402,"is_reserved":false,"is_disabled":false,"rental_uris":{"android":"levelo://app?vid=b2fdafd7-66ba-415e-868d-2ba27bc18be5","ios":"levelo://app?vid=b2fdafd7-66ba-415e-868d-2ba27bc18be5"},"vehicle_type_id":"4","last_reported":1727298524,"current_range_meters":38800,"station_id":"ce4bhp92rcd13ifvqhbg","pricing_plan_id":"cebpf4jnsgd1na2vs0mg"},{"bike_id":"0af01501-f8ee-4920-b4ab-5aee2dde7e05","system_id":"levelo_inurba_marseille","lat":43.29417,"lon":5.38628,"is_reserved":false,"is_disabled":false,"rental_uris":{"android":"levelo://app?vid=0af01501-f8ee-4920-b4ab-5aee2dde7e05","ios":"levelo://app?vid=0af01501-f8ee-4920-b4ab-5aee2dde7e05"},"vehicle_type_id":"4","last_reported":1727298524,"current_range_meters":38800,"station_id":"ce4bh2h2rcd13ifvqdh0","pricing_plan_id":"cebpf4jnsgd1na2vs0mg"},{"bike_id":"e35da3a0-9196-48b6-bd8b-52ad625750a1","system_id":"levelo_inurba_marseille","lat":43.31755,"lon":5.39016,"is_reserved":false,"is_disabled":false,"rental_uris":{"android":"levelo://app?vid=e35da3a0-9196-48b6-bd8b-52ad625750a1","ios":"levelo://app?vid=e35da3a0-9196-48b6-bd8b-52ad625750a1"},"vehicle_type_id":"4","last_reported":1727298524,"current_range_meters":18000,"station_id":"ce4bhqp2rcd13ifvqhng","pricing_plan_id":"cebpf4jnsgd1na2vs0mg"},{"bike_id":"7fd43d4b-47b2-4eab-98db-296da55874bb","system_id":"levelo_inurba_marseille","lat":43.31535,"lon":5.38022,"is_reserved":false,"is_disabled":false,"rental_uris":{"android":"levelo://app?vid=7fd43d4b-47b2-4eab-98db-296da55874bb","ios":"levelo://app?vid=7fd43d4b-47b2-4eab-98db-296da55874bb"},"vehicle_type_id":"4","last_reported":1727298524,"current_range_meters":20400,"station_id":"ce4bhsp2rcd13ifvqi50","pricing_plan_id":"cebpf4jnsgd1na2vs0mg"},{"bike_id":"3a2fb078-3ab4-4427-95ee-ff0c42a7a4d5","system_id":"levelo_inurba_marseille","lat":43.23188,"lon":5.39977,"is_reserved":false,"is_disabled":false,"rental_uris":{"android":"levelo://app?vid=3a2fb078-3ab4-4427-95ee-ff0c42a7a4d5","ios":"levelo://app?vid=3a2fb078-3ab4-4427-95ee-ff0c42a7a4d5"},"vehicle_type_id":"4","last_reported":1727298524,"current_range_meters":28800,"station_id":"ce4bhn12rcd13ifvqgqg","pricing_plan_id":"cebpf4jnsgd1na2vs0mg"},{"bike_id":"0cbdd9ee-1790-4ad9-890e-3ba825733dfc","system_id":"levelo_inurba_marseille","lat":43.23187,"lon":5.39983,"is_reserved":false,"is_disabled":false,"rental_uris":{"android":"levelo://app?vid=0cbdd9ee-1790-4ad9-890e-3ba825733dfc","ios":"levelo://app?vid=0cbdd9ee-1790-4ad9-890e-3ba825733dfc"},"vehicle_type_id":"4","last_reported":1727298524,"current_range_meters":35200,"station_id":"ce4bhn12rcd13ifvqgqg","pricing_plan_id":"cebpf4jnsgd1na2vs0mg"},{"bike_id":"52d92dc4-471d-4fdd-9de2-cb1ec55aaa75","system_id":"levelo_inurba_marseille","lat":43.298677,"lon":5.397353,"is_reserved":false,"is_disabled":false,"rental_uris":{"android":"levelo://app?vid=52d92dc4-471d-4fdd-9de2-cb1ec55aaa75","ios":"levelo://app?vid=52d92dc4-471d-4fdd-9de2-cb1ec55aaa75"},"vehicle_type_id":"4","last_reported":1727298524,"current_range_meters":38800,"station_id":"ce4bh0h2rcd13ifvqd50","pricing_plan_id":"cebpf4jnsgd1na2vs0mg"},{"bike_id":"b4ebb3b8-fa5f-4b31-99d7-9fdec65b9132","system_id":"levelo_inurba_marseille","lat":43.24389,"lon":5.37062,"is_reserved":false,"is_disabled":false,"rental_uris":{"android":"levelo://app?vid=b4ebb3b8-fa5f-4b31-99d7-9fdec65b9132","ios":"levelo://app?vid=b4ebb3b8-fa5f-4b31-99d7-9fdec65b9132"},"vehicle_type_id":"4","last_reported":1727298524,"current_range_meters":39200,"station_id":"ce4bhhh2rcd13ifvqfk0","pricing_plan_id":"cebpf4jnsgd1na2vs0mg"},{"bike_id":"6cd67961-0e49-4001-8c10-59fe93aefdf9","system_id":"levelo_inurba_marseille","lat":43.32291,"lon":5.38268,"is_reserved":false,"is_disabled":false,"rental_uris":{"android":"levelo://app?vid=6cd67961-0e49-4001-8c10-59fe93aefdf9","ios":"levelo://app?vid=6cd67961-0e49-4001-8c10-59fe93aefdf9"},"vehicle_type_id":"4","last_reported":1727298524,"current_range_meters":32400,"station_id":"ce4bhr12rcd13ifvqhqg","pricing_plan_id":"cebpf4jnsgd1na2vs0mg"},{"bike_id":"f57f07a5-8385-45d9-97fa-432815e7edb4","system_id":"levelo_inurba_marseille","lat":43.28455,"lon":5.35889,"is_reserved":false,"is_disabled":false,"rental_uris":{"android":"levelo://app?vid=f57f07a5-8385-45d9-97fa-432815e7edb4","ios":"levelo://app?vid=f57f07a5-8385-45d9-97fa-432815e7edb4"},"vehicle_type_id":"4","last_reported":1727298524,"current_range_meters":12800,"station_id":"ce4bhah2rcd13ifvqei0","pricing_plan_id":"cebpf4jnsgd1na2vs0mg"},