{"last_updated":1747937677,"ttl":60,"version":"2.2","data":{"bikes":[{"bike_id":"c0b9fd4f-e181-46ce-b0bf-f5119973334f","system_id":"levelo_inurba_marseille","lat":43.33771,"lon":5.37424,"is_reserved":false,"is_disabled":true,"rental_uris":{"android":"levelo://app?vid=c0b9fd4f-e181-46ce-b0bf-f5119973334f","ios":"levelo://app?vid=c0b9fd4f-e181-46ce-b0bf-f5119973334f"},"vehicle_type_id":"4","last_reported":1747937677,"current_range_meters":0,"station_id":"","pricing_plan_id":"cebpf4jnsgd1na2vs0mg"},{"bike_id":"d293d0f0-b6ec-4616-bd1b-ea93c639a71c","system_id":"levelo_inurba_marseille","lat":43.279756,"lon":5.387354,"is_reserved":false,"is_disabled":false,"rental_uris":{"android":"levelo://app?vid=d293d0f0-b6ec-4616-bd1b-ea93c639a71c","ios":"levelo://app?vid=d293d0f0-b6ec-4616-bd1b-ea93c639a71c"},"vehicle_type_id":"4","last_reported":1747937677,"current_range_meters":0,"station_id":"","pricing_plan_id":"cebpf4jnsgd1na2vs0mg"},{"bike_id":"99f73d8c-ff21-451c-8082-80384eaeabfc","system_id":"levelo_inurba_marseille","lat":43.30559,"lon":5.40167,"is_reserved":false,"is_disabled":true,"rental_uris":{"android":"levelo://app?vid=99f73d8c-ff21-451c-8082-80384eaeabfc","ios":"levelo://app?vid=99f73d8c-ff21-451c-8082-80384eaeabfc"},"vehicle_type_id":"4","last_reported":1747937677,"current_range_meters":0,"station_id":"","pricing_plan_id":"cebpf4jnsgd1na2vs0mg"},{"bike_id":"c306fa7d-481e-4ae3-9585-ff4c1f5ddcb9","system_id":"levelo_inurba_marseille","lat":43.34945,"lon":5.3788,"is_reserved":false,"is_disabled":true,"rental_uris":{"android":"levelo://app?vid=c306fa7d-481e-4ae3-9585-ff4c1f5ddcb9","ios":"levelo://app?vid=c306fa7d-481e-4ae3-9585-ff4c1f5ddcb9"},"vehicle_type_id":"4","last_reported":1747937677,"current_range_meters":0,"station_id":"","pricing_plan_id":"cebpf4jnsgd1na2vs0mg"},{"bike_id":"c2b4a03e-0b64-4ca0-8ea3-612bc6668100","system_id":"levelo_inurba_marseille","lat":43.31398,"lon":5.37587,"is_reserved":false,"is_disabled":true,"rental_uris":{"android":"levelo://app?vid=c2b4a03e-0b64-4ca0-8ea3-612bc6668100","ios":"levelo://app?vid=c2b4a03e-0b64-4ca0-8ea3-612bc6668100"},"vehicle_type_id":"4","last_reported":1747937677,"current_range_meters":0,"station_id":"","pricing_plan_id":"cebpf4jnsgd1na2vs0mg"},{"bike_id":"8f0f531d-6a65-4647-8a6f-baa3d982f42f","system_id":"levelo_inurba_marseille","lat":43.28111,"lon":5.42586,"is_reserved":false,"is_disabled":true,"rental_uris":{"android":"levelo://app?vid=8f0f531d-6a65-4647-8a6f-baa3d982f42f","ios":"levelo://app?vid=8f0f531d-6a65-4647-8a6f-baa3d982f42f"},"vehicle_type_id":"4","last_reported":1747937677,"current_range_meters":0,"station_id":"","pricing_plan_id":"cebpf4jnsgd1na2vs0mg"},{"bike_id":"a39feb78-45ea-48f2-bfec-45004cb27058","system_id":"levelo_inurba_marseille","lat":43.30018,"lon":5.40111,"is_reserved":false,"is_disabled":true,"rental_uris":{"android":"levelo://app?vid=a39feb78-45ea-48f2-bfec-45004cb27058","ios":"levelo://app?vid=a39feb78-45ea-48f2-bfec-45004cb27058"},"vehicle_type_id":"4","last_reported":1747937677,"current_range_meters":0,"station_id":"","pricing_plan_id":"cebpf4jnsgd1na2vs0mg"},{"bike_id":"70c5c5ad-5e66-4a49-9450-c4d67d96b788","system_id":"levelo_inurba_marseille","lat":43.271283,"lon":5.427379,"is_reserved":false,"is_disabled":true,"rental_uris":{"android":"levelo://app?vid=70c5c5ad-5e66-4a49-9450-c4d67d96b788","ios":"levelo://app?vid=70c5c5ad-5e66-4a49-9450-c4d67d96b788"},"vehicle_type_id":"4","last_reported":1747937677,"current_range_meters":0,"station_id":"","pricing_plan_id":"cebpf4jnsgd1na2vs0mg"},{"bike_id":"9913adaa-d53d-44af-8cc0-e1c41d052752","system_id":"levelo_inurba_marseille","lat":43.28004,"lon":5.3864,"is_reserved":false,"is_disabled":true,"rental_uris":{"android":"levelo://app?vid=9913adaa-d53d-44af-8cc0-e1c41d052752","ios":"levelo://app?vid=9913adaa-d53d-44af-8cc0-e1c41d052752"},"vehicle_type_id":"4","last_reported":1747937677,"current_range_meters":0,"station_id":"","pricing_plan_id":"cebpf4jnsgd1na2vs0mg"},{"bike_id":"5281ff50-15a3-4882-a775-51088d6a98cc","system_id":"levelo_inurba_marseille","lat":43.31322,"lon":5.3788,"is_reserved":false,"is_disabled":true,"rental_uris":{"android":"levelo://app?vid=5281ff50-15a3-4882-a775-51088d6a98cc","ios":"levelo://app?vid=5281ff50-15a3-4882-a775-51088d6a98cc"},"vehicle_type_id":"4","last_reported":1747937677,"current_range_meters":0,"station_id":"","pricing_plan_id":"cebpf4jnsgd1na2vs0mg"},{"bike_id":"15dcdbbd-a41e-43eb-9ed6-26ec15ce7a50","system_id":"levelo_inurba_marseille","lat":43.2143,"lon":5.34097,"is_reserved":false,"is_disabled":true,"rental_uris":{"android":"levelo://app?vid=15dcdbbd-a41e-43eb-9ed6-26ec15ce7a50","ios":"levelo://app?vid=15dcdbbd-a41e-43eb-9ed6-26ec15ce7a50"},"vehicle_type_id":"4","last_reported":1747937677,"current_range_meters":0,"station_id":"","pricing_plan_id":"cebpf4jnsgd1na2vs0mg"},{"bike_id":"e9dd3aa4-b5e7-4480-926d-d7f537719bfa","system_id":"levelo_inurba_marseille","lat":43.230331,"lon":5.401847,"is_reserved":false,"is_disabled":true,"rental_uris":{"android":"levelo://app?vid=e9dd3aa4-b5e7-4480-926d-d7f537719bfa","ios":"levelo://app?vid=e9dd3aa4-b5e7-4480-926d-d7f537719bfa"},"vehicle_type_id":"4","last_reported":1747937677,"current_range_meters":0,"station_id":"","pricing_plan_id":"cebpf4jnsgd1na2vs0mg"},{"bike_id":"14603e41-b2dd-4757-a53c-2e366aa4f983","system_id":"levelo_inurba_marseille","lat":43.26998,"lon":5.42838,"is_reserved":false,"is_disabled":true,"rental_uris":{"android":"levelo://app?vid=14603e41-b2dd-4757-a53c-2e366aa4f983","ios":"levelo://app?vid=14603e41-b2dd-4757-a53c-2e366aa4f983"},"vehicle_type_id":"4","last_reported":1747937677,"current_range_meters":0,"station_id":"","pricing_plan_id":"cebpf4jnsgd1na2vs0mg"},{"bike_id":"146248f2-7e55-4cc4-8055-f85b2f9a2d13","system_id":"levelo_inurba_marseille","lat":43.29561,"lon":5.37497,"is_reserved":false,"is_disabled":true,"rental_uris":{"android":"levelo://app?vid=146248f2-7e55-4cc4-8055-f85b2f9a2d13","ios":"levelo://app?vid=146248f2-7e55-4cc4-8055-f85b2f9a2d13"},"vehicle_type_id":"4","last_reported":1747937677,"current_range_meters":0,"station_id":"ce4bgh92rcd13ifvqb50","pricing_plan_id":"cebpf4jnsgd1na2vs0mg"},{"bike_id":"27f6a41f-ec02-48f3-83b9-66bc7e6f8856","system_id":"levelo_inurba_marseille","lat":43.29923,"lon":5.37498,"is_reserved":false,"is_disabled":true,"rental_uris":{"android":"levelo://app?vid=27f6a41f-ec02-48f3-83b9-66bc7e6f8856","ios":"levelo://app?vid=27f6a41f-ec02-48f3-83b9-66bc7e6f8856"},"vehicle_type_id":"4","last_reported":1747937677,"current_range_meters":0,"station_id":"ce4bgjh2rcd13ifvqbg0","pricing_plan_id":"cebpf4jnsgd1na2vs0mg"},{"bike_id":"91dfc492-942a-42b4-b1b2-7c3a5886052b","system_id":"levelo_inurba_marseille","lat":43.30925,"lon":5.40174,"is_reserved":false,"is_disabled":true,"rental_uris":{"android":"levelo://app?vid=91dfc492-942a-42b4-b1b2-7c3a5886052b","ios":"levelo://app?vid=91dfc492-942a-42b4-b1b2-7c3a5886052b"},"vehicle_type_id":"4","last_reported":1747937677,"current_range_meters":0,"station_id":"ce4bgvp2rcd13ifvqct0","pricing_plan_id":"cebpf4jnsgd1na2vs0mg"},{"bike_id":"40739c89-7f9a-434c-834a-54be62245c71","system_id":"levelo_inurba_marseille","lat":43.301178,"lon":5.398613,"is_reserved":false,"is_disabled":true,"rental_uris":{"android":"levelo://app?vid=40739c89-7f9a-434c-834a-54be62245c71","ios":"levelo://app?vid=40739c89-7f9a-434c-834a-54be62245c71"},"vehicle_type_id":"4","last_reported":1747937677,"current_range_meters":0,"station_id":"ce4bh0h2rcd13ifvqd40","pricing_plan_id":"cebpf4jnsgd1na2vs0mg"},{"bike_id":"d34ce505-02bc-4074-95c3-2a2dd4f37334","system_id":"levelo_inurba_marseille","lat":43.28269,"lon":5.35073,"is_reserved":false,"is_disabled":true,"rental_uris":{"android":"levelo://app?vid=d34ce505-02bc-4074-95c3-2a2dd4f37334","ios":"levelo://app?vid=d34ce505-02bc-4074-95c3-2a2dd4f37334"},"vehicle_type_id":"4","last_reported":1747937677,"current_range_meters":0,"station_id":"ce4bhbp2rcd13ifvqerg","pricing_plan_id":"cebpf4jnsgd1na2vs0mg"},{"bike_id":"a48257a4-35f8-4931-a769-62509faaba98","system_id":"levelo_inurba_marseille","lat":43.29291,"lon":5.3685,"is_reserved":false,"is_disabled":true,"rental_uris":{"android":"levelo://app?vid=a48257a4-35f8-4931-a769-62509faaba98","ios":"levelo://app?vid=a48257a4-35f8-4931-a769-62509faaba98"},"vehicle_type_id":"4","last_reported":1747937677,"current_range_meters":0,"station_id":"ce4bhbp2rcd13ifvqesg","pricing_plan_id":"cebpf4jnsgd1na2vs0mg"},{"bike_id":"83abf2ff-a44a-45d3-88c1-f996a52257fb","system_id":"levelo_inurba_marseille","lat":43.27939,"lon":5.38708,"is_reserved":false,"is_disabled":false,"rental_uris":{"android":"levelo://app?vid=83abf2ff-a44a-45d3-88c1-f996a52257fb","ios":"levelo://app?vid=83abf2ff-a44a-45d3-88c1-f996a52257fb"},"vehicle_type_id":"4","last_reported":1747937677,"current_range_meters":0,"station_id":"ce4bhg12rcd13ifvqf80","pricing_plan_id":"cebpf4jnsgd1na2vs0mg"},{"bike_id":"1539c708-ed9b-4a02-811a-8a649ebdf968","system_id":"levelo_inurba_marseille","lat":43.30353,"lon":5.41891,"is_reserved":false,"is_disabled":true,"rental_uris":{"android":"levelo://app?vid=1539c708-ed9b-4a02-811a-8a649ebdf968","ios":"levelo://app?vid=1539c708-ed9b-4a02-811a-8a649ebdf968"},"vehicle_type_id":"4","last_reported":1747937677,"current_range_meters":0,"station_id":"ce4bhop2rcd13ifvqh7g","pricing_plan_id":"cebpf4jnsgd1na2vs0mg"},{"bike_id":"7c41bde0-91a0-4b4e-87c2-34481d7b8a58","system_id":"levelo_inurba_marseille","lat":43.31079,"lon":5.42429,"is_reserved":false,"is_disabled":true,"rental_uris":{"android":"levelo://app?vid=7c41bde0-91a0-4b4e-87c2-34481d7b8a58","ios":"levelo://app?vid=7c41bde0-91a0-4b4e-87c2-34481d7b8a58"},"vehicle_type_id":"4","last_reported":1747937677,"current_range_meters":0,"station_id":"ce4bhp92rcd13ifvqhag","pricing_plan_id":"cebpf4jnsgd1na2vs0mg"},{"bike_id":"d745d461-4db2-44e8-b483-f2e111e3061e","system_id":"levelo_inurba_marseille","lat":43.3108,"lon":5.4243,"is_reserved":false,"is_disabled":true,"rental_uris":{"android":"levelo://app?vid=d745d461-4db2-44e8-b483-f2e111e3061e","ios":"levelo://app?vid=d745d461-4db2-44e8-b483-f2e111e3061e"},"vehicle_type_id":"4","last_reported":1747937677,"current_range_meters":0,"station_id":"ce4bhp92rcd13ifvqhag","pricing_plan_id":"cebpf4jnsgd1na2vs0mg"},{"bike_id":"e6443527-757d-4b43-946e-ae12740f228a","system_id":"levelo_inurba_marseille","lat":43.299024,"lon":5.43673,"is_reserved":false,"is_disabled":true,"rental_uris":{"android":"levelo://app?vid=e6443527-757d-4b43-946e-ae12740f228a","ios":"levelo://app?vid=e6443527-757d-4b43-946e-ae12740f228a"},"vehicle_type_id":"4","last_reported":1747937677,"current_range_meters":0,"station_id":"ce4bhpp2rcd13ifvqhfg","pricing_plan_id":"cebpf4jnsgd1na2vs0mg"},{"bike_id":"8a6fe046-74cd-404e-bcc0-4483e8eb25b3","system_id":"levelo_inurba_marseille","lat":43.273323,"lon":5.390611,"is_reserved":false,"is_disabled":true,"rental_uris":{"android":"levelo://app?vid=8a6fe046-74cd-404e-bcc0-4483e8eb25b3","ios":"levelo://app?vid=8a6fe046-74cd-404e-bcc0-4483e8eb25b3"},"vehicle_type_id":"4","last_reported":1747937677,"current_range_meters":400,"station_id":"ce4bhgp2rcd13ifvqfe0","pricing_plan_id":"cebpf4jnsgd1na2vs0mg"},{"bike_id":"66e3b17a-3aec-45b5-838a-6a80a027b138","system_id":"levelo_inurba_marseille","lat":43.27073,"lon":5.42284,"is_reserved":false,"is_disabled":true,"rental_uris":{"android":"levelo://app?vid=66e3b17a-3aec-45b5-838a-6a80a027b138","ios":"levelo://app?vid=66e3b17a-3aec-45b5-838a-6a80a027b138"},"vehicle_type_id":"4","last_reported":1747937677,"current_range_meters":400,"station_id":"ce4bhk92rcd13ifvqgb0","pricing_plan_id":"cebpf4jnsgd1na2vs0mg"},{"bike_id":"accc774c-608d-41d0-94cc-4b6db1b9e1c6","system_id":"levelo_inurba_marseille","lat":43.29552,"lon":5.42286,"is_reserved":false,"is_disabled":true,"rental_uris":{"android":"levelo://app?vid=accc774c-608d-41d0-94cc-4b6db1b9e1c6","ios":"levelo://app?vid=accc774c-608d-41d0-94cc-4b6db1b9e1c6"},"vehicle_type_id":"4","last_reported":1747937677,"current_range_meters":400,"station_id":"ce4bhph2rcd13ifvqhdg","pricing_plan_id":"cebpf4jnsgd1na2vs0mg"},{"bike_id":"70934593-215f-4be5-a423-caea26503423","system_id":"levelo_inurba_marseille","lat":43.28105,"lon":5.37839,"is_reserved":false,"is_disabled":true,"rental_uris":{"android":"levelo://app?vid=70934593-215f-4be5-a423-caea26503423","ios":"levelo://app?vid=70934593-215f-4be5-a423-caea26503423"},"vehicle_type_id":"4","last_reported":1747937677,"current_range_meters":800,"station_id":"ce4bha12rcd13ifvqee0","pricing_plan_id":"cebpf4jnsgd1na2vs0mg"},{"bike_id":"490724f1-01b1-4031-82eb-00aba3c4954f","system_id":"levelo_inurba_marseille","lat":43.28049,"lon":5.36927,"is_reserved":false,"is_disabled":true,"rental_uris":{"android":"levelo://app?vid=490724f1-01b1-4031-82eb-00aba3c4954f","ios":"levelo://app?vid=490724f1-01b1-4031-82eb-00aba3c4954f"},"vehicle_type_id":"4","last_reported":1747937677,"current_range_meters":800,"station_id":"ce4bha12rcd13ifvqef0","pricing_plan_id":"cebpf4jnsgd1na2vs0mg"},{"bike_id":"8fab68f3-a366-4047-ae6c-02bfd676cfcd","system_id":"levelo_inurba_marseille","lat":43.29009,"lon":5.35635,"is_reserved":false,"is_disabled":true,"rental_uris":{"android":"levelo://app?vid=8fab68f3-a366-4047-ae6c-02bfd676cfcd","ios":"levelo://app?vid=8fab68f3-a366-4047-ae6c-02bfd676cfcd"},"vehicle_type_id":"4","last_reported":1747937677,"current_range_meters":800,"station_id":"ce4bhb92rcd13ifvqen0","pricing_plan_id":"cebpf4jnsgd1na2vs0mg"},{"bike_id":"0f94ee47-91e4-4fad-9efc-974ede4e6da8","system_id":"levelo_inurba_marseille","lat":43.27381,"lon":5.36254,"is_reserved":false,"is_disabled":true,"rental_uris":{"android":"levelo://app?vid=0f94ee47-91e4-4fad-9efc-974ede4e6da8","ios":"levelo://app?vid=0f94ee47-91e4-4fad-9efc-974ede4e6da8"},"vehicle_type_id":"4","last_reported":1747937677,"current_range_meters":800,"station_id":"ce4bhbh2rcd13ifvqeo0","pricing_plan_id":"cebpf4jnsgd1na2vs0mg"},{"bike_id":"addacb63-eaa1-4b88-b2d5-f495030c26ce","system_id":"levelo_inurba_marseille","lat":43.231528,"lon":5.437217,"is_reserved":false,"is_disabled":true,"rental_uris":{"android":"levelo://app?vid=addacb63-eaa1-4b88-b2d5-f495030c26ce","ios":"levelo://app?vid=addacb63-eaa1-4b88-b2d5-f495030c26ce"},"vehicle_type_id":"4","last_reported":1747937677,"current_range_meters":800,"station_id":"ce4bhmp2rcd13ifvqgog","pricing_plan_id":"cebpf4jnsgd1na2vs0mg"},{"bike_id":"ca1ef42c-a88e-4a5c-bdc1-61570156b583","system_id":"levelo_inurba_marseille","lat":43.23144,"lon":5.43711,"is_reserved":false,"is_disabled":true,"rental_uris":{"android":"levelo://app?vid=ca1ef42c-a88e-4a5c-bdc1-61570156b583","ios":"levelo://app?vid=ca1ef42c-a88e-4a5c-bdc1-61570156b583"},"vehicle_type_id":"4","last_reported":1747937677,"current_range_meters":800,"station_id":"ce4bhmp2rcd13ifvqgog","pricing_plan_id":"cebpf4jnsgd1na2vs0mg"},{"bike_id":"d8bc2224-be57-4968-9c83-9fa46f458984","system_id":"levelo_inurba_marseille","lat":43.2821,"lon":5.39061,"is_reserved":false,"is_disabled":true,"rental_uris":{"android":"levelo://app?vid=d8bc2224-be57-4968-9c83-9fa46f458984","ios":"levelo://app?vid=d8bc2224-be57-4968-9c83-9fa46f458984"},"vehicle_type_id":"4","last_reported":1747937677,"current_range_meters":1200,"station_id":"","pricing_plan_id":"cebpf4jnsgd1na2vs0mg"},{"bike_id":"e99f1361-6cf8-4eab-bb29-f312ff051ad6","system_id":"levelo_inurba_marseille","lat":43.290375,"lon":5.386471,"is_reserved":false,"is_disabled":true,"rental_uris":{"android":"levelo://app?vid=e99f1361-6cf8-4eab-bb29-f312ff051ad6","ios":"levelo://app?vid=e99f1361-6cf8-4eab-bb29-f312ff051ad6"},"vehicle_type_id":"4","last_reported":1747937677,"current_range_meters":1200,"station_id":"ce4bh4p2rcd13ifvqe0g","pricing_plan_id":"cebpf4jnsgd1na2vs0mg"},{"bike_id":"1a923fe3-9b61-4f75-993d-10058a181d6d","system_id":"levelo_inurba_marseille","lat":43.21747,"lon":5.34609,"is_reserved":false,"is_disabled":true,"rental_uris":{"android":"levelo://app?vid=1a923fe3-9b61-4f75-993d-10058a181d6d","ios":"levelo://app?vid=1a923fe3-9b61-4f75-993d-10058a181d6d"},"vehicle_type_id":"4","last_reported":1747937677,"current_range_meters":1200,"station_id":"st_cvj6r9ubvosntc0bgbag","pricing_plan_id":"cebpf4jnsgd1na2vs0mg"},{"bike_id":"0ad1bfab-795f-4ed0-98e0-7451dbbaa17f","system_id":"levelo_inurba_marseille","lat":43.28461,"lon":5.35881,"is_reserved":false,"is_disabled":true,"rental_uris":{"android":"levelo://app?vid=0ad1bfab-795f-4ed0-98e0-7451dbbaa17f","ios":"levelo://app?vid=0ad1bfab-795f-4ed0-98e0-7451dbbaa17f"},"vehicle_type_id":"4","last_reported":1747937677,"current_range_meters":1600,"station_id":"ce4bhah2rcd13ifvqei0","pricing_plan_id":"cebpf4jnsgd1na2vs0mg"},{"bike_id":"325a0ae5-1ae5-42d8-9c19-93c919c81423","system_id":"levelo_inurba_marseille","lat":43.28952,"lon":5.36637,"is_reserved":false,"is_disabled":true,"rental_uris":{"android":"levelo://app?vid=325a0ae5-1ae5-42d8-9c19-93c919c81423","ios":"levelo://app?vid=325a0ae5-1ae5-42d8-9c19-93c919c81423"},"vehicle_type_id":"4","last_reported":1747937677,"current_range_meters":1600,"station_id":"ce4bhap2rcd13ifvqek0","pricing_plan_id":"cebpf4jnsgd1na2vs0mg"},{"bike_id":"0b6160b6-dafa-4f2e-8e94-c4bc807856be","system_id":"levelo_inurba_marseille","lat":43.27318,"lon":5.39075,"is_reserved":false,"is_disabled":true,"rental_uris":{"android":"levelo://app?vid=0b6160b6-dafa-4f2e-8e94-c4bc807856be","ios":"levelo://app?vid=0b6160b6-dafa-4f2e-8e94-c4bc807856be"},"vehicle_type_id":"4","last_reported":1747937677,"current_range_meters":2000,"station_id":"ce4bhgp2rcd13ifvqfe0","pricing_plan_id":"cebpf4jnsgd1na2vs0mg"},{"bike_id":"424f80e6-8b01-4846-9ead-0a6942eac04c","system_id":"levelo_inurba_marseille","lat":43.31318,"lon":5.39693,"is_reserved":false,"is_disabled":false,"rental_uris":{"android":"levelo://app?vid=424f80e6-8b01-4846-9ead-0a6942eac04c","ios":"levelo://app?vid=424f80e6-8b01-4846-9ead-0a6942eac04c"},"vehicle_type_id":"4","last_reported":1747937677,"current_range_meters":2800,"station_id":"ce4bgvp2rcd13ifvqcu0","pricing_plan_id":"cebpf4jnsgd1na2vs0mg"},{"bike_id":"21c5f07a-98fd-4917-8363-5b11044f57f9","system_id":"levelo_inurba_marseille","lat":43.24668,"lon":5.3816,"is_reserved":false,"is_disabled":false,"rental_uris":{"android":"levelo://app?vid=21c5f07a-98fd-4917-8363-5b11044f57f9","ios":"levelo://app?vid=21c5f07a-98fd-4917-8363-5b11044f57f9"},"vehicle_type_id":"4","last_reported":1747937677,"current_range_meters":2800,"station_id":"ce4bhih2rcd13ifvqfr0","pricing_plan_id":"cebpf4jnsgd1na2vs0mg"},{"bike_id":"e8162579-a5ad-485f-ad83-fec8a2ebe7e1","system_id":"levelo_inurba_marseille","lat":43.26826,"lon":5.39099,"is_reserved":false,"is_disabled":false,"rental_uris":{"android":"levelo://app?vid=e8162579-a5ad-485f-ad83-fec8a2ebe7e1","ios":"levelo://app?vid=e8162579-a5ad-485f-ad83-fec8a2ebe7e1"},"vehicle_type_id":"4","last_reported":1747937677,"current_range_meters":3200,"station_id":"","pricing_plan_id":"cebpf4jnsgd1na2vs0mg"},{"bike_id":"1ff4dd87-bf56-4ab1-8365-aad71fcb827c","system_id":"levelo_inurba_marseille","lat":43.32579,"lon":5.42719,"is_reserved":false,"is_disabled":false,"rental_uris":{"android":"levelo://app?vid=1ff4dd87-bf56-4ab1-8365-aad71fcb827c","ios":"levelo://app?vid=1ff4dd87-bf56-4ab1-8365-aad71fcb827c"},"vehicle_type_id":"4","last_reported":1747937677,"current_range_meters":3200,"station_id":"","pricing_plan_id":"cebpf4jnsgd1na2vs0mg"},{"bike_id":"a8cb710f-9f31-4fdd-a5b0-90b8dfff9a9a","system_id":"levelo_inurba_marseille","lat":43.2958,"lon":5.36735,"is_reserved":false,"is_disabled":false,"rental_uris":{"android":"levelo://app?vid=a8cb710f-9f31-4fdd-a5b0-90b8dfff9a9a","ios":"levelo://app?vid=a8cb710f-9f31-4fdd-a5b0-90b8dfff9a9a"},"vehicle_type_id":"4","last_reported":1747937677,"current_range_meters":3200,"station_id":"ce4bgph2rcd13ifvqc2g","pricing_plan_id":"cebpf4jnsgd1na2vs0mg"},{"bike_id":"d02d6b88-efe4-4fcd-b858-3062d6af9528","system_id":"levelo_inurba_marseille","lat":43.30817,"lon":5.38132,"is_reserved":false,"is_disabled":false,"rental_uris":{"android":"levelo://app?vid=d02d6b88-efe4-4fcd-b858-3062d6af9528","ios":"levelo://app?vid=d02d6b88-efe4-4fcd-b858-3062d6af9528"},"vehicle_type_id":"4","last_reported":1747937677,"current_range_meters":3200,"station_id":"ce4bgt12rcd13ifvqce0","pricing_plan_id":"cebpf4jnsgd1na2vs0mg"},{"bike_id":"9029e55a-88ce-48fa-bb3a-6ba4cab92457","system_id":"levelo_inurba_marseille","lat":43.23156,"lon":5.43704,"is_reserved":false,"is_disabled":false,"rental_uris":{"android":"levelo://app?vid=9029e55a-88ce-48fa-bb3a-6ba4cab92457","ios":"levelo://app?vid=9029e55a-88ce-48fa-bb3a-6ba4cab92457"},"vehicle_type_id":"4","last_reported":1747937677,"current_range_meters":3200,"station_id":"ce4bhmp2rcd13ifvqgog","pricing_plan_id":"cebpf4jnsgd1na2vs0mg"},{"bike_id":"876bc23c-26ba-4fe2-8ba4-e2bb9399a38a","system_id":"levelo_inurba_marseille","lat":43.282654,"lon":5.350552,"is_reserved":false,"is_disabled":false,"rental_uris":{"android":"levelo://app?vid=876bc23c-26ba-4fe2-8ba4-e2bb9399a38a","ios":"levelo://app?vid=876bc23c-26ba-4fe2-8ba4-e2bb9399a38a"},"vehicle_type_id":"4","last_reported":1747937677,"current_range_meters":3600,"station_id":"ce4bhbp2rcd13ifvqerg","pricing_plan_id":"cebpf4jnsgd1na2vs0mg"},{"bike_id":"4d967640-0315-4f7c-9050-bce6ce235b88","system_id":"levelo_inurba_marseille","lat":43.29287,"lon":5.36852,"is_reserved":false,"is_disabled":false,"rental_uris":{"android":"levelo://app?vid=4d967640-0315-4f7c-9050-bce6ce235b88","ios":"levelo://app?vid=4d967640-0315-4f7c-9050-bce6ce235b88"},"vehicle_type_id":"4","last_reported":1747937677,"current_range_meters":3600,"station_id":"ce4bhbp2rcd13ifvqesg","pricing_plan_id":"cebpf4jnsgd1na2vs0mg"},{"bike_id":"5ea1af59-e117-433c-8be8-b16da3783a9a","system_id":"levelo_inurba_marseille","lat":43.258128,"lon":5.376125,"is_reserved":false,"is_disabled":false,"rental_uris":{"android":"levelo://app?vid=5ea1af59-e117-433c-8be8-b16da3783a9a","ios":"levelo://app?vid=5ea1af59-e117-433c-8be8-b16da3783a9a"},"vehicle_type_id":"4","last_reported":1747937677,"current_range_meters":3600,"station_id":"ce4bhh12rcd13ifvqff0","pricing_plan_id":"cebpf4jnsgd1na2vs0mg"},{"bike_id":"76394c4d-3056-444e-93db-abd92353dc1c","system_id":"levelo_inurba_marseille","lat":43.23965,"lon":5.36638,"is_reserved":false,"is_disabled":false,"rental_uris":{"android":"levelo://app?vid=76394c4d-3056-444e-93db-abd92353dc1c","ios":"levelo://app?vid=76394c4d-3056-444e-93db-abd92353dc1c"},"vehicle_type_id":"4","last_reported":1747937677,"current_range_meters":3600,"station_id":"ce4bhi12rcd13ifvqfp0","pricing_plan_id":"cebpf4jnsgd1na2vs0mg"},{"bike_id":"bc5e3b0d-996d-451d-b0c4-a538371e80b6","system_id":"levelo_inurba_marseille","lat":43.26504,"lon":5.39564,"is_reserved":false,"is_disabled":false,"rental_uris":{"android":"levelo://app?vid=bc5e3b0d-996d-451d-b0c4-a538371e80b6","ios":"levelo://app?vid=bc5e3b0d-996d-451d-b0c4-a538371e80b6"},"vehicle_type_id":"4","last_reported":1747937677,"current_range_meters":3600,"station_id":"ce4bhi12rcd13ifvqfq0","pricing_plan_id":"cebpf4jnsgd1na2vs0mg"},{"bike_id":"e7233538-248b-4ee9-ac76-404d1e51be56","system_id":"levelo_inurba_marseille","lat":43.28708,"lon":5.3794,"is_reserved":false,"is_disabled":false,"rental_uris":{"android":"levelo://app?vid=e7233538-248b-4ee9-ac76-404d1e51be56","ios":"levelo://app?vid=e7233538-248b-4ee9-ac76-404d1e51be56"},"vehicle_type_id":"4","last_reported":1747937677,"current_range_meters":4000,"station_id":"ce4bh9p2rcd13ifvqec0","pricing_plan_id":"cebpf4jnsgd1na2vs0mg"},{"bike_id":"db08c183-6f97-4923-adba-234bb3462975","system_id":"levelo_inurba_marseille","lat":43.297943,"lon":5.393507,"is_reserved":false,"is_disabled":false,"rental_uris":{"android":"levelo://app?vid=db08c183-6f97-4923-adba-234bb3462975","ios":"levelo://app?vid=db08c183-6f97-4923-adba-234bb3462975"},"vehicle_type_id":"4","last_reported":1747937677,"current_range_meters":4000,"station_id":"chh1huq6cuj3fo74tm60","pricing_plan_id":"cebpf4jnsgd1na2vs0mg"},{"bike_id":"76feef3d-928c-43ce-b835-9e9c72ab0039","system_id":"levelo_inurba_marseille","lat":43.24189,"lon":5.36385,"is_reserved":false,"is_disabled":false,"rental_uris":{"android":"levelo://app?vid=76feef3d-928c-43ce-b835-9e9c72ab0039","ios":"levelo://app?vid=76feef3d-928c-43ce-b835-9e9c72ab0039"},"vehicle_type_id":"4","last_reported":1747937677,"current_range_meters":4000,"station_id":"cpo36qri1sfpv3e86is0","pricing_plan_id":"cebpf4jnsgd1na2vs0mg"},{"bike_id":"84e3bb48-1fbd-4b2f-bf40-a97379c95133","system_id":"levelo_inurba_marseille","lat":43.294421,"lon":5.385939,"is_reserved":false,"is_disabled":false,"rental_uris":{"android":"levelo://app?vid=84e3bb48-1fbd-4b2f-bf40-a97379c95133","ios":"levelo://app?vid=84e3bb48-1fbd-4b2f-bf40-a97379c95133"},"vehicle_type_id":"4","last_reported":1747937677,"current_range_meters":4400,"station_id":"ce4bh2h2rcd13ifvqdh0","pricing_plan_id":"cebpf4jnsgd1na2vs0mg"},{"bike_id":"38f3b5bf-8dd5-47ad-b3fa-45dc84632751","system_id":"levelo_inurba_marseille","lat":43.30257,"lon":5.40018,"is_reserved":false,"is_disabled":false,"rental_uris":{"android":"levelo://app?vid=38f3b5bf-8dd5-47ad-b3fa-45dc84632751","ios":"levelo://app?vid=38f3b5bf-8dd5-47ad-b3fa-45dc84632751"},"vehicle_type_id":"4","last_reported":1747937677,"current_range_meters":4800,"station_id":"ce4bgvh2rcd13ifvqcs0","pricing_plan_id":"cebpf4jnsgd1na2vs0mg"},{"bike_id":"2f1741c1-97eb-4268-b9ad-f99a223a2229","system_id":"levelo_inurba_marseille","lat":43.25595,"lon":5.38211,"is_reserved":false,"is_disabled":false,"rental_uris":{"android":"levelo://app?vid=2f1741c1-97eb-4268-b9ad-f99a223a2229","ios":"levelo://app?vid=2f1741c1-97eb-4268-b9ad-f99a223a2229"},"vehicle_type_id":"4","last_reported":1747937677,"current_range_meters":4800,"station_id":"ce4bhih2rcd13ifvqfs0","pricing_plan_id":"cebpf4jnsgd1na2vs0mg"},{"bike_id":"5da25881-2c75-442c-b681-0206c81209f2","system_id":"levelo_inurba_marseille","lat":43.258307,"lon":5.394376,"is_reserved":false,"is_disabled":false,"rental_uris":{"android":"levelo://app?vid=5da25881-2c75-442c-b681-0206c81209f2","ios":"levelo://app?vid=5da25881-2c75-442c-b681-0206c81209f2"},"vehicle_type_id":"4","last_reported":1747937677,"current_range_meters":4800,"station_id":"ce4bhip2rcd13ifvqft0","pricing_plan_id":"cebpf4jnsgd1na2vs0mg"},{"bike_id":"4724448e-ff22-492a-ad57-05a55b2e23eb","system_id":"levelo_inurba_marseille","lat":43.32342,"lon":5.40565,"is_reserved":false,"is_disabled":false,"rental_uris":{"android":"levelo://app?vid=4724448e-ff22-492a-ad57-05a55b2e23eb","ios":"levelo://app?vid=4724448e-ff22-492a-ad57-05a55b2e23eb"},"vehicle_type_id":"4","last_reported":1747937677,"current_range_meters":4800,"station_id":"ce4bhq92rcd13ifvqhjg","pricing_plan_id":"cebpf4jnsgd1na2vs0mg"},{"bike_id":"0fcb0883-bd59-40ff-b3a2-c7bc9655de75","system_id":"levelo_inurba_marseille","lat":43.24804,"lon":5.374576,"is_reserved":false,"is_disabled":false,"rental_uris":{"android":"levelo://app?vid=0fcb0883-bd59-40ff-b3a2-c7bc9655de75","ios":"levelo://app?vid=0fcb0883-bd59-40ff-b3a2-c7bc9655de75"},"vehicle_type_id":"4","last_reported":1747937677,"current_range_meters":5600,"station_id":"ce4bhgh2rcd13ifvqfb0","pricing_plan_id":"cebpf4jnsgd1na2vs0mg"},{"bike_id":"a965f51f-aafb-4afe-bfe3-121b43346203","system_id":"levelo_inurba_marseille","lat":43.27998,"lon":5.4001,"is_reserved":false,"is_disabled":false,"rental_uris":{"android":"levelo://app?vid=a965f51f-aafb-4afe-bfe3-121b43346203","ios":"levelo://app?vid=a965f51f-aafb-4afe-bfe3-121b43346203"},"vehicle_type_id":"4","last_reported":1747937677,"current_range_meters":5600,"station_id":"ce4bho92rcd13ifvqh4g","pricing_plan_id":"cebpf4jnsgd1na2vs0mg"},{"bike_id":"8d1870e3-eebf-4a4c-a21c-e3f24d9e7dcf","system_id":"levelo_inurba_marseille","lat":43.31535,"lon":5.38031,"is_reserved":false,"is_disabled":false,"rental_uris":{"android":"levelo://app?vid=8d1870e3-eebf-4a4c-a21c-e3f24d9e7dcf","ios":"levelo://app?vid=8d1870e3-eebf-4a4c-a21c-e3f24d9e7dcf"},"vehicle_type_id":"4","last_reported":1747937677,"current_range_meters":5600,"station_id":"ce4bhsp2rcd13ifvqi50","pricing_plan_id":"cebpf4jnsgd1na2vs0mg"},{"bike_id":"bea7700e-5be2-4642-96a7-a4163388dbf8","system_id":"levelo_inurba_marseille","lat":43.28741,"lon":5.36083,"is_reserved":false,"is_disabled":false,"rental_uris":{"android":"levelo://app?vid=bea7700e-5be2-4642-96a7-a4163388dbf8","ios":"levelo://app?vid=bea7700e-5be2-4642-96a7-a4163388dbf8"},"vehicle_type_id":"4","last_reported":1747937677,"current_range_meters":5600,"station_id":"cki0cbj6b192h4jlfktg","pricing_plan_id":"cebpf4jnsgd1na2vs0mg"},{"bike_id":"b5e11a81-2b3f-49e4-851a-0e4d42bd02f7","system_id":"levelo_inurba_marseille","lat":43.27799,"lon":5.39956,"is_reserved":false,"is_disabled":false,"rental_uris":{"android":"levelo://app?vid=b5e11a81-2b3f-49e4-851a-0e4d42bd02f7","ios":"levelo://app?vid=b5e11a81-2b3f-49e4-851a-0e4d42bd02f7"},"vehicle_type_id":"4","last_reported":1747937677,"current_range_meters":6000,"station_id":"","pricing_plan_id":"cebpf4jnsgd1na2vs0mg"},{"bike_id":"296caf05-a6fc-498f-a75b-51abece68449","system_id":"levelo_inurba_marseille","lat":43.29782,"lon":5.39351,"is_reserved":false,"is_disabled":false,"rental_uris":{"android":"levelo://app?vid=296caf05-a6fc-498f-a75b-51abece68449","ios":"levelo://app?vid=296caf05-a6fc-498f-a75b-51abece68449"},"vehicle_type_id":"4","last_reported":1747937677,"current_range_meters":6000,"station_id":"","pricing_plan_id":"cebpf4jnsgd1na2vs0mg"},{"bike_id":"29cbae89-1df3-4e6c-aabd-0cd39c323e04","system_id":"levelo_inurba_marseille","lat":43.30941,"lon":5.40142,"is_reserved":false,"is_disabled":false,"rental_uris":{"android":"levelo://app?vid=29cbae89-1df3-4e6c-aabd-0cd39c323e04","ios":"levelo://app?vid=29cbae89-1df3-4e6c-aabd-0cd39c323e04"},"vehicle_type_id":"4","last_reported":1747937677,"current_range_meters":6000,"station_id":"ce4bgvp2rcd13ifvqct0","pricing_plan_id":"cebpf4jnsgd1na2vs0mg"},{"bike_id":"cfbafb8d-0712-46c8-8c92-911436196efe","system_id":"levelo_inurba_marseille","lat":43.28481,"lon":5.3841,"is_reserved":false,"is_disabled":false,"rental_uris":{"android":"levelo://app?vid=cfbafb8d-0712-46c8-8c92-911436196efe","ios":"levelo://app?vid=cfbafb8d-0712-46c8-8c92-911436196efe"},"vehicle_type_id":"4","last_reported":1747937677,"current_range_meters":6000,"station_id":"ce4bh512rcd13ifvqe3g","pricing_plan_id":"cebpf4jnsgd1na2vs0mg"},{"bike_id":"23d143d1-3ad0-448c-a704-752010e19e0b","system_id":"levelo_inurba_marseille","lat":43.25478,"lon":5.3765,"is_reserved":false,"is_disabled":false,"rental_uris":{"android":"levelo://app?vid=23d143d1-3ad0-448c-a704-752010e19e0b","ios":"levelo://app?vid=23d143d1-3ad0-448c-a704-752010e19e0b"},"vehicle_type_id":"4","last_reported":1747937677,"current_range_meters":6000,"station_id":"ce4bhh12rcd13ifvqff0","pricing_plan_id":"cebpf4jnsgd1na2vs0mg"},{"bike_id":"31907cb9-b067-459a-920f-da7df97f835b","system_id":"levelo_inurba_marseille","lat":43.251,"lon":5.40332,"is_reserved":false,"is_disabled":false,"rental_uris":{"android":"levelo://app?vid=31907cb9-b067-459a-920f-da7df97f835b","ios":"levelo://app?vid=31907cb9-b067-459a-920f-da7df97f835b"},"vehicle_type_id":"4","last_reported":1747937677,"current_range_meters":6000,"station_id":"ce4bhlh2rcd13ifvqgig","pricing_plan_id":"cebpf4jnsgd1na2vs0mg"},{"bike_id":"5f1f924b-26aa-428a-adf3-51b4c527fce9","system_id":"levelo_inurba_marseille","lat":43.31085,"lon":5.42426,"is_reserved":false,"is_disabled":false,"rental_uris":{"android":"levelo://app?vid=5f1f924b-26aa-428a-adf3-51b4c527fce9","ios":"levelo://app?vid=5f1f924b-26aa-428a-adf3-51b4c527fce9"},"vehicle_type_id":"4","last_reported":1747937677,"current_range_meters":6000,"station_id":"ce4bhp92rcd13ifvqhag","pricing_plan_id":"cebpf4jnsgd1na2vs0mg"},{"bike_id":"4aaa0c9a-06f9-4739-9a58-ee92848a6f4b","system_id":"levelo_inurba_marseille","lat":43.23198,"lon":5.35549,"is_reserved":false,"is_disabled":false,"rental_uris":{"android":"levelo://app?vid=4aaa0c9a-06f9-4739-9a58-ee92848a6f4b","ios":"levelo://app?vid=4aaa0c9a-06f9-4739-9a58-ee92848a6f4b"},"vehicle_type_id":"4","last_reported":1747937677,"current_range_meters":6000,"station_id":"ce4bhu92rcd13ifvqi70","pricing_plan_id":"cebpf4jnsgd1na2vs0mg"},{"bike_id":"325a04d7-0c6c-4a4d-804e-27b29ba6514b","system_id":"levelo_inurba_marseille","lat":43.23938,"lon":5.36683,"is_reserved":false,"is_disabled":false,"rental_uris":{"android":"levelo://app?vid=325a04d7-0c6c-4a4d-804e-27b29ba6514b","ios":"levelo://app?vid=325a04d7-0c6c-4a4d-804e-27b29ba6514b"},"vehicle_type_id":"4","last_reported":1747937677,"current_range_meters":6400,"station_id":"","pricing_plan_id":"cebpf4jnsgd1na2vs0mg"},{"bike_id":"dec954a9-0eae-473f-95d3-58d9825ca66f","system_id":"levelo_inurba_marseille","lat":43.29302,"lon":5.37451,"is_reserved":false,"is_disabled":false,"rental_uris":{"android":"levelo://app?vid=dec954a9-0eae-473f-95d3-58d9825ca66f","ios":"levelo://app?vid=dec954a9-0eae-473f-95d3-58d9825ca66f"},"vehicle_type_id":"4","last_reported":1747937677,"current_range_meters":6400,"station_id":"ce4bgi12rcd13ifvqb70","pricing_plan_id":"cebpf4jnsgd1na2vs0mg"},{"bike_id":"43d29fe6-535a-4f8b-a078-bd2191c3b1f7","system_id":"levelo_inurba_marseille","lat":43.24811,"lon":5.37452,"is_reserved":false,"is_disabled":false,"rental_uris":{"android":"levelo://app?vid=43d29fe6-535a-4f8b-a078-bd2191c3b1f7","ios":"levelo://app?vid=43d29fe6-535a-4f8b-a078-bd2191c3b1f7"},"vehicle_type_id":"4","last_reported":1747937677,"current_range_meters":6400,"station_id":"ce4bhgh2rcd13ifvqfb0","pricing_plan_id":"cebpf4jnsgd1na2vs0mg"},{"bike_id":"50aa032f-ff54-405c-989f-2421f77d16aa","system_id":"levelo_inurba_marseille","lat":43.274994,"lon":5.424488,"is_reserved":false,"is_disabled":false,"rental_uris":{"android":"levelo://app?vid=50aa032f-ff54-405c-989f-2421f77d16aa","ios":"levelo://app?vid=50aa032f-ff54-405c-989f-2421f77d16aa"},"vehicle_type_id":"4","last_reported":1747937677,"current_range_meters":6400,"station_id":"ce4bhn92rcd13ifvqgrg","pricing_plan_id":"cebpf4jnsgd1na2vs0mg"},{"bike_id":"04024622-d518-4279-9a8f-62073e36f855","system_id":"levelo_inurba_marseille","lat":43.28149,"lon":5.42651,"is_reserved":false,"is_disabled":false,"rental_uris":{"android":"levelo://app?vid=04024622-d518-4279-9a8f-62073e36f855","ios":"levelo://app?vid=04024622-d518-4279-9a8f-62073e36f855"},"vehicle_type_id":"4","last_reported":1747937677,"current_range_meters":6400,"station_id":"ce4bhnh2rcd13ifvqgug","pricing_plan_id":"cebpf4jnsgd1na2vs0mg"},{"bike_id":"df771bd2-6941-4cf7-8b83-234c24f419da","system_id":"levelo_inurba_marseille","lat":43.28706,"lon":5.39985,"is_reserved":false,"is_disabled":false,"rental_uris":{"android":"levelo://app?vid=df771bd2-6941-4cf7-8b83-234c24f419da","ios":"levelo://app?vid=df771bd2-6941-4cf7-8b83-234c24f419da"},"vehicle_type_id":"4","last_reported":1747937677,"current_range_meters":6400,"station_id":"ce4bho92rcd13ifvqh3g","pricing_plan_id":"cebpf4jnsgd1na2vs0mg"},{"bike_id":"f49ae62f-5f98-4b5a-99f5-ab387c6462b1","system_id":"levelo_inurba_marseille","lat":43.31703,"lon":5.43708,"is_reserved":false,"is_disabled":false,"rental_uris":{"android":"levelo://app?vid=f49ae62f-5f98-4b5a-99f5-ab387c6462b1","ios":"levelo://app?vid=f49ae62f-5f98-4b5a-99f5-ab387c6462b1"},"vehicle_type_id":"4","last_reported":1747937677,"current_range_meters":6400,"station_id":"ce4bhp92rcd13ifvqhcg","pricing_plan_id":"cebpf4jnsgd1na2vs0mg"},{"bike_id":"69babdc8-a970-4bdc-a927-337a0892df65","system_id":"levelo_inurba_marseille","lat":43.28469,"lon":5.38579,"is_reserved":false,"is_disabled":false,"rental_uris":{"android":"levelo://app?vid=69babdc8-a970-4bdc-a927-337a0892df65","ios":"levelo://app?vid=69babdc8-a970-4bdc-a927-337a0892df65"},"vehicle_type_id":"4","last_reported":1747937677,"current_range_meters":6800,"station_id":"ce4bh8p2rcd13ifvqeb0","pricing_plan_id":"cebpf4jnsgd1na2vs0mg"},{"bike_id":"94f74dbd-f031-4599-adaf-42db9bb78d5b","system_id":"levelo_inurba_marseille","lat":43.28419,"lon":5.3498,"is_reserved":false,"is_disabled":false,"rental_uris":{"android":"levelo://app?vid=94f74dbd-f031-4599-adaf-42db9bb78d5b","ios":"levelo://app?vid=94f74dbd-f031-4599-adaf-42db9bb78d5b"},"vehicle_type_id":"4","last_reported":1747937677,"current_range_meters":6800,"station_id":"ce4bhbh2rcd13ifvqepg","pricing_plan_id":"cebpf4jnsgd1na2vs0mg"},{"bike_id":"1873d3da-4bb4-4ca3-9bc1-f97192d3aa20","system_id":"levelo_inurba_marseille","lat":43.29226,"lon":5.36082,"is_reserved":false,"is_disabled":false,"rental_uris":{"android":"levelo://app?vid=1873d3da-4bb4-4ca3-9bc1-f97192d3aa20","ios":"levelo://app?vid=1873d3da-4bb4-4ca3-9bc1-f97192d3aa20"},"vehicle_type_id":"4","last_reported":1747937677,"current_range_meters":6800,"station_id":"ce4bhbh2rcd13ifvqeqg","pricing_plan_id":"cebpf4jnsgd1na2vs0mg"},{"bike_id":"be2d82ff-805a-4add-af75-f4819258d421","system_id":"levelo_inurba_marseille","lat":43.28616,"lon":5.35114,"is_reserved":false,"is_disabled":false,"rental_uris":{"android":"levelo://app?vid=be2d82ff-805a-4add-af75-f4819258d421","ios":"levelo://app?vid=be2d82ff-805a-4add-af75-f4819258d421"},"vehicle_type_id":"4","last_reported":1747937677,"current_range_meters":6800,"station_id":"ce4bhch2rcd13ifvqeug","pricing_plan_id":"cebpf4jnsgd1na2vs0mg"},{"bike_id":"2c0b40ab-8e6e-451c-9ca9-7ac68cabe65f","system_id":"levelo_inurba_marseille","lat":43.24805,"lon":5.37459,"is_reserved":false,"is_disabled":false,"rental_uris":{"android":"levelo://app?vid=2c0b40ab-8e6e-451c-9ca9-7ac68cabe65f","ios":"levelo://app?vid=2c0b40ab-8e6e-451c-9ca9-7ac68cabe65f"},"vehicle_type_id":"4","last_reported":1747937677,"current_range_meters":6800,"station_id":"ce4bhgh2rcd13ifvqfb0","pricing_plan_id":"cebpf4jnsgd1na2vs0mg"},{"bike_id":"eebfa399-9785-4fc2-b66a-eed62a9fa6a0","system_id":"levelo_inurba_marseille","lat":43.32331,"lon":5.40617,"is_reserved":false,"is_disabled":false,"rental_uris":{"android":"levelo://app?vid=eebfa399-9785-4fc2-b66a-eed62a9fa6a0","ios":"levelo://app?vid=eebfa399-9785-4fc2-b66a-eed62a9fa6a0"},"vehicle_type_id":"4","last_reported":1747937677,"current_range_meters":6800,"station_id":"ce4bhq92rcd13ifvqhjg","pricing_plan_id":"cebpf4jnsgd1na2vs0mg"},{"bike_id":"86372bb5-95c5-4c52-ace3-cc928bfacdc2","system_id":"levelo_inurba_marseille","lat":43.317505,"lon":5.390184,"is_reserved":false,"is_disabled":false,"rental_uris":{"android":"levelo://app?vid=86372bb5-95c5-4c52-ace3-cc928bfacdc2","ios":"levelo://app?vid=86372bb5-95c5-4c52-ace3-cc928bfacdc2"},"vehicle_type_id":"4","last_reported":1747937677,"current_range_meters":6800,"station_id":"ce4bhqp2rcd13ifvqhng","pricing_plan_id":"cebpf4jnsgd1na2vs0mg"},{"bike_id":"35b62aa6-a570-48d8-8fff-f4a2c0f14560","system_id":"levelo_inurba_marseille","lat":43.22933,"lon":5.35378,"is_reserved":false,"is_disabled":false,"rental_uris":{"android":"levelo://app?vid=35b62aa6-a570-48d8-8fff-f4a2c0f14560","ios":"levelo://app?vid=35b62aa6-a570-48d8-8fff-f4a2c0f14560"},"vehicle_type_id":"4","last_reported":1747937677,"current_range_meters":6800,"station_id":"cpo3532slgdg3j2ikp40","pricing_plan_id":"cebpf4jnsgd1na2vs0mg"},{"bike_id":"3fe3d6c4-138a-47df-b6b4-e6f19e8f7d46","system_id":"levelo_inurba_marseille","lat":43.21419,"lon":5.34115,"is_reserved":false,"is_disabled":false,"rental_uris":{"android":"levelo://app?vid=3fe3d6c4-138a-47df-b6b4-e6f19e8f7d46","ios":"levelo://app?vid=3fe3d6c4-138a-47df-b6b4-e6f19e8f7d46"},"vehicle_type_id":"4","last_reported":1747937677,"current_range_meters":7200,"station_id":"","pricing_plan_id":"cebpf4jnsgd1na2vs0mg"},{"bike_id":"9b4e4caf-58ba-4a2d-8496-d2d13caf3a03","system_id":"levelo_inurba_marseille","lat":43.29285,"lon":5.38423,"is_reserved":false,"is_disabled":false,"rental_uris":{"android":"levelo://app?vid=9b4e4caf-58ba-4a2d-8496-d2d13caf3a03","ios":"levelo://app?vid=9b4e4caf-58ba-4a2d-8496-d2d13caf3a03"},"vehicle_type_id":"4","last_reported":1747937677,"current_range_meters":7200,"station_id":"ce4bh692rcd13ifvqea0","pricing_plan_id":"cebpf4jnsgd1na2vs0mg"},{"bike_id":"8eedb2b8-1f9a-41d3-9877-4e8c79437bda","system_id":"levelo_inurba_marseille","lat":43.29255,"lon":5.38437,"is_reserved":false,"is_disabled":false,"rental_uris":{"android":"levelo://app?vid=8eedb2b8-1f9a-41d3-9877-4e8c79437bda","ios":"levelo://app?vid=8eedb2b8-1f9a-41d3-9877-4e8c79437bda"},"vehicle_type_id":"4","last_reported":1747937677,"current_range_meters":7200,"station_id":"ce4bh692rcd13ifvqea0","pricing_plan_id":"cebpf4jnsgd1na2vs0mg"},{"bike_id":"7f374a0c-9ab4-412c-a8dd-1f59fe7a5317","system_id":"levelo_inurba_marseille","lat":43.25581,"lon":5.38233,"is_reserved":false,"is_disabled":false,"rental_uris":{"android":"levelo://app?vid=7f374a0c-9ab4-412c-a8dd-1f59fe7a5317","ios":"levelo://app?vid=7f374a0c-9ab4-412c-a8dd-1f59fe7a5317"},"vehicle_type_id":"4","last_reported":1747937677,"current_range_meters":7200,"station_id":"ce4bhih2rcd13ifvqfs0","pricing_plan_id":"cebpf4jnsgd1na2vs0mg"},{"bike_id":"bd23bd66-e6e0-454a-ab79-39ae6ae4e40a","system_id":"levelo_inurba_marseille","lat":43.29963,"lon":5.41323,"is_reserved":false,"is_disabled":false,"rental_uris":{"android":"levelo://app?vid=bd23bd66-e6e0-454a-ab79-39ae6ae4e40a","ios":"levelo://app?vid=bd23bd66-e6e0-454a-ab79-39ae6ae4e40a"},"vehicle_type_id":"4","last_reported":1747937677,"current_range_meters":7200,"station_id":"ce4bhp12rcd13ifvqh9g","pricing_plan_id":"cebpf4jnsgd1na2vs0mg"},{"bike_id":"2f34c329-54fe-438b-a307-b47c6ac8481c","system_id":"levelo_inurba_marseille","lat":43.299005,"lon":5.436609,"is_reserved":false,"is_disabled":false,"rental_uris":{"android":"levelo://app?vid=2f34c329-54fe-438b-a307-b47c6ac8481c","ios":"levelo://app?vid=2f34c329-54fe-438b-a307-b47c6ac8481c"},"vehicle_type_id":"4","last_reported":1747937677,"current_range_meters":7200,"station_id":"ce4bhpp2rcd13ifvqhfg","pricing_plan_id":"cebpf4jnsgd1na2vs0mg"},{"bike_id":"61ad8ca8-73f6-42e8-9411-c6759f7b2769","system_id":"levelo_inurba_marseille","lat":43.2679,"lon":5.4028,"is_reserved":false,"is_disabled":false,"rental_uris":{"android":"levelo://app?vid=61ad8ca8-73f6-42e8-9411-c6759f7b2769","ios":"levelo://app?vid=61ad8ca8-73f6-42e8-9411-c6759f7b2769"},"vehicle_type_id":"4","last_reported":1747937677,"current_range_meters":7200,"station_id":"ce501612rcd8frsf0b60","pricing_plan_id":"cebpf4jnsgd1na2vs0mg"},{"bike_id":"ad4d8099-03a6-43ca-966f-189fb83ff678","system_id":"levelo_inurba_marseille","lat":43.31245,"lon":5.37386,"is_reserved":false,"is_disabled":false,"rental_uris":{"android":"levelo://app?vid=ad4d8099-03a6-43ca-966f-189fb83ff678","ios":"levelo://app?vid=ad4d8099-03a6-43ca-966f-189fb83ff678"},"vehicle_type_id":"4","last_reported":1747937677,"current_range_meters":8000,"station_id":"","pricing_plan_id":"cebpf4jnsgd1na2vs0mg"},{"bike_id":"52eeb79d-2f05-490f-8fa2-6b8e4be7a385","system_id":"levelo_inurba_marseille","lat":43.29299,"lon":5.37133,"is_reserved":false,"is_disabled":false,"rental_uris":{"android":"levelo://app?vid=52eeb79d-2f05-490f-8fa2-6b8e4be7a385","ios":"levelo://app?vid=52eeb79d-2f05-490f-8fa2-6b8e4be7a385"},"vehicle_type_id":"4","last_reported":1747937677,"current_range_meters":8000,"station_id":"ce4bgh92rcd13ifvqb40","pricing_plan_id":"cebpf4jnsgd1na2vs0mg"},{"bike_id":"8b732249-8ce5-4792-b043-2243bd73bd9a","system_id":"levelo_inurba_marseille","lat":43.29985,"lon":5.38509,"is_reserved":false,"is_disabled":false,"rental_uris":{"android":"levelo://app?vid=8b732249-8ce5-4792-b043-2243bd73bd9a","ios":"levelo://app?vid=8b732249-8ce5-4792-b043-2243bd73bd9a"},"vehicle_type_id":"4","last_reported":1747937677,"current_range_meters":8000,"station_id":"ce4bgj92rcd13ifvqbd0","pricing_plan_id":"cebpf4jnsgd1na2vs0mg"},{"bike_id":"252fa4ae-9b75-49f6-9b0e-17956af2f2a9","system_id":"levelo_inurba_marseille","lat":43.2993,"lon":5.36545,"is_reserved":false,"is_disabled":false,"rental_uris":{"android":"levelo://app?vid=252fa4ae-9b75-49f6-9b0e-17956af2f2a9","ios":"levelo://app?vid=252fa4ae-9b75-49f6-9b0e-17956af2f2a9"},"vehicle_type_id":"4","last_reported":1747937677,"current_range_meters":8000,"station_id":"ce4bgm92rcd13ifvqbr0","pricing_plan_id":"cebpf4jnsgd1na2vs0mg"},{"bike_id":"14feda73-7baf-4b64-8ae9-79f4fe7d4a5f","system_id":"levelo_inurba_marseille","lat":43.323713,"lon":5.367503,"is_reserved":false,"is_disabled":false,"rental_uris":{"android":"levelo://app?vid=14feda73-7baf-4b64-8ae9-79f4fe7d4a5f","ios":"levelo://app?vid=14feda73-7baf-4b64-8ae9-79f4fe7d4a5f"},"vehicle_type_id":"4","last_reported":1747937677,"current_range_meters":8000,"station_id":"ce4bhsh2rcd13ifvqi2g","pricing_plan_id":"cebpf4jnsgd1na2vs0mg"},{"bike_id":"a03f4493-8332-482f-ba59-8e1bf2f56e31","system_id":"levelo_inurba_marseille","lat":43.29693,"lon":5.37323,"is_reserved":false,"is_disabled":false,"rental_uris":{"android":"levelo://app?vid=a03f4493-8332-482f-ba59-8e1bf2f56e31","ios":"levelo://app?vid=a03f4493-8332-482f-ba59-8e1bf2f56e31"},"vehicle_type_id":"4","last_reported":1747937677,"current_range_meters":8400,"station_id":"","pricing_plan_id":"cebpf4jnsgd1na2vs0mg"},{"bike_id":"aa0f4425-628b-49d0-baa8-3140441c8be2","system_id":"levelo_inurba_marseille","lat":43.31063,"lon":5.37122,"is_reserved":false,"is_disabled":false,"rental_uris":{"android":"levelo://app?vid=aa0f4425-628b-49d0-baa8-3140441c8be2","ios":"levelo://app?vid=aa0f4425-628b-49d0-baa8-3140441c8be2"},"vehicle_type_id":"4","last_reported":1747937677,"current_range_meters":8400,"station_id":"","pricing_plan_id":"cebpf4jnsgd1na2vs0mg"},{"bike_id":"4d220435-47a8-4d82-80db-a1284cf3e4c5","system_id":"levelo_inurba_marseille","lat":43.28648,"lon":5.38799,"is_reserved":false,"is_disabled":false,"rental_uris":{"android":"levelo://app?vid=4d220435-47a8-4d82-80db-a1284cf3e4c5","ios":"levelo://app?vid=4d220435-47a8-4d82-80db-a1284cf3e4c5"},"vehicle_type_id":"4","last_reported":1747937677,"current_range_meters":8400,"station_id":"","pricing_plan_id":"cebpf4jnsgd1na2vs0mg"},{"bike_id":"7c923a08-e440-4ed9-8a55-ccefacf96a77","system_id":"levelo_inurba_marseille","lat":43.30887,"lon":5.39641,"is_reserved":false,"is_disabled":false,"rental_uris":{"android":"levelo://app?vid=7c923a08-e440-4ed9-8a55-ccefacf96a77","ios":"levelo://app?vid=7c923a08-e440-4ed9-8a55-ccefacf96a77"},"vehicle_type_id":"4","last_reported":1747937677,"current_range_meters":8400,"station_id":"ce4bh012rcd13ifvqcv0","pricing_plan_id":"cebpf4jnsgd1na2vs0mg"},{"bike_id":"38eab489-fb17-488f-a06d-d750aa46fffe","system_id":"levelo_inurba_marseille","lat":43.29254,"lon":5.38431,"is_reserved":false,"is_disabled":false,"rental_uris":{"android":"levelo://app?vid=38eab489-fb17-488f-a06d-d750aa46fffe","ios":"levelo://app?vid=38eab489-fb17-488f-a06d-d750aa46fffe"},"vehicle_type_id":"4","last_reported":1747937677,"current_range_meters":8400,"station_id":"ce4bh692rcd13ifvqea0","pricing_plan_id":"cebpf4jnsgd1na2vs0mg"},{"bike_id":"59f975be-733b-4703-b142-ae2727ca8314","system_id":"levelo_inurba_marseille","lat":43.2925,"lon":5.38435,"is_reserved":false,"is_disabled":false,"rental_uris":{"android":"levelo://app?vid=59f975be-733b-4703-b142-ae2727ca8314","ios":"levelo://app?vid=59f975be-733b-4703-b142-ae2727ca8314"},"vehicle_type_id":"4","last_reported":1747937677,"current_range_meters":8400,"station_id":"ce4bh692rcd13ifvqea0","pricing_plan_id":"cebpf4jnsgd1na2vs0mg"},{"bike_id":"f828df3b-3fd6-424d-ad29-90fe94c76fbb","system_id":"levelo_inurba_marseille","lat":43.26934,"lon":5.38911,"is_reserved":false,"is_disabled":false,"rental_uris":{"android":"levelo://app?vid=f828df3b-3fd6-424d-ad29-90fe94c76fbb","ios":"levelo://app?vid=f828df3b-3fd6-424d-ad29-90fe94c76fbb"},"vehicle_type_id":"4","last_reported":1747937677,"current_range_meters":8400,"station_id":"ce4bhhh2rcd13ifvqfl0","pricing_plan_id":"cebpf4jnsgd1na2vs0mg"},{"bike_id":"b91980aa-60ff-467c-bd75-7d53cde9d475","system_id":"levelo_inurba_marseille","lat":43.25097,"lon":5.40336,"is_reserved":false,"is_disabled":false,"rental_uris":{"android":"levelo://app?vid=b91980aa-60ff-467c-bd75-7d53cde9d475","ios":"levelo://app?vid=b91980aa-60ff-467c-bd75-7d53cde9d475"},"vehicle_type_id":"4","last_reported":1747937677,"current_range_meters":8400,"station_id":"ce4bhlh2rcd13ifvqgig","pricing_plan_id":"cebpf4jnsgd1na2vs0mg"},{"bike_id":"8022b9c5-3b31-46a7-933d-93d8ae4cd439","system_id":"levelo_inurba_marseille","lat":43.25113,"lon":5.40325,"is_reserved":false,"is_disabled":false,"rental_uris":{"android":"levelo://app?vid=8022b9c5-3b31-46a7-933d-93d8ae4cd439","ios":"levelo://app?vid=8022b9c5-3b31-46a7-933d-93d8ae4cd439"},"vehicle_type_id":"4","last_reported":1747937677,"current_range_meters":8400,"station_id":"ce4bhlh2rcd13ifvqgig","pricing_plan_id":"cebpf4jnsgd1na2vs0mg"},{"bike_id":"3944f00c-e9fc-4706-a38a-ade0f43ef779","system_id":"levelo_inurba_marseille","lat":43.25101,"lon":5.40362,"is_reserved":false,"is_disabled":false,"rental_uris":{"android":"levelo://app?vid=3944f00c-e9fc-4706-a38a-ade0f43ef779","ios":"levelo://app?vid=3944f00c-e9fc-4706-a38a-ade0f43ef779"},"vehicle_type_id":"4","last_reported":1747937677,"current_range_meters":8400,"station_id":"ce4bhlh2rcd13ifvqgig","pricing_plan_id":"cebpf4jnsgd1na2vs0mg"},{"bike_id":"634cd4eb-86da-4d1a-adbb-ae26e13bb077","system_id":"levelo_inurba_marseille","lat":43.23187,"lon":5.39996,"is_reserved":false,"is_disabled":false,"rental_uris":{"android":"levelo://app?vid=634cd4eb-86da-4d1a-adbb-ae26e13bb077","ios":"levelo://app?vid=634cd4eb-86da-4d1a-adbb-ae26e13bb077"},"vehicle_type_id":"4","last_reported":1747937677,"current_range_meters":8400,"station_id":"ce4bhn12rcd13ifvqgqg","pricing_plan_id":"cebpf4jnsgd1na2vs0mg"},{"bike_id":"02a52646-fecc-41d2-983b-5b9e6643aa91","system_id":"levelo_inurba_marseille","lat":43.32111,"lon":5.36777,"is_reserved":false,"is_disabled":false,"rental_uris":{"android":"levelo://app?vid=02a52646-fecc-41d2-983b-5b9e6643aa91","ios":"levelo://app?vid=02a52646-fecc-41d2-983b-5b9e6643aa91"},"vehicle_type_id":"4","last_reported":1747937677,"current_range_meters":8400,"station_id":"ce4bhrh2rcd13ifvqhug","pricing_plan_id":"cebpf4jnsgd1na2vs0mg"},{"bike_id":"3f7a8f4c-6efe-4b9b-8ef2-ddefb1e2415b","system_id":"levelo_inurba_marseille","lat":43.28026,"lon":5.39953,"is_reserved":false,"is_disabled":false,"rental_uris":{"android":"levelo://app?vid=3f7a8f4c-6efe-4b9b-8ef2-ddefb1e2415b","ios":"levelo://app?vid=3f7a8f4c-6efe-4b9b-8ef2-ddefb1e2415b"},"vehicle_type_id":"4","last_reported":1747937677,"current_range_meters":8800,"station_id":"","pricing_plan_id":"cebpf4jnsgd1na2vs0mg"},{"bike_id":"5e9ea3b2-3d03-485a-8330-3467d0fd019a","system_id":"levelo_inurba_marseille","lat":43.308877,"lon":5.396637,"is_reserved":false,"is_disabled":false,"rental_uris":{"android":"levelo://app?vid=5e9ea3b2-3d03-485a-8330-3467d0fd019a","ios":"levelo://app?vid=5e9ea3b2-3d03-485a-8330-3467d0fd019a"},"vehicle_type_id":"4","last_reported":1747937677,"current_range_meters":8800,"station_id":"","pricing_plan_id":"cebpf4jnsgd1na2vs0mg"},{"bike_id":"fb1b05c5-68d7-4243-a4b9-1e154a7a78cf","system_id":"levelo_inurba_marseille","lat":43.30427,"lon":5.37182,"is_reserved":false,"is_disabled":false,"rental_uris":{"android":"levelo://app?vid=fb1b05c5-68d7-4243-a4b9-1e154a7a78cf","ios":"levelo://app?vid=fb1b05c5-68d7-4243-a4b9-1e154a7a78cf"},"vehicle_type_id":"4","last_reported":1747937677,"current_range_meters":8800,"station_id":"","pricing_plan_id":"cebpf4jnsgd1na2vs0mg"},{"bike_id":"cd2b9d97-3676-4c83-8e3b-aa4857457d9a","system_id":"levelo_inurba_marseille","lat":43.31514,"lon":5.37027,"is_reserved":false,"is_disabled":false,"rental_uris":{"android":"levelo://app?vid=cd2b9d97-3676-4c83-8e3b-aa4857457d9a","ios":"levelo://app?vid=cd2b9d97-3676-4c83-8e3b-aa4857457d9a"},"vehicle_type_id":"4","last_reported":1747937677,"current_range_meters":8800,"station_id":"","pricing_plan_id":"cebpf4jnsgd1na2vs0mg"},{"bike_id":"f9fb40c0-1fcd-48cb-8e26-3f2dc0fb2451","system_id":"levelo_inurba_marseille","lat":43.33751,"lon":5.37509,"is_reserved":false,"is_disabled":false,"rental_uris":{"android":"levelo://app?vid=f9fb40c0-1fcd-48cb-8e26-3f2dc0fb2451","ios":"levelo://app?vid=f9fb40c0-1fcd-48cb-8e26-3f2dc0fb2451"},"vehicle_type_id":"4","last_reported":1747937677,"current_range_meters":8800,"station_id":"","pricing_plan_id":"cebpf4jnsgd1na2vs0mg"},{"bike_id":"d4038e18-84d1-4902-8121-4d0b896ac47b","system_id":"levelo_inurba_marseille","lat":43.29978,"lon":5.3851,"is_reserved":false,"is_disabled":false,"rental_uris":{"android":"levelo://app?vid=d4038e18-84d1-4902-8121-4d0b896ac47b","ios":"levelo://app?vid=d4038e18-84d1-4902-8121-4d0b896ac47b"},"vehicle_type_id":"4","last_reported":1747937677,"current_range_meters":8800,"station_id":"ce4bgj92rcd13ifvqbd0","pricing_plan_id":"cebpf4jnsgd1na2vs0mg"},{"bike_id":"39fca17b-8d00-4c26-8ec6-19cf8550021f","system_id":"levelo_inurba_marseille","lat":43.292814,"lon":5.401104,"is_reserved":false,"is_disabled":false,"rental_uris":{"android":"levelo://app?vid=39fca17b-8d00-4c26-8ec6-19cf8550021f","ios":"levelo://app?vid=39fca17b-8d00-4c26-8ec6-19cf8550021f"},"vehicle_type_id":"4","last_reported":1747937677,"current_range_meters":8800,"station_id":"ce4bh312rcd13ifvqdk0","pricing_plan_id":"cebpf4jnsgd1na2vs0mg"},{"bike_id":"80a1d12d-dede-4f38-a2a6-a7a8f08554ed","system_id":"levelo_inurba_marseille","lat":43.279199,"lon":5.395757,"is_reserved":false,"is_disabled":false,"rental_uris":{"android":"levelo://app?vid=80a1d12d-dede-4f38-a2a6-a7a8f08554ed","ios":"levelo://app?vid=80a1d12d-dede-4f38-a2a6-a7a8f08554ed"},"vehicle_type_id":"4","last_reported":1747937677,"current_range_meters":8800,"station_id":"ce4bhf92rcd13ifvqf40","pricing_plan_id":"cebpf4jnsgd1na2vs0mg"},{"bike_id":"c467d70e-4278-4e37-b14a-431c823e4be9","system_id":"levelo_inurba_marseille","lat":43.24809,"lon":5.37451,"is_reserved":false,"is_disabled":false,"rental_uris":{"android":"levelo://app?vid=c467d70e-4278-4e37-b14a-431c823e4be9","ios":"levelo://app?vid=c467d70e-4278-4e37-b14a-431c823e4be9"},"vehicle_type_id":"4","last_reported":1747937677,"current_range_meters":8800,"station_id":"ce4bhgh2rcd13ifvqfb0","pricing_plan_id":"cebpf4jnsgd1na2vs0mg"},{"bike_id":"27653dcd-dec9-4f13-b172-8968c20c1725","system_id":"levelo_inurba_marseille","lat":43.23849,"lon":5.43112,"is_reserved":false,"is_disabled":false,"rental_uris":{"android":"levelo://app?vid=27653dcd-dec9-4f13-b172-8968c20c1725","ios":"levelo://app?vid=27653dcd-dec9-4f13-b172-8968c20c1725"},"vehicle_type_id":"4","last_reported":1747937677,"current_range_meters":9200,"station_id":"","pricing_plan_id":"cebpf4jnsgd1na2vs0mg"},{"bike_id":"01b42e39-80d6-496e-b9b6-056791ea8467","system_id":"levelo_inurba_marseille","lat":43.29975,"lon":5.38492,"is_reserved":false,"is_disabled":false,"rental_uris":{"android":"levelo://app?vid=01b42e39-80d6-496e-b9b6-056791ea8467","ios":"levelo://app?vid=01b42e39-80d6-496e-b9b6-056791ea8467"},"vehicle_type_id":"4","last_reported":1747937677,"current_range_meters":9200,"station_id":"ce4bgj92rcd13ifvqbd0","pricing_plan_id":"cebpf4jnsgd1na2vs0mg"},{"bike_id":"7aae4ae8-7818-4c68-aea7-b7f338b36e37","system_id":"levelo_inurba_marseille","lat":43.24066,"lon":5.37763,"is_reserved":false,"is_disabled":false,"rental_uris":{"android":"levelo://app?vid=7aae4ae8-7818-4c68-aea7-b7f338b36e37","ios":"levelo://app?vid=7aae4ae8-7818-4c68-aea7-b7f338b36e37"},"vehicle_type_id":"4","last_reported":1747937677,"current_range_meters":9200,"station_id":"ce4bhnp2rcd13ifvqgvg","pricing_plan_id":"cebpf4jnsgd1na2vs0mg"},{"bike_id":"2f0e7a76-34bd-4591-ba9a-bbedc686542c","system_id":"levelo_inurba_marseille","lat":43.31704,"lon":5.43707,"is_reserved":false,"is_disabled":false,"rental_uris":{"android":"levelo://app?vid=2f0e7a76-34bd-4591-ba9a-bbedc686542c","ios":"levelo://app?vid=2f0e7a76-34bd-4591-ba9a-bbedc686542c"},"vehicle_type_id":"4","last_reported":1747937677,"current_range_meters":9200,"station_id":"ce4bhp92rcd13ifvqhcg","pricing_plan_id":"cebpf4jnsgd1na2vs0mg"},{"bike_id":"7840330f-1868-47b7-b454-a81947a4dcc6","system_id":"levelo_inurba_marseille","lat":43.217522,"lon":5.345986,"is_reserved":false,"is_disabled":false,"rental_uris":{"android":"levelo://app?vid=7840330f-1868-47b7-b454-a81947a4dcc6","ios":"levelo://app?vid=7840330f-1868-47b7-b454-a81947a4dcc6"},"vehicle_type_id":"4","last_reported":1747937677,"current_range_meters":9200,"station_id":"st_cvj6r9ubvosntc0bgbag","pricing_plan_id":"cebpf4jnsgd1na2vs0mg"},{"bike_id":"971c8a5c-db56-48ea-b476-188519cb0562","system_id":"levelo_inurba_marseille","lat":43.30038,"lon":5.40571,"is_reserved":false,"is_disabled":false,"rental_uris":{"android":"levelo://app?vid=971c8a5c-db56-48ea-b476-188519cb0562","ios":"levelo://app?vid=971c8a5c-db56-48ea-b476-188519cb0562"},"vehicle_type_id":"4","last_reported":1747937677,"current_range_meters":9600,"station_id":"","pricing_plan_id":"cebpf4jnsgd1na2vs0mg"},{"bike_id":"6a85369f-636f-4448-91f6-e3994a0fb52b","system_id":"levelo_inurba_marseille","lat":43.27754,"lon":5.38712,"is_reserved":false,"is_disabled":false,"rental_uris":{"android":"levelo://app?vid=6a85369f-636f-4448-91f6-e3994a0fb52b","ios":"levelo://app?vid=6a85369f-636f-4448-91f6-e3994a0fb52b"},"vehicle_type_id":"4","last_reported":1747937677,"current_range_meters":9600,"station_id":"","pricing_plan_id":"cebpf4jnsgd1na2vs0mg"},{"bike_id":"3022497e-9a24-4d16-b5d2-78aa7c07375d","system_id":"levelo_inurba_marseille","lat":43.290377,"lon":5.377923,"is_reserved":false,"is_disabled":false,"rental_uris":{"android":"levelo://app?vid=3022497e-9a24-4d16-b5d2-78aa7c07375d","ios":"levelo://app?vid=3022497e-9a24-4d16-b5d2-78aa7c07375d"},"vehicle_type_id":"4","last_reported":1747937677,"current_range_meters":9600,"station_id":"","pricing_plan_id":"cebpf4jnsgd1na2vs0mg"},{"bike_id":"4e0bf339-b285-4f03-9706-f97bba80a7c6","system_id":"levelo_inurba_marseille","lat":43.30322,"lon":5.40463,"is_reserved":false,"is_disabled":false,"rental_uris":{"android":"levelo://app?vid=4e0bf339-b285-4f03-9706-f97bba80a7c6","ios":"levelo://app?vid=4e0bf339-b285-4f03-9706-f97bba80a7c6"},"vehicle_type_id":"4","last_reported":1747937677,"current_range_meters":9600,"station_id":"ce4bh012rcd13ifvqd10","pricing_plan_id":"cebpf4jnsgd1na2vs0mg"},{"bike_id":"26dffcce-923d-48d2-aeb9-22b9f556f70b","system_id":"levelo_inurba_marseille","lat":43.28042,"lon":5.36944,"is_reserved":false,"is_disabled":false,"rental_uris":{"android":"levelo://app?vid=26dffcce-923d-48d2-aeb9-22b9f556f70b","ios":"levelo://app?vid=26dffcce-923d-48d2-aeb9-22b9f556f70b"},"vehicle_type_id":"4","last_reported":1747937677,"current_range_meters":9600,"station_id":"ce4bha12rcd13ifvqef0","pricing_plan_id":"cebpf4jnsgd1na2vs0mg"},{"bike_id":"20ae026e-c822-42f2-842b-cfba7e3ffe2d","system_id":"levelo_inurba_marseille","lat":43.28415,"lon":5.34985,"is_reserved":false,"is_disabled":false,"rental_uris":{"android":"levelo://app?vid=20ae026e-c822-42f2-842b-cfba7e3ffe2d","ios":"levelo://app?vid=20ae026e-c822-42f2-842b-cfba7e3ffe2d"},"vehicle_type_id":"4","last_reported":1747937677,"current_range_meters":9600,"station_id":"ce4bhbh2rcd13ifvqepg","pricing_plan_id":"cebpf4jnsgd1na2vs0mg"},{"bike_id":"4f622620-5e7b-4322-9824-13152a9d22a4","system_id":"levelo_inurba_marseille","lat":43.29283,"lon":5.3684,"is_reserved":false,"is_disabled":false,"rental_uris":{"android":"levelo://app?vid=4f622620-5e7b-4322-9824-13152a9d22a4","ios":"levelo://app?vid=4f622620-5e7b-4322-9824-13152a9d22a4"},"vehicle_type_id":"4","last_reported":1747937677,"current_range_meters":9600,"station_id":"ce4bhbp2rcd13ifvqesg","pricing_plan_id":"cebpf4jnsgd1na2vs0mg"},{"bike_id":"40c1961e-6fde-4a19-9608-959fd903f308","system_id":"levelo_inurba_marseille","lat":43.24806,"lon":5.37454,"is_reserved":false,"is_disabled":false,"rental_uris":{"android":"levelo://app?vid=40c1961e-6fde-4a19-9608-959fd903f308","ios":"levelo://app?vid=40c1961e-6fde-4a19-9608-959fd903f308"},"vehicle_type_id":"4","last_reported":1747937677,"current_range_meters":9600,"station_id":"ce4bhgh2rcd13ifvqfb0","pricing_plan_id":"cebpf4jnsgd1na2vs0mg"},{"bike_id":"5b067b50-6e4c-494a-beaa-3dd5b487827c","system_id":"levelo_inurba_marseille","lat":43.2816,"lon":5.42656,"is_reserved":false,"is_disabled":false,"rental_uris":{"android":"levelo://app?vid=5b067b50-6e4c-494a-beaa-3dd5b487827c","ios":"levelo://app?vid=5b067b50-6e4c-494a-beaa-3dd5b487827c"},"vehicle_type_id":"4","last_reported":1747937677,"current_range_meters":9600,"station_id":"ce4bhnh2rcd13ifvqgug","pricing_plan_id":"cebpf4jnsgd1na2vs0mg"},{"bike_id":"687d6fd5-3612-4651-9259-cff764d854af","system_id":"levelo_inurba_marseille","lat":43.28225,"lon":5.39058,"is_reserved":false,"is_disabled":false,"rental_uris":{"android":"levelo://app?vid=687d6fd5-3612-4651-9259-cff764d854af","ios":"levelo://app?vid=687d6fd5-3612-4651-9259-cff764d854af"},"vehicle_type_id":"4","last_reported":1747937677,"current_range_meters":10000,"station_id":"","pricing_plan_id":"cebpf4jnsgd1na2vs0mg"},{"bike_id":"7dfdfdc8-9c79-46b6-9a4b-924773b53f29","system_id":"levelo_inurba_marseille","lat":43.2685,"lon":5.39141,"is_reserved":false,"is_disabled":false,"rental_uris":{"android":"levelo://app?vid=7dfdfdc8-9c79-46b6-9a4b-924773b53f29","ios":"levelo://app?vid=7dfdfdc8-9c79-46b6-9a4b-924773b53f29"},"vehicle_type_id":"4","last_reported":1747937677,"current_range_meters":10000,"station_id":"","pricing_plan_id":"cebpf4jnsgd1na2vs0mg"},{"bike_id":"2b4ea98d-9cf5-46a3-b61f-90473faf3650","system_id":"levelo_inurba_marseille","lat":43.2467,"lon":5.38164,"is_reserved":false,"is_disabled":false,"rental_uris":{"android":"levelo://app?vid=2b4ea98d-9cf5-46a3-b61f-90473faf3650","ios":"levelo://app?vid=2b4ea98d-9cf5-46a3-b61f-90473faf3650"},"vehicle_type_id":"4","last_reported":1747937677,"current_range_meters":10000,"station_id":"ce4bhih2rcd13ifvqfr0","pricing_plan_id":"cebpf4jnsgd1na2vs0mg"},{"bike_id":"50170c98-e5dc-4924-8469-67ad32c60315","system_id":"levelo_inurba_marseille","lat":43.27156,"lon":5.40993,"is_reserved":false,"is_disabled":false,"rental_uris":{"android":"levelo://app?vid=50170c98-e5dc-4924-8469-67ad32c60315","ios":"levelo://app?vid=50170c98-e5dc-4924-8469-67ad32c60315"},"vehicle_type_id":"4","last_reported":1747937677,"current_range_meters":10000,"station_id":"ce4bhl12rcd13ifvqgf0","pricing_plan_id":"cebpf4jnsgd1na2vs0mg"},{"bike_id":"daa1fa20-a4fc-4e4c-a5e0-a46c69fa4a94","system_id":"levelo_inurba_marseille","lat":43.25106,"lon":5.4033,"is_reserved":false,"is_disabled":false,"rental_uris":{"android":"levelo://app?vid=daa1fa20-a4fc-4e4c-a5e0-a46c69fa4a94","ios":"levelo://app?vid=daa1fa20-a4fc-4e4c-a5e0-a46c69fa4a94"},"vehicle_type_id":"4","last_reported":1747937677,"current_range_meters":10000,"station_id":"ce4bhlh2rcd13ifvqgig","pricing_plan_id":"cebpf4jnsgd1na2vs0mg"},{"bike_id":"f2bd329f-b7be-4f75-be34-c1803c58b048","system_id":"levelo_inurba_marseille","lat":43.28152,"lon":5.42647,"is_reserved":false,"is_disabled":false,"rental_uris":{"android":"levelo://app?vid=f2bd329f-b7be-4f75-be34-c1803c58b048","ios":"levelo://app?vid=f2bd329f-b7be-4f75-be34-c1803c58b048"},"vehicle_type_id":"4","last_reported":1747937677,"current_range_meters":10000,"station_id":"ce4bhnh2rcd13ifvqgug","pricing_plan_id":"cebpf4jnsgd1na2vs0mg"},{"bike_id":"5dc9a4bd-3265-47eb-93b1-1ebd847847d8","system_id":"levelo_inurba_marseille","lat":43.31085,"lon":5.42431,"is_reserved":false,"is_disabled":false,"rental_uris":{"android":"levelo://app?vid=5dc9a4bd-3265-47eb-93b1-1ebd847847d8","ios":"levelo://app?vid=5dc9a4bd-3265-47eb-93b1-1ebd847847d8"},"vehicle_type_id":"4","last_reported":1747937677,"current_range_meters":10000,"station_id":"ce4bhp92rcd13ifvqhag","pricing_plan_id":"cebpf4jnsgd1na2vs0mg"},{"bike_id":"77d351e7-4031-43fb-a118-368e81529b6f","system_id":"levelo_inurba_marseille","lat":43.28548,"lon":5.35179,"is_reserved":false,"is_disabled":false,"rental_uris":{"android":"levelo://app?vid=77d351e7-4031-43fb-a118-368e81529b6f","ios":"levelo://app?vid=77d351e7-4031-43fb-a118-368e81529b6f"},"vehicle_type_id":"4","last_reported":1747937677,"current_range_meters":10800,"station_id":"","pricing_plan_id":"cebpf4jnsgd1na2vs0mg"},{"bike_id":"d0c0293b-048a-4bb0-b8b7-41258a2ae9d0","system_id":"levelo_inurba_marseille","lat":43.30432,"lon":5.3889,"is_reserved":false,"is_disabled":false,"rental_uris":{"android":"levelo://app?vid=d0c0293b-048a-4bb0-b8b7-41258a2ae9d0","ios":"levelo://app?vid=d0c0293b-048a-4bb0-b8b7-41258a2ae9d0"},"vehicle_type_id":"4","last_reported":1747937677,"current_range_meters":10800,"station_id":"ce4bgk12rcd13ifvqbi0","pricing_plan_id":"cebpf4jnsgd1na2vs0mg"},{"bike_id":"f2078ae5-2f5e-4d79-b314-93d80adc7ac8","system_id":"levelo_inurba_marseille","lat":43.304573,"lon":5.38887,"is_reserved":false,"is_disabled":false,"rental_uris":{"android":"levelo://app?vid=f2078ae5-2f5e-4d79-b314-93d80adc7ac8","ios":"levelo://app?vid=f2078ae5-2f5e-4d79-b314-93d80adc7ac8"},"vehicle_type_id":"4","last_reported":1747937677,"current_range_meters":10800,"station_id":"ce4bgk12rcd13ifvqbi0","pricing_plan_id":"cebpf4jnsgd1na2vs0mg"},{"bike_id":"96788f82-2b51-40a1-9191-e45a2284f3b0","system_id":"levelo_inurba_marseille","lat":43.28489,"lon":5.3852,"is_reserved":false,"is_disabled":false,"rental_uris":{"android":"levelo://app?vid=96788f82-2b51-40a1-9191-e45a2284f3b0","ios":"levelo://app?vid=96788f82-2b51-40a1-9191-e45a2284f3b0"},"vehicle_type_id":"4","last_reported":1747937677,"current_range_meters":10800,"station_id":"ce4bh8p2rcd13ifvqeb0","pricing_plan_id":"cebpf4jnsgd1na2vs0mg"},{"bike_id":"bc71ac0c-23e5-4f9f-8046-eae94d67cdf4","system_id":"levelo_inurba_marseille","lat":43.24803,"lon":5.37457,"is_reserved":false,"is_disabled":false,"rental_uris":{"android":"levelo://app?vid=bc71ac0c-23e5-4f9f-8046-eae94d67cdf4","ios":"levelo://app?vid=bc71ac0c-23e5-4f9f-8046-eae94d67cdf4"},"vehicle_type_id":"4","last_reported":1747937677,"current_range_meters":10800,"station_id":"ce4bhgh2rcd13ifvqfb0","pricing_plan_id":"cebpf4jnsgd1na2vs0mg"},{"bike_id":"d2154540-b55c-455c-bf22-0708547dd516","system_id":"levelo_inurba_marseille","lat":43.25114,"lon":5.40317,"is_reserved":false,"is_disabled":false,"rental_uris":{"android":"levelo://app?vid=d2154540-b55c-455c-bf22-0708547dd516","ios":"levelo://app?vid=d2154540-b55c-455c-bf22-0708547dd516"},"vehicle_type_id":"4","last_reported":1747937677,"current_range_meters":10800,"station_id":"ce4bhlh2rcd13ifvqgig","pricing_plan_id":"cebpf4jnsgd1na2vs0mg"},{"bike_id":"ca5d4306-f84c-4e20-9b88-830ffa4263d2","system_id":"levelo_inurba_marseille","lat":43.22931,"lon":5.3536,"is_reserved":false,"is_disabled":false,"rental_uris":{"android":"levelo://app?vid=ca5d4306-f84c-4e20-9b88-830ffa4263d2","ios":"levelo://app?vid=ca5d4306-f84c-4e20-9b88-830ffa4263d2"},"vehicle_type_id":"4","last_reported":1747937677,"current_range_meters":10800,"station_id":"cpo3532slgdg3j2ikp40","pricing_plan_id":"cebpf4jnsgd1na2vs0mg"},{"bike_id":"95f4869c-80ca-466f-9c75-2a87eba51561","system_id":"levelo_inurba_marseille","lat":43.29252,"lon":5.38446,"is_reserved":false,"is_disabled":false,"rental_uris":{"android":"levelo://app?vid=95f4869c-80ca-466f-9c75-2a87eba51561","ios":"levelo://app?vid=95f4869c-80ca-466f-9c75-2a87eba51561"},"vehicle_type_id":"4","last_reported":1747937677,"current_range_meters":11200,"station_id":"ce4bh692rcd13ifvqea0","pricing_plan_id":"cebpf4jnsgd1na2vs0mg"},{"bike_id":"bc76c201-54c7-42bf-ab35-5a18892643bb","system_id":"levelo_inurba_marseille","lat":43.27892,"lon":5.38015,"is_reserved":false,"is_disabled":false,"rental_uris":{"android":"levelo://app?vid=bc76c201-54c7-42bf-ab35-5a18892643bb","ios":"levelo://app?vid=bc76c201-54c7-42bf-ab35-5a18892643bb"},"vehicle_type_id":"4","last_reported":1747937677,"current_range_meters":11200,"station_id":"ce4bhf92rcd13ifvqf50","pricing_plan_id":"cebpf4jnsgd1na2vs0mg"},{"bike_id":"b41a3ebc-a501-4b04-a14f-364405b3f854","system_id":"levelo_inurba_marseille","lat":43.287154,"lon":5.399861,"is_reserved":false,"is_disabled":false,"rental_uris":{"android":"levelo://app?vid=b41a3ebc-a501-4b04-a14f-364405b3f854","ios":"levelo://app?vid=b41a3ebc-a501-4b04-a14f-364405b3f854"},"vehicle_type_id":"4","last_reported":1747937677,"current_range_meters":11200,"station_id":"ce4bho92rcd13ifvqh3g","pricing_plan_id":"cebpf4jnsgd1na2vs0mg"},{"bike_id":"c8db393e-2770-4b07-be4e-5f4b5b48c73c","system_id":"levelo_inurba_marseille","lat":43.30423,"lon":5.41278,"is_reserved":false,"is_disabled":false,"rental_uris":{"android":"levelo://app?vid=c8db393e-2770-4b07-be4e-5f4b5b48c73c","ios":"levelo://app?vid=c8db393e-2770-4b07-be4e-5f4b5b48c73c"},"vehicle_type_id":"4","last_reported":1747937677,"current_range_meters":11200,"station_id":"ce4bhop2rcd13ifvqh8g","pricing_plan_id":"cebpf4jnsgd1na2vs0mg"},{"bike_id":"5d1ddf05-7987-4385-b13c-9a2e2c2bd544","system_id":"levelo_inurba_marseille","lat":43.33619,"lon":5.41008,"is_reserved":false,"is_disabled":false,"rental_uris":{"android":"levelo://app?vid=5d1ddf05-7987-4385-b13c-9a2e2c2bd544","ios":"levelo://app?vid=5d1ddf05-7987-4385-b13c-9a2e2c2bd544"},"vehicle_type_id":"4","last_reported":1747937677,"current_range_meters":11200,"station_id":"ce4bhqh2rcd13ifvqhmg","pricing_plan_id":"cebpf4jnsgd1na2vs0mg"},{"bike_id":"c2ea5a9c-8fd7-40ac-8515-427466010d70","system_id":"levelo_inurba_marseille","lat":43.321118,"lon":5.367678,"is_reserved":false,"is_disabled":false,"rental_uris":{"android":"levelo://app?vid=c2ea5a9c-8fd7-40ac-8515-427466010d70","ios":"levelo://app?vid=c2ea5a9c-8fd7-40ac-8515-427466010d70"},"vehicle_type_id":"4","last_reported":1747937677,"current_range_meters":11200,"station_id":"ce4bhrh2rcd13ifvqhug","pricing_plan_id":"cebpf4jnsgd1na2vs0mg"},{"bike_id":"97cefe16-8a9e-44aa-b4cb-d578d05e2968","system_id":"levelo_inurba_marseille","lat":43.26811,"lon":5.40269,"is_reserved":false,"is_disabled":false,"rental_uris":{"android":"levelo://app?vid=97cefe16-8a9e-44aa-b4cb-d578d05e2968","ios":"levelo://app?vid=97cefe16-8a9e-44aa-b4cb-d578d05e2968"},"vehicle_type_id":"4","last_reported":1747937677,"current_range_meters":11200,"station_id":"ce501612rcd8frsf0b60","pricing_plan_id":"cebpf4jnsgd1na2vs0mg"},{"bike_id":"222bceeb-3171-40cf-9051-b295194720d7","system_id":"levelo_inurba_marseille","lat":43.29266,"lon":5.38435,"is_reserved":false,"is_disabled":false,"rental_uris":{"android":"levelo://app?vid=222bceeb-3171-40cf-9051-b295194720d7","ios":"levelo://app?vid=222bceeb-3171-40cf-9051-b295194720d7"},"vehicle_type_id":"4","last_reported":1747937677,"current_range_meters":11600,"station_id":"ce4bh692rcd13ifvqea0","pricing_plan_id":"cebpf4jnsgd1na2vs0mg"},{"bike_id":"b4946ed7-246a-4b41-994a-bd3fbe633a44","system_id":"levelo_inurba_marseille","lat":43.27325,"lon":5.39073,"is_reserved":false,"is_disabled":false,"rental_uris":{"android":"levelo://app?vid=b4946ed7-246a-4b41-994a-bd3fbe633a44","ios":"levelo://app?vid=b4946ed7-246a-4b41-994a-bd3fbe633a44"},"vehicle_type_id":"4","last_reported":1747937677,"current_range_meters":11600,"station_id":"ce4bhgp2rcd13ifvqfe0","pricing_plan_id":"cebpf4jnsgd1na2vs0mg"},{"bike_id":"98b4804c-04f7-45e7-acbf-b86914fdfedd","system_id":"levelo_inurba_marseille","lat":43.3044,"lon":5.4128,"is_reserved":false,"is_disabled":false,"rental_uris":{"android":"levelo://app?vid=98b4804c-04f7-45e7-acbf-b86914fdfedd","ios":"levelo://app?vid=98b4804c-04f7-45e7-acbf-b86914fdfedd"},"vehicle_type_id":"4","last_reported":1747937677,"current_range_meters":11600,"station_id":"ce4bhop2rcd13ifvqh8g","pricing_plan_id":"cebpf4jnsgd1na2vs0mg"},{"bike_id":"fc478b53-8c86-4331-b685-e08cb1f0dc78","system_id":"levelo_inurba_marseille","lat":43.28429,"lon":5.34987,"is_reserved":false,"is_disabled":false,"rental_uris":{"android":"levelo://app?vid=fc478b53-8c86-4331-b685-e08cb1f0dc78","ios":"levelo://app?vid=fc478b53-8c86-4331-b685-e08cb1f0dc78"},"vehicle_type_id":"4","last_reported":1747937677,"current_range_meters":12000,"station_id":"ce4bhbh2rcd13ifvqepg","pricing_plan_id":"cebpf4jnsgd1na2vs0mg"},{"bike_id":"f9223343-51dd-4eb0-a255-7d7bd8e5d0ef","system_id":"levelo_inurba_marseille","lat":43.311788,"lon":5.401867,"is_reserved":false,"is_disabled":false,"rental_uris":{"android":"levelo://app?vid=f9223343-51dd-4eb0-a255-7d7bd8e5d0ef","ios":"levelo://app?vid=f9223343-51dd-4eb0-a255-7d7bd8e5d0ef"},"vehicle_type_id":"4","last_reported":1747937677,"current_range_meters":12400,"station_id":"","pricing_plan_id":"cebpf4jnsgd1na2vs0mg"},{"bike_id":"dabd6516-8285-4227-9abb-4a2a454ee336","system_id":"levelo_inurba_marseille","lat":43.27621,"lon":5.3611,"is_reserved":false,"is_disabled":false,"rental_uris":{"android":"levelo://app?vid=dabd6516-8285-4227-9abb-4a2a454ee336","ios":"levelo://app?vid=dabd6516-8285-4227-9abb-4a2a454ee336"},"vehicle_type_id":"4","last_reported":1747937677,"current_range_meters":12400,"station_id":"ce4bgj92rcd13ifvqbe0","pricing_plan_id":"cebpf4jnsgd1na2vs0mg"},{"bike_id":"722d467c-22d9-4bed-9cb3-d132fa9c0fc7","system_id":"levelo_inurba_marseille","lat":43.298398,"lon":5.362798,"is_reserved":false,"is_disabled":false,"rental_uris":{"android":"levelo://app?vid=722d467c-22d9-4bed-9cb3-d132fa9c0fc7","ios":"levelo://app?vid=722d467c-22d9-4bed-9cb3-d132fa9c0fc7"},"vehicle_type_id":"4","last_reported":1747937677,"current_range_meters":12400,"station_id":"ce4bgpp2rcd13ifvqc3g","pricing_plan_id":"cebpf4jnsgd1na2vs0mg"},{"bike_id":"1a769ea6-2c25-49b5-b8a5-24403e9fc658","system_id":"levelo_inurba_marseille","lat":43.27921,"lon":5.395847,"is_reserved":false,"is_disabled":false,"rental_uris":{"android":"levelo://app?vid=1a769ea6-2c25-49b5-b8a5-24403e9fc658","ios":"levelo://app?vid=1a769ea6-2c25-49b5-b8a5-24403e9fc658"},"vehicle_type_id":"4","last_reported":1747937677,"current_range_meters":12400,"station_id":"ce4bhf92rcd13ifvqf40","pricing_plan_id":"cebpf4jnsgd1na2vs0mg"},{"bike_id":"d9cedd87-60a9-44d9-b244-855865e44d16","system_id":"levelo_inurba_marseille","lat":43.26033,"lon":5.37552,"is_reserved":false,"is_disabled":false,"rental_uris":{"android":"levelo://app?vid=d9cedd87-60a9-44d9-b244-855865e44d16","ios":"levelo://app?vid=d9cedd87-60a9-44d9-b244-855865e44d16"},"vehicle_type_id":"4","last_reported":1747937677,"current_range_meters":12400,"station_id":"ce4bhgh2rcd13ifvqfa0","pricing_plan_id":"cebpf4jnsgd1na2vs0mg"},{"bike_id":"39cba5ba-cc49-4a39-90b2-31612c6f7456","system_id":"levelo_inurba_marseille","lat":43.23973,"lon":5.36625,"is_reserved":false,"is_disabled":false,"rental_uris":{"android":"levelo://app?vid=39cba5ba-cc49-4a39-90b2-31612c6f7456","ios":"levelo://app?vid=39cba5ba-cc49-4a39-90b2-31612c6f7456"},"vehicle_type_id":"4","last_reported":1747937677,"current_range_meters":12400,"station_id":"ce4bhi12rcd13ifvqfp0","pricing_plan_id":"cebpf4jnsgd1na2vs0mg"},{"bike_id":"84f00b51-2429-41be-8a43-83978d7764de","system_id":"levelo_inurba_marseille","lat":43.28001,"lon":5.40019,"is_reserved":false,"is_disabled":false,"rental_uris":{"android":"levelo://app?vid=84f00b51-2429-41be-8a43-83978d7764de","ios":"levelo://app?vid=84f00b51-2429-41be-8a43-83978d7764de"},"vehicle_type_id":"4","last_reported":1747937677,"current_range_meters":12400,"station_id":"ce4bho92rcd13ifvqh4g","pricing_plan_id":"cebpf4jnsgd1na2vs0mg"},{"bike_id":"bcbce528-f9d7-44b0-8e7c-a8ac87c23372","system_id":"levelo_inurba_marseille","lat":43.31083,"lon":5.424275,"is_reserved":false,"is_disabled":false,"rental_uris":{"android":"levelo://app?vid=bcbce528-f9d7-44b0-8e7c-a8ac87c23372","ios":"levelo://app?vid=bcbce528-f9d7-44b0-8e7c-a8ac87c23372"},"vehicle_type_id":"4","last_reported":1747937677,"current_range_meters":12400,"station_id":"ce4bhp92rcd13ifvqhag","pricing_plan_id":"cebpf4jnsgd1na2vs0mg"},{"bike_id":"d66e8e95-62a8-4a36-90df-c78cacdf4754","system_id":"levelo_inurba_marseille","lat":43.30143,"lon":5.3805,"is_reserved":false,"is_disabled":false,"rental_uris":{"android":"levelo://app?vid=d66e8e95-62a8-4a36-90df-c78cacdf4754","ios":"levelo://app?vid=d66e8e95-62a8-4a36-90df-c78cacdf4754"},"vehicle_type_id":"4","last_reported":1747937677,"current_range_meters":12800,"station_id":"ce4bgjp2rcd13ifvqbh0","pricing_plan_id":"cebpf4jnsgd1na2vs0mg"},{"bike_id":"4a6bdf14-081c-441c-b2a9-29db624ff852","system_id":"levelo_inurba_marseille","lat":43.301178,"lon":5.398529,"is_reserved":false,"is_disabled":false,"rental_uris":{"android":"levelo://app?vid=4a6bdf14-081c-441c-b2a9-29db624ff852","ios":"levelo://app?vid=4a6bdf14-081c-441c-b2a9-29db624ff852"},"vehicle_type_id":"4","last_reported":1747937677,"current_range_meters":12800,"station_id":"ce4bh0h2rcd13ifvqd40","pricing_plan_id":"cebpf4jnsgd1na2vs0mg"},{"bike_id":"a9de2bfe-b011-41d9-8aa1-030a3c39de54","system_id":"levelo_inurba_marseille","lat":43.29217,"lon":5.36102,"is_reserved":false,"is_disabled":false,"rental_uris":{"android":"levelo://app?vid=a9de2bfe-b011-41d9-8aa1-030a3c39de54","ios":"levelo://app?vid=a9de2bfe-b011-41d9-8aa1-030a3c39de54"},"vehicle_type_id":"4","last_reported":1747937677,"current_range_meters":12800,"station_id":"ce4bhbh2rcd13ifvqeqg","pricing_plan_id":"cebpf4jnsgd1na2vs0mg"},{"bike_id":"82e0b8f7-3422-4587-ac56-37577d27ecdc","system_id":"levelo_inurba_marseille","lat":43.26224,"lon":5.40446,"is_reserved":false,"is_disabled":false,"rental_uris":{"android":"levelo://app?vid=82e0b8f7-3422-4587-ac56-37577d27ecdc","ios":"levelo://app?vid=82e0b8f7-3422-4587-ac56-37577d27ecdc"},"vehicle_type_id":"4","last_reported":1747937677,"current_range_meters":12800,"station_id":"ce4bhmh2rcd13ifvqgmg","pricing_plan_id":"cebpf4jnsgd1na2vs0mg"},{"bike_id":"a2b23ba1-36bf-4f24-aa3e-5209ccf25cb7","system_id":"levelo_inurba_marseille","lat":43.24076,"lon":5.37745,"is_reserved":false,"is_disabled":false,"rental_uris":{"android":"levelo://app?vid=a2b23ba1-36bf-4f24-aa3e-5209ccf25cb7","ios":"levelo://app?vid=a2b23ba1-36bf-4f24-aa3e-5209ccf25cb7"},"vehicle_type_id":"4","last_reported":1747937677,"current_range_meters":12800,"station_id":"ce4bhnp2rcd13ifvqgvg","pricing_plan_id":"cebpf4jnsgd1na2vs0mg"},{"bike_id":"d65c201e-5531-468e-81ba-1491d96cbcfc","system_id":"levelo_inurba_marseille","lat":43.29557,"lon":5.42292,"is_reserved":false,"is_disabled":false,"rental_uris":{"android":"levelo://app?vid=d65c201e-5531-468e-81ba-1491d96cbcfc","ios":"levelo://app?vid=d65c201e-5531-468e-81ba-1491d96cbcfc"},"vehicle_type_id":"4","last_reported":1747937677,"current_range_meters":12800,"station_id":"ce4bhph2rcd13ifvqhdg","pricing_plan_id":"cebpf4jnsgd1na2vs0mg"},{"bike_id":"7da06f34-e019-4b18-921d-8f77e54cc2f1","system_id":"levelo_inurba_marseille","lat":43.24895,"lon":5.39411,"is_reserved":false,"is_disabled":false,"rental_uris":{"android":"levelo://app?vid=7da06f34-e019-4b18-921d-8f77e54cc2f1","ios":"levelo://app?vid=7da06f34-e019-4b18-921d-8f77e54cc2f1"},"vehicle_type_id":"4","last_reported":1747937677,"current_range_meters":13600,"station_id":"","pricing_plan_id":"cebpf4jnsgd1na2vs0mg"},{"bike_id":"16998de3-4927-41a4-bb3f-8bb522224801","system_id":"levelo_inurba_marseille","lat":43.2954,"lon":5.39396,"is_reserved":false,"is_disabled":false,"rental_uris":{"android":"levelo://app?vid=16998de3-4927-41a4-bb3f-8bb522224801","ios":"levelo://app?vid=16998de3-4927-41a4-bb3f-8bb522224801"},"vehicle_type_id":"4","last_reported":1747937677,"current_range_meters":13600,"station_id":"ce4bh292rcd13ifvqdf0","pricing_plan_id":"cebpf4jnsgd1na2vs0mg"},{"bike_id":"e496d50c-83a7-4110-9130-cb29abd86130","system_id":"levelo_inurba_marseille","lat":43.29253,"lon":5.38441,"is_reserved":false,"is_disabled":false,"rental_uris":{"android":"levelo://app?vid=e496d50c-83a7-4110-9130-cb29abd86130","ios":"levelo://app?vid=e496d50c-83a7-4110-9130-cb29abd86130"},"vehicle_type_id":"4","last_reported":1747937677,"current_range_meters":13600,"station_id":"ce4bh692rcd13ifvqea0","pricing_plan_id":"cebpf4jnsgd1na2vs0mg"},{"bike_id":"65709e04-dd2d-4829-ad4c-b8b87c733266","system_id":"levelo_inurba_marseille","lat":43.29282,"lon":5.38417,"is_reserved":false,"is_disabled":false,"rental_uris":{"android":"levelo://app?vid=65709e04-dd2d-4829-ad4c-b8b87c733266","ios":"levelo://app?vid=65709e04-dd2d-4829-ad4c-b8b87c733266"},"vehicle_type_id":"4","last_reported":1747937677,"current_range_meters":13600,"station_id":"ce4bh692rcd13ifvqea0","pricing_plan_id":"cebpf4jnsgd1na2vs0mg"},{"bike_id":"e77b9d43-a803-4f5c-912a-7a91f5e7da59","system_id":"levelo_inurba_marseille","lat":43.28427,"lon":5.34979,"is_reserved":false,"is_disabled":false,"rental_uris":{"android":"levelo://app?vid=e77b9d43-a803-4f5c-912a-7a91f5e7da59","ios":"levelo://app?vid=e77b9d43-a803-4f5c-912a-7a91f5e7da59"},"vehicle_type_id":"4","last_reported":1747937677,"current_range_meters":13600,"station_id":"ce4bhbh2rcd13ifvqepg","pricing_plan_id":"cebpf4jnsgd1na2vs0mg"},{"bike_id":"eaeb951c-8ba0-45ec-9224-4137b185a837","system_id":"levelo_inurba_marseille","lat":43.28414,"lon":5.34972,"is_reserved":false,"is_disabled":false,"rental_uris":{"android":"levelo://app?vid=eaeb951c-8ba0-45ec-9224-4137b185a837","ios":"levelo://app?vid=eaeb951c-8ba0-45ec-9224-4137b185a837"},"vehicle_type_id":"4","last_reported":1747937677,"current_range_meters":13600,"station_id":"ce4bhbh2rcd13ifvqepg","pricing_plan_id":"cebpf4jnsgd1na2vs0mg"},{"bike_id":"981d8dc1-54cd-4732-9bfd-797f75261945","system_id":"levelo_inurba_marseille","lat":43.29226,"lon":5.36058,"is_reserved":false,"is_disabled":false,"rental_uris":{"android":"levelo://app?vid=981d8dc1-54cd-4732-9bfd-797f75261945","ios":"levelo://app?vid=981d8dc1-54cd-4732-9bfd-797f75261945"},"vehicle_type_id":"4","last_reported":1747937677,"current_range_meters":13600,"station_id":"ce4bhbh2rcd13ifvqeqg","pricing_plan_id":"cebpf4jnsgd1na2vs0mg"},{"bike_id":"665b73db-847c-4162-be3a-f9fe18819e9a","system_id":"levelo_inurba_marseille","lat":43.28634,"lon":5.351,"is_reserved":false,"is_disabled":false,"rental_uris":{"android":"levelo://app?vid=665b73db-847c-4162-be3a-f9fe18819e9a","ios":"levelo://app?vid=665b73db-847c-4162-be3a-f9fe18819e9a"},"vehicle_type_id":"4","last_reported":1747937677,"current_range_meters":13600,"station_id":"ce4bhch2rcd13ifvqeug","pricing_plan_id":"cebpf4jnsgd1na2vs0mg"},{"bike_id":"682e8c54-3f77-4582-937b-7490f31456f6","system_id":"levelo_inurba_marseille","lat":43.2586,"lon":5.39928,"is_reserved":false,"is_disabled":false,"rental_uris":{"android":"levelo://app?vid=682e8c54-3f77-4582-937b-7490f31456f6","ios":"levelo://app?vid=682e8c54-3f77-4582-937b-7490f31456f6"},"vehicle_type_id":"4","last_reported":1747937677,"current_range_meters":13600,"station_id":"ce4bhl92rcd13ifvqghg","pricing_plan_id":"cebpf4jnsgd1na2vs0mg"},{"bike_id":"e3e19b90-9823-4b53-b8a7-4c599b3176c2","system_id":"levelo_inurba_marseille","lat":43.25111,"lon":5.40322,"is_reserved":false,"is_disabled":false,"rental_uris":{"android":"levelo://app?vid=e3e19b90-9823-4b53-b8a7-4c599b3176c2","ios":"levelo://app?vid=e3e19b90-9823-4b53-b8a7-4c599b3176c2"},"vehicle_type_id":"4","last_reported":1747937677,"current_range_meters":13600,"station_id":"ce4bhlh2rcd13ifvqgig","pricing_plan_id":"cebpf4jnsgd1na2vs0mg"},{"bike_id":"bff44204-d3d2-4c47-bac6-bf32654a4d61","system_id":"levelo_inurba_marseille","lat":43.29965,"lon":5.41306,"is_reserved":false,"is_disabled":false,"rental_uris":{"android":"levelo://app?vid=bff44204-d3d2-4c47-bac6-bf32654a4d61","ios":"levelo://app?vid=bff44204-d3d2-4c47-bac6-bf32654a4d61"},"vehicle_type_id":"4","last_reported":1747937677,"current_range_meters":13600,"station_id":"ce4bhp12rcd13ifvqh9g","pricing_plan_id":"cebpf4jnsgd1na2vs0mg"},{"bike_id":"8a108e7c-a75e-4321-b3aa-4ec0d1fc85c7","system_id":"levelo_inurba_marseille","lat":43.32296,"lon":5.38268,"is_reserved":false,"is_disabled":false,"rental_uris":{"android":"levelo://app?vid=8a108e7c-a75e-4321-b3aa-4ec0d1fc85c7","ios":"levelo://app?vid=8a108e7c-a75e-4321-b3aa-4ec0d1fc85c7"},"vehicle_type_id":"4","last_reported":1747937677,"current_range_meters":13600,"station_id":"ce4bhr12rcd13ifvqhqg","pricing_plan_id":"cebpf4jnsgd1na2vs0mg"},{"bike_id":"91ee897c-3435-4d10-b3f8-ba484194adba","system_id":"levelo_inurba_marseille","lat":43.33023,"lon":5.39038,"is_reserved":false,"is_disabled":false,"rental_uris":{"android":"levelo://app?vid=91ee897c-3435-4d10-b3f8-ba484194adba","ios":"levelo://app?vid=91ee897c-3435-4d10-b3f8-ba484194adba"},"vehicle_type_id":"4","last_reported":1747937677,"current_range_meters":13600,"station_id":"ce4bhr92rcd13ifvqhrg","pricing_plan_id":"cebpf4jnsgd1na2vs0mg"},{"bike_id":"62ea01e2-61d3-4caa-87f8-ed8e0d7372bc","system_id":"levelo_inurba_marseille","lat":43.29431,"lon":5.38624,"is_reserved":false,"is_disabled":false,"rental_uris":{"android":"levelo://app?vid=62ea01e2-61d3-4caa-87f8-ed8e0d7372bc","ios":"levelo://app?vid=62ea01e2-61d3-4caa-87f8-ed8e0d7372bc"},"vehicle_type_id":"4","last_reported":1747937677,"current_range_meters":14000,"station_id":"ce4bh2h2rcd13ifvqdh0","pricing_plan_id":"cebpf4jnsgd1na2vs0mg"},{"bike_id":"2c87c810-7a38-4e57-b8f4-53b1ff151be1","system_id":"levelo_inurba_marseille","lat":43.2862,"lon":5.35097,"is_reserved":false,"is_disabled":false,"rental_uris":{"android":"levelo://app?vid=2c87c810-7a38-4e57-b8f4-53b1ff151be1","ios":"levelo://app?vid=2c87c810-7a38-4e57-b8f4-53b1ff151be1"},"vehicle_type_id":"4","last_reported":1747937677,"current_range_meters":14000,"station_id":"ce4bhch2rcd13ifvqeug","pricing_plan_id":"cebpf4jnsgd1na2vs0mg"},{"bike_id":"d4302aff-8675-4542-be71-24549a52501a","system_id":"levelo_inurba_marseille","lat":43.246887,"lon":5.373875,"is_reserved":false,"is_disabled":false,"rental_uris":{"android":"levelo://app?vid=d4302aff-8675-4542-be71-24549a52501a","ios":"levelo://app?vid=d4302aff-8675-4542-be71-24549a52501a"},"vehicle_type_id":"4","last_reported":1747937677,"current_range_meters":14000,"station_id":"ce4bhnp2rcd13ifvqgvg","pricing_plan_id":"cebpf4jnsgd1na2vs0mg"},{"bike_id":"878ffea6-8673-4731-8ea9-6c49dc8abea5","system_id":"levelo_inurba_marseille","lat":43.29569,"lon":5.39974,"is_reserved":false,"is_disabled":false,"rental_uris":{"android":"levelo://app?vid=878ffea6-8673-4731-8ea9-6c49dc8abea5","ios":"levelo://app?vid=878ffea6-8673-4731-8ea9-6c49dc8abea5"},"vehicle_type_id":"4","last_reported":1747937677,"current_range_meters":14400,"station_id":"ce4bh312rcd13ifvqdj0","pricing_plan_id":"cebpf4jnsgd1na2vs0mg"},{"bike_id":"a3493e2c-940e-437e-b48f-e6cd7b19a7ef","system_id":"levelo_inurba_marseille","lat":43.25004,"lon":5.38922,"is_reserved":false,"is_disabled":false,"rental_uris":{"android":"levelo://app?vid=a3493e2c-940e-437e-b48f-e6cd7b19a7ef","ios":"levelo://app?vid=a3493e2c-940e-437e-b48f-e6cd7b19a7ef"},"vehicle_type_id":"4","last_reported":1747937677,"current_range_meters":14400,"station_id":"ce4bhgp2rcd13ifvqfd0","pricing_plan_id":"cebpf4jnsgd1na2vs0mg"},{"bike_id":"db1e114d-99f7-4de5-9a92-af3bbca22125","system_id":"levelo_inurba_marseille","lat":43.279793,"lon":5.399696,"is_reserved":false,"is_disabled":false,"rental_uris":{"android":"levelo://app?vid=db1e114d-99f7-4de5-9a92-af3bbca22125","ios":"levelo://app?vid=db1e114d-99f7-4de5-9a92-af3bbca22125"},"vehicle_type_id":"4","last_reported":1747937677,"current_range_meters":14800,"station_id":"","pricing_plan_id":"cebpf4jnsgd1na2vs0mg"},{"bike_id":"232fc4c2-7d8b-423a-be5b-0ceace964d26","system_id":"levelo_inurba_marseille","lat":43.29301,"lon":5.37453,"is_reserved":false,"is_disabled":false,"rental_uris":{"android":"levelo://app?vid=232fc4c2-7d8b-423a-be5b-0ceace964d26","ios":"levelo://app?vid=232fc4c2-7d8b-423a-be5b-0ceace964d26"},"vehicle_type_id":"4","last_reported":1747937677,"current_range_meters":14800,"station_id":"ce4bgi12rcd13ifvqb70","pricing_plan_id":"cebpf4jnsgd1na2vs0mg"},{"bike_id":"b17f4d77-4af5-4e2c-ba22-92595ad072e2","system_id":"levelo_inurba_marseille","lat":43.24653,"lon":5.38892,"is_reserved":false,"is_disabled":false,"rental_uris":{"android":"levelo://app?vid=b17f4d77-4af5-4e2c-ba22-92595ad072e2","ios":"levelo://app?vid=b17f4d77-4af5-4e2c-ba22-92595ad072e2"},"vehicle_type_id":"4","last_reported":1747937677,"current_range_meters":14800,"station_id":"ce4bhg12rcd13ifvqf60","pricing_plan_id":"cebpf4jnsgd1na2vs0mg"},{"bike_id":"4b3a9876-82d1-48b3-96a8-3fedc0f241ee","system_id":"levelo_inurba_marseille","lat":43.25699,"lon":5.41086,"is_reserved":false,"is_disabled":false,"rental_uris":{"android":"levelo://app?vid=4b3a9876-82d1-48b3-96a8-3fedc0f241ee","ios":"levelo://app?vid=4b3a9876-82d1-48b3-96a8-3fedc0f241ee"},"vehicle_type_id":"4","last_reported":1747937677,"current_range_meters":14800,"station_id":"ce4bhkp2rcd13ifvqgd0","pricing_plan_id":"cebpf4jnsgd1na2vs0mg"},{"bike_id":"eed511be-1a62-4434-a2ef-3b183c6b312b","system_id":"levelo_inurba_marseille","lat":43.30379,"lon":5.42487,"is_reserved":false,"is_disabled":false,"rental_uris":{"android":"levelo://app?vid=eed511be-1a62-4434-a2ef-3b183c6b312b","ios":"levelo://app?vid=eed511be-1a62-4434-a2ef-3b183c6b312b"},"vehicle_type_id":"4","last_reported":1747937677,"current_range_meters":14800,"station_id":"ce4bhoh2rcd13ifvqh6g","pricing_plan_id":"cebpf4jnsgd1na2vs0mg"},{"bike_id":"817348e2-fb05-4de7-96f6-c8b207cb8ed8","system_id":"levelo_inurba_marseille","lat":43.21182,"lon":5.35083,"is_reserved":false,"is_disabled":false,"rental_uris":{"android":"levelo://app?vid=817348e2-fb05-4de7-96f6-c8b207cb8ed8","ios":"levelo://app?vid=817348e2-fb05-4de7-96f6-c8b207cb8ed8"},"vehicle_type_id":"4","last_reported":1747937677,"current_range_meters":14800,"station_id":"st_cvj6sg6p6f1abm77japg","pricing_plan_id":"cebpf4jnsgd1na2vs0mg"},{"bike_id":"41bef200-0210-46a9-afd1-c001d345c4b0","system_id":"levelo_inurba_marseille","lat":43.33651,"lon":5.3782,"is_reserved":false,"is_disabled":false,"rental_uris":{"android":"levelo://app?vid=41bef200-0210-46a9-afd1-c001d345c4b0","ios":"levelo://app?vid=41bef200-0210-46a9-afd1-c001d345c4b0"},"vehicle_type_id":"4","last_reported":1747937677,"current_range_meters":15200,"station_id":"","pricing_plan_id":"cebpf4jnsgd1na2vs0mg"},{"bike_id":"605be4bf-deee-4b33-a4cb-0294e9797557","system_id":"levelo_inurba_marseille","lat":43.23084,"lon":5.35434,"is_reserved":false,"is_disabled":false,"rental_uris":{"android":"levelo://app?vid=605be4bf-deee-4b33-a4cb-0294e9797557","ios":"levelo://app?vid=605be4bf-deee-4b33-a4cb-0294e9797557"},"vehicle_type_id":"4","last_reported":1747937677,"current_range_meters":15200,"station_id":"","pricing_plan_id":"cebpf4jnsgd1na2vs0mg"},{"bike_id":"d6dfb73d-c59c-4210-a85d-ec6e3793a75e","system_id":"levelo_inurba_marseille","lat":43.27427,"lon":5.39418,"is_reserved":false,"is_disabled":false,"rental_uris":{"android":"levelo://app?vid=d6dfb73d-c59c-4210-a85d-ec6e3793a75e","ios":"levelo://app?vid=d6dfb73d-c59c-4210-a85d-ec6e3793a75e"},"vehicle_type_id":"4","last_reported":1747937677,"current_range_meters":15200,"station_id":"ce4bhdp2rcd13ifvqf20","pricing_plan_id":"cebpf4jnsgd1na2vs0mg"},{"bike_id":"4aa33abb-f8b1-4406-8249-c759069bc5ce","system_id":"levelo_inurba_marseille","lat":43.24654,"lon":5.38895,"is_reserved":false,"is_disabled":false,"rental_uris":{"android":"levelo://app?vid=4aa33abb-f8b1-4406-8249-c759069bc5ce","ios":"levelo://app?vid=4aa33abb-f8b1-4406-8249-c759069bc5ce"},"vehicle_type_id":"4","last_reported":1747937677,"current_range_meters":15200,"station_id":"ce4bhg12rcd13ifvqf60","pricing_plan_id":"cebpf4jnsgd1na2vs0mg"},{"bike_id":"356272d3-31fb-42a2-bddb-7056d8393b3b","system_id":"levelo_inurba_marseille","lat":43.28083,"lon":5.39663,"is_reserved":false,"is_disabled":false,"rental_uris":{"android":"levelo://app?vid=356272d3-31fb-42a2-bddb-7056d8393b3b","ios":"levelo://app?vid=356272d3-31fb-42a2-bddb-7056d8393b3b"},"vehicle_type_id":"4","last_reported":1747937677,"current_range_meters":15200,"station_id":"ce4bho12rcd13ifvqh2g","pricing_plan_id":"cebpf4jnsgd1na2vs0mg"},{"bike_id":"7f01d7d8-769e-4c88-9be6-577d37e42203","system_id":"levelo_inurba_marseille","lat":43.34142,"lon":5.40903,"is_reserved":false,"is_disabled":false,"rental_uris":{"android":"levelo://app?vid=7f01d7d8-769e-4c88-9be6-577d37e42203","ios":"levelo://app?vid=7f01d7d8-769e-4c88-9be6-577d37e42203"},"vehicle_type_id":"4","last_reported":1747937677,"current_range_meters":15200,"station_id":"ce4bhqh2rcd13ifvqhlg","pricing_plan_id":"cebpf4jnsgd1na2vs0mg"},{"bike_id":"d3ec0618-0497-424f-8209-d9b966342f1f","system_id":"levelo_inurba_marseille","lat":43.24651,"lon":5.38897,"is_reserved":false,"is_disabled":false,"rental_uris":{"android":"levelo://app?vid=d3ec0618-0497-424f-8209-d9b966342f1f","ios":"levelo://app?vid=d3ec0618-0497-424f-8209-d9b966342f1f"},"vehicle_type_id":"4","last_reported":1747937677,"current_range_meters":16000,"station_id":"ce4bhg12rcd13ifvqf60","pricing_plan_id":"cebpf4jnsgd1na2vs0mg"},{"bike_id":"5fee235d-4f89-4968-8a96-e1366b043ab7","system_id":"levelo_inurba_marseille","lat":43.28146,"lon":5.42652,"is_reserved":false,"is_disabled":false,"rental_uris":{"android":"levelo://app?vid=5fee235d-4f89-4968-8a96-e1366b043ab7","ios":"levelo://app?vid=5fee235d-4f89-4968-8a96-e1366b043ab7"},"vehicle_type_id":"4","last_reported":1747937677,"current_range_meters":16000,"station_id":"ce4bhnh2rcd13ifvqgug","pricing_plan_id":"cebpf4jnsgd1na2vs0mg"},{"bike_id":"6dde22b3-be2c-4353-838d-05c85608e4d3","system_id":"levelo_inurba_marseille","lat":43.323573,"lon":5.367423,"is_reserved":false,"is_disabled":false,"rental_uris":{"android":"levelo://app?vid=6dde22b3-be2c-4353-838d-05c85608e4d3","ios":"levelo://app?vid=6dde22b3-be2c-4353-838d-05c85608e4d3"},"vehicle_type_id":"4","last_reported":1747937677,"current_range_meters":16000,"station_id":"ce4bhsh2rcd13ifvqi2g","pricing_plan_id":"cebpf4jnsgd1na2vs0mg"},{"bike_id":"7698be78-64bf-4972-8c30-af0ffe86dcdc","system_id":"levelo_inurba_marseille","lat":43.29622,"lon":5.37737,"is_reserved":false,"is_disabled":false,"rental_uris":{"android":"levelo://app?vid=7698be78-64bf-4972-8c30-af0ffe86dcdc","ios":"levelo://app?vid=7698be78-64bf-4972-8c30-af0ffe86dcdc"},"vehicle_type_id":"4","last_reported":1747937677,"current_range_meters":16400,"station_id":"ce4bgi92rcd13ifvqb90","pricing_plan_id":"cebpf4jnsgd1na2vs0mg"},{"bike_id":"12b9080c-ead5-47a7-8561-3ebc7c49d241","system_id":"levelo_inurba_marseille","lat":43.29713,"lon":5.37701,"is_reserved":false,"is_disabled":false,"rental_uris":{"android":"levelo://app?vid=12b9080c-ead5-47a7-8561-3ebc7c49d241","ios":"levelo://app?vid=12b9080c-ead5-47a7-8561-3ebc7c49d241"},"vehicle_type_id":"4","last_reported":1747937677,"current_range_meters":16400,"station_id":"ce4bgkh2rcd13ifvqbl0","pricing_plan_id":"cebpf4jnsgd1na2vs0mg"},{"bike_id":"794faaed-48e5-4aed-b51e-becf307b9925","system_id":"levelo_inurba_marseille","lat":43.29423,"lon":5.38627,"is_reserved":false,"is_disabled":false,"rental_uris":{"android":"levelo://app?vid=794faaed-48e5-4aed-b51e-becf307b9925","ios":"levelo://app?vid=794faaed-48e5-4aed-b51e-becf307b9925"},"vehicle_type_id":"4","last_reported":1747937677,"current_range_meters":16400,"station_id":"ce4bh2h2rcd13ifvqdh0","pricing_plan_id":"cebpf4jnsgd1na2vs0mg"},{"bike_id":"6b87cdef-c49f-49b8-9673-694e3d667617","system_id":"levelo_inurba_marseille","lat":43.29577,"lon":5.39967,"is_reserved":false,"is_disabled":false,"rental_uris":{"android":"levelo://app?vid=6b87cdef-c49f-49b8-9673-694e3d667617","ios":"levelo://app?vid=6b87cdef-c49f-49b8-9673-694e3d667617"},"vehicle_type_id":"4","last_reported":1747937677,"current_range_meters":16400,"station_id":"ce4bh312rcd13ifvqdj0","pricing_plan_id":"cebpf4jnsgd1na2vs0mg"},{"bike_id":"7a174cf0-49bb-442b-9787-ed977ba34ca4","system_id":"levelo_inurba_marseille","lat":43.241825,"lon":5.39736,"is_reserved":false,"is_disabled":false,"rental_uris":{"android":"levelo://app?vid=7a174cf0-49bb-442b-9787-ed977ba34ca4","ios":"levelo://app?vid=7a174cf0-49bb-442b-9787-ed977ba34ca4"},"vehicle_type_id":"4","last_reported":1747937677,"current_range_meters":16400,"station_id":"ce4bhn12rcd13ifvqgpg","pricing_plan_id":"cebpf4jnsgd1na2vs0mg"},{"bike_id":"1e164eaf-2ffb-4814-9442-b43f6b5c9f80","system_id":"levelo_inurba_marseille","lat":43.24157,"lon":5.36396,"is_reserved":false,"is_disabled":false,"rental_uris":{"android":"levelo://app?vid=1e164eaf-2ffb-4814-9442-b43f6b5c9f80","ios":"levelo://app?vid=1e164eaf-2ffb-4814-9442-b43f6b5c9f80"},"vehicle_type_id":"4","last_reported":1747937677,"current_range_meters":16400,"station_id":"cpo36qri1sfpv3e86is0","pricing_plan_id":"cebpf4jnsgd1na2vs0mg"},{"bike_id":"d401582b-9b73-44c8-a7c4-83d984bebb58","system_id":"levelo_inurba_marseille","lat":43.27882,"lon":5.39207,"is_reserved":false,"is_disabled":false,"rental_uris":{"android":"levelo://app?vid=d401582b-9b73-44c8-a7c4-83d984bebb58","ios":"levelo://app?vid=d401582b-9b73-44c8-a7c4-83d984bebb58"},"vehicle_type_id":"4","last_reported":1747937677,"current_range_meters":16800,"station_id":"","pricing_plan_id":"cebpf4jnsgd1na2vs0mg"},{"bike_id":"cdb6d74e-9c68-4387-9984-de10b07ba04e","system_id":"levelo_inurba_marseille","lat":43.29532,"lon":5.38559,"is_reserved":false,"is_disabled":false,"rental_uris":{"android":"levelo://app?vid=cdb6d74e-9c68-4387-9984-de10b07ba04e","ios":"levelo://app?vid=cdb6d74e-9c68-4387-9984-de10b07ba04e"},"vehicle_type_id":"4","last_reported":1747937677,"current_range_meters":16800,"station_id":"ce4bgih2rcd13ifvqba0","pricing_plan_id":"cebpf4jnsgd1na2vs0mg"},{"bike_id":"684773ce-deda-43e3-89e5-8909c5db0c23","system_id":"levelo_inurba_marseille","lat":43.24815,"lon":5.37453,"is_reserved":false,"is_disabled":false,"rental_uris":{"android":"levelo://app?vid=684773ce-deda-43e3-89e5-8909c5db0c23","ios":"levelo://app?vid=684773ce-deda-43e3-89e5-8909c5db0c23"},"vehicle_type_id":"4","last_reported":1747937677,"current_range_meters":16800,"station_id":"ce4bhgh2rcd13ifvqfb0","pricing_plan_id":"cebpf4jnsgd1na2vs0mg"},{"bike_id":"8f5ad702-5ff8-41ee-b034-3d5a2428c0c5","system_id":"levelo_inurba_marseille","lat":43.251077,"lon":5.403217,"is_reserved":false,"is_disabled":false,"rental_uris":{"android":"levelo://app?vid=8f5ad702-5ff8-41ee-b034-3d5a2428c0c5","ios":"levelo://app?vid=8f5ad702-5ff8-41ee-b034-3d5a2428c0c5"},"vehicle_type_id":"4","last_reported":1747937677,"current_range_meters":16800,"station_id":"ce4bhlh2rcd13ifvqgig","pricing_plan_id":"cebpf4jnsgd1na2vs0mg"},{"bike_id":"59aa252f-9923-4da6-b784-702eb21726fb","system_id":"levelo_inurba_marseille","lat":43.25121,"lon":5.40343,"is_reserved":false,"is_disabled":false,"rental_uris":{"android":"levelo://app?vid=59aa252f-9923-4da6-b784-702eb21726fb","ios":"levelo://app?vid=59aa252f-9923-4da6-b784-702eb21726fb"},"vehicle_type_id":"4","last_reported":1747937677,"current_range_meters":16800,"station_id":"ce4bhlh2rcd13ifvqgig","pricing_plan_id":"cebpf4jnsgd1na2vs0mg"},{"bike_id":"1a340bac-8012-4c7c-b50a-247d19f083a9","system_id":"levelo_inurba_marseille","lat":43.22497,"lon":5.34784,"is_reserved":false,"is_disabled":false,"rental_uris":{"android":"levelo://app?vid=1a340bac-8012-4c7c-b50a-247d19f083a9","ios":"levelo://app?vid=1a340bac-8012-4c7c-b50a-247d19f083a9"},"vehicle_type_id":"4","last_reported":1747937677,"current_range_meters":16800,"station_id":"st_cvj5dfep6f1abm77gieg","pricing_plan_id":"cebpf4jnsgd1na2vs0mg"},{"bike_id":"beb93ece-8a2b-401d-b7e3-ad77b01ce941","system_id":"levelo_inurba_marseille","lat":43.21764,"lon":5.34596,"is_reserved":false,"is_disabled":false,"rental_uris":{"android":"levelo://app?vid=beb93ece-8a2b-401d-b7e3-ad77b01ce941","ios":"levelo://app?vid=beb93ece-8a2b-401d-b7e3-ad77b01ce941"},"vehicle_type_id":"4","last_reported":1747937677,"current_range_meters":16800,"station_id":"st_cvj6r9ubvosntc0bgbag","pricing_plan_id":"cebpf4jnsgd1na2vs0mg"},{"bike_id":"0e27a530-5aca-4bdb-bcfe-2711f03311f8","system_id":"levelo_inurba_marseille","lat":43.21752,"lon":5.34603,"is_reserved":false,"is_disabled":false,"rental_uris":{"android":"levelo://app?vid=0e27a530-5aca-4bdb-bcfe-2711f03311f8","ios":"levelo://app?vid=0e27a530-5aca-4bdb-bcfe-2711f03311f8"},"vehicle_type_id":"4","last_reported":1747937677,"current_range_meters":16800,"station_id":"st_cvj6r9ubvosntc0bgbag","pricing_plan_id":"cebpf4jnsgd1na2vs0mg"},{"bike_id":"d662beb8-6bff-44d8-bfcd-a87643645acf","system_id":"levelo_inurba_marseille","lat":43.286129,"lon":5.370638,"is_reserved":false,"is_disabled":false,"rental_uris":{"android":"levelo://app?vid=d662beb8-6bff-44d8-bfcd-a87643645acf","ios":"levelo://app?vid=d662beb8-6bff-44d8-bfcd-a87643645acf"},"vehicle_type_id":"4","last_reported":1747937677,"current_range_meters":17200,"station_id":"","pricing_plan_id":"cebpf4jnsgd1na2vs0mg"},{"bike_id":"b138d1cc-9fe4-4dad-b078-790748d99d8e","system_id":"levelo_inurba_marseille","lat":43.27365,"lon":5.36226,"is_reserved":false,"is_disabled":false,"rental_uris":{"android":"levelo://app?vid=b138d1cc-9fe4-4dad-b078-790748d99d8e","ios":"levelo://app?vid=b138d1cc-9fe4-4dad-b078-790748d99d8e"},