{"last_updated":1719288591,"ttl":30,"version":"2.2","data":{"bikes":[{"bike_id":"dcb37c91-a2ce-4d23-8e6a-6c9a9e37ca0e","system_id":"levelo_inurba_marseille","lat":43.312239,"lon":5.368562,"is_reserved":false,"is_disabled":false,"rental_uris":{"android":"levelo://app?vid=dcb37c91-a2ce-4d23-8e6a-6c9a9e37ca0e","ios":"levelo://app?vid=dcb37c91-a2ce-4d23-8e6a-6c9a9e37ca0e"},"vehicle_type_id":"4","last_reported":1719288591,"current_range_meters":30400,"station_id":"ce4bgl92rcd13ifvqbq0","pricing_plan_id":"cebpf4jnsgd1na2vs0mg"},{"bike_id":"ebfcb29a-dc9a-41d0-b08d-50240c50484d","system_id":"levelo_inurba_marseille","lat":43.312239,"lon":5.368562,"is_reserved":false,"is_disabled":false,"rental_uris":{"android":"levelo://app?vid=ebfcb29a-dc9a-41d0-b08d-50240c50484d","ios":"levelo://app?vid=ebfcb29a-dc9a-41d0-b08d-50240c50484d"},"vehicle_type_id":"4","last_reported":1719288591,"current_range_meters":17600,"station_id":"ce4bgl92rcd13ifvqbq0","pricing_plan_id":"cebpf4jnsgd1na2vs0mg"},{"bike_id":"5cad7803-07be-48e1-8a32-02727020d54e","system_id":"levelo_inurba_marseille","lat":43.314811,"lon":5.373103,"is_reserved":false,"is_disabled":false,"rental_uris":{"android":"levelo://app?vid=5cad7803-07be-48e1-8a32-02727020d54e","ios":"levelo://app?vid=5cad7803-07be-48e1-8a32-02727020d54e"},"vehicle_type_id":"4","last_reported":1719288591,"current_range_meters":31200,"station_id":"ce4bgt12rcd13ifvqcd0","pricing_plan_id":"cebpf4jnsgd1na2vs0mg"},{"bike_id":"392845c5-57b0-4e61-8040-65fb292c0607","system_id":"levelo_inurba_marseille","lat":43.314811,"lon":5.373103,"is_reserved":false,"is_disabled":false,"rental_uris":{"android":"levelo://app?vid=392845c5-57b0-4e61-8040-65fb292c0607","ios":"levelo://app?vid=392845c5-57b0-4e61-8040-65fb292c0607"},"vehicle_type_id":"4","last_reported":1719288591,"current_range_meters":4000,"station_id":"ce4bgt12rcd13ifvqcd0","pricing_plan_id":"cebpf4jnsgd1na2vs0mg"},{"bike_id":"25d6653b-57ec-4898-83f2-a160a9a9bfe1","system_id":"levelo_inurba_marseille","lat":43.314811,"lon":5.373104,"is_reserved":false,"is_disabled":false,"rental_uris":{"android":"levelo://app?vid=25d6653b-57ec-4898-83f2-a160a9a9bfe1","ios":"levelo://app?vid=25d6653b-57ec-4898-83f2-a160a9a9bfe1"},"vehicle_type_id":"4","last_reported":1719288591,"current_range_meters":31200,"station_id":"ce4bgt12rcd13ifvqcd0","pricing_plan_id":"cebpf4jnsgd1na2vs0mg"},{"bike_id":"263e117e-2b6a-40d4-ac6d-26559c09a0c1","system_id":"levelo_inurba_marseille","lat":43.314811,"lon":5.373104,"is_reserved":false,"is_disabled":false,"rental_uris":{"android":"levelo://app?vid=263e117e-2b6a-40d4-ac6d-26559c09a0c1","ios":"levelo://app?vid=263e117e-2b6a-40d4-ac6d-26559c09a0c1"},"vehicle_type_id":"4","last_reported":1719288591,"current_range_meters":31200,"station_id":"ce4bgt12rcd13ifvqcd0","pricing_plan_id":"cebpf4jnsgd1na2vs0mg"},{"bike_id":"52973603-5c80-4d72-97fd-0244141a1c38","system_id":"levelo_inurba_marseille","lat":43.314811,"lon":5.373103,"is_reserved":false,"is_disabled":false,"rental_uris":{"android":"levelo://app?vid=52973603-5c80-4d72-97fd-0244141a1c38","ios":"levelo://app?vid=52973603-5c80-4d72-97fd-0244141a1c38"},"vehicle_type_id":"4","last_reported":1719288591,"current_range_meters":24800,"station_id":"ce4bgt12rcd13ifvqcd0","pricing_plan_id":"cebpf4jnsgd1na2vs0mg"},{"bike_id":"3e6229a9-daa1-4e8e-b7ec-60b28f97252f","system_id":"levelo_inurba_marseille","lat":43.31452,"lon":5.373706,"is_reserved":false,"is_disabled":false,"rental_uris":{"android":"levelo://app?vid=3e6229a9-daa1-4e8e-b7ec-60b28f97252f","ios":"levelo://app?vid=3e6229a9-daa1-4e8e-b7ec-60b28f97252f"},"vehicle_type_id":"4","last_reported":1719288591,"current_range_meters":400,"station_id":"ce4bgt12rcd13ifvqcd0","pricing_plan_id":"cebpf4jnsgd1na2vs0mg"},{"bike_id":"77460ccb-960a-4153-8783-e0a172f31a95","system_id":"levelo_inurba_marseille","lat":43.314513,"lon":5.373723,"is_reserved":false,"is_disabled":false,"rental_uris":{"android":"levelo://app?vid=77460ccb-960a-4153-8783-e0a172f31a95","ios":"levelo://app?vid=77460ccb-960a-4153-8783-e0a172f31a95"},"vehicle_type_id":"4","last_reported":1719288591,"current_range_meters":4000,"station_id":"","pricing_plan_id":"cebpf4jnsgd1na2vs0mg"},{"bike_id":"8d109b7f-87a6-471d-9d7d-a87d59998946","system_id":"levelo_inurba_marseille","lat":43.309039,"lon":5.371797,"is_reserved":false,"is_disabled":false,"rental_uris":{"android":"levelo://app?vid=8d109b7f-87a6-471d-9d7d-a87d59998946","ios":"levelo://app?vid=8d109b7f-87a6-471d-9d7d-a87d59998946"},"vehicle_type_id":"4","last_reported":1719288591,"current_range_meters":28400,"station_id":"ce4bguh2rcd13ifvqckg","pricing_plan_id":"cebpf4jnsgd1na2vs0mg"},{"bike_id":"a790c840-8dae-4249-b699-67b70a990aba","system_id":"levelo_inurba_marseille","lat":43.30537,"lon":5.367345,"is_reserved":false,"is_disabled":false,"rental_uris":{"android":"levelo://app?vid=a790c840-8dae-4249-b699-67b70a990aba","ios":"levelo://app?vid=a790c840-8dae-4249-b699-67b70a990aba"},"vehicle_type_id":"4","last_reported":1719288591,"current_range_meters":28400,"station_id":"ce4bgrp2rcd13ifvqc9g","pricing_plan_id":"cebpf4jnsgd1na2vs0mg"},{"bike_id":"16e5a54d-e26b-4a04-803e-bbf7e35ff33c","system_id":"levelo_inurba_marseille","lat":43.305706,"lon":5.365654,"is_reserved":false,"is_disabled":false,"rental_uris":{"android":"levelo://app?vid=16e5a54d-e26b-4a04-803e-bbf7e35ff33c","ios":"levelo://app?vid=16e5a54d-e26b-4a04-803e-bbf7e35ff33c"},"vehicle_type_id":"4","last_reported":1719288591,"current_range_meters":23600,"station_id":"ce4bgs12rcd13ifvqcag","pricing_plan_id":"cebpf4jnsgd1na2vs0mg"},{"bike_id":"4f9b4749-8f37-43ae-9df1-0ec7cc3b89e6","system_id":"levelo_inurba_marseille","lat":43.305276,"lon":5.365829,"is_reserved":false,"is_disabled":false,"rental_uris":{"android":"levelo://app?vid=4f9b4749-8f37-43ae-9df1-0ec7cc3b89e6","ios":"levelo://app?vid=4f9b4749-8f37-43ae-9df1-0ec7cc3b89e6"},"vehicle_type_id":"4","last_reported":1719288591,"current_range_meters":29200,"station_id":"","pricing_plan_id":"cebpf4jnsgd1na2vs0mg"},{"bike_id":"da62ec32-6889-4f8f-8ee3-c5f2db02112d","system_id":"levelo_inurba_marseille","lat":43.30537,"lon":5.367345,"is_reserved":false,"is_disabled":false,"rental_uris":{"android":"levelo://app?vid=da62ec32-6889-4f8f-8ee3-c5f2db02112d","ios":"levelo://app?vid=da62ec32-6889-4f8f-8ee3-c5f2db02112d"},"vehicle_type_id":"4","last_reported":1719288591,"current_range_meters":28400,"station_id":"ce4bgrp2rcd13ifvqc9g","pricing_plan_id":"cebpf4jnsgd1na2vs0mg"},{"bike_id":"87eb6818-8432-44c9-95dc-eafec0e456f8","system_id":"levelo_inurba_marseille","lat":43.305989,"lon":5.37225,"is_reserved":false,"is_disabled":false,"rental_uris":{"android":"levelo://app?vid=87eb6818-8432-44c9-95dc-eafec0e456f8","ios":"levelo://app?vid=87eb6818-8432-44c9-95dc-eafec0e456f8"},"vehicle_type_id":"4","last_reported":1719288591,"current_range_meters":30400,"station_id":"ce4bgqh2rcd13ifvqc4g","pricing_plan_id":"cebpf4jnsgd1na2vs0mg"},{"bike_id":"841d6fa2-7e21-45f1-882d-64928e4c7651","system_id":"levelo_inurba_marseille","lat":43.311125,"lon":5.377624,"is_reserved":false,"is_disabled":false,"rental_uris":{"android":"levelo://app?vid=841d6fa2-7e21-45f1-882d-64928e4c7651","ios":"levelo://app?vid=841d6fa2-7e21-45f1-882d-64928e4c7651"},"vehicle_type_id":"4","last_reported":1719288591,"current_range_meters":30400,"station_id":"ce4bgt92rcd13ifvqcg0","pricing_plan_id":"cebpf4jnsgd1na2vs0mg"},{"bike_id":"f5fcacb6-797c-458a-842c-2407c72b0259","system_id":"levelo_inurba_marseille","lat":43.31121,"lon":5.3776,"is_reserved":false,"is_disabled":false,"rental_uris":{"android":"levelo://app?vid=f5fcacb6-797c-458a-842c-2407c72b0259","ios":"levelo://app?vid=f5fcacb6-797c-458a-842c-2407c72b0259"},"vehicle_type_id":"4","last_reported":1719288591,"current_range_meters":8400,"station_id":"ce4bgt92rcd13ifvqcg0","pricing_plan_id":"cebpf4jnsgd1na2vs0mg"},{"bike_id":"4cc75e21-d246-4d61-802d-a355e8054b9a","system_id":"levelo_inurba_marseille","lat":43.311125,"lon":5.377624,"is_reserved":false,"is_disabled":false,"rental_uris":{"android":"levelo://app?vid=4cc75e21-d246-4d61-802d-a355e8054b9a","ios":"levelo://app?vid=4cc75e21-d246-4d61-802d-a355e8054b9a"},"vehicle_type_id":"4","last_reported":1719288591,"current_range_meters":12400,"station_id":"ce4bgt92rcd13ifvqcg0","pricing_plan_id":"cebpf4jnsgd1na2vs0mg"},{"bike_id":"c44c4c2d-4622-4108-9501-c9ad23943278","system_id":"levelo_inurba_marseille","lat":43.311125,"lon":5.377624,"is_reserved":false,"is_disabled":false,"rental_uris":{"android":"levelo://app?vid=c44c4c2d-4622-4108-9501-c9ad23943278","ios":"levelo://app?vid=c44c4c2d-4622-4108-9501-c9ad23943278"},"vehicle_type_id":"4","last_reported":1719288591,"current_range_meters":28800,"station_id":"ce4bgt92rcd13ifvqcg0","pricing_plan_id":"cebpf4jnsgd1na2vs0mg"},{"bike_id":"665a0a33-bef3-4699-924b-d5fdb399e5e7","system_id":"levelo_inurba_marseille","lat":43.311125,"lon":5.377624,"is_reserved":false,"is_disabled":false,"rental_uris":{"android":"levelo://app?vid=665a0a33-bef3-4699-924b-d5fdb399e5e7","ios":"levelo://app?vid=665a0a33-bef3-4699-924b-d5fdb399e5e7"},"vehicle_type_id":"4","last_reported":1719288591,"current_range_meters":18400,"station_id":"ce4bgt92rcd13ifvqcg0","pricing_plan_id":"cebpf4jnsgd1na2vs0mg"},{"bike_id":"b69664e2-6fdc-42d0-a8a2-48aed94e916e","system_id":"levelo_inurba_marseille","lat":43.311125,"lon":5.377624,"is_reserved":false,"is_disabled":false,"rental_uris":{"android":"levelo://app?vid=b69664e2-6fdc-42d0-a8a2-48aed94e916e","ios":"levelo://app?vid=b69664e2-6fdc-42d0-a8a2-48aed94e916e"},"vehicle_type_id":"4","last_reported":1719288591,"current_range_meters":14800,"station_id":"ce4bgt92rcd13ifvqcg0","pricing_plan_id":"cebpf4jnsgd1na2vs0mg"},{"bike_id":"02187124-663b-4495-969e-1c8b76d9e976","system_id":"levelo_inurba_marseille","lat":43.311177,"lon":5.377663,"is_reserved":false,"is_disabled":false,"rental_uris":{"android":"levelo://app?vid=02187124-663b-4495-969e-1c8b76d9e976","ios":"levelo://app?vid=02187124-663b-4495-969e-1c8b76d9e976"},"vehicle_type_id":"4","last_reported":1719288591,"current_range_meters":31200,"station_id":"ce4bgt92rcd13ifvqcg0","pricing_plan_id":"cebpf4jnsgd1na2vs0mg"},{"bike_id":"deda7612-fb7d-4969-8af5-f3e8a04ce061","system_id":"levelo_inurba_marseille","lat":43.311176,"lon":5.377664,"is_reserved":false,"is_disabled":false,"rental_uris":{"android":"levelo://app?vid=deda7612-fb7d-4969-8af5-f3e8a04ce061","ios":"levelo://app?vid=deda7612-fb7d-4969-8af5-f3e8a04ce061"},"vehicle_type_id":"4","last_reported":1719288591,"current_range_meters":30800,"station_id":"ce4bgt92rcd13ifvqcg0","pricing_plan_id":"cebpf4jnsgd1na2vs0mg"},{"bike_id":"26acc743-e792-42d4-8fda-82933ae2a807","system_id":"levelo_inurba_marseille","lat":43.31119,"lon":5.377718,"is_reserved":false,"is_disabled":false,"rental_uris":{"android":"levelo://app?vid=26acc743-e792-42d4-8fda-82933ae2a807","ios":"levelo://app?vid=26acc743-e792-42d4-8fda-82933ae2a807"},"vehicle_type_id":"4","last_reported":1719288591,"current_range_meters":17200,"station_id":"ce4bgt92rcd13ifvqcg0","pricing_plan_id":"cebpf4jnsgd1na2vs0mg"},{"bike_id":"b19d89b2-9da8-4095-ad23-94c35a0c9c8e","system_id":"levelo_inurba_marseille","lat":43.311206,"lon":5.377739,"is_reserved":false,"is_disabled":false,"rental_uris":{"android":"levelo://app?vid=b19d89b2-9da8-4095-ad23-94c35a0c9c8e","ios":"levelo://app?vid=b19d89b2-9da8-4095-ad23-94c35a0c9c8e"},"vehicle_type_id":"4","last_reported":1719288591,"current_range_meters":0,"station_id":"ce4bgt92rcd13ifvqcg0","pricing_plan_id":"cebpf4jnsgd1na2vs0mg"},{"bike_id":"2b38dfa3-4eb8-4d42-b4ae-b18e7777e198","system_id":"levelo_inurba_marseille","lat":43.311127,"lon":5.377794,"is_reserved":false,"is_disabled":false,"rental_uris":{"android":"levelo://app?vid=2b38dfa3-4eb8-4d42-b4ae-b18e7777e198","ios":"levelo://app?vid=2b38dfa3-4eb8-4d42-b4ae-b18e7777e198"},"vehicle_type_id":"4","last_reported":1719288591,"current_range_meters":19600,"station_id":"ce4bgt92rcd13ifvqcg0","pricing_plan_id":"cebpf4jnsgd1na2vs0mg"},{"bike_id":"8734f43c-9b5a-4a43-ba05-8479b8729606","system_id":"levelo_inurba_marseille","lat":43.311131,"lon":5.377651,"is_reserved":false,"is_disabled":false,"rental_uris":{"android":"levelo://app?vid=8734f43c-9b5a-4a43-ba05-8479b8729606","ios":"levelo://app?vid=8734f43c-9b5a-4a43-ba05-8479b8729606"},"vehicle_type_id":"4","last_reported":1719288591,"current_range_meters":30800,"station_id":"ce4bgt92rcd13ifvqcg0","pricing_plan_id":"cebpf4jnsgd1na2vs0mg"},{"bike_id":"0fa8b2a7-9d2a-4c2e-b565-8b4be86cfd5f","system_id":"levelo_inurba_marseille","lat":43.307945,"lon":5.376487,"is_reserved":false,"is_disabled":false,"rental_uris":{"android":"levelo://app?vid=0fa8b2a7-9d2a-4c2e-b565-8b4be86cfd5f","ios":"levelo://app?vid=0fa8b2a7-9d2a-4c2e-b565-8b4be86cfd5f"},"vehicle_type_id":"4","last_reported":1719288591,"current_range_meters":29600,"station_id":"ce4bgv92rcd13ifvqcq0","pricing_plan_id":"cebpf4jnsgd1na2vs0mg"},{"bike_id":"2e643961-6f7f-4530-ba81-441d2ce3df07","system_id":"levelo_inurba_marseille","lat":43.307945,"lon":5.376487,"is_reserved":false,"is_disabled":false,"rental_uris":{"android":"levelo://app?vid=2e643961-6f7f-4530-ba81-441d2ce3df07","ios":"levelo://app?vid=2e643961-6f7f-4530-ba81-441d2ce3df07"},"vehicle_type_id":"4","last_reported":1719288591,"current_range_meters":31200,"station_id":"ce4bgv92rcd13ifvqcq0","pricing_plan_id":"cebpf4jnsgd1na2vs0mg"},{"bike_id":"a43e143e-faad-4c35-9edc-f68f7257b867","system_id":"levelo_inurba_marseille","lat":43.317075,"lon":5.377367,"is_reserved":false,"is_disabled":false,"rental_uris":{"android":"levelo://app?vid=a43e143e-faad-4c35-9edc-f68f7257b867","ios":"levelo://app?vid=a43e143e-faad-4c35-9edc-f68f7257b867"},"vehicle_type_id":"4","last_reported":1719288591,"current_range_meters":30400,"station_id":"ce4bgth2rcd13ifvqch0","pricing_plan_id":"cebpf4jnsgd1na2vs0mg"},{"bike_id":"54798c49-c9c8-4bf0-8d01-7e9208ef9a20","system_id":"levelo_inurba_marseille","lat":43.317075,"lon":5.377367,"is_reserved":false,"is_disabled":false,"rental_uris":{"android":"levelo://app?vid=54798c49-c9c8-4bf0-8d01-7e9208ef9a20","ios":"levelo://app?vid=54798c49-c9c8-4bf0-8d01-7e9208ef9a20"},"vehicle_type_id":"4","last_reported":1719288591,"current_range_meters":23600,"station_id":"ce4bgth2rcd13ifvqch0","pricing_plan_id":"cebpf4jnsgd1na2vs0mg"},{"bike_id":"61420c38-11ac-4bf0-9b0b-393b5e8ef401","system_id":"levelo_inurba_marseille","lat":43.317075,"lon":5.377367,"is_reserved":false,"is_disabled":false,"rental_uris":{"android":"levelo://app?vid=61420c38-11ac-4bf0-9b0b-393b5e8ef401","ios":"levelo://app?vid=61420c38-11ac-4bf0-9b0b-393b5e8ef401"},"vehicle_type_id":"4","last_reported":1719288591,"current_range_meters":28000,"station_id":"ce4bgth2rcd13ifvqch0","pricing_plan_id":"cebpf4jnsgd1na2vs0mg"},{"bike_id":"b59ce81b-7e8e-409a-934f-dc2131fe2dc2","system_id":"levelo_inurba_marseille","lat":43.315289,"lon":5.380349,"is_reserved":false,"is_disabled":false,"rental_uris":{"android":"levelo://app?vid=b59ce81b-7e8e-409a-934f-dc2131fe2dc2","ios":"levelo://app?vid=b59ce81b-7e8e-409a-934f-dc2131fe2dc2"},"vehicle_type_id":"4","last_reported":1719288591,"current_range_meters":25200,"station_id":"ce4bhsp2rcd13ifvqi50","pricing_plan_id":"cebpf4jnsgd1na2vs0mg"},{"bike_id":"21c21597-dd48-4873-8559-37b75edca0ef","system_id":"levelo_inurba_marseille","lat":43.315289,"lon":5.380349,"is_reserved":false,"is_disabled":false,"rental_uris":{"android":"levelo://app?vid=21c21597-dd48-4873-8559-37b75edca0ef","ios":"levelo://app?vid=21c21597-dd48-4873-8559-37b75edca0ef"},"vehicle_type_id":"4","last_reported":1719288591,"current_range_meters":27200,"station_id":"ce4bhsp2rcd13ifvqi50","pricing_plan_id":"cebpf4jnsgd1na2vs0mg"},{"bike_id":"8374bb75-12c2-469f-bc11-17b788e5a3f2","system_id":"levelo_inurba_marseille","lat":43.301939,"lon":5.366286,"is_reserved":false,"is_disabled":false,"rental_uris":{"android":"levelo://app?vid=8374bb75-12c2-469f-bc11-17b788e5a3f2","ios":"levelo://app?vid=8374bb75-12c2-469f-bc11-17b788e5a3f2"},"vehicle_type_id":"4","last_reported":1719288591,"current_range_meters":21200,"station_id":"ce4bgrh2rcd13ifvqc8g","pricing_plan_id":"cebpf4jnsgd1na2vs0mg"},{"bike_id":"01b4bc8a-e9cd-4a80-978c-94d685773403","system_id":"levelo_inurba_marseille","lat":43.301939,"lon":5.366286,"is_reserved":false,"is_disabled":false,"rental_uris":{"android":"levelo://app?vid=01b4bc8a-e9cd-4a80-978c-94d685773403","ios":"levelo://app?vid=01b4bc8a-e9cd-4a80-978c-94d685773403"},"vehicle_type_id":"4","last_reported":1719288591,"current_range_meters":28400,"station_id":"ce4bgrh2rcd13ifvqc8g","pricing_plan_id":"cebpf4jnsgd1na2vs0mg"},{"bike_id":"237a15bb-559f-438e-aba5-eb312735ec3f","system_id":"levelo_inurba_marseille","lat":43.308012,"lon":5.381511,"is_reserved":false,"is_disabled":false,"rental_uris":{"android":"levelo://app?vid=237a15bb-559f-438e-aba5-eb312735ec3f","ios":"levelo://app?vid=237a15bb-559f-438e-aba5-eb312735ec3f"},"vehicle_type_id":"4","last_reported":1719288591,"current_range_meters":28000,"station_id":"ce4bgt12rcd13ifvqce0","pricing_plan_id":"cebpf4jnsgd1na2vs0mg"},{"bike_id":"c0f4cd64-a4bd-4a18-bce7-3d6369aec1a0","system_id":"levelo_inurba_marseille","lat":43.308012,"lon":5.381511,"is_reserved":false,"is_disabled":false,"rental_uris":{"android":"levelo://app?vid=c0f4cd64-a4bd-4a18-bce7-3d6369aec1a0","ios":"levelo://app?vid=c0f4cd64-a4bd-4a18-bce7-3d6369aec1a0"},"vehicle_type_id":"4","last_reported":1719288591,"current_range_meters":18400,"station_id":"ce4bgt12rcd13ifvqce0","pricing_plan_id":"cebpf4jnsgd1na2vs0mg"},{"bike_id":"706ce198-56d6-4a0a-8f7a-4f232fd69b93","system_id":"levelo_inurba_marseille","lat":43.308012,"lon":5.381511,"is_reserved":false,"is_disabled":false,"rental_uris":{"android":"levelo://app?vid=706ce198-56d6-4a0a-8f7a-4f232fd69b93","ios":"levelo://app?vid=706ce198-56d6-4a0a-8f7a-4f232fd69b93"},"vehicle_type_id":"4","last_reported":1719288591,"current_range_meters":16800,"station_id":"ce4bgt12rcd13ifvqce0","pricing_plan_id":"cebpf4jnsgd1na2vs0mg"},{"bike_id":"754b75d5-44f2-48fc-8b13-8a3cdcb27dde","system_id":"levelo_inurba_marseille","lat":43.308012,"lon":5.381511,"is_reserved":false,"is_disabled":false,"rental_uris":{"android":"levelo://app?vid=754b75d5-44f2-48fc-8b13-8a3cdcb27dde","ios":"levelo://app?vid=754b75d5-44f2-48fc-8b13-8a3cdcb27dde"},"vehicle_type_id":"4","last_reported":1719288591,"current_range_meters":23600,"station_id":"ce4bgt12rcd13ifvqce0","pricing_plan_id":"cebpf4jnsgd1na2vs0mg"},{"bike_id":"63164450-63a9-4d96-9550-15ca33acf065","system_id":"levelo_inurba_marseille","lat":43.308012,"lon":5.381511,"is_reserved":false,"is_disabled":false,"rental_uris":{"android":"levelo://app?vid=63164450-63a9-4d96-9550-15ca33acf065","ios":"levelo://app?vid=63164450-63a9-4d96-9550-15ca33acf065"},"vehicle_type_id":"4","last_reported":1719288591,"current_range_meters":16800,"station_id":"ce4bgt12rcd13ifvqce0","pricing_plan_id":"cebpf4jnsgd1na2vs0mg"},{"bike_id":"08bad828-9e2e-436f-90d9-5ebfcbd99325","system_id":"levelo_inurba_marseille","lat":43.308012,"lon":5.381511,"is_reserved":false,"is_disabled":false,"rental_uris":{"android":"levelo://app?vid=08bad828-9e2e-436f-90d9-5ebfcbd99325","ios":"levelo://app?vid=08bad828-9e2e-436f-90d9-5ebfcbd99325"},"vehicle_type_id":"4","last_reported":1719288591,"current_range_meters":9600,"station_id":"ce4bgt12rcd13ifvqce0","pricing_plan_id":"cebpf4jnsgd1na2vs0mg"},{"bike_id":"5a27c9b3-f83a-4481-b57d-a01db13d88fb","system_id":"levelo_inurba_marseille","lat":43.308012,"lon":5.381511,"is_reserved":false,"is_disabled":false,"rental_uris":{"android":"levelo://app?vid=5a27c9b3-f83a-4481-b57d-a01db13d88fb","ios":"levelo://app?vid=5a27c9b3-f83a-4481-b57d-a01db13d88fb"},"vehicle_type_id":"4","last_reported":1719288591,"current_range_meters":31200,"station_id":"ce4bgt12rcd13ifvqce0","pricing_plan_id":"cebpf4jnsgd1na2vs0mg"},{"bike_id":"af74b28a-7c4f-4115-a274-98158d5ea1e2","system_id":"levelo_inurba_marseille","lat":43.308012,"lon":5.381511,"is_reserved":false,"is_disabled":false,"rental_uris":{"android":"levelo://app?vid=af74b28a-7c4f-4115-a274-98158d5ea1e2","ios":"levelo://app?vid=af74b28a-7c4f-4115-a274-98158d5ea1e2"},"vehicle_type_id":"4","last_reported":1719288591,"current_range_meters":31200,"station_id":"ce4bgt12rcd13ifvqce0","pricing_plan_id":"cebpf4jnsgd1na2vs0mg"},{"bike_id":"b2f2b28f-20e8-491c-9df6-d5b489a80c93","system_id":"levelo_inurba_marseille","lat":43.308012,"lon":5.381511,"is_reserved":false,"is_disabled":false,"rental_uris":{"android":"levelo://app?vid=b2f2b28f-20e8-491c-9df6-d5b489a80c93","ios":"levelo://app?vid=b2f2b28f-20e8-491c-9df6-d5b489a80c93"},"vehicle_type_id":"4","last_reported":1719288591,"current_range_meters":18400,"station_id":"ce4bgt12rcd13ifvqce0","pricing_plan_id":"cebpf4jnsgd1na2vs0mg"},{"bike_id":"19e88a11-7f06-473a-9828-db5dfbed3a16","system_id":"levelo_inurba_marseille","lat":43.308012,"lon":5.381511,"is_reserved":false,"is_disabled":false,"rental_uris":{"android":"levelo://app?vid=19e88a11-7f06-473a-9828-db5dfbed3a16","ios":"levelo://app?vid=19e88a11-7f06-473a-9828-db5dfbed3a16"},"vehicle_type_id":"4","last_reported":1719288591,"current_range_meters":22800,"station_id":"ce4bgt12rcd13ifvqce0","pricing_plan_id":"cebpf4jnsgd1na2vs0mg"},{"bike_id":"8e67ec81-a587-44ae-9128-f75081fad12a","system_id":"levelo_inurba_marseille","lat":43.308012,"lon":5.381511,"is_reserved":false,"is_disabled":false,"rental_uris":{"android":"levelo://app?vid=8e67ec81-a587-44ae-9128-f75081fad12a","ios":"levelo://app?vid=8e67ec81-a587-44ae-9128-f75081fad12a"},"vehicle_type_id":"4","last_reported":1719288591,"current_range_meters":23600,"station_id":"ce4bgt12rcd13ifvqce0","pricing_plan_id":"cebpf4jnsgd1na2vs0mg"},{"bike_id":"8a010712-3de1-4e02-81fd-1f022ef7f73e","system_id":"levelo_inurba_marseille","lat":43.308012,"lon":5.381511,"is_reserved":false,"is_disabled":false,"rental_uris":{"android":"levelo://app?vid=8a010712-3de1-4e02-81fd-1f022ef7f73e","ios":"levelo://app?vid=8a010712-3de1-4e02-81fd-1f022ef7f73e"},"vehicle_type_id":"4","last_reported":1719288591,"current_range_meters":23600,"station_id":"ce4bgt12rcd13ifvqce0","pricing_plan_id":"cebpf4jnsgd1na2vs0mg"},{"bike_id":"da943e6d-aa53-444d-9a39-5709ec559f21","system_id":"levelo_inurba_marseille","lat":43.308012,"lon":5.381511,"is_reserved":false,"is_disabled":false,"rental_uris":{"android":"levelo://app?vid=da943e6d-aa53-444d-9a39-5709ec559f21","ios":"levelo://app?vid=da943e6d-aa53-444d-9a39-5709ec559f21"},"vehicle_type_id":"4","last_reported":1719288591,"current_range_meters":8000,"station_id":"ce4bgt12rcd13ifvqce0","pricing_plan_id":"cebpf4jnsgd1na2vs0mg"},{"bike_id":"e8c64ec9-1684-4989-8ad7-2385e5f48459","system_id":"levelo_inurba_marseille","lat":43.308012,"lon":5.381511,"is_reserved":false,"is_disabled":false,"rental_uris":{"android":"levelo://app?vid=e8c64ec9-1684-4989-8ad7-2385e5f48459","ios":"levelo://app?vid=e8c64ec9-1684-4989-8ad7-2385e5f48459"},"vehicle_type_id":"4","last_reported":1719288591,"current_range_meters":10800,"station_id":"ce4bgt12rcd13ifvqce0","pricing_plan_id":"cebpf4jnsgd1na2vs0mg"},{"bike_id":"6571a219-c2f7-4898-8500-c2e988c89445","system_id":"levelo_inurba_marseille","lat":43.308012,"lon":5.381511,"is_reserved":false,"is_disabled":false,"rental_uris":{"android":"levelo://app?vid=6571a219-c2f7-4898-8500-c2e988c89445","ios":"levelo://app?vid=6571a219-c2f7-4898-8500-c2e988c89445"},"vehicle_type_id":"4","last_reported":1719288591,"current_range_meters":12000,"station_id":"ce4bgt12rcd13ifvqce0","pricing_plan_id":"cebpf4jnsgd1na2vs0mg"},{"bike_id":"54efe93d-a779-4534-81e9-9b100d3ec4ac","system_id":"levelo_inurba_marseille","lat":43.304606,"lon":5.379026,"is_reserved":false,"is_disabled":false,"rental_uris":{"android":"levelo://app?vid=54efe93d-a779-4534-81e9-9b100d3ec4ac","ios":"levelo://app?vid=54efe93d-a779-4534-81e9-9b100d3ec4ac"},"vehicle_type_id":"4","last_reported":1719288591,"current_range_meters":5200,"station_id":"ce4bgup2rcd13ifvqcn0","pricing_plan_id":"cebpf4jnsgd1na2vs0mg"},{"bike_id":"21b4898b-9344-4d6e-bc32-2f8219acfcf1","system_id":"levelo_inurba_marseille","lat":43.304606,"lon":5.379026,"is_reserved":false,"is_disabled":false,"rental_uris":{"android":"levelo://app?vid=21b4898b-9344-4d6e-bc32-2f8219acfcf1","ios":"levelo://app?vid=21b4898b-9344-4d6e-bc32-2f8219acfcf1"},"vehicle_type_id":"4","last_reported":1719288591,"current_range_meters":12000,"station_id":"ce4bgup2rcd13ifvqcn0","pricing_plan_id":"cebpf4jnsgd1na2vs0mg"},{"bike_id":"5caa60bc-ab4e-43c7-8f0b-dd2ddbc05f61","system_id":"levelo_inurba_marseille","lat":43.304606,"lon":5.379026,"is_reserved":false,"is_disabled":false,"rental_uris":{"android":"levelo://app?vid=5caa60bc-ab4e-43c7-8f0b-dd2ddbc05f61","ios":"levelo://app?vid=5caa60bc-ab4e-43c7-8f0b-dd2ddbc05f61"},"vehicle_type_id":"4","last_reported":1719288591,"current_range_meters":16000,"station_id":"ce4bgup2rcd13ifvqcn0","pricing_plan_id":"cebpf4jnsgd1na2vs0mg"},{"bike_id":"8dd67dd0-0d14-481c-bfb7-c8af18eb8b7d","system_id":"levelo_inurba_marseille","lat":43.304606,"lon":5.379026,"is_reserved":false,"is_disabled":false,"rental_uris":{"android":"levelo://app?vid=8dd67dd0-0d14-481c-bfb7-c8af18eb8b7d","ios":"levelo://app?vid=8dd67dd0-0d14-481c-bfb7-c8af18eb8b7d"},"vehicle_type_id":"4","last_reported":1719288591,"current_range_meters":12000,"station_id":"ce4bgup2rcd13ifvqcn0","pricing_plan_id":"cebpf4jnsgd1na2vs0mg"},{"bike_id":"366a8611-c833-4f4c-a8e0-911ce38c03cc","system_id":"levelo_inurba_marseille","lat":43.304606,"lon":5.379026,"is_reserved":false,"is_disabled":false,"rental_uris":{"android":"levelo://app?vid=366a8611-c833-4f4c-a8e0-911ce38c03cc","ios":"levelo://app?vid=366a8611-c833-4f4c-a8e0-911ce38c03cc"},"vehicle_type_id":"4","last_reported":1719288591,"current_range_meters":11600,"station_id":"ce4bgup2rcd13ifvqcn0","pricing_plan_id":"cebpf4jnsgd1na2vs0mg"},{"bike_id":"44da92f8-9c00-4b87-9f9e-f0c6274e298c","system_id":"levelo_inurba_marseille","lat":43.304606,"lon":5.379026,"is_reserved":false,"is_disabled":false,"rental_uris":{"android":"levelo://app?vid=44da92f8-9c00-4b87-9f9e-f0c6274e298c","ios":"levelo://app?vid=44da92f8-9c00-4b87-9f9e-f0c6274e298c"},"vehicle_type_id":"4","last_reported":1719288591,"current_range_meters":6800,"station_id":"ce4bgup2rcd13ifvqcn0","pricing_plan_id":"cebpf4jnsgd1na2vs0mg"},{"bike_id":"98b16dc9-d630-47f3-b8a2-02f564010c62","system_id":"levelo_inurba_marseille","lat":43.30464,"lon":5.379,"is_reserved":false,"is_disabled":false,"rental_uris":{"android":"levelo://app?vid=98b16dc9-d630-47f3-b8a2-02f564010c62","ios":"levelo://app?vid=98b16dc9-d630-47f3-b8a2-02f564010c62"},"vehicle_type_id":"4","last_reported":1719288591,"current_range_meters":25200,"station_id":"ce4bgup2rcd13ifvqcn0","pricing_plan_id":"cebpf4jnsgd1na2vs0mg"},{"bike_id":"5476894f-b879-45d8-ba9c-4a54de77f9a9","system_id":"levelo_inurba_marseille","lat":43.304606,"lon":5.379026,"is_reserved":false,"is_disabled":false,"rental_uris":{"android":"levelo://app?vid=5476894f-b879-45d8-ba9c-4a54de77f9a9","ios":"levelo://app?vid=5476894f-b879-45d8-ba9c-4a54de77f9a9"},"vehicle_type_id":"4","last_reported":1719288591,"current_range_meters":30800,"station_id":"ce4bgup2rcd13ifvqcn0","pricing_plan_id":"cebpf4jnsgd1na2vs0mg"},{"bike_id":"ede0a6b6-8cff-4c7a-82ce-777519c3c045","system_id":"levelo_inurba_marseille","lat":43.304606,"lon":5.379026,"is_reserved":false,"is_disabled":false,"rental_uris":{"android":"levelo://app?vid=ede0a6b6-8cff-4c7a-82ce-777519c3c045","ios":"levelo://app?vid=ede0a6b6-8cff-4c7a-82ce-777519c3c045"},"vehicle_type_id":"4","last_reported":1719288591,"current_range_meters":31200,"station_id":"ce4bgup2rcd13ifvqcn0","pricing_plan_id":"cebpf4jnsgd1na2vs0mg"},{"bike_id":"74e47b01-98d5-4a5a-a5b9-9413bc48c54a","system_id":"levelo_inurba_marseille","lat":43.304606,"lon":5.379026,"is_reserved":false,"is_disabled":false,"rental_uris":{"android":"levelo://app?vid=74e47b01-98d5-4a5a-a5b9-9413bc48c54a","ios":"levelo://app?vid=74e47b01-98d5-4a5a-a5b9-9413bc48c54a"},"vehicle_type_id":"4","last_reported":1719288591,"current_range_meters":16400,"station_id":"ce4bgup2rcd13ifvqcn0","pricing_plan_id":"cebpf4jnsgd1na2vs0mg"},{"bike_id":"fa9123b2-c713-4596-8e2c-33b7e85fe5db","system_id":"levelo_inurba_marseille","lat":43.304606,"lon":5.379026,"is_reserved":false,"is_disabled":false,"rental_uris":{"android":"levelo://app?vid=fa9123b2-c713-4596-8e2c-33b7e85fe5db","ios":"levelo://app?vid=fa9123b2-c713-4596-8e2c-33b7e85fe5db"},"vehicle_type_id":"4","last_reported":1719288591,"current_range_meters":30400,"station_id":"ce4bgup2rcd13ifvqcn0","pricing_plan_id":"cebpf4jnsgd1na2vs0mg"},{"bike_id":"e6589829-1be6-4cb4-8bc1-6f08db44619c","system_id":"levelo_inurba_marseille","lat":43.304606,"lon":5.379026,"is_reserved":false,"is_disabled":false,"rental_uris":{"android":"levelo://app?vid=e6589829-1be6-4cb4-8bc1-6f08db44619c","ios":"levelo://app?vid=e6589829-1be6-4cb4-8bc1-6f08db44619c"},"vehicle_type_id":"4","last_reported":1719288591,"current_range_meters":14400,"station_id":"ce4bgup2rcd13ifvqcn0","pricing_plan_id":"cebpf4jnsgd1na2vs0mg"},{"bike_id":"9832c618-fb1e-456f-b033-281545300dd1","system_id":"levelo_inurba_marseille","lat":43.304606,"lon":5.379026,"is_reserved":false,"is_disabled":false,"rental_uris":{"android":"levelo://app?vid=9832c618-fb1e-456f-b033-281545300dd1","ios":"levelo://app?vid=9832c618-fb1e-456f-b033-281545300dd1"},"vehicle_type_id":"4","last_reported":1719288591,"current_range_meters":27200,"station_id":"ce4bgup2rcd13ifvqcn0","pricing_plan_id":"cebpf4jnsgd1na2vs0mg"},{"bike_id":"06794795-55af-4b02-b218-a88883e115f9","system_id":"levelo_inurba_marseille","lat":43.304606,"lon":5.379026,"is_reserved":false,"is_disabled":false,"rental_uris":{"android":"levelo://app?vid=06794795-55af-4b02-b218-a88883e115f9","ios":"levelo://app?vid=06794795-55af-4b02-b218-a88883e115f9"},"vehicle_type_id":"4","last_reported":1719288591,"current_range_meters":8000,"station_id":"ce4bgup2rcd13ifvqcn0","pricing_plan_id":"cebpf4jnsgd1na2vs0mg"},{"bike_id":"47d2e129-832e-43c6-a6af-fbf8a77de2be","system_id":"levelo_inurba_marseille","lat":43.30465,"lon":5.37906,"is_reserved":false,"is_disabled":false,"rental_uris":{"android":"levelo://app?vid=47d2e129-832e-43c6-a6af-fbf8a77de2be","ios":"levelo://app?vid=47d2e129-832e-43c6-a6af-fbf8a77de2be"},"vehicle_type_id":"4","last_reported":1719288591,"current_range_meters":2000,"station_id":"ce4bgup2rcd13ifvqcn0","pricing_plan_id":"cebpf4jnsgd1na2vs0mg"},{"bike_id":"0a73d1f7-4fed-47c1-ba47-e51a41d89877","system_id":"levelo_inurba_marseille","lat":43.304606,"lon":5.379026,"is_reserved":false,"is_disabled":false,"rental_uris":{"android":"levelo://app?vid=0a73d1f7-4fed-47c1-ba47-e51a41d89877","ios":"levelo://app?vid=0a73d1f7-4fed-47c1-ba47-e51a41d89877"},"vehicle_type_id":"4","last_reported":1719288591,"current_range_meters":25600,"station_id":"ce4bgup2rcd13ifvqcn0","pricing_plan_id":"cebpf4jnsgd1na2vs0mg"},{"bike_id":"2205e08d-42d3-41aa-8f1d-8fc3ed9f585a","system_id":"levelo_inurba_marseille","lat":43.304606,"lon":5.379026,"is_reserved":false,"is_disabled":false,"rental_uris":{"android":"levelo://app?vid=2205e08d-42d3-41aa-8f1d-8fc3ed9f585a","ios":"levelo://app?vid=2205e08d-42d3-41aa-8f1d-8fc3ed9f585a"},"vehicle_type_id":"4","last_reported":1719288591,"current_range_meters":15200,"station_id":"ce4bgup2rcd13ifvqcn0","pricing_plan_id":"cebpf4jnsgd1na2vs0mg"},{"bike_id":"c7f05883-59b0-4d3e-8a65-86a357b5489a","system_id":"levelo_inurba_marseille","lat":43.304606,"lon":5.379026,"is_reserved":false,"is_disabled":false,"rental_uris":{"android":"levelo://app?vid=c7f05883-59b0-4d3e-8a65-86a357b5489a","ios":"levelo://app?vid=c7f05883-59b0-4d3e-8a65-86a357b5489a"},"vehicle_type_id":"4","last_reported":1719288591,"current_range_meters":28000,"station_id":"ce4bgup2rcd13ifvqcn0","pricing_plan_id":"cebpf4jnsgd1na2vs0mg"},{"bike_id":"2ebfe4df-0c55-435f-bd4d-e545670be39f","system_id":"levelo_inurba_marseille","lat":43.304606,"lon":5.379026,"is_reserved":false,"is_disabled":false,"rental_uris":{"android":"levelo://app?vid=2ebfe4df-0c55-435f-bd4d-e545670be39f","ios":"levelo://app?vid=2ebfe4df-0c55-435f-bd4d-e545670be39f"},"vehicle_type_id":"4","last_reported":1719288591,"current_range_meters":3600,"station_id":"ce4bgup2rcd13ifvqcn0","pricing_plan_id":"cebpf4jnsgd1na2vs0mg"},{"bike_id":"938429f1-b627-4339-9087-654d0151fd2b","system_id":"levelo_inurba_marseille","lat":43.304606,"lon":5.379026,"is_reserved":false,"is_disabled":false,"rental_uris":{"android":"levelo://app?vid=938429f1-b627-4339-9087-654d0151fd2b","ios":"levelo://app?vid=938429f1-b627-4339-9087-654d0151fd2b"},"vehicle_type_id":"4","last_reported":1719288591,"current_range_meters":14000,"station_id":"ce4bgup2rcd13ifvqcn0","pricing_plan_id":"cebpf4jnsgd1na2vs0mg"},{"bike_id":"fd40fed6-c557-4f72-b471-31d5e249e606","system_id":"levelo_inurba_marseille","lat":43.304606,"lon":5.379026,"is_reserved":false,"is_disabled":false,"rental_uris":{"android":"levelo://app?vid=fd40fed6-c557-4f72-b471-31d5e249e606","ios":"levelo://app?vid=fd40fed6-c557-4f72-b471-31d5e249e606"},"vehicle_type_id":"4","last_reported":1719288591,"current_range_meters":21200,"station_id":"ce4bgup2rcd13ifvqcn0","pricing_plan_id":"cebpf4jnsgd1na2vs0mg"},{"bike_id":"72bdb6b9-9d76-4bc8-b9bb-f3d9833baaac","system_id":"levelo_inurba_marseille","lat":43.304606,"lon":5.379026,"is_reserved":false,"is_disabled":false,"rental_uris":{"android":"levelo://app?vid=72bdb6b9-9d76-4bc8-b9bb-f3d9833baaac","ios":"levelo://app?vid=72bdb6b9-9d76-4bc8-b9bb-f3d9833baaac"},"vehicle_type_id":"4","last_reported":1719288591,"current_range_meters":12800,"station_id":"ce4bgup2rcd13ifvqcn0","pricing_plan_id":"cebpf4jnsgd1na2vs0mg"},{"bike_id":"e4232c8e-fc2a-4ab5-affe-9b275c20262d","system_id":"levelo_inurba_marseille","lat":43.304606,"lon":5.379026,"is_reserved":false,"is_disabled":false,"rental_uris":{"android":"levelo://app?vid=e4232c8e-fc2a-4ab5-affe-9b275c20262d","ios":"levelo://app?vid=e4232c8e-fc2a-4ab5-affe-9b275c20262d"},"vehicle_type_id":"4","last_reported":1719288591,"current_range_meters":22800,"station_id":"ce4bgup2rcd13ifvqcn0","pricing_plan_id":"cebpf4jnsgd1na2vs0mg"},{"bike_id":"64732b45-a57f-4d8b-a7b0-22dd134da1de","system_id":"levelo_inurba_marseille","lat":43.304606,"lon":5.379026,"is_reserved":false,"is_disabled":false,"rental_uris":{"android":"levelo://app?vid=64732b45-a57f-4d8b-a7b0-22dd134da1de","ios":"levelo://app?vid=64732b45-a57f-4d8b-a7b0-22dd134da1de"},"vehicle_type_id":"4","last_reported":1719288591,"current_range_meters":23600,"station_id":"ce4bgup2rcd13ifvqcn0","pricing_plan_id":"cebpf4jnsgd1na2vs0mg"},{"bike_id":"a5b77a8a-578b-420c-8024-716400fbe330","system_id":"levelo_inurba_marseille","lat":43.304606,"lon":5.379026,"is_reserved":false,"is_disabled":false,"rental_uris":{"android":"levelo://app?vid=a5b77a8a-578b-420c-8024-716400fbe330","ios":"levelo://app?vid=a5b77a8a-578b-420c-8024-716400fbe330"},"vehicle_type_id":"4","last_reported":1719288591,"current_range_meters":22000,"station_id":"ce4bgup2rcd13ifvqcn0","pricing_plan_id":"cebpf4jnsgd1na2vs0mg"},{"bike_id":"b00aed12-ff96-4cdc-9a28-2dfb76ad7fd6","system_id":"levelo_inurba_marseille","lat":43.324771,"lon":5.36557,"is_reserved":false,"is_disabled":false,"rental_uris":{"android":"levelo://app?vid=b00aed12-ff96-4cdc-9a28-2dfb76ad7fd6","ios":"levelo://app?vid=b00aed12-ff96-4cdc-9a28-2dfb76ad7fd6"},"vehicle_type_id":"4","last_reported":1719288591,"current_range_meters":26400,"station_id":"ce4bhs12rcd13ifvqhvg","pricing_plan_id":"cebpf4jnsgd1na2vs0mg"},{"bike_id":"1fa7d650-fe44-49e4-9ffa-31c772387bdd","system_id":"levelo_inurba_marseille","lat":43.324771,"lon":5.36557,"is_reserved":false,"is_disabled":false,"rental_uris":{"android":"levelo://app?vid=1fa7d650-fe44-49e4-9ffa-31c772387bdd","ios":"levelo://app?vid=1fa7d650-fe44-49e4-9ffa-31c772387bdd"},"vehicle_type_id":"4","last_reported":1719288591,"current_range_meters":21200,"station_id":"ce4bhs12rcd13ifvqhvg","pricing_plan_id":"cebpf4jnsgd1na2vs0mg"},{"bike_id":"15992822-2bb1-46fc-a43a-68b7bf806d99","system_id":"levelo_inurba_marseille","lat":43.324771,"lon":5.36557,"is_reserved":false,"is_disabled":false,"rental_uris":{"android":"levelo://app?vid=15992822-2bb1-46fc-a43a-68b7bf806d99","ios":"levelo://app?vid=15992822-2bb1-46fc-a43a-68b7bf806d99"},"vehicle_type_id":"4","last_reported":1719288591,"current_range_meters":26400,"station_id":"ce4bhs12rcd13ifvqhvg","pricing_plan_id":"cebpf4jnsgd1na2vs0mg"},{"bike_id":"eb794116-d831-4f1d-9de5-1bd8d6cbc5e0","system_id":"levelo_inurba_marseille","lat":43.324771,"lon":5.36557,"is_reserved":false,"is_disabled":false,"rental_uris":{"android":"levelo://app?vid=eb794116-d831-4f1d-9de5-1bd8d6cbc5e0","ios":"levelo://app?vid=eb794116-d831-4f1d-9de5-1bd8d6cbc5e0"},"vehicle_type_id":"4","last_reported":1719288591,"current_range_meters":1200,"station_id":"ce4bhs12rcd13ifvqhvg","pricing_plan_id":"cebpf4jnsgd1na2vs0mg"},{"bike_id":"99940d12-8816-4939-9d2f-6c5fc5e8f53a","system_id":"levelo_inurba_marseille","lat":43.324771,"lon":5.36557,"is_reserved":false,"is_disabled":false,"rental_uris":{"android":"levelo://app?vid=99940d12-8816-4939-9d2f-6c5fc5e8f53a","ios":"levelo://app?vid=99940d12-8816-4939-9d2f-6c5fc5e8f53a"},"vehicle_type_id":"4","last_reported":1719288591,"current_range_meters":19600,"station_id":"ce4bhs12rcd13ifvqhvg","pricing_plan_id":"cebpf4jnsgd1na2vs0mg"},{"bike_id":"a9461242-4a57-4140-99c5-57df5f14a372","system_id":"levelo_inurba_marseille","lat":43.324771,"lon":5.36557,"is_reserved":false,"is_disabled":false,"rental_uris":{"android":"levelo://app?vid=a9461242-4a57-4140-99c5-57df5f14a372","ios":"levelo://app?vid=a9461242-4a57-4140-99c5-57df5f14a372"},"vehicle_type_id":"4","last_reported":1719288591,"current_range_meters":28800,"station_id":"ce4bhs12rcd13ifvqhvg","pricing_plan_id":"cebpf4jnsgd1na2vs0mg"},{"bike_id":"314a7a27-9752-4b6d-a829-59c2c8c6b968","system_id":"levelo_inurba_marseille","lat":43.310804,"lon":5.38359,"is_reserved":false,"is_disabled":false,"rental_uris":{"android":"levelo://app?vid=314a7a27-9752-4b6d-a829-59c2c8c6b968","ios":"levelo://app?vid=314a7a27-9752-4b6d-a829-59c2c8c6b968"},"vehicle_type_id":"4","last_reported":1719288591,"current_range_meters":31200,"station_id":"ce4bgv92rcd13ifvqcr0","pricing_plan_id":"cebpf4jnsgd1na2vs0mg"},{"bike_id":"f4b2a785-15e1-48bc-a6b5-497f84fc92df","system_id":"levelo_inurba_marseille","lat":43.310663,"lon":5.383477,"is_reserved":false,"is_disabled":false,"rental_uris":{"android":"levelo://app?vid=f4b2a785-15e1-48bc-a6b5-497f84fc92df","ios":"levelo://app?vid=f4b2a785-15e1-48bc-a6b5-497f84fc92df"},"vehicle_type_id":"4","last_reported":1719288591,"current_range_meters":27200,"station_id":"ce4bgv92rcd13ifvqcr0","pricing_plan_id":"cebpf4jnsgd1na2vs0mg"},{"bike_id":"233cb372-bb40-4abc-9aaf-7005bfc2a8de","system_id":"levelo_inurba_marseille","lat":43.310804,"lon":5.38359,"is_reserved":false,"is_disabled":false,"rental_uris":{"android":"levelo://app?vid=233cb372-bb40-4abc-9aaf-7005bfc2a8de","ios":"levelo://app?vid=233cb372-bb40-4abc-9aaf-7005bfc2a8de"},"vehicle_type_id":"4","last_reported":1719288591,"current_range_meters":31200,"station_id":"ce4bgv92rcd13ifvqcr0","pricing_plan_id":"cebpf4jnsgd1na2vs0mg"},{"bike_id":"eca1d2cb-e7bd-4fc0-a68e-f396e7b2f4f0","system_id":"levelo_inurba_marseille","lat":43.310804,"lon":5.38359,"is_reserved":false,"is_disabled":false,"rental_uris":{"android":"levelo://app?vid=eca1d2cb-e7bd-4fc0-a68e-f396e7b2f4f0","ios":"levelo://app?vid=eca1d2cb-e7bd-4fc0-a68e-f396e7b2f4f0"},"vehicle_type_id":"4","last_reported":1719288591,"current_range_meters":8000,"station_id":"ce4bgv92rcd13ifvqcr0","pricing_plan_id":"cebpf4jnsgd1na2vs0mg"},{"bike_id":"402ba32e-45d6-4e38-bb85-d041e6ee9a03","system_id":"levelo_inurba_marseille","lat":43.310804,"lon":5.38359,"is_reserved":false,"is_disabled":false,"rental_uris":{"android":"levelo://app?vid=402ba32e-45d6-4e38-bb85-d041e6ee9a03","ios":"levelo://app?vid=402ba32e-45d6-4e38-bb85-d041e6ee9a03"},"vehicle_type_id":"4","last_reported":1719288591,"current_range_meters":11600,"station_id":"ce4bgv92rcd13ifvqcr0","pricing_plan_id":"cebpf4jnsgd1na2vs0mg"},{"bike_id":"c40fa6eb-5a8a-4be3-aad2-60daed61dee2","system_id":"levelo_inurba_marseille","lat":43.310804,"lon":5.38359,"is_reserved":false,"is_disabled":false,"rental_uris":{"android":"levelo://app?vid=c40fa6eb-5a8a-4be3-aad2-60daed61dee2","ios":"levelo://app?vid=c40fa6eb-5a8a-4be3-aad2-60daed61dee2"},"vehicle_type_id":"4","last_reported":1719288591,"current_range_meters":30000,"station_id":"ce4bgv92rcd13ifvqcr0","pricing_plan_id":"cebpf4jnsgd1na2vs0mg"},{"bike_id":"a21dc77e-6410-4670-9fed-797dd0059726","system_id":"levelo_inurba_marseille","lat":43.310729,"lon":5.383549,"is_reserved":false,"is_disabled":false,"rental_uris":{"android":"levelo://app?vid=a21dc77e-6410-4670-9fed-797dd0059726","ios":"levelo://app?vid=a21dc77e-6410-4670-9fed-797dd0059726"},"vehicle_type_id":"4","last_reported":1719288591,"current_range_meters":28000,"station_id":"ce4bgv92rcd13ifvqcr0","pricing_plan_id":"cebpf4jnsgd1na2vs0mg"},{"bike_id":"7f6db167-848f-4e9e-af30-e0c301e5d874","system_id":"levelo_inurba_marseille","lat":43.310804,"lon":5.38359,"is_reserved":false,"is_disabled":false,"rental_uris":{"android":"levelo://app?vid=7f6db167-848f-4e9e-af30-e0c301e5d874","ios":"levelo://app?vid=7f6db167-848f-4e9e-af30-e0c301e5d874"},"vehicle_type_id":"4","last_reported":1719288591,"current_range_meters":29600,"station_id":"ce4bgv92rcd13ifvqcr0","pricing_plan_id":"cebpf4jnsgd1na2vs0mg"},{"bike_id":"f108152d-6877-448b-b138-c509ae521661","system_id":"levelo_inurba_marseille","lat":43.310804,"lon":5.38359,"is_reserved":false,"is_disabled":false,"rental_uris":{"android":"levelo://app?vid=f108152d-6877-448b-b138-c509ae521661","ios":"levelo://app?vid=f108152d-6877-448b-b138-c509ae521661"},"vehicle_type_id":"4","last_reported":1719288591,"current_range_meters":25600,"station_id":"ce4bgv92rcd13ifvqcr0","pricing_plan_id":"cebpf4jnsgd1na2vs0mg"},{"bike_id":"b001f135-f511-467e-a518-d056921c14ab","system_id":"levelo_inurba_marseille","lat":43.310804,"lon":5.38359,"is_reserved":false,"is_disabled":false,"rental_uris":{"android":"levelo://app?vid=b001f135-f511-467e-a518-d056921c14ab","ios":"levelo://app?vid=b001f135-f511-467e-a518-d056921c14ab"},"vehicle_type_id":"4","last_reported":1719288591,"current_range_meters":30400,"station_id":"ce4bgv92rcd13ifvqcr0","pricing_plan_id":"cebpf4jnsgd1na2vs0mg"},{"bike_id":"4428e60c-d3eb-44fc-982f-65eb66c5298a","system_id":"levelo_inurba_marseille","lat":43.310804,"lon":5.38359,"is_reserved":false,"is_disabled":false,"rental_uris":{"android":"levelo://app?vid=4428e60c-d3eb-44fc-982f-65eb66c5298a","ios":"levelo://app?vid=4428e60c-d3eb-44fc-982f-65eb66c5298a"},"vehicle_type_id":"4","last_reported":1719288591,"current_range_meters":10800,"station_id":"ce4bgv92rcd13ifvqcr0","pricing_plan_id":"cebpf4jnsgd1na2vs0mg"},{"bike_id":"0e9a5930-c4a6-4e45-a5b7-e49fbbb85dc0","system_id":"levelo_inurba_marseille","lat":43.310804,"lon":5.38359,"is_reserved":false,"is_disabled":false,"rental_uris":{"android":"levelo://app?vid=0e9a5930-c4a6-4e45-a5b7-e49fbbb85dc0","ios":"levelo://app?vid=0e9a5930-c4a6-4e45-a5b7-e49fbbb85dc0"},"vehicle_type_id":"4","last_reported":1719288591,"current_range_meters":9600,"station_id":"ce4bgv92rcd13ifvqcr0","pricing_plan_id":"cebpf4jnsgd1na2vs0mg"},{"bike_id":"c3ed7e71-c237-4cf4-bb7e-e4226e05d534","system_id":"levelo_inurba_marseille","lat":43.310804,"lon":5.38359,"is_reserved":false,"is_disabled":false,"rental_uris":{"android":"levelo://app?vid=c3ed7e71-c237-4cf4-bb7e-e4226e05d534","ios":"levelo://app?vid=c3ed7e71-c237-4cf4-bb7e-e4226e05d534"},"vehicle_type_id":"4","last_reported":1719288591,"current_range_meters":30400,"station_id":"ce4bgv92rcd13ifvqcr0","pricing_plan_id":"cebpf4jnsgd1na2vs0mg"},{"bike_id":"17bcd0cb-3fc8-47d1-99bc-f37c30503a33","system_id":"levelo_inurba_marseille","lat":43.302784,"lon":5.377158,"is_reserved":false,"is_disabled":false,"rental_uris":{"android":"levelo://app?vid=17bcd0cb-3fc8-47d1-99bc-f37c30503a33","ios":"levelo://app?vid=17bcd0cb-3fc8-47d1-99bc-f37c30503a33"},"vehicle_type_id":"4","last_reported":1719288591,"current_range_meters":22400,"station_id":"ce4bguh2rcd13ifvqcj0","pricing_plan_id":"cebpf4jnsgd1na2vs0mg"},{"bike_id":"b9e87985-5b2c-4616-a050-cf7f3a3bd3c9","system_id":"levelo_inurba_marseille","lat":43.310769,"lon":5.383648,"is_reserved":false,"is_disabled":false,"rental_uris":{"android":"levelo://app?vid=b9e87985-5b2c-4616-a050-cf7f3a3bd3c9","ios":"levelo://app?vid=b9e87985-5b2c-4616-a050-cf7f3a3bd3c9"},"vehicle_type_id":"4","last_reported":1719288591,"current_range_meters":12800,"station_id":"ce4bgv92rcd13ifvqcr0","pricing_plan_id":"cebpf4jnsgd1na2vs0mg"},{"bike_id":"985d5a5b-8fc1-46d8-a136-ccba8ff3810e","system_id":"levelo_inurba_marseille","lat":43.302784,"lon":5.377158,"is_reserved":false,"is_disabled":false,"rental_uris":{"android":"levelo://app?vid=985d5a5b-8fc1-46d8-a136-ccba8ff3810e","ios":"levelo://app?vid=985d5a5b-8fc1-46d8-a136-ccba8ff3810e"},"vehicle_type_id":"4","last_reported":1719288591,"current_range_meters":29200,"station_id":"ce4bguh2rcd13ifvqcj0","pricing_plan_id":"cebpf4jnsgd1na2vs0mg"},{"bike_id":"ef774676-b608-465b-bb34-77b781146b20","system_id":"levelo_inurba_marseille","lat":43.30143,"lon":5.37413,"is_reserved":false,"is_disabled":false,"rental_uris":{"android":"levelo://app?vid=ef774676-b608-465b-bb34-77b781146b20","ios":"levelo://app?vid=ef774676-b608-465b-bb34-77b781146b20"},"vehicle_type_id":"4","last_reported":1719288591,"current_range_meters":31200,"station_id":"ce4bgs92rcd13ifvqcc0","pricing_plan_id":"cebpf4jnsgd1na2vs0mg"},{"bike_id":"ef65de00-afd1-4967-ac36-9047689076db","system_id":"levelo_inurba_marseille","lat":43.30143,"lon":5.37413,"is_reserved":false,"is_disabled":false,"rental_uris":{"android":"levelo://app?vid=ef65de00-afd1-4967-ac36-9047689076db","ios":"levelo://app?vid=ef65de00-afd1-4967-ac36-9047689076db"},"vehicle_type_id":"4","last_reported":1719288591,"current_range_meters":28000,"station_id":"ce4bgs92rcd13ifvqcc0","pricing_plan_id":"cebpf4jnsgd1na2vs0mg"},{"bike_id":"329e2240-a395-4d32-8dce-efbacf573d55","system_id":"levelo_inurba_marseille","lat":43.30143,"lon":5.37413,"is_reserved":false,"is_disabled":false,"rental_uris":{"android":"levelo://app?vid=329e2240-a395-4d32-8dce-efbacf573d55","ios":"levelo://app?vid=329e2240-a395-4d32-8dce-efbacf573d55"},"vehicle_type_id":"4","last_reported":1719288591,"current_range_meters":31200,"station_id":"ce4bgs92rcd13ifvqcc0","pricing_plan_id":"cebpf4jnsgd1na2vs0mg"},{"bike_id":"75ee175b-24d8-465d-963d-8da45954dbca","system_id":"levelo_inurba_marseille","lat":43.302784,"lon":5.377158,"is_reserved":false,"is_disabled":false,"rental_uris":{"android":"levelo://app?vid=75ee175b-24d8-465d-963d-8da45954dbca","ios":"levelo://app?vid=75ee175b-24d8-465d-963d-8da45954dbca"},"vehicle_type_id":"4","last_reported":1719288591,"current_range_meters":22800,"station_id":"ce4bguh2rcd13ifvqcj0","pricing_plan_id":"cebpf4jnsgd1na2vs0mg"},{"bike_id":"af6bd670-557a-4df3-906b-665716d42f99","system_id":"levelo_inurba_marseille","lat":43.319935,"lon":5.381699,"is_reserved":false,"is_disabled":false,"rental_uris":{"android":"levelo://app?vid=af6bd670-557a-4df3-906b-665716d42f99","ios":"levelo://app?vid=af6bd670-557a-4df3-906b-665716d42f99"},"vehicle_type_id":"4","last_reported":1719288591,"current_range_meters":7200,"station_id":"ce4bhr12rcd13ifvqhpg","pricing_plan_id":"cebpf4jnsgd1na2vs0mg"},{"bike_id":"ba2d3fec-e8f5-4cb2-952a-5422afa027ff","system_id":"levelo_inurba_marseille","lat":43.313571,"lon":5.384829,"is_reserved":false,"is_disabled":false,"rental_uris":{"android":"levelo://app?vid=ba2d3fec-e8f5-4cb2-952a-5422afa027ff","ios":"levelo://app?vid=ba2d3fec-e8f5-4cb2-952a-5422afa027ff"},"vehicle_type_id":"4","last_reported":1719288591,"current_range_meters":24000,"station_id":"ce4bgt92rcd13ifvqcf0","pricing_plan_id":"cebpf4jnsgd1na2vs0mg"},{"bike_id":"73ebfcc3-95b0-41fe-afb7-fd034679f21e","system_id":"levelo_inurba_marseille","lat":43.313707,"lon":5.384914,"is_reserved":false,"is_disabled":false,"rental_uris":{"android":"levelo://app?vid=73ebfcc3-95b0-41fe-afb7-fd034679f21e","ios":"levelo://app?vid=73ebfcc3-95b0-41fe-afb7-fd034679f21e"},"vehicle_type_id":"4","last_reported":1719288591,"current_range_meters":31200,"station_id":"ce4bgt92rcd13ifvqcf0","pricing_plan_id":"cebpf4jnsgd1na2vs0mg"},{"bike_id":"d13d4ac7-59b7-418f-9f9d-d01d866eb888","system_id":"levelo_inurba_marseille","lat":43.313571,"lon":5.384829,"is_reserved":false,"is_disabled":false,"rental_uris":{"android":"levelo://app?vid=d13d4ac7-59b7-418f-9f9d-d01d866eb888","ios":"levelo://app?vid=d13d4ac7-59b7-418f-9f9d-d01d866eb888"},"vehicle_type_id":"4","last_reported":1719288591,"current_range_meters":21600,"station_id":"ce4bgt92rcd13ifvqcf0","pricing_plan_id":"cebpf4jnsgd1na2vs0mg"},{"bike_id":"27f0aca8-51e5-4f37-83f7-0bd2d9d05ede","system_id":"levelo_inurba_marseille","lat":43.313571,"lon":5.384829,"is_reserved":false,"is_disabled":false,"rental_uris":{"android":"levelo://app?vid=27f0aca8-51e5-4f37-83f7-0bd2d9d05ede","ios":"levelo://app?vid=27f0aca8-51e5-4f37-83f7-0bd2d9d05ede"},"vehicle_type_id":"4","last_reported":1719288591,"current_range_meters":23200,"station_id":"ce4bgt92rcd13ifvqcf0","pricing_plan_id":"cebpf4jnsgd1na2vs0mg"},{"bike_id":"61b72241-420f-4c58-87a1-cdad42b3756d","system_id":"levelo_inurba_marseille","lat":43.313571,"lon":5.384829,"is_reserved":false,"is_disabled":false,"rental_uris":{"android":"levelo://app?vid=61b72241-420f-4c58-87a1-cdad42b3756d","ios":"levelo://app?vid=61b72241-420f-4c58-87a1-cdad42b3756d"},"vehicle_type_id":"4","last_reported":1719288591,"current_range_meters":23200,"station_id":"ce4bgt92rcd13ifvqcf0","pricing_plan_id":"cebpf4jnsgd1na2vs0mg"},{"bike_id":"8afb1975-87b5-427b-9fad-79dd6b301071","system_id":"levelo_inurba_marseille","lat":43.313571,"lon":5.384829,"is_reserved":false,"is_disabled":false,"rental_uris":{"android":"levelo://app?vid=8afb1975-87b5-427b-9fad-79dd6b301071","ios":"levelo://app?vid=8afb1975-87b5-427b-9fad-79dd6b301071"},"vehicle_type_id":"4","last_reported":1719288591,"current_range_meters":26000,"station_id":"ce4bgt92rcd13ifvqcf0","pricing_plan_id":"cebpf4jnsgd1na2vs0mg"},{"bike_id":"f67a53cd-e033-49b3-bf80-7b37b3361e59","system_id":"levelo_inurba_marseille","lat":43.313571,"lon":5.384829,"is_reserved":false,"is_disabled":false,"rental_uris":{"android":"levelo://app?vid=f67a53cd-e033-49b3-bf80-7b37b3361e59","ios":"levelo://app?vid=f67a53cd-e033-49b3-bf80-7b37b3361e59"},"vehicle_type_id":"4","last_reported":1719288591,"current_range_meters":15600,"station_id":"ce4bgt92rcd13ifvqcf0","pricing_plan_id":"cebpf4jnsgd1na2vs0mg"},{"bike_id":"dcf088ac-fb16-4cca-9175-4f1d754600e2","system_id":"levelo_inurba_marseille","lat":43.313571,"lon":5.384829,"is_reserved":false,"is_disabled":false,"rental_uris":{"android":"levelo://app?vid=dcf088ac-fb16-4cca-9175-4f1d754600e2","ios":"levelo://app?vid=dcf088ac-fb16-4cca-9175-4f1d754600e2"},"vehicle_type_id":"4","last_reported":1719288591,"current_range_meters":25600,"station_id":"ce4bgt92rcd13ifvqcf0","pricing_plan_id":"cebpf4jnsgd1na2vs0mg"},{"bike_id":"1865d8db-a3e1-4483-9b11-c6387e1f58b6","system_id":"levelo_inurba_marseille","lat":43.313571,"lon":5.384829,"is_reserved":false,"is_disabled":false,"rental_uris":{"android":"levelo://app?vid=1865d8db-a3e1-4483-9b11-c6387e1f58b6","ios":"levelo://app?vid=1865d8db-a3e1-4483-9b11-c6387e1f58b6"},"vehicle_type_id":"4","last_reported":1719288591,"current_range_meters":0,"station_id":"ce4bgt92rcd13ifvqcf0","pricing_plan_id":"cebpf4jnsgd1na2vs0mg"},{"bike_id":"ac8e3cf1-078a-4c9b-aae0-16ecdc6ca787","system_id":"levelo_inurba_marseille","lat":43.299222,"lon":5.365554,"is_reserved":false,"is_disabled":false,"rental_uris":{"android":"levelo://app?vid=ac8e3cf1-078a-4c9b-aae0-16ecdc6ca787","ios":"levelo://app?vid=ac8e3cf1-078a-4c9b-aae0-16ecdc6ca787"},"vehicle_type_id":"4","last_reported":1719288591,"current_range_meters":30400,"station_id":"ce4bgm92rcd13ifvqbr0","pricing_plan_id":"cebpf4jnsgd1na2vs0mg"},{"bike_id":"8c98d7df-cd48-4fdf-b9f7-d27807cbf245","system_id":"levelo_inurba_marseille","lat":43.299222,"lon":5.365554,"is_reserved":false,"is_disabled":false,"rental_uris":{"android":"levelo://app?vid=8c98d7df-cd48-4fdf-b9f7-d27807cbf245","ios":"levelo://app?vid=8c98d7df-cd48-4fdf-b9f7-d27807cbf245"},"vehicle_type_id":"4","last_reported":1719288591,"current_range_meters":8000,"station_id":"ce4bgm92rcd13ifvqbr0","pricing_plan_id":"cebpf4jnsgd1na2vs0mg"},{"bike_id":"6193836f-fa8c-4a1f-b67e-fb71c39e5141","system_id":"levelo_inurba_marseille","lat":43.298433,"lon":5.362774,"is_reserved":false,"is_disabled":false,"rental_uris":{"android":"levelo://app?vid=6193836f-fa8c-4a1f-b67e-fb71c39e5141","ios":"levelo://app?vid=6193836f-fa8c-4a1f-b67e-fb71c39e5141"},"vehicle_type_id":"4","last_reported":1719288591,"current_range_meters":22400,"station_id":"ce4bgpp2rcd13ifvqc3g","pricing_plan_id":"cebpf4jnsgd1na2vs0mg"},{"bike_id":"37651167-383b-49cc-a06d-ac55abf2887c","system_id":"levelo_inurba_marseille","lat":43.305364,"lon":5.384119,"is_reserved":false,"is_disabled":false,"rental_uris":{"android":"levelo://app?vid=37651167-383b-49cc-a06d-ac55abf2887c","ios":"levelo://app?vid=37651167-383b-49cc-a06d-ac55abf2887c"},"vehicle_type_id":"4","last_reported":1719288591,"current_range_meters":28800,"station_id":"ce4bgg92rcd13ifvqb30","pricing_plan_id":"cebpf4jnsgd1na2vs0mg"},{"bike_id":"085f2cdd-8d71-49b8-aca4-f7f5b3054555","system_id":"levelo_inurba_marseille","lat":43.305364,"lon":5.384119,"is_reserved":false,"is_disabled":false,"rental_uris":{"android":"levelo://app?vid=085f2cdd-8d71-49b8-aca4-f7f5b3054555","ios":"levelo://app?vid=085f2cdd-8d71-49b8-aca4-f7f5b3054555"},"vehicle_type_id":"4","last_reported":1719288591,"current_range_meters":28000,"station_id":"ce4bgg92rcd13ifvqb30","pricing_plan_id":"cebpf4jnsgd1na2vs0mg"},{"bike_id":"36f6064e-b345-4b06-b612-bd4713dd20a5","system_id":"levelo_inurba_marseille","lat":43.311722,"lon":5.387247,"is_reserved":false,"is_disabled":false,"rental_uris":{"android":"levelo://app?vid=36f6064e-b345-4b06-b612-bd4713dd20a5","ios":"levelo://app?vid=36f6064e-b345-4b06-b612-bd4713dd20a5"},"vehicle_type_id":"4","last_reported":1719288591,"current_range_meters":28400,"station_id":"ce4bgv12rcd13ifvqcp0","pricing_plan_id":"cebpf4jnsgd1na2vs0mg"},{"bike_id":"99b5a0d2-13f9-4d92-8206-b44f12549d4d","system_id":"levelo_inurba_marseille","lat":43.311722,"lon":5.387247,"is_reserved":false,"is_disabled":false,"rental_uris":{"android":"levelo://app?vid=99b5a0d2-13f9-4d92-8206-b44f12549d4d","ios":"levelo://app?vid=99b5a0d2-13f9-4d92-8206-b44f12549d4d"},"vehicle_type_id":"4","last_reported":1719288591,"current_range_meters":14800,"station_id":"ce4bgv12rcd13ifvqcp0","pricing_plan_id":"cebpf4jnsgd1na2vs0mg"},{"bike_id":"60a238d7-abaa-4749-a618-e893f2d80f88","system_id":"levelo_inurba_marseille","lat":43.31181,"lon":5.3871,"is_reserved":false,"is_disabled":false,"rental_uris":{"android":"levelo://app?vid=60a238d7-abaa-4749-a618-e893f2d80f88","ios":"levelo://app?vid=60a238d7-abaa-4749-a618-e893f2d80f88"},"vehicle_type_id":"4","last_reported":1719288591,"current_range_meters":26400,"station_id":"ce4bgv12rcd13ifvqcp0","pricing_plan_id":"cebpf4jnsgd1na2vs0mg"},{"bike_id":"31ff90e3-5825-423a-a18d-67ae485e9b55","system_id":"levelo_inurba_marseille","lat":43.311722,"lon":5.387247,"is_reserved":false,"is_disabled":false,"rental_uris":{"android":"levelo://app?vid=31ff90e3-5825-423a-a18d-67ae485e9b55","ios":"levelo://app?vid=31ff90e3-5825-423a-a18d-67ae485e9b55"},"vehicle_type_id":"4","last_reported":1719288591,"current_range_meters":30000,"station_id":"ce4bgv12rcd13ifvqcp0","pricing_plan_id":"cebpf4jnsgd1na2vs0mg"},{"bike_id":"5329be8f-8155-4957-b849-c5f445b7f702","system_id":"levelo_inurba_marseille","lat":43.311806,"lon":5.387109,"is_reserved":false,"is_disabled":false,"rental_uris":{"android":"levelo://app?vid=5329be8f-8155-4957-b849-c5f445b7f702","ios":"levelo://app?vid=5329be8f-8155-4957-b849-c5f445b7f702"},"vehicle_type_id":"4","last_reported":1719288591,"current_range_meters":31200,"station_id":"ce4bgv12rcd13ifvqcp0","pricing_plan_id":"cebpf4jnsgd1na2vs0mg"},{"bike_id":"c67f5089-2900-434f-bce9-41c68cd608ce","system_id":"levelo_inurba_marseille","lat":43.311722,"lon":5.387247,"is_reserved":false,"is_disabled":false,"rental_uris":{"android":"levelo://app?vid=c67f5089-2900-434f-bce9-41c68cd608ce","ios":"levelo://app?vid=c67f5089-2900-434f-bce9-41c68cd608ce"},"vehicle_type_id":"4","last_reported":1719288591,"current_range_meters":31200,"station_id":"ce4bgv12rcd13ifvqcp0","pricing_plan_id":"cebpf4jnsgd1na2vs0mg"},{"bike_id":"c9778961-ecb1-4982-a816-8811b90744ea","system_id":"levelo_inurba_marseille","lat":43.311722,"lon":5.387247,"is_reserved":false,"is_disabled":false,"rental_uris":{"android":"levelo://app?vid=c9778961-ecb1-4982-a816-8811b90744ea","ios":"levelo://app?vid=c9778961-ecb1-4982-a816-8811b90744ea"},"vehicle_type_id":"4","last_reported":1719288591,"current_range_meters":30400,"station_id":"ce4bgv12rcd13ifvqcp0","pricing_plan_id":"cebpf4jnsgd1na2vs0mg"},{"bike_id":"c931766e-7314-4787-a212-81f0215eb9ce","system_id":"levelo_inurba_marseille","lat":43.311677,"lon":5.387141,"is_reserved":false,"is_disabled":false,"rental_uris":{"android":"levelo://app?vid=c931766e-7314-4787-a212-81f0215eb9ce","ios":"levelo://app?vid=c931766e-7314-4787-a212-81f0215eb9ce"},"vehicle_type_id":"4","last_reported":1719288591,"current_range_meters":4400,"station_id":"ce4bgv12rcd13ifvqcp0","pricing_plan_id":"cebpf4jnsgd1na2vs0mg"},{"bike_id":"00c5cfa3-a96b-4bc1-ac33-dd1066ee5237","system_id":"levelo_inurba_marseille","lat":43.311722,"lon":5.387247,"is_reserved":false,"is_disabled":false,"rental_uris":{"android":"levelo://app?vid=00c5cfa3-a96b-4bc1-ac33-dd1066ee5237","ios":"levelo://app?vid=00c5cfa3-a96b-4bc1-ac33-dd1066ee5237"},"vehicle_type_id":"4","last_reported":1719288591,"current_range_meters":31200,"station_id":"ce4bgv12rcd13ifvqcp0","pricing_plan_id":"cebpf4jnsgd1na2vs0mg"},{"bike_id":"a8d5c4da-ae80-4681-a424-47e178299637","system_id":"levelo_inurba_marseille","lat":43.311722,"lon":5.387247,"is_reserved":false,"is_disabled":false,"rental_uris":{"android":"levelo://app?vid=a8d5c4da-ae80-4681-a424-47e178299637","ios":"levelo://app?vid=a8d5c4da-ae80-4681-a424-47e178299637"},"vehicle_type_id":"4","last_reported":1719288591,"current_range_meters":24400,"station_id":"ce4bgv12rcd13ifvqcp0","pricing_plan_id":"cebpf4jnsgd1na2vs0mg"},{"bike_id":"e0828a8f-ee5f-4d2f-948f-dbf8deebd903","system_id":"levelo_inurba_marseille","lat":43.311722,"lon":5.387247,"is_reserved":false,"is_disabled":false,"rental_uris":{"android":"levelo://app?vid=e0828a8f-ee5f-4d2f-948f-dbf8deebd903","ios":"levelo://app?vid=e0828a8f-ee5f-4d2f-948f-dbf8deebd903"},"vehicle_type_id":"4","last_reported":1719288591,"current_range_meters":30800,"station_id":"ce4bgv12rcd13ifvqcp0","pricing_plan_id":"cebpf4jnsgd1na2vs0mg"},{"bike_id":"9b4e9a6e-2130-4b9f-a72b-0885b8cfa5bf","system_id":"levelo_inurba_marseille","lat":43.297774,"lon":5.370875,"is_reserved":false,"is_disabled":false,"rental_uris":{"android":"levelo://app?vid=9b4e9a6e-2130-4b9f-a72b-0885b8cfa5bf","ios":"levelo://app?vid=9b4e9a6e-2130-4b9f-a72b-0885b8cfa5bf"},"vehicle_type_id":"4","last_reported":1719288591,"current_range_meters":30000,"station_id":"ce4bgop2rcd13ifvqc1g","pricing_plan_id":"cebpf4jnsgd1na2vs0mg"},{"bike_id":"41389d61-8d3d-4729-bfe5-3ce2b9eb56ee","system_id":"levelo_inurba_marseille","lat":43.322872,"lon":5.382756,"is_reserved":false,"is_disabled":false,"rental_uris":{"android":"levelo://app?vid=41389d61-8d3d-4729-bfe5-3ce2b9eb56ee","ios":"levelo://app?vid=41389d61-8d3d-4729-bfe5-3ce2b9eb56ee"},"vehicle_type_id":"4","last_reported":1719288591,"current_range_meters":28000,"station_id":"ce4bhr12rcd13ifvqhqg","pricing_plan_id":"cebpf4jnsgd1na2vs0mg"},{"bike_id":"34159617-e596-4dbf-9981-109c4ed1fa75","system_id":"levelo_inurba_marseille","lat":43.322872,"lon":5.382756,"is_reserved":false,"is_disabled":false,"rental_uris":{"android":"levelo://app?vid=34159617-e596-4dbf-9981-109c4ed1fa75","ios":"levelo://app?vid=34159617-e596-4dbf-9981-109c4ed1fa75"},"vehicle_type_id":"4","last_reported":1719288591,"current_range_meters":30000,"station_id":"ce4bhr12rcd13ifvqhqg","pricing_plan_id":"cebpf4jnsgd1na2vs0mg"},{"bike_id":"de15eb35-9a72-4513-b9b1-9d70e26e4f8e","system_id":"levelo_inurba_marseille","lat":43.322872,"lon":5.382756,"is_reserved":false,"is_disabled":false,"rental_uris":{"android":"levelo://app?vid=de15eb35-9a72-4513-b9b1-9d70e26e4f8e","ios":"levelo://app?vid=de15eb35-9a72-4513-b9b1-9d70e26e4f8e"},"vehicle_type_id":"4","last_reported":1719288591,"current_range_meters":30000,"station_id":"ce4bhr12rcd13ifvqhqg","pricing_plan_id":"cebpf4jnsgd1na2vs0mg"},{"bike_id":"8a3dee68-befb-495c-8c53-779d24084da1","system_id":"levelo_inurba_marseille","lat":43.297019,"lon":5.365514,"is_reserved":false,"is_disabled":false,"rental_uris":{"android":"levelo://app?vid=8a3dee68-befb-495c-8c53-779d24084da1","ios":"levelo://app?vid=8a3dee68-befb-495c-8c53-779d24084da1"},"vehicle_type_id":"4","last_reported":1719288591,"current_range_meters":29600,"station_id":"","pricing_plan_id":"cebpf4jnsgd1na2vs0mg"},{"bike_id":"b9a26f0f-4064-4945-8f76-fe07a3983e4a","system_id":"levelo_inurba_marseille","lat":43.32367,"lon":5.388836,"is_reserved":false,"is_disabled":false,"rental_uris":{"android":"levelo://app?vid=b9a26f0f-4064-4945-8f76-fe07a3983e4a","ios":"levelo://app?vid=b9a26f0f-4064-4945-8f76-fe07a3983e4a"},"vehicle_type_id":"4","last_reported":1719288591,"current_range_meters":9600,"station_id":"ce4bhqp2rcd13ifvqhog","pricing_plan_id":"cebpf4jnsgd1na2vs0mg"},{"bike_id":"fc38beb6-8f48-4fef-b127-3e24984dcc9e","system_id":"levelo_inurba_marseille","lat":43.29573,"lon":5.367355,"is_reserved":false,"is_disabled":false,"rental_uris":{"android":"levelo://app?vid=fc38beb6-8f48-4fef-b127-3e24984dcc9e","ios":"levelo://app?vid=fc38beb6-8f48-4fef-b127-3e24984dcc9e"},"vehicle_type_id":"4","last_reported":1719288591,"current_range_meters":28400,"station_id":"ce4bgph2rcd13ifvqc2g","pricing_plan_id":"cebpf4jnsgd1na2vs0mg"},{"bike_id":"5de47f33-75ef-4fc2-a38e-55b3d7951e1d","system_id":"levelo_inurba_marseille","lat":43.299028,"lon":5.381509,"is_reserved":false,"is_disabled":false,"rental_uris":{"android":"levelo://app?vid=5de47f33-75ef-4fc2-a38e-55b3d7951e1d","ios":"levelo://app?vid=5de47f33-75ef-4fc2-a38e-55b3d7951e1d"},"vehicle_type_id":"4","last_reported":1719288591,"current_range_meters":28000,"station_id":"ce4bgj12rcd13ifvqbc0","pricing_plan_id":"cebpf4jnsgd1na2vs0mg"},{"bike_id":"7aa17620-f598-4da3-9dfe-406f11c3d2c4","system_id":"levelo_inurba_marseille","lat":43.299028,"lon":5.381509,"is_reserved":false,"is_disabled":false,"rental_uris":{"android":"levelo://app?vid=7aa17620-f598-4da3-9dfe-406f11c3d2c4","ios":"levelo://app?vid=7aa17620-f598-4da3-9dfe-406f11c3d2c4"},"vehicle_type_id":"4","last_reported":1719288591,"current_range_meters":28400,"station_id":"ce4bgj12rcd13ifvqbc0","pricing_plan_id":"cebpf4jnsgd1na2vs0mg"},{"bike_id":"9fb5322d-46cc-4650-9b8d-b18fc2b4dc76","system_id":"levelo_inurba_marseille","lat":43.296921,"lon":5.376579,"is_reserved":false,"is_disabled":false,"rental_uris":{"android":"levelo://app?vid=9fb5322d-46cc-4650-9b8d-b18fc2b4dc76","ios":"levelo://app?vid=9fb5322d-46cc-4650-9b8d-b18fc2b4dc76"},"vehicle_type_id":"4","last_reported":1719288591,"current_range_meters":28000,"station_id":"ce4bgkh2rcd13ifvqbl0","pricing_plan_id":"cebpf4jnsgd1na2vs0mg"},{"bike_id":"31b8364a-24a4-4c7a-8e1b-4efbc6eb9f9c","system_id":"levelo_inurba_marseille","lat":43.299028,"lon":5.381509,"is_reserved":false,"is_disabled":false,"rental_uris":{"android":"levelo://app?vid=31b8364a-24a4-4c7a-8e1b-4efbc6eb9f9c","ios":"levelo://app?vid=31b8364a-24a4-4c7a-8e1b-4efbc6eb9f9c"},"vehicle_type_id":"4","last_reported":1719288591,"current_range_meters":6400,"station_id":"ce4bgj12rcd13ifvqbc0","pricing_plan_id":"cebpf4jnsgd1na2vs0mg"},{"bike_id":"4481505b-5602-4361-9eb5-c86c237a213c","system_id":"levelo_inurba_marseille","lat":43.299028,"lon":5.381509,"is_reserved":false,"is_disabled":false,"rental_uris":{"android":"levelo://app?vid=4481505b-5602-4361-9eb5-c86c237a213c","ios":"levelo://app?vid=4481505b-5602-4361-9eb5-c86c237a213c"},"vehicle_type_id":"4","last_reported":1719288591,"current_range_meters":27200,"station_id":"ce4bgj12rcd13ifvqbc0","pricing_plan_id":"cebpf4jnsgd1na2vs0mg"},{"bike_id":"b3bbffd2-b89f-4106-affb-199ecada0cd8","system_id":"levelo_inurba_marseille","lat":43.309589,"lon":5.390258,"is_reserved":false,"is_disabled":false,"rental_uris":{"android":"levelo://app?vid=b3bbffd2-b89f-4106-affb-199ecada0cd8","ios":"levelo://app?vid=b3bbffd2-b89f-4106-affb-199ecada0cd8"},"vehicle_type_id":"4","last_reported":1719288591,"current_range_meters":21200,"station_id":"ce4bgup2rcd13ifvqco0","pricing_plan_id":"cebpf4jnsgd1na2vs0mg"},{"bike_id":"4ae52ce0-0346-4a99-8386-2c8c720bf5b7","system_id":"levelo_inurba_marseille","lat":43.309589,"lon":5.390258,"is_reserved":false,"is_disabled":false,"rental_uris":{"android":"levelo://app?vid=4ae52ce0-0346-4a99-8386-2c8c720bf5b7","ios":"levelo://app?vid=4ae52ce0-0346-4a99-8386-2c8c720bf5b7"},"vehicle_type_id":"4","last_reported":1719288591,"current_range_meters":31200,"station_id":"ce4bgup2rcd13ifvqco0","pricing_plan_id":"cebpf4jnsgd1na2vs0mg"},{"bike_id":"8132dd89-b4d3-4713-8239-0e949d41d1f9","system_id":"levelo_inurba_marseille","lat":43.309589,"lon":5.390258,"is_reserved":false,"is_disabled":false,"rental_uris":{"android":"levelo://app?vid=8132dd89-b4d3-4713-8239-0e949d41d1f9","ios":"levelo://app?vid=8132dd89-b4d3-4713-8239-0e949d41d1f9"},"vehicle_type_id":"4","last_reported":1719288591,"current_range_meters":31200,"station_id":"ce4bgup2rcd13ifvqco0","pricing_plan_id":"cebpf4jnsgd1na2vs0mg"},{"bike_id":"4d082611-b329-417f-bc50-0e3d3b580872","system_id":"levelo_inurba_marseille","lat":43.309589,"lon":5.390258,"is_reserved":false,"is_disabled":false,"rental_uris":{"android":"levelo://app?vid=4d082611-b329-417f-bc50-0e3d3b580872","ios":"levelo://app?vid=4d082611-b329-417f-bc50-0e3d3b580872"},"vehicle_type_id":"4","last_reported":1719288591,"current_range_meters":19600,"station_id":"ce4bgup2rcd13ifvqco0","pricing_plan_id":"cebpf4jnsgd1na2vs0mg"},{"bike_id":"e668fb9f-38e5-4509-8669-c42be52c9750","system_id":"levelo_inurba_marseille","lat":43.309589,"lon":5.390258,"is_reserved":false,"is_disabled":false,"rental_uris":{"android":"levelo://app?vid=e668fb9f-38e5-4509-8669-c42be52c9750","ios":"levelo://app?vid=e668fb9f-38e5-4509-8669-c42be52c9750"},"vehicle_type_id":"4","last_reported":1719288591,"current_range_meters":17200,"station_id":"ce4bgup2rcd13ifvqco0","pricing_plan_id":"cebpf4jnsgd1na2vs0mg"},{"bike_id":"753f1da4-104b-4488-991b-a0d10f9bebf1","system_id":"levelo_inurba_marseille","lat":43.317557,"lon":5.390173,"is_reserved":false,"is_disabled":false,"rental_uris":{"android":"levelo://app?vid=753f1da4-104b-4488-991b-a0d10f9bebf1","ios":"levelo://app?vid=753f1da4-104b-4488-991b-a0d10f9bebf1"},"vehicle_type_id":"4","last_reported":1719288591,"current_range_meters":24800,"station_id":"ce4bhqp2rcd13ifvqhng","pricing_plan_id":"cebpf4jnsgd1na2vs0mg"},{"bike_id":"db809d7d-6842-4f96-ac8b-b46f889bb84b","system_id":"levelo_inurba_marseille","lat":43.317557,"lon":5.390173,"is_reserved":false,"is_disabled":false,"rental_uris":{"android":"levelo://app?vid=db809d7d-6842-4f96-ac8b-b46f889bb84b","ios":"levelo://app?vid=db809d7d-6842-4f96-ac8b-b46f889bb84b"},"vehicle_type_id":"4","last_reported":1719288591,"current_range_meters":22400,"station_id":"ce4bhqp2rcd13ifvqhng","pricing_plan_id":"cebpf4jnsgd1na2vs0mg"},{"bike_id":"d2abb7f1-ba6c-489d-b7dd-614e8f510116","system_id":"levelo_inurba_marseille","lat":43.317557,"lon":5.390173,"is_reserved":false,"is_disabled":false,"rental_uris":{"android":"levelo://app?vid=d2abb7f1-ba6c-489d-b7dd-614e8f510116","ios":"levelo://app?vid=d2abb7f1-ba6c-489d-b7dd-614e8f510116"},"vehicle_type_id":"4","last_reported":1719288591,"current_range_meters":25200,"station_id":"ce4bhqp2rcd13ifvqhng","pricing_plan_id":"cebpf4jnsgd1na2vs0mg"},{"bike_id":"2c57ec1f-ce24-4ef8-ab49-5cb807b19dac","system_id":"levelo_inurba_marseille","lat":43.317556,"lon":5.390163,"is_reserved":false,"is_disabled":false,"rental_uris":{"android":"levelo://app?vid=2c57ec1f-ce24-4ef8-ab49-5cb807b19dac","ios":"levelo://app?vid=2c57ec1f-ce24-4ef8-ab49-5cb807b19dac"},"vehicle_type_id":"4","last_reported":1719288591,"current_range_meters":800,"station_id":"ce4bhqp2rcd13ifvqhng","pricing_plan_id":"cebpf4jnsgd1na2vs0mg"},{"bike_id":"d0ad72a6-bc81-42de-9c1d-134c9a3a9620","system_id":"levelo_inurba_marseille","lat":43.317557,"lon":5.390173,"is_reserved":false,"is_disabled":false,"rental_uris":{"android":"levelo://app?vid=d0ad72a6-bc81-42de-9c1d-134c9a3a9620","ios":"levelo://app?vid=d0ad72a6-bc81-42de-9c1d-134c9a3a9620"},"vehicle_type_id":"4","last_reported":1719288591,"current_range_meters":30400,"station_id":"ce4bhqp2rcd13ifvqhng","pricing_plan_id":"cebpf4jnsgd1na2vs0mg"},{"bike_id":"c36c14b8-4e8d-44c9-846b-d35b5c0355e1","system_id":"levelo_inurba_marseille","lat":43.31755,"lon":5.390248,"is_reserved":false,"is_disabled":false,"rental_uris":{"android":"levelo://app?vid=c36c14b8-4e8d-44c9-846b-d35b5c0355e1","ios":"levelo://app?vid=c36c14b8-4e8d-44c9-846b-d35b5c0355e1"},"vehicle_type_id":"4","last_reported":1719288591,"current_range_meters":31200,"station_id":"ce4bhqp2rcd13ifvqhng","pricing_plan_id":"cebpf4jnsgd1na2vs0mg"},{"bike_id":"8822d9b8-57cb-4b1a-a1f3-20a47e22c53f","system_id":"levelo_inurba_marseille","lat":43.298037,"lon":5.381066,"is_reserved":false,"is_disabled":false,"rental_uris":{"android":"levelo://app?vid=8822d9b8-57cb-4b1a-a1f3-20a47e22c53f","ios":"levelo://app?vid=8822d9b8-57cb-4b1a-a1f3-20a47e22c53f"},"vehicle_type_id":"4","last_reported":1719288591,"current_range_meters":16800,"station_id":"ce4bgip2rcd13ifvqbb0","pricing_plan_id":"cebpf4jnsgd1na2vs0mg"},{"bike_id":"bfb31fe6-b7db-47e0-9dad-e436aa04ee45","system_id":"levelo_inurba_marseille","lat":43.298037,"lon":5.381066,"is_reserved":false,"is_disabled":false,"rental_uris":{"android":"levelo://app?vid=bfb31fe6-b7db-47e0-9dad-e436aa04ee45","ios":"levelo://app?vid=bfb31fe6-b7db-47e0-9dad-e436aa04ee45"},"vehicle_type_id":"4","last_reported":1719288591,"current_range_meters":2400,"station_id":"ce4bgip2rcd13ifvqbb0","pricing_plan_id":"cebpf4jnsgd1na2vs0mg"},{"bike_id":"0d43bd04-8c85-4da4-9e1e-1295dd58cfa1","system_id":"levelo_inurba_marseille","lat":43.295748,"lon":5.37522,"is_reserved":false,"is_disabled":false,"rental_uris":{"android":"levelo://app?vid=0d43bd04-8c85-4da4-9e1e-1295dd58cfa1","ios":"levelo://app?vid=0d43bd04-8c85-4da4-9e1e-1295dd58cfa1"},"vehicle_type_id":"4","last_reported":1719288591,"current_range_meters":28800,"station_id":"ce4bgh92rcd13ifvqb50","pricing_plan_id":"cebpf4jnsgd1na2vs0mg"},{"bike_id":"e8f1a798-2d9a-447d-9e78-8f704c44396b","system_id":"levelo_inurba_marseille","lat":43.304274,"lon":5.388873,"is_reserved":false,"is_disabled":false,"rental_uris":{"android":"levelo://app?vid=e8f1a798-2d9a-447d-9e78-8f704c44396b","ios":"levelo://app?vid=e8f1a798-2d9a-447d-9e78-8f704c44396b"},"vehicle_type_id":"4","last_reported":1719288591,"current_range_meters":26000,"station_id":"ce4bgk12rcd13ifvqbi0","pricing_plan_id":"cebpf4jnsgd1na2vs0mg"},{"bike_id":"ee4926ed-35f2-4120-b5c2-6c530195aaad","system_id":"levelo_inurba_marseille","lat":43.298037,"lon":5.381066,"is_reserved":false,"is_disabled":false,"rental_uris":{"android":"levelo://app?vid=ee4926ed-35f2-4120-b5c2-6c530195aaad","ios":"levelo://app?vid=ee4926ed-35f2-4120-b5c2-6c530195aaad"},"vehicle_type_id":"4","last_reported":1719288591,"current_range_meters":30800,"station_id":"ce4bgip2rcd13ifvqbb0","pricing_plan_id":"cebpf4jnsgd1na2vs0mg"},{"bike_id":"79960d56-c58c-4a24-a4bc-090bd0a42d34","system_id":"levelo_inurba_marseille","lat":43.29761,"lon":5.381003,"is_reserved":false,"is_disabled":false,"rental_uris":{"android":"levelo://app?vid=79960d56-c58c-4a24-a4bc-090bd0a42d34","ios":"levelo://app?vid=79960d56-c58c-4a24-a4bc-090bd0a42d34"},"vehicle_type_id":"4","last_reported":1719288591,"current_range_meters":22800,"station_id":"ce4bgip2rcd13ifvqbb0","pricing_plan_id":"cebpf4jnsgd1na2vs0mg"},{"bike_id":"dfb360cd-9780-4feb-aca4-388dbdadb9c3","system_id":"levelo_inurba_marseille","lat":43.299707,"lon":5.384859,"is_reserved":false,"is_disabled":false,"rental_uris":{"android":"levelo://app?vid=dfb360cd-9780-4feb-aca4-388dbdadb9c3","ios":"levelo://app?vid=dfb360cd-9780-4feb-aca4-388dbdadb9c3"},"vehicle_type_id":"4","last_reported":1719288591,"current_range_meters":27600,"station_id":"ce4bgj92rcd13ifvqbd0","pricing_plan_id":"cebpf4jnsgd1na2vs0mg"},{"bike_id":"575a74cd-b633-4c6c-8ef2-7862775159f2","system_id":"levelo_inurba_marseille","lat":43.299028,"lon":5.381509,"is_reserved":false,"is_disabled":false,"rental_uris":{"android":"levelo://app?vid=575a74cd-b633-4c6c-8ef2-7862775159f2","ios":"levelo://app?vid=575a74cd-b633-4c6c-8ef2-7862775159f2"},"vehicle_type_id":"4","last_reported":1719288591,"current_range_meters":22800,"station_id":"ce4bgj12rcd13ifvqbc0","pricing_plan_id":"cebpf4jnsgd1na2vs0mg"},{"bike_id":"46adf2f2-6975-4240-9b81-8da8a03d6192","system_id":"levelo_inurba_marseille","lat":43.32367,"lon":5.388836,"is_reserved":false,"is_disabled":false,"rental_uris":{"android":"levelo://app?vid=46adf2f2-6975-4240-9b81-8da8a03d6192","ios":"levelo://app?vid=46adf2f2-6975-4240-9b81-8da8a03d6192"},"vehicle_type_id":"4","last_reported":1719288591,"current_range_meters":2800,"station_id":"ce4bhqp2rcd13ifvqhog","pricing_plan_id":"cebpf4jnsgd1na2vs0mg"},{"bike_id":"ba2fcb2d-b635-498c-b050-e9b02c4dd911","system_id":"levelo_inurba_marseille","lat":43.29602,"lon":5.381084,"is_reserved":false,"is_disabled":false,"rental_uris":{"android":"levelo://app?vid=ba2fcb2d-b635-498c-b050-e9b02c4dd911","ios":"levelo://app?vid=ba2fcb2d-b635-498c-b050-e9b02c4dd911"},"vehicle_type_id":"4","last_reported":1719288591,"current_range_meters":29600,"station_id":"ce4bgl12rcd13ifvqbo0","pricing_plan_id":"cebpf4jnsgd1na2vs0mg"},{"bike_id":"f1d769f9-f591-485c-b93f-5f00d3ac46ca","system_id":"levelo_inurba_marseille","lat":43.292749,"lon":5.368402,"is_reserved":false,"is_disabled":false,"rental_uris":{"android":"levelo://app?vid=f1d769f9-f591-485c-b93f-5f00d3ac46ca","ios":"levelo://app?vid=f1d769f9-f591-485c-b93f-5f00d3ac46ca"},"vehicle_type_id":"4","last_reported":1719288591,"current_range_meters":25200,"station_id":"ce4bhbp2rcd13ifvqesg","pricing_plan_id":"cebpf4jnsgd1na2vs0mg"},{"bike_id":"761536ef-dfbd-4565-bd9e-ef42c7a84b16","system_id":"levelo_inurba_marseille","lat":43.305959,"lon":5.393598,"is_reserved":false,"is_disabled":false,"rental_uris":{"android":"levelo://app?vid=761536ef-dfbd-4565-bd9e-ef42c7a84b16","ios":"levelo://app?vid=761536ef-dfbd-4565-bd9e-ef42c7a84b16"},"vehicle_type_id":"4","last_reported":1719288591,"current_range_meters":23200,"station_id":"","pricing_plan_id":"cebpf4jnsgd1na2vs0mg"},{"bike_id":"6f363974-845c-4ca4-b2d9-d4fe9ce2f791","system_id":"levelo_inurba_marseille","lat":43.30531,"lon":5.39351,"is_reserved":false,"is_disabled":false,"rental_uris":{"android":"levelo://app?vid=6f363974-845c-4ca4-b2d9-d4fe9ce2f791","ios":"levelo://app?vid=6f363974-845c-4ca4-b2d9-d4fe9ce2f791"},"vehicle_type_id":"4","last_reported":1719288591,"current_range_meters":30000,"station_id":"","pricing_plan_id":"cebpf4jnsgd1na2vs0mg"},{"bike_id":"ecb6b28d-7394-417b-9932-6d416ff5a0dc","system_id":"levelo_inurba_marseille","lat":43.292311,"lon":5.360731,"is_reserved":false,"is_disabled":false,"rental_uris":{"android":"levelo://app?vid=ecb6b28d-7394-417b-9932-6d416ff5a0dc","ios":"levelo://app?vid=ecb6b28d-7394-417b-9932-6d416ff5a0dc"},"vehicle_type_id":"4","last_reported":1719288591,"current_range_meters":8000,"station_id":"ce4bhbh2rcd13ifvqeqg","pricing_plan_id":"cebpf4jnsgd1na2vs0mg"},{"bike_id":"bc4f94d8-0149-4a63-9f0f-284c7adc6a68","system_id":"levelo_inurba_marseille","lat":43.29875,"lon":5.38903,"is_reserved":false,"is_disabled":false,"rental_uris":{"android":"levelo://app?vid=bc4f94d8-0149-4a63-9f0f-284c7adc6a68","ios":"levelo://app?vid=bc4f94d8-0149-4a63-9f0f-284c7adc6a68"},"vehicle_type_id":"4","last_reported":1719288591,"current_range_meters":13200,"station_id":"ce4bh392rcd13ifvqdl0","pricing_plan_id":"cebpf4jnsgd1na2vs0mg"},{"bike_id":"427367f7-9d7b-4318-9fea-c029a41f80f1","system_id":"levelo_inurba_marseille","lat":43.298764,"lon":5.388973,"is_reserved":false,"is_disabled":false,"rental_uris":{"android":"levelo://app?vid=427367f7-9d7b-4318-9fea-c029a41f80f1","ios":"levelo://app?vid=427367f7-9d7b-4318-9fea-c029a41f80f1"},"vehicle_type_id":"4","last_reported":1719288591,"current_range_meters":10000,"station_id":"ce4bh392rcd13ifvqdl0","pricing_plan_id":"cebpf4jnsgd1na2vs0mg"},{"bike_id":"23f3c8f1-135c-4178-837b-839a057bf548","system_id":"levelo_inurba_marseille","lat":43.298662,"lon":5.389069,"is_reserved":false,"is_disabled":false,"rental_uris":{"android":"levelo://app?vid=23f3c8f1-135c-4178-837b-839a057bf548","ios":"levelo://app?vid=23f3c8f1-135c-4178-837b-839a057bf548"},"vehicle_type_id":"4","last_reported":1719288591,"current_range_meters":11600,"station_id":"ce4bh392rcd13ifvqdl0","pricing_plan_id":"cebpf4jnsgd1na2vs0mg"},{"bike_id":"b5c11c6d-722c-49c8-be29-6573b4690059","system_id":"levelo_inurba_marseille","lat":43.331945,"lon":5.380667,"is_reserved":false,"is_disabled":false,"rental_uris":{"android":"levelo://app?vid=b5c11c6d-722c-49c8-be29-6573b4690059","ios":"levelo://app?vid=b5c11c6d-722c-49c8-be29-6573b4690059"},"vehicle_type_id":"4","last_reported":1719288591,"current_range_meters":0,"station_id":"","pricing_plan_id":"cebpf4jnsgd1na2vs0mg"},{"bike_id":"18a491b5-e573-4c41-943b-f542e609b16a","system_id":"levelo_inurba_marseille","lat":43.309038,"lon":5.396546,"is_reserved":false,"is_disabled":false,"rental_uris":{"android":"levelo://app?vid=18a491b5-e573-4c41-943b-f542e609b16a","ios":"levelo://app?vid=18a491b5-e573-4c41-943b-f542e609b16a"},"vehicle_type_id":"4","last_reported":1719288591,"current_range_meters":30400,"station_id":"ce4bh012rcd13ifvqcv0","pricing_plan_id":"cebpf4jnsgd1na2vs0mg"},{"bike_id":"903c8b4d-4eea-481c-ad48-1d5fd06e959e","system_id":"levelo_inurba_marseille","lat":43.309047,"lon":5.396551,"is_reserved":false,"is_disabled":false,"rental_uris":{"android":"levelo://app?vid=903c8b4d-4eea-481c-ad48-1d5fd06e959e","ios":"levelo://app?vid=903c8b4d-4eea-481c-ad48-1d5fd06e959e"},"vehicle_type_id":"4","last_reported":1719288591,"current_range_meters":29200,"station_id":"ce4bh012rcd13ifvqcv0","pricing_plan_id":"cebpf4jnsgd1na2vs0mg"},{"bike_id":"2a90c294-c17a-4626-8614-bb140a00c0f5","system_id":"levelo_inurba_marseille","lat":43.309047,"lon":5.396551,"is_reserved":false,"is_disabled":false,"rental_uris":{"android":"levelo://app?vid=2a90c294-c17a-4626-8614-bb140a00c0f5","ios":"levelo://app?vid=2a90c294-c17a-4626-8614-bb140a00c0f5"},"vehicle_type_id":"4","last_reported":1719288591,"current_range_meters":14800,"station_id":"ce4bh012rcd13ifvqcv0","pricing_plan_id":"cebpf4jnsgd1na2vs0mg"},{"bike_id":"7a3d660f-5d3d-4239-8e83-033e29249dda","system_id":"levelo_inurba_marseille","lat":43.309047,"lon":5.396551,"is_reserved":false,"is_disabled":false,"rental_uris":{"android":"levelo://app?vid=7a3d660f-5d3d-4239-8e83-033e29249dda","ios":"levelo://app?vid=7a3d660f-5d3d-4239-8e83-033e29249dda"},"vehicle_type_id":"4","last_reported":1719288591,"current_range_meters":8400,"station_id":"ce4bh012rcd13ifvqcv0","pricing_plan_id":"cebpf4jnsgd1na2vs0mg"},{"bike_id":"0b30cb31-ecee-4a32-b1bb-146b3901ecb9","system_id":"levelo_inurba_marseille","lat":43.308821,"lon":5.396405,"is_reserved":false,"is_disabled":false,"rental_uris":{"android":"levelo://app?vid=0b30cb31-ecee-4a32-b1bb-146b3901ecb9","ios":"levelo://app?vid=0b30cb31-ecee-4a32-b1bb-146b3901ecb9"},"vehicle_type_id":"4","last_reported":1719288591,"current_range_meters":21600,"station_id":"ce4bh012rcd13ifvqcv0","pricing_plan_id":"cebpf4jnsgd1na2vs0mg"},{"bike_id":"26cb4221-b5f3-4d99-8e89-bb3f020d6ab1","system_id":"levelo_inurba_marseille","lat":43.313291,"lon":5.396838,"is_reserved":false,"is_disabled":false,"rental_uris":{"android":"levelo://app?vid=26cb4221-b5f3-4d99-8e89-bb3f020d6ab1","ios":"levelo://app?vid=26cb4221-b5f3-4d99-8e89-bb3f020d6ab1"},"vehicle_type_id":"4","last_reported":1719288591,"current_range_meters":16000,"station_id":"ce4bgvp2rcd13ifvqcu0","pricing_plan_id":"cebpf4jnsgd1na2vs0mg"},{"bike_id":"6f806eb9-7349-4a05-bef8-c3a43fc04286","system_id":"levelo_inurba_marseille","lat":43.313291,"lon":5.396838,"is_reserved":false,"is_disabled":false,"rental_uris":{"android":"levelo://app?vid=6f806eb9-7349-4a05-bef8-c3a43fc04286","ios":"levelo://app?vid=6f806eb9-7349-4a05-bef8-c3a43fc04286"},"vehicle_type_id":"4","last_reported":1719288591,"current_range_meters":16400,"station_id":"ce4bgvp2rcd13ifvqcu0","pricing_plan_id":"cebpf4jnsgd1na2vs0mg"},{"bike_id":"1333b84e-64b2-4962-9521-ba7fe4524044","system_id":"levelo_inurba_marseille","lat":43.313291,"lon":5.396838,"is_reserved":false,"is_disabled":false,"rental_uris":{"android":"levelo://app?vid=1333b84e-64b2-4962-9521-ba7fe4524044","ios":"levelo://app?vid=1333b84e-64b2-4962-9521-ba7fe4524044"},"vehicle_type_id":"4","last_reported":1719288591,"current_range_meters":16000,"station_id":"ce4bgvp2rcd13ifvqcu0","pricing_plan_id":"cebpf4jnsgd1na2vs0mg"},{"bike_id":"9432f900-1e2a-472d-b9c4-6183f9cffbad","system_id":"levelo_inurba_marseille","lat":43.309038,"lon":5.396546,"is_reserved":false,"is_disabled":false,"rental_uris":{"android":"levelo://app?vid=9432f900-1e2a-472d-b9c4-6183f9cffbad","ios":"levelo://app?vid=9432f900-1e2a-472d-b9c4-6183f9cffbad"},"vehicle_type_id":"4","last_reported":1719288591,"current_range_meters":31200,"station_id":"ce4bh012rcd13ifvqcv0","pricing_plan_id":"cebpf4jnsgd1na2vs0mg"},{"bike_id":"164fe788-8995-4515-8c0f-b10f04456763","system_id":"levelo_inurba_marseille","lat":43.313291,"lon":5.396838,"is_reserved":false,"is_disabled":false,"rental_uris":{"android":"levelo://app?vid=164fe788-8995-4515-8c0f-b10f04456763","ios":"levelo://app?vid=164fe788-8995-4515-8c0f-b10f04456763"},"vehicle_type_id":"4","last_reported":1719288591,"current_range_meters":28800,"station_id":"ce4bgvp2rcd13ifvqcu0","pricing_plan_id":"cebpf4jnsgd1na2vs0mg"},{"bike_id":"e4b6af0a-a3f8-4d53-bab4-7d0d7f9fd51b","system_id":"levelo_inurba_marseille","lat":43.313291,"lon":5.396838,"is_reserved":false,"is_disabled":false,"rental_uris":{"android":"levelo://app?vid=e4b6af0a-a3f8-4d53-bab4-7d0d7f9fd51b","ios":"levelo://app?vid=e4b6af0a-a3f8-4d53-bab4-7d0d7f9fd51b"},"vehicle_type_id":"4","last_reported":1719288591,"current_range_meters":30800,"station_id":"ce4bgvp2rcd13ifvqcu0","pricing_plan_id":"cebpf4jnsgd1na2vs0mg"},{"bike_id":"a5f6fda7-86b7-4a54-98e1-755f24e7c7fd","system_id":"levelo_inurba_marseille","lat":43.313291,"lon":5.396838,"is_reserved":false,"is_disabled":false,"rental_uris":{"android":"levelo://app?vid=a5f6fda7-86b7-4a54-98e1-755f24e7c7fd","ios":"levelo://app?vid=a5f6fda7-86b7-4a54-98e1-755f24e7c7fd"},"vehicle_type_id":"4","last_reported":1719288591,"current_range_meters":31200,"station_id":"ce4bgvp2rcd13ifvqcu0","pricing_plan_id":"cebpf4jnsgd1na2vs0mg"},{"bike_id":"24f4333a-1ccd-4615-8b96-395dbd2a7762","system_id":"levelo_inurba_marseille","lat":43.313291,"lon":5.396838,"is_reserved":false,"is_disabled":false,"rental_uris":{"android":"levelo://app?vid=24f4333a-1ccd-4615-8b96-395dbd2a7762","ios":"levelo://app?vid=24f4333a-1ccd-4615-8b96-395dbd2a7762"},"vehicle_type_id":"4","last_reported":1719288591,"current_range_meters":28800,"station_id":"ce4bgvp2rcd13ifvqcu0","pricing_plan_id":"cebpf4jnsgd1na2vs0mg"},{"bike_id":"89962f2d-046e-4346-830e-9afc892da223","system_id":"levelo_inurba_marseille","lat":43.313291,"lon":5.396838,"is_reserved":false,"is_disabled":false,"rental_uris":{"android":"levelo://app?vid=89962f2d-046e-4346-830e-9afc892da223","ios":"levelo://app?vid=89962f2d-046e-4346-830e-9afc892da223"},"vehicle_type_id":"4","last_reported":1719288591,"current_range_meters":28800,"station_id":"ce4bgvp2rcd13ifvqcu0","pricing_plan_id":"cebpf4jnsgd1na2vs0mg"},{"bike_id":"e9b9fbab-73a2-457c-b7b8-cc5f5013ff09","system_id":"levelo_inurba_marseille","lat":43.313291,"lon":5.396838,"is_reserved":false,"is_disabled":false,"rental_uris":{"android":"levelo://app?vid=e9b9fbab-73a2-457c-b7b8-cc5f5013ff09","ios":"levelo://app?vid=e9b9fbab-73a2-457c-b7b8-cc5f5013ff09"},"vehicle_type_id":"4","last_reported":1719288591,"current_range_meters":20400,"station_id":"ce4bgvp2rcd13ifvqcu0","pricing_plan_id":"cebpf4jnsgd1na2vs0mg"},{"bike_id":"5da0d757-3bd8-4cc2-8018-3f69f593e9a5","system_id":"levelo_inurba_marseille","lat":43.308811,"lon":5.396444,"is_reserved":false,"is_disabled":false,"rental_uris":{"android":"levelo://app?vid=5da0d757-3bd8-4cc2-8018-3f69f593e9a5","ios":"levelo://app?vid=5da0d757-3bd8-4cc2-8018-3f69f593e9a5"},"vehicle_type_id":"4","last_reported":1719288591,"current_range_meters":12000,"station_id":"ce4bh012rcd13ifvqcv0","pricing_plan_id":"cebpf4jnsgd1na2vs0mg"},{"bike_id":"9d8bce9c-c00e-43ef-9e6e-0e5e807f7409","system_id":"levelo_inurba_marseille","lat":43.309038,"lon":5.396546,"is_reserved":false,"is_disabled":false,"rental_uris":{"android":"levelo://app?vid=9d8bce9c-c00e-43ef-9e6e-0e5e807f7409","ios":"levelo://app?vid=9d8bce9c-c00e-43ef-9e6e-0e5e807f7409"},"vehicle_type_id":"4","last_reported":1719288591,"current_range_meters":21600,"station_id":"ce4bh012rcd13ifvqcv0","pricing_plan_id":"cebpf4jnsgd1na2vs0mg"},{"bike_id":"4950863f-b8f6-46b8-bed1-641b179e16ca","system_id":"levelo_inurba_marseille","lat":43.309047,"lon":5.396551,"is_reserved":false,"is_disabled":false,"rental_uris":{"android":"levelo://app?vid=4950863f-b8f6-46b8-bed1-641b179e16ca","ios":"levelo://app?vid=4950863f-b8f6-46b8-bed1-641b179e16ca"},"vehicle_type_id":"4","last_reported":1719288591,"current_range_meters":31200,"station_id":"ce4bh012rcd13ifvqcv0","pricing_plan_id":"cebpf4jnsgd1na2vs0mg"},{"bike_id":"fc602dee-3885-47c9-805f-f9f992106083","system_id":"levelo_inurba_marseille","lat":43.313291,"lon":5.396838,"is_reserved":false,"is_disabled":false,"rental_uris":{"android":"levelo://app?vid=fc602dee-3885-47c9-805f-f9f992106083","ios":"levelo://app?vid=fc602dee-3885-47c9-805f-f9f992106083"},"vehicle_type_id":"4","last_reported":1719288591,"current_range_meters":22800,"station_id":"ce4bgvp2rcd13ifvqcu0","pricing_plan_id":"cebpf4jnsgd1na2vs0mg"},{"bike_id":"7c5ff667-0d52-4e56-ab33-00c871590541","system_id":"levelo_inurba_marseille","lat":43.309047,"lon":5.396551,"is_reserved":false,"is_disabled":false,"rental_uris":{"android":"levelo://app?vid=7c5ff667-0d52-4e56-ab33-00c871590541","ios":"levelo://app?vid=7c5ff667-0d52-4e56-ab33-00c871590541"},"vehicle_type_id":"4","last_reported":1719288591,"current_range_meters":7600,"station_id":"ce4bh012rcd13ifvqcv0","pricing_plan_id":"cebpf4jnsgd1na2vs0mg"},{"bike_id":"9eb8e639-c8c8-4c2c-b853-da9dd4b70c0d","system_id":"levelo_inurba_marseille","lat":43.313291,"lon":5.396838,"is_reserved":false,"is_disabled":false,"rental_uris":{"android":"levelo://app?vid=9eb8e639-c8c8-4c2c-b853-da9dd4b70c0d","ios":"levelo://app?vid=9eb8e639-c8c8-4c2c-b853-da9dd4b70c0d"},"vehicle_type_id":"4","last_reported":1719288591,"current_range_meters":7600,"station_id":"ce4bgvp2rcd13ifvqcu0","pricing_plan_id":"cebpf4jnsgd1na2vs0mg"},{"bike_id":"373d5722-5434-47f0-9bdc-a85852380ff4","system_id":"levelo_inurba_marseille","lat":43.309038,"lon":5.396546,"is_reserved":false,"is_disabled":false,"rental_uris":{"android":"levelo://app?vid=373d5722-5434-47f0-9bdc-a85852380ff4","ios":"levelo://app?vid=373d5722-5434-47f0-9bdc-a85852380ff4"},"vehicle_type_id":"4","last_reported":1719288591,"current_range_meters":4000,"station_id":"ce4bh012rcd13ifvqcv0","pricing_plan_id":"cebpf4jnsgd1na2vs0mg"},{"bike_id":"f1e1c45b-b853-4101-ac2d-7cbcd2850dc0","system_id":"levelo_inurba_marseille","lat":43.313291,"lon":5.396838,"is_reserved":false,"is_disabled":false,"rental_uris":{"android":"levelo://app?vid=f1e1c45b-b853-4101-ac2d-7cbcd2850dc0","ios":"levelo://app?vid=f1e1c45b-b853-4101-ac2d-7cbcd2850dc0"},"vehicle_type_id":"4","last_reported":1719288591,"current_range_meters":22800,"station_id":"ce4bgvp2rcd13ifvqcu0","pricing_plan_id":"cebpf4jnsgd1na2vs0mg"},{"bike_id":"778228ce-3d94-4fd2-8120-f755afcac899","system_id":"levelo_inurba_marseille","lat":43.313291,"lon":5.396838,"is_reserved":false,"is_disabled":false,"rental_uris":{"android":"levelo://app?vid=778228ce-3d94-4fd2-8120-f755afcac899","ios":"levelo://app?vid=778228ce-3d94-4fd2-8120-f755afcac899"},"vehicle_type_id":"4","last_reported":1719288591,"current_range_meters":20400,"station_id":"ce4bgvp2rcd13ifvqcu0","pricing_plan_id":"cebpf4jnsgd1na2vs0mg"},{"bike_id":"5ab4bb6d-4321-4ecd-95e0-6bf90a3f9f0a","system_id":"levelo_inurba_marseille","lat":43.291994,"lon":5.357886,"is_reserved":false,"is_disabled":false,"rental_uris":{"android":"levelo://app?vid=5ab4bb6d-4321-4ecd-95e0-6bf90a3f9f0a","ios":"levelo://app?vid=5ab4bb6d-4321-4ecd-95e0-6bf90a3f9f0a"},"vehicle_type_id":"4","last_reported":1719288591,"current_range_meters":26800,"station_id":"ce4bhb12rcd13ifvqel0","pricing_plan_id":"cebpf4jnsgd1na2vs0mg"},{"bike_id":"e8544fa5-f78b-441c-bd31-e484b90c4723","system_id":"levelo_inurba_marseille","lat":43.309038,"lon":5.396546,"is_reserved":false,"is_disabled":false,"rental_uris":{"android":"levelo://app?vid=e8544fa5-f78b-441c-bd31-e484b90c4723","ios":"levelo://app?vid=e8544fa5-f78b-441c-bd31-e484b90c4723"},"vehicle_type_id":"4","last_reported":1719288591,"current_range_meters":29200,"station_id":"ce4bh012rcd13ifvqcv0","pricing_plan_id":"cebpf4jnsgd1na2vs0mg"},{"bike_id":"cb28e5fc-4551-4f2e-ba7e-44b3b848923d","system_id":"levelo_inurba_marseille","lat":43.31544,"lon":5.39716,"is_reserved":false,"is_disabled":false,"rental_uris":{"android":"levelo://app?vid=cb28e5fc-4551-4f2e-ba7e-44b3b848923d","ios":"levelo://app?vid=cb28e5fc-4551-4f2e-ba7e-44b3b848923d"},"vehicle_type_id":"4","last_reported":1719288591,"current_range_meters":0,"station_id":"","pricing_plan_id":"cebpf4jnsgd1na2vs0mg"},{"bike_id":"499257af-a3a1-4eaf-b2fe-95b0012d845c","system_id":"levelo_inurba_marseille","lat":43.302008,"lon":5.394694,"is_reserved":false,"is_disabled":false,"rental_uris":{"android":"levelo://app?vid=499257af-a3a1-4eaf-b2fe-95b0012d845c","ios":"levelo://app?vid=499257af-a3a1-4eaf-b2fe-95b0012d845c"},"vehicle_type_id":"4","last_reported":1719288591,"current_range_meters":31200,"station_id":"ce4bh0p2rcd13ifvqd70","pricing_plan_id":"cebpf4jnsgd1na2vs0mg"},{"bike_id":"1d05157a-91fe-453b-93dd-9833506d0628","system_id":"levelo_inurba_marseille","lat":43.302008,"lon":5.394694,"is_reserved":false,"is_disabled":false,"rental_uris":{"android":"levelo://app?vid=1d05157a-91fe-453b-93dd-9833506d0628","ios":"levelo://app?vid=1d05157a-91fe-453b-93dd-9833506d0628"},"vehicle_type_id":"4","last_reported":1719288591,"current_range_meters":31200,"station_id":"ce4bh0p2rcd13ifvqd70","pricing_plan_id":"cebpf4jnsgd1na2vs0mg"},{"bike_id":"6d2ef35b-e7e3-44fb-a87c-45452647ab83","system_id":"levelo_inurba_marseille","lat":43.302008,"lon":5.394694,"is_reserved":false,"is_disabled":false,"rental_uris":{"android":"levelo://app?vid=6d2ef35b-e7e3-44fb-a87c-45452647ab83","ios":"levelo://app?vid=6d2ef35b-e7e3-44fb-a87c-45452647ab83"},"vehicle_type_id":"4","last_reported":1719288591,"current_range_meters":25200,"station_id":"ce4bh0p2rcd13ifvqd70","pricing_plan_id":"cebpf4jnsgd1na2vs0mg"},{"bike_id":"a8308467-e3b2-48a7-979b-92c50090f85b","system_id":"levelo_inurba_marseille","lat":43.302008,"lon":5.394694,"is_reserved":false,"is_disabled":false,"rental_uris":{"android":"levelo://app?vid=a8308467-e3b2-48a7-979b-92c50090f85b","ios":"levelo://app?vid=a8308467-e3b2-48a7-979b-92c50090f85b"},"vehicle_type_id":"4","last_reported":1719288591,"current_range_meters":29600,"station_id":"ce4bh0p2rcd13ifvqd70","pricing_plan_id":"cebpf4jnsgd1na2vs0mg"},{"bike_id":"8b43f3f7-2eb9-4039-933e-27e871c6fced","system_id":"levelo_inurba_marseille","lat":43.302008,"lon":5.394694,"is_reserved":false,"is_disabled":false,"rental_uris":{"android":"levelo://app?vid=8b43f3f7-2eb9-4039-933e-27e871c6fced","ios":"levelo://app?vid=8b43f3f7-2eb9-4039-933e-27e871c6fced"},"vehicle_type_id":"4","last_reported":1719288591,"current_range_meters":30400,"station_id":"ce4bh0p2rcd13ifvqd70","pricing_plan_id":"cebpf4jnsgd1na2vs0mg"},{"bike_id":"03b2e223-7a30-45f3-a93c-ac0833f277d4","system_id":"levelo_inurba_marseille","lat":43.302008,"lon":5.394694,"is_reserved":false,"is_disabled":false,"rental_uris":{"android":"levelo://app?vid=03b2e223-7a30-45f3-a93c-ac0833f277d4","ios":"levelo://app?vid=03b2e223-7a30-45f3-a93c-ac0833f277d4"},"vehicle_type_id":"4","last_reported":1719288591,"current_range_meters":28800,"station_id":"ce4bh0p2rcd13ifvqd70","pricing_plan_id":"cebpf4jnsgd1na2vs0mg"},{"bike_id":"0e2632c6-7ac6-444e-90fa-bec22908808b","system_id":"levelo_inurba_marseille","lat":43.290631,"lon":5.359244,"is_reserved":false,"is_disabled":false,"rental_uris":{"android":"levelo://app?vid=0e2632c6-7ac6-444e-90fa-bec22908808b","ios":"levelo://app?vid=0e2632c6-7ac6-444e-90fa-bec22908808b"},"vehicle_type_id":"4","last_reported":1719288591,"current_range_meters":18800,"station_id":"ce4bha92rcd13ifvqeg0","pricing_plan_id":"cebpf4jnsgd1na2vs0mg"},{"bike_id":"77271f56-e478-4c8b-803f-bf30cb38ab7c","system_id":"levelo_inurba_marseille","lat":43.289184,"lon":5.366408,"is_reserved":false,"is_disabled":false,"rental_uris":{"android":"levelo://app?vid=77271f56-e478-4c8b-803f-bf30cb38ab7c","ios":"levelo://app?vid=77271f56-e478-4c8b-803f-bf30cb38ab7c"},"vehicle_type_id":"4","last_reported":1719288591,"current_range_meters":22800,"station_id":"ce4bhap2rcd13ifvqek0","pricing_plan_id":"cebpf4jnsgd1na2vs0mg"},{"bike_id":"e4350781-a797-4c26-82f3-94fb64f9e1f0","system_id":"levelo_inurba_marseille","lat":43.289184,"lon":5.366408,"is_reserved":false,"is_disabled":false,"rental_uris":{"android":"levelo://app?vid=e4350781-a797-4c26-82f3-94fb64f9e1f0","ios":"levelo://app?vid=e4350781-a797-4c26-82f3-94fb64f9e1f0"},"vehicle_type_id":"4","last_reported":1719288591,"current_range_meters":29600,"station_id":"ce4bhap2rcd13ifvqek0","pricing_plan_id":"cebpf4jnsgd1na2vs0mg"},{"bike_id":"b13c4d9b-a1d0-433c-8853-70484502aa93","system_id":"levelo_inurba_marseille","lat":43.289468,"lon":5.363719,"is_reserved":false,"is_disabled":false,"rental_uris":{"android":"levelo://app?vid=b13c4d9b-a1d0-433c-8853-70484502aa93","ios":"levelo://app?vid=b13c4d9b-a1d0-433c-8853-70484502aa93"},"vehicle_type_id":"4","last_reported":1719288591,"current_range_meters":20400,"station_id":"ce4bhc92rcd13ifvqetg","pricing_plan_id":"cebpf4jnsgd1na2vs0mg"},{"bike_id":"2bdf414e-600f-4f28-9e67-e1d225bee103","system_id":"levelo_inurba_marseille","lat":43.29028,"lon":5.37693,"is_reserved":false,"is_disabled":false,"rental_uris":{"android":"levelo://app?vid=2bdf414e-600f-4f28-9e67-e1d225bee103","ios":"levelo://app?vid=2bdf414e-600f-4f28-9e67-e1d225bee103"},"vehicle_type_id":"4","last_reported":1719288591,"current_range_meters":12000,"station_id":"ce4bh092rcd13ifvqd30","pricing_plan_id":"cebpf4jnsgd1na2vs0mg"},{"bike_id":"d421cce8-3eb9-42ae-b6d7-5a583fbd5cfc","system_id":"levelo_inurba_marseille","lat":43.29273,"lon":5.3844,"is_reserved":false,"is_disabled":false,"rental_uris":{"android":"levelo://app?vid=d421cce8-3eb9-42ae-b6d7-5a583fbd5cfc","ios":"levelo://app?vid=d421cce8-3eb9-42ae-b6d7-5a583fbd5cfc"},"vehicle_type_id":"4","last_reported":1719288591,"current_range_meters":16400,"station_id":"ce4bh692rcd13ifvqea0","pricing_plan_id":"cebpf4jnsgd1na2vs0mg"},{"bike_id":"24998e42-bb01-4b10-8326-1cfa69101f08","system_id":"levelo_inurba_marseille","lat":43.304274,"lon":5.397513,"is_reserved":false,"is_disabled":false,"rental_uris":{"android":"levelo://app?vid=24998e42-bb01-4b10-8326-1cfa69101f08","ios":"levelo://app?vid=24998e42-bb01-4b10-8326-1cfa69101f08"},"vehicle_type_id":"4","last_reported":1719288591,"current_range_meters":25600,"station_id":"ce4bh092rcd13ifvqd20","pricing_plan_id":"cebpf4jnsgd1na2vs0mg"},{"bike_id":"462f033f-7903-4627-b20b-eb0d2d52afaf","system_id":"levelo_inurba_marseille","lat":43.292644,"lon":5.384257,"is_reserved":false,"is_disabled":false,"rental_uris":{"android":"levelo://app?vid=462f033f-7903-4627-b20b-eb0d2d52afaf","ios":"levelo://app?vid=462f033f-7903-4627-b20b-eb0d2d52afaf"},"vehicle_type_id":"4","last_reported":1719288591,"current_range_meters":26000,"station_id":"ce4bh692rcd13ifvqea0","pricing_plan_id":"cebpf4jnsgd1na2vs0mg"},{"bike_id":"1fa641cb-0b04-46bd-9724-a06f9748c4a3","system_id":"levelo_inurba_marseille","lat":43.29802,"lon":5.39344,"is_reserved":false,"is_disabled":false,"rental_uris":{"android":"levelo://app?vid=1fa641cb-0b04-46bd-9724-a06f9748c4a3","ios":"levelo://app?vid=1fa641cb-0b04-46bd-9724-a06f9748c4a3"},"vehicle_type_id":"4","last_reported":1719288591,"current_range_meters":21200,"station_id":"chh1huq6cuj3fo74tm60","pricing_plan_id":"cebpf4jnsgd1na2vs0mg"},{"bike_id":"6030e6bf-d14e-47bc-9ac6-87e40804f126","system_id":"levelo_inurba_marseille","lat":43.297815,"lon":5.393548,"is_reserved":false,"is_disabled":false,"rental_uris":{"android":"levelo://app?vid=6030e6bf-d14e-47bc-9ac6-87e40804f126","ios":"levelo://app?vid=6030e6bf-d14e-47bc-9ac6-87e40804f126"},"vehicle_type_id":"4","last_reported":1719288591,"current_range_meters":30800,"station_id":"chh1huq6cuj3fo74tm60","pricing_plan_id":"cebpf4jnsgd1na2vs0mg"},{"bike_id":"498bbb46-9655-420b-9371-4c06bd94e3f1","system_id":"levelo_inurba_marseille","lat":43.297862,"lon":5.393438,"is_reserved":false,"is_disabled":false,"rental_uris":{"android":"levelo://app?vid=498bbb46-9655-420b-9371-4c06bd94e3f1","ios":"levelo://app?vid=498bbb46-9655-420b-9371-4c06bd94e3f1"},"vehicle_type_id":"4","last_reported":1719288591,"current_range_meters":24400,"station_id":"chh1huq6cuj3fo74tm60","pricing_plan_id":"cebpf4jnsgd1na2vs0mg"},{"bike_id":"d061a77f-9020-479d-9c0f-460bb03e0a45","system_id":"levelo_inurba_marseille","lat":43.297889,"lon":5.393498,"is_reserved":false,"is_disabled":false,"rental_uris":{"android":"levelo://app?vid=d061a77f-9020-479d-9c0f-460bb03e0a45","ios":"levelo://app?vid=d061a77f-9020-479d-9c0f-460bb03e0a45"},"vehicle_type_id":"4","last_reported":1719288591,"current_range_meters":31200,"station_id":"chh1huq6cuj3fo74tm60","pricing_plan_id":"cebpf4jnsgd1na2vs0mg"},{"bike_id":"1b1b1746-f1f4-4029-b36f-0a7927b94b4d","system_id":"levelo_inurba_marseille","lat":43.29789,"lon":5.3935,"is_reserved":false,"is_disabled":false,"rental_uris":{"android":"levelo://app?vid=1b1b1746-f1f4-4029-b36f-0a7927b94b4d","ios":"levelo://app?vid=1b1b1746-f1f4-4029-b36f-0a7927b94b4d"},"vehicle_type_id":"4","last_reported":1719288591,"current_range_meters":14000,"station_id":"chh1huq6cuj3fo74tm60","pricing_plan_id":"cebpf4jnsgd1na2vs0mg"},{"bike_id":"e1850f33-0238-4ebf-a0a6-47849409d3f2","system_id":"levelo_inurba_marseille","lat":43.295169,"lon":5.390426,"is_reserved":false,"is_disabled":false,"rental_uris":{"android":"levelo://app?vid=e1850f33-0238-4ebf-a0a6-47849409d3f2","ios":"levelo://app?vid=e1850f33-0238-4ebf-a0a6-47849409d3f2"},"vehicle_type_id":"4","last_reported":1719288591,"current_range_meters":17200,"station_id":"ce4bh3p2rcd13ifvqdp0","pricing_plan_id":"cebpf4jnsgd1na2vs0mg"},{"bike_id":"78f2a984-c8d5-4474-9d7e-b231f72b231f","system_id":"levelo_inurba_marseille","lat":43.330442,"lon":5.389148,"is_reserved":false,"is_disabled":false,"rental_uris":{"android":"levelo://app?vid=78f2a984-c8d5-4474-9d7e-b231f72b231f","ios":"levelo://app?vid=78f2a984-c8d5-4474-9d7e-b231f72b231f"},"vehicle_type_id":"4","last_reported":1719288591,"current_range_meters":28400,"station_id":"ce4bhr92rcd13ifvqhrg","pricing_plan_id":"cebpf4jnsgd1na2vs0mg"},{"bike_id":"e56f9dda-72cb-4455-8223-ec053e0885f9","system_id":"levelo_inurba_marseille","lat":43.295169,"lon":5.390426,"is_reserved":false,"is_disabled":false,"rental_uris":{"android":"levelo://app?vid=e56f9dda-72cb-4455-8223-ec053e0885f9","ios":"levelo://app?vid=e56f9dda-72cb-4455-8223-ec053e0885f9"},"vehicle_type_id":"4","last_reported":1719288591,"current_range_meters":30400,"station_id":"ce4bh3p2rcd13ifvqdp0","pricing_plan_id":"cebpf4jnsgd1na2vs0mg"},