{"last_updated":1746671302,"ttl":60,"version":"2.2","data":{"bikes":[{"bike_id":"646ce932-e3b6-448c-a87b-52e6b01e32fa","system_id":"levelo_inurba_marseille","lat":43.26186,"lon":5.3877,"is_reserved":false,"is_disabled":true,"rental_uris":{"android":"levelo://app?vid=646ce932-e3b6-448c-a87b-52e6b01e32fa","ios":"levelo://app?vid=646ce932-e3b6-448c-a87b-52e6b01e32fa"},"vehicle_type_id":"4","last_reported":1746671302,"current_range_meters":0,"station_id":"","pricing_plan_id":"cebpf4jnsgd1na2vs0mg"},{"bike_id":"9afdaa32-5437-40bb-b5dc-0e42f55a33ee","system_id":"levelo_inurba_marseille","lat":43.25395,"lon":5.41853,"is_reserved":false,"is_disabled":true,"rental_uris":{"android":"levelo://app?vid=9afdaa32-5437-40bb-b5dc-0e42f55a33ee","ios":"levelo://app?vid=9afdaa32-5437-40bb-b5dc-0e42f55a33ee"},"vehicle_type_id":"4","last_reported":1746671302,"current_range_meters":0,"station_id":"","pricing_plan_id":"cebpf4jnsgd1na2vs0mg"},{"bike_id":"66b646b3-6352-44bb-9bfb-21570512e3e5","system_id":"levelo_inurba_marseille","lat":43.28113,"lon":5.40419,"is_reserved":false,"is_disabled":true,"rental_uris":{"android":"levelo://app?vid=66b646b3-6352-44bb-9bfb-21570512e3e5","ios":"levelo://app?vid=66b646b3-6352-44bb-9bfb-21570512e3e5"},"vehicle_type_id":"4","last_reported":1746671302,"current_range_meters":0,"station_id":"","pricing_plan_id":"cebpf4jnsgd1na2vs0mg"},{"bike_id":"a38c2d49-7988-4ef8-83e8-42a2504085da","system_id":"levelo_inurba_marseille","lat":43.2452,"lon":5.41213,"is_reserved":false,"is_disabled":true,"rental_uris":{"android":"levelo://app?vid=a38c2d49-7988-4ef8-83e8-42a2504085da","ios":"levelo://app?vid=a38c2d49-7988-4ef8-83e8-42a2504085da"},"vehicle_type_id":"4","last_reported":1746671302,"current_range_meters":0,"station_id":"","pricing_plan_id":"cebpf4jnsgd1na2vs0mg"},{"bike_id":"b56eeeb9-9ded-4dd2-9efa-c8d4f8a5e387","system_id":"levelo_inurba_marseille","lat":43.273871,"lon":5.422446,"is_reserved":false,"is_disabled":true,"rental_uris":{"android":"levelo://app?vid=b56eeeb9-9ded-4dd2-9efa-c8d4f8a5e387","ios":"levelo://app?vid=b56eeeb9-9ded-4dd2-9efa-c8d4f8a5e387"},"vehicle_type_id":"4","last_reported":1746671302,"current_range_meters":0,"station_id":"","pricing_plan_id":"cebpf4jnsgd1na2vs0mg"},{"bike_id":"88c3c6c1-a33a-48ed-b2a4-48c16332184c","system_id":"levelo_inurba_marseille","lat":43.27958,"lon":5.37434,"is_reserved":false,"is_disabled":true,"rental_uris":{"android":"levelo://app?vid=88c3c6c1-a33a-48ed-b2a4-48c16332184c","ios":"levelo://app?vid=88c3c6c1-a33a-48ed-b2a4-48c16332184c"},"vehicle_type_id":"4","last_reported":1746671302,"current_range_meters":0,"station_id":"","pricing_plan_id":"cebpf4jnsgd1na2vs0mg"},{"bike_id":"ab578df2-0fb0-4b95-8051-328273e710be","system_id":"levelo_inurba_marseille","lat":43.307973,"lon":5.382657,"is_reserved":false,"is_disabled":true,"rental_uris":{"android":"levelo://app?vid=ab578df2-0fb0-4b95-8051-328273e710be","ios":"levelo://app?vid=ab578df2-0fb0-4b95-8051-328273e710be"},"vehicle_type_id":"4","last_reported":1746671302,"current_range_meters":0,"station_id":"","pricing_plan_id":"cebpf4jnsgd1na2vs0mg"},{"bike_id":"edaf51df-2b4b-4d63-a4ec-c1762e310aff","system_id":"levelo_inurba_marseille","lat":43.306039,"lon":5.375708,"is_reserved":false,"is_disabled":true,"rental_uris":{"android":"levelo://app?vid=edaf51df-2b4b-4d63-a4ec-c1762e310aff","ios":"levelo://app?vid=edaf51df-2b4b-4d63-a4ec-c1762e310aff"},"vehicle_type_id":"4","last_reported":1746671302,"current_range_meters":0,"station_id":"","pricing_plan_id":"cebpf4jnsgd1na2vs0mg"},{"bike_id":"2d251c8d-e9d0-476f-8622-cb88831f30c3","system_id":"levelo_inurba_marseille","lat":43.270033,"lon":5.387782,"is_reserved":false,"is_disabled":true,"rental_uris":{"android":"levelo://app?vid=2d251c8d-e9d0-476f-8622-cb88831f30c3","ios":"levelo://app?vid=2d251c8d-e9d0-476f-8622-cb88831f30c3"},"vehicle_type_id":"4","last_reported":1746671302,"current_range_meters":0,"station_id":"","pricing_plan_id":"cebpf4jnsgd1na2vs0mg"},{"bike_id":"718447f3-b6d2-4455-9edd-b1cf56662f96","system_id":"levelo_inurba_marseille","lat":43.32526,"lon":5.4313,"is_reserved":false,"is_disabled":true,"rental_uris":{"android":"levelo://app?vid=718447f3-b6d2-4455-9edd-b1cf56662f96","ios":"levelo://app?vid=718447f3-b6d2-4455-9edd-b1cf56662f96"},"vehicle_type_id":"4","last_reported":1746671302,"current_range_meters":0,"station_id":"","pricing_plan_id":"cebpf4jnsgd1na2vs0mg"},{"bike_id":"1d10dbdb-1a66-42f4-a3d0-565bffccc7b5","system_id":"levelo_inurba_marseille","lat":43.29786,"lon":5.38099,"is_reserved":false,"is_disabled":true,"rental_uris":{"android":"levelo://app?vid=1d10dbdb-1a66-42f4-a3d0-565bffccc7b5","ios":"levelo://app?vid=1d10dbdb-1a66-42f4-a3d0-565bffccc7b5"},"vehicle_type_id":"4","last_reported":1746671302,"current_range_meters":0,"station_id":"ce4bgip2rcd13ifvqbb0","pricing_plan_id":"cebpf4jnsgd1na2vs0mg"},{"bike_id":"e3c6eeb5-adbe-4129-8f99-e020f51023e6","system_id":"levelo_inurba_marseille","lat":43.30244,"lon":5.40061,"is_reserved":false,"is_disabled":true,"rental_uris":{"android":"levelo://app?vid=e3c6eeb5-adbe-4129-8f99-e020f51023e6","ios":"levelo://app?vid=e3c6eeb5-adbe-4129-8f99-e020f51023e6"},"vehicle_type_id":"4","last_reported":1746671302,"current_range_meters":0,"station_id":"ce4bgvh2rcd13ifvqcs0","pricing_plan_id":"cebpf4jnsgd1na2vs0mg"},{"bike_id":"faa4530b-2039-4956-a4a0-745de63a1515","system_id":"levelo_inurba_marseille","lat":43.29639,"lon":5.40611,"is_reserved":false,"is_disabled":true,"rental_uris":{"android":"levelo://app?vid=faa4530b-2039-4956-a4a0-745de63a1515","ios":"levelo://app?vid=faa4530b-2039-4956-a4a0-745de63a1515"},"vehicle_type_id":"4","last_reported":1746671302,"current_range_meters":0,"station_id":"ce4bh0h2rcd13ifvqd60","pricing_plan_id":"cebpf4jnsgd1na2vs0mg"},{"bike_id":"e8dbf11f-ed43-426e-af7d-6c322cbe5b62","system_id":"levelo_inurba_marseille","lat":43.26487,"lon":5.39537,"is_reserved":false,"is_disabled":true,"rental_uris":{"android":"levelo://app?vid=e8dbf11f-ed43-426e-af7d-6c322cbe5b62","ios":"levelo://app?vid=e8dbf11f-ed43-426e-af7d-6c322cbe5b62"},"vehicle_type_id":"4","last_reported":1746671302,"current_range_meters":0,"station_id":"ce4bhi12rcd13ifvqfq0","pricing_plan_id":"cebpf4jnsgd1na2vs0mg"},{"bike_id":"d0619e19-cc66-4545-805b-ca2a065e2cec","system_id":"levelo_inurba_marseille","lat":43.28712,"lon":5.40024,"is_reserved":false,"is_disabled":true,"rental_uris":{"android":"levelo://app?vid=d0619e19-cc66-4545-805b-ca2a065e2cec","ios":"levelo://app?vid=d0619e19-cc66-4545-805b-ca2a065e2cec"},"vehicle_type_id":"4","last_reported":1746671302,"current_range_meters":800,"station_id":"ce4bho92rcd13ifvqh3g","pricing_plan_id":"cebpf4jnsgd1na2vs0mg"},{"bike_id":"9748a0c4-d6b8-4d04-814d-c8cd66193aaf","system_id":"levelo_inurba_marseille","lat":43.25218,"lon":5.41052,"is_reserved":false,"is_disabled":false,"rental_uris":{"android":"levelo://app?vid=9748a0c4-d6b8-4d04-814d-c8cd66193aaf","ios":"levelo://app?vid=9748a0c4-d6b8-4d04-814d-c8cd66193aaf"},"vehicle_type_id":"4","last_reported":1746671302,"current_range_meters":2800,"station_id":"","pricing_plan_id":"cebpf4jnsgd1na2vs0mg"},{"bike_id":"a98eac02-3430-44b1-a4c7-e16fcbfbbecc","system_id":"levelo_inurba_marseille","lat":43.29225,"lon":5.36059,"is_reserved":false,"is_disabled":false,"rental_uris":{"android":"levelo://app?vid=a98eac02-3430-44b1-a4c7-e16fcbfbbecc","ios":"levelo://app?vid=a98eac02-3430-44b1-a4c7-e16fcbfbbecc"},"vehicle_type_id":"4","last_reported":1746671302,"current_range_meters":2800,"station_id":"ce4bhbh2rcd13ifvqeqg","pricing_plan_id":"cebpf4jnsgd1na2vs0mg"},{"bike_id":"63cb73aa-86fe-4599-9b76-3790ec130780","system_id":"levelo_inurba_marseille","lat":43.29572,"lon":5.37903,"is_reserved":false,"is_disabled":false,"rental_uris":{"android":"levelo://app?vid=63cb73aa-86fe-4599-9b76-3790ec130780","ios":"levelo://app?vid=63cb73aa-86fe-4599-9b76-3790ec130780"},"vehicle_type_id":"4","last_reported":1746671302,"current_range_meters":3200,"station_id":"","pricing_plan_id":"cebpf4jnsgd1na2vs0mg"},{"bike_id":"c9592205-9409-4f74-aed1-7c4141a58caa","system_id":"levelo_inurba_marseille","lat":43.27141,"lon":5.36372,"is_reserved":false,"is_disabled":false,"rental_uris":{"android":"levelo://app?vid=c9592205-9409-4f74-aed1-7c4141a58caa","ios":"levelo://app?vid=c9592205-9409-4f74-aed1-7c4141a58caa"},"vehicle_type_id":"4","last_reported":1746671302,"current_range_meters":3600,"station_id":"","pricing_plan_id":"cebpf4jnsgd1na2vs0mg"},{"bike_id":"351c998d-7524-4daf-aa92-d5e4d72a1b49","system_id":"levelo_inurba_marseille","lat":43.308041,"lon":5.381425,"is_reserved":false,"is_disabled":false,"rental_uris":{"android":"levelo://app?vid=351c998d-7524-4daf-aa92-d5e4d72a1b49","ios":"levelo://app?vid=351c998d-7524-4daf-aa92-d5e4d72a1b49"},"vehicle_type_id":"4","last_reported":1746671302,"current_range_meters":3600,"station_id":"ce4bgt12rcd13ifvqce0","pricing_plan_id":"cebpf4jnsgd1na2vs0mg"},{"bike_id":"92725351-a1ce-45d5-a552-16c91880da90","system_id":"levelo_inurba_marseille","lat":43.31083,"lon":5.38351,"is_reserved":false,"is_disabled":false,"rental_uris":{"android":"levelo://app?vid=92725351-a1ce-45d5-a552-16c91880da90","ios":"levelo://app?vid=92725351-a1ce-45d5-a552-16c91880da90"},"vehicle_type_id":"4","last_reported":1746671302,"current_range_meters":3600,"station_id":"ce4bgv92rcd13ifvqcr0","pricing_plan_id":"cebpf4jnsgd1na2vs0mg"},{"bike_id":"2c4ffa76-f0d5-4716-80fd-5f11f0a1eabe","system_id":"levelo_inurba_marseille","lat":43.28695,"lon":5.39991,"is_reserved":false,"is_disabled":false,"rental_uris":{"android":"levelo://app?vid=2c4ffa76-f0d5-4716-80fd-5f11f0a1eabe","ios":"levelo://app?vid=2c4ffa76-f0d5-4716-80fd-5f11f0a1eabe"},"vehicle_type_id":"4","last_reported":1746671302,"current_range_meters":3600,"station_id":"ce4bho92rcd13ifvqh3g","pricing_plan_id":"cebpf4jnsgd1na2vs0mg"},{"bike_id":"88d79492-c923-4d3a-b7e6-194ab045d4a5","system_id":"levelo_inurba_marseille","lat":43.32535,"lon":5.41432,"is_reserved":false,"is_disabled":false,"rental_uris":{"android":"levelo://app?vid=88d79492-c923-4d3a-b7e6-194ab045d4a5","ios":"levelo://app?vid=88d79492-c923-4d3a-b7e6-194ab045d4a5"},"vehicle_type_id":"4","last_reported":1746671302,"current_range_meters":3600,"station_id":"ce4bhq12rcd13ifvqhhg","pricing_plan_id":"cebpf4jnsgd1na2vs0mg"},{"bike_id":"5f89e5d8-8e5e-4a6d-901c-70aafb0a905d","system_id":"levelo_inurba_marseille","lat":43.292387,"lon":5.373856,"is_reserved":false,"is_disabled":false,"rental_uris":{"android":"levelo://app?vid=5f89e5d8-8e5e-4a6d-901c-70aafb0a905d","ios":"levelo://app?vid=5f89e5d8-8e5e-4a6d-901c-70aafb0a905d"},"vehicle_type_id":"4","last_reported":1746671302,"current_range_meters":4400,"station_id":"","pricing_plan_id":"cebpf4jnsgd1na2vs0mg"},{"bike_id":"78d6cd42-7367-40db-afa3-81e38969457f","system_id":"levelo_inurba_marseille","lat":43.301341,"lon":5.398807,"is_reserved":false,"is_disabled":false,"rental_uris":{"android":"levelo://app?vid=78d6cd42-7367-40db-afa3-81e38969457f","ios":"levelo://app?vid=78d6cd42-7367-40db-afa3-81e38969457f"},"vehicle_type_id":"4","last_reported":1746671302,"current_range_meters":4400,"station_id":"ce4bh0h2rcd13ifvqd40","pricing_plan_id":"cebpf4jnsgd1na2vs0mg"},{"bike_id":"45aaad29-61be-4b55-a624-2b9190511697","system_id":"levelo_inurba_marseille","lat":43.284061,"lon":5.375317,"is_reserved":false,"is_disabled":false,"rental_uris":{"android":"levelo://app?vid=45aaad29-61be-4b55-a624-2b9190511697","ios":"levelo://app?vid=45aaad29-61be-4b55-a624-2b9190511697"},"vehicle_type_id":"4","last_reported":1746671302,"current_range_meters":4400,"station_id":"ce4bh412rcd13ifvqds0","pricing_plan_id":"cebpf4jnsgd1na2vs0mg"},{"bike_id":"da1da5b7-01c4-402d-9f7a-8ee4a44e531b","system_id":"levelo_inurba_marseille","lat":43.2314,"lon":5.43751,"is_reserved":false,"is_disabled":false,"rental_uris":{"android":"levelo://app?vid=da1da5b7-01c4-402d-9f7a-8ee4a44e531b","ios":"levelo://app?vid=da1da5b7-01c4-402d-9f7a-8ee4a44e531b"},"vehicle_type_id":"4","last_reported":1746671302,"current_range_meters":4400,"station_id":"ce4bhmp2rcd13ifvqgog","pricing_plan_id":"cebpf4jnsgd1na2vs0mg"},{"bike_id":"705f1f6f-d92c-4df1-a512-943b0bf79900","system_id":"levelo_inurba_marseille","lat":43.22508,"lon":5.34786,"is_reserved":false,"is_disabled":false,"rental_uris":{"android":"levelo://app?vid=705f1f6f-d92c-4df1-a512-943b0bf79900","ios":"levelo://app?vid=705f1f6f-d92c-4df1-a512-943b0bf79900"},"vehicle_type_id":"4","last_reported":1746671302,"current_range_meters":4400,"station_id":"st_cvj5dfep6f1abm77gieg","pricing_plan_id":"cebpf4jnsgd1na2vs0mg"},{"bike_id":"b309296a-5a1b-445a-9a01-8252b5594238","system_id":"levelo_inurba_marseille","lat":43.24175,"lon":5.39737,"is_reserved":false,"is_disabled":false,"rental_uris":{"android":"levelo://app?vid=b309296a-5a1b-445a-9a01-8252b5594238","ios":"levelo://app?vid=b309296a-5a1b-445a-9a01-8252b5594238"},"vehicle_type_id":"4","last_reported":1746671302,"current_range_meters":4800,"station_id":"ce4bhn12rcd13ifvqgpg","pricing_plan_id":"cebpf4jnsgd1na2vs0mg"},{"bike_id":"b825f2f1-546f-4632-bb06-9499bc7ccfe8","system_id":"levelo_inurba_marseille","lat":43.299027,"lon":5.3747,"is_reserved":false,"is_disabled":false,"rental_uris":{"android":"levelo://app?vid=b825f2f1-546f-4632-bb06-9499bc7ccfe8","ios":"levelo://app?vid=b825f2f1-546f-4632-bb06-9499bc7ccfe8"},"vehicle_type_id":"4","last_reported":1746671302,"current_range_meters":5600,"station_id":"ce4bgjh2rcd13ifvqbg0","pricing_plan_id":"cebpf4jnsgd1na2vs0mg"},{"bike_id":"d38c6f35-9b5a-4701-b635-4daf6aa6dc6d","system_id":"levelo_inurba_marseille","lat":43.31325,"lon":5.39717,"is_reserved":false,"is_disabled":false,"rental_uris":{"android":"levelo://app?vid=d38c6f35-9b5a-4701-b635-4daf6aa6dc6d","ios":"levelo://app?vid=d38c6f35-9b5a-4701-b635-4daf6aa6dc6d"},"vehicle_type_id":"4","last_reported":1746671302,"current_range_meters":5600,"station_id":"ce4bgvp2rcd13ifvqcu0","pricing_plan_id":"cebpf4jnsgd1na2vs0mg"},{"bike_id":"511a1b48-d342-4461-a7ca-feb9b7b58bfb","system_id":"levelo_inurba_marseille","lat":43.28405,"lon":5.37523,"is_reserved":false,"is_disabled":false,"rental_uris":{"android":"levelo://app?vid=511a1b48-d342-4461-a7ca-feb9b7b58bfb","ios":"levelo://app?vid=511a1b48-d342-4461-a7ca-feb9b7b58bfb"},"vehicle_type_id":"4","last_reported":1746671302,"current_range_meters":6000,"station_id":"ce4bh412rcd13ifvqds0","pricing_plan_id":"cebpf4jnsgd1na2vs0mg"},{"bike_id":"88f90c5c-6128-4b9d-bb34-6e1b40933e50","system_id":"levelo_inurba_marseille","lat":43.28289,"lon":5.4323,"is_reserved":false,"is_disabled":false,"rental_uris":{"android":"levelo://app?vid=88f90c5c-6128-4b9d-bb34-6e1b40933e50","ios":"levelo://app?vid=88f90c5c-6128-4b9d-bb34-6e1b40933e50"},"vehicle_type_id":"4","last_reported":1746671302,"current_range_meters":6400,"station_id":"","pricing_plan_id":"cebpf4jnsgd1na2vs0mg"},{"bike_id":"1496fd3b-8e15-4e17-813d-5cc0107c427c","system_id":"levelo_inurba_marseille","lat":43.30934,"lon":5.40162,"is_reserved":false,"is_disabled":false,"rental_uris":{"android":"levelo://app?vid=1496fd3b-8e15-4e17-813d-5cc0107c427c","ios":"levelo://app?vid=1496fd3b-8e15-4e17-813d-5cc0107c427c"},"vehicle_type_id":"4","last_reported":1746671302,"current_range_meters":6400,"station_id":"ce4bgvp2rcd13ifvqct0","pricing_plan_id":"cebpf4jnsgd1na2vs0mg"},{"bike_id":"eccba332-1be7-42d7-a3c4-90b0d1cb293e","system_id":"levelo_inurba_marseille","lat":43.27985,"lon":5.41669,"is_reserved":false,"is_disabled":false,"rental_uris":{"android":"levelo://app?vid=eccba332-1be7-42d7-a3c4-90b0d1cb293e","ios":"levelo://app?vid=eccba332-1be7-42d7-a3c4-90b0d1cb293e"},"vehicle_type_id":"4","last_reported":1746671302,"current_range_meters":6400,"station_id":"ce4bho12rcd13ifvqh1g","pricing_plan_id":"cebpf4jnsgd1na2vs0mg"},{"bike_id":"dce814c0-4c4e-4a20-a33b-97af480f0bcb","system_id":"levelo_inurba_marseille","lat":43.29024,"lon":5.42648,"is_reserved":false,"is_disabled":false,"rental_uris":{"android":"levelo://app?vid=dce814c0-4c4e-4a20-a33b-97af480f0bcb","ios":"levelo://app?vid=dce814c0-4c4e-4a20-a33b-97af480f0bcb"},"vehicle_type_id":"4","last_reported":1746671302,"current_range_meters":6800,"station_id":"","pricing_plan_id":"cebpf4jnsgd1na2vs0mg"},{"bike_id":"7e28256a-ce9c-49d2-9d45-f15c43fc4e6a","system_id":"levelo_inurba_marseille","lat":43.30091,"lon":5.39094,"is_reserved":false,"is_disabled":false,"rental_uris":{"android":"levelo://app?vid=7e28256a-ce9c-49d2-9d45-f15c43fc4e6a","ios":"levelo://app?vid=7e28256a-ce9c-49d2-9d45-f15c43fc4e6a"},"vehicle_type_id":"4","last_reported":1746671302,"current_range_meters":6800,"station_id":"ce4bh192rcd13ifvqdb0","pricing_plan_id":"cebpf4jnsgd1na2vs0mg"},{"bike_id":"e16a169d-ac6f-418c-a095-9a9b0792d8ff","system_id":"levelo_inurba_marseille","lat":43.2845,"lon":5.35899,"is_reserved":false,"is_disabled":false,"rental_uris":{"android":"levelo://app?vid=e16a169d-ac6f-418c-a095-9a9b0792d8ff","ios":"levelo://app?vid=e16a169d-ac6f-418c-a095-9a9b0792d8ff"},"vehicle_type_id":"4","last_reported":1746671302,"current_range_meters":6800,"station_id":"ce4bhah2rcd13ifvqei0","pricing_plan_id":"cebpf4jnsgd1na2vs0mg"},{"bike_id":"082b5772-10bb-4282-bdbf-aa00094bbf28","system_id":"levelo_inurba_marseille","lat":43.27061,"lon":5.40262,"is_reserved":false,"is_disabled":false,"rental_uris":{"android":"levelo://app?vid=082b5772-10bb-4282-bdbf-aa00094bbf28","ios":"levelo://app?vid=082b5772-10bb-4282-bdbf-aa00094bbf28"},"vehicle_type_id":"4","last_reported":1746671302,"current_range_meters":6800,"station_id":"ce4bhk92rcd13ifvqgc0","pricing_plan_id":"cebpf4jnsgd1na2vs0mg"},{"bike_id":"aa6eaa6f-a172-4a31-8500-b76476b59cb3","system_id":"levelo_inurba_marseille","lat":43.23199,"lon":5.40002,"is_reserved":false,"is_disabled":false,"rental_uris":{"android":"levelo://app?vid=aa6eaa6f-a172-4a31-8500-b76476b59cb3","ios":"levelo://app?vid=aa6eaa6f-a172-4a31-8500-b76476b59cb3"},"vehicle_type_id":"4","last_reported":1746671302,"current_range_meters":6800,"station_id":"ce4bhn12rcd13ifvqgqg","pricing_plan_id":"cebpf4jnsgd1na2vs0mg"},{"bike_id":"9d03e3b9-cc02-47cb-8220-42e752a6ad34","system_id":"levelo_inurba_marseille","lat":43.29005,"lon":5.47709,"is_reserved":false,"is_disabled":false,"rental_uris":{"android":"levelo://app?vid=9d03e3b9-cc02-47cb-8220-42e752a6ad34","ios":"levelo://app?vid=9d03e3b9-cc02-47cb-8220-42e752a6ad34"},"vehicle_type_id":"4","last_reported":1746671302,"current_range_meters":7200,"station_id":"","pricing_plan_id":"cebpf4jnsgd1na2vs0mg"},{"bike_id":"e643ab0a-d97d-4d9f-bf0d-21fd7dcb7558","system_id":"levelo_inurba_marseille","lat":43.32448,"lon":5.4114,"is_reserved":false,"is_disabled":false,"rental_uris":{"android":"levelo://app?vid=e643ab0a-d97d-4d9f-bf0d-21fd7dcb7558","ios":"levelo://app?vid=e643ab0a-d97d-4d9f-bf0d-21fd7dcb7558"},"vehicle_type_id":"4","last_reported":1746671302,"current_range_meters":7200,"station_id":"","pricing_plan_id":"cebpf4jnsgd1na2vs0mg"},{"bike_id":"3b8370bc-0461-4367-a482-57c9f902d24f","system_id":"levelo_inurba_marseille","lat":43.30883,"lon":5.39654,"is_reserved":false,"is_disabled":false,"rental_uris":{"android":"levelo://app?vid=3b8370bc-0461-4367-a482-57c9f902d24f","ios":"levelo://app?vid=3b8370bc-0461-4367-a482-57c9f902d24f"},"vehicle_type_id":"4","last_reported":1746671302,"current_range_meters":7200,"station_id":"ce4bh012rcd13ifvqcv0","pricing_plan_id":"cebpf4jnsgd1na2vs0mg"},{"bike_id":"96cde410-af28-430b-883d-e5b9a0d0cbac","system_id":"levelo_inurba_marseille","lat":43.25112,"lon":5.40348,"is_reserved":false,"is_disabled":false,"rental_uris":{"android":"levelo://app?vid=96cde410-af28-430b-883d-e5b9a0d0cbac","ios":"levelo://app?vid=96cde410-af28-430b-883d-e5b9a0d0cbac"},"vehicle_type_id":"4","last_reported":1746671302,"current_range_meters":7200,"station_id":"ce4bhlh2rcd13ifvqgig","pricing_plan_id":"cebpf4jnsgd1na2vs0mg"},{"bike_id":"0e10e92a-439e-4081-803c-5f351bcf88ef","system_id":"levelo_inurba_marseille","lat":43.27934,"lon":5.41048,"is_reserved":false,"is_disabled":false,"rental_uris":{"android":"levelo://app?vid=0e10e92a-439e-4081-803c-5f351bcf88ef","ios":"levelo://app?vid=0e10e92a-439e-4081-803c-5f351bcf88ef"},"vehicle_type_id":"4","last_reported":1746671302,"current_range_meters":7200,"station_id":"ce4bhnp2rcd13ifvqh0g","pricing_plan_id":"cebpf4jnsgd1na2vs0mg"},{"bike_id":"dfd27e22-9b34-42f8-9fdf-f3a07c5bdce7","system_id":"levelo_inurba_marseille","lat":43.2416,"lon":5.36405,"is_reserved":false,"is_disabled":false,"rental_uris":{"android":"levelo://app?vid=dfd27e22-9b34-42f8-9fdf-f3a07c5bdce7","ios":"levelo://app?vid=dfd27e22-9b34-42f8-9fdf-f3a07c5bdce7"},"vehicle_type_id":"4","last_reported":1746671302,"current_range_meters":7200,"station_id":"cpo36qri1sfpv3e86is0","pricing_plan_id":"cebpf4jnsgd1na2vs0mg"},{"bike_id":"81ba7db5-5264-4e66-9236-ac68ced72379","system_id":"levelo_inurba_marseille","lat":43.31359,"lon":5.38505,"is_reserved":false,"is_disabled":false,"rental_uris":{"android":"levelo://app?vid=81ba7db5-5264-4e66-9236-ac68ced72379","ios":"levelo://app?vid=81ba7db5-5264-4e66-9236-ac68ced72379"},"vehicle_type_id":"4","last_reported":1746671302,"current_range_meters":8000,"station_id":"ce4bgt92rcd13ifvqcf0","pricing_plan_id":"cebpf4jnsgd1na2vs0mg"},{"bike_id":"fb158fd2-2336-47ee-a8b2-1a7cf41ae5f2","system_id":"levelo_inurba_marseille","lat":43.26493,"lon":5.39583,"is_reserved":false,"is_disabled":false,"rental_uris":{"android":"levelo://app?vid=fb158fd2-2336-47ee-a8b2-1a7cf41ae5f2","ios":"levelo://app?vid=fb158fd2-2336-47ee-a8b2-1a7cf41ae5f2"},"vehicle_type_id":"4","last_reported":1746671302,"current_range_meters":8000,"station_id":"ce4bhi12rcd13ifvqfq0","pricing_plan_id":"cebpf4jnsgd1na2vs0mg"},{"bike_id":"b7bdbe3a-b7ec-4256-908f-dfa71835a5d1","system_id":"levelo_inurba_marseille","lat":43.288694,"lon":5.371657,"is_reserved":false,"is_disabled":false,"rental_uris":{"android":"levelo://app?vid=b7bdbe3a-b7ec-4256-908f-dfa71835a5d1","ios":"levelo://app?vid=b7bdbe3a-b7ec-4256-908f-dfa71835a5d1"},"vehicle_type_id":"4","last_reported":1746671302,"current_range_meters":8400,"station_id":"","pricing_plan_id":"cebpf4jnsgd1na2vs0mg"},{"bike_id":"7ac246a2-4977-4bb7-b043-f9e684022275","system_id":"levelo_inurba_marseille","lat":43.31168,"lon":5.38727,"is_reserved":false,"is_disabled":false,"rental_uris":{"android":"levelo://app?vid=7ac246a2-4977-4bb7-b043-f9e684022275","ios":"levelo://app?vid=7ac246a2-4977-4bb7-b043-f9e684022275"},"vehicle_type_id":"4","last_reported":1746671302,"current_range_meters":8400,"station_id":"ce4bgv12rcd13ifvqcp0","pricing_plan_id":"cebpf4jnsgd1na2vs0mg"},{"bike_id":"3e8d8104-67f6-4ceb-98a1-a0150fb4c1b0","system_id":"levelo_inurba_marseille","lat":43.303275,"lon":5.404338,"is_reserved":false,"is_disabled":false,"rental_uris":{"android":"levelo://app?vid=3e8d8104-67f6-4ceb-98a1-a0150fb4c1b0","ios":"levelo://app?vid=3e8d8104-67f6-4ceb-98a1-a0150fb4c1b0"},"vehicle_type_id":"4","last_reported":1746671302,"current_range_meters":8400,"station_id":"ce4bh012rcd13ifvqd10","pricing_plan_id":"cebpf4jnsgd1na2vs0mg"},{"bike_id":"9fcf8f94-bd3a-4bcd-a417-322eed8d3454","system_id":"levelo_inurba_marseille","lat":43.30639,"lon":5.400749,"is_reserved":false,"is_disabled":false,"rental_uris":{"android":"levelo://app?vid=9fcf8f94-bd3a-4bcd-a417-322eed8d3454","ios":"levelo://app?vid=9fcf8f94-bd3a-4bcd-a417-322eed8d3454"},"vehicle_type_id":"4","last_reported":1746671302,"current_range_meters":8400,"station_id":"ce4bh112rcd13ifvqda0","pricing_plan_id":"cebpf4jnsgd1na2vs0mg"},{"bike_id":"5872f101-9271-4805-860d-0ee54b52f844","system_id":"levelo_inurba_marseille","lat":43.322885,"lon":5.382683,"is_reserved":false,"is_disabled":false,"rental_uris":{"android":"levelo://app?vid=5872f101-9271-4805-860d-0ee54b52f844","ios":"levelo://app?vid=5872f101-9271-4805-860d-0ee54b52f844"},"vehicle_type_id":"4","last_reported":1746671302,"current_range_meters":8400,"station_id":"ce4bhr12rcd13ifvqhqg","pricing_plan_id":"cebpf4jnsgd1na2vs0mg"},{"bike_id":"149dbc3f-738a-4425-9044-fb81967ea585","system_id":"levelo_inurba_marseille","lat":43.23055,"lon":5.35494,"is_reserved":false,"is_disabled":false,"rental_uris":{"android":"levelo://app?vid=149dbc3f-738a-4425-9044-fb81967ea585","ios":"levelo://app?vid=149dbc3f-738a-4425-9044-fb81967ea585"},"vehicle_type_id":"4","last_reported":1746671302,"current_range_meters":8400,"station_id":"cpo3342slgdg3j2ifvpg","pricing_plan_id":"cebpf4jnsgd1na2vs0mg"},{"bike_id":"a96833c3-7aad-4769-953e-d8192a324355","system_id":"levelo_inurba_marseille","lat":43.22482,"lon":5.34802,"is_reserved":false,"is_disabled":false,"rental_uris":{"android":"levelo://app?vid=a96833c3-7aad-4769-953e-d8192a324355","ios":"levelo://app?vid=a96833c3-7aad-4769-953e-d8192a324355"},"vehicle_type_id":"4","last_reported":1746671302,"current_range_meters":8400,"station_id":"st_cvj5dfep6f1abm77gieg","pricing_plan_id":"cebpf4jnsgd1na2vs0mg"},{"bike_id":"be3a2ed9-e107-46dc-8066-89cfcff50847","system_id":"levelo_inurba_marseille","lat":43.292359,"lon":5.371505,"is_reserved":false,"is_disabled":false,"rental_uris":{"android":"levelo://app?vid=be3a2ed9-e107-46dc-8066-89cfcff50847","ios":"levelo://app?vid=be3a2ed9-e107-46dc-8066-89cfcff50847"},"vehicle_type_id":"4","last_reported":1746671302,"current_range_meters":8800,"station_id":"","pricing_plan_id":"cebpf4jnsgd1na2vs0mg"},{"bike_id":"871d92dc-153b-42ec-8d90-34c9e0fb29bf","system_id":"levelo_inurba_marseille","lat":43.30626,"lon":5.39865,"is_reserved":false,"is_disabled":false,"rental_uris":{"android":"levelo://app?vid=871d92dc-153b-42ec-8d90-34c9e0fb29bf","ios":"levelo://app?vid=871d92dc-153b-42ec-8d90-34c9e0fb29bf"},"vehicle_type_id":"4","last_reported":1746671302,"current_range_meters":8800,"station_id":"","pricing_plan_id":"cebpf4jnsgd1na2vs0mg"},{"bike_id":"506b28be-ab9b-45d4-aa32-973d711ef404","system_id":"levelo_inurba_marseille","lat":43.262292,"lon":5.404505,"is_reserved":false,"is_disabled":false,"rental_uris":{"android":"levelo://app?vid=506b28be-ab9b-45d4-aa32-973d711ef404","ios":"levelo://app?vid=506b28be-ab9b-45d4-aa32-973d711ef404"},"vehicle_type_id":"4","last_reported":1746671302,"current_range_meters":8800,"station_id":"ce4bhmh2rcd13ifvqgmg","pricing_plan_id":"cebpf4jnsgd1na2vs0mg"},{"bike_id":"6675a5e8-5c8e-47e3-9935-5e27adad727a","system_id":"levelo_inurba_marseille","lat":43.27939,"lon":5.41051,"is_reserved":false,"is_disabled":false,"rental_uris":{"android":"levelo://app?vid=6675a5e8-5c8e-47e3-9935-5e27adad727a","ios":"levelo://app?vid=6675a5e8-5c8e-47e3-9935-5e27adad727a"},"vehicle_type_id":"4","last_reported":1746671302,"current_range_meters":8800,"station_id":"ce4bhnp2rcd13ifvqh0g","pricing_plan_id":"cebpf4jnsgd1na2vs0mg"},{"bike_id":"89420609-8590-4e4d-9042-8fb0e02b5686","system_id":"levelo_inurba_marseille","lat":43.24162,"lon":5.36394,"is_reserved":false,"is_disabled":false,"rental_uris":{"android":"levelo://app?vid=89420609-8590-4e4d-9042-8fb0e02b5686","ios":"levelo://app?vid=89420609-8590-4e4d-9042-8fb0e02b5686"},"vehicle_type_id":"4","last_reported":1746671302,"current_range_meters":8800,"station_id":"cpo36qri1sfpv3e86is0","pricing_plan_id":"cebpf4jnsgd1na2vs0mg"},{"bike_id":"dbe6c090-a883-4f7a-86ca-f7062cab9bbf","system_id":"levelo_inurba_marseille","lat":43.21749,"lon":5.346,"is_reserved":false,"is_disabled":false,"rental_uris":{"android":"levelo://app?vid=dbe6c090-a883-4f7a-86ca-f7062cab9bbf","ios":"levelo://app?vid=dbe6c090-a883-4f7a-86ca-f7062cab9bbf"},"vehicle_type_id":"4","last_reported":1746671302,"current_range_meters":8800,"station_id":"st_cvj6r9ubvosntc0bgbag","pricing_plan_id":"cebpf4jnsgd1na2vs0mg"},{"bike_id":"ce40ea43-bacf-49f3-b5af-ffaf2a1f03b1","system_id":"levelo_inurba_marseille","lat":43.304919,"lon":5.367606,"is_reserved":false,"is_disabled":false,"rental_uris":{"android":"levelo://app?vid=ce40ea43-bacf-49f3-b5af-ffaf2a1f03b1","ios":"levelo://app?vid=ce40ea43-bacf-49f3-b5af-ffaf2a1f03b1"},"vehicle_type_id":"4","last_reported":1746671302,"current_range_meters":9200,"station_id":"","pricing_plan_id":"cebpf4jnsgd1na2vs0mg"},{"bike_id":"257a8fc7-d41c-439e-b529-2be0dea82a2d","system_id":"levelo_inurba_marseille","lat":43.30152,"lon":5.38094,"is_reserved":false,"is_disabled":false,"rental_uris":{"android":"levelo://app?vid=257a8fc7-d41c-439e-b529-2be0dea82a2d","ios":"levelo://app?vid=257a8fc7-d41c-439e-b529-2be0dea82a2d"},"vehicle_type_id":"4","last_reported":1746671302,"current_range_meters":9200,"station_id":"ce4bgjp2rcd13ifvqbh0","pricing_plan_id":"cebpf4jnsgd1na2vs0mg"},{"bike_id":"5851b9a6-a523-4ae9-b95f-2abb6c7441e4","system_id":"levelo_inurba_marseille","lat":43.28343,"lon":5.38142,"is_reserved":false,"is_disabled":false,"rental_uris":{"android":"levelo://app?vid=5851b9a6-a523-4ae9-b95f-2abb6c7441e4","ios":"levelo://app?vid=5851b9a6-a523-4ae9-b95f-2abb6c7441e4"},"vehicle_type_id":"4","last_reported":1746671302,"current_range_meters":9200,"station_id":"ce4bh412rcd13ifvqdr0","pricing_plan_id":"cebpf4jnsgd1na2vs0mg"},{"bike_id":"6fcecdbd-a5d7-498c-85d8-462b7a653c6a","system_id":"levelo_inurba_marseille","lat":43.284592,"lon":5.358896,"is_reserved":false,"is_disabled":false,"rental_uris":{"android":"levelo://app?vid=6fcecdbd-a5d7-498c-85d8-462b7a653c6a","ios":"levelo://app?vid=6fcecdbd-a5d7-498c-85d8-462b7a653c6a"},"vehicle_type_id":"4","last_reported":1746671302,"current_range_meters":9200,"station_id":"ce4bhah2rcd13ifvqei0","pricing_plan_id":"cebpf4jnsgd1na2vs0mg"},{"bike_id":"c650db92-e467-494a-8ffb-fba552729a60","system_id":"levelo_inurba_marseille","lat":43.23967,"lon":5.36629,"is_reserved":false,"is_disabled":false,"rental_uris":{"android":"levelo://app?vid=c650db92-e467-494a-8ffb-fba552729a60","ios":"levelo://app?vid=c650db92-e467-494a-8ffb-fba552729a60"},"vehicle_type_id":"4","last_reported":1746671302,"current_range_meters":9200,"station_id":"ce4bhi12rcd13ifvqfp0","pricing_plan_id":"cebpf4jnsgd1na2vs0mg"},{"bike_id":"d6c356a0-42da-4abd-86b8-1c46cf82f96b","system_id":"levelo_inurba_marseille","lat":43.27925,"lon":5.41066,"is_reserved":false,"is_disabled":false,"rental_uris":{"android":"levelo://app?vid=d6c356a0-42da-4abd-86b8-1c46cf82f96b","ios":"levelo://app?vid=d6c356a0-42da-4abd-86b8-1c46cf82f96b"},"vehicle_type_id":"4","last_reported":1746671302,"current_range_meters":9200,"station_id":"ce4bhnp2rcd13ifvqh0g","pricing_plan_id":"cebpf4jnsgd1na2vs0mg"},{"bike_id":"957aba25-c5b1-43b8-b7ae-7df1badff429","system_id":"levelo_inurba_marseille","lat":43.31275,"lon":5.40174,"is_reserved":false,"is_disabled":false,"rental_uris":{"android":"levelo://app?vid=957aba25-c5b1-43b8-b7ae-7df1badff429","ios":"levelo://app?vid=957aba25-c5b1-43b8-b7ae-7df1badff429"},"vehicle_type_id":"4","last_reported":1746671302,"current_range_meters":9600,"station_id":"ce4bh092rcd13ifvqd30","pricing_plan_id":"cebpf4jnsgd1na2vs0mg"},{"bike_id":"3cf3d52d-34be-4bef-892d-3759f8bad6ac","system_id":"levelo_inurba_marseille","lat":43.25118,"lon":5.403207,"is_reserved":false,"is_disabled":false,"rental_uris":{"android":"levelo://app?vid=3cf3d52d-34be-4bef-892d-3759f8bad6ac","ios":"levelo://app?vid=3cf3d52d-34be-4bef-892d-3759f8bad6ac"},"vehicle_type_id":"4","last_reported":1746671302,"current_range_meters":9600,"station_id":"ce4bhlh2rcd13ifvqgig","pricing_plan_id":"cebpf4jnsgd1na2vs0mg"},{"bike_id":"1f77a630-8a52-477b-86b4-44132d8564e3","system_id":"levelo_inurba_marseille","lat":43.232,"lon":5.39972,"is_reserved":false,"is_disabled":false,"rental_uris":{"android":"levelo://app?vid=1f77a630-8a52-477b-86b4-44132d8564e3","ios":"levelo://app?vid=1f77a630-8a52-477b-86b4-44132d8564e3"},"vehicle_type_id":"4","last_reported":1746671302,"current_range_meters":9600,"station_id":"ce4bhn12rcd13ifvqgqg","pricing_plan_id":"cebpf4jnsgd1na2vs0mg"},{"bike_id":"b15fe93b-1059-4d75-abd3-040e349ce402","system_id":"levelo_inurba_marseille","lat":43.301076,"lon":5.369934,"is_reserved":false,"is_disabled":false,"rental_uris":{"android":"levelo://app?vid=b15fe93b-1059-4d75-abd3-040e349ce402","ios":"levelo://app?vid=b15fe93b-1059-4d75-abd3-040e349ce402"},"vehicle_type_id":"4","last_reported":1746671302,"current_range_meters":10000,"station_id":"","pricing_plan_id":"cebpf4jnsgd1na2vs0mg"},{"bike_id":"ebaeac13-7ca4-45aa-b14d-84d4340b9260","system_id":"levelo_inurba_marseille","lat":43.24663,"lon":5.38169,"is_reserved":false,"is_disabled":false,"rental_uris":{"android":"levelo://app?vid=ebaeac13-7ca4-45aa-b14d-84d4340b9260","ios":"levelo://app?vid=ebaeac13-7ca4-45aa-b14d-84d4340b9260"},"vehicle_type_id":"4","last_reported":1746671302,"current_range_meters":10000,"station_id":"ce4bhih2rcd13ifvqfr0","pricing_plan_id":"cebpf4jnsgd1na2vs0mg"},{"bike_id":"569154da-5aba-4b6a-9874-971785801a0f","system_id":"levelo_inurba_marseille","lat":43.27806,"lon":5.40723,"is_reserved":false,"is_disabled":false,"rental_uris":{"android":"levelo://app?vid=569154da-5aba-4b6a-9874-971785801a0f","ios":"levelo://app?vid=569154da-5aba-4b6a-9874-971785801a0f"},"vehicle_type_id":"4","last_reported":1746671302,"current_range_meters":10000,"station_id":"ce4bhnh2rcd13ifvqgtg","pricing_plan_id":"cebpf4jnsgd1na2vs0mg"},{"bike_id":"be2ea01e-901c-4275-b9a1-758d91918d20","system_id":"levelo_inurba_marseille","lat":43.31069,"lon":5.38364,"is_reserved":false,"is_disabled":false,"rental_uris":{"android":"levelo://app?vid=be2ea01e-901c-4275-b9a1-758d91918d20","ios":"levelo://app?vid=be2ea01e-901c-4275-b9a1-758d91918d20"},"vehicle_type_id":"4","last_reported":1746671302,"current_range_meters":10800,"station_id":"ce4bgv92rcd13ifvqcr0","pricing_plan_id":"cebpf4jnsgd1na2vs0mg"},{"bike_id":"c460d626-46dc-4323-977a-1bf36ca4902b","system_id":"levelo_inurba_marseille","lat":43.28032,"lon":5.36945,"is_reserved":false,"is_disabled":false,"rental_uris":{"android":"levelo://app?vid=c460d626-46dc-4323-977a-1bf36ca4902b","ios":"levelo://app?vid=c460d626-46dc-4323-977a-1bf36ca4902b"},"vehicle_type_id":"4","last_reported":1746671302,"current_range_meters":10800,"station_id":"ce4bha12rcd13ifvqef0","pricing_plan_id":"cebpf4jnsgd1na2vs0mg"},{"bike_id":"87b9a829-6d08-4a6d-9a8e-b298b8a08212","system_id":"levelo_inurba_marseille","lat":43.28461,"lon":5.35886,"is_reserved":false,"is_disabled":false,"rental_uris":{"android":"levelo://app?vid=87b9a829-6d08-4a6d-9a8e-b298b8a08212","ios":"levelo://app?vid=87b9a829-6d08-4a6d-9a8e-b298b8a08212"},"vehicle_type_id":"4","last_reported":1746671302,"current_range_meters":10800,"station_id":"ce4bhah2rcd13ifvqei0","pricing_plan_id":"cebpf4jnsgd1na2vs0mg"},{"bike_id":"15c94903-bff0-448b-a6ba-943a7f56259b","system_id":"levelo_inurba_marseille","lat":43.246603,"lon":5.38158,"is_reserved":false,"is_disabled":false,"rental_uris":{"android":"levelo://app?vid=15c94903-bff0-448b-a6ba-943a7f56259b","ios":"levelo://app?vid=15c94903-bff0-448b-a6ba-943a7f56259b"},"vehicle_type_id":"4","last_reported":1746671302,"current_range_meters":10800,"station_id":"ce4bhih2rcd13ifvqfr0","pricing_plan_id":"cebpf4jnsgd1na2vs0mg"},{"bike_id":"df8a7d6f-c276-46e4-ad0f-788630dc88d8","system_id":"levelo_inurba_marseille","lat":43.26207,"lon":5.40479,"is_reserved":false,"is_disabled":false,"rental_uris":{"android":"levelo://app?vid=df8a7d6f-c276-46e4-ad0f-788630dc88d8","ios":"levelo://app?vid=df8a7d6f-c276-46e4-ad0f-788630dc88d8"},"vehicle_type_id":"4","last_reported":1746671302,"current_range_meters":10800,"station_id":"ce4bhmh2rcd13ifvqgmg","pricing_plan_id":"cebpf4jnsgd1na2vs0mg"},{"bike_id":"f239e61b-13fc-400d-ba4a-9e414ced2af9","system_id":"levelo_inurba_marseille","lat":43.31758,"lon":5.39019,"is_reserved":false,"is_disabled":false,"rental_uris":{"android":"levelo://app?vid=f239e61b-13fc-400d-ba4a-9e414ced2af9","ios":"levelo://app?vid=f239e61b-13fc-400d-ba4a-9e414ced2af9"},"vehicle_type_id":"4","last_reported":1746671302,"current_range_meters":10800,"station_id":"ce4bhqp2rcd13ifvqhng","pricing_plan_id":"cebpf4jnsgd1na2vs0mg"},{"bike_id":"eff01a47-9a9f-4a02-be20-e3fd0c3270dd","system_id":"levelo_inurba_marseille","lat":43.30628,"lon":5.40059,"is_reserved":false,"is_disabled":false,"rental_uris":{"android":"levelo://app?vid=eff01a47-9a9f-4a02-be20-e3fd0c3270dd","ios":"levelo://app?vid=eff01a47-9a9f-4a02-be20-e3fd0c3270dd"},"vehicle_type_id":"4","last_reported":1746671302,"current_range_meters":11200,"station_id":"ce4bh112rcd13ifvqda0","pricing_plan_id":"cebpf4jnsgd1na2vs0mg"},{"bike_id":"2ffa008f-4045-404e-a632-f92e2b79f62f","system_id":"levelo_inurba_marseille","lat":43.281637,"lon":5.426263,"is_reserved":false,"is_disabled":false,"rental_uris":{"android":"levelo://app?vid=2ffa008f-4045-404e-a632-f92e2b79f62f","ios":"levelo://app?vid=2ffa008f-4045-404e-a632-f92e2b79f62f"},"vehicle_type_id":"4","last_reported":1746671302,"current_range_meters":11200,"station_id":"ce4bhnh2rcd13ifvqgug","pricing_plan_id":"cebpf4jnsgd1na2vs0mg"},{"bike_id":"cb5561fb-3ed2-49bf-bd58-7c8862116c78","system_id":"levelo_inurba_marseille","lat":43.2118,"lon":5.35092,"is_reserved":false,"is_disabled":false,"rental_uris":{"android":"levelo://app?vid=cb5561fb-3ed2-49bf-bd58-7c8862116c78","ios":"levelo://app?vid=cb5561fb-3ed2-49bf-bd58-7c8862116c78"},"vehicle_type_id":"4","last_reported":1746671302,"current_range_meters":11600,"station_id":"st_cvj6sg6p6f1abm77japg","pricing_plan_id":"cebpf4jnsgd1na2vs0mg"},{"bike_id":"5453c7c8-d7df-431d-98db-167d3c16d978","system_id":"levelo_inurba_marseille","lat":43.31353,"lon":5.38545,"is_reserved":false,"is_disabled":false,"rental_uris":{"android":"levelo://app?vid=5453c7c8-d7df-431d-98db-167d3c16d978","ios":"levelo://app?vid=5453c7c8-d7df-431d-98db-167d3c16d978"},"vehicle_type_id":"4","last_reported":1746671302,"current_range_meters":12400,"station_id":"","pricing_plan_id":"cebpf4jnsgd1na2vs0mg"},{"bike_id":"b3dda9f1-e281-4acc-a3e5-f9bdd89841dd","system_id":"levelo_inurba_marseille","lat":43.28414,"lon":5.37517,"is_reserved":false,"is_disabled":false,"rental_uris":{"android":"levelo://app?vid=b3dda9f1-e281-4acc-a3e5-f9bdd89841dd","ios":"levelo://app?vid=b3dda9f1-e281-4acc-a3e5-f9bdd89841dd"},"vehicle_type_id":"4","last_reported":1746671302,"current_range_meters":12400,"station_id":"ce4bh412rcd13ifvqds0","pricing_plan_id":"cebpf4jnsgd1na2vs0mg"},{"bike_id":"9209774a-06b7-47c7-a6eb-adc0c3f47cff","system_id":"levelo_inurba_marseille","lat":43.25579,"lon":5.38242,"is_reserved":false,"is_disabled":false,"rental_uris":{"android":"levelo://app?vid=9209774a-06b7-47c7-a6eb-adc0c3f47cff","ios":"levelo://app?vid=9209774a-06b7-47c7-a6eb-adc0c3f47cff"},"vehicle_type_id":"4","last_reported":1746671302,"current_range_meters":12400,"station_id":"ce4bhih2rcd13ifvqfs0","pricing_plan_id":"cebpf4jnsgd1na2vs0mg"},{"bike_id":"814b049e-86d8-441d-a9b7-533911196968","system_id":"levelo_inurba_marseille","lat":43.31375,"lon":5.38503,"is_reserved":false,"is_disabled":false,"rental_uris":{"android":"levelo://app?vid=814b049e-86d8-441d-a9b7-533911196968","ios":"levelo://app?vid=814b049e-86d8-441d-a9b7-533911196968"},"vehicle_type_id":"4","last_reported":1746671302,"current_range_meters":12800,"station_id":"ce4bgt92rcd13ifvqcf0","pricing_plan_id":"cebpf4jnsgd1na2vs0mg"},{"bike_id":"17b214d6-99b5-4fbd-a65f-6ac3467903ea","system_id":"levelo_inurba_marseille","lat":43.310699,"lon":5.3835,"is_reserved":false,"is_disabled":false,"rental_uris":{"android":"levelo://app?vid=17b214d6-99b5-4fbd-a65f-6ac3467903ea","ios":"levelo://app?vid=17b214d6-99b5-4fbd-a65f-6ac3467903ea"},"vehicle_type_id":"4","last_reported":1746671302,"current_range_meters":13600,"station_id":"ce4bgv92rcd13ifvqcr0","pricing_plan_id":"cebpf4jnsgd1na2vs0mg"},{"bike_id":"e945a495-d359-4bb7-bb94-1340aff95955","system_id":"levelo_inurba_marseille","lat":43.2814,"lon":5.40618,"is_reserved":false,"is_disabled":false,"rental_uris":{"android":"levelo://app?vid=e945a495-d359-4bb7-bb94-1340aff95955","ios":"levelo://app?vid=e945a495-d359-4bb7-bb94-1340aff95955"},"vehicle_type_id":"4","last_reported":1746671302,"current_range_meters":14000,"station_id":"","pricing_plan_id":"cebpf4jnsgd1na2vs0mg"},{"bike_id":"492a7a57-4c14-4260-ba62-da55dda4a419","system_id":"levelo_inurba_marseille","lat":43.323382,"lon":5.406183,"is_reserved":false,"is_disabled":false,"rental_uris":{"android":"levelo://app?vid=492a7a57-4c14-4260-ba62-da55dda4a419","ios":"levelo://app?vid=492a7a57-4c14-4260-ba62-da55dda4a419"},"vehicle_type_id":"4","last_reported":1746671302,"current_range_meters":14000,"station_id":"ce4bhq92rcd13ifvqhjg","pricing_plan_id":"cebpf4jnsgd1na2vs0mg"},{"bike_id":"809c8673-c032-46b9-aa07-62c38e26d44e","system_id":"levelo_inurba_marseille","lat":43.2504,"lon":5.38803,"is_reserved":false,"is_disabled":false,"rental_uris":{"android":"levelo://app?vid=809c8673-c032-46b9-aa07-62c38e26d44e","ios":"levelo://app?vid=809c8673-c032-46b9-aa07-62c38e26d44e"},"vehicle_type_id":"4","last_reported":1746671302,"current_range_meters":14400,"station_id":"","pricing_plan_id":"cebpf4jnsgd1na2vs0mg"},{"bike_id":"2574c1c6-9761-4223-8bf8-0f4ec6798a10","system_id":"levelo_inurba_marseille","lat":43.25121,"lon":5.40354,"is_reserved":false,"is_disabled":false,"rental_uris":{"android":"levelo://app?vid=2574c1c6-9761-4223-8bf8-0f4ec6798a10","ios":"levelo://app?vid=2574c1c6-9761-4223-8bf8-0f4ec6798a10"},"vehicle_type_id":"4","last_reported":1746671302,"current_range_meters":14400,"station_id":"ce4bhlh2rcd13ifvqgig","pricing_plan_id":"cebpf4jnsgd1na2vs0mg"},{"bike_id":"f44f1a89-67d8-4c00-9599-b3a2c38876d9","system_id":"levelo_inurba_marseille","lat":43.27981,"lon":5.41653,"is_reserved":false,"is_disabled":false,"rental_uris":{"android":"levelo://app?vid=f44f1a89-67d8-4c00-9599-b3a2c38876d9","ios":"levelo://app?vid=f44f1a89-67d8-4c00-9599-b3a2c38876d9"},"vehicle_type_id":"4","last_reported":1746671302,"current_range_meters":14400,"station_id":"ce4bho12rcd13ifvqh1g","pricing_plan_id":"cebpf4jnsgd1na2vs0mg"},{"bike_id":"e85fb6e7-29b9-4a2c-aa10-343a3bf1aacc","system_id":"levelo_inurba_marseille","lat":43.29895,"lon":5.43682,"is_reserved":false,"is_disabled":false,"rental_uris":{"android":"levelo://app?vid=e85fb6e7-29b9-4a2c-aa10-343a3bf1aacc","ios":"levelo://app?vid=e85fb6e7-29b9-4a2c-aa10-343a3bf1aacc"},"vehicle_type_id":"4","last_reported":1746671302,"current_range_meters":14400,"station_id":"ce4bhpp2rcd13ifvqhfg","pricing_plan_id":"cebpf4jnsgd1na2vs0mg"},{"bike_id":"5090961f-1c7d-4202-8794-ee3f3eb80c81","system_id":"levelo_inurba_marseille","lat":43.30508,"lon":5.39301,"is_reserved":false,"is_disabled":false,"rental_uris":{"android":"levelo://app?vid=5090961f-1c7d-4202-8794-ee3f3eb80c81","ios":"levelo://app?vid=5090961f-1c7d-4202-8794-ee3f3eb80c81"},"vehicle_type_id":"4","last_reported":1746671302,"current_range_meters":14800,"station_id":"","pricing_plan_id":"cebpf4jnsgd1na2vs0mg"},{"bike_id":"2aace568-ac2f-49c7-9458-5246d5166cd0","system_id":"levelo_inurba_marseille","lat":43.28939,"lon":5.44844,"is_reserved":false,"is_disabled":false,"rental_uris":{"android":"levelo://app?vid=2aace568-ac2f-49c7-9458-5246d5166cd0","ios":"levelo://app?vid=2aace568-ac2f-49c7-9458-5246d5166cd0"},"vehicle_type_id":"4","last_reported":1746671302,"current_range_meters":15200,"station_id":"","pricing_plan_id":"cebpf4jnsgd1na2vs0mg"},{"bike_id":"47cd9dba-9c5a-4de3-a27d-45ec0de547bc","system_id":"levelo_inurba_marseille","lat":43.2884,"lon":5.43319,"is_reserved":false,"is_disabled":false,"rental_uris":{"android":"levelo://app?vid=47cd9dba-9c5a-4de3-a27d-45ec0de547bc","ios":"levelo://app?vid=47cd9dba-9c5a-4de3-a27d-45ec0de547bc"},"vehicle_type_id":"4","last_reported":1746671302,"current_range_meters":15200,"station_id":"","pricing_plan_id":"cebpf4jnsgd1na2vs0mg"},{"bike_id":"f19bfea6-e4ad-4f01-8691-f490acd211d4","system_id":"levelo_inurba_marseille","lat":43.30786,"lon":5.37647,"is_reserved":false,"is_disabled":false,"rental_uris":{"android":"levelo://app?vid=f19bfea6-e4ad-4f01-8691-f490acd211d4","ios":"levelo://app?vid=f19bfea6-e4ad-4f01-8691-f490acd211d4"},"vehicle_type_id":"4","last_reported":1746671302,"current_range_meters":15200,"station_id":"ce4bgv92rcd13ifvqcq0","pricing_plan_id":"cebpf4jnsgd1na2vs0mg"},{"bike_id":"ef7b5cc3-6baa-45d8-808d-68c2899d6f9a","system_id":"levelo_inurba_marseille","lat":43.24152,"lon":5.39728,"is_reserved":false,"is_disabled":false,"rental_uris":{"android":"levelo://app?vid=ef7b5cc3-6baa-45d8-808d-68c2899d6f9a","ios":"levelo://app?vid=ef7b5cc3-6baa-45d8-808d-68c2899d6f9a"},"vehicle_type_id":"4","last_reported":1746671302,"current_range_meters":15200,"station_id":"ce4bhn12rcd13ifvqgpg","pricing_plan_id":"cebpf4jnsgd1na2vs0mg"},{"bike_id":"caccb556-2ad0-45b8-84b8-819024dd44e6","system_id":"levelo_inurba_marseille","lat":43.297862,"lon":5.367929,"is_reserved":false,"is_disabled":false,"rental_uris":{"android":"levelo://app?vid=caccb556-2ad0-45b8-84b8-819024dd44e6","ios":"levelo://app?vid=caccb556-2ad0-45b8-84b8-819024dd44e6"},"vehicle_type_id":"4","last_reported":1746671302,"current_range_meters":16000,"station_id":"","pricing_plan_id":"cebpf4jnsgd1na2vs0mg"},{"bike_id":"e6282093-23fb-41a9-859d-c0d9ad966535","system_id":"levelo_inurba_marseille","lat":43.317149,"lon":5.377254,"is_reserved":false,"is_disabled":false,"rental_uris":{"android":"levelo://app?vid=e6282093-23fb-41a9-859d-c0d9ad966535","ios":"levelo://app?vid=e6282093-23fb-41a9-859d-c0d9ad966535"},"vehicle_type_id":"4","last_reported":1746671302,"current_range_meters":16000,"station_id":"ce4bgth2rcd13ifvqch0","pricing_plan_id":"cebpf4jnsgd1na2vs0mg"},{"bike_id":"1f0ec024-dd17-4e6c-b386-b5410269e547","system_id":"levelo_inurba_marseille","lat":43.30244,"lon":5.40064,"is_reserved":false,"is_disabled":false,"rental_uris":{"android":"levelo://app?vid=1f0ec024-dd17-4e6c-b386-b5410269e547","ios":"levelo://app?vid=1f0ec024-dd17-4e6c-b386-b5410269e547"},"vehicle_type_id":"4","last_reported":1746671302,"current_range_meters":16000,"station_id":"ce4bgvh2rcd13ifvqcs0","pricing_plan_id":"cebpf4jnsgd1na2vs0mg"},{"bike_id":"9cf54e36-7262-492b-9233-846ec2629fb1","system_id":"levelo_inurba_marseille","lat":43.30249,"lon":5.4008,"is_reserved":false,"is_disabled":false,"rental_uris":{"android":"levelo://app?vid=9cf54e36-7262-492b-9233-846ec2629fb1","ios":"levelo://app?vid=9cf54e36-7262-492b-9233-846ec2629fb1"},"vehicle_type_id":"4","last_reported":1746671302,"current_range_meters":16000,"station_id":"ce4bgvh2rcd13ifvqcs0","pricing_plan_id":"cebpf4jnsgd1na2vs0mg"},{"bike_id":"6971f759-8594-489e-a8f6-9153c9a9c438","system_id":"levelo_inurba_marseille","lat":43.276852,"lon":5.419625,"is_reserved":false,"is_disabled":false,"rental_uris":{"android":"levelo://app?vid=6971f759-8594-489e-a8f6-9153c9a9c438","ios":"levelo://app?vid=6971f759-8594-489e-a8f6-9153c9a9c438"},"vehicle_type_id":"4","last_reported":1746671302,"current_range_meters":16400,"station_id":"","pricing_plan_id":"cebpf4jnsgd1na2vs0mg"},{"bike_id":"a60892ec-d65f-4ea1-a529-725b1e5fe55a","system_id":"levelo_inurba_marseille","lat":43.31069,"lon":5.38361,"is_reserved":false,"is_disabled":false,"rental_uris":{"android":"levelo://app?vid=a60892ec-d65f-4ea1-a529-725b1e5fe55a","ios":"levelo://app?vid=a60892ec-d65f-4ea1-a529-725b1e5fe55a"},"vehicle_type_id":"4","last_reported":1746671302,"current_range_meters":16400,"station_id":"ce4bgv92rcd13ifvqcr0","pricing_plan_id":"cebpf4jnsgd1na2vs0mg"},{"bike_id":"0ec4cf3b-fa46-4a20-879c-6a1b1652b29e","system_id":"levelo_inurba_marseille","lat":43.30878,"lon":5.39643,"is_reserved":false,"is_disabled":false,"rental_uris":{"android":"levelo://app?vid=0ec4cf3b-fa46-4a20-879c-6a1b1652b29e","ios":"levelo://app?vid=0ec4cf3b-fa46-4a20-879c-6a1b1652b29e"},"vehicle_type_id":"4","last_reported":1746671302,"current_range_meters":16400,"station_id":"ce4bh012rcd13ifvqcv0","pricing_plan_id":"cebpf4jnsgd1na2vs0mg"},{"bike_id":"1916e3c8-cbe8-49aa-8b03-cd6efeec9565","system_id":"levelo_inurba_marseille","lat":43.3013,"lon":5.39875,"is_reserved":false,"is_disabled":false,"rental_uris":{"android":"levelo://app?vid=1916e3c8-cbe8-49aa-8b03-cd6efeec9565","ios":"levelo://app?vid=1916e3c8-cbe8-49aa-8b03-cd6efeec9565"},"vehicle_type_id":"4","last_reported":1746671302,"current_range_meters":16400,"station_id":"ce4bh0h2rcd13ifvqd40","pricing_plan_id":"cebpf4jnsgd1na2vs0mg"},{"bike_id":"409ac4af-1a09-48e2-98b6-3b67bc8cd418","system_id":"levelo_inurba_marseille","lat":43.30095,"lon":5.39906,"is_reserved":false,"is_disabled":false,"rental_uris":{"android":"levelo://app?vid=409ac4af-1a09-48e2-98b6-3b67bc8cd418","ios":"levelo://app?vid=409ac4af-1a09-48e2-98b6-3b67bc8cd418"},"vehicle_type_id":"4","last_reported":1746671302,"current_range_meters":16400,"station_id":"ce4bh0h2rcd13ifvqd40","pricing_plan_id":"cebpf4jnsgd1na2vs0mg"},{"bike_id":"b7f5a748-15dc-4242-b324-9b315a2ec1e5","system_id":"levelo_inurba_marseille","lat":43.30245,"lon":5.40079,"is_reserved":false,"is_disabled":false,"rental_uris":{"android":"levelo://app?vid=b7f5a748-15dc-4242-b324-9b315a2ec1e5","ios":"levelo://app?vid=b7f5a748-15dc-4242-b324-9b315a2ec1e5"},"vehicle_type_id":"4","last_reported":1746671302,"current_range_meters":16800,"station_id":"ce4bgvh2rcd13ifvqcs0","pricing_plan_id":"cebpf4jnsgd1na2vs0mg"},{"bike_id":"291bc89c-e27d-4387-ba34-d2e30663a74e","system_id":"levelo_inurba_marseille","lat":43.29293,"lon":5.40157,"is_reserved":false,"is_disabled":false,"rental_uris":{"android":"levelo://app?vid=291bc89c-e27d-4387-ba34-d2e30663a74e","ios":"levelo://app?vid=291bc89c-e27d-4387-ba34-d2e30663a74e"},"vehicle_type_id":"4","last_reported":1746671302,"current_range_meters":16800,"station_id":"ce4bh312rcd13ifvqdk0","pricing_plan_id":"cebpf4jnsgd1na2vs0mg"},{"bike_id":"b5cd2326-e521-4c77-a615-4cb9bbb6d1fa","system_id":"levelo_inurba_marseille","lat":43.29526,"lon":5.38535,"is_reserved":false,"is_disabled":false,"rental_uris":{"android":"levelo://app?vid=b5cd2326-e521-4c77-a615-4cb9bbb6d1fa","ios":"levelo://app?vid=b5cd2326-e521-4c77-a615-4cb9bbb6d1fa"},"vehicle_type_id":"4","last_reported":1746671302,"current_range_meters":17200,"station_id":"ce4bgih2rcd13ifvqba0","pricing_plan_id":"cebpf4jnsgd1na2vs0mg"},{"bike_id":"ad29d92a-66a4-4434-a9eb-9d33cbff844a","system_id":"levelo_inurba_marseille","lat":43.302529,"lon":5.400564,"is_reserved":false,"is_disabled":false,"rental_uris":{"android":"levelo://app?vid=ad29d92a-66a4-4434-a9eb-9d33cbff844a","ios":"levelo://app?vid=ad29d92a-66a4-4434-a9eb-9d33cbff844a"},"vehicle_type_id":"4","last_reported":1746671302,"current_range_meters":17200,"station_id":"ce4bgvh2rcd13ifvqcs0","pricing_plan_id":"cebpf4jnsgd1na2vs0mg"},{"bike_id":"49e1edb5-3fad-4311-9de7-56cceb654a91","system_id":"levelo_inurba_marseille","lat":43.268,"lon":5.40268,"is_reserved":false,"is_disabled":false,"rental_uris":{"android":"levelo://app?vid=49e1edb5-3fad-4311-9de7-56cceb654a91","ios":"levelo://app?vid=49e1edb5-3fad-4311-9de7-56cceb654a91"},"vehicle_type_id":"4","last_reported":1746671302,"current_range_meters":17200,"station_id":"ce501612rcd8frsf0b60","pricing_plan_id":"cebpf4jnsgd1na2vs0mg"},{"bike_id":"084222e8-109d-40e5-bbed-f1d8a90c69e1","system_id":"levelo_inurba_marseille","lat":43.30218,"lon":5.39496,"is_reserved":false,"is_disabled":false,"rental_uris":{"android":"levelo://app?vid=084222e8-109d-40e5-bbed-f1d8a90c69e1","ios":"levelo://app?vid=084222e8-109d-40e5-bbed-f1d8a90c69e1"},"vehicle_type_id":"4","last_reported":1746671302,"current_range_meters":17600,"station_id":"ce4bh0p2rcd13ifvqd70","pricing_plan_id":"cebpf4jnsgd1na2vs0mg"},{"bike_id":"70a29a45-574c-4ff1-aca3-740aa0e705be","system_id":"levelo_inurba_marseille","lat":43.24169,"lon":5.36386,"is_reserved":false,"is_disabled":false,"rental_uris":{"android":"levelo://app?vid=70a29a45-574c-4ff1-aca3-740aa0e705be","ios":"levelo://app?vid=70a29a45-574c-4ff1-aca3-740aa0e705be"},"vehicle_type_id":"4","last_reported":1746671302,"current_range_meters":17600,"station_id":"cpo36qri1sfpv3e86is0","pricing_plan_id":"cebpf4jnsgd1na2vs0mg"},{"bike_id":"0260e567-a895-4700-b31b-24e894a79118","system_id":"levelo_inurba_marseille","lat":43.279501,"lon":5.410211,"is_reserved":false,"is_disabled":false,"rental_uris":{"android":"levelo://app?vid=0260e567-a895-4700-b31b-24e894a79118","ios":"levelo://app?vid=0260e567-a895-4700-b31b-24e894a79118"},"vehicle_type_id":"4","last_reported":1746671302,"current_range_meters":18000,"station_id":"ce4bhnp2rcd13ifvqh0g","pricing_plan_id":"cebpf4jnsgd1na2vs0mg"},{"bike_id":"ad3912e1-02bc-450f-9f15-6e4766049115","system_id":"levelo_inurba_marseille","lat":43.29552,"lon":5.42292,"is_reserved":false,"is_disabled":false,"rental_uris":{"android":"levelo://app?vid=ad3912e1-02bc-450f-9f15-6e4766049115","ios":"levelo://app?vid=ad3912e1-02bc-450f-9f15-6e4766049115"},"vehicle_type_id":"4","last_reported":1746671302,"current_range_meters":18000,"station_id":"ce4bhph2rcd13ifvqhdg","pricing_plan_id":"cebpf4jnsgd1na2vs0mg"},{"bike_id":"86faaeb0-89f8-42b9-be93-a34d16b7bcf7","system_id":"levelo_inurba_marseille","lat":43.30167,"lon":5.37071,"is_reserved":false,"is_disabled":false,"rental_uris":{"android":"levelo://app?vid=86faaeb0-89f8-42b9-be93-a34d16b7bcf7","ios":"levelo://app?vid=86faaeb0-89f8-42b9-be93-a34d16b7bcf7"},"vehicle_type_id":"4","last_reported":1746671302,"current_range_meters":18800,"station_id":"","pricing_plan_id":"cebpf4jnsgd1na2vs0mg"},{"bike_id":"7e46a3d9-1e67-4b9a-8636-6f4b1299a1ef","system_id":"levelo_inurba_marseille","lat":43.29631,"lon":5.40622,"is_reserved":false,"is_disabled":false,"rental_uris":{"android":"levelo://app?vid=7e46a3d9-1e67-4b9a-8636-6f4b1299a1ef","ios":"levelo://app?vid=7e46a3d9-1e67-4b9a-8636-6f4b1299a1ef"},"vehicle_type_id":"4","last_reported":1746671302,"current_range_meters":18800,"station_id":"ce4bh0h2rcd13ifvqd60","pricing_plan_id":"cebpf4jnsgd1na2vs0mg"},{"bike_id":"fc0953ab-6307-4092-9957-be52c434151e","system_id":"levelo_inurba_marseille","lat":43.27492,"lon":5.42468,"is_reserved":false,"is_disabled":false,"rental_uris":{"android":"levelo://app?vid=fc0953ab-6307-4092-9957-be52c434151e","ios":"levelo://app?vid=fc0953ab-6307-4092-9957-be52c434151e"},"vehicle_type_id":"4","last_reported":1746671302,"current_range_meters":18800,"station_id":"ce4bhn92rcd13ifvqgrg","pricing_plan_id":"cebpf4jnsgd1na2vs0mg"},{"bike_id":"3cac0407-9710-44bd-a04a-af262a1048b3","system_id":"levelo_inurba_marseille","lat":43.28143,"lon":5.42634,"is_reserved":false,"is_disabled":false,"rental_uris":{"android":"levelo://app?vid=3cac0407-9710-44bd-a04a-af262a1048b3","ios":"levelo://app?vid=3cac0407-9710-44bd-a04a-af262a1048b3"},"vehicle_type_id":"4","last_reported":1746671302,"current_range_meters":18800,"station_id":"ce4bhnh2rcd13ifvqgug","pricing_plan_id":"cebpf4jnsgd1na2vs0mg"},{"bike_id":"16d82653-e2e5-4531-a384-7902e244f0cf","system_id":"levelo_inurba_marseille","lat":43.2249,"lon":5.34808,"is_reserved":false,"is_disabled":false,"rental_uris":{"android":"levelo://app?vid=16d82653-e2e5-4531-a384-7902e244f0cf","ios":"levelo://app?vid=16d82653-e2e5-4531-a384-7902e244f0cf"},"vehicle_type_id":"4","last_reported":1746671302,"current_range_meters":18800,"station_id":"st_cvj5dfep6f1abm77gieg","pricing_plan_id":"cebpf4jnsgd1na2vs0mg"},{"bike_id":"89b5c51b-cd9c-475c-ba7a-726b12d22f75","system_id":"levelo_inurba_marseille","lat":43.211875,"lon":5.350684,"is_reserved":false,"is_disabled":false,"rental_uris":{"android":"levelo://app?vid=89b5c51b-cd9c-475c-ba7a-726b12d22f75","ios":"levelo://app?vid=89b5c51b-cd9c-475c-ba7a-726b12d22f75"},"vehicle_type_id":"4","last_reported":1746671302,"current_range_meters":18800,"station_id":"st_cvj6sg6p6f1abm77japg","pricing_plan_id":"cebpf4jnsgd1na2vs0mg"},{"bike_id":"545f7335-f587-48c6-bdc0-fb5f2925857f","system_id":"levelo_inurba_marseille","lat":43.310681,"lon":5.383521,"is_reserved":false,"is_disabled":false,"rental_uris":{"android":"levelo://app?vid=545f7335-f587-48c6-bdc0-fb5f2925857f","ios":"levelo://app?vid=545f7335-f587-48c6-bdc0-fb5f2925857f"},"vehicle_type_id":"4","last_reported":1746671302,"current_range_meters":19200,"station_id":"ce4bgv92rcd13ifvqcr0","pricing_plan_id":"cebpf4jnsgd1na2vs0mg"},{"bike_id":"0753b94b-3143-40be-aa28-9d34280cca18","system_id":"levelo_inurba_marseille","lat":43.25867,"lon":5.39889,"is_reserved":false,"is_disabled":false,"rental_uris":{"android":"levelo://app?vid=0753b94b-3143-40be-aa28-9d34280cca18","ios":"levelo://app?vid=0753b94b-3143-40be-aa28-9d34280cca18"},"vehicle_type_id":"4","last_reported":1746671302,"current_range_meters":19200,"station_id":"ce4bhl92rcd13ifvqghg","pricing_plan_id":"cebpf4jnsgd1na2vs0mg"},{"bike_id":"33eb1e3c-9e9a-4b25-b5c8-06d98a037e5b","system_id":"levelo_inurba_marseille","lat":43.30414,"lon":5.41276,"is_reserved":false,"is_disabled":false,"rental_uris":{"android":"levelo://app?vid=33eb1e3c-9e9a-4b25-b5c8-06d98a037e5b","ios":"levelo://app?vid=33eb1e3c-9e9a-4b25-b5c8-06d98a037e5b"},"vehicle_type_id":"4","last_reported":1746671302,"current_range_meters":19200,"station_id":"ce4bhop2rcd13ifvqh8g","pricing_plan_id":"cebpf4jnsgd1na2vs0mg"},{"bike_id":"a71a0dfc-7de8-44ee-9bb2-1e81dadd19e0","system_id":"levelo_inurba_marseille","lat":43.31701,"lon":5.43702,"is_reserved":false,"is_disabled":false,"rental_uris":{"android":"levelo://app?vid=a71a0dfc-7de8-44ee-9bb2-1e81dadd19e0","ios":"levelo://app?vid=a71a0dfc-7de8-44ee-9bb2-1e81dadd19e0"},"vehicle_type_id":"4","last_reported":1746671302,"current_range_meters":19200,"station_id":"ce4bhp92rcd13ifvqhcg","pricing_plan_id":"cebpf4jnsgd1na2vs0mg"},{"bike_id":"ff807334-3ad3-4e40-bbde-648eb2b1c45b","system_id":"levelo_inurba_marseille","lat":43.21162,"lon":5.35083,"is_reserved":false,"is_disabled":false,"rental_uris":{"android":"levelo://app?vid=ff807334-3ad3-4e40-bbde-648eb2b1c45b","ios":"levelo://app?vid=ff807334-3ad3-4e40-bbde-648eb2b1c45b"},"vehicle_type_id":"4","last_reported":1746671302,"current_range_meters":19200,"station_id":"st_cvj6sg6p6f1abm77japg","pricing_plan_id":"cebpf4jnsgd1na2vs0mg"},{"bike_id":"14581aba-b181-4996-ae9c-58bc49578e0e","system_id":"levelo_inurba_marseille","lat":43.2963,"lon":5.40631,"is_reserved":false,"is_disabled":false,"rental_uris":{"android":"levelo://app?vid=14581aba-b181-4996-ae9c-58bc49578e0e","ios":"levelo://app?vid=14581aba-b181-4996-ae9c-58bc49578e0e"},"vehicle_type_id":"4","last_reported":1746671302,"current_range_meters":19600,"station_id":"ce4bh0h2rcd13ifvqd60","pricing_plan_id":"cebpf4jnsgd1na2vs0mg"},{"bike_id":"d937d3d4-2f84-4572-89f6-55b5b0568287","system_id":"levelo_inurba_marseille","lat":43.27929,"lon":5.41063,"is_reserved":false,"is_disabled":false,"rental_uris":{"android":"levelo://app?vid=d937d3d4-2f84-4572-89f6-55b5b0568287","ios":"levelo://app?vid=d937d3d4-2f84-4572-89f6-55b5b0568287"},"vehicle_type_id":"4","last_reported":1746671302,"current_range_meters":19600,"station_id":"ce4bhnp2rcd13ifvqh0g","pricing_plan_id":"cebpf4jnsgd1na2vs0mg"},{"bike_id":"95407fdd-6b53-4c42-85f7-ee3e66f21b13","system_id":"levelo_inurba_marseille","lat":43.24325,"lon":5.38,"is_reserved":false,"is_disabled":false,"rental_uris":{"android":"levelo://app?vid=95407fdd-6b53-4c42-85f7-ee3e66f21b13","ios":"levelo://app?vid=95407fdd-6b53-4c42-85f7-ee3e66f21b13"},"vehicle_type_id":"4","last_reported":1746671302,"current_range_meters":20000,"station_id":"","pricing_plan_id":"cebpf4jnsgd1na2vs0mg"},{"bike_id":"8d07c3e4-4780-432f-81a8-525c811272d6","system_id":"levelo_inurba_marseille","lat":43.31501,"lon":5.37286,"is_reserved":false,"is_disabled":false,"rental_uris":{"android":"levelo://app?vid=8d07c3e4-4780-432f-81a8-525c811272d6","ios":"levelo://app?vid=8d07c3e4-4780-432f-81a8-525c811272d6"},"vehicle_type_id":"4","last_reported":1746671302,"current_range_meters":20000,"station_id":"ce4bgt12rcd13ifvqcd0","pricing_plan_id":"cebpf4jnsgd1na2vs0mg"},{"bike_id":"90dd7ece-e0e3-4e3f-8585-4f4f345a0f96","system_id":"levelo_inurba_marseille","lat":43.31703,"lon":5.40465,"is_reserved":false,"is_disabled":false,"rental_uris":{"android":"levelo://app?vid=90dd7ece-e0e3-4e3f-8585-4f4f345a0f96","ios":"levelo://app?vid=90dd7ece-e0e3-4e3f-8585-4f4f345a0f96"},"vehicle_type_id":"4","last_reported":1746671302,"current_range_meters":20000,"station_id":"ce4bh012rcd13ifvqd00","pricing_plan_id":"cebpf4jnsgd1na2vs0mg"},{"bike_id":"c821e32e-d925-441c-80d2-d5a984744aba","system_id":"levelo_inurba_marseille","lat":43.21206,"lon":5.35108,"is_reserved":false,"is_disabled":false,"rental_uris":{"android":"levelo://app?vid=c821e32e-d925-441c-80d2-d5a984744aba","ios":"levelo://app?vid=c821e32e-d925-441c-80d2-d5a984744aba"},"vehicle_type_id":"4","last_reported":1746671302,"current_range_meters":20000,"station_id":"st_cvj6sg6p6f1abm77japg","pricing_plan_id":"cebpf4jnsgd1na2vs0mg"},{"bike_id":"2be4759d-532c-45f9-bcad-2b3cdd0ab7e5","system_id":"levelo_inurba_marseille","lat":43.29591,"lon":5.38106,"is_reserved":false,"is_disabled":false,"rental_uris":{"android":"levelo://app?vid=2be4759d-532c-45f9-bcad-2b3cdd0ab7e5","ios":"levelo://app?vid=2be4759d-532c-45f9-bcad-2b3cdd0ab7e5"},"vehicle_type_id":"4","last_reported":1746671302,"current_range_meters":20400,"station_id":"ce4bgl12rcd13ifvqbo0","pricing_plan_id":"cebpf4jnsgd1na2vs0mg"},{"bike_id":"c00b4dc3-faff-4d5a-88c8-7b701ca8bbe6","system_id":"levelo_inurba_marseille","lat":43.317011,"lon":5.40441,"is_reserved":false,"is_disabled":false,"rental_uris":{"android":"levelo://app?vid=c00b4dc3-faff-4d5a-88c8-7b701ca8bbe6","ios":"levelo://app?vid=c00b4dc3-faff-4d5a-88c8-7b701ca8bbe6"},"vehicle_type_id":"4","last_reported":1746671302,"current_range_meters":20400,"station_id":"ce4bh012rcd13ifvqd00","pricing_plan_id":"cebpf4jnsgd1na2vs0mg"},{"bike_id":"f3e9ab38-3242-4aa5-83f9-529a16ccf936","system_id":"levelo_inurba_marseille","lat":43.22502,"lon":5.34808,"is_reserved":false,"is_disabled":false,"rental_uris":{"android":"levelo://app?vid=f3e9ab38-3242-4aa5-83f9-529a16ccf936","ios":"levelo://app?vid=f3e9ab38-3242-4aa5-83f9-529a16ccf936"},"vehicle_type_id":"4","last_reported":1746671302,"current_range_meters":20400,"station_id":"st_cvj5dfep6f1abm77gieg","pricing_plan_id":"cebpf4jnsgd1na2vs0mg"},{"bike_id":"672e625b-f720-40e5-a7ce-491644a25dee","system_id":"levelo_inurba_marseille","lat":43.302703,"lon":5.377166,"is_reserved":false,"is_disabled":false,"rental_uris":{"android":"levelo://app?vid=672e625b-f720-40e5-a7ce-491644a25dee","ios":"levelo://app?vid=672e625b-f720-40e5-a7ce-491644a25dee"},"vehicle_type_id":"4","last_reported":1746671302,"current_range_meters":20800,"station_id":"ce4bguh2rcd13ifvqcj0","pricing_plan_id":"cebpf4jnsgd1na2vs0mg"},{"bike_id":"0331176f-5560-45d7-af71-091f874085cb","system_id":"levelo_inurba_marseille","lat":43.29027,"lon":5.38655,"is_reserved":false,"is_disabled":false,"rental_uris":{"android":"levelo://app?vid=0331176f-5560-45d7-af71-091f874085cb","ios":"levelo://app?vid=0331176f-5560-45d7-af71-091f874085cb"},"vehicle_type_id":"4","last_reported":1746671302,"current_range_meters":20800,"station_id":"ce4bh4p2rcd13ifvqe0g","pricing_plan_id":"cebpf4jnsgd1na2vs0mg"},{"bike_id":"7a9038be-c328-484c-b777-97a69dc2bdf1","system_id":"levelo_inurba_marseille","lat":43.2955,"lon":5.42277,"is_reserved":false,"is_disabled":false,"rental_uris":{"android":"levelo://app?vid=7a9038be-c328-484c-b777-97a69dc2bdf1","ios":"levelo://app?vid=7a9038be-c328-484c-b777-97a69dc2bdf1"},"vehicle_type_id":"4","last_reported":1746671302,"current_range_meters":21600,"station_id":"ce4bhph2rcd13ifvqhdg","pricing_plan_id":"cebpf4jnsgd1na2vs0mg"},{"bike_id":"f73d450b-fde6-4898-99b1-916875a407c6","system_id":"levelo_inurba_marseille","lat":43.22505,"lon":5.34786,"is_reserved":false,"is_disabled":false,"rental_uris":{"android":"levelo://app?vid=f73d450b-fde6-4898-99b1-916875a407c6","ios":"levelo://app?vid=f73d450b-fde6-4898-99b1-916875a407c6"},"vehicle_type_id":"4","last_reported":1746671302,"current_range_meters":21600,"station_id":"st_cvj5dfep6f1abm77gieg","pricing_plan_id":"cebpf4jnsgd1na2vs0mg"},{"bike_id":"08f13c7a-2eb9-4abf-8400-826a57aabaef","system_id":"levelo_inurba_marseille","lat":43.3166,"lon":5.37248,"is_reserved":false,"is_disabled":false,"rental_uris":{"android":"levelo://app?vid=08f13c7a-2eb9-4abf-8400-826a57aabaef","ios":"levelo://app?vid=08f13c7a-2eb9-4abf-8400-826a57aabaef"},"vehicle_type_id":"4","last_reported":1746671302,"current_range_meters":22000,"station_id":"","pricing_plan_id":"cebpf4jnsgd1na2vs0mg"},{"bike_id":"6e40f45b-9e1c-4d83-9a49-b1396df8a23e","system_id":"levelo_inurba_marseille","lat":43.25621,"lon":5.38221,"is_reserved":false,"is_disabled":false,"rental_uris":{"android":"levelo://app?vid=6e40f45b-9e1c-4d83-9a49-b1396df8a23e","ios":"levelo://app?vid=6e40f45b-9e1c-4d83-9a49-b1396df8a23e"},"vehicle_type_id":"4","last_reported":1746671302,"current_range_meters":22000,"station_id":"ce4bhih2rcd13ifvqfs0","pricing_plan_id":"cebpf4jnsgd1na2vs0mg"},{"bike_id":"8a868461-332c-4739-8cb3-02de99b2b6ef","system_id":"levelo_inurba_marseille","lat":43.28,"lon":5.40012,"is_reserved":false,"is_disabled":false,"rental_uris":{"android":"levelo://app?vid=8a868461-332c-4739-8cb3-02de99b2b6ef","ios":"levelo://app?vid=8a868461-332c-4739-8cb3-02de99b2b6ef"},"vehicle_type_id":"4","last_reported":1746671302,"current_range_meters":22000,"station_id":"ce4bho92rcd13ifvqh4g","pricing_plan_id":"cebpf4jnsgd1na2vs0mg"},{"bike_id":"da3aa9b6-280e-441a-9902-7b55cb9fe3a3","system_id":"levelo_inurba_marseille","lat":43.323642,"lon":5.367593,"is_reserved":false,"is_disabled":false,"rental_uris":{"android":"levelo://app?vid=da3aa9b6-280e-441a-9902-7b55cb9fe3a3","ios":"levelo://app?vid=da3aa9b6-280e-441a-9902-7b55cb9fe3a3"},"vehicle_type_id":"4","last_reported":1746671302,"current_range_meters":22000,"station_id":"ce4bhsh2rcd13ifvqi2g","pricing_plan_id":"cebpf4jnsgd1na2vs0mg"},{"bike_id":"2b5d772f-a47e-4b77-9742-f35c020a53e8","system_id":"levelo_inurba_marseille","lat":43.28707,"lon":5.37414,"is_reserved":false,"is_disabled":false,"rental_uris":{"android":"levelo://app?vid=2b5d772f-a47e-4b77-9742-f35c020a53e8","ios":"levelo://app?vid=2b5d772f-a47e-4b77-9742-f35c020a53e8"},"vehicle_type_id":"4","last_reported":1746671302,"current_range_meters":22400,"station_id":"ce4bh3p2rcd13ifvqdq0","pricing_plan_id":"cebpf4jnsgd1na2vs0mg"},{"bike_id":"b13d6bf0-e6bd-4ef5-8716-03e0c8c29cad","system_id":"levelo_inurba_marseille","lat":43.29576,"lon":5.42257,"is_reserved":false,"is_disabled":false,"rental_uris":{"android":"levelo://app?vid=b13d6bf0-e6bd-4ef5-8716-03e0c8c29cad","ios":"levelo://app?vid=b13d6bf0-e6bd-4ef5-8716-03e0c8c29cad"},"vehicle_type_id":"4","last_reported":1746671302,"current_range_meters":22400,"station_id":"ce4bhph2rcd13ifvqhdg","pricing_plan_id":"cebpf4jnsgd1na2vs0mg"},{"bike_id":"05dc4990-e4e9-47ec-88a0-d6db56ee509e","system_id":"levelo_inurba_marseille","lat":43.31881,"lon":5.40748,"is_reserved":false,"is_disabled":false,"rental_uris":{"android":"levelo://app?vid=05dc4990-e4e9-47ec-88a0-d6db56ee509e","ios":"levelo://app?vid=05dc4990-e4e9-47ec-88a0-d6db56ee509e"},"vehicle_type_id":"4","last_reported":1746671302,"current_range_meters":22400,"station_id":"ce4bhq12rcd13ifvqhig","pricing_plan_id":"cebpf4jnsgd1na2vs0mg"},{"bike_id":"5a66b016-8425-4ea9-ad57-b6177cc96802","system_id":"levelo_inurba_marseille","lat":43.315823,"lon":5.388957,"is_reserved":false,"is_disabled":false,"rental_uris":{"android":"levelo://app?vid=5a66b016-8425-4ea9-ad57-b6177cc96802","ios":"levelo://app?vid=5a66b016-8425-4ea9-ad57-b6177cc96802"},"vehicle_type_id":"4","last_reported":1746671302,"current_range_meters":22800,"station_id":"","pricing_plan_id":"cebpf4jnsgd1na2vs0mg"},{"bike_id":"2f0cbd38-7746-40cd-aad8-7b6caf605afe","system_id":"levelo_inurba_marseille","lat":43.29735,"lon":5.4602,"is_reserved":false,"is_disabled":false,"rental_uris":{"android":"levelo://app?vid=2f0cbd38-7746-40cd-aad8-7b6caf605afe","ios":"levelo://app?vid=2f0cbd38-7746-40cd-aad8-7b6caf605afe"},"vehicle_type_id":"4","last_reported":1746671302,"current_range_meters":22800,"station_id":"","pricing_plan_id":"cebpf4jnsgd1na2vs0mg"},{"bike_id":"277f2b47-80a1-428b-8dbe-81e5e0c02f6d","system_id":"levelo_inurba_marseille","lat":43.30486,"lon":5.37904,"is_reserved":false,"is_disabled":false,"rental_uris":{"android":"levelo://app?vid=277f2b47-80a1-428b-8dbe-81e5e0c02f6d","ios":"levelo://app?vid=277f2b47-80a1-428b-8dbe-81e5e0c02f6d"},"vehicle_type_id":"4","last_reported":1746671302,"current_range_meters":22800,"station_id":"ce4bgup2rcd13ifvqcn0","pricing_plan_id":"cebpf4jnsgd1na2vs0mg"},{"bike_id":"37f2c22e-dc87-4650-ae08-b53837cd376a","system_id":"levelo_inurba_marseille","lat":43.2396,"lon":5.36631,"is_reserved":false,"is_disabled":false,"rental_uris":{"android":"levelo://app?vid=37f2c22e-dc87-4650-ae08-b53837cd376a","ios":"levelo://app?vid=37f2c22e-dc87-4650-ae08-b53837cd376a"},"vehicle_type_id":"4","last_reported":1746671302,"current_range_meters":22800,"station_id":"ce4bhi12rcd13ifvqfp0","pricing_plan_id":"cebpf4jnsgd1na2vs0mg"},{"bike_id":"89db3976-5def-49dd-811f-31cea88f2382","system_id":"levelo_inurba_marseille","lat":43.27937,"lon":5.4105,"is_reserved":false,"is_disabled":false,"rental_uris":{"android":"levelo://app?vid=89db3976-5def-49dd-811f-31cea88f2382","ios":"levelo://app?vid=89db3976-5def-49dd-811f-31cea88f2382"},"vehicle_type_id":"4","last_reported":1746671302,"current_range_meters":22800,"station_id":"ce4bhnp2rcd13ifvqh0g","pricing_plan_id":"cebpf4jnsgd1na2vs0mg"},{"bike_id":"17b5d9fc-a9af-4ef7-b57c-f269d43e9280","system_id":"levelo_inurba_marseille","lat":43.32473,"lon":5.36608,"is_reserved":false,"is_disabled":false,"rental_uris":{"android":"levelo://app?vid=17b5d9fc-a9af-4ef7-b57c-f269d43e9280","ios":"levelo://app?vid=17b5d9fc-a9af-4ef7-b57c-f269d43e9280"},"vehicle_type_id":"4","last_reported":1746671302,"current_range_meters":22800,"station_id":"ce4bhs12rcd13ifvqhvg","pricing_plan_id":"cebpf4jnsgd1na2vs0mg"},{"bike_id":"f597e4b6-c723-45d1-a62d-164b4d4c53ce","system_id":"levelo_inurba_marseille","lat":43.31365,"lon":5.3849,"is_reserved":false,"is_disabled":false,"rental_uris":{"android":"levelo://app?vid=f597e4b6-c723-45d1-a62d-164b4d4c53ce","ios":"levelo://app?vid=f597e4b6-c723-45d1-a62d-164b4d4c53ce"},"vehicle_type_id":"4","last_reported":1746671302,"current_range_meters":23200,"station_id":"ce4bgt92rcd13ifvqcf0","pricing_plan_id":"cebpf4jnsgd1na2vs0mg"},{"bike_id":"9a1c9931-7935-4501-9926-c53ac3815ef0","system_id":"levelo_inurba_marseille","lat":43.31112,"lon":5.37764,"is_reserved":false,"is_disabled":false,"rental_uris":{"android":"levelo://app?vid=9a1c9931-7935-4501-9926-c53ac3815ef0","ios":"levelo://app?vid=9a1c9931-7935-4501-9926-c53ac3815ef0"},"vehicle_type_id":"4","last_reported":1746671302,"current_range_meters":23200,"station_id":"ce4bgt92rcd13ifvqcg0","pricing_plan_id":"cebpf4jnsgd1na2vs0mg"},{"bike_id":"7bb35b3d-f7fe-420b-a58d-bb84a1d6d6e7","system_id":"levelo_inurba_marseille","lat":43.29797,"lon":5.40406,"is_reserved":false,"is_disabled":false,"rental_uris":{"android":"levelo://app?vid=7bb35b3d-f7fe-420b-a58d-bb84a1d6d6e7","ios":"levelo://app?vid=7bb35b3d-f7fe-420b-a58d-bb84a1d6d6e7"},"vehicle_type_id":"4","last_reported":1746671302,"current_range_meters":23200,"station_id":"ce4bh112rcd13ifvqd90","pricing_plan_id":"cebpf4jnsgd1na2vs0mg"},{"bike_id":"7e788b61-4617-49cc-b6a4-f19d5b00a75c","system_id":"levelo_inurba_marseille","lat":43.26497,"lon":5.39536,"is_reserved":false,"is_disabled":false,"rental_uris":{"android":"levelo://app?vid=7e788b61-4617-49cc-b6a4-f19d5b00a75c","ios":"levelo://app?vid=7e788b61-4617-49cc-b6a4-f19d5b00a75c"},"vehicle_type_id":"4","last_reported":1746671302,"current_range_meters":23200,"station_id":"ce4bhi12rcd13ifvqfq0","pricing_plan_id":"cebpf4jnsgd1na2vs0mg"},{"bike_id":"c1041c9f-2085-470a-b13c-f88fd8323115","system_id":"levelo_inurba_marseille","lat":43.27753,"lon":5.38671,"is_reserved":false,"is_disabled":false,"rental_uris":{"android":"levelo://app?vid=c1041c9f-2085-470a-b13c-f88fd8323115","ios":"levelo://app?vid=c1041c9f-2085-470a-b13c-f88fd8323115"},"vehicle_type_id":"4","last_reported":1746671302,"current_range_meters":24000,"station_id":"","pricing_plan_id":"cebpf4jnsgd1na2vs0mg"},{"bike_id":"d555e0d6-19ba-408b-ad9f-2e129d0a634e","system_id":"levelo_inurba_marseille","lat":43.31067,"lon":5.37591,"is_reserved":false,"is_disabled":false,"rental_uris":{"android":"levelo://app?vid=d555e0d6-19ba-408b-ad9f-2e129d0a634e","ios":"levelo://app?vid=d555e0d6-19ba-408b-ad9f-2e129d0a634e"},"vehicle_type_id":"4","last_reported":1746671302,"current_range_meters":24000,"station_id":"","pricing_plan_id":"cebpf4jnsgd1na2vs0mg"},{"bike_id":"6d6bca5f-703a-4e8e-ab86-5d671a6c91fe","system_id":"levelo_inurba_marseille","lat":43.276155,"lon":5.3612,"is_reserved":false,"is_disabled":false,"rental_uris":{"android":"levelo://app?vid=6d6bca5f-703a-4e8e-ab86-5d671a6c91fe","ios":"levelo://app?vid=6d6bca5f-703a-4e8e-ab86-5d671a6c91fe"},"vehicle_type_id":"4","last_reported":1746671302,"current_range_meters":24000,"station_id":"ce4bgj92rcd13ifvqbe0","pricing_plan_id":"cebpf4jnsgd1na2vs0mg"},{"bike_id":"83a50b95-d68b-4f37-b42f-f4b6d18160f2","system_id":"levelo_inurba_marseille","lat":43.25953,"lon":5.40902,"is_reserved":false,"is_disabled":false,"rental_uris":{"android":"levelo://app?vid=83a50b95-d68b-4f37-b42f-f4b6d18160f2","ios":"levelo://app?vid=83a50b95-d68b-4f37-b42f-f4b6d18160f2"},"vehicle_type_id":"4","last_reported":1746671302,"current_range_meters":24000,"station_id":"ce4bhm92rcd13ifvqglg","pricing_plan_id":"cebpf4jnsgd1na2vs0mg"},{"bike_id":"b4c5f569-86b0-45f5-b55a-c2587db1b919","system_id":"levelo_inurba_marseille","lat":43.23057,"lon":5.35507,"is_reserved":false,"is_disabled":false,"rental_uris":{"android":"levelo://app?vid=b4c5f569-86b0-45f5-b55a-c2587db1b919","ios":"levelo://app?vid=b4c5f569-86b0-45f5-b55a-c2587db1b919"},"vehicle_type_id":"4","last_reported":1746671302,"current_range_meters":24000,"station_id":"cpo3342slgdg3j2ifvpg","pricing_plan_id":"cebpf4jnsgd1na2vs0mg"},{"bike_id":"6536cb6e-d928-4440-9089-a7deb10c7d96","system_id":"levelo_inurba_marseille","lat":43.24163,"lon":5.3639,"is_reserved":false,"is_disabled":false,"rental_uris":{"android":"levelo://app?vid=6536cb6e-d928-4440-9089-a7deb10c7d96","ios":"levelo://app?vid=6536cb6e-d928-4440-9089-a7deb10c7d96"},"vehicle_type_id":"4","last_reported":1746671302,"current_range_meters":24000,"station_id":"cpo36qri1sfpv3e86is0","pricing_plan_id":"cebpf4jnsgd1na2vs0mg"},{"bike_id":"db93ad70-9b3a-4b71-bab8-333dc8f71d95","system_id":"levelo_inurba_marseille","lat":43.28463,"lon":5.3589,"is_reserved":false,"is_disabled":false,"rental_uris":{"android":"levelo://app?vid=db93ad70-9b3a-4b71-bab8-333dc8f71d95","ios":"levelo://app?vid=db93ad70-9b3a-4b71-bab8-333dc8f71d95"},"vehicle_type_id":"4","last_reported":1746671302,"current_range_meters":24400,"station_id":"ce4bhah2rcd13ifvqei0","pricing_plan_id":"cebpf4jnsgd1na2vs0mg"},{"bike_id":"20df33b7-91db-470c-ae21-164a9df38a22","system_id":"levelo_inurba_marseille","lat":43.29962,"lon":5.385,"is_reserved":false,"is_disabled":false,"rental_uris":{"android":"levelo://app?vid=20df33b7-91db-470c-ae21-164a9df38a22","ios":"levelo://app?vid=20df33b7-91db-470c-ae21-164a9df38a22"},"vehicle_type_id":"4","last_reported":1746671302,"current_range_meters":24800,"station_id":"ce4bgj92rcd13ifvqbd0","pricing_plan_id":"cebpf4jnsgd1na2vs0mg"},{"bike_id":"a6d1bd63-6479-4d7a-8f5e-5ed72d41d3e1","system_id":"levelo_inurba_marseille","lat":43.30488,"lon":5.37894,"is_reserved":false,"is_disabled":false,"rental_uris":{"android":"levelo://app?vid=a6d1bd63-6479-4d7a-8f5e-5ed72d41d3e1","ios":"levelo://app?vid=a6d1bd63-6479-4d7a-8f5e-5ed72d41d3e1"},"vehicle_type_id":"4","last_reported":1746671302,"current_range_meters":24800,"station_id":"ce4bgup2rcd13ifvqcn0","pricing_plan_id":"cebpf4jnsgd1na2vs0mg"},{"bike_id":"cba9399e-d991-4631-881f-8bf1d2e05a93","system_id":"levelo_inurba_marseille","lat":43.3025,"lon":5.40058,"is_reserved":false,"is_disabled":false,"rental_uris":{"android":"levelo://app?vid=cba9399e-d991-4631-881f-8bf1d2e05a93","ios":"levelo://app?vid=cba9399e-d991-4631-881f-8bf1d2e05a93"},"vehicle_type_id":"4","last_reported":1746671302,"current_range_meters":24800,"station_id":"ce4bgvh2rcd13ifvqcs0","pricing_plan_id":"cebpf4jnsgd1na2vs0mg"},{"bike_id":"05af4aa6-15a9-427f-b97e-db9d190d483a","system_id":"levelo_inurba_marseille","lat":43.31692,"lon":5.40468,"is_reserved":false,"is_disabled":false,"rental_uris":{"android":"levelo://app?vid=05af4aa6-15a9-427f-b97e-db9d190d483a","ios":"levelo://app?vid=05af4aa6-15a9-427f-b97e-db9d190d483a"},"vehicle_type_id":"4","last_reported":1746671302,"current_range_meters":24800,"station_id":"ce4bh012rcd13ifvqd00","pricing_plan_id":"cebpf4jnsgd1na2vs0mg"},{"bike_id":"b6ef3f00-dd79-48ff-9fc3-86c640ce7218","system_id":"levelo_inurba_marseille","lat":43.25705,"lon":5.41122,"is_reserved":false,"is_disabled":false,"rental_uris":{"android":"levelo://app?vid=b6ef3f00-dd79-48ff-9fc3-86c640ce7218","ios":"levelo://app?vid=b6ef3f00-dd79-48ff-9fc3-86c640ce7218"},"vehicle_type_id":"4","last_reported":1746671302,"current_range_meters":24800,"station_id":"ce4bhkp2rcd13ifvqgd0","pricing_plan_id":"cebpf4jnsgd1na2vs0mg"},{"bike_id":"2d8b0937-d5c9-496b-a867-537923bdfe85","system_id":"levelo_inurba_marseille","lat":43.25105,"lon":5.40327,"is_reserved":false,"is_disabled":false,"rental_uris":{"android":"levelo://app?vid=2d8b0937-d5c9-496b-a867-537923bdfe85","ios":"levelo://app?vid=2d8b0937-d5c9-496b-a867-537923bdfe85"},"vehicle_type_id":"4","last_reported":1746671302,"current_range_meters":24800,"station_id":"ce4bhlh2rcd13ifvqgig","pricing_plan_id":"cebpf4jnsgd1na2vs0mg"},{"bike_id":"4aaed20e-3f19-4db4-979c-695a73337ead","system_id":"levelo_inurba_marseille","lat":43.25088,"lon":5.39499,"is_reserved":false,"is_disabled":false,"rental_uris":{"android":"levelo://app?vid=4aaed20e-3f19-4db4-979c-695a73337ead","ios":"levelo://app?vid=4aaed20e-3f19-4db4-979c-695a73337ead"},"vehicle_type_id":"4","last_reported":1746671302,"current_range_meters":24800,"station_id":"ce4bhm12rcd13ifvqgkg","pricing_plan_id":"cebpf4jnsgd1na2vs0mg"},{"bike_id":"dfe00fc8-b95d-496d-a65b-381d5a696be7","system_id":"levelo_inurba_marseille","lat":43.28148,"lon":5.42643,"is_reserved":false,"is_disabled":false,"rental_uris":{"android":"levelo://app?vid=dfe00fc8-b95d-496d-a65b-381d5a696be7","ios":"levelo://app?vid=dfe00fc8-b95d-496d-a65b-381d5a696be7"},"vehicle_type_id":"4","last_reported":1746671302,"current_range_meters":24800,"station_id":"ce4bhnh2rcd13ifvqgug","pricing_plan_id":"cebpf4jnsgd1na2vs0mg"},{"bike_id":"e1eefe4b-c8d9-4584-bc99-1ff52d9d59bc","system_id":"levelo_inurba_marseille","lat":43.31531,"lon":5.3802,"is_reserved":false,"is_disabled":false,"rental_uris":{"android":"levelo://app?vid=e1eefe4b-c8d9-4584-bc99-1ff52d9d59bc","ios":"levelo://app?vid=e1eefe4b-c8d9-4584-bc99-1ff52d9d59bc"},"vehicle_type_id":"4","last_reported":1746671302,"current_range_meters":24800,"station_id":"ce4bhsp2rcd13ifvqi50","pricing_plan_id":"cebpf4jnsgd1na2vs0mg"},{"bike_id":"1044c970-e0db-4845-b4e6-7aa9537ccc31","system_id":"levelo_inurba_marseille","lat":43.29023,"lon":5.38642,"is_reserved":false,"is_disabled":false,"rental_uris":{"android":"levelo://app?vid=1044c970-e0db-4845-b4e6-7aa9537ccc31","ios":"levelo://app?vid=1044c970-e0db-4845-b4e6-7aa9537ccc31"},"vehicle_type_id":"4","last_reported":1746671302,"current_range_meters":25200,"station_id":"ce4bh4p2rcd13ifvqe0g","pricing_plan_id":"cebpf4jnsgd1na2vs0mg"},{"bike_id":"bd52f189-d2de-4f50-a91e-4fbab3379dc9","system_id":"levelo_inurba_marseille","lat":43.27491,"lon":5.42463,"is_reserved":false,"is_disabled":false,"rental_uris":{"android":"levelo://app?vid=bd52f189-d2de-4f50-a91e-4fbab3379dc9","ios":"levelo://app?vid=bd52f189-d2de-4f50-a91e-4fbab3379dc9"},"vehicle_type_id":"4","last_reported":1746671302,"current_range_meters":25200,"station_id":"ce4bhn92rcd13ifvqgrg","pricing_plan_id":"cebpf4jnsgd1na2vs0mg"},{"bike_id":"cfcf0a27-3831-4e84-9bea-34b38798a087","system_id":"levelo_inurba_marseille","lat":43.21194,"lon":5.35107,"is_reserved":false,"is_disabled":false,"rental_uris":{"android":"levelo://app?vid=cfcf0a27-3831-4e84-9bea-34b38798a087","ios":"levelo://app?vid=cfcf0a27-3831-4e84-9bea-34b38798a087"},"vehicle_type_id":"4","last_reported":1746671302,"current_range_meters":25200,"station_id":"st_cvj6sg6p6f1abm77japg","pricing_plan_id":"cebpf4jnsgd1na2vs0mg"},{"bike_id":"cd1dd69c-1b2c-404e-b0bf-114f06f0b210","system_id":"levelo_inurba_marseille","lat":43.23268,"lon":5.36106,"is_reserved":false,"is_disabled":false,"rental_uris":{"android":"levelo://app?vid=cd1dd69c-1b2c-404e-b0bf-114f06f0b210","ios":"levelo://app?vid=cd1dd69c-1b2c-404e-b0bf-114f06f0b210"},"vehicle_type_id":"4","last_reported":1746671302,"current_range_meters":25600,"station_id":"","pricing_plan_id":"cebpf4jnsgd1na2vs0mg"},{"bike_id":"545e5687-b7df-4883-81be-75a8925d5f91","system_id":"levelo_inurba_marseille","lat":43.337444,"lon":5.374475,"is_reserved":false,"is_disabled":false,"rental_uris":{"android":"levelo://app?vid=545e5687-b7df-4883-81be-75a8925d5f91","ios":"levelo://app?vid=545e5687-b7df-4883-81be-75a8925d5f91"},"vehicle_type_id":"4","last_reported":1746671302,"current_range_meters":25600,"station_id":"","pricing_plan_id":"cebpf4jnsgd1na2vs0mg"},{"bike_id":"4b12119b-886f-455b-b2ae-8814b17b579d","system_id":"levelo_inurba_marseille","lat":43.24157,"lon":5.39759,"is_reserved":false,"is_disabled":false,"rental_uris":{"android":"levelo://app?vid=4b12119b-886f-455b-b2ae-8814b17b579d","ios":"levelo://app?vid=4b12119b-886f-455b-b2ae-8814b17b579d"},"vehicle_type_id":"4","last_reported":1746671302,"current_range_meters":25600,"station_id":"ce4bhn12rcd13ifvqgpg","pricing_plan_id":"cebpf4jnsgd1na2vs0mg"},{"bike_id":"d26fb97c-799b-4029-af88-10b9b5aa5519","system_id":"levelo_inurba_marseille","lat":43.323653,"lon":5.38888,"is_reserved":false,"is_disabled":false,"rental_uris":{"android":"levelo://app?vid=d26fb97c-799b-4029-af88-10b9b5aa5519","ios":"levelo://app?vid=d26fb97c-799b-4029-af88-10b9b5aa5519"},"vehicle_type_id":"4","last_reported":1746671302,"current_range_meters":25600,"station_id":"ce4bhqp2rcd13ifvqhog","pricing_plan_id":"cebpf4jnsgd1na2vs0mg"},{"bike_id":"8cfd22d8-2392-41b8-898f-fe18fb78c2a9","system_id":"levelo_inurba_marseille","lat":43.25716,"lon":5.41802,"is_reserved":false,"is_disabled":false,"rental_uris":{"android":"levelo://app?vid=8cfd22d8-2392-41b8-898f-fe18fb78c2a9","ios":"levelo://app?vid=8cfd22d8-2392-41b8-898f-fe18fb78c2a9"},"vehicle_type_id":"4","last_reported":1746671302,"current_range_meters":26000,"station_id":"","pricing_plan_id":"cebpf4jnsgd1na2vs0mg"},{"bike_id":"668d09cf-38a9-49a4-87d3-67b6dce864b1","system_id":"levelo_inurba_marseille","lat":43.27997,"lon":5.37833,"is_reserved":false,"is_disabled":false,"rental_uris":{"android":"levelo://app?vid=668d09cf-38a9-49a4-87d3-67b6dce864b1","ios":"levelo://app?vid=668d09cf-38a9-49a4-87d3-67b6dce864b1"},"vehicle_type_id":"4","last_reported":1746671302,"current_range_meters":26000,"station_id":"","pricing_plan_id":"cebpf4jnsgd1na2vs0mg"},{"bike_id":"66d39f5f-1aac-423b-9ea7-bf9c1b0e5079","system_id":"levelo_inurba_marseille","lat":43.27496,"lon":5.41152,"is_reserved":false,"is_disabled":false,"rental_uris":{"android":"levelo://app?vid=66d39f5f-1aac-423b-9ea7-bf9c1b0e5079","ios":"levelo://app?vid=66d39f5f-1aac-423b-9ea7-bf9c1b0e5079"},"vehicle_type_id":"4","last_reported":1746671302,"current_range_meters":26000,"station_id":"","pricing_plan_id":"cebpf4jnsgd1na2vs0mg"},{"bike_id":"2482a297-93c0-4919-86fc-c2bf3254ad6f","system_id":"levelo_inurba_marseille","lat":43.28108,"lon":5.37821,"is_reserved":false,"is_disabled":false,"rental_uris":{"android":"levelo://app?vid=2482a297-93c0-4919-86fc-c2bf3254ad6f","ios":"levelo://app?vid=2482a297-93c0-4919-86fc-c2bf3254ad6f"},"vehicle_type_id":"4","last_reported":1746671302,"current_range_meters":26000,"station_id":"ce4bha12rcd13ifvqee0","pricing_plan_id":"cebpf4jnsgd1na2vs0mg"},{"bike_id":"63277f5e-591a-4cad-8a76-1105e4343f72","system_id":"levelo_inurba_marseille","lat":43.26215,"lon":5.40467,"is_reserved":false,"is_disabled":false,"rental_uris":{"android":"levelo://app?vid=63277f5e-591a-4cad-8a76-1105e4343f72","ios":"levelo://app?vid=63277f5e-591a-4cad-8a76-1105e4343f72"},"vehicle_type_id":"4","last_reported":1746671302,"current_range_meters":26000,"station_id":"ce4bhmh2rcd13ifvqgmg","pricing_plan_id":"cebpf4jnsgd1na2vs0mg"},{"bike_id":"943c17e1-2f10-4f8b-b508-00da99e73e39","system_id":"levelo_inurba_marseille","lat":43.23173,"lon":5.39967,"is_reserved":false,"is_disabled":false,"rental_uris":{"android":"levelo://app?vid=943c17e1-2f10-4f8b-b508-00da99e73e39","ios":"levelo://app?vid=943c17e1-2f10-4f8b-b508-00da99e73e39"},"vehicle_type_id":"4","last_reported":1746671302,"current_range_meters":26000,"station_id":"ce4bhn12rcd13ifvqgqg","pricing_plan_id":"cebpf4jnsgd1na2vs0mg"},{"bike_id":"d3e58e08-f9c5-4582-b752-48a8287a970f","system_id":"levelo_inurba_marseille","lat":43.24073,"lon":5.37758,"is_reserved":false,"is_disabled":false,"rental_uris":{"android":"levelo://app?vid=d3e58e08-f9c5-4582-b752-48a8287a970f","ios":"levelo://app?vid=d3e58e08-f9c5-4582-b752-48a8287a970f"},"vehicle_type_id":"4","last_reported":1746671302,"current_range_meters":26000,"station_id":"ce4bhnp2rcd13ifvqgvg","pricing_plan_id":"cebpf4jnsgd1na2vs0mg"},{"bike_id":"320445d7-aaf7-43ec-baaf-4e67030e8b62","system_id":"levelo_inurba_marseille","lat":43.27144,"lon":5.4044,"is_reserved":false,"is_disabled":false,"rental_uris":{"android":"levelo://app?vid=320445d7-aaf7-43ec-baaf-4e67030e8b62","ios":"levelo://app?vid=320445d7-aaf7-43ec-baaf-4e67030e8b62"},"vehicle_type_id":"4","last_reported":1746671302,"current_range_meters":26800,"station_id":"","pricing_plan_id":"cebpf4jnsgd1na2vs0mg"},{"bike_id":"b8028275-38d4-43d3-8766-3f46166cf91f","system_id":"levelo_inurba_marseille","lat":43.28885,"lon":5.45006,"is_reserved":false,"is_disabled":false,"rental_uris":{"android":"levelo://app?vid=b8028275-38d4-43d3-8766-3f46166cf91f","ios":"levelo://app?vid=b8028275-38d4-43d3-8766-3f46166cf91f"},"vehicle_type_id":"4","last_reported":1746671302,"current_range_meters":26800,"station_id":"","pricing_plan_id":"cebpf4jnsgd1na2vs0mg"},{"bike_id":"b2987c7b-aca8-40d4-9313-e79d51161e43","system_id":"levelo_inurba_marseille","lat":43.31066,"lon":5.38349,"is_reserved":false,"is_disabled":false,"rental_uris":{"android":"levelo://app?vid=b2987c7b-aca8-40d4-9313-e79d51161e43","ios":"levelo://app?vid=b2987c7b-aca8-40d4-9313-e79d51161e43"},"vehicle_type_id":"4","last_reported":1746671302,"current_range_meters":26800,"station_id":"ce4bgv92rcd13ifvqcr0","pricing_plan_id":"cebpf4jnsgd1na2vs0mg"},{"bike_id":"679d1fd8-3560-4846-a0cc-d84426455a8b","system_id":"levelo_inurba_marseille","lat":43.27951,"lon":5.41046,"is_reserved":false,"is_disabled":false,"rental_uris":{"android":"levelo://app?vid=679d1fd8-3560-4846-a0cc-d84426455a8b","ios":"levelo://app?vid=679d1fd8-3560-4846-a0cc-d84426455a8b"},"vehicle_type_id":"4","last_reported":1746671302,"current_range_meters":26800,"station_id":"ce4bhnp2rcd13ifvqh0g","pricing_plan_id":"cebpf4jnsgd1na2vs0mg"},{"bike_id":"7dd541b9-e858-4734-8b38-bf5cec4a45d8","system_id":"levelo_inurba_marseille","lat":43.30113,"lon":5.37173,"is_reserved":false,"is_disabled":false,"rental_uris":{"android":"levelo://app?vid=7dd541b9-e858-4734-8b38-bf5cec4a45d8","ios":"levelo://app?vid=7dd541b9-e858-4734-8b38-bf5cec4a45d8"},"vehicle_type_id":"4","last_reported":1746671302,"current_range_meters":27200,"station_id":"","pricing_plan_id":"cebpf4jnsgd1na2vs0mg"},{"bike_id":"caa0f4ff-b2cc-4e35-8206-ab3d3c4fcfbb","system_id":"levelo_inurba_marseille","lat":43.26548,"lon":5.373,"is_reserved":false,"is_disabled":false,"rental_uris":{"android":"levelo://app?vid=caa0f4ff-b2cc-4e35-8206-ab3d3c4fcfbb","ios":"levelo://app?vid=caa0f4ff-b2cc-4e35-8206-ab3d3c4fcfbb"},"vehicle_type_id":"4","last_reported":1746671302,"current_range_meters":27200,"station_id":"ce4bhg12rcd13ifvqf70","pricing_plan_id":"cebpf4jnsgd1na2vs0mg"},{"bike_id":"55a6bf8a-24e0-4119-9dfa-ec04a6c04cee","system_id":"levelo_inurba_marseille","lat":43.27955,"lon":5.41065,"is_reserved":false,"is_disabled":false,"rental_uris":{"android":"levelo://app?vid=55a6bf8a-24e0-4119-9dfa-ec04a6c04cee","ios":"levelo://app?vid=55a6bf8a-24e0-4119-9dfa-ec04a6c04cee"},"vehicle_type_id":"4","last_reported":1746671302,"current_range_meters":27200,"station_id":"ce4bhnp2rcd13ifvqh0g","pricing_plan_id":"cebpf4jnsgd1na2vs0mg"},{"bike_id":"425813b7-1c71-4d54-aef6-10d3805da47f","system_id":"levelo_inurba_marseille","lat":43.28702,"lon":5.39992,"is_reserved":false,"is_disabled":false,"rental_uris":{"android":"levelo://app?vid=425813b7-1c71-4d54-aef6-10d3805da47f","ios":"levelo://app?vid=425813b7-1c71-4d54-aef6-10d3805da47f"},"vehicle_type_id":"4","last_reported":1746671302,"current_range_meters":27200,"station_id":"ce4bho92rcd13ifvqh3g","pricing_plan_id":"cebpf4jnsgd1na2vs0mg"},{"bike_id":"cafcebe4-f789-41a7-b137-917797aad3e1","system_id":"levelo_inurba_marseille","lat":43.28714,"lon":5.37945,"is_reserved":false,"is_disabled":false,"rental_uris":{"android":"levelo://app?vid=cafcebe4-f789-41a7-b137-917797aad3e1","ios":"levelo://app?vid=cafcebe4-f789-41a7-b137-917797aad3e1"},"vehicle_type_id":"4","last_reported":1746671302,"current_range_meters":27600,"station_id":"ce4bh9p2rcd13ifvqec0","pricing_plan_id":"cebpf4jnsgd1na2vs0mg"},{"bike_id":"9e81f3c7-ddff-4440-91a0-8846f9f796de","system_id":"levelo_inurba_marseille","lat":43.23967,"lon":5.36635,"is_reserved":false,"is_disabled":false,"rental_uris":{"android":"levelo://app?vid=9e81f3c7-ddff-4440-91a0-8846f9f796de","ios":"levelo://app?vid=9e81f3c7-ddff-4440-91a0-8846f9f796de"},"vehicle_type_id":"4","last_reported":1746671302,"current_range_meters":27600,"station_id":"ce4bhi12rcd13ifvqfp0","pricing_plan_id":"cebpf4jnsgd1na2vs0mg"},{"bike_id":"9f27de67-82c5-4a83-ae00-14d42854c677","system_id":"levelo_inurba_marseille","lat":43.28146,"lon":5.42649,"is_reserved":false,"is_disabled":false,"rental_uris":{"android":"levelo://app?vid=9f27de67-82c5-4a83-ae00-14d42854c677","ios":"levelo://app?vid=9f27de67-82c5-4a83-ae00-14d42854c677"},"vehicle_type_id":"4","last_reported":1746671302,"current_range_meters":27600,"station_id":"ce4bhnh2rcd13ifvqgug","pricing_plan_id":"cebpf4jnsgd1na2vs0mg"},{"bike_id":"f0deccb7-a270-4fd4-a51e-39844e0ae45a","system_id":"levelo_inurba_marseille","lat":43.34759,"lon":5.34963,"is_reserved":false,"is_disabled":false,"rental_uris":{"android":"levelo://app?vid=f0deccb7-a270-4fd4-a51e-39844e0ae45a","ios":"levelo://app?vid=f0deccb7-a270-4fd4-a51e-39844e0ae45a"},"vehicle_type_id":"4","last_reported":1746671302,"current_range_meters":28000,"station_id":"","pricing_plan_id":"cebpf4jnsgd1na2vs0mg"},{"bike_id":"58611956-f950-44cb-b6bc-8608d22e98e3","system_id":"levelo_inurba_marseille","lat":43.29526,"lon":5.38541,"is_reserved":false,"is_disabled":false,"rental_uris":{"android":"levelo://app?vid=58611956-f950-44cb-b6bc-8608d22e98e3","ios":"levelo://app?vid=58611956-f950-44cb-b6bc-8608d22e98e3"},"vehicle_type_id":"4","last_reported":1746671302,"current_range_meters":28000,"station_id":"ce4bgih2rcd13ifvqba0","pricing_plan_id":"cebpf4jnsgd1na2vs0mg"},{"bike_id":"5aec86d2-85bd-4331-84a9-f9b1cb49ff81","system_id":"levelo_inurba_marseille","lat":43.3136,"lon":5.38494,"is_reserved":false,"is_disabled":false,"rental_uris":{"android":"levelo://app?vid=5aec86d2-85bd-4331-84a9-f9b1cb49ff81","ios":"levelo://app?vid=5aec86d2-85bd-4331-84a9-f9b1cb49ff81"},"vehicle_type_id":"4","last_reported":1746671302,"current_range_meters":28000,"station_id":"ce4bgt92rcd13ifvqcf0","pricing_plan_id":"cebpf4jnsgd1na2vs0mg"},{"bike_id":"3c89cc1d-1749-4495-9184-686611282d9c","system_id":"levelo_inurba_marseille","lat":43.27062,"lon":5.40275,"is_reserved":false,"is_disabled":false,"rental_uris":{"android":"levelo://app?vid=3c89cc1d-1749-4495-9184-686611282d9c","ios":"levelo://app?vid=3c89cc1d-1749-4495-9184-686611282d9c"},"vehicle_type_id":"4","last_reported":1746671302,"current_range_meters":28000,"station_id":"ce4bhk92rcd13ifvqgc0","pricing_plan_id":"cebpf4jnsgd1na2vs0mg"},{"bike_id":"de737c17-3af5-4262-8450-6fda528ce724","system_id":"levelo_inurba_marseille","lat":43.287035,"lon":5.399815,"is_reserved":false,"is_disabled":false,"rental_uris":{"android":"levelo://app?vid=de737c17-3af5-4262-8450-6fda528ce724","ios":"levelo://app?vid=de737c17-3af5-4262-8450-6fda528ce724"},"vehicle_type_id":"4","last_reported":1746671302,"current_range_meters":28000,"station_id":"ce4bho92rcd13ifvqh3g","pricing_plan_id":"cebpf4jnsgd1na2vs0mg"},{"bike_id":"87aa5c89-ade7-4462-ab72-5e60a97a49a4","system_id":"levelo_inurba_marseille","lat":43.32332,"lon":5.4063,"is_reserved":false,"is_disabled":false,"rental_uris":{"android":"levelo://app?vid=87aa5c89-ade7-4462-ab72-5e60a97a49a4","ios":"levelo://app?vid=87aa5c89-ade7-4462-ab72-5e60a97a49a4"},"vehicle_type_id":"4","last_reported":1746671302,"current_range_meters":28000,"station_id":"ce4bhq92rcd13ifvqhjg","pricing_plan_id":"cebpf4jnsgd1na2vs0mg"},{"bike_id":"942d3711-7be5-4198-bbe2-82eb891385e5","system_id":"levelo_inurba_marseille","lat":43.31381,"lon":5.38576,"is_reserved":false,"is_disabled":false,"rental_uris":{"android":"levelo://app?vid=942d3711-7be5-4198-bbe2-82eb891385e5","ios":"levelo://app?vid=942d3711-7be5-4198-bbe2-82eb891385e5"},"vehicle_type_id":"4","last_reported":1746671302,"current_range_meters":28400,"station_id":"","pricing_plan_id":"cebpf4jnsgd1na2vs0mg"},{"bike_id":"a4bc7e0e-5935-4670-a0d9-5a9a639d777e","system_id":"levelo_inurba_marseille","lat":43.27839,"lon":5.39196,"is_reserved":false,"is_disabled":false,"rental_uris":{"android":"levelo://app?vid=a4bc7e0e-5935-4670-a0d9-5a9a639d777e","ios":"levelo://app?vid=a4bc7e0e-5935-4670-a0d9-5a9a639d777e"},"vehicle_type_id":"4","last_reported":1746671302,"current_range_meters":28400,"station_id":"ce4bhjp2rcd13ifvqga0","pricing_plan_id":"cebpf4jnsgd1na2vs0mg"},{"bike_id":"aaad35d7-e5e4-4eee-a4a8-42310b4d6d99","system_id":"levelo_inurba_marseille","lat":43.241755,"lon":5.397326,"is_reserved":false,"is_disabled":false,"rental_uris":{"android":"levelo://app?vid=aaad35d7-e5e4-4eee-a4a8-42310b4d6d99","ios":"levelo://app?vid=aaad35d7-e5e4-4eee-a4a8-42310b4d6d99"},"vehicle_type_id":"4","last_reported":1746671302,"current_range_meters":28400,"station_id":"ce4bhn12rcd13ifvqgpg","pricing_plan_id":"cebpf4jnsgd1na2vs0mg"},{"bike_id":"2f7204e4-aba0-4ac4-806d-39a4adcd808b","system_id":"levelo_inurba_marseille","lat":43.28152,"lon":5.42686,"is_reserved":false,"is_disabled":false,"rental_uris":{"android":"levelo://app?vid=2f7204e4-aba0-4ac4-806d-39a4adcd808b","ios":"levelo://app?vid=2f7204e4-aba0-4ac4-806d-39a4adcd808b"},"vehicle_type_id":"4","last_reported":1746671302,"current_range_meters":28400,"station_id":"ce4bhnh2rcd13ifvqgug","pricing_plan_id":"cebpf4jnsgd1na2vs0mg"},{"bike_id":"045a8aa6-9c6d-4d99-9b5f-14ff6daab644","system_id":"levelo_inurba_marseille","lat":43.28064,"lon":5.39623,"is_reserved":false,"is_disabled":false,"rental_uris":{"android":"levelo://app?vid=045a8aa6-9c6d-4d99-9b5f-14ff6daab644","ios":"levelo://app?vid=045a8aa6-9c6d-4d99-9b5f-14ff6daab644"},"vehicle_type_id":"4","last_reported":1746671302,"current_range_meters":28400,"station_id":"ce4bho12rcd13ifvqh2g","pricing_plan_id":"cebpf4jnsgd1na2vs0mg"},{"bike_id":"c5430509-7623-4443-bb41-e94ad75fea3d","system_id":"levelo_inurba_marseille","lat":43.23184,"lon":5.39986,"is_reserved":false,"is_disabled":false,"rental_uris":{"android":"levelo://app?vid=c5430509-7623-4443-bb41-e94ad75fea3d","ios":"levelo://app?vid=c5430509-7623-4443-bb41-e94ad75fea3d"},"vehicle_type_id":"4","last_reported":1746671302,"current_range_meters":28800,"station_id":"ce4bhn12rcd13ifvqgqg","pricing_plan_id":"cebpf4jnsgd1na2vs0mg"},{"bike_id":"6fba584a-e58a-40bb-9d5f-e65308443f5e","system_id":"levelo_inurba_marseille","lat":43.274949,"lon":5.424546,"is_reserved":false,"is_disabled":false,"rental_uris":{"android":"levelo://app?vid=6fba584a-e58a-40bb-9d5f-e65308443f5e","ios":"levelo://app?vid=6fba584a-e58a-40bb-9d5f-e65308443f5e"},"vehicle_type_id":"4","last_reported":1746671302,"current_range_meters":28800,"station_id":"ce4bhn92rcd13ifvqgrg","pricing_plan_id":"cebpf4jnsgd1na2vs0mg"},{"bike_id":"974453b7-9a83-45c5-9c1a-aad1b62142a3","system_id":"levelo_inurba_marseille","lat":43.24065,"lon":5.37721,"is_reserved":false,"is_disabled":false,"rental_uris":{"android":"levelo://app?vid=974453b7-9a83-45c5-9c1a-aad1b62142a3","ios":"levelo://app?vid=974453b7-9a83-45c5-9c1a-aad1b62142a3"},"vehicle_type_id":"4","last_reported":1746671302,"current_range_meters":28800,"station_id":"ce4bhnp2rcd13ifvqgvg","pricing_plan_id":"cebpf4jnsgd1na2vs0mg"},{"bike_id":"b43755e8-f607-485f-af1a-bc748b24365e","system_id":"levelo_inurba_marseille","lat":43.279365,"lon":5.41041,"is_reserved":false,"is_disabled":false,"rental_uris":{"android":"levelo://app?vid=b43755e8-f607-485f-af1a-bc748b24365e","ios":"levelo://app?vid=b43755e8-f607-485f-af1a-bc748b24365e"},"vehicle_type_id":"4","last_reported":1746671302,"current_range_meters":28800,"station_id":"ce4bhnp2rcd13ifvqh0g","pricing_plan_id":"cebpf4jnsgd1na2vs0mg"},{"bike_id":"78bd7230-a3ee-4391-ab28-184a9eed3a61","system_id":"levelo_inurba_marseille","lat":43.26802,"lon":5.40264,"is_reserved":false,"is_disabled":false,"rental_uris":{"android":"levelo://app?vid=78bd7230-a3ee-4391-ab28-184a9eed3a61","ios":"levelo://app?vid=78bd7230-a3ee-4391-ab28-184a9eed3a61"},"vehicle_type_id":"4","last_reported":1746671302,"current_range_meters":28800,"station_id":"ce501612rcd8frsf0b60","pricing_plan_id":"cebpf4jnsgd1na2vs0mg"},{"bike_id":"cf2272c3-9112-43bb-9e57-24a35ad56deb","system_id":"levelo_inurba_marseille","lat":43.25994,"lon":5.41749,"is_reserved":false,"is_disabled":false,"rental_uris":{"android":"levelo://app?vid=cf2272c3-9112-43bb-9e57-24a35ad56deb","ios":"levelo://app?vid=cf2272c3-9112-43bb-9e57-24a35ad56deb"},"vehicle_type_id":"4","last_reported":1746671302,"current_range_meters":29600,"station_id":"","pricing_plan_id":"cebpf4jnsgd1na2vs0mg"},{"bike_id":"6fcaf6f8-ac68-4210-900d-802b70d292a3","system_id":"levelo_inurba_marseille","lat":43.29595,"lon":5.38106,"is_reserved":false,"is_disabled":false,"rental_uris":{"android":"levelo://app?vid=6fcaf6f8-ac68-4210-900d-802b70d292a3","ios":"levelo://app?vid=6fcaf6f8-ac68-4210-900d-802b70d292a3"},"vehicle_type_id":"4","last_reported":1746671302,"current_range_meters":29600,"station_id":"ce4bgl12rcd13ifvqbo0","pricing_plan_id":"cebpf4jnsgd1na2vs0mg"},{"bike_id":"8d7cac81-3284-4b8c-8197-73bc9de7b6e5","system_id":"levelo_inurba_marseille","lat":43.2869,"lon":5.37407,"is_reserved":false,"is_disabled":false,"rental_uris":{"android":"levelo://app?vid=8d7cac81-3284-4b8c-8197-73bc9de7b6e5","ios":"levelo://app?vid=8d7cac81-3284-4b8c-8197-73bc9de7b6e5"},"vehicle_type_id":"4","last_reported":1746671302,"current_range_meters":29600,"station_id":"ce4bh3p2rcd13ifvqdq0","pricing_plan_id":"cebpf4jnsgd1na2vs0mg"},{"bike_id":"f3f68057-1ed8-41e3-bdcf-1dafb8cd6088","system_id":"levelo_inurba_marseille","lat":43.2512,"lon":5.40336,"is_reserved":false,"is_disabled":false,"rental_uris":{"android":"levelo://app?vid=f3f68057-1ed8-41e3-bdcf-1dafb8cd6088","ios":"levelo://app?vid=f3f68057-1ed8-41e3-bdcf-1dafb8cd6088"},"vehicle_type_id":"4","last_reported":1746671302,"current_range_meters":29600,"station_id":"ce4bhlh2rcd13ifvqgig","pricing_plan_id":"cebpf4jnsgd1na2vs0mg"},{"bike_id":"2891dfc5-7ce2-4de4-860d-9bc00a371bd2","system_id":"levelo_inurba_marseille","lat":43.2415,"lon":5.36402,"is_reserved":false,"is_disabled":false,"rental_uris":{"android":"levelo://app?vid=2891dfc5-7ce2-4de4-860d-9bc00a371bd2","ios":"levelo://app?vid=2891dfc5-7ce2-4de4-860d-9bc00a371bd2"},"vehicle_type_id":"4","last_reported":1746671302,"current_range_meters":29600,"station_id":"cpo36qri1sfpv3e86is0","pricing_plan_id":"cebpf4jnsgd1na2vs0mg"},{"bike_id":"f52c819d-ca4b-4640-b458-b877db1bf990","system_id":"levelo_inurba_marseille","lat":43.29898,"lon":5.41017,"is_reserved":false,"is_disabled":false,"rental_uris":{"android":"levelo://app?vid=f52c819d-ca4b-4640-b458-b877db1bf990","ios":"levelo://app?vid=f52c819d-ca4b-4640-b458-b877db1bf990"},"vehicle_type_id":"4","last_reported":1746671302,"current_range_meters":30000,"station_id":"","pricing_plan_id":"cebpf4jnsgd1na2vs0mg"},{"bike_id":"8dcc550b-9e13-40bf-9c71-44dd3a21a70f","system_id":"levelo_inurba_marseille","lat":43.313584,"lon":5.384938,"is_reserved":false,"is_disabled":false,"rental_uris":{"android":"levelo://app?vid=8dcc550b-9e13-40bf-9c71-44dd3a21a70f","ios":"levelo://app?vid=8dcc550b-9e13-40bf-9c71-44dd3a21a70f"},"vehicle_type_id":"4","last_reported":1746671302,"current_range_meters":30000,"station_id":"ce4bgt92rcd13ifvqcf0","pricing_plan_id":"cebpf4jnsgd1na2vs0mg"},