{"last_updated":1726913296,"ttl":30,"version":"2.2","data":{"bikes":[{"bike_id":"0bbee90f-8502-443f-ba84-24be626a4a28","system_id":"levelo_inurba_marseille","lat":43.28162,"lon":5.42629,"is_reserved":false,"is_disabled":false,"rental_uris":{"android":"levelo://app?vid=0bbee90f-8502-443f-ba84-24be626a4a28","ios":"levelo://app?vid=0bbee90f-8502-443f-ba84-24be626a4a28"},"vehicle_type_id":"4","last_reported":1726913296,"current_range_meters":19200,"station_id":"ce4bhnh2rcd13ifvqgug","pricing_plan_id":"cebpf4jnsgd1na2vs0mg"},{"bike_id":"09e6cd88-ad5a-4727-b92b-1b62b62b7ec1","system_id":"levelo_inurba_marseille","lat":43.28006,"lon":5.400003,"is_reserved":false,"is_disabled":false,"rental_uris":{"android":"levelo://app?vid=09e6cd88-ad5a-4727-b92b-1b62b62b7ec1","ios":"levelo://app?vid=09e6cd88-ad5a-4727-b92b-1b62b62b7ec1"},"vehicle_type_id":"4","last_reported":1726913296,"current_range_meters":36400,"station_id":"ce4bho92rcd13ifvqh4g","pricing_plan_id":"cebpf4jnsgd1na2vs0mg"},{"bike_id":"c39e6c5f-c85b-4e66-a113-8b66e7e02132","system_id":"levelo_inurba_marseille","lat":43.24391,"lon":5.37063,"is_reserved":false,"is_disabled":false,"rental_uris":{"android":"levelo://app?vid=c39e6c5f-c85b-4e66-a113-8b66e7e02132","ios":"levelo://app?vid=c39e6c5f-c85b-4e66-a113-8b66e7e02132"},"vehicle_type_id":"4","last_reported":1726913296,"current_range_meters":32000,"station_id":"ce4bhhh2rcd13ifvqfk0","pricing_plan_id":"cebpf4jnsgd1na2vs0mg"},{"bike_id":"5fd38519-98f4-4f00-93ed-1daeb76c790e","system_id":"levelo_inurba_marseille","lat":43.27493,"lon":5.42449,"is_reserved":false,"is_disabled":false,"rental_uris":{"android":"levelo://app?vid=5fd38519-98f4-4f00-93ed-1daeb76c790e","ios":"levelo://app?vid=5fd38519-98f4-4f00-93ed-1daeb76c790e"},"vehicle_type_id":"4","last_reported":1726913296,"current_range_meters":22000,"station_id":"ce4bhn92rcd13ifvqgrg","pricing_plan_id":"cebpf4jnsgd1na2vs0mg"},{"bike_id":"c943e2f3-933e-4efb-97de-45246d483f08","system_id":"levelo_inurba_marseille","lat":43.26555,"lon":5.37286,"is_reserved":false,"is_disabled":false,"rental_uris":{"android":"levelo://app?vid=c943e2f3-933e-4efb-97de-45246d483f08","ios":"levelo://app?vid=c943e2f3-933e-4efb-97de-45246d483f08"},"vehicle_type_id":"4","last_reported":1726913296,"current_range_meters":8000,"station_id":"ce4bhg12rcd13ifvqf70","pricing_plan_id":"cebpf4jnsgd1na2vs0mg"},{"bike_id":"07d6ac36-a212-4e2d-8d32-5d792a1e8531","system_id":"levelo_inurba_marseille","lat":43.29092,"lon":5.38124,"is_reserved":false,"is_disabled":false,"rental_uris":{"android":"levelo://app?vid=07d6ac36-a212-4e2d-8d32-5d792a1e8531","ios":"levelo://app?vid=07d6ac36-a212-4e2d-8d32-5d792a1e8531"},"vehicle_type_id":"4","last_reported":1726913296,"current_range_meters":37600,"station_id":"ce4bh512rcd13ifvqe2g","pricing_plan_id":"cebpf4jnsgd1na2vs0mg"},{"bike_id":"caeb01e1-f6ca-4785-8d66-d5a031a43aa7","system_id":"levelo_inurba_marseille","lat":43.2509,"lon":5.3951,"is_reserved":false,"is_disabled":false,"rental_uris":{"android":"levelo://app?vid=caeb01e1-f6ca-4785-8d66-d5a031a43aa7","ios":"levelo://app?vid=caeb01e1-f6ca-4785-8d66-d5a031a43aa7"},"vehicle_type_id":"4","last_reported":1726913296,"current_range_meters":32000,"station_id":"ce4bhm12rcd13ifvqgkg","pricing_plan_id":"cebpf4jnsgd1na2vs0mg"},{"bike_id":"e7cd47e5-6f97-4fa9-90d0-f566eb560bd1","system_id":"levelo_inurba_marseille","lat":43.231506,"lon":5.437201,"is_reserved":false,"is_disabled":false,"rental_uris":{"android":"levelo://app?vid=e7cd47e5-6f97-4fa9-90d0-f566eb560bd1","ios":"levelo://app?vid=e7cd47e5-6f97-4fa9-90d0-f566eb560bd1"},"vehicle_type_id":"4","last_reported":1726913296,"current_range_meters":18000,"station_id":"ce4bhmp2rcd13ifvqgog","pricing_plan_id":"cebpf4jnsgd1na2vs0mg"},{"bike_id":"e8124e59-d9c1-451f-8a50-cd320b2fd0d6","system_id":"levelo_inurba_marseille","lat":43.298521,"lon":5.362898,"is_reserved":false,"is_disabled":false,"rental_uris":{"android":"levelo://app?vid=e8124e59-d9c1-451f-8a50-cd320b2fd0d6","ios":"levelo://app?vid=e8124e59-d9c1-451f-8a50-cd320b2fd0d6"},"vehicle_type_id":"4","last_reported":1726913296,"current_range_meters":36400,"station_id":"ce4bgpp2rcd13ifvqc3g","pricing_plan_id":"cebpf4jnsgd1na2vs0mg"},{"bike_id":"1aaa1809-ef91-4d70-b319-1dfe50f8375b","system_id":"levelo_inurba_marseille","lat":43.31264,"lon":5.40167,"is_reserved":false,"is_disabled":false,"rental_uris":{"android":"levelo://app?vid=1aaa1809-ef91-4d70-b319-1dfe50f8375b","ios":"levelo://app?vid=1aaa1809-ef91-4d70-b319-1dfe50f8375b"},"vehicle_type_id":"4","last_reported":1726913296,"current_range_meters":6000,"station_id":"ce4bh092rcd13ifvqd30","pricing_plan_id":"cebpf4jnsgd1na2vs0mg"},{"bike_id":"cb96a90e-a737-4516-af9c-595534c83be5","system_id":"levelo_inurba_marseille","lat":43.33024,"lon":5.3904,"is_reserved":false,"is_disabled":false,"rental_uris":{"android":"levelo://app?vid=cb96a90e-a737-4516-af9c-595534c83be5","ios":"levelo://app?vid=cb96a90e-a737-4516-af9c-595534c83be5"},"vehicle_type_id":"4","last_reported":1726913296,"current_range_meters":29600,"station_id":"ce4bhr92rcd13ifvqhrg","pricing_plan_id":"cebpf4jnsgd1na2vs0mg"},{"bike_id":"5b0966a5-8421-4bcc-8242-e71003285d8a","system_id":"levelo_inurba_marseille","lat":43.33608,"lon":5.41008,"is_reserved":false,"is_disabled":false,"rental_uris":{"android":"levelo://app?vid=5b0966a5-8421-4bcc-8242-e71003285d8a","ios":"levelo://app?vid=5b0966a5-8421-4bcc-8242-e71003285d8a"},"vehicle_type_id":"4","last_reported":1726913296,"current_range_meters":16800,"station_id":"ce4bhqh2rcd13ifvqhmg","pricing_plan_id":"cebpf4jnsgd1na2vs0mg"},{"bike_id":"987d3f73-44e5-4b49-84e9-87bcfffeb69c","system_id":"levelo_inurba_marseille","lat":43.25732,"lon":5.41104,"is_reserved":false,"is_disabled":false,"rental_uris":{"android":"levelo://app?vid=987d3f73-44e5-4b49-84e9-87bcfffeb69c","ios":"levelo://app?vid=987d3f73-44e5-4b49-84e9-87bcfffeb69c"},"vehicle_type_id":"4","last_reported":1726913296,"current_range_meters":37600,"station_id":"ce4bhkp2rcd13ifvqgd0","pricing_plan_id":"cebpf4jnsgd1na2vs0mg"},{"bike_id":"13ee3712-2b84-424c-a286-62ef640ba782","system_id":"levelo_inurba_marseille","lat":43.29635,"lon":5.40594,"is_reserved":false,"is_disabled":false,"rental_uris":{"android":"levelo://app?vid=13ee3712-2b84-424c-a286-62ef640ba782","ios":"levelo://app?vid=13ee3712-2b84-424c-a286-62ef640ba782"},"vehicle_type_id":"4","last_reported":1726913296,"current_range_meters":20000,"station_id":"ce4bh0h2rcd13ifvqd60","pricing_plan_id":"cebpf4jnsgd1na2vs0mg"},{"bike_id":"5f3f2703-e50a-4bcd-94e9-7b782bdf49ca","system_id":"levelo_inurba_marseille","lat":43.25939,"lon":5.40894,"is_reserved":false,"is_disabled":false,"rental_uris":{"android":"levelo://app?vid=5f3f2703-e50a-4bcd-94e9-7b782bdf49ca","ios":"levelo://app?vid=5f3f2703-e50a-4bcd-94e9-7b782bdf49ca"},"vehicle_type_id":"4","last_reported":1726913296,"current_range_meters":37600,"station_id":"ce4bhm92rcd13ifvqglg","pricing_plan_id":"cebpf4jnsgd1na2vs0mg"},{"bike_id":"952727d5-10c0-49c8-a6ee-a4efa34b8c23","system_id":"levelo_inurba_marseille","lat":43.2395,"lon":5.36655,"is_reserved":false,"is_disabled":false,"rental_uris":{"android":"levelo://app?vid=952727d5-10c0-49c8-a6ee-a4efa34b8c23","ios":"levelo://app?vid=952727d5-10c0-49c8-a6ee-a4efa34b8c23"},"vehicle_type_id":"4","last_reported":1726913296,"current_range_meters":39200,"station_id":"ce4bhi12rcd13ifvqfp0","pricing_plan_id":"cebpf4jnsgd1na2vs0mg"},{"bike_id":"4bc03e97-c1e5-4c67-a26c-5ce1ab99d654","system_id":"levelo_inurba_marseille","lat":43.29925,"lon":5.374598,"is_reserved":false,"is_disabled":false,"rental_uris":{"android":"levelo://app?vid=4bc03e97-c1e5-4c67-a26c-5ce1ab99d654","ios":"levelo://app?vid=4bc03e97-c1e5-4c67-a26c-5ce1ab99d654"},"vehicle_type_id":"4","last_reported":1726913296,"current_range_meters":9600,"station_id":"ce4bgjh2rcd13ifvqbg0","pricing_plan_id":"cebpf4jnsgd1na2vs0mg"},{"bike_id":"f4fbe7f5-b287-4987-b814-ee2c2686cdf0","system_id":"levelo_inurba_marseille","lat":43.302592,"lon":5.400838,"is_reserved":false,"is_disabled":false,"rental_uris":{"android":"levelo://app?vid=f4fbe7f5-b287-4987-b814-ee2c2686cdf0","ios":"levelo://app?vid=f4fbe7f5-b287-4987-b814-ee2c2686cdf0"},"vehicle_type_id":"4","last_reported":1726913296,"current_range_meters":38800,"station_id":"ce4bgvh2rcd13ifvqcs0","pricing_plan_id":"cebpf4jnsgd1na2vs0mg"},{"bike_id":"e22352b5-e9a0-4afb-bba7-1fffc50d9e43","system_id":"levelo_inurba_marseille","lat":43.23067,"lon":5.35487,"is_reserved":false,"is_disabled":false,"rental_uris":{"android":"levelo://app?vid=e22352b5-e9a0-4afb-bba7-1fffc50d9e43","ios":"levelo://app?vid=e22352b5-e9a0-4afb-bba7-1fffc50d9e43"},"vehicle_type_id":"4","last_reported":1726913296,"current_range_meters":8400,"station_id":"cpo3342slgdg3j2ifvpg","pricing_plan_id":"cebpf4jnsgd1na2vs0mg"},{"bike_id":"2d889fd7-cf97-48ae-b622-41b1e0bdce76","system_id":"levelo_inurba_marseille","lat":43.27558,"lon":5.38427,"is_reserved":false,"is_disabled":false,"rental_uris":{"android":"levelo://app?vid=2d889fd7-cf97-48ae-b622-41b1e0bdce76","ios":"levelo://app?vid=2d889fd7-cf97-48ae-b622-41b1e0bdce76"},"vehicle_type_id":"4","last_reported":1726913296,"current_range_meters":38400,"station_id":"ce4bhh92rcd13ifvqfi0","pricing_plan_id":"cebpf4jnsgd1na2vs0mg"},{"bike_id":"787888e2-6206-46d5-a768-f37fbf332ec0","system_id":"levelo_inurba_marseille","lat":43.25108,"lon":5.40311,"is_reserved":false,"is_disabled":false,"rental_uris":{"android":"levelo://app?vid=787888e2-6206-46d5-a768-f37fbf332ec0","ios":"levelo://app?vid=787888e2-6206-46d5-a768-f37fbf332ec0"},"vehicle_type_id":"4","last_reported":1726913296,"current_range_meters":27600,"station_id":"ce4bhlh2rcd13ifvqgig","pricing_plan_id":"cebpf4jnsgd1na2vs0mg"},{"bike_id":"3cea86a1-9a58-478d-b244-957f4139aef0","system_id":"levelo_inurba_marseille","lat":43.33603,"lon":5.41015,"is_reserved":false,"is_disabled":false,"rental_uris":{"android":"levelo://app?vid=3cea86a1-9a58-478d-b244-957f4139aef0","ios":"levelo://app?vid=3cea86a1-9a58-478d-b244-957f4139aef0"},"vehicle_type_id":"4","last_reported":1726913296,"current_range_meters":38800,"station_id":"ce4bhqh2rcd13ifvqhmg","pricing_plan_id":"cebpf4jnsgd1na2vs0mg"},{"bike_id":"038afd41-40e7-4192-a39a-69b5560933a9","system_id":"levelo_inurba_marseille","lat":43.28434,"lon":5.39198,"is_reserved":false,"is_disabled":false,"rental_uris":{"android":"levelo://app?vid=038afd41-40e7-4192-a39a-69b5560933a9","ios":"levelo://app?vid=038afd41-40e7-4192-a39a-69b5560933a9"},"vehicle_type_id":"4","last_reported":1726913296,"current_range_meters":38800,"station_id":"ce4bhoh2rcd13ifvqh5g","pricing_plan_id":"cebpf4jnsgd1na2vs0mg"},{"bike_id":"375e717a-6fb5-4af9-babc-dc456df036e8","system_id":"levelo_inurba_marseille","lat":43.29233,"lon":5.36051,"is_reserved":false,"is_disabled":false,"rental_uris":{"android":"levelo://app?vid=375e717a-6fb5-4af9-babc-dc456df036e8","ios":"levelo://app?vid=375e717a-6fb5-4af9-babc-dc456df036e8"},"vehicle_type_id":"4","last_reported":1726913296,"current_range_meters":34800,"station_id":"ce4bhbh2rcd13ifvqeqg","pricing_plan_id":"cebpf4jnsgd1na2vs0mg"},{"bike_id":"7305e097-fa56-4e8c-b7c3-772deb6569c0","system_id":"levelo_inurba_marseille","lat":43.25578,"lon":5.38228,"is_reserved":false,"is_disabled":false,"rental_uris":{"android":"levelo://app?vid=7305e097-fa56-4e8c-b7c3-772deb6569c0","ios":"levelo://app?vid=7305e097-fa56-4e8c-b7c3-772deb6569c0"},"vehicle_type_id":"4","last_reported":1726913296,"current_range_meters":30400,"station_id":"ce4bhih2rcd13ifvqfs0","pricing_plan_id":"cebpf4jnsgd1na2vs0mg"},{"bike_id":"548ff5e8-4be6-4fa2-b210-beb1ef8053de","system_id":"levelo_inurba_marseille","lat":43.29586,"lon":5.36748,"is_reserved":false,"is_disabled":false,"rental_uris":{"android":"levelo://app?vid=548ff5e8-4be6-4fa2-b210-beb1ef8053de","ios":"levelo://app?vid=548ff5e8-4be6-4fa2-b210-beb1ef8053de"},"vehicle_type_id":"4","last_reported":1726913296,"current_range_meters":17200,"station_id":"ce4bgph2rcd13ifvqc2g","pricing_plan_id":"cebpf4jnsgd1na2vs0mg"},{"bike_id":"fa520986-39e7-4e30-bd0c-782c813be45b","system_id":"levelo_inurba_marseille","lat":43.30464,"lon":5.37891,"is_reserved":false,"is_disabled":false,"rental_uris":{"android":"levelo://app?vid=fa520986-39e7-4e30-bd0c-782c813be45b","ios":"levelo://app?vid=fa520986-39e7-4e30-bd0c-782c813be45b"},"vehicle_type_id":"4","last_reported":1726913296,"current_range_meters":36800,"station_id":"ce4bgup2rcd13ifvqcn0","pricing_plan_id":"cebpf4jnsgd1na2vs0mg"},{"bike_id":"9ca8b5df-7819-442b-83e6-2ef3e3c04cd8","system_id":"levelo_inurba_marseille","lat":43.24386,"lon":5.37059,"is_reserved":false,"is_disabled":false,"rental_uris":{"android":"levelo://app?vid=9ca8b5df-7819-442b-83e6-2ef3e3c04cd8","ios":"levelo://app?vid=9ca8b5df-7819-442b-83e6-2ef3e3c04cd8"},"vehicle_type_id":"4","last_reported":1726913296,"current_range_meters":24000,"station_id":"ce4bhhh2rcd13ifvqfk0","pricing_plan_id":"cebpf4jnsgd1na2vs0mg"},{"bike_id":"6347a7e4-710f-4f61-bf2f-1b77f242d9b9","system_id":"levelo_inurba_marseille","lat":43.23186,"lon":5.39977,"is_reserved":false,"is_disabled":false,"rental_uris":{"android":"levelo://app?vid=6347a7e4-710f-4f61-bf2f-1b77f242d9b9","ios":"levelo://app?vid=6347a7e4-710f-4f61-bf2f-1b77f242d9b9"},"vehicle_type_id":"4","last_reported":1726913296,"current_range_meters":26000,"station_id":"ce4bhn12rcd13ifvqgqg","pricing_plan_id":"cebpf4jnsgd1na2vs0mg"},{"bike_id":"ee7da271-2586-49b9-8b27-7c1d2ffc4c67","system_id":"levelo_inurba_marseille","lat":43.25108,"lon":5.40328,"is_reserved":false,"is_disabled":false,"rental_uris":{"android":"levelo://app?vid=ee7da271-2586-49b9-8b27-7c1d2ffc4c67","ios":"levelo://app?vid=ee7da271-2586-49b9-8b27-7c1d2ffc4c67"},"vehicle_type_id":"4","last_reported":1726913296,"current_range_meters":28800,"station_id":"ce4bhlh2rcd13ifvqgig","pricing_plan_id":"cebpf4jnsgd1na2vs0mg"},{"bike_id":"a4d4f5e6-a6e7-4588-ae73-51ff4f2487fb","system_id":"levelo_inurba_marseille","lat":43.29913,"lon":5.37467,"is_reserved":false,"is_disabled":false,"rental_uris":{"android":"levelo://app?vid=a4d4f5e6-a6e7-4588-ae73-51ff4f2487fb","ios":"levelo://app?vid=a4d4f5e6-a6e7-4588-ae73-51ff4f2487fb"},"vehicle_type_id":"4","last_reported":1726913296,"current_range_meters":33600,"station_id":"ce4bgjh2rcd13ifvqbg0","pricing_plan_id":"cebpf4jnsgd1na2vs0mg"},{"bike_id":"f5fbbd18-7563-4e62-b47b-9ad6cf9fcd3c","system_id":"levelo_inurba_marseille","lat":43.303086,"lon":5.368991,"is_reserved":false,"is_disabled":false,"rental_uris":{"android":"levelo://app?vid=f5fbbd18-7563-4e62-b47b-9ad6cf9fcd3c","ios":"levelo://app?vid=f5fbbd18-7563-4e62-b47b-9ad6cf9fcd3c"},"vehicle_type_id":"4","last_reported":1726913296,"current_range_meters":6400,"station_id":"ce4bgqh2rcd13ifvqc5g","pricing_plan_id":"cebpf4jnsgd1na2vs0mg"},{"bike_id":"248d15db-0bdd-4ea1-b88c-229ae48018b8","system_id":"levelo_inurba_marseille","lat":43.29214,"lon":5.36065,"is_reserved":false,"is_disabled":false,"rental_uris":{"android":"levelo://app?vid=248d15db-0bdd-4ea1-b88c-229ae48018b8","ios":"levelo://app?vid=248d15db-0bdd-4ea1-b88c-229ae48018b8"},"vehicle_type_id":"4","last_reported":1726913296,"current_range_meters":38800,"station_id":"ce4bhbh2rcd13ifvqeqg","pricing_plan_id":"cebpf4jnsgd1na2vs0mg"},{"bike_id":"9cfa52a0-1dd5-48e7-99ad-4ae3c9b0c8b9","system_id":"levelo_inurba_marseille","lat":43.2931,"lon":5.37178,"is_reserved":false,"is_disabled":false,"rental_uris":{"android":"levelo://app?vid=9cfa52a0-1dd5-48e7-99ad-4ae3c9b0c8b9","ios":"levelo://app?vid=9cfa52a0-1dd5-48e7-99ad-4ae3c9b0c8b9"},"vehicle_type_id":"4","last_reported":1726913296,"current_range_meters":14800,"station_id":"ce4bgh92rcd13ifvqb40","pricing_plan_id":"cebpf4jnsgd1na2vs0mg"},{"bike_id":"f16689a1-9304-4619-8a42-be41828a336b","system_id":"levelo_inurba_marseille","lat":43.308466,"lon":5.396584,"is_reserved":false,"is_disabled":false,"rental_uris":{"android":"levelo://app?vid=f16689a1-9304-4619-8a42-be41828a336b","ios":"levelo://app?vid=f16689a1-9304-4619-8a42-be41828a336b"},"vehicle_type_id":"4","last_reported":1726913296,"current_range_meters":25600,"station_id":"ce4bh012rcd13ifvqcv0","pricing_plan_id":"cebpf4jnsgd1na2vs0mg"},{"bike_id":"f2fdefcd-a050-4065-a802-75d2680309bd","system_id":"levelo_inurba_marseille","lat":43.2319,"lon":5.39984,"is_reserved":false,"is_disabled":false,"rental_uris":{"android":"levelo://app?vid=f2fdefcd-a050-4065-a802-75d2680309bd","ios":"levelo://app?vid=f2fdefcd-a050-4065-a802-75d2680309bd"},"vehicle_type_id":"4","last_reported":1726913296,"current_range_meters":22800,"station_id":"ce4bhn12rcd13ifvqgqg","pricing_plan_id":"cebpf4jnsgd1na2vs0mg"},{"bike_id":"14cba0ea-4932-4120-ba2f-1e13201aa231","system_id":"levelo_inurba_marseille","lat":43.33785,"lon":5.37419,"is_reserved":false,"is_disabled":false,"rental_uris":{"android":"levelo://app?vid=14cba0ea-4932-4120-ba2f-1e13201aa231","ios":"levelo://app?vid=14cba0ea-4932-4120-ba2f-1e13201aa231"},"vehicle_type_id":"4","last_reported":1726913296,"current_range_meters":37600,"station_id":"","pricing_plan_id":"cebpf4jnsgd1na2vs0mg"},{"bike_id":"f925ae7c-9bf5-4c18-9ef0-2d30f3becb9a","system_id":"levelo_inurba_marseille","lat":43.3136,"lon":5.38487,"is_reserved":false,"is_disabled":false,"rental_uris":{"android":"levelo://app?vid=f925ae7c-9bf5-4c18-9ef0-2d30f3becb9a","ios":"levelo://app?vid=f925ae7c-9bf5-4c18-9ef0-2d30f3becb9a"},"vehicle_type_id":"4","last_reported":1726913296,"current_range_meters":36800,"station_id":"ce4bgt92rcd13ifvqcf0","pricing_plan_id":"cebpf4jnsgd1na2vs0mg"},{"bike_id":"a3530aa0-c702-4f20-9ccd-812ecd1b2612","system_id":"levelo_inurba_marseille","lat":43.30547,"lon":5.36543,"is_reserved":false,"is_disabled":false,"rental_uris":{"android":"levelo://app?vid=a3530aa0-c702-4f20-9ccd-812ecd1b2612","ios":"levelo://app?vid=a3530aa0-c702-4f20-9ccd-812ecd1b2612"},"vehicle_type_id":"4","last_reported":1726913296,"current_range_meters":13600,"station_id":"ce4bgs12rcd13ifvqcag","pricing_plan_id":"cebpf4jnsgd1na2vs0mg"},{"bike_id":"2a7db943-6265-4479-9604-043d344eb7a6","system_id":"levelo_inurba_marseille","lat":43.3027,"lon":5.38401,"is_reserved":false,"is_disabled":false,"rental_uris":{"android":"levelo://app?vid=2a7db943-6265-4479-9604-043d344eb7a6","ios":"levelo://app?vid=2a7db943-6265-4479-9604-043d344eb7a6"},"vehicle_type_id":"4","last_reported":1726913296,"current_range_meters":23200,"station_id":"","pricing_plan_id":"cebpf4jnsgd1na2vs0mg"},{"bike_id":"f2fef844-5040-4248-b617-512847cda779","system_id":"levelo_inurba_marseille","lat":43.30285,"lon":5.37708,"is_reserved":false,"is_disabled":false,"rental_uris":{"android":"levelo://app?vid=f2fef844-5040-4248-b617-512847cda779","ios":"levelo://app?vid=f2fef844-5040-4248-b617-512847cda779"},"vehicle_type_id":"4","last_reported":1726913296,"current_range_meters":38000,"station_id":"ce4bguh2rcd13ifvqcj0","pricing_plan_id":"cebpf4jnsgd1na2vs0mg"},{"bike_id":"feef65fd-70ed-4c2a-ab1c-62060f564852","system_id":"levelo_inurba_marseille","lat":43.26679,"lon":5.38273,"is_reserved":false,"is_disabled":false,"rental_uris":{"android":"levelo://app?vid=feef65fd-70ed-4c2a-ab1c-62060f564852","ios":"levelo://app?vid=feef65fd-70ed-4c2a-ab1c-62060f564852"},"vehicle_type_id":"4","last_reported":1726913296,"current_range_meters":24800,"station_id":"ce4bhg92rcd13ifvqf90","pricing_plan_id":"cebpf4jnsgd1na2vs0mg"},{"bike_id":"1ac0a20c-401d-4777-af73-d334affd0e09","system_id":"levelo_inurba_marseille","lat":43.25091,"lon":5.39516,"is_reserved":false,"is_disabled":false,"rental_uris":{"android":"levelo://app?vid=1ac0a20c-401d-4777-af73-d334affd0e09","ios":"levelo://app?vid=1ac0a20c-401d-4777-af73-d334affd0e09"},"vehicle_type_id":"4","last_reported":1726913296,"current_range_meters":38000,"station_id":"ce4bhm12rcd13ifvqgkg","pricing_plan_id":"cebpf4jnsgd1na2vs0mg"},{"bike_id":"b8afe22f-c0f3-483c-bb5f-6071483e5e25","system_id":"levelo_inurba_marseille","lat":43.25944,"lon":5.40896,"is_reserved":false,"is_disabled":false,"rental_uris":{"android":"levelo://app?vid=b8afe22f-c0f3-483c-bb5f-6071483e5e25","ios":"levelo://app?vid=b8afe22f-c0f3-483c-bb5f-6071483e5e25"},"vehicle_type_id":"4","last_reported":1726913296,"current_range_meters":30800,"station_id":"ce4bhm92rcd13ifvqglg","pricing_plan_id":"cebpf4jnsgd1na2vs0mg"},{"bike_id":"db8f2356-1071-4e8e-9473-f7c779818ee6","system_id":"levelo_inurba_marseille","lat":43.29191,"lon":5.35796,"is_reserved":false,"is_disabled":false,"rental_uris":{"android":"levelo://app?vid=db8f2356-1071-4e8e-9473-f7c779818ee6","ios":"levelo://app?vid=db8f2356-1071-4e8e-9473-f7c779818ee6"},"vehicle_type_id":"4","last_reported":1726913296,"current_range_meters":28800,"station_id":"ce4bhb12rcd13ifvqel0","pricing_plan_id":"cebpf4jnsgd1na2vs0mg"},{"bike_id":"b8c4fb30-143a-40da-a94d-ac106aff7dd4","system_id":"levelo_inurba_marseille","lat":43.31275,"lon":5.40165,"is_reserved":false,"is_disabled":false,"rental_uris":{"android":"levelo://app?vid=b8c4fb30-143a-40da-a94d-ac106aff7dd4","ios":"levelo://app?vid=b8c4fb30-143a-40da-a94d-ac106aff7dd4"},"vehicle_type_id":"4","last_reported":1726913296,"current_range_meters":4400,"station_id":"ce4bh092rcd13ifvqd30","pricing_plan_id":"cebpf4jnsgd1na2vs0mg"},{"bike_id":"edfb1ff5-b81b-4225-8da9-100a9115b1e3","system_id":"levelo_inurba_marseille","lat":43.29735,"lon":5.36561,"is_reserved":false,"is_disabled":false,"rental_uris":{"android":"levelo://app?vid=edfb1ff5-b81b-4225-8da9-100a9115b1e3","ios":"levelo://app?vid=edfb1ff5-b81b-4225-8da9-100a9115b1e3"},"vehicle_type_id":"4","last_reported":1726913296,"current_range_meters":8800,"station_id":"","pricing_plan_id":"cebpf4jnsgd1na2vs0mg"},{"bike_id":"0df805ca-5348-4169-979d-f0b036f1fe02","system_id":"levelo_inurba_marseille","lat":43.31997,"lon":5.38149,"is_reserved":false,"is_disabled":false,"rental_uris":{"android":"levelo://app?vid=0df805ca-5348-4169-979d-f0b036f1fe02","ios":"levelo://app?vid=0df805ca-5348-4169-979d-f0b036f1fe02"},"vehicle_type_id":"4","last_reported":1726913296,"current_range_meters":17600,"station_id":"ce4bhr12rcd13ifvqhpg","pricing_plan_id":"cebpf4jnsgd1na2vs0mg"},{"bike_id":"cb78f020-14a9-4658-8833-3882a1c1d52f","system_id":"levelo_inurba_marseille","lat":43.2694,"lon":5.40246,"is_reserved":false,"is_disabled":false,"rental_uris":{"android":"levelo://app?vid=cb78f020-14a9-4658-8833-3882a1c1d52f","ios":"levelo://app?vid=cb78f020-14a9-4658-8833-3882a1c1d52f"},"vehicle_type_id":"4","last_reported":1726913296,"current_range_meters":24800,"station_id":"cjm6bp8fraef2m0cb0m0","pricing_plan_id":"cebpf4jnsgd1na2vs0mg"},{"bike_id":"bc16ab81-7865-4753-89f0-e2f0eb9f9760","system_id":"levelo_inurba_marseille","lat":43.30095,"lon":5.39084,"is_reserved":false,"is_disabled":false,"rental_uris":{"android":"levelo://app?vid=bc16ab81-7865-4753-89f0-e2f0eb9f9760","ios":"levelo://app?vid=bc16ab81-7865-4753-89f0-e2f0eb9f9760"},"vehicle_type_id":"4","last_reported":1726913296,"current_range_meters":9600,"station_id":"ce4bh192rcd13ifvqdb0","pricing_plan_id":"cebpf4jnsgd1na2vs0mg"},{"bike_id":"09601266-ba20-4d7c-aee8-5f274849a67a","system_id":"levelo_inurba_marseille","lat":43.27204,"lon":5.39177,"is_reserved":false,"is_disabled":false,"rental_uris":{"android":"levelo://app?vid=09601266-ba20-4d7c-aee8-5f274849a67a","ios":"levelo://app?vid=09601266-ba20-4d7c-aee8-5f274849a67a"},"vehicle_type_id":"4","last_reported":1726913296,"current_range_meters":36400,"station_id":"ce4bhhp2rcd13ifvqfm0","pricing_plan_id":"cebpf4jnsgd1na2vs0mg"},{"bike_id":"a0bf7713-c0be-4861-9ca3-127524a31ea4","system_id":"levelo_inurba_marseille","lat":43.29005,"lon":5.35609,"is_reserved":false,"is_disabled":false,"rental_uris":{"android":"levelo://app?vid=a0bf7713-c0be-4861-9ca3-127524a31ea4","ios":"levelo://app?vid=a0bf7713-c0be-4861-9ca3-127524a31ea4"},"vehicle_type_id":"4","last_reported":1726913296,"current_range_meters":38800,"station_id":"ce4bhb92rcd13ifvqen0","pricing_plan_id":"cebpf4jnsgd1na2vs0mg"},{"bike_id":"4009cd1e-7e9a-41e3-9893-33e96cbf81aa","system_id":"levelo_inurba_marseille","lat":43.28269,"lon":5.35058,"is_reserved":false,"is_disabled":false,"rental_uris":{"android":"levelo://app?vid=4009cd1e-7e9a-41e3-9893-33e96cbf81aa","ios":"levelo://app?vid=4009cd1e-7e9a-41e3-9893-33e96cbf81aa"},"vehicle_type_id":"4","last_reported":1726913296,"current_range_meters":34000,"station_id":"ce4bhbp2rcd13ifvqerg","pricing_plan_id":"cebpf4jnsgd1na2vs0mg"},{"bike_id":"d2b588c8-5829-4544-9b55-c7dcae29a778","system_id":"levelo_inurba_marseille","lat":43.29366,"lon":5.37833,"is_reserved":false,"is_disabled":false,"rental_uris":{"android":"levelo://app?vid=d2b588c8-5829-4544-9b55-c7dcae29a778","ios":"levelo://app?vid=d2b588c8-5829-4544-9b55-c7dcae29a778"},"vehicle_type_id":"4","last_reported":1726913296,"current_range_meters":33600,"station_id":"ce4bgjh2rcd13ifvqbf0","pricing_plan_id":"cebpf4jnsgd1na2vs0mg"},{"bike_id":"72964c67-6aed-4707-911d-186df8a12b64","system_id":"levelo_inurba_marseille","lat":43.31687,"lon":5.40468,"is_reserved":false,"is_disabled":false,"rental_uris":{"android":"levelo://app?vid=72964c67-6aed-4707-911d-186df8a12b64","ios":"levelo://app?vid=72964c67-6aed-4707-911d-186df8a12b64"},"vehicle_type_id":"4","last_reported":1726913296,"current_range_meters":38800,"station_id":"ce4bh012rcd13ifvqd00","pricing_plan_id":"cebpf4jnsgd1na2vs0mg"},{"bike_id":"84c511e9-db56-4526-8d00-a5de248e1a83","system_id":"levelo_inurba_marseille","lat":43.23188,"lon":5.400062,"is_reserved":false,"is_disabled":false,"rental_uris":{"android":"levelo://app?vid=84c511e9-db56-4526-8d00-a5de248e1a83","ios":"levelo://app?vid=84c511e9-db56-4526-8d00-a5de248e1a83"},"vehicle_type_id":"4","last_reported":1726913296,"current_range_meters":38800,"station_id":"ce4bhn12rcd13ifvqgqg","pricing_plan_id":"cebpf4jnsgd1na2vs0mg"},{"bike_id":"b4d8cc2f-08fa-447c-98aa-3fb508700768","system_id":"levelo_inurba_marseille","lat":43.28946,"lon":5.35775,"is_reserved":false,"is_disabled":false,"rental_uris":{"android":"levelo://app?vid=b4d8cc2f-08fa-447c-98aa-3fb508700768","ios":"levelo://app?vid=b4d8cc2f-08fa-447c-98aa-3fb508700768"},"vehicle_type_id":"4","last_reported":1726913296,"current_range_meters":3600,"station_id":"","pricing_plan_id":"cebpf4jnsgd1na2vs0mg"},{"bike_id":"f21eab61-d138-4b2f-83ff-2d501b8fe47e","system_id":"levelo_inurba_marseille","lat":43.27491,"lon":5.42451,"is_reserved":false,"is_disabled":false,"rental_uris":{"android":"levelo://app?vid=f21eab61-d138-4b2f-83ff-2d501b8fe47e","ios":"levelo://app?vid=f21eab61-d138-4b2f-83ff-2d501b8fe47e"},"vehicle_type_id":"4","last_reported":1726913296,"current_range_meters":38800,"station_id":"ce4bhn92rcd13ifvqgrg","pricing_plan_id":"cebpf4jnsgd1na2vs0mg"},{"bike_id":"922d4b04-eec2-4ce5-ab91-75e6f5446751","system_id":"levelo_inurba_marseille","lat":43.29528,"lon":5.37489,"is_reserved":false,"is_disabled":false,"rental_uris":{"android":"levelo://app?vid=922d4b04-eec2-4ce5-ab91-75e6f5446751","ios":"levelo://app?vid=922d4b04-eec2-4ce5-ab91-75e6f5446751"},"vehicle_type_id":"4","last_reported":1726913296,"current_range_meters":24800,"station_id":"ce4bgkp2rcd13ifvqbmg","pricing_plan_id":"cebpf4jnsgd1na2vs0mg"},{"bike_id":"bd6456aa-7882-4ecb-b6d6-c1e08b9e8174","system_id":"levelo_inurba_marseille","lat":43.25582,"lon":5.38225,"is_reserved":false,"is_disabled":false,"rental_uris":{"android":"levelo://app?vid=bd6456aa-7882-4ecb-b6d6-c1e08b9e8174","ios":"levelo://app?vid=bd6456aa-7882-4ecb-b6d6-c1e08b9e8174"},"vehicle_type_id":"4","last_reported":1726913296,"current_range_meters":26800,"station_id":"ce4bhih2rcd13ifvqfs0","pricing_plan_id":"cebpf4jnsgd1na2vs0mg"},{"bike_id":"003c376a-8554-4a9a-b73f-27f06746c5ae","system_id":"levelo_inurba_marseille","lat":43.289703,"lon":5.367937,"is_reserved":false,"is_disabled":false,"rental_uris":{"android":"levelo://app?vid=003c376a-8554-4a9a-b73f-27f06746c5ae","ios":"levelo://app?vid=003c376a-8554-4a9a-b73f-27f06746c5ae"},"vehicle_type_id":"4","last_reported":1726913296,"current_range_meters":30400,"station_id":"ce4bhhh2rcd13ifvqfk0","pricing_plan_id":"cebpf4jnsgd1na2vs0mg"},{"bike_id":"bcd9d067-b093-4910-baae-4106d4c6d258","system_id":"levelo_inurba_marseille","lat":43.29223,"lon":5.36043,"is_reserved":false,"is_disabled":false,"rental_uris":{"android":"levelo://app?vid=bcd9d067-b093-4910-baae-4106d4c6d258","ios":"levelo://app?vid=bcd9d067-b093-4910-baae-4106d4c6d258"},"vehicle_type_id":"4","last_reported":1726913296,"current_range_meters":37600,"station_id":"ce4bhbh2rcd13ifvqeqg","pricing_plan_id":"cebpf4jnsgd1na2vs0mg"},{"bike_id":"ae736cb6-c25f-4200-a574-819f5c7f8fb4","system_id":"levelo_inurba_marseille","lat":43.24163,"lon":5.36395,"is_reserved":false,"is_disabled":false,"rental_uris":{"android":"levelo://app?vid=ae736cb6-c25f-4200-a574-819f5c7f8fb4","ios":"levelo://app?vid=ae736cb6-c25f-4200-a574-819f5c7f8fb4"},"vehicle_type_id":"4","last_reported":1726913296,"current_range_meters":28400,"station_id":"cpo36qri1sfpv3e86is0","pricing_plan_id":"cebpf4jnsgd1na2vs0mg"},{"bike_id":"bf03865e-9944-4f40-bf02-6028a7d0a9c4","system_id":"levelo_inurba_marseille","lat":43.292786,"lon":5.368472,"is_reserved":false,"is_disabled":false,"rental_uris":{"android":"levelo://app?vid=bf03865e-9944-4f40-bf02-6028a7d0a9c4","ios":"levelo://app?vid=bf03865e-9944-4f40-bf02-6028a7d0a9c4"},"vehicle_type_id":"4","last_reported":1726913296,"current_range_meters":27200,"station_id":"ce4bhbp2rcd13ifvqerg","pricing_plan_id":"cebpf4jnsgd1na2vs0mg"},{"bike_id":"9f56994b-76f1-4838-95b8-69b8e86f146f","system_id":"levelo_inurba_marseille","lat":43.28719,"lon":5.37943,"is_reserved":false,"is_disabled":false,"rental_uris":{"android":"levelo://app?vid=9f56994b-76f1-4838-95b8-69b8e86f146f","ios":"levelo://app?vid=9f56994b-76f1-4838-95b8-69b8e86f146f"},"vehicle_type_id":"4","last_reported":1726913296,"current_range_meters":37600,"station_id":"ce4bh9p2rcd13ifvqec0","pricing_plan_id":"cebpf4jnsgd1na2vs0mg"},{"bike_id":"f7ad2e7a-a575-4361-994a-0ff95a85d018","system_id":"levelo_inurba_marseille","lat":43.30651,"lon":5.37174,"is_reserved":false,"is_disabled":false,"rental_uris":{"android":"levelo://app?vid=f7ad2e7a-a575-4361-994a-0ff95a85d018","ios":"levelo://app?vid=f7ad2e7a-a575-4361-994a-0ff95a85d018"},"vehicle_type_id":"4","last_reported":1726913296,"current_range_meters":38800,"station_id":"","pricing_plan_id":"cebpf4jnsgd1na2vs0mg"},{"bike_id":"198cd00d-14db-4eb9-b87e-6248e2745627","system_id":"levelo_inurba_marseille","lat":43.30314,"lon":5.4044,"is_reserved":false,"is_disabled":false,"rental_uris":{"android":"levelo://app?vid=198cd00d-14db-4eb9-b87e-6248e2745627","ios":"levelo://app?vid=198cd00d-14db-4eb9-b87e-6248e2745627"},"vehicle_type_id":"4","last_reported":1726913296,"current_range_meters":27600,"station_id":"ce4bh012rcd13ifvqd10","pricing_plan_id":"cebpf4jnsgd1na2vs0mg"},{"bike_id":"b7537425-57a5-4e22-ac16-99e8f298a453","system_id":"levelo_inurba_marseille","lat":43.26496,"lon":5.39538,"is_reserved":false,"is_disabled":false,"rental_uris":{"android":"levelo://app?vid=b7537425-57a5-4e22-ac16-99e8f298a453","ios":"levelo://app?vid=b7537425-57a5-4e22-ac16-99e8f298a453"},"vehicle_type_id":"4","last_reported":1726913296,"current_range_meters":11600,"station_id":"ce4bhi12rcd13ifvqfq0","pricing_plan_id":"cebpf4jnsgd1na2vs0mg"},{"bike_id":"c839c5b6-c700-4148-9427-6f6c3691baa7","system_id":"levelo_inurba_marseille","lat":43.23966,"lon":5.36636,"is_reserved":false,"is_disabled":false,"rental_uris":{"android":"levelo://app?vid=c839c5b6-c700-4148-9427-6f6c3691baa7","ios":"levelo://app?vid=c839c5b6-c700-4148-9427-6f6c3691baa7"},"vehicle_type_id":"4","last_reported":1726913296,"current_range_meters":26800,"station_id":"ce4bhi12rcd13ifvqfp0","pricing_plan_id":"cebpf4jnsgd1na2vs0mg"},{"bike_id":"f3e78405-1905-4ba6-aa45-d361d02b6629","system_id":"levelo_inurba_marseille","lat":43.29847,"lon":5.36275,"is_reserved":false,"is_disabled":false,"rental_uris":{"android":"levelo://app?vid=f3e78405-1905-4ba6-aa45-d361d02b6629","ios":"levelo://app?vid=f3e78405-1905-4ba6-aa45-d361d02b6629"},"vehicle_type_id":"4","last_reported":1726913296,"current_range_meters":16400,"station_id":"ce4bgpp2rcd13ifvqc3g","pricing_plan_id":"cebpf4jnsgd1na2vs0mg"},{"bike_id":"5840a821-7b4a-4179-8856-92a74917e83c","system_id":"levelo_inurba_marseille","lat":43.25005,"lon":5.38922,"is_reserved":false,"is_disabled":false,"rental_uris":{"android":"levelo://app?vid=5840a821-7b4a-4179-8856-92a74917e83c","ios":"levelo://app?vid=5840a821-7b4a-4179-8856-92a74917e83c"},"vehicle_type_id":"4","last_reported":1726913296,"current_range_meters":38800,"station_id":"ce4bhgp2rcd13ifvqfd0","pricing_plan_id":"cebpf4jnsgd1na2vs0mg"},{"bike_id":"5419b1bf-d37c-4076-a34c-52ede101758e","system_id":"levelo_inurba_marseille","lat":43.337444,"lon":5.374475,"is_reserved":false,"is_disabled":false,"rental_uris":{"android":"levelo://app?vid=5419b1bf-d37c-4076-a34c-52ede101758e","ios":"levelo://app?vid=5419b1bf-d37c-4076-a34c-52ede101758e"},"vehicle_type_id":"4","last_reported":1726913296,"current_range_meters":33200,"station_id":"","pricing_plan_id":"cebpf4jnsgd1na2vs0mg"},{"bike_id":"cb5384c9-23cd-4dcf-b2ac-11dddc62f23a","system_id":"levelo_inurba_marseille","lat":43.320007,"lon":5.381581,"is_reserved":false,"is_disabled":false,"rental_uris":{"android":"levelo://app?vid=cb5384c9-23cd-4dcf-b2ac-11dddc62f23a","ios":"levelo://app?vid=cb5384c9-23cd-4dcf-b2ac-11dddc62f23a"},"vehicle_type_id":"4","last_reported":1726913296,"current_range_meters":22400,"station_id":"ce4bhr12rcd13ifvqhpg","pricing_plan_id":"cebpf4jnsgd1na2vs0mg"},{"bike_id":"55677341-2cba-41a2-861f-7b165b732782","system_id":"levelo_inurba_marseille","lat":43.29232,"lon":5.36061,"is_reserved":false,"is_disabled":false,"rental_uris":{"android":"levelo://app?vid=55677341-2cba-41a2-861f-7b165b732782","ios":"levelo://app?vid=55677341-2cba-41a2-861f-7b165b732782"},"vehicle_type_id":"4","last_reported":1726913296,"current_range_meters":38000,"station_id":"ce4bhbh2rcd13ifvqeqg","pricing_plan_id":"cebpf4jnsgd1na2vs0mg"},{"bike_id":"4eef0d21-d850-40fa-a5d8-1d28e2cbd99e","system_id":"levelo_inurba_marseille","lat":43.23962,"lon":5.36635,"is_reserved":false,"is_disabled":false,"rental_uris":{"android":"levelo://app?vid=4eef0d21-d850-40fa-a5d8-1d28e2cbd99e","ios":"levelo://app?vid=4eef0d21-d850-40fa-a5d8-1d28e2cbd99e"},"vehicle_type_id":"4","last_reported":1726913296,"current_range_meters":33200,"station_id":"ce4bhi12rcd13ifvqfp0","pricing_plan_id":"cebpf4jnsgd1na2vs0mg"},{"bike_id":"f55d82a5-a2f1-4a59-a6a0-790c179f4953","system_id":"levelo_inurba_marseille","lat":43.29903,"lon":5.43667,"is_reserved":false,"is_disabled":false,"rental_uris":{"android":"levelo://app?vid=f55d82a5-a2f1-4a59-a6a0-790c179f4953","ios":"levelo://app?vid=f55d82a5-a2f1-4a59-a6a0-790c179f4953"},"vehicle_type_id":"4","last_reported":1726913296,"current_range_meters":38800,"station_id":"ce4bhpp2rcd13ifvqhfg","pricing_plan_id":"cebpf4jnsgd1na2vs0mg"},{"bike_id":"a020a923-89fb-4175-829b-bdb01d885f9c","system_id":"levelo_inurba_marseille","lat":43.23061,"lon":5.355,"is_reserved":false,"is_disabled":false,"rental_uris":{"android":"levelo://app?vid=a020a923-89fb-4175-829b-bdb01d885f9c","ios":"levelo://app?vid=a020a923-89fb-4175-829b-bdb01d885f9c"},"vehicle_type_id":"4","last_reported":1726913296,"current_range_meters":30000,"station_id":"cpo3342slgdg3j2ifvpg","pricing_plan_id":"cebpf4jnsgd1na2vs0mg"},{"bike_id":"15f16624-6ca4-47e3-a3c7-1d86aaee09eb","system_id":"levelo_inurba_marseille","lat":43.29576,"lon":5.37503,"is_reserved":false,"is_disabled":false,"rental_uris":{"android":"levelo://app?vid=15f16624-6ca4-47e3-a3c7-1d86aaee09eb","ios":"levelo://app?vid=15f16624-6ca4-47e3-a3c7-1d86aaee09eb"},"vehicle_type_id":"4","last_reported":1726913296,"current_range_meters":24400,"station_id":"ce4bgh92rcd13ifvqb50","pricing_plan_id":"cebpf4jnsgd1na2vs0mg"},{"bike_id":"f07c738f-64b7-4b12-9acd-387f3c4d2596","system_id":"levelo_inurba_marseille","lat":43.27207,"lon":5.39172,"is_reserved":false,"is_disabled":false,"rental_uris":{"android":"levelo://app?vid=f07c738f-64b7-4b12-9acd-387f3c4d2596","ios":"levelo://app?vid=f07c738f-64b7-4b12-9acd-387f3c4d2596"},"vehicle_type_id":"4","last_reported":1726913296,"current_range_meters":38800,"station_id":"ce4bhhp2rcd13ifvqfm0","pricing_plan_id":"cebpf4jnsgd1na2vs0mg"},{"bike_id":"6e2fd8fb-799c-468d-a60b-38d2bf81aa37","system_id":"levelo_inurba_marseille","lat":43.23958,"lon":5.36626,"is_reserved":false,"is_disabled":false,"rental_uris":{"android":"levelo://app?vid=6e2fd8fb-799c-468d-a60b-38d2bf81aa37","ios":"levelo://app?vid=6e2fd8fb-799c-468d-a60b-38d2bf81aa37"},"vehicle_type_id":"4","last_reported":1726913296,"current_range_meters":3200,"station_id":"ce4bhi12rcd13ifvqfp0","pricing_plan_id":"cebpf4jnsgd1na2vs0mg"},{"bike_id":"290b330c-be48-4359-a89e-55885bc6b05e","system_id":"levelo_inurba_marseille","lat":43.29968,"lon":5.38496,"is_reserved":false,"is_disabled":false,"rental_uris":{"android":"levelo://app?vid=290b330c-be48-4359-a89e-55885bc6b05e","ios":"levelo://app?vid=290b330c-be48-4359-a89e-55885bc6b05e"},"vehicle_type_id":"4","last_reported":1726913296,"current_range_meters":30000,"station_id":"ce4bgj92rcd13ifvqbd0","pricing_plan_id":"cebpf4jnsgd1na2vs0mg"},{"bike_id":"4b0af6ee-b3d5-4880-8111-7153e2e1e1e8","system_id":"levelo_inurba_marseille","lat":43.24166,"lon":5.36391,"is_reserved":false,"is_disabled":false,"rental_uris":{"android":"levelo://app?vid=4b0af6ee-b3d5-4880-8111-7153e2e1e1e8","ios":"levelo://app?vid=4b0af6ee-b3d5-4880-8111-7153e2e1e1e8"},"vehicle_type_id":"4","last_reported":1726913296,"current_range_meters":13600,"station_id":"cpo36qri1sfpv3e86is0","pricing_plan_id":"cebpf4jnsgd1na2vs0mg"},{"bike_id":"7ccc499f-63f1-4a72-b7c8-4b3b2437d268","system_id":"levelo_inurba_marseille","lat":43.25005,"lon":5.38912,"is_reserved":false,"is_disabled":false,"rental_uris":{"android":"levelo://app?vid=7ccc499f-63f1-4a72-b7c8-4b3b2437d268","ios":"levelo://app?vid=7ccc499f-63f1-4a72-b7c8-4b3b2437d268"},"vehicle_type_id":"4","last_reported":1726913296,"current_range_meters":28400,"station_id":"ce4bhgp2rcd13ifvqfd0","pricing_plan_id":"cebpf4jnsgd1na2vs0mg"},{"bike_id":"5f808f3a-c956-4f6f-9453-bb3cddf3b6d1","system_id":"levelo_inurba_marseille","lat":43.25504,"lon":5.37648,"is_reserved":false,"is_disabled":false,"rental_uris":{"android":"levelo://app?vid=5f808f3a-c956-4f6f-9453-bb3cddf3b6d1","ios":"levelo://app?vid=5f808f3a-c956-4f6f-9453-bb3cddf3b6d1"},"vehicle_type_id":"4","last_reported":1726913296,"current_range_meters":36800,"station_id":"ce4bhh12rcd13ifvqff0","pricing_plan_id":"cebpf4jnsgd1na2vs0mg"},{"bike_id":"2d4c5d95-ea92-45b3-9d59-2caa88986228","system_id":"levelo_inurba_marseille","lat":43.2558,"lon":5.38238,"is_reserved":false,"is_disabled":false,"rental_uris":{"android":"levelo://app?vid=2d4c5d95-ea92-45b3-9d59-2caa88986228","ios":"levelo://app?vid=2d4c5d95-ea92-45b3-9d59-2caa88986228"},"vehicle_type_id":"4","last_reported":1726913296,"current_range_meters":6000,"station_id":"ce4bhih2rcd13ifvqfs0","pricing_plan_id":"cebpf4jnsgd1na2vs0mg"},{"bike_id":"79481e02-a9d5-4445-a123-35ef5e0afab9","system_id":"levelo_inurba_marseille","lat":43.29199,"lon":5.35787,"is_reserved":false,"is_disabled":false,"rental_uris":{"android":"levelo://app?vid=79481e02-a9d5-4445-a123-35ef5e0afab9","ios":"levelo://app?vid=79481e02-a9d5-4445-a123-35ef5e0afab9"},"vehicle_type_id":"4","last_reported":1726913296,"current_range_meters":20000,"station_id":"ce4bhb12rcd13ifvqel0","pricing_plan_id":"cebpf4jnsgd1na2vs0mg"},{"bike_id":"2b9037e6-c457-49bd-96ba-d4428882aa58","system_id":"levelo_inurba_marseille","lat":43.26483,"lon":5.39552,"is_reserved":false,"is_disabled":false,"rental_uris":{"android":"levelo://app?vid=2b9037e6-c457-49bd-96ba-d4428882aa58","ios":"levelo://app?vid=2b9037e6-c457-49bd-96ba-d4428882aa58"},"vehicle_type_id":"4","last_reported":1726913296,"current_range_meters":38400,"station_id":"ce4bhi12rcd13ifvqfq0","pricing_plan_id":"cebpf4jnsgd1na2vs0mg"},{"bike_id":"0f92c228-1d56-41c6-a3b0-d47dfed2b29a","system_id":"levelo_inurba_marseille","lat":43.304564,"lon":5.379049,"is_reserved":false,"is_disabled":false,"rental_uris":{"android":"levelo://app?vid=0f92c228-1d56-41c6-a3b0-d47dfed2b29a","ios":"levelo://app?vid=0f92c228-1d56-41c6-a3b0-d47dfed2b29a"},"vehicle_type_id":"4","last_reported":1726913296,"current_range_meters":32000,"station_id":"ce4bgup2rcd13ifvqcn0","pricing_plan_id":"cebpf4jnsgd1na2vs0mg"},{"bike_id":"4a306c60-40f3-4887-a187-1d4fc3499dee","system_id":"levelo_inurba_marseille","lat":43.29973,"lon":5.37167,"is_reserved":false,"is_disabled":false,"rental_uris":{"android":"levelo://app?vid=4a306c60-40f3-4887-a187-1d4fc3499dee","ios":"levelo://app?vid=4a306c60-40f3-4887-a187-1d4fc3499dee"},"vehicle_type_id":"4","last_reported":1726913296,"current_range_meters":8400,"station_id":"ce4bgr92rcd13ifvqc7g","pricing_plan_id":"cebpf4jnsgd1na2vs0mg"},{"bike_id":"424159ba-da7e-4343-88a9-6e6d2b65e1be","system_id":"levelo_inurba_marseille","lat":43.23194,"lon":5.3555,"is_reserved":false,"is_disabled":false,"rental_uris":{"android":"levelo://app?vid=424159ba-da7e-4343-88a9-6e6d2b65e1be","ios":"levelo://app?vid=424159ba-da7e-4343-88a9-6e6d2b65e1be"},"vehicle_type_id":"4","last_reported":1726913296,"current_range_meters":30000,"station_id":"ce4bhu92rcd13ifvqi70","pricing_plan_id":"cebpf4jnsgd1na2vs0mg"},{"bike_id":"df9b1c9e-0ed6-4804-941c-22e2aebb94dd","system_id":"levelo_inurba_marseille","lat":43.23153,"lon":5.43713,"is_reserved":false,"is_disabled":false,"rental_uris":{"android":"levelo://app?vid=df9b1c9e-0ed6-4804-941c-22e2aebb94dd","ios":"levelo://app?vid=df9b1c9e-0ed6-4804-941c-22e2aebb94dd"},"vehicle_type_id":"4","last_reported":1726913296,"current_range_meters":38800,"station_id":"ce4bhmp2rcd13ifvqgog","pricing_plan_id":"cebpf4jnsgd1na2vs0mg"},{"bike_id":"546ee6bf-55f8-4946-bcee-e7096c9be4b7","system_id":"levelo_inurba_marseille","lat":43.24395,"lon":5.3706,"is_reserved":false,"is_disabled":false,"rental_uris":{"android":"levelo://app?vid=546ee6bf-55f8-4946-bcee-e7096c9be4b7","ios":"levelo://app?vid=546ee6bf-55f8-4946-bcee-e7096c9be4b7"},"vehicle_type_id":"4","last_reported":1726913296,"current_range_meters":26000,"station_id":"ce4bhhh2rcd13ifvqfk0","pricing_plan_id":"cebpf4jnsgd1na2vs0mg"},{"bike_id":"cba8a330-891d-444d-b9fe-e8cc71fc2983","system_id":"levelo_inurba_marseille","lat":43.29617,"lon":5.37717,"is_reserved":false,"is_disabled":false,"rental_uris":{"android":"levelo://app?vid=cba8a330-891d-444d-b9fe-e8cc71fc2983","ios":"levelo://app?vid=cba8a330-891d-444d-b9fe-e8cc71fc2983"},"vehicle_type_id":"4","last_reported":1726913296,"current_range_meters":39200,"station_id":"ce4bgi92rcd13ifvqb90","pricing_plan_id":"cebpf4jnsgd1na2vs0mg"},{"bike_id":"cfadb427-980c-46ba-be8a-a8bbe831a630","system_id":"levelo_inurba_marseille","lat":43.31114,"lon":5.37763,"is_reserved":false,"is_disabled":false,"rental_uris":{"android":"levelo://app?vid=cfadb427-980c-46ba-be8a-a8bbe831a630","ios":"levelo://app?vid=cfadb427-980c-46ba-be8a-a8bbe831a630"},"vehicle_type_id":"4","last_reported":1726913296,"current_range_meters":12000,"station_id":"ce4bgt92rcd13ifvqcg0","pricing_plan_id":"cebpf4jnsgd1na2vs0mg"},{"bike_id":"00fbeddf-6943-440a-9f7b-e6ebf152626c","system_id":"levelo_inurba_marseille","lat":43.290131,"lon":5.356204,"is_reserved":false,"is_disabled":false,"rental_uris":{"android":"levelo://app?vid=00fbeddf-6943-440a-9f7b-e6ebf152626c","ios":"levelo://app?vid=00fbeddf-6943-440a-9f7b-e6ebf152626c"},"vehicle_type_id":"4","last_reported":1726913296,"current_range_meters":8400,"station_id":"ce4bhb92rcd13ifvqen0","pricing_plan_id":"cebpf4jnsgd1na2vs0mg"},{"bike_id":"8d17f971-4c25-46ce-b6e5-16eb62ff7f7e","system_id":"levelo_inurba_marseille","lat":43.26191,"lon":5.3745,"is_reserved":false,"is_disabled":false,"rental_uris":{"android":"levelo://app?vid=8d17f971-4c25-46ce-b6e5-16eb62ff7f7e","ios":"levelo://app?vid=8d17f971-4c25-46ce-b6e5-16eb62ff7f7e"},"vehicle_type_id":"4","last_reported":1726913296,"current_range_meters":29600,"station_id":"ce4bhgp2rcd13ifvqfc0","pricing_plan_id":"cebpf4jnsgd1na2vs0mg"},{"bike_id":"70a2b385-d60a-44c2-8a4a-812d2772602d","system_id":"levelo_inurba_marseille","lat":43.29693,"lon":5.37692,"is_reserved":false,"is_disabled":false,"rental_uris":{"android":"levelo://app?vid=70a2b385-d60a-44c2-8a4a-812d2772602d","ios":"levelo://app?vid=70a2b385-d60a-44c2-8a4a-812d2772602d"},"vehicle_type_id":"4","last_reported":1726913296,"current_range_meters":23200,"station_id":"ce4bgkh2rcd13ifvqbl0","pricing_plan_id":"cebpf4jnsgd1na2vs0mg"},{"bike_id":"604c9531-be4f-4974-bfe2-bd7828d7386f","system_id":"levelo_inurba_marseille","lat":43.299,"lon":5.43674,"is_reserved":false,"is_disabled":false,"rental_uris":{"android":"levelo://app?vid=604c9531-be4f-4974-bfe2-bd7828d7386f","ios":"levelo://app?vid=604c9531-be4f-4974-bfe2-bd7828d7386f"},"vehicle_type_id":"4","last_reported":1726913296,"current_range_meters":24400,"station_id":"ce4bhpp2rcd13ifvqhfg","pricing_plan_id":"cebpf4jnsgd1na2vs0mg"},{"bike_id":"1993e36b-17a0-434b-937b-dbd067b2b5d6","system_id":"levelo_inurba_marseille","lat":43.29788,"lon":5.40399,"is_reserved":false,"is_disabled":false,"rental_uris":{"android":"levelo://app?vid=1993e36b-17a0-434b-937b-dbd067b2b5d6","ios":"levelo://app?vid=1993e36b-17a0-434b-937b-dbd067b2b5d6"},"vehicle_type_id":"4","last_reported":1726913296,"current_range_meters":38000,"station_id":"ce4bh112rcd13ifvqd90","pricing_plan_id":"cebpf4jnsgd1na2vs0mg"},{"bike_id":"217ef1e6-255c-4998-83d2-821ac1a80098","system_id":"levelo_inurba_marseille","lat":43.27206,"lon":5.39182,"is_reserved":false,"is_disabled":false,"rental_uris":{"android":"levelo://app?vid=217ef1e6-255c-4998-83d2-821ac1a80098","ios":"levelo://app?vid=217ef1e6-255c-4998-83d2-821ac1a80098"},"vehicle_type_id":"4","last_reported":1726913296,"current_range_meters":4800,"station_id":"ce4bhhp2rcd13ifvqfm0","pricing_plan_id":"cebpf4jnsgd1na2vs0mg"},{"bike_id":"2e67cc2a-1431-430c-8b6a-4f41d8b713c8","system_id":"levelo_inurba_marseille","lat":43.30321,"lon":5.40427,"is_reserved":false,"is_disabled":false,"rental_uris":{"android":"levelo://app?vid=2e67cc2a-1431-430c-8b6a-4f41d8b713c8","ios":"levelo://app?vid=2e67cc2a-1431-430c-8b6a-4f41d8b713c8"},"vehicle_type_id":"4","last_reported":1726913296,"current_range_meters":19200,"station_id":"ce4bh012rcd13ifvqd10","pricing_plan_id":"cebpf4jnsgd1na2vs0mg"},{"bike_id":"e3c7bd1a-9ccc-4b4e-8e4a-2ca600ee7f59","system_id":"levelo_inurba_marseille","lat":43.25506,"lon":5.3766,"is_reserved":false,"is_disabled":false,"rental_uris":{"android":"levelo://app?vid=e3c7bd1a-9ccc-4b4e-8e4a-2ca600ee7f59","ios":"levelo://app?vid=e3c7bd1a-9ccc-4b4e-8e4a-2ca600ee7f59"},"vehicle_type_id":"4","last_reported":1726913296,"current_range_meters":8000,"station_id":"ce4bhh12rcd13ifvqff0","pricing_plan_id":"cebpf4jnsgd1na2vs0mg"},{"bike_id":"50a407c1-22a7-475d-b040-e06e3d3dd289","system_id":"levelo_inurba_marseille","lat":43.29523,"lon":5.37517,"is_reserved":false,"is_disabled":false,"rental_uris":{"android":"levelo://app?vid=50a407c1-22a7-475d-b040-e06e3d3dd289","ios":"levelo://app?vid=50a407c1-22a7-475d-b040-e06e3d3dd289"},"vehicle_type_id":"4","last_reported":1726913296,"current_range_meters":35200,"station_id":"ce4bgkp2rcd13ifvqbmg","pricing_plan_id":"cebpf4jnsgd1na2vs0mg"},{"bike_id":"b13c9b69-792f-487e-b1c5-aa9f7b2895f4","system_id":"levelo_inurba_marseille","lat":43.30196,"lon":5.39477,"is_reserved":false,"is_disabled":false,"rental_uris":{"android":"levelo://app?vid=b13c9b69-792f-487e-b1c5-aa9f7b2895f4","ios":"levelo://app?vid=b13c9b69-792f-487e-b1c5-aa9f7b2895f4"},"vehicle_type_id":"4","last_reported":1726913296,"current_range_meters":24800,"station_id":"ce4bh0p2rcd13ifvqd70","pricing_plan_id":"cebpf4jnsgd1na2vs0mg"},{"bike_id":"ac564f13-f878-4b5f-800b-25c0372c116e","system_id":"levelo_inurba_marseille","lat":43.2997,"lon":5.36954,"is_reserved":false,"is_disabled":false,"rental_uris":{"android":"levelo://app?vid=ac564f13-f878-4b5f-800b-25c0372c116e","ios":"levelo://app?vid=ac564f13-f878-4b5f-800b-25c0372c116e"},"vehicle_type_id":"4","last_reported":1726913296,"current_range_meters":2000,"station_id":"","pricing_plan_id":"cebpf4jnsgd1na2vs0mg"},{"bike_id":"64909d06-027c-4d8b-bffb-537fa2581c2e","system_id":"levelo_inurba_marseille","lat":43.29976,"lon":5.38489,"is_reserved":false,"is_disabled":false,"rental_uris":{"android":"levelo://app?vid=64909d06-027c-4d8b-bffb-537fa2581c2e","ios":"levelo://app?vid=64909d06-027c-4d8b-bffb-537fa2581c2e"},"vehicle_type_id":"4","last_reported":1726913296,"current_range_meters":37600,"station_id":"ce4bgj92rcd13ifvqbd0","pricing_plan_id":"cebpf4jnsgd1na2vs0mg"},{"bike_id":"68ea613c-c666-4aa8-9c36-461697760489","system_id":"levelo_inurba_marseille","lat":43.29615,"lon":5.37729,"is_reserved":false,"is_disabled":false,"rental_uris":{"android":"levelo://app?vid=68ea613c-c666-4aa8-9c36-461697760489","ios":"levelo://app?vid=68ea613c-c666-4aa8-9c36-461697760489"},"vehicle_type_id":"4","last_reported":1726913296,"current_range_meters":25600,"station_id":"ce4bgi92rcd13ifvqb90","pricing_plan_id":"cebpf4jnsgd1na2vs0mg"},{"bike_id":"ffd20921-d851-4742-9678-52c786254775","system_id":"levelo_inurba_marseille","lat":43.262,"lon":5.37924,"is_reserved":false,"is_disabled":false,"rental_uris":{"android":"levelo://app?vid=ffd20921-d851-4742-9678-52c786254775","ios":"levelo://app?vid=ffd20921-d851-4742-9678-52c786254775"},"vehicle_type_id":"4","last_reported":1726913296,"current_range_meters":29600,"station_id":"ce4bhjp2rcd13ifvqg90","pricing_plan_id":"cebpf4jnsgd1na2vs0mg"},{"bike_id":"542e2c69-6cd2-413d-9cfd-2c5f9a60a140","system_id":"levelo_inurba_marseille","lat":43.24076,"lon":5.37756,"is_reserved":false,"is_disabled":false,"rental_uris":{"android":"levelo://app?vid=542e2c69-6cd2-413d-9cfd-2c5f9a60a140","ios":"levelo://app?vid=542e2c69-6cd2-413d-9cfd-2c5f9a60a140"},"vehicle_type_id":"4","last_reported":1726913296,"current_range_meters":8400,"station_id":"ce4bhnp2rcd13ifvqgvg","pricing_plan_id":"cebpf4jnsgd1na2vs0mg"},{"bike_id":"b7ff0e8b-4fe5-463a-936d-31cfb5c62a13","system_id":"levelo_inurba_marseille","lat":43.29957,"lon":5.41318,"is_reserved":false,"is_disabled":false,"rental_uris":{"android":"levelo://app?vid=b7ff0e8b-4fe5-463a-936d-31cfb5c62a13","ios":"levelo://app?vid=b7ff0e8b-4fe5-463a-936d-31cfb5c62a13"},"vehicle_type_id":"4","last_reported":1726913296,"current_range_meters":38800,"station_id":"ce4bhp12rcd13ifvqh9g","pricing_plan_id":"cebpf4jnsgd1na2vs0mg"},{"bike_id":"ed6a2d27-decb-4217-98ed-2534b8c0e601","system_id":"levelo_inurba_marseille","lat":43.23181,"lon":5.39995,"is_reserved":false,"is_disabled":false,"rental_uris":{"android":"levelo://app?vid=ed6a2d27-decb-4217-98ed-2534b8c0e601","ios":"levelo://app?vid=ed6a2d27-decb-4217-98ed-2534b8c0e601"},"vehicle_type_id":"4","last_reported":1726913296,"current_range_meters":37600,"station_id":"ce4bhn12rcd13ifvqgqg","pricing_plan_id":"cebpf4jnsgd1na2vs0mg"},{"bike_id":"8273c267-5219-4186-8f32-c3e55203a7ac","system_id":"levelo_inurba_marseille","lat":43.23964,"lon":5.39703,"is_reserved":false,"is_disabled":false,"rental_uris":{"android":"levelo://app?vid=8273c267-5219-4186-8f32-c3e55203a7ac","ios":"levelo://app?vid=8273c267-5219-4186-8f32-c3e55203a7ac"},"vehicle_type_id":"4","last_reported":1726913296,"current_range_meters":5600,"station_id":"","pricing_plan_id":"cebpf4jnsgd1na2vs0mg"},{"bike_id":"9c92648a-f006-4167-bb4c-b3ce8835b4ad","system_id":"levelo_inurba_marseille","lat":43.31713,"lon":5.43706,"is_reserved":false,"is_disabled":false,"rental_uris":{"android":"levelo://app?vid=9c92648a-f006-4167-bb4c-b3ce8835b4ad","ios":"levelo://app?vid=9c92648a-f006-4167-bb4c-b3ce8835b4ad"},"vehicle_type_id":"4","last_reported":1726913296,"current_range_meters":38400,"station_id":"ce4bhp92rcd13ifvqhcg","pricing_plan_id":"cebpf4jnsgd1na2vs0mg"},{"bike_id":"0758898b-c621-4049-b058-e9cd0ceaa979","system_id":"levelo_inurba_marseille","lat":43.30466,"lon":5.37896,"is_reserved":false,"is_disabled":false,"rental_uris":{"android":"levelo://app?vid=0758898b-c621-4049-b058-e9cd0ceaa979","ios":"levelo://app?vid=0758898b-c621-4049-b058-e9cd0ceaa979"},"vehicle_type_id":"4","last_reported":1726913296,"current_range_meters":34000,"station_id":"ce4bgup2rcd13ifvqcn0","pricing_plan_id":"cebpf4jnsgd1na2vs0mg"},{"bike_id":"fe61791c-21d9-4b25-a0b8-c74c8e3b9350","system_id":"levelo_inurba_marseille","lat":43.22933,"lon":5.35377,"is_reserved":false,"is_disabled":false,"rental_uris":{"android":"levelo://app?vid=fe61791c-21d9-4b25-a0b8-c74c8e3b9350","ios":"levelo://app?vid=fe61791c-21d9-4b25-a0b8-c74c8e3b9350"},"vehicle_type_id":"4","last_reported":1726913296,"current_range_meters":30000,"station_id":"cpo3532slgdg3j2ikp40","pricing_plan_id":"cebpf4jnsgd1na2vs0mg"},{"bike_id":"3a4450a5-b95b-41c3-8e39-a50e9fc0174e","system_id":"levelo_inurba_marseille","lat":43.26192,"lon":5.37446,"is_reserved":false,"is_disabled":false,"rental_uris":{"android":"levelo://app?vid=3a4450a5-b95b-41c3-8e39-a50e9fc0174e","ios":"levelo://app?vid=3a4450a5-b95b-41c3-8e39-a50e9fc0174e"},"vehicle_type_id":"4","last_reported":1726913296,"current_range_meters":36400,"station_id":"ce4bhgp2rcd13ifvqfc0","pricing_plan_id":"cebpf4jnsgd1na2vs0mg"},{"bike_id":"d092ea46-5081-444c-9ab4-9000c6f4b483","system_id":"levelo_inurba_marseille","lat":43.29854,"lon":5.36272,"is_reserved":false,"is_disabled":false,"rental_uris":{"android":"levelo://app?vid=d092ea46-5081-444c-9ab4-9000c6f4b483","ios":"levelo://app?vid=d092ea46-5081-444c-9ab4-9000c6f4b483"},"vehicle_type_id":"4","last_reported":1726913296,"current_range_meters":38800,"station_id":"ce4bgpp2rcd13ifvqc3g","pricing_plan_id":"cebpf4jnsgd1na2vs0mg"},{"bike_id":"42fac7e5-89b5-43a0-86e0-6d691ed14493","system_id":"levelo_inurba_marseille","lat":43.31276,"lon":5.40173,"is_reserved":false,"is_disabled":false,"rental_uris":{"android":"levelo://app?vid=42fac7e5-89b5-43a0-86e0-6d691ed14493","ios":"levelo://app?vid=42fac7e5-89b5-43a0-86e0-6d691ed14493"},"vehicle_type_id":"4","last_reported":1726913296,"current_range_meters":26800,"station_id":"ce4bh092rcd13ifvqd30","pricing_plan_id":"cebpf4jnsgd1na2vs0mg"},{"bike_id":"5c3ab3ff-b3a8-4b03-ac72-d1c8a4f76c80","system_id":"levelo_inurba_marseille","lat":43.29231,"lon":5.36058,"is_reserved":false,"is_disabled":false,"rental_uris":{"android":"levelo://app?vid=5c3ab3ff-b3a8-4b03-ac72-d1c8a4f76c80","ios":"levelo://app?vid=5c3ab3ff-b3a8-4b03-ac72-d1c8a4f76c80"},"vehicle_type_id":"4","last_reported":1726913296,"current_range_meters":35200,"station_id":"ce4bhbh2rcd13ifvqeqg","pricing_plan_id":"cebpf4jnsgd1na2vs0mg"},{"bike_id":"67a286b4-5960-4f70-aa41-bd4b769b4151","system_id":"levelo_inurba_marseille","lat":43.28476,"lon":5.384167,"is_reserved":false,"is_disabled":false,"rental_uris":{"android":"levelo://app?vid=67a286b4-5960-4f70-aa41-bd4b769b4151","ios":"levelo://app?vid=67a286b4-5960-4f70-aa41-bd4b769b4151"},"vehicle_type_id":"4","last_reported":1726913296,"current_range_meters":32000,"station_id":"ce4bh512rcd13ifvqe3g","pricing_plan_id":"cebpf4jnsgd1na2vs0mg"},{"bike_id":"7db34aab-bb83-4943-a5a0-93955f52a4ec","system_id":"levelo_inurba_marseille","lat":43.33718,"lon":5.39173,"is_reserved":false,"is_disabled":false,"rental_uris":{"android":"levelo://app?vid=7db34aab-bb83-4943-a5a0-93955f52a4ec","ios":"levelo://app?vid=7db34aab-bb83-4943-a5a0-93955f52a4ec"},"vehicle_type_id":"4","last_reported":1726913296,"current_range_meters":38000,"station_id":"ce4bhr92rcd13ifvqhsg","pricing_plan_id":"cebpf4jnsgd1na2vs0mg"},{"bike_id":"73dd3159-f924-459f-845b-7e6028cc1a9d","system_id":"levelo_inurba_marseille","lat":43.28439,"lon":5.38334,"is_reserved":false,"is_disabled":false,"rental_uris":{"android":"levelo://app?vid=73dd3159-f924-459f-845b-7e6028cc1a9d","ios":"levelo://app?vid=73dd3159-f924-459f-845b-7e6028cc1a9d"},"vehicle_type_id":"4","last_reported":1726913296,"current_range_meters":15200,"station_id":"ce4bh4p2rcd13ifvqe1g","pricing_plan_id":"cebpf4jnsgd1na2vs0mg"},{"bike_id":"45ae25bd-8abf-4332-96c3-cebd351109cd","system_id":"levelo_inurba_marseille","lat":43.28927,"lon":5.38398,"is_reserved":false,"is_disabled":false,"rental_uris":{"android":"levelo://app?vid=45ae25bd-8abf-4332-96c3-cebd351109cd","ios":"levelo://app?vid=45ae25bd-8abf-4332-96c3-cebd351109cd"},"vehicle_type_id":"4","last_reported":1726913296,"current_range_meters":24000,"station_id":"cki0cbj6b192h4jlfktg","pricing_plan_id":"cebpf4jnsgd1na2vs0mg"},{"bike_id":"fb241eac-00a8-4de4-9ac2-8a5d33a630b6","system_id":"levelo_inurba_marseille","lat":43.24807,"lon":5.374545,"is_reserved":false,"is_disabled":false,"rental_uris":{"android":"levelo://app?vid=fb241eac-00a8-4de4-9ac2-8a5d33a630b6","ios":"levelo://app?vid=fb241eac-00a8-4de4-9ac2-8a5d33a630b6"},"vehicle_type_id":"4","last_reported":1726913296,"current_range_meters":30000,"station_id":"ce4bhgh2rcd13ifvqfb0","pricing_plan_id":"cebpf4jnsgd1na2vs0mg"},{"bike_id":"b3b9b23c-db59-46c4-af5c-638c0ce2737d","system_id":"levelo_inurba_marseille","lat":43.337444,"lon":5.374475,"is_reserved":false,"is_disabled":false,"rental_uris":{"android":"levelo://app?vid=b3b9b23c-db59-46c4-af5c-638c0ce2737d","ios":"levelo://app?vid=b3b9b23c-db59-46c4-af5c-638c0ce2737d"},"vehicle_type_id":"4","last_reported":1726913296,"current_range_meters":32400,"station_id":"","pricing_plan_id":"cebpf4jnsgd1na2vs0mg"},{"bike_id":"7b7cf89d-5325-4d4a-8061-5cf0c5bab16f","system_id":"levelo_inurba_marseille","lat":43.26192,"lon":5.37451,"is_reserved":false,"is_disabled":false,"rental_uris":{"android":"levelo://app?vid=7b7cf89d-5325-4d4a-8061-5cf0c5bab16f","ios":"levelo://app?vid=7b7cf89d-5325-4d4a-8061-5cf0c5bab16f"},"vehicle_type_id":"4","last_reported":1726913296,"current_range_meters":30400,"station_id":"","pricing_plan_id":"cebpf4jnsgd1na2vs0mg"},{"bike_id":"fe02eabb-a2b4-4ea9-918d-8498504a82a3","system_id":"levelo_inurba_marseille","lat":43.26193,"lon":5.37445,"is_reserved":false,"is_disabled":false,"rental_uris":{"android":"levelo://app?vid=fe02eabb-a2b4-4ea9-918d-8498504a82a3","ios":"levelo://app?vid=fe02eabb-a2b4-4ea9-918d-8498504a82a3"},"vehicle_type_id":"4","last_reported":1726913296,"current_range_meters":14400,"station_id":"ce4bhgp2rcd13ifvqfc0","pricing_plan_id":"cebpf4jnsgd1na2vs0mg"},{"bike_id":"23e5fcf4-4fac-4b05-9a6c-be73f5a6d743","system_id":"levelo_inurba_marseille","lat":43.28148,"lon":5.42648,"is_reserved":false,"is_disabled":false,"rental_uris":{"android":"levelo://app?vid=23e5fcf4-4fac-4b05-9a6c-be73f5a6d743","ios":"levelo://app?vid=23e5fcf4-4fac-4b05-9a6c-be73f5a6d743"},"vehicle_type_id":"4","last_reported":1726913296,"current_range_meters":18800,"station_id":"ce4bhnh2rcd13ifvqgug","pricing_plan_id":"cebpf4jnsgd1na2vs0mg"},{"bike_id":"afaab830-46a4-4c2c-9890-6708827d00b5","system_id":"levelo_inurba_marseille","lat":43.284128,"lon":5.349782,"is_reserved":false,"is_disabled":false,"rental_uris":{"android":"levelo://app?vid=afaab830-46a4-4c2c-9890-6708827d00b5","ios":"levelo://app?vid=afaab830-46a4-4c2c-9890-6708827d00b5"},"vehicle_type_id":"4","last_reported":1726913296,"current_range_meters":30400,"station_id":"ce4bhbh2rcd13ifvqepg","pricing_plan_id":"cebpf4jnsgd1na2vs0mg"},{"bike_id":"9455a10c-c08f-4c95-bb85-e08f847ecbc5","system_id":"levelo_inurba_marseille","lat":43.24079,"lon":5.3775,"is_reserved":false,"is_disabled":false,"rental_uris":{"android":"levelo://app?vid=9455a10c-c08f-4c95-bb85-e08f847ecbc5","ios":"levelo://app?vid=9455a10c-c08f-4c95-bb85-e08f847ecbc5"},"vehicle_type_id":"4","last_reported":1726913296,"current_range_meters":8400,"station_id":"ce4bhnp2rcd13ifvqgvg","pricing_plan_id":"cebpf4jnsgd1na2vs0mg"},{"bike_id":"bddff95a-19c2-4fd3-bdbe-da5d658cfae4","system_id":"levelo_inurba_marseille","lat":43.2499,"lon":5.38935,"is_reserved":false,"is_disabled":false,"rental_uris":{"android":"levelo://app?vid=bddff95a-19c2-4fd3-bdbe-da5d658cfae4","ios":"levelo://app?vid=bddff95a-19c2-4fd3-bdbe-da5d658cfae4"},"vehicle_type_id":"4","last_reported":1726913296,"current_range_meters":24800,"station_id":"ce4bhgp2rcd13ifvqfd0","pricing_plan_id":"cebpf4jnsgd1na2vs0mg"},{"bike_id":"146ac5f2-7c1e-46d5-9347-54e9005d3585","system_id":"levelo_inurba_marseille","lat":43.26947,"lon":5.40248,"is_reserved":false,"is_disabled":false,"rental_uris":{"android":"levelo://app?vid=146ac5f2-7c1e-46d5-9347-54e9005d3585","ios":"levelo://app?vid=146ac5f2-7c1e-46d5-9347-54e9005d3585"},"vehicle_type_id":"4","last_reported":1726913296,"current_range_meters":39200,"station_id":"cjm6bp8fraef2m0cb0m0","pricing_plan_id":"cebpf4jnsgd1na2vs0mg"},{"bike_id":"7b9dd459-340b-4978-bfb0-6c163a5263e8","system_id":"levelo_inurba_marseille","lat":43.23195,"lon":5.3555,"is_reserved":false,"is_disabled":false,"rental_uris":{"android":"levelo://app?vid=7b9dd459-340b-4978-bfb0-6c163a5263e8","ios":"levelo://app?vid=7b9dd459-340b-4978-bfb0-6c163a5263e8"},"vehicle_type_id":"4","last_reported":1726913296,"current_range_meters":38800,"station_id":"ce4bhu92rcd13ifvqi70","pricing_plan_id":"cebpf4jnsgd1na2vs0mg"},{"bike_id":"fbff16f4-1b0c-4d7b-b1eb-ecbea83468ef","system_id":"levelo_inurba_marseille","lat":43.255,"lon":5.3765,"is_reserved":false,"is_disabled":false,"rental_uris":{"android":"levelo://app?vid=fbff16f4-1b0c-4d7b-b1eb-ecbea83468ef","ios":"levelo://app?vid=fbff16f4-1b0c-4d7b-b1eb-ecbea83468ef"},"vehicle_type_id":"4","last_reported":1726913296,"current_range_meters":36000,"station_id":"ce4bhh12rcd13ifvqff0","pricing_plan_id":"cebpf4jnsgd1na2vs0mg"},{"bike_id":"3e1c3abc-bcc0-4829-8ea5-ec588bffc8b1","system_id":"levelo_inurba_marseille","lat":43.25497,"lon":5.37648,"is_reserved":false,"is_disabled":false,"rental_uris":{"android":"levelo://app?vid=3e1c3abc-bcc0-4829-8ea5-ec588bffc8b1","ios":"levelo://app?vid=3e1c3abc-bcc0-4829-8ea5-ec588bffc8b1"},"vehicle_type_id":"4","last_reported":1726913296,"current_range_meters":33200,"station_id":"ce4bhh12rcd13ifvqff0","pricing_plan_id":"cebpf4jnsgd1na2vs0mg"},{"bike_id":"1409bd11-b908-4cb6-af30-4e2a4dd422cd","system_id":"levelo_inurba_marseille","lat":43.30474,"lon":5.37903,"is_reserved":false,"is_disabled":false,"rental_uris":{"android":"levelo://app?vid=1409bd11-b908-4cb6-af30-4e2a4dd422cd","ios":"levelo://app?vid=1409bd11-b908-4cb6-af30-4e2a4dd422cd"},"vehicle_type_id":"4","last_reported":1726913296,"current_range_meters":39200,"station_id":"ce4bgup2rcd13ifvqcn0","pricing_plan_id":"cebpf4jnsgd1na2vs0mg"},{"bike_id":"655232e5-dd47-4aeb-b051-4bd3e3ea8975","system_id":"levelo_inurba_marseille","lat":43.25719,"lon":5.41111,"is_reserved":false,"is_disabled":false,"rental_uris":{"android":"levelo://app?vid=655232e5-dd47-4aeb-b051-4bd3e3ea8975","ios":"levelo://app?vid=655232e5-dd47-4aeb-b051-4bd3e3ea8975"},"vehicle_type_id":"4","last_reported":1726913296,"current_range_meters":38800,"station_id":"ce4bhkp2rcd13ifvqgd0","pricing_plan_id":"cebpf4jnsgd1na2vs0mg"},{"bike_id":"71aa8592-ddf7-4343-aed4-c00d3433340f","system_id":"levelo_inurba_marseille","lat":43.337444,"lon":5.374475,"is_reserved":false,"is_disabled":false,"rental_uris":{"android":"levelo://app?vid=71aa8592-ddf7-4343-aed4-c00d3433340f","ios":"levelo://app?vid=71aa8592-ddf7-4343-aed4-c00d3433340f"},"vehicle_type_id":"4","last_reported":1726913296,"current_range_meters":36400,"station_id":"","pricing_plan_id":"cebpf4jnsgd1na2vs0mg"},{"bike_id":"3740c6df-06cd-419b-9ae6-b8d9e5eff548","system_id":"levelo_inurba_marseille","lat":43.2753,"lon":5.40935,"is_reserved":false,"is_disabled":false,"rental_uris":{"android":"levelo://app?vid=3740c6df-06cd-419b-9ae6-b8d9e5eff548","ios":"levelo://app?vid=3740c6df-06cd-419b-9ae6-b8d9e5eff548"},"vehicle_type_id":"4","last_reported":1726913296,"current_range_meters":18000,"station_id":"","pricing_plan_id":"cebpf4jnsgd1na2vs0mg"},{"bike_id":"aaa96b54-e508-4617-86af-b7b118a683a8","system_id":"levelo_inurba_marseille","lat":43.29979,"lon":5.38487,"is_reserved":false,"is_disabled":false,"rental_uris":{"android":"levelo://app?vid=aaa96b54-e508-4617-86af-b7b118a683a8","ios":"levelo://app?vid=aaa96b54-e508-4617-86af-b7b118a683a8"},"vehicle_type_id":"4","last_reported":1726913296,"current_range_meters":10800,"station_id":"ce4bgj92rcd13ifvqbd0","pricing_plan_id":"cebpf4jnsgd1na2vs0mg"},{"bike_id":"fb8d5711-d1cf-489c-836c-1bc6f5c3b747","system_id":"levelo_inurba_marseille","lat":43.2315,"lon":5.43705,"is_reserved":false,"is_disabled":false,"rental_uris":{"android":"levelo://app?vid=fb8d5711-d1cf-489c-836c-1bc6f5c3b747","ios":"levelo://app?vid=fb8d5711-d1cf-489c-836c-1bc6f5c3b747"},"vehicle_type_id":"4","last_reported":1726913296,"current_range_meters":38800,"station_id":"ce4bhmp2rcd13ifvqgog","pricing_plan_id":"cebpf4jnsgd1na2vs0mg"},{"bike_id":"c6a5b1c0-1ce2-46f3-8262-a62ae2cf80bf","system_id":"levelo_inurba_marseille","lat":43.32661,"lon":5.40987,"is_reserved":false,"is_disabled":false,"rental_uris":{"android":"levelo://app?vid=c6a5b1c0-1ce2-46f3-8262-a62ae2cf80bf","ios":"levelo://app?vid=c6a5b1c0-1ce2-46f3-8262-a62ae2cf80bf"},"vehicle_type_id":"4","last_reported":1726913296,"current_range_meters":37600,"station_id":"ce4bhpp2rcd13ifvqhgg","pricing_plan_id":"cebpf4jnsgd1na2vs0mg"},{"bike_id":"f880b4f7-39b9-4859-a49d-1aef19629ae9","system_id":"levelo_inurba_marseille","lat":43.28566,"lon":5.39492,"is_reserved":false,"is_disabled":false,"rental_uris":{"android":"levelo://app?vid=f880b4f7-39b9-4859-a49d-1aef19629ae9","ios":"levelo://app?vid=f880b4f7-39b9-4859-a49d-1aef19629ae9"},"vehicle_type_id":"4","last_reported":1726913296,"current_range_meters":38400,"station_id":"ce4bh292rcd13ifvqdg0","pricing_plan_id":"cebpf4jnsgd1na2vs0mg"},{"bike_id":"cbd6d8ad-05dd-4ae8-8e79-5d5bd81cde11","system_id":"levelo_inurba_marseille","lat":43.26948,"lon":5.38639,"is_reserved":false,"is_disabled":false,"rental_uris":{"android":"levelo://app?vid=cbd6d8ad-05dd-4ae8-8e79-5d5bd81cde11","ios":"levelo://app?vid=cbd6d8ad-05dd-4ae8-8e79-5d5bd81cde11"},"vehicle_type_id":"4","last_reported":1726913296,"current_range_meters":26800,"station_id":"ce4bhh92rcd13ifvqfh0","pricing_plan_id":"cebpf4jnsgd1na2vs0mg"},{"bike_id":"bf521f59-8cc4-4f57-bed0-be21bfbeeb05","system_id":"levelo_inurba_marseille","lat":43.31687,"lon":5.40475,"is_reserved":false,"is_disabled":false,"rental_uris":{"android":"levelo://app?vid=bf521f59-8cc4-4f57-bed0-be21bfbeeb05","ios":"levelo://app?vid=bf521f59-8cc4-4f57-bed0-be21bfbeeb05"},"vehicle_type_id":"4","last_reported":1726913296,"current_range_meters":20400,"station_id":"ce4bh012rcd13ifvqd00","pricing_plan_id":"cebpf4jnsgd1na2vs0mg"},{"bike_id":"36804418-55ab-48a2-8e52-fdbd55d4360a","system_id":"levelo_inurba_marseille","lat":43.2511,"lon":5.40323,"is_reserved":false,"is_disabled":false,"rental_uris":{"android":"levelo://app?vid=36804418-55ab-48a2-8e52-fdbd55d4360a","ios":"levelo://app?vid=36804418-55ab-48a2-8e52-fdbd55d4360a"},"vehicle_type_id":"4","last_reported":1726913296,"current_range_meters":25600,"station_id":"ce4bhlh2rcd13ifvqgig","pricing_plan_id":"cebpf4jnsgd1na2vs0mg"},{"bike_id":"e7f2ae82-06f1-46d5-be17-fa348f006f4a","system_id":"levelo_inurba_marseille","lat":43.28963,"lon":5.37844,"is_reserved":false,"is_disabled":false,"rental_uris":{"android":"levelo://app?vid=e7f2ae82-06f1-46d5-be17-fa348f006f4a","ios":"levelo://app?vid=e7f2ae82-06f1-46d5-be17-fa348f006f4a"},"vehicle_type_id":"4","last_reported":1726913296,"current_range_meters":36000,"station_id":"ce4bh9p2rcd13ifvqed0","pricing_plan_id":"cebpf4jnsgd1na2vs0mg"},{"bike_id":"f5a4152f-fcf5-44cd-8014-3e177d8df08c","system_id":"levelo_inurba_marseille","lat":43.28476,"lon":5.38413,"is_reserved":false,"is_disabled":false,"rental_uris":{"android":"levelo://app?vid=f5a4152f-fcf5-44cd-8014-3e177d8df08c","ios":"levelo://app?vid=f5a4152f-fcf5-44cd-8014-3e177d8df08c"},"vehicle_type_id":"4","last_reported":1726913296,"current_range_meters":36800,"station_id":"ce4bh512rcd13ifvqe3g","pricing_plan_id":"cebpf4jnsgd1na2vs0mg"},{"bike_id":"183eb22f-76d4-4d15-9b3f-4751c806e2b1","system_id":"levelo_inurba_marseille","lat":43.30153,"lon":5.38071,"is_reserved":false,"is_disabled":false,"rental_uris":{"android":"levelo://app?vid=183eb22f-76d4-4d15-9b3f-4751c806e2b1","ios":"levelo://app?vid=183eb22f-76d4-4d15-9b3f-4751c806e2b1"},"vehicle_type_id":"4","last_reported":1726913296,"current_range_meters":35200,"station_id":"ce4bgjp2rcd13ifvqbh0","pricing_plan_id":"cebpf4jnsgd1na2vs0mg"},{"bike_id":"10be079d-dc61-465e-9e00-e1d1f2a991c1","system_id":"levelo_inurba_marseille","lat":43.29782,"lon":5.3709,"is_reserved":false,"is_disabled":false,"rental_uris":{"android":"levelo://app?vid=10be079d-dc61-465e-9e00-e1d1f2a991c1","ios":"levelo://app?vid=10be079d-dc61-465e-9e00-e1d1f2a991c1"},"vehicle_type_id":"4","last_reported":1726913296,"current_range_meters":27600,"station_id":"ce4bgop2rcd13ifvqc1g","pricing_plan_id":"cebpf4jnsgd1na2vs0mg"},{"bike_id":"d65cbc32-3a83-4b2e-90d3-f60b7e66b84a","system_id":"levelo_inurba_marseille","lat":43.29552,"lon":5.42281,"is_reserved":false,"is_disabled":false,"rental_uris":{"android":"levelo://app?vid=d65cbc32-3a83-4b2e-90d3-f60b7e66b84a","ios":"levelo://app?vid=d65cbc32-3a83-4b2e-90d3-f60b7e66b84a"},"vehicle_type_id":"4","last_reported":1726913296,"current_range_meters":38000,"station_id":"ce4bhph2rcd13ifvqhdg","pricing_plan_id":"cebpf4jnsgd1na2vs0mg"},{"bike_id":"e395edd6-4cf1-45ee-9610-5fb5dd5dca50","system_id":"levelo_inurba_marseille","lat":43.26555,"lon":5.39004,"is_reserved":false,"is_disabled":false,"rental_uris":{"android":"levelo://app?vid=e395edd6-4cf1-45ee-9610-5fb5dd5dca50","ios":"levelo://app?vid=e395edd6-4cf1-45ee-9610-5fb5dd5dca50"},"vehicle_type_id":"4","last_reported":1726913296,"current_range_meters":2000,"station_id":"ce4bhe12rcd13ifvqf30","pricing_plan_id":"cebpf4jnsgd1na2vs0mg"},{"bike_id":"679a0afd-ea52-452b-a0c6-dbbe5301ca20","system_id":"levelo_inurba_marseille","lat":43.30541,"lon":5.3841,"is_reserved":false,"is_disabled":false,"rental_uris":{"android":"levelo://app?vid=679a0afd-ea52-452b-a0c6-dbbe5301ca20","ios":"levelo://app?vid=679a0afd-ea52-452b-a0c6-dbbe5301ca20"},"vehicle_type_id":"4","last_reported":1726913296,"current_range_meters":10800,"station_id":"ce4bgg92rcd13ifvqb30","pricing_plan_id":"cebpf4jnsgd1na2vs0mg"},{"bike_id":"217a4d28-84d3-4e8e-8dc0-73a5347f66ef","system_id":"levelo_inurba_marseille","lat":43.26195,"lon":5.37449,"is_reserved":false,"is_disabled":false,"rental_uris":{"android":"levelo://app?vid=217a4d28-84d3-4e8e-8dc0-73a5347f66ef","ios":"levelo://app?vid=217a4d28-84d3-4e8e-8dc0-73a5347f66ef"},"vehicle_type_id":"4","last_reported":1726913296,"current_range_meters":36000,"station_id":"ce4bhgp2rcd13ifvqfc0","pricing_plan_id":"cebpf4jnsgd1na2vs0mg"},{"bike_id":"3ecba28a-2e70-4388-ab0d-82b091de85ea","system_id":"levelo_inurba_marseille","lat":43.286663,"lon":5.363436,"is_reserved":false,"is_disabled":false,"rental_uris":{"android":"levelo://app?vid=3ecba28a-2e70-4388-ab0d-82b091de85ea","ios":"levelo://app?vid=3ecba28a-2e70-4388-ab0d-82b091de85ea"},"vehicle_type_id":"4","last_reported":1726913296,"current_range_meters":26800,"station_id":"ce4bhah2rcd13ifvqej0","pricing_plan_id":"cebpf4jnsgd1na2vs0mg"},{"bike_id":"48a551fb-2db6-4046-ae28-b022de91d86e","system_id":"levelo_inurba_marseille","lat":43.29528,"lon":5.37496,"is_reserved":false,"is_disabled":false,"rental_uris":{"android":"levelo://app?vid=48a551fb-2db6-4046-ae28-b022de91d86e","ios":"levelo://app?vid=48a551fb-2db6-4046-ae28-b022de91d86e"},"vehicle_type_id":"4","last_reported":1726913296,"current_range_meters":38800,"station_id":"ce4bgkp2rcd13ifvqbmg","pricing_plan_id":"cebpf4jnsgd1na2vs0mg"},{"bike_id":"5809a4e6-338b-4edd-898c-bfb7803ea125","system_id":"levelo_inurba_marseille","lat":43.29084,"lon":5.38127,"is_reserved":false,"is_disabled":false,"rental_uris":{"android":"levelo://app?vid=5809a4e6-338b-4edd-898c-bfb7803ea125","ios":"levelo://app?vid=5809a4e6-338b-4edd-898c-bfb7803ea125"},"vehicle_type_id":"4","last_reported":1726913296,"current_range_meters":38400,"station_id":"ce4bh512rcd13ifvqe2g","pricing_plan_id":"cebpf4jnsgd1na2vs0mg"},{"bike_id":"1e1c92ea-4100-48a4-80e0-a529141b8530","system_id":"levelo_inurba_marseille","lat":43.30655,"lon":5.40092,"is_reserved":false,"is_disabled":false,"rental_uris":{"android":"levelo://app?vid=1e1c92ea-4100-48a4-80e0-a529141b8530","ios":"levelo://app?vid=1e1c92ea-4100-48a4-80e0-a529141b8530"},"vehicle_type_id":"4","last_reported":1726913296,"current_range_meters":23200,"station_id":"ce4bh112rcd13ifvqda0","pricing_plan_id":"cebpf4jnsgd1na2vs0mg"},{"bike_id":"8af8c321-de1a-48b7-85ee-6b8f84590c25","system_id":"levelo_inurba_marseille","lat":43.27192,"lon":5.40987,"is_reserved":false,"is_disabled":false,"rental_uris":{"android":"levelo://app?vid=8af8c321-de1a-48b7-85ee-6b8f84590c25","ios":"levelo://app?vid=8af8c321-de1a-48b7-85ee-6b8f84590c25"},"vehicle_type_id":"4","last_reported":1726913296,"current_range_meters":36400,"station_id":"ce4bhl12rcd13ifvqgf0","pricing_plan_id":"cebpf4jnsgd1na2vs0mg"},{"bike_id":"c97af772-cc8d-47b2-b206-63478ce1043a","system_id":"levelo_inurba_marseille","lat":43.31702,"lon":5.37737,"is_reserved":false,"is_disabled":false,"rental_uris":{"android":"levelo://app?vid=c97af772-cc8d-47b2-b206-63478ce1043a","ios":"levelo://app?vid=c97af772-cc8d-47b2-b206-63478ce1043a"},"vehicle_type_id":"4","last_reported":1726913296,"current_range_meters":16800,"station_id":"ce4bgth2rcd13ifvqch0","pricing_plan_id":"cebpf4jnsgd1na2vs0mg"},{"bike_id":"2068f5f2-9a22-4f54-80d7-abd4ae935b11","system_id":"levelo_inurba_marseille","lat":43.28967,"lon":5.37841,"is_reserved":false,"is_disabled":false,"rental_uris":{"android":"levelo://app?vid=2068f5f2-9a22-4f54-80d7-abd4ae935b11","ios":"levelo://app?vid=2068f5f2-9a22-4f54-80d7-abd4ae935b11"},"vehicle_type_id":"4","last_reported":1726913296,"current_range_meters":38000,"station_id":"ce4bh9p2rcd13ifvqed0","pricing_plan_id":"cebpf4jnsgd1na2vs0mg"},{"bike_id":"e1d320c9-c4bd-4fe3-9171-9c4640ce72c8","system_id":"levelo_inurba_marseille","lat":43.29331,"lon":5.4095,"is_reserved":false,"is_disabled":false,"rental_uris":{"android":"levelo://app?vid=e1d320c9-c4bd-4fe3-9171-9c4640ce72c8","ios":"levelo://app?vid=e1d320c9-c4bd-4fe3-9171-9c4640ce72c8"},"vehicle_type_id":"4","last_reported":1726913296,"current_range_meters":27600,"station_id":"ce4bh192rcd13ifvqdc0","pricing_plan_id":"cebpf4jnsgd1na2vs0mg"},{"bike_id":"8360ed6d-2fc9-4744-b621-c76e82cc3b28","system_id":"levelo_inurba_marseille","lat":43.2985,"lon":5.36287,"is_reserved":false,"is_disabled":false,"rental_uris":{"android":"levelo://app?vid=8360ed6d-2fc9-4744-b621-c76e82cc3b28","ios":"levelo://app?vid=8360ed6d-2fc9-4744-b621-c76e82cc3b28"},"vehicle_type_id":"4","last_reported":1726913296,"current_range_meters":12800,"station_id":"ce4bgpp2rcd13ifvqc3g","pricing_plan_id":"cebpf4jnsgd1na2vs0mg"},{"bike_id":"aefe6c72-072b-4dac-a324-ecc5879d3809","system_id":"levelo_inurba_marseille","lat":43.29266,"lon":5.38441,"is_reserved":false,"is_disabled":false,"rental_uris":{"android":"levelo://app?vid=aefe6c72-072b-4dac-a324-ecc5879d3809","ios":"levelo://app?vid=aefe6c72-072b-4dac-a324-ecc5879d3809"},"vehicle_type_id":"4","last_reported":1726913296,"current_range_meters":6800,"station_id":"ce4bh692rcd13ifvqea0","pricing_plan_id":"cebpf4jnsgd1na2vs0mg"},{"bike_id":"4f6cd953-65f5-4d4f-a052-70118d864e1d","system_id":"levelo_inurba_marseille","lat":43.29897,"lon":5.43671,"is_reserved":false,"is_disabled":false,"rental_uris":{"android":"levelo://app?vid=4f6cd953-65f5-4d4f-a052-70118d864e1d","ios":"levelo://app?vid=4f6cd953-65f5-4d4f-a052-70118d864e1d"},"vehicle_type_id":"4","last_reported":1726913296,"current_range_meters":8800,"station_id":"ce4bhpp2rcd13ifvqhfg","pricing_plan_id":"cebpf4jnsgd1na2vs0mg"},{"bike_id":"559fbaf9-3144-4b9a-af53-ba8c83483c4e","system_id":"levelo_inurba_marseille","lat":43.29,"lon":5.35613,"is_reserved":false,"is_disabled":false,"rental_uris":{"android":"levelo://app?vid=559fbaf9-3144-4b9a-af53-ba8c83483c4e","ios":"levelo://app?vid=559fbaf9-3144-4b9a-af53-ba8c83483c4e"},"vehicle_type_id":"4","last_reported":1726913296,"current_range_meters":26000,"station_id":"ce4bhb92rcd13ifvqen0","pricing_plan_id":"cebpf4jnsgd1na2vs0mg"},{"bike_id":"95022b64-e753-4b77-a68b-cc9dc3b0d5c1","system_id":"levelo_inurba_marseille","lat":43.29973,"lon":5.38512,"is_reserved":false,"is_disabled":false,"rental_uris":{"android":"levelo://app?vid=95022b64-e753-4b77-a68b-cc9dc3b0d5c1","ios":"levelo://app?vid=95022b64-e753-4b77-a68b-cc9dc3b0d5c1"},"vehicle_type_id":"4","last_reported":1726913296,"current_range_meters":9600,"station_id":"ce4bgj92rcd13ifvqbd0","pricing_plan_id":"cebpf4jnsgd1na2vs0mg"},{"bike_id":"a15b0191-6ddb-48fa-aab4-8d5bef39d121","system_id":"levelo_inurba_marseille","lat":43.25871,"lon":5.39891,"is_reserved":false,"is_disabled":false,"rental_uris":{"android":"levelo://app?vid=a15b0191-6ddb-48fa-aab4-8d5bef39d121","ios":"levelo://app?vid=a15b0191-6ddb-48fa-aab4-8d5bef39d121"},"vehicle_type_id":"4","last_reported":1726913296,"current_range_meters":38000,"station_id":"ce4bhl92rcd13ifvqghg","pricing_plan_id":"cebpf4jnsgd1na2vs0mg"},{"bike_id":"ade059c3-fdac-479f-aaf2-ec3ec14f57c1","system_id":"levelo_inurba_marseille","lat":43.31888,"lon":5.40735,"is_reserved":false,"is_disabled":false,"rental_uris":{"android":"levelo://app?vid=ade059c3-fdac-479f-aaf2-ec3ec14f57c1","ios":"levelo://app?vid=ade059c3-fdac-479f-aaf2-ec3ec14f57c1"},"vehicle_type_id":"4","last_reported":1726913296,"current_range_meters":11600,"station_id":"ce4bhq12rcd13ifvqhig","pricing_plan_id":"cebpf4jnsgd1na2vs0mg"},{"bike_id":"f325ddea-dfdc-4395-bf77-7fd316dbbee0","system_id":"levelo_inurba_marseille","lat":43.28368,"lon":5.38628,"is_reserved":false,"is_disabled":false,"rental_uris":{"android":"levelo://app?vid=f325ddea-dfdc-4395-bf77-7fd316dbbee0","ios":"levelo://app?vid=f325ddea-dfdc-4395-bf77-7fd316dbbee0"},"vehicle_type_id":"4","last_reported":1726913296,"current_range_meters":14000,"station_id":"ce4bh492rcd13ifvqdvg","pricing_plan_id":"cebpf4jnsgd1na2vs0mg"},{"bike_id":"54c9d1f1-f9fb-4d4e-8185-6fb646890270","system_id":"levelo_inurba_marseille","lat":43.31277,"lon":5.40171,"is_reserved":false,"is_disabled":false,"rental_uris":{"android":"levelo://app?vid=54c9d1f1-f9fb-4d4e-8185-6fb646890270","ios":"levelo://app?vid=54c9d1f1-f9fb-4d4e-8185-6fb646890270"},"vehicle_type_id":"4","last_reported":1726913296,"current_range_meters":8400,"station_id":"ce4bh092rcd13ifvqd30","pricing_plan_id":"cebpf4jnsgd1na2vs0mg"},{"bike_id":"c919cd9a-c9fb-4572-ac0c-97f80a66c128","system_id":"levelo_inurba_marseille","lat":43.22928,"lon":5.35376,"is_reserved":false,"is_disabled":false,"rental_uris":{"android":"levelo://app?vid=c919cd9a-c9fb-4572-ac0c-97f80a66c128","ios":"levelo://app?vid=c919cd9a-c9fb-4572-ac0c-97f80a66c128"},"vehicle_type_id":"4","last_reported":1726913296,"current_range_meters":6800,"station_id":"cpo3532slgdg3j2ikp40","pricing_plan_id":"cebpf4jnsgd1na2vs0mg"},{"bike_id":"f734fa96-5742-4fdc-b8b9-11accd9a3ab0","system_id":"levelo_inurba_marseille","lat":43.28268,"lon":5.35066,"is_reserved":false,"is_disabled":false,"rental_uris":{"android":"levelo://app?vid=f734fa96-5742-4fdc-b8b9-11accd9a3ab0","ios":"levelo://app?vid=f734fa96-5742-4fdc-b8b9-11accd9a3ab0"},"vehicle_type_id":"4","last_reported":1726913296,"current_range_meters":18800,"station_id":"ce4bhbp2rcd13ifvqerg","pricing_plan_id":"cebpf4jnsgd1na2vs0mg"},{"bike_id":"284f3c47-c269-4f04-a9b8-bd27a8c13c07","system_id":"levelo_inurba_marseille","lat":43.26493,"lon":5.39545,"is_reserved":false,"is_disabled":false,"rental_uris":{"android":"levelo://app?vid=284f3c47-c269-4f04-a9b8-bd27a8c13c07","ios":"levelo://app?vid=284f3c47-c269-4f04-a9b8-bd27a8c13c07"},"vehicle_type_id":"4","last_reported":1726913296,"current_range_meters":38800,"station_id":"ce4bhi12rcd13ifvqfq0","pricing_plan_id":"cebpf4jnsgd1na2vs0mg"},{"bike_id":"ce38387f-a874-4c18-89e8-601b2a49e470","system_id":"levelo_inurba_marseille","lat":43.29231,"lon":5.36053,"is_reserved":false,"is_disabled":false,"rental_uris":{"android":"levelo://app?vid=ce38387f-a874-4c18-89e8-601b2a49e470","ios":"levelo://app?vid=ce38387f-a874-4c18-89e8-601b2a49e470"},"vehicle_type_id":"4","last_reported":1726913296,"current_range_meters":30000,"station_id":"ce4bhbh2rcd13ifvqeqg","pricing_plan_id":"cebpf4jnsgd1na2vs0mg"},{"bike_id":"58014cc6-4f39-4119-a8a0-cdc0e2507820","system_id":"levelo_inurba_marseille","lat":43.32285,"lon":5.38276,"is_reserved":false,"is_disabled":false,"rental_uris":{"android":"levelo://app?vid=58014cc6-4f39-4119-a8a0-cdc0e2507820","ios":"levelo://app?vid=58014cc6-4f39-4119-a8a0-cdc0e2507820"},"vehicle_type_id":"4","last_reported":1726913296,"current_range_meters":38800,"station_id":"ce4bhr12rcd13ifvqhqg","pricing_plan_id":"cebpf4jnsgd1na2vs0mg"},{"bike_id":"99eeafe6-366f-429a-b8f8-8a504a89203b","system_id":"levelo_inurba_marseille","lat":43.28498,"lon":5.35599,"is_reserved":false,"is_disabled":false,"rental_uris":{"android":"levelo://app?vid=99eeafe6-366f-429a-b8f8-8a504a89203b","ios":"levelo://app?vid=99eeafe6-366f-429a-b8f8-8a504a89203b"},"vehicle_type_id":"4","last_reported":1726913296,"current_range_meters":33200,"station_id":"","pricing_plan_id":"cebpf4jnsgd1na2vs0mg"},{"bike_id":"56fe06f8-953a-42fb-a92d-be52d26a7855","system_id":"levelo_inurba_marseille","lat":43.29007,"lon":5.35611,"is_reserved":false,"is_disabled":false,"rental_uris":{"android":"levelo://app?vid=56fe06f8-953a-42fb-a92d-be52d26a7855","ios":"levelo://app?vid=56fe06f8-953a-42fb-a92d-be52d26a7855"},"vehicle_type_id":"4","last_reported":1726913296,"current_range_meters":12800,"station_id":"ce4bhb92rcd13ifvqen0","pricing_plan_id":"cebpf4jnsgd1na2vs0mg"},{"bike_id":"29058ff5-4d24-4c57-9c80-3c616b905bac","system_id":"levelo_inurba_marseille","lat":43.29547,"lon":5.42282,"is_reserved":false,"is_disabled":false,"rental_uris":{"android":"levelo://app?vid=29058ff5-4d24-4c57-9c80-3c616b905bac","ios":"levelo://app?vid=29058ff5-4d24-4c57-9c80-3c616b905bac"},"vehicle_type_id":"4","last_reported":1726913296,"current_range_meters":38000,"station_id":"ce4bhph2rcd13ifvqhdg","pricing_plan_id":"cebpf4jnsgd1na2vs0mg"},{"bike_id":"e126a63b-7f82-43ed-ba09-1eb7c90a032e","system_id":"levelo_inurba_marseille","lat":43.31704,"lon":5.37746,"is_reserved":false,"is_disabled":false,"rental_uris":{"android":"levelo://app?vid=e126a63b-7f82-43ed-ba09-1eb7c90a032e","ios":"levelo://app?vid=e126a63b-7f82-43ed-ba09-1eb7c90a032e"},"vehicle_type_id":"4","last_reported":1726913296,"current_range_meters":20800,"station_id":"ce4bgth2rcd13ifvqch0","pricing_plan_id":"cebpf4jnsgd1na2vs0mg"},{"bike_id":"ebbfb9e4-e3da-4b77-abdf-c23580edaeba","system_id":"levelo_inurba_marseille","lat":43.26197,"lon":5.37445,"is_reserved":false,"is_disabled":false,"rental_uris":{"android":"levelo://app?vid=ebbfb9e4-e3da-4b77-abdf-c23580edaeba","ios":"levelo://app?vid=ebbfb9e4-e3da-4b77-abdf-c23580edaeba"},"vehicle_type_id":"4","last_reported":1726913296,"current_range_meters":24400,"station_id":"ce4bhgp2rcd13ifvqfc0","pricing_plan_id":"cebpf4jnsgd1na2vs0mg"},{"bike_id":"a689988e-b999-48c3-9d40-21418840ab09","system_id":"levelo_inurba_marseille","lat":43.3015,"lon":5.38074,"is_reserved":false,"is_disabled":false,"rental_uris":{"android":"levelo://app?vid=a689988e-b999-48c3-9d40-21418840ab09","ios":"levelo://app?vid=a689988e-b999-48c3-9d40-21418840ab09"},"vehicle_type_id":"4","last_reported":1726913296,"current_range_meters":14800,"station_id":"ce4bgjp2rcd13ifvqbh0","pricing_plan_id":"cebpf4jnsgd1na2vs0mg"},{"bike_id":"ff0b03c1-1d77-433f-98c6-b6d64b8c4150","system_id":"levelo_inurba_marseille","lat":43.30465,"lon":5.37911,"is_reserved":false,"is_disabled":false,"rental_uris":{"android":"levelo://app?vid=ff0b03c1-1d77-433f-98c6-b6d64b8c4150","ios":"levelo://app?vid=ff0b03c1-1d77-433f-98c6-b6d64b8c4150"},"vehicle_type_id":"4","last_reported":1726913296,"current_range_meters":22800,"station_id":"ce4bgup2rcd13ifvqcn0","pricing_plan_id":"cebpf4jnsgd1na2vs0mg"},{"bike_id":"82a90fec-9a84-44cd-9e7e-488ca9af1085","system_id":"levelo_inurba_marseille","lat":43.30958,"lon":5.39035,"is_reserved":false,"is_disabled":false,"rental_uris":{"android":"levelo://app?vid=82a90fec-9a84-44cd-9e7e-488ca9af1085","ios":"levelo://app?vid=82a90fec-9a84-44cd-9e7e-488ca9af1085"},"vehicle_type_id":"4","last_reported":1726913296,"current_range_meters":38400,"station_id":"ce4bgup2rcd13ifvqco0","pricing_plan_id":"cebpf4jnsgd1na2vs0mg"},{"bike_id":"bce83964-771d-421d-a795-c2b376c5b9dc","system_id":"levelo_inurba_marseille","lat":43.23193,"lon":5.35555,"is_reserved":false,"is_disabled":false,"rental_uris":{"android":"levelo://app?vid=bce83964-771d-421d-a795-c2b376c5b9dc","ios":"levelo://app?vid=bce83964-771d-421d-a795-c2b376c5b9dc"},"vehicle_type_id":"4","last_reported":1726913296,"current_range_meters":18000,"station_id":"ce4bhu92rcd13ifvqi70","pricing_plan_id":"cebpf4jnsgd1na2vs0mg"},{"bike_id":"a959b33f-c829-4241-9caf-4a3f3ccca013","system_id":"levelo_inurba_marseille","lat":43.29599,"lon":5.3809,"is_reserved":false,"is_disabled":false,"rental_uris":{"android":"levelo://app?vid=a959b33f-c829-4241-9caf-4a3f3ccca013","ios":"levelo://app?vid=a959b33f-c829-4241-9caf-4a3f3ccca013"},"vehicle_type_id":"4","last_reported":1726913296,"current_range_meters":28800,"station_id":"ce4bgl12rcd13ifvqbo0","pricing_plan_id":"cebpf4jnsgd1na2vs0mg"},{"bike_id":"925bbc37-f645-438b-b5d2-3a83057c16bf","system_id":"levelo_inurba_marseille","lat":43.27675,"lon":5.3887,"is_reserved":false,"is_disabled":false,"rental_uris":{"android":"levelo://app?vid=925bbc37-f645-438b-b5d2-3a83057c16bf","ios":"levelo://app?vid=925bbc37-f645-438b-b5d2-3a83057c16bf"},"vehicle_type_id":"4","last_reported":1726913296,"current_range_meters":5600,"station_id":"ce4bhi12rcd13ifvqfo0","pricing_plan_id":"cebpf4jnsgd1na2vs0mg"},{"bike_id":"f90a267b-7bda-4dfc-a104-d10e13a82276","system_id":"levelo_inurba_marseille","lat":43.24078,"lon":5.37759,"is_reserved":false,"is_disabled":false,"rental_uris":{"android":"levelo://app?vid=f90a267b-7bda-4dfc-a104-d10e13a82276","ios":"levelo://app?vid=f90a267b-7bda-4dfc-a104-d10e13a82276"},"vehicle_type_id":"4","last_reported":1726913296,"current_range_meters":2800,"station_id":"ce4bhnp2rcd13ifvqgvg","pricing_plan_id":"cebpf4jnsgd1na2vs0mg"},{"bike_id":"f9de16cf-6055-4e1d-bbbe-bbfde74549bc","system_id":"levelo_inurba_marseille","lat":43.26055,"lon":5.39398,"is_reserved":false,"is_disabled":false,"rental_uris":{"android":"levelo://app?vid=f9de16cf-6055-4e1d-bbbe-bbfde74549bc","ios":"levelo://app?vid=f9de16cf-6055-4e1d-bbbe-bbfde74549bc"},"vehicle_type_id":"4","last_reported":1726913296,"current_range_meters":37600,"station_id":"ce4bhh92rcd13ifvqfj0","pricing_plan_id":"cebpf4jnsgd1na2vs0mg"},{"bike_id":"076ad3e4-9565-45ee-b603-552deae1266b","system_id":"levelo_inurba_marseille","lat":43.290131,"lon":5.367911,"is_reserved":false,"is_disabled":false,"rental_uris":{"android":"levelo://app?vid=076ad3e4-9565-45ee-b603-552deae1266b","ios":"levelo://app?vid=076ad3e4-9565-45ee-b603-552deae1266b"},"vehicle_type_id":"4","last_reported":1726913296,"current_range_meters":8800,"station_id":"","pricing_plan_id":"cebpf4jnsgd1na2vs0mg"},{"bike_id":"1f723025-d086-4d8f-aa58-1e2c8a0e2e12","system_id":"levelo_inurba_marseille","lat":43.30329,"lon":5.40435,"is_reserved":false,"is_disabled":false,"rental_uris":{"android":"levelo://app?vid=1f723025-d086-4d8f-aa58-1e2c8a0e2e12","ios":"levelo://app?vid=1f723025-d086-4d8f-aa58-1e2c8a0e2e12"},"vehicle_type_id":"4","last_reported":1726913296,"current_range_meters":24400,"station_id":"ce4bh012rcd13ifvqd10","pricing_plan_id":"cebpf4jnsgd1na2vs0mg"},{"bike_id":"c83cc2de-008a-445a-83ed-9aa985193b4f","system_id":"levelo_inurba_marseille","lat":43.292782,"lon":5.368453,"is_reserved":false,"is_disabled":false,"rental_uris":{"android":"levelo://app?vid=c83cc2de-008a-445a-83ed-9aa985193b4f","ios":"levelo://app?vid=c83cc2de-008a-445a-83ed-9aa985193b4f"},"vehicle_type_id":"4","last_reported":1726913296,"current_range_meters":31200,"station_id":"ce4bhbp2rcd13ifvqesg","pricing_plan_id":"cebpf4jnsgd1na2vs0mg"},{"bike_id":"abf4fccb-4a12-45df-9476-0c32343036ad","system_id":"levelo_inurba_marseille","lat":43.26681,"lon":5.38266,"is_reserved":false,"is_disabled":false,"rental_uris":{"android":"levelo://app?vid=abf4fccb-4a12-45df-9476-0c32343036ad","ios":"levelo://app?vid=abf4fccb-4a12-45df-9476-0c32343036ad"},"vehicle_type_id":"4","last_reported":1726913296,"current_range_meters":19200,"station_id":"ce4bhg92rcd13ifvqf90","pricing_plan_id":"cebpf4jnsgd1na2vs0mg"},{"bike_id":"da4508dc-41c0-4202-9324-2a4c11586e5c","system_id":"levelo_inurba_marseille","lat":43.23194,"lon":5.35556,"is_reserved":false,"is_disabled":false,"rental_uris":{"android":"levelo://app?vid=da4508dc-41c0-4202-9324-2a4c11586e5c","ios":"levelo://app?vid=da4508dc-41c0-4202-9324-2a4c11586e5c"},"vehicle_type_id":"4","last_reported":1726913296,"current_range_meters":31200,"station_id":"ce4bhu92rcd13ifvqi70","pricing_plan_id":"cebpf4jnsgd1na2vs0mg"},{"bike_id":"1fde404c-9cf2-4958-aae0-8663260fee10","system_id":"levelo_inurba_marseille","lat":43.33607,"lon":5.41007,"is_reserved":false,"is_disabled":false,"rental_uris":{"android":"levelo://app?vid=1fde404c-9cf2-4958-aae0-8663260fee10","ios":"levelo://app?vid=1fde404c-9cf2-4958-aae0-8663260fee10"},"vehicle_type_id":"4","last_reported":1726913296,"current_range_meters":38800,"station_id":"ce4bhqh2rcd13ifvqhmg","pricing_plan_id":"cebpf4jnsgd1na2vs0mg"},{"bike_id":"c9860788-0917-4aea-b7f3-2f3a05fa2638","system_id":"levelo_inurba_marseille","lat":43.292,"lon":5.3579,"is_reserved":false,"is_disabled":false,"rental_uris":{"android":"levelo://app?vid=c9860788-0917-4aea-b7f3-2f3a05fa2638","ios":"levelo://app?vid=c9860788-0917-4aea-b7f3-2f3a05fa2638"},"vehicle_type_id":"4","last_reported":1726913296,"current_range_meters":13600,"station_id":"ce4bhb12rcd13ifvqel0","pricing_plan_id":"cebpf4jnsgd1na2vs0mg"},{"bike_id":"9409eb56-e002-4986-b690-d4464056aefa","system_id":"levelo_inurba_marseille","lat":43.27304,"lon":5.39089,"is_reserved":false,"is_disabled":false,"rental_uris":{"android":"levelo://app?vid=9409eb56-e002-4986-b690-d4464056aefa","ios":"levelo://app?vid=9409eb56-e002-4986-b690-d4464056aefa"},"vehicle_type_id":"4","last_reported":1726913296,"current_range_meters":6400,"station_id":"ce4bhgp2rcd13ifvqfe0","pricing_plan_id":"cebpf4jnsgd1na2vs0mg"},{"bike_id":"b80a0233-75c3-4f26-8468-d8f70e0d0b1e","system_id":"levelo_inurba_marseille","lat":43.289766,"lon":5.378321,"is_reserved":false,"is_disabled":false,"rental_uris":{"android":"levelo://app?vid=b80a0233-75c3-4f26-8468-d8f70e0d0b1e","ios":"levelo://app?vid=b80a0233-75c3-4f26-8468-d8f70e0d0b1e"},"vehicle_type_id":"4","last_reported":1726913296,"current_range_meters":24800,"station_id":"ce4bh9p2rcd13ifvqed0","pricing_plan_id":"cebpf4jnsgd1na2vs0mg"},{"bike_id":"96f49d04-3ba0-4c70-b395-ac91f6796d0d","system_id":"levelo_inurba_marseille","lat":43.2998,"lon":5.37175,"is_reserved":false,"is_disabled":false,"rental_uris":{"android":"levelo://app?vid=96f49d04-3ba0-4c70-b395-ac91f6796d0d","ios":"levelo://app?vid=96f49d04-3ba0-4c70-b395-ac91f6796d0d"},"vehicle_type_id":"4","last_reported":1726913296,"current_range_meters":26000,"station_id":"ce4bgr92rcd13ifvqc7g","pricing_plan_id":"cebpf4jnsgd1na2vs0mg"},{"bike_id":"fb2b63d9-4a26-4602-9a57-d2caab531ee7","system_id":"levelo_inurba_marseille","lat":43.33722,"lon":5.39178,"is_reserved":false,"is_disabled":false,"rental_uris":{"android":"levelo://app?vid=fb2b63d9-4a26-4602-9a57-d2caab531ee7","ios":"levelo://app?vid=fb2b63d9-4a26-4602-9a57-d2caab531ee7"},"vehicle_type_id":"4","last_reported":1726913296,"current_range_meters":38800,"station_id":"ce4bhr92rcd13ifvqhsg","pricing_plan_id":"cebpf4jnsgd1na2vs0mg"},{"bike_id":"ee615e7a-964d-4640-bac8-7221d523fdb3","system_id":"levelo_inurba_marseille","lat":43.24649,"lon":5.38889,"is_reserved":false,"is_disabled":false,"rental_uris":{"android":"levelo://app?vid=ee615e7a-964d-4640-bac8-7221d523fdb3","ios":"levelo://app?vid=ee615e7a-964d-4640-bac8-7221d523fdb3"},"vehicle_type_id":"4","last_reported":1726913296,"current_range_meters":38800,"station_id":"ce4bhg12rcd13ifvqf60","pricing_plan_id":"cebpf4jnsgd1na2vs0mg"},{"bike_id":"193e73e0-8f7f-47cc-b04f-168862da309e","system_id":"levelo_inurba_marseille","lat":43.29592,"lon":5.38108,"is_reserved":false,"is_disabled":false,"rental_uris":{"android":"levelo://app?vid=193e73e0-8f7f-47cc-b04f-168862da309e","ios":"levelo://app?vid=193e73e0-8f7f-47cc-b04f-168862da309e"},"vehicle_type_id":"4","last_reported":1726913296,"current_range_meters":13600,"station_id":"ce4bgl12rcd13ifvqbo0","pricing_plan_id":"cebpf4jnsgd1na2vs0mg"},{"bike_id":"96f9a91d-428e-493e-b8c0-fcd22d3c14f4","system_id":"levelo_inurba_marseille","lat":43.23186,"lon":5.39983,"is_reserved":false,"is_disabled":false,"rental_uris":{"android":"levelo://app?vid=96f9a91d-428e-493e-b8c0-fcd22d3c14f4","ios":"levelo://app?vid=96f9a91d-428e-493e-b8c0-fcd22d3c14f4"},"vehicle_type_id":"4","last_reported":1726913296,"current_range_meters":39200,"station_id":"ce4bhn12rcd13ifvqgqg","pricing_plan_id":"cebpf4jnsgd1na2vs0mg"},{"bike_id":"527d2a0b-cddb-4832-9f22-e5c986dc1063","system_id":"levelo_inurba_marseille","lat":43.30613,"lon":5.37221,"is_reserved":false,"is_disabled":false,"rental_uris":{"android":"levelo://app?vid=527d2a0b-cddb-4832-9f22-e5c986dc1063","ios":"levelo://app?vid=527d2a0b-cddb-4832-9f22-e5c986dc1063"},"vehicle_type_id":"4","last_reported":1726913296,"current_range_meters":12000,"station_id":"ce4bgqh2rcd13ifvqc4g","pricing_plan_id":"cebpf4jnsgd1na2vs0mg"},{"bike_id":"8a82df45-865b-4da1-95c1-9fdaeebf84f9","system_id":"levelo_inurba_marseille","lat":43.31686,"lon":5.40465,"is_reserved":false,"is_disabled":false,"rental_uris":{"android":"levelo://app?vid=8a82df45-865b-4da1-95c1-9fdaeebf84f9","ios":"levelo://app?vid=8a82df45-865b-4da1-95c1-9fdaeebf84f9"},"vehicle_type_id":"4","last_reported":1726913296,"current_range_meters":38400,"station_id":"ce4bh012rcd13ifvqd00","pricing_plan_id":"cebpf4jnsgd1na2vs0mg"},{"bike_id":"ae6a8a5c-6a73-458b-87ea-d56ef64faad9","system_id":"levelo_inurba_marseille","lat":43.29965,"lon":5.38493,"is_reserved":false,"is_disabled":false,"rental_uris":{"android":"levelo://app?vid=ae6a8a5c-6a73-458b-87ea-d56ef64faad9","ios":"levelo://app?vid=ae6a8a5c-6a73-458b-87ea-d56ef64faad9"},"vehicle_type_id":"4","last_reported":1726913296,"current_range_meters":38800,"station_id":"ce4bgj92rcd13ifvqbd0","pricing_plan_id":"cebpf4jnsgd1na2vs0mg"},{"bike_id":"b869f1ae-f37d-464a-8d18-0fd8cd3f314c","system_id":"levelo_inurba_marseille","lat":43.29171,"lon":5.4065,"is_reserved":false,"is_disabled":false,"rental_uris":{"android":"levelo://app?vid=b869f1ae-f37d-464a-8d18-0fd8cd3f314c","ios":"levelo://app?vid=b869f1ae-f37d-464a-8d18-0fd8cd3f314c"},"vehicle_type_id":"4","last_reported":1726913296,"current_range_meters":4400,"station_id":"","pricing_plan_id":"cebpf4jnsgd1na2vs0mg"},{"bike_id":"07fffb32-a3d8-41f7-9ddc-241d089c2c6d","system_id":"levelo_inurba_marseille","lat":43.32038,"lon":5.41562,"is_reserved":false,"is_disabled":false,"rental_uris":{"android":"levelo://app?vid=07fffb32-a3d8-41f7-9ddc-241d089c2c6d","ios":"levelo://app?vid=07fffb32-a3d8-41f7-9ddc-241d089c2c6d"},"vehicle_type_id":"4","last_reported":1726913296,"current_range_meters":20800,"station_id":"ce4bhq92rcd13ifvqhkg","pricing_plan_id":"cebpf4jnsgd1na2vs0mg"},{"bike_id":"d87bc5f3-4cc7-410f-97de-461f0499130b","system_id":"levelo_inurba_marseille","lat":43.3056,"lon":5.36539,"is_reserved":false,"is_disabled":false,"rental_uris":{"android":"levelo://app?vid=d87bc5f3-4cc7-410f-97de-461f0499130b","ios":"levelo://app?vid=d87bc5f3-4cc7-410f-97de-461f0499130b"},"vehicle_type_id":"4","last_reported":1726913296,"current_range_meters":37600,"station_id":"ce4bgs12rcd13ifvqcag","pricing_plan_id":"cebpf4jnsgd1na2vs0mg"},{"bike_id":"ebcf3ec9-addc-4f25-9b21-cbd9d997179d","system_id":"levelo_inurba_marseille","lat":43.23153,"lon":5.43708,"is_reserved":false,"is_disabled":false,"rental_uris":{"android":"levelo://app?vid=ebcf3ec9-addc-4f25-9b21-cbd9d997179d","ios":"levelo://app?vid=ebcf3ec9-addc-4f25-9b21-cbd9d997179d"},"vehicle_type_id":"4","last_reported":1726913296,"current_range_meters":28000,"station_id":"ce4bhmp2rcd13ifvqgog","pricing_plan_id":"cebpf4jnsgd1na2vs0mg"},{"bike_id":"9e17380e-9c70-4eb6-b729-e86e9f38c84f","system_id":"levelo_inurba_marseille","lat":43.24393,"lon":5.37057,"is_reserved":false,"is_disabled":false,"rental_uris":{"android":"levelo://app?vid=9e17380e-9c70-4eb6-b729-e86e9f38c84f","ios":"levelo://app?vid=9e17380e-9c70-4eb6-b729-e86e9f38c84f"},"vehicle_type_id":"4","last_reported":1726913296,"current_range_meters":12000,"station_id":"ce4bhhh2rcd13ifvqfk0","pricing_plan_id":"cebpf4jnsgd1na2vs0mg"},{"bike_id":"4c5ed788-85c1-449b-96a9-23f4c138c12c","system_id":"levelo_inurba_marseille","lat":43.29303,"lon":5.37172,"is_reserved":false,"is_disabled":false,"rental_uris":{"android":"levelo://app?vid=4c5ed788-85c1-449b-96a9-23f4c138c12c","ios":"levelo://app?vid=4c5ed788-85c1-449b-96a9-23f4c138c12c"},"vehicle_type_id":"4","last_reported":1726913296,"current_range_meters":38800,"station_id":"ce4bgh92rcd13ifvqb40","pricing_plan_id":"cebpf4jnsgd1na2vs0mg"},{"bike_id":"fa690805-233a-4a70-a9f3-33f1b67cdb1f","system_id":"levelo_inurba_marseille","lat":43.32285,"lon":5.38264,"is_reserved":false,"is_disabled":false,"rental_uris":{"android":"levelo://app?vid=fa690805-233a-4a70-a9f3-33f1b67cdb1f","ios":"levelo://app?vid=fa690805-233a-4a70-a9f3-33f1b67cdb1f"},"vehicle_type_id":"4","last_reported":1726913296,"current_range_meters":12400,"station_id":"ce4bhr12rcd13ifvqhqg","pricing_plan_id":"cebpf4jnsgd1na2vs0mg"},{"bike_id":"3a4e0040-1462-430c-9f01-f3d13145c344","system_id":"levelo_inurba_marseille","lat":43.33755,"lon":5.37435,"is_reserved":false,"is_disabled":false,"rental_uris":{"android":"levelo://app?vid=3a4e0040-1462-430c-9f01-f3d13145c344","ios":"levelo://app?vid=3a4e0040-1462-430c-9f01-f3d13145c344"},"vehicle_type_id":"4","last_reported":1726913296,"current_range_meters":37600,"station_id":"","pricing_plan_id":"cebpf4jnsgd1na2vs0mg"},{"bike_id":"3874efbc-f229-4697-8d11-aebc80ac00c4","system_id":"levelo_inurba_marseille","lat":43.27494,"lon":5.42447,"is_reserved":false,"is_disabled":false,"rental_uris":{"android":"levelo://app?vid=3874efbc-f229-4697-8d11-aebc80ac00c4","ios":"levelo://app?vid=3874efbc-f229-4697-8d11-aebc80ac00c4"},"vehicle_type_id":"4","last_reported":1726913296,"current_range_meters":36800,"station_id":"ce4bhn92rcd13ifvqgrg","pricing_plan_id":"cebpf4jnsgd1na2vs0mg"},{"bike_id":"7e3571e7-d499-4677-ad33-f5d3d01a2a81","system_id":"levelo_inurba_marseille","lat":43.25006,"lon":5.3893,"is_reserved":false,"is_disabled":false,"rental_uris":{"android":"levelo://app?vid=7e3571e7-d499-4677-ad33-f5d3d01a2a81","ios":"levelo://app?vid=7e3571e7-d499-4677-ad33-f5d3d01a2a81"},"vehicle_type_id":"4","last_reported":1726913296,"current_range_meters":38800,"station_id":"ce4bhgp2rcd13ifvqfd0","pricing_plan_id":"cebpf4jnsgd1na2vs0mg"},{"bike_id":"7a69a206-59d7-4338-b1fb-7a4c9f69082f","system_id":"levelo_inurba_marseille","lat":43.23959,"lon":5.36637,"is_reserved":false,"is_disabled":false,"rental_uris":{"android":"levelo://app?vid=7a69a206-59d7-4338-b1fb-7a4c9f69082f","ios":"levelo://app?vid=7a69a206-59d7-4338-b1fb-7a4c9f69082f"},"vehicle_type_id":"4","last_reported":1726913296,"current_range_meters":14400,"station_id":"ce4bhi12rcd13ifvqfp0","pricing_plan_id":"cebpf4jnsgd1na2vs0mg"},{"bike_id":"9a31fbf3-06b4-4ad1-9a5d-f9259973980c","system_id":"levelo_inurba_marseille","lat":43.32534,"lon":5.41452,"is_reserved":false,"is_disabled":false,"rental_uris":{"android":"levelo://app?vid=9a31fbf3-06b4-4ad1-9a5d-f9259973980c","ios":"levelo://app?vid=9a31fbf3-06b4-4ad1-9a5d-f9259973980c"},"vehicle_type_id":"4","last_reported":1726913296,"current_range_meters":37600,"station_id":"ce4bhq12rcd13ifvqhhg","pricing_plan_id":"cebpf4jnsgd1na2vs0mg"},{"bike_id":"8cdf3dc5-a77f-42fa-9746-8be3363b0a03","system_id":"levelo_inurba_marseille","lat":43.26955,"lon":5.3863,"is_reserved":false,"is_disabled":false,"rental_uris":{"android":"levelo://app?vid=8cdf3dc5-a77f-42fa-9746-8be3363b0a03","ios":"levelo://app?vid=8cdf3dc5-a77f-42fa-9746-8be3363b0a03"},"vehicle_type_id":"4","last_reported":1726913296,"current_range_meters":18000,"station_id":"ce4bhh92rcd13ifvqfh0","pricing_plan_id":"cebpf4jnsgd1na2vs0mg"},