{"last_updated":1679206213,"ttl":30,"version":"2.2","data":{"bikes":[{"bike_id":"0e40aa24-c817-4a68-8b58-bc06bed7af37","system_id":"levelo_inurba_marseille","lat":43.308858,"lon":5.371967,"is_reserved":false,"is_disabled":false,"rental_uris":{"android":"levelo://app?vid=0e40aa24-c817-4a68-8b58-bc06bed7af37","ios":"levelo://app?vid=0e40aa24-c817-4a68-8b58-bc06bed7af37"},"vehicle_type_id":"4","last_reported":1679206213,"current_range_meters":16800,"station_id":"ce4bguh2rcd13ifvqckg","pricing_plan_id":"free"},{"bike_id":"e8c6e592-c7b2-472b-94dd-b6c2dc58e09e","system_id":"levelo_inurba_marseille","lat":43.3088,"lon":5.37195,"is_reserved":false,"is_disabled":false,"rental_uris":{"android":"levelo://app?vid=e8c6e592-c7b2-472b-94dd-b6c2dc58e09e","ios":"levelo://app?vid=e8c6e592-c7b2-472b-94dd-b6c2dc58e09e"},"vehicle_type_id":"4","last_reported":1679206213,"current_range_meters":0,"station_id":"ce4bguh2rcd13ifvqckg","pricing_plan_id":"free"},{"bike_id":"ab150512-6293-48f5-b21f-2b3fc5ed1cfe","system_id":"levelo_inurba_marseille","lat":43.308786,"lon":5.371969,"is_reserved":false,"is_disabled":false,"rental_uris":{"android":"levelo://app?vid=ab150512-6293-48f5-b21f-2b3fc5ed1cfe","ios":"levelo://app?vid=ab150512-6293-48f5-b21f-2b3fc5ed1cfe"},"vehicle_type_id":"4","last_reported":1679206213,"current_range_meters":0,"station_id":"ce4bguh2rcd13ifvqckg","pricing_plan_id":"free"},{"bike_id":"6f05a800-e36c-4a5f-8b14-42b4d4c0f9b6","system_id":"levelo_inurba_marseille","lat":43.301948,"lon":5.366238,"is_reserved":false,"is_disabled":false,"rental_uris":{"android":"levelo://app?vid=6f05a800-e36c-4a5f-8b14-42b4d4c0f9b6","ios":"levelo://app?vid=6f05a800-e36c-4a5f-8b14-42b4d4c0f9b6"},"vehicle_type_id":"4","last_reported":1679206213,"current_range_meters":0,"station_id":"ce4bgrh2rcd13ifvqc8g","pricing_plan_id":"free"},{"bike_id":"a9cfaa87-a23d-4fb1-bd65-d2298e014788","system_id":"levelo_inurba_marseille","lat":43.308012,"lon":5.381511,"is_reserved":false,"is_disabled":false,"rental_uris":{"android":"levelo://app?vid=a9cfaa87-a23d-4fb1-bd65-d2298e014788","ios":"levelo://app?vid=a9cfaa87-a23d-4fb1-bd65-d2298e014788"},"vehicle_type_id":"4","last_reported":1679206213,"current_range_meters":20400,"station_id":"ce4bgt12rcd13ifvqce0","pricing_plan_id":"free"},{"bike_id":"ae7150ca-3290-4d5f-bc36-312ed988ca20","system_id":"levelo_inurba_marseille","lat":43.304606,"lon":5.379026,"is_reserved":false,"is_disabled":false,"rental_uris":{"android":"levelo://app?vid=ae7150ca-3290-4d5f-bc36-312ed988ca20","ios":"levelo://app?vid=ae7150ca-3290-4d5f-bc36-312ed988ca20"},"vehicle_type_id":"4","last_reported":1679206213,"current_range_meters":24400,"station_id":"ce4bgup2rcd13ifvqcn0","pricing_plan_id":"free"},{"bike_id":"d7682495-7198-498f-b34e-8502c201f731","system_id":"levelo_inurba_marseille","lat":43.301382,"lon":5.374172,"is_reserved":false,"is_disabled":false,"rental_uris":{"android":"levelo://app?vid=d7682495-7198-498f-b34e-8502c201f731","ios":"levelo://app?vid=d7682495-7198-498f-b34e-8502c201f731"},"vehicle_type_id":"4","last_reported":1679206213,"current_range_meters":0,"station_id":"ce4bgs92rcd13ifvqcc0","pricing_plan_id":"free"},{"bike_id":"2e1ce7c4-d48a-4083-b64a-e4fac40d6a65","system_id":"levelo_inurba_marseille","lat":43.30135,"lon":5.374124,"is_reserved":false,"is_disabled":false,"rental_uris":{"android":"levelo://app?vid=2e1ce7c4-d48a-4083-b64a-e4fac40d6a65","ios":"levelo://app?vid=2e1ce7c4-d48a-4083-b64a-e4fac40d6a65"},"vehicle_type_id":"4","last_reported":1679206213,"current_range_meters":0,"station_id":"ce4bgs92rcd13ifvqcc0","pricing_plan_id":"free"},{"bike_id":"d5dec78d-d6b7-4e93-bac1-2209620fbce4","system_id":"levelo_inurba_marseille","lat":43.313571,"lon":5.384829,"is_reserved":false,"is_disabled":false,"rental_uris":{"android":"levelo://app?vid=d5dec78d-d6b7-4e93-bac1-2209620fbce4","ios":"levelo://app?vid=d5dec78d-d6b7-4e93-bac1-2209620fbce4"},"vehicle_type_id":"4","last_reported":1679206213,"current_range_meters":6400,"station_id":"ce4bgt92rcd13ifvqcf0","pricing_plan_id":"free"},{"bike_id":"38e1d3d0-8303-4d39-b587-bd90ae804685","system_id":"levelo_inurba_marseille","lat":43.313571,"lon":5.384829,"is_reserved":false,"is_disabled":false,"rental_uris":{"android":"levelo://app?vid=38e1d3d0-8303-4d39-b587-bd90ae804685","ios":"levelo://app?vid=38e1d3d0-8303-4d39-b587-bd90ae804685"},"vehicle_type_id":"4","last_reported":1679206213,"current_range_meters":5600,"station_id":"ce4bgt92rcd13ifvqcf0","pricing_plan_id":"free"},{"bike_id":"28d24b4b-55cc-44cd-b1bc-be7b35e0cb30","system_id":"levelo_inurba_marseille","lat":43.313571,"lon":5.384829,"is_reserved":false,"is_disabled":false,"rental_uris":{"android":"levelo://app?vid=28d24b4b-55cc-44cd-b1bc-be7b35e0cb30","ios":"levelo://app?vid=28d24b4b-55cc-44cd-b1bc-be7b35e0cb30"},"vehicle_type_id":"4","last_reported":1679206213,"current_range_meters":0,"station_id":"ce4bgt92rcd13ifvqcf0","pricing_plan_id":"free"},{"bike_id":"0ebfb709-cdc2-41c6-b005-5dbfa83d1b7d","system_id":"levelo_inurba_marseille","lat":43.313571,"lon":5.384829,"is_reserved":false,"is_disabled":false,"rental_uris":{"android":"levelo://app?vid=0ebfb709-cdc2-41c6-b005-5dbfa83d1b7d","ios":"levelo://app?vid=0ebfb709-cdc2-41c6-b005-5dbfa83d1b7d"},"vehicle_type_id":"4","last_reported":1679206213,"current_range_meters":23200,"station_id":"ce4bgt92rcd13ifvqcf0","pricing_plan_id":"free"},{"bike_id":"d1be4eec-c540-4f7c-b4ca-a1c8f441f516","system_id":"levelo_inurba_marseille","lat":43.306584,"lon":5.383319,"is_reserved":false,"is_disabled":false,"rental_uris":{"android":"levelo://app?vid=d1be4eec-c540-4f7c-b4ca-a1c8f441f516","ios":"levelo://app?vid=d1be4eec-c540-4f7c-b4ca-a1c8f441f516"},"vehicle_type_id":"4","last_reported":1679206213,"current_range_meters":0,"station_id":"","pricing_plan_id":"free"},{"bike_id":"da607404-61c4-4036-8264-f8eb4773f352","system_id":"levelo_inurba_marseille","lat":43.29851,"lon":5.36288,"is_reserved":false,"is_disabled":false,"rental_uris":{"android":"levelo://app?vid=da607404-61c4-4036-8264-f8eb4773f352","ios":"levelo://app?vid=da607404-61c4-4036-8264-f8eb4773f352"},"vehicle_type_id":"4","last_reported":1679206213,"current_range_meters":0,"station_id":"ce4bgpp2rcd13ifvqc3g","pricing_plan_id":"free"},{"bike_id":"2b5d85bb-efb5-40e8-87f1-9af0a6988303","system_id":"levelo_inurba_marseille","lat":43.298433,"lon":5.362774,"is_reserved":false,"is_disabled":false,"rental_uris":{"android":"levelo://app?vid=2b5d85bb-efb5-40e8-87f1-9af0a6988303","ios":"levelo://app?vid=2b5d85bb-efb5-40e8-87f1-9af0a6988303"},"vehicle_type_id":"4","last_reported":1679206213,"current_range_meters":19600,"station_id":"ce4bgpp2rcd13ifvqc3g","pricing_plan_id":"free"},{"bike_id":"c77f5a1f-2bab-40c9-99fd-0d635774132a","system_id":"levelo_inurba_marseille","lat":43.311722,"lon":5.387247,"is_reserved":false,"is_disabled":false,"rental_uris":{"android":"levelo://app?vid=c77f5a1f-2bab-40c9-99fd-0d635774132a","ios":"levelo://app?vid=c77f5a1f-2bab-40c9-99fd-0d635774132a"},"vehicle_type_id":"4","last_reported":1679206213,"current_range_meters":26800,"station_id":"ce4bgv12rcd13ifvqcp0","pricing_plan_id":"free"},{"bike_id":"08239fb6-1642-41e5-9d5d-4096adeded1c","system_id":"levelo_inurba_marseille","lat":43.299139,"lon":5.374709,"is_reserved":false,"is_disabled":false,"rental_uris":{"android":"levelo://app?vid=08239fb6-1642-41e5-9d5d-4096adeded1c","ios":"levelo://app?vid=08239fb6-1642-41e5-9d5d-4096adeded1c"},"vehicle_type_id":"4","last_reported":1679206213,"current_range_meters":29600,"station_id":"ce4bgjh2rcd13ifvqbg0","pricing_plan_id":"free"},{"bike_id":"1f26d716-302e-4a39-a08e-f701c177217c","system_id":"levelo_inurba_marseille","lat":43.311722,"lon":5.387247,"is_reserved":false,"is_disabled":false,"rental_uris":{"android":"levelo://app?vid=1f26d716-302e-4a39-a08e-f701c177217c","ios":"levelo://app?vid=1f26d716-302e-4a39-a08e-f701c177217c"},"vehicle_type_id":"4","last_reported":1679206213,"current_range_meters":29200,"station_id":"ce4bgv12rcd13ifvqcp0","pricing_plan_id":"free"},{"bike_id":"a3773d6e-ec28-463e-8ece-501a1b16c2bd","system_id":"levelo_inurba_marseille","lat":43.29912,"lon":5.374716,"is_reserved":false,"is_disabled":false,"rental_uris":{"android":"levelo://app?vid=a3773d6e-ec28-463e-8ece-501a1b16c2bd","ios":"levelo://app?vid=a3773d6e-ec28-463e-8ece-501a1b16c2bd"},"vehicle_type_id":"4","last_reported":1679206213,"current_range_meters":11600,"station_id":"","pricing_plan_id":"free"},{"bike_id":"64c51bb0-af1a-4874-8945-3e97236943ae","system_id":"levelo_inurba_marseille","lat":43.297224,"lon":5.37688,"is_reserved":false,"is_disabled":false,"rental_uris":{"android":"levelo://app?vid=64c51bb0-af1a-4874-8945-3e97236943ae","ios":"levelo://app?vid=64c51bb0-af1a-4874-8945-3e97236943ae"},"vehicle_type_id":"4","last_reported":1679206213,"current_range_meters":0,"station_id":"","pricing_plan_id":"free"},{"bike_id":"0c54e445-7bfc-49da-99c0-e5f65aaded26","system_id":"levelo_inurba_marseille","lat":43.296921,"lon":5.376579,"is_reserved":false,"is_disabled":false,"rental_uris":{"android":"levelo://app?vid=0c54e445-7bfc-49da-99c0-e5f65aaded26","ios":"levelo://app?vid=0c54e445-7bfc-49da-99c0-e5f65aaded26"},"vehicle_type_id":"4","last_reported":1679206213,"current_range_meters":26400,"station_id":"ce4bgkh2rcd13ifvqbl0","pricing_plan_id":"free"},{"bike_id":"340b127a-7d6c-4fd9-87ff-090a6dda213f","system_id":"levelo_inurba_marseille","lat":43.299028,"lon":5.381509,"is_reserved":false,"is_disabled":false,"rental_uris":{"android":"levelo://app?vid=340b127a-7d6c-4fd9-87ff-090a6dda213f","ios":"levelo://app?vid=340b127a-7d6c-4fd9-87ff-090a6dda213f"},"vehicle_type_id":"4","last_reported":1679206213,"current_range_meters":24000,"station_id":"ce4bgj12rcd13ifvqbc0","pricing_plan_id":"free"},{"bike_id":"7acf979e-3c86-4160-b8d9-bf7af2b894b1","system_id":"levelo_inurba_marseille","lat":43.317571,"lon":5.390167,"is_reserved":false,"is_disabled":false,"rental_uris":{"android":"levelo://app?vid=7acf979e-3c86-4160-b8d9-bf7af2b894b1","ios":"levelo://app?vid=7acf979e-3c86-4160-b8d9-bf7af2b894b1"},"vehicle_type_id":"4","last_reported":1679206213,"current_range_meters":0,"station_id":"","pricing_plan_id":"free"},{"bike_id":"290b4b5e-eb3f-49ec-aad1-07388eaf59f4","system_id":"levelo_inurba_marseille","lat":43.298037,"lon":5.381066,"is_reserved":false,"is_disabled":false,"rental_uris":{"android":"levelo://app?vid=290b4b5e-eb3f-49ec-aad1-07388eaf59f4","ios":"levelo://app?vid=290b4b5e-eb3f-49ec-aad1-07388eaf59f4"},"vehicle_type_id":"4","last_reported":1679206213,"current_range_meters":0,"station_id":"ce4bgip2rcd13ifvqbb0","pricing_plan_id":"free"},{"bike_id":"5d7b9ed6-ccba-4037-a625-c68d8bc9e0ea","system_id":"levelo_inurba_marseille","lat":43.297943,"lon":5.380887,"is_reserved":false,"is_disabled":false,"rental_uris":{"android":"levelo://app?vid=5d7b9ed6-ccba-4037-a625-c68d8bc9e0ea","ios":"levelo://app?vid=5d7b9ed6-ccba-4037-a625-c68d8bc9e0ea"},"vehicle_type_id":"4","last_reported":1679206213,"current_range_meters":0,"station_id":"ce4bgip2rcd13ifvqbb0","pricing_plan_id":"free"},{"bike_id":"f397f011-1728-4e13-93ab-dd6f4bd09596","system_id":"levelo_inurba_marseille","lat":43.297928,"lon":5.380878,"is_reserved":false,"is_disabled":false,"rental_uris":{"android":"levelo://app?vid=f397f011-1728-4e13-93ab-dd6f4bd09596","ios":"levelo://app?vid=f397f011-1728-4e13-93ab-dd6f4bd09596"},"vehicle_type_id":"4","last_reported":1679206213,"current_range_meters":0,"station_id":"","pricing_plan_id":"free"},{"bike_id":"f27a6d47-7010-46f4-a826-b1ce0f1d13b3","system_id":"levelo_inurba_marseille","lat":43.295748,"lon":5.37522,"is_reserved":false,"is_disabled":false,"rental_uris":{"android":"levelo://app?vid=f27a6d47-7010-46f4-a826-b1ce0f1d13b3","ios":"levelo://app?vid=f27a6d47-7010-46f4-a826-b1ce0f1d13b3"},"vehicle_type_id":"4","last_reported":1679206213,"current_range_meters":31600,"station_id":"ce4bgh92rcd13ifvqb50","pricing_plan_id":"free"},{"bike_id":"530ac6b8-7630-4f54-94a2-997abf97ae3e","system_id":"levelo_inurba_marseille","lat":43.299716,"lon":5.384948,"is_reserved":false,"is_disabled":false,"rental_uris":{"android":"levelo://app?vid=530ac6b8-7630-4f54-94a2-997abf97ae3e","ios":"levelo://app?vid=530ac6b8-7630-4f54-94a2-997abf97ae3e"},"vehicle_type_id":"4","last_reported":1679206213,"current_range_meters":0,"station_id":"ce4bgj92rcd13ifvqbd0","pricing_plan_id":"free"},{"bike_id":"5971bedb-4e55-4cca-a827-15c1c85bce63","system_id":"levelo_inurba_marseille","lat":43.29968,"lon":5.384947,"is_reserved":false,"is_disabled":false,"rental_uris":{"android":"levelo://app?vid=5971bedb-4e55-4cca-a827-15c1c85bce63","ios":"levelo://app?vid=5971bedb-4e55-4cca-a827-15c1c85bce63"},"vehicle_type_id":"4","last_reported":1679206213,"current_range_meters":0,"station_id":"","pricing_plan_id":"free"},{"bike_id":"0ee17032-ad2e-4291-899b-1b72f2f34597","system_id":"levelo_inurba_marseille","lat":43.32358,"lon":5.38873,"is_reserved":false,"is_disabled":false,"rental_uris":{"android":"levelo://app?vid=0ee17032-ad2e-4291-899b-1b72f2f34597","ios":"levelo://app?vid=0ee17032-ad2e-4291-899b-1b72f2f34597"},"vehicle_type_id":"4","last_reported":1679206213,"current_range_meters":0,"station_id":"","pricing_plan_id":"free"},{"bike_id":"90745e93-3e4e-4248-af91-77f98ca477a1","system_id":"levelo_inurba_marseille","lat":43.323616,"lon":5.388773,"is_reserved":false,"is_disabled":false,"rental_uris":{"android":"levelo://app?vid=90745e93-3e4e-4248-af91-77f98ca477a1","ios":"levelo://app?vid=90745e93-3e4e-4248-af91-77f98ca477a1"},"vehicle_type_id":"4","last_reported":1679206213,"current_range_meters":20000,"station_id":"ce4bhqp2rcd13ifvqhog","pricing_plan_id":"free"},{"bike_id":"8ee722c3-cfd3-40d6-953f-42f233fdf582","system_id":"levelo_inurba_marseille","lat":43.323593,"lon":5.388802,"is_reserved":false,"is_disabled":false,"rental_uris":{"android":"levelo://app?vid=8ee722c3-cfd3-40d6-953f-42f233fdf582","ios":"levelo://app?vid=8ee722c3-cfd3-40d6-953f-42f233fdf582"},"vehicle_type_id":"4","last_reported":1679206213,"current_range_meters":18800,"station_id":"ce4bhqp2rcd13ifvqhog","pricing_plan_id":"free"},{"bike_id":"deb37c96-3348-4d98-a426-72a96f26f7ee","system_id":"levelo_inurba_marseille","lat":43.3236,"lon":5.38886,"is_reserved":false,"is_disabled":false,"rental_uris":{"android":"levelo://app?vid=deb37c96-3348-4d98-a426-72a96f26f7ee","ios":"levelo://app?vid=deb37c96-3348-4d98-a426-72a96f26f7ee"},"vehicle_type_id":"4","last_reported":1679206213,"current_range_meters":0,"station_id":"ce4bhqp2rcd13ifvqhog","pricing_plan_id":"free"},{"bike_id":"40dcf835-58c7-406a-8fb1-1b5823f9644d","system_id":"levelo_inurba_marseille","lat":43.32367,"lon":5.388836,"is_reserved":false,"is_disabled":false,"rental_uris":{"android":"levelo://app?vid=40dcf835-58c7-406a-8fb1-1b5823f9644d","ios":"levelo://app?vid=40dcf835-58c7-406a-8fb1-1b5823f9644d"},"vehicle_type_id":"4","last_reported":1679206213,"current_range_meters":4400,"station_id":"ce4bhqp2rcd13ifvqhog","pricing_plan_id":"free"},{"bike_id":"4acf4a6e-610b-4acb-b648-9bcdf0839ce4","system_id":"levelo_inurba_marseille","lat":43.32367,"lon":5.388836,"is_reserved":false,"is_disabled":false,"rental_uris":{"android":"levelo://app?vid=4acf4a6e-610b-4acb-b648-9bcdf0839ce4","ios":"levelo://app?vid=4acf4a6e-610b-4acb-b648-9bcdf0839ce4"},"vehicle_type_id":"4","last_reported":1679206213,"current_range_meters":1200,"station_id":"ce4bhqp2rcd13ifvqhog","pricing_plan_id":"free"},{"bike_id":"4385a8c2-fe29-43d4-9bc6-b3c21db78f50","system_id":"levelo_inurba_marseille","lat":43.32367,"lon":5.388836,"is_reserved":false,"is_disabled":false,"rental_uris":{"android":"levelo://app?vid=4385a8c2-fe29-43d4-9bc6-b3c21db78f50","ios":"levelo://app?vid=4385a8c2-fe29-43d4-9bc6-b3c21db78f50"},"vehicle_type_id":"4","last_reported":1679206213,"current_range_meters":20000,"station_id":"ce4bhqp2rcd13ifvqhog","pricing_plan_id":"free"},{"bike_id":"c015391a-d7df-4587-88e5-2a7d9d11f067","system_id":"levelo_inurba_marseille","lat":43.292311,"lon":5.360731,"is_reserved":false,"is_disabled":false,"rental_uris":{"android":"levelo://app?vid=c015391a-d7df-4587-88e5-2a7d9d11f067","ios":"levelo://app?vid=c015391a-d7df-4587-88e5-2a7d9d11f067"},"vehicle_type_id":"4","last_reported":1679206213,"current_range_meters":16400,"station_id":"ce4bhbh2rcd13ifvqeqg","pricing_plan_id":"free"},{"bike_id":"e0e07516-7608-4c2d-9eff-97d1a1a1d982","system_id":"levelo_inurba_marseille","lat":43.291705,"lon":5.371509,"is_reserved":false,"is_disabled":false,"rental_uris":{"android":"levelo://app?vid=e0e07516-7608-4c2d-9eff-97d1a1a1d982","ios":"levelo://app?vid=e0e07516-7608-4c2d-9eff-97d1a1a1d982"},"vehicle_type_id":"4","last_reported":1679206213,"current_range_meters":0,"station_id":"ce4bha92rcd13ifvqeh0","pricing_plan_id":"free"},{"bike_id":"4bb104ff-e71b-441f-acf3-b8bedfc91b87","system_id":"levelo_inurba_marseille","lat":43.313291,"lon":5.396838,"is_reserved":false,"is_disabled":false,"rental_uris":{"android":"levelo://app?vid=4bb104ff-e71b-441f-acf3-b8bedfc91b87","ios":"levelo://app?vid=4bb104ff-e71b-441f-acf3-b8bedfc91b87"},"vehicle_type_id":"4","last_reported":1679206213,"current_range_meters":9600,"station_id":"ce4bgvp2rcd13ifvqcu0","pricing_plan_id":"free"},{"bike_id":"5e7bb4b2-9a32-4e35-8a7b-1ec22b0f3c36","system_id":"levelo_inurba_marseille","lat":43.313291,"lon":5.396838,"is_reserved":false,"is_disabled":false,"rental_uris":{"android":"levelo://app?vid=5e7bb4b2-9a32-4e35-8a7b-1ec22b0f3c36","ios":"levelo://app?vid=5e7bb4b2-9a32-4e35-8a7b-1ec22b0f3c36"},"vehicle_type_id":"4","last_reported":1679206213,"current_range_meters":6800,"station_id":"ce4bgvp2rcd13ifvqcu0","pricing_plan_id":"free"},{"bike_id":"38f52feb-5617-4a38-a15a-097f48d35d12","system_id":"levelo_inurba_marseille","lat":43.29529,"lon":5.385581,"is_reserved":false,"is_disabled":false,"rental_uris":{"android":"levelo://app?vid=38f52feb-5617-4a38-a15a-097f48d35d12","ios":"levelo://app?vid=38f52feb-5617-4a38-a15a-097f48d35d12"},"vehicle_type_id":"4","last_reported":1679206213,"current_range_meters":22000,"station_id":"ce4bgih2rcd13ifvqba0","pricing_plan_id":"free"},{"bike_id":"cf004b89-b04f-4b26-bd89-97665131d64b","system_id":"levelo_inurba_marseille","lat":43.29531,"lon":5.385357,"is_reserved":false,"is_disabled":false,"rental_uris":{"android":"levelo://app?vid=cf004b89-b04f-4b26-bd89-97665131d64b","ios":"levelo://app?vid=cf004b89-b04f-4b26-bd89-97665131d64b"},"vehicle_type_id":"4","last_reported":1679206213,"current_range_meters":15200,"station_id":"ce4bgih2rcd13ifvqba0","pricing_plan_id":"free"},{"bike_id":"d17f6db4-bdfe-44db-861f-8c2eeb76ea5b","system_id":"levelo_inurba_marseille","lat":43.29529,"lon":5.385581,"is_reserved":false,"is_disabled":false,"rental_uris":{"android":"levelo://app?vid=d17f6db4-bdfe-44db-861f-8c2eeb76ea5b","ios":"levelo://app?vid=d17f6db4-bdfe-44db-861f-8c2eeb76ea5b"},"vehicle_type_id":"4","last_reported":1679206213,"current_range_meters":18800,"station_id":"ce4bgih2rcd13ifvqba0","pricing_plan_id":"free"},{"bike_id":"a85bd6ba-f8cf-4103-bc98-33b80e2f9066","system_id":"levelo_inurba_marseille","lat":43.302008,"lon":5.394694,"is_reserved":false,"is_disabled":false,"rental_uris":{"android":"levelo://app?vid=a85bd6ba-f8cf-4103-bc98-33b80e2f9066","ios":"levelo://app?vid=a85bd6ba-f8cf-4103-bc98-33b80e2f9066"},"vehicle_type_id":"4","last_reported":1679206213,"current_range_meters":16400,"station_id":"ce4bh0p2rcd13ifvqd70","pricing_plan_id":"free"},{"bike_id":"a423d05a-8db8-4a4f-814d-1b13333b4bb8","system_id":"levelo_inurba_marseille","lat":43.294162,"lon":5.386292,"is_reserved":false,"is_disabled":false,"rental_uris":{"android":"levelo://app?vid=a423d05a-8db8-4a4f-814d-1b13333b4bb8","ios":"levelo://app?vid=a423d05a-8db8-4a4f-814d-1b13333b4bb8"},"vehicle_type_id":"4","last_reported":1679206213,"current_range_meters":26400,"station_id":"ce4bh2h2rcd13ifvqdh0","pricing_plan_id":"free"},{"bike_id":"4b18246c-5701-4218-a109-3933fbf0d285","system_id":"levelo_inurba_marseille","lat":43.304274,"lon":5.397513,"is_reserved":false,"is_disabled":false,"rental_uris":{"android":"levelo://app?vid=4b18246c-5701-4218-a109-3933fbf0d285","ios":"levelo://app?vid=4b18246c-5701-4218-a109-3933fbf0d285"},"vehicle_type_id":"4","last_reported":1679206213,"current_range_meters":0,"station_id":"ce4bh092rcd13ifvqd20","pricing_plan_id":"free"},{"bike_id":"fbc0f319-fc8b-4edb-b634-85342745d5be","system_id":"levelo_inurba_marseille","lat":43.304274,"lon":5.397513,"is_reserved":false,"is_disabled":false,"rental_uris":{"android":"levelo://app?vid=fbc0f319-fc8b-4edb-b634-85342745d5be","ios":"levelo://app?vid=fbc0f319-fc8b-4edb-b634-85342745d5be"},"vehicle_type_id":"4","last_reported":1679206213,"current_range_meters":12000,"station_id":"ce4bh092rcd13ifvqd20","pricing_plan_id":"free"},{"bike_id":"3ef5c721-c142-4987-b996-49b82317e027","system_id":"levelo_inurba_marseille","lat":43.330442,"lon":5.389148,"is_reserved":false,"is_disabled":false,"rental_uris":{"android":"levelo://app?vid=3ef5c721-c142-4987-b996-49b82317e027","ios":"levelo://app?vid=3ef5c721-c142-4987-b996-49b82317e027"},"vehicle_type_id":"4","last_reported":1679206213,"current_range_meters":6000,"station_id":"ce4bhr92rcd13ifvqhrg","pricing_plan_id":"free"},{"bike_id":"621c087d-85cc-4eaa-b933-04755e299abb","system_id":"levelo_inurba_marseille","lat":43.330442,"lon":5.389148,"is_reserved":false,"is_disabled":false,"rental_uris":{"android":"levelo://app?vid=621c087d-85cc-4eaa-b933-04755e299abb","ios":"levelo://app?vid=621c087d-85cc-4eaa-b933-04755e299abb"},"vehicle_type_id":"4","last_reported":1679206213,"current_range_meters":4000,"station_id":"ce4bhr92rcd13ifvqhrg","pricing_plan_id":"free"},{"bike_id":"28cb8c96-fbff-4e6f-b114-7355be64be23","system_id":"levelo_inurba_marseille","lat":43.330442,"lon":5.389148,"is_reserved":false,"is_disabled":false,"rental_uris":{"android":"levelo://app?vid=28cb8c96-fbff-4e6f-b114-7355be64be23","ios":"levelo://app?vid=28cb8c96-fbff-4e6f-b114-7355be64be23"},"vehicle_type_id":"4","last_reported":1679206213,"current_range_meters":800,"station_id":"ce4bhr92rcd13ifvqhrg","pricing_plan_id":"free"},{"bike_id":"12902cad-e82a-46a8-9b7a-3efa53f1dd33","system_id":"levelo_inurba_marseille","lat":43.290104,"lon":5.356111,"is_reserved":false,"is_disabled":false,"rental_uris":{"android":"levelo://app?vid=12902cad-e82a-46a8-9b7a-3efa53f1dd33","ios":"levelo://app?vid=12902cad-e82a-46a8-9b7a-3efa53f1dd33"},"vehicle_type_id":"4","last_reported":1679206213,"current_range_meters":0,"station_id":"ce4bhb92rcd13ifvqen0","pricing_plan_id":"free"},{"bike_id":"8deab279-61c1-4184-8d8f-7bdd4a1092d8","system_id":"levelo_inurba_marseille","lat":43.29042,"lon":5.37955,"is_reserved":false,"is_disabled":false,"rental_uris":{"android":"levelo://app?vid=8deab279-61c1-4184-8d8f-7bdd4a1092d8","ios":"levelo://app?vid=8deab279-61c1-4184-8d8f-7bdd4a1092d8"},"vehicle_type_id":"4","last_reported":1679206213,"current_range_meters":7200,"station_id":"ce4bhq92rcd13ifvqhjg","pricing_plan_id":"free"},{"bike_id":"f0888a5d-8469-4a4a-aa32-e51183159fbe","system_id":"levelo_inurba_marseille","lat":43.337455,"lon":5.374605,"is_reserved":false,"is_disabled":false,"rental_uris":{"android":"levelo://app?vid=f0888a5d-8469-4a4a-aa32-e51183159fbe","ios":"levelo://app?vid=f0888a5d-8469-4a4a-aa32-e51183159fbe"},"vehicle_type_id":"4","last_reported":1679206213,"current_range_meters":8400,"station_id":"","pricing_plan_id":"free"},{"bike_id":"3691d997-1cad-46ed-b7e6-586680d35f2f","system_id":"levelo_inurba_marseille","lat":43.337456,"lon":5.374633,"is_reserved":false,"is_disabled":false,"rental_uris":{"android":"levelo://app?vid=3691d997-1cad-46ed-b7e6-586680d35f2f","ios":"levelo://app?vid=3691d997-1cad-46ed-b7e6-586680d35f2f"},"vehicle_type_id":"4","last_reported":1679206213,"current_range_meters":18400,"station_id":"ce4rr2p2rcd13i802rgg","pricing_plan_id":"free"},{"bike_id":"8f276feb-a1ca-4082-9028-3a29bbce3b41","system_id":"levelo_inurba_marseille","lat":43.306605,"lon":5.400889,"is_reserved":false,"is_disabled":false,"rental_uris":{"android":"levelo://app?vid=8f276feb-a1ca-4082-9028-3a29bbce3b41","ios":"levelo://app?vid=8f276feb-a1ca-4082-9028-3a29bbce3b41"},"vehicle_type_id":"4","last_reported":1679206213,"current_range_meters":0,"station_id":"","pricing_plan_id":"free"},{"bike_id":"f3e60a9c-2b74-43cb-ac11-5dfafdbb73c0","system_id":"levelo_inurba_marseille","lat":43.337608,"lon":5.374659,"is_reserved":false,"is_disabled":false,"rental_uris":{"android":"levelo://app?vid=f3e60a9c-2b74-43cb-ac11-5dfafdbb73c0","ios":"levelo://app?vid=f3e60a9c-2b74-43cb-ac11-5dfafdbb73c0"},"vehicle_type_id":"4","last_reported":1679206213,"current_range_meters":23200,"station_id":"","pricing_plan_id":"free"},{"bike_id":"b314ca6c-bf78-43e4-96f9-c107c0bfeb04","system_id":"levelo_inurba_marseille","lat":43.29525,"lon":5.39397,"is_reserved":false,"is_disabled":false,"rental_uris":{"android":"levelo://app?vid=b314ca6c-bf78-43e4-96f9-c107c0bfeb04","ios":"levelo://app?vid=b314ca6c-bf78-43e4-96f9-c107c0bfeb04"},"vehicle_type_id":"4","last_reported":1679206213,"current_range_meters":27200,"station_id":"ce4bh212rcd13ifvqde0","pricing_plan_id":"free"},{"bike_id":"7aade30f-6a06-4b4a-b5bb-f0ce4847b5bc","system_id":"levelo_inurba_marseille","lat":43.295214,"lon":5.393974,"is_reserved":false,"is_disabled":false,"rental_uris":{"android":"levelo://app?vid=7aade30f-6a06-4b4a-b5bb-f0ce4847b5bc","ios":"levelo://app?vid=7aade30f-6a06-4b4a-b5bb-f0ce4847b5bc"},"vehicle_type_id":"4","last_reported":1679206213,"current_range_meters":29200,"station_id":"ce4bh212rcd13ifvqde0","pricing_plan_id":"free"},{"bike_id":"66142b33-bb4d-4e97-94c5-fdbb02ef59a0","system_id":"levelo_inurba_marseille","lat":43.287158,"lon":5.379459,"is_reserved":false,"is_disabled":false,"rental_uris":{"android":"levelo://app?vid=66142b33-bb4d-4e97-94c5-fdbb02ef59a0","ios":"levelo://app?vid=66142b33-bb4d-4e97-94c5-fdbb02ef59a0"},"vehicle_type_id":"4","last_reported":1679206213,"current_range_meters":24400,"station_id":"ce4bh9p2rcd13ifvqec0","pricing_plan_id":"free"},{"bike_id":"af89031f-0f64-4687-bb3f-f66993b3d859","system_id":"levelo_inurba_marseille","lat":43.316517,"lon":5.404375,"is_reserved":false,"is_disabled":false,"rental_uris":{"android":"levelo://app?vid=af89031f-0f64-4687-bb3f-f66993b3d859","ios":"levelo://app?vid=af89031f-0f64-4687-bb3f-f66993b3d859"},"vehicle_type_id":"4","last_reported":1679206213,"current_range_meters":0,"station_id":"ce4bh012rcd13ifvqd00","pricing_plan_id":"free"},{"bike_id":"4a33ba6f-5260-41cd-80ca-e6c65b6e0ffe","system_id":"levelo_inurba_marseille","lat":43.284624,"lon":5.35887,"is_reserved":false,"is_disabled":false,"rental_uris":{"android":"levelo://app?vid=4a33ba6f-5260-41cd-80ca-e6c65b6e0ffe","ios":"levelo://app?vid=4a33ba6f-5260-41cd-80ca-e6c65b6e0ffe"},"vehicle_type_id":"4","last_reported":1679206213,"current_range_meters":16800,"station_id":"ce4bhah2rcd13ifvqei0","pricing_plan_id":"free"},{"bike_id":"69369127-0e10-4a2a-bfa6-d3fea35247e0","system_id":"levelo_inurba_marseille","lat":43.284534,"lon":5.358662,"is_reserved":false,"is_disabled":false,"rental_uris":{"android":"levelo://app?vid=69369127-0e10-4a2a-bfa6-d3fea35247e0","ios":"levelo://app?vid=69369127-0e10-4a2a-bfa6-d3fea35247e0"},"vehicle_type_id":"4","last_reported":1679206213,"current_range_meters":2800,"station_id":"ce4bhah2rcd13ifvqei0","pricing_plan_id":"free"},{"bike_id":"8dea6371-7d34-4cd7-b537-0610574c1987","system_id":"levelo_inurba_marseille","lat":43.284534,"lon":5.358662,"is_reserved":false,"is_disabled":false,"rental_uris":{"android":"levelo://app?vid=8dea6371-7d34-4cd7-b537-0610574c1987","ios":"levelo://app?vid=8dea6371-7d34-4cd7-b537-0610574c1987"},"vehicle_type_id":"4","last_reported":1679206213,"current_range_meters":14800,"station_id":"ce4bhah2rcd13ifvqei0","pricing_plan_id":"free"},{"bike_id":"9a5b6c2b-edf4-4a86-9878-4f70f3050e75","system_id":"levelo_inurba_marseille","lat":43.33717,"lon":5.391857,"is_reserved":false,"is_disabled":false,"rental_uris":{"android":"levelo://app?vid=9a5b6c2b-edf4-4a86-9878-4f70f3050e75","ios":"levelo://app?vid=9a5b6c2b-edf4-4a86-9878-4f70f3050e75"},"vehicle_type_id":"4","last_reported":1679206213,"current_range_meters":16400,"station_id":"ce4bhr92rcd13ifvqhsg","pricing_plan_id":"free"},{"bike_id":"2256a0a0-f5f3-4f95-bc79-2ee019fd15f3","system_id":"levelo_inurba_marseille","lat":43.323393,"lon":5.406207,"is_reserved":false,"is_disabled":false,"rental_uris":{"android":"levelo://app?vid=2256a0a0-f5f3-4f95-bc79-2ee019fd15f3","ios":"levelo://app?vid=2256a0a0-f5f3-4f95-bc79-2ee019fd15f3"},"vehicle_type_id":"4","last_reported":1679206213,"current_range_meters":11600,"station_id":"","pricing_plan_id":"free"},{"bike_id":"3aefbdbc-5f38-4591-979a-6173272a0a4f","system_id":"levelo_inurba_marseille","lat":43.323403,"lon":5.406224,"is_reserved":false,"is_disabled":false,"rental_uris":{"android":"levelo://app?vid=3aefbdbc-5f38-4591-979a-6173272a0a4f","ios":"levelo://app?vid=3aefbdbc-5f38-4591-979a-6173272a0a4f"},"vehicle_type_id":"4","last_reported":1679206213,"current_range_meters":4400,"station_id":"","pricing_plan_id":"free"},{"bike_id":"9c60675f-f5c2-4bfa-a718-bce2bc04f161","system_id":"levelo_inurba_marseille","lat":43.28487,"lon":5.38427,"is_reserved":false,"is_disabled":false,"rental_uris":{"android":"levelo://app?vid=9c60675f-f5c2-4bfa-a718-bce2bc04f161","ios":"levelo://app?vid=9c60675f-f5c2-4bfa-a718-bce2bc04f161"},"vehicle_type_id":"4","last_reported":1679206213,"current_range_meters":19200,"station_id":"","pricing_plan_id":"free"},{"bike_id":"30e442ed-2291-46fc-a5e0-83d3f5983b43","system_id":"levelo_inurba_marseille","lat":43.284219,"lon":5.3497,"is_reserved":false,"is_disabled":false,"rental_uris":{"android":"levelo://app?vid=30e442ed-2291-46fc-a5e0-83d3f5983b43","ios":"levelo://app?vid=30e442ed-2291-46fc-a5e0-83d3f5983b43"},"vehicle_type_id":"4","last_reported":1679206213,"current_range_meters":24400,"station_id":"ce4bhbh2rcd13ifvqepg","pricing_plan_id":"free"},{"bike_id":"c0a2a658-41d7-4335-9ab5-ee428580e2e7","system_id":"levelo_inurba_marseille","lat":43.29028,"lon":5.39716,"is_reserved":false,"is_disabled":false,"rental_uris":{"android":"levelo://app?vid=c0a2a658-41d7-4335-9ab5-ee428580e2e7","ios":"levelo://app?vid=c0a2a658-41d7-4335-9ab5-ee428580e2e7"},"vehicle_type_id":"4","last_reported":1679206213,"current_range_meters":22000,"station_id":"","pricing_plan_id":"free"},{"bike_id":"bcfa0c60-e34d-4642-beb1-ff3bc246d123","system_id":"levelo_inurba_marseille","lat":43.289363,"lon":5.396322,"is_reserved":false,"is_disabled":false,"rental_uris":{"android":"levelo://app?vid=bcfa0c60-e34d-4642-beb1-ff3bc246d123","ios":"levelo://app?vid=bcfa0c60-e34d-4642-beb1-ff3bc246d123"},"vehicle_type_id":"4","last_reported":1679206213,"current_range_meters":24400,"station_id":"ce4bh3h2rcd13ifvqdn0","pricing_plan_id":"free"},{"bike_id":"7114efc9-1e5c-427f-aea5-3dc4341a60eb","system_id":"levelo_inurba_marseille","lat":43.28268,"lon":5.35056,"is_reserved":false,"is_disabled":false,"rental_uris":{"android":"levelo://app?vid=7114efc9-1e5c-427f-aea5-3dc4341a60eb","ios":"levelo://app?vid=7114efc9-1e5c-427f-aea5-3dc4341a60eb"},"vehicle_type_id":"4","last_reported":1679206213,"current_range_meters":24400,"station_id":"ce4bhbp2rcd13ifvqerg","pricing_plan_id":"free"},{"bike_id":"5fbaac0b-b1a7-4fb6-892f-6765b89162ae","system_id":"levelo_inurba_marseille","lat":43.282754,"lon":5.350519,"is_reserved":false,"is_disabled":false,"rental_uris":{"android":"levelo://app?vid=5fbaac0b-b1a7-4fb6-892f-6765b89162ae","ios":"levelo://app?vid=5fbaac0b-b1a7-4fb6-892f-6765b89162ae"},"vehicle_type_id":"4","last_reported":1679206213,"current_range_meters":20800,"station_id":"ce4bhbp2rcd13ifvqerg","pricing_plan_id":"free"},{"bike_id":"28166477-521a-4463-8ffa-86ada9ca48a9","system_id":"levelo_inurba_marseille","lat":43.280382,"lon":5.369291,"is_reserved":false,"is_disabled":false,"rental_uris":{"android":"levelo://app?vid=28166477-521a-4463-8ffa-86ada9ca48a9","ios":"levelo://app?vid=28166477-521a-4463-8ffa-86ada9ca48a9"},"vehicle_type_id":"4","last_reported":1679206213,"current_range_meters":30400,"station_id":"ce4bha12rcd13ifvqef0","pricing_plan_id":"free"},{"bike_id":"0d46bf8c-db8d-4520-9741-60d3273b9381","system_id":"levelo_inurba_marseille","lat":43.290546,"lon":5.39955,"is_reserved":false,"is_disabled":false,"rental_uris":{"android":"levelo://app?vid=0d46bf8c-db8d-4520-9741-60d3273b9381","ios":"levelo://app?vid=0d46bf8c-db8d-4520-9741-60d3273b9381"},"vehicle_type_id":"4","last_reported":1679206213,"current_range_meters":16000,"station_id":"ce4bh392rcd13ifvqdm0","pricing_plan_id":"free"},{"bike_id":"4b6ab50f-d36a-42a6-be34-ab21211f1219","system_id":"levelo_inurba_marseille","lat":43.29041,"lon":5.399634,"is_reserved":false,"is_disabled":false,"rental_uris":{"android":"levelo://app?vid=4b6ab50f-d36a-42a6-be34-ab21211f1219","ios":"levelo://app?vid=4b6ab50f-d36a-42a6-be34-ab21211f1219"},"vehicle_type_id":"4","last_reported":1679206213,"current_range_meters":30800,"station_id":"ce4bh392rcd13ifvqdm0","pricing_plan_id":"free"},{"bike_id":"3844650d-2ae6-4763-b855-567cbcd308b2","system_id":"levelo_inurba_marseille","lat":43.290412,"lon":5.399633,"is_reserved":false,"is_disabled":false,"rental_uris":{"android":"levelo://app?vid=3844650d-2ae6-4763-b855-567cbcd308b2","ios":"levelo://app?vid=3844650d-2ae6-4763-b855-567cbcd308b2"},"vehicle_type_id":"4","last_reported":1679206213,"current_range_meters":27200,"station_id":"ce4bh392rcd13ifvqdm0","pricing_plan_id":"free"},{"bike_id":"928f8bb9-e5ee-4ccc-9416-49a7220d6cdf","system_id":"levelo_inurba_marseille","lat":43.29041,"lon":5.399634,"is_reserved":false,"is_disabled":false,"rental_uris":{"android":"levelo://app?vid=928f8bb9-e5ee-4ccc-9416-49a7220d6cdf","ios":"levelo://app?vid=928f8bb9-e5ee-4ccc-9416-49a7220d6cdf"},"vehicle_type_id":"4","last_reported":1679206213,"current_range_meters":20000,"station_id":"ce4bh392rcd13ifvqdm0","pricing_plan_id":"free"},{"bike_id":"09637bc8-273c-4e91-916b-8c879b4aeee8","system_id":"levelo_inurba_marseille","lat":43.29041,"lon":5.399634,"is_reserved":false,"is_disabled":false,"rental_uris":{"android":"levelo://app?vid=09637bc8-273c-4e91-916b-8c879b4aeee8","ios":"levelo://app?vid=09637bc8-273c-4e91-916b-8c879b4aeee8"},"vehicle_type_id":"4","last_reported":1679206213,"current_range_meters":26400,"station_id":"ce4bh392rcd13ifvqdm0","pricing_plan_id":"free"},{"bike_id":"45e362b4-6785-4ea2-8aec-f99ea591a21b","system_id":"levelo_inurba_marseille","lat":43.287154,"lon":5.399979,"is_reserved":false,"is_disabled":false,"rental_uris":{"android":"levelo://app?vid=45e362b4-6785-4ea2-8aec-f99ea591a21b","ios":"levelo://app?vid=45e362b4-6785-4ea2-8aec-f99ea591a21b"},"vehicle_type_id":"4","last_reported":1679206213,"current_range_meters":27200,"station_id":"ce4bho92rcd13ifvqh3g","pricing_plan_id":"free"},{"bike_id":"941f277a-713f-4f45-8690-4454f1982976","system_id":"levelo_inurba_marseille","lat":43.287154,"lon":5.399979,"is_reserved":false,"is_disabled":false,"rental_uris":{"android":"levelo://app?vid=941f277a-713f-4f45-8690-4454f1982976","ios":"levelo://app?vid=941f277a-713f-4f45-8690-4454f1982976"},"vehicle_type_id":"4","last_reported":1679206213,"current_range_meters":24000,"station_id":"ce4bho92rcd13ifvqh3g","pricing_plan_id":"free"},{"bike_id":"35464345-3a16-4fc2-9909-a4a57e05ba5a","system_id":"levelo_inurba_marseille","lat":43.287154,"lon":5.399979,"is_reserved":false,"is_disabled":false,"rental_uris":{"android":"levelo://app?vid=35464345-3a16-4fc2-9909-a4a57e05ba5a","ios":"levelo://app?vid=35464345-3a16-4fc2-9909-a4a57e05ba5a"},"vehicle_type_id":"4","last_reported":1679206213,"current_range_meters":24400,"station_id":"ce4bho92rcd13ifvqh3g","pricing_plan_id":"free"},{"bike_id":"2f454740-0b4f-4abc-9d61-60c7eebac267","system_id":"levelo_inurba_marseille","lat":43.324784,"lon":5.414327,"is_reserved":false,"is_disabled":false,"rental_uris":{"android":"levelo://app?vid=2f454740-0b4f-4abc-9d61-60c7eebac267","ios":"levelo://app?vid=2f454740-0b4f-4abc-9d61-60c7eebac267"},"vehicle_type_id":"4","last_reported":1679206213,"current_range_meters":6800,"station_id":"","pricing_plan_id":"free"},{"bike_id":"673de19c-85b8-4b84-a87f-33971329f3c5","system_id":"levelo_inurba_marseille","lat":43.292569,"lon":5.409107,"is_reserved":false,"is_disabled":false,"rental_uris":{"android":"levelo://app?vid=673de19c-85b8-4b84-a87f-33971329f3c5","ios":"levelo://app?vid=673de19c-85b8-4b84-a87f-33971329f3c5"},"vehicle_type_id":"4","last_reported":1679206213,"current_range_meters":2800,"station_id":"ce4bh192rcd13ifvqdc0","pricing_plan_id":"free"},{"bike_id":"40a8953b-ac3f-45ef-8f3d-c2d3dfe28905","system_id":"levelo_inurba_marseille","lat":43.292571,"lon":5.409107,"is_reserved":false,"is_disabled":false,"rental_uris":{"android":"levelo://app?vid=40a8953b-ac3f-45ef-8f3d-c2d3dfe28905","ios":"levelo://app?vid=40a8953b-ac3f-45ef-8f3d-c2d3dfe28905"},"vehicle_type_id":"4","last_reported":1679206213,"current_range_meters":28400,"station_id":"ce4bh192rcd13ifvqdc0","pricing_plan_id":"free"},{"bike_id":"82c0197b-5828-4710-a88c-34b63d75cfda","system_id":"levelo_inurba_marseille","lat":43.325233,"lon":5.414318,"is_reserved":false,"is_disabled":false,"rental_uris":{"android":"levelo://app?vid=82c0197b-5828-4710-a88c-34b63d75cfda","ios":"levelo://app?vid=82c0197b-5828-4710-a88c-34b63d75cfda"},"vehicle_type_id":"4","last_reported":1679206213,"current_range_meters":29600,"station_id":"ce4bhq12rcd13ifvqhhg","pricing_plan_id":"free"},{"bike_id":"c17f1aec-db01-49a9-b969-717109f77df1","system_id":"levelo_inurba_marseille","lat":43.276171,"lon":5.361121,"is_reserved":false,"is_disabled":false,"rental_uris":{"android":"levelo://app?vid=c17f1aec-db01-49a9-b969-717109f77df1","ios":"levelo://app?vid=c17f1aec-db01-49a9-b969-717109f77df1"},"vehicle_type_id":"4","last_reported":1679206213,"current_range_meters":0,"station_id":"ce4bgj92rcd13ifvqbe0","pricing_plan_id":"free"},{"bike_id":"4e924825-18da-48fb-b5bc-28bbbc060640","system_id":"levelo_inurba_marseille","lat":43.325243,"lon":5.414326,"is_reserved":false,"is_disabled":false,"rental_uris":{"android":"levelo://app?vid=4e924825-18da-48fb-b5bc-28bbbc060640","ios":"levelo://app?vid=4e924825-18da-48fb-b5bc-28bbbc060640"},"vehicle_type_id":"4","last_reported":1679206213,"current_range_meters":27600,"station_id":"ce4bhq12rcd13ifvqhhg","pricing_plan_id":"free"},{"bike_id":"5f11de16-2911-4b4f-b726-c59123cc1e79","system_id":"levelo_inurba_marseille","lat":43.325233,"lon":5.414318,"is_reserved":false,"is_disabled":false,"rental_uris":{"android":"levelo://app?vid=5f11de16-2911-4b4f-b726-c59123cc1e79","ios":"levelo://app?vid=5f11de16-2911-4b4f-b726-c59123cc1e79"},"vehicle_type_id":"4","last_reported":1679206213,"current_range_meters":29600,"station_id":"ce4bhq12rcd13ifvqhhg","pricing_plan_id":"free"},{"bike_id":"8150e8e1-709e-4295-8bac-b8326d350b70","system_id":"levelo_inurba_marseille","lat":43.32396,"lon":5.415126,"is_reserved":false,"is_disabled":false,"rental_uris":{"android":"levelo://app?vid=8150e8e1-709e-4295-8bac-b8326d350b70","ios":"levelo://app?vid=8150e8e1-709e-4295-8bac-b8326d350b70"},"vehicle_type_id":"4","last_reported":1679206213,"current_range_meters":6000,"station_id":"","pricing_plan_id":"free"},{"bike_id":"53441b7e-e41d-43a2-b706-d232e65ae764","system_id":"levelo_inurba_marseille","lat":43.276179,"lon":5.361009,"is_reserved":false,"is_disabled":false,"rental_uris":{"android":"levelo://app?vid=53441b7e-e41d-43a2-b706-d232e65ae764","ios":"levelo://app?vid=53441b7e-e41d-43a2-b706-d232e65ae764"},"vehicle_type_id":"4","last_reported":1679206213,"current_range_meters":0,"station_id":"ce4bgj92rcd13ifvqbe0","pricing_plan_id":"free"},{"bike_id":"d5b853cc-8bf0-4a1e-a013-652267b292ea","system_id":"levelo_inurba_marseille","lat":43.325243,"lon":5.414326,"is_reserved":false,"is_disabled":false,"rental_uris":{"android":"levelo://app?vid=d5b853cc-8bf0-4a1e-a013-652267b292ea","ios":"levelo://app?vid=d5b853cc-8bf0-4a1e-a013-652267b292ea"},"vehicle_type_id":"4","last_reported":1679206213,"current_range_meters":25200,"station_id":"ce4bhq12rcd13ifvqhhg","pricing_plan_id":"free"},{"bike_id":"ed38afd4-d724-4e08-ba37-6f0d0c8cafa0","system_id":"levelo_inurba_marseille","lat":43.325233,"lon":5.414318,"is_reserved":false,"is_disabled":false,"rental_uris":{"android":"levelo://app?vid=ed38afd4-d724-4e08-ba37-6f0d0c8cafa0","ios":"levelo://app?vid=ed38afd4-d724-4e08-ba37-6f0d0c8cafa0"},"vehicle_type_id":"4","last_reported":1679206213,"current_range_meters":28800,"station_id":"ce4bhq12rcd13ifvqhhg","pricing_plan_id":"free"},{"bike_id":"51d76d32-5703-4de6-9544-9d06ddb31cbf","system_id":"levelo_inurba_marseille","lat":43.325243,"lon":5.414326,"is_reserved":false,"is_disabled":false,"rental_uris":{"android":"levelo://app?vid=51d76d32-5703-4de6-9544-9d06ddb31cbf","ios":"levelo://app?vid=51d76d32-5703-4de6-9544-9d06ddb31cbf"},"vehicle_type_id":"4","last_reported":1679206213,"current_range_meters":28400,"station_id":"ce4bhq12rcd13ifvqhhg","pricing_plan_id":"free"},{"bike_id":"eb462c0b-2666-46c8-b365-bcbf64fc0073","system_id":"levelo_inurba_marseille","lat":43.2738,"lon":5.36251,"is_reserved":false,"is_disabled":false,"rental_uris":{"android":"levelo://app?vid=eb462c0b-2666-46c8-b365-bcbf64fc0073","ios":"levelo://app?vid=eb462c0b-2666-46c8-b365-bcbf64fc0073"},"vehicle_type_id":"4","last_reported":1679206213,"current_range_meters":6000,"station_id":"ce4bhbh2rcd13ifvqeo0","pricing_plan_id":"free"},{"bike_id":"350d6b89-8c6e-4cbd-a303-a381f1965236","system_id":"levelo_inurba_marseille","lat":43.336134,"lon":5.410341,"is_reserved":false,"is_disabled":false,"rental_uris":{"android":"levelo://app?vid=350d6b89-8c6e-4cbd-a303-a381f1965236","ios":"levelo://app?vid=350d6b89-8c6e-4cbd-a303-a381f1965236"},"vehicle_type_id":"4","last_reported":1679206213,"current_range_meters":32000,"station_id":"ce4bhqh2rcd13ifvqhmg","pricing_plan_id":"free"},{"bike_id":"2abcf298-3819-478b-95ea-54cc72544c00","system_id":"levelo_inurba_marseille","lat":43.336148,"lon":5.410349,"is_reserved":false,"is_disabled":false,"rental_uris":{"android":"levelo://app?vid=2abcf298-3819-478b-95ea-54cc72544c00","ios":"levelo://app?vid=2abcf298-3819-478b-95ea-54cc72544c00"},"vehicle_type_id":"4","last_reported":1679206213,"current_range_meters":29200,"station_id":"ce4bhqh2rcd13ifvqhmg","pricing_plan_id":"free"},{"bike_id":"3d29cea9-890f-429e-9b69-5b86fc5b4f22","system_id":"levelo_inurba_marseille","lat":43.33612,"lon":5.410321,"is_reserved":false,"is_disabled":false,"rental_uris":{"android":"levelo://app?vid=3d29cea9-890f-429e-9b69-5b86fc5b4f22","ios":"levelo://app?vid=3d29cea9-890f-429e-9b69-5b86fc5b4f22"},"vehicle_type_id":"4","last_reported":1679206213,"current_range_meters":31600,"station_id":"ce4bhqh2rcd13ifvqhmg","pricing_plan_id":"free"},{"bike_id":"0a4c8942-fbfa-4fd5-9eaa-dfb5fb6b2fdc","system_id":"levelo_inurba_marseille","lat":43.336134,"lon":5.410341,"is_reserved":false,"is_disabled":false,"rental_uris":{"android":"levelo://app?vid=0a4c8942-fbfa-4fd5-9eaa-dfb5fb6b2fdc","ios":"levelo://app?vid=0a4c8942-fbfa-4fd5-9eaa-dfb5fb6b2fdc"},"vehicle_type_id":"4","last_reported":1679206213,"current_range_meters":24000,"station_id":"ce4bhqh2rcd13ifvqhmg","pricing_plan_id":"free"},{"bike_id":"f05cf7d3-6387-4d94-a8b7-fa5d1eaa53b7","system_id":"levelo_inurba_marseille","lat":43.336134,"lon":5.410341,"is_reserved":false,"is_disabled":false,"rental_uris":{"android":"levelo://app?vid=f05cf7d3-6387-4d94-a8b7-fa5d1eaa53b7","ios":"levelo://app?vid=f05cf7d3-6387-4d94-a8b7-fa5d1eaa53b7"},"vehicle_type_id":"4","last_reported":1679206213,"current_range_meters":23600,"station_id":"ce4bhqh2rcd13ifvqhmg","pricing_plan_id":"free"},{"bike_id":"17925c58-f95e-413c-98df-bafb5db25ab4","system_id":"levelo_inurba_marseille","lat":43.336148,"lon":5.410349,"is_reserved":false,"is_disabled":false,"rental_uris":{"android":"levelo://app?vid=17925c58-f95e-413c-98df-bafb5db25ab4","ios":"levelo://app?vid=17925c58-f95e-413c-98df-bafb5db25ab4"},"vehicle_type_id":"4","last_reported":1679206213,"current_range_meters":29200,"station_id":"ce4bhqh2rcd13ifvqhmg","pricing_plan_id":"free"},{"bike_id":"c05bc7f9-1220-40c7-a82d-86d66a5b83a1","system_id":"levelo_inurba_marseille","lat":43.336134,"lon":5.410341,"is_reserved":false,"is_disabled":false,"rental_uris":{"android":"levelo://app?vid=c05bc7f9-1220-40c7-a82d-86d66a5b83a1","ios":"levelo://app?vid=c05bc7f9-1220-40c7-a82d-86d66a5b83a1"},"vehicle_type_id":"4","last_reported":1679206213,"current_range_meters":28000,"station_id":"ce4bhqh2rcd13ifvqhmg","pricing_plan_id":"free"},{"bike_id":"d28eb7a0-38e2-46e5-82e8-844cf4ba2115","system_id":"levelo_inurba_marseille","lat":43.276769,"lon":5.388787,"is_reserved":false,"is_disabled":false,"rental_uris":{"android":"levelo://app?vid=d28eb7a0-38e2-46e5-82e8-844cf4ba2115","ios":"levelo://app?vid=d28eb7a0-38e2-46e5-82e8-844cf4ba2115"},"vehicle_type_id":"4","last_reported":1679206213,"current_range_meters":11200,"station_id":"ce4bhi12rcd13ifvqfo0","pricing_plan_id":"free"},{"bike_id":"b3248560-21ed-4374-a6e8-68dd94ca3131","system_id":"levelo_inurba_marseille","lat":43.276857,"lon":5.38887,"is_reserved":false,"is_disabled":false,"rental_uris":{"android":"levelo://app?vid=b3248560-21ed-4374-a6e8-68dd94ca3131","ios":"levelo://app?vid=b3248560-21ed-4374-a6e8-68dd94ca3131"},"vehicle_type_id":"4","last_reported":1679206213,"current_range_meters":0,"station_id":"ce4bhi12rcd13ifvqfo0","pricing_plan_id":"free"},{"bike_id":"27a138ec-ac35-43df-9be7-1ff43296cc01","system_id":"levelo_inurba_marseille","lat":43.317121,"lon":5.423936,"is_reserved":false,"is_disabled":false,"rental_uris":{"android":"levelo://app?vid=27a138ec-ac35-43df-9be7-1ff43296cc01","ios":"levelo://app?vid=27a138ec-ac35-43df-9be7-1ff43296cc01"},"vehicle_type_id":"4","last_reported":1679206213,"current_range_meters":25600,"station_id":"ce4bhp92rcd13ifvqhbg","pricing_plan_id":"free"},{"bike_id":"a8843578-c01d-4af1-8848-3e7987c51a6a","system_id":"levelo_inurba_marseille","lat":43.295523,"lon":5.422926,"is_reserved":false,"is_disabled":false,"rental_uris":{"android":"levelo://app?vid=a8843578-c01d-4af1-8848-3e7987c51a6a","ios":"levelo://app?vid=a8843578-c01d-4af1-8848-3e7987c51a6a"},"vehicle_type_id":"4","last_reported":1679206213,"current_range_meters":0,"station_id":"ce4bhph2rcd13ifvqhdg","pricing_plan_id":"free"},{"bike_id":"0594baac-1171-40e6-a38a-7dbb3eb465a1","system_id":"levelo_inurba_marseille","lat":43.295523,"lon":5.422926,"is_reserved":false,"is_disabled":false,"rental_uris":{"android":"levelo://app?vid=0594baac-1171-40e6-a38a-7dbb3eb465a1","ios":"levelo://app?vid=0594baac-1171-40e6-a38a-7dbb3eb465a1"},"vehicle_type_id":"4","last_reported":1679206213,"current_range_meters":5200,"station_id":"ce4bhph2rcd13ifvqhdg","pricing_plan_id":"free"},{"bike_id":"b170044d-c7bc-4687-8c61-d20e1d905ffc","system_id":"levelo_inurba_marseille","lat":43.295523,"lon":5.422926,"is_reserved":false,"is_disabled":false,"rental_uris":{"android":"levelo://app?vid=b170044d-c7bc-4687-8c61-d20e1d905ffc","ios":"levelo://app?vid=b170044d-c7bc-4687-8c61-d20e1d905ffc"},"vehicle_type_id":"4","last_reported":1679206213,"current_range_meters":6800,"station_id":"ce4bhph2rcd13ifvqhdg","pricing_plan_id":"free"},{"bike_id":"5bde7dfa-55f1-43ef-b3b3-140a217b2685","system_id":"levelo_inurba_marseille","lat":43.295523,"lon":5.422926,"is_reserved":false,"is_disabled":false,"rental_uris":{"android":"levelo://app?vid=5bde7dfa-55f1-43ef-b3b3-140a217b2685","ios":"levelo://app?vid=5bde7dfa-55f1-43ef-b3b3-140a217b2685"},"vehicle_type_id":"4","last_reported":1679206213,"current_range_meters":24000,"station_id":"ce4bhph2rcd13ifvqhdg","pricing_plan_id":"free"},{"bike_id":"4f2f8416-7580-45be-b845-d52f989ac861","system_id":"levelo_inurba_marseille","lat":43.272116,"lon":5.391763,"is_reserved":false,"is_disabled":false,"rental_uris":{"android":"levelo://app?vid=4f2f8416-7580-45be-b845-d52f989ac861","ios":"levelo://app?vid=4f2f8416-7580-45be-b845-d52f989ac861"},"vehicle_type_id":"4","last_reported":1679206213,"current_range_meters":30400,"station_id":"ce4bhhp2rcd13ifvqfm0","pricing_plan_id":"free"},{"bike_id":"4e829c2e-2cd9-44bc-9d90-4277d88825fc","system_id":"levelo_inurba_marseille","lat":43.27815,"lon":5.40719,"is_reserved":false,"is_disabled":false,"rental_uris":{"android":"levelo://app?vid=4e829c2e-2cd9-44bc-9d90-4277d88825fc","ios":"levelo://app?vid=4e829c2e-2cd9-44bc-9d90-4277d88825fc"},"vehicle_type_id":"4","last_reported":1679206213,"current_range_meters":0,"station_id":"","pricing_plan_id":"free"},{"bike_id":"5f17344d-3cc5-4a72-b2bb-369507d2a6ff","system_id":"levelo_inurba_marseille","lat":43.269467,"lon":5.386439,"is_reserved":false,"is_disabled":false,"rental_uris":{"android":"levelo://app?vid=5f17344d-3cc5-4a72-b2bb-369507d2a6ff","ios":"levelo://app?vid=5f17344d-3cc5-4a72-b2bb-369507d2a6ff"},"vehicle_type_id":"4","last_reported":1679206213,"current_range_meters":24800,"station_id":"ce4bhh92rcd13ifvqfh0","pricing_plan_id":"free"},{"bike_id":"81b8813b-e1f9-4388-a8ab-ca40d442794d","system_id":"levelo_inurba_marseille","lat":43.279922,"lon":5.416591,"is_reserved":false,"is_disabled":false,"rental_uris":{"android":"levelo://app?vid=81b8813b-e1f9-4388-a8ab-ca40d442794d","ios":"levelo://app?vid=81b8813b-e1f9-4388-a8ab-ca40d442794d"},"vehicle_type_id":"4","last_reported":1679206213,"current_range_meters":0,"station_id":"","pricing_plan_id":"free"},{"bike_id":"8bbbcc37-39f2-481d-9c0f-90371390543a","system_id":"levelo_inurba_marseille","lat":43.308051,"lon":5.43527,"is_reserved":false,"is_disabled":false,"rental_uris":{"android":"levelo://app?vid=8bbbcc37-39f2-481d-9c0f-90371390543a","ios":"levelo://app?vid=8bbbcc37-39f2-481d-9c0f-90371390543a"},"vehicle_type_id":"4","last_reported":1679206213,"current_range_meters":4400,"station_id":"ce4bhph2rcd13ifvqheg","pricing_plan_id":"free"},{"bike_id":"e64489c4-592d-410b-ab06-d7f4db460c24","system_id":"levelo_inurba_marseille","lat":43.308051,"lon":5.43527,"is_reserved":false,"is_disabled":false,"rental_uris":{"android":"levelo://app?vid=e64489c4-592d-410b-ab06-d7f4db460c24","ios":"levelo://app?vid=e64489c4-592d-410b-ab06-d7f4db460c24"},"vehicle_type_id":"4","last_reported":1679206213,"current_range_meters":3600,"station_id":"ce4bhph2rcd13ifvqheg","pricing_plan_id":"free"},{"bike_id":"e651345b-5632-477d-b311-e5090b529272","system_id":"levelo_inurba_marseille","lat":43.308051,"lon":5.43527,"is_reserved":false,"is_disabled":false,"rental_uris":{"android":"levelo://app?vid=e651345b-5632-477d-b311-e5090b529272","ios":"levelo://app?vid=e651345b-5632-477d-b311-e5090b529272"},"vehicle_type_id":"4","last_reported":1679206213,"current_range_meters":2400,"station_id":"ce4bhph2rcd13ifvqheg","pricing_plan_id":"free"},{"bike_id":"dd04f92d-dbda-45bd-8d5e-0a739a24bdea","system_id":"levelo_inurba_marseille","lat":43.30801,"lon":5.43523,"is_reserved":false,"is_disabled":false,"rental_uris":{"android":"levelo://app?vid=dd04f92d-dbda-45bd-8d5e-0a739a24bdea","ios":"levelo://app?vid=dd04f92d-dbda-45bd-8d5e-0a739a24bdea"},"vehicle_type_id":"4","last_reported":1679206213,"current_range_meters":0,"station_id":"ce4bhph2rcd13ifvqheg","pricing_plan_id":"free"},{"bike_id":"7c3e4dc0-a7e8-4178-b3c7-70ceb02652cc","system_id":"levelo_inurba_marseille","lat":43.308051,"lon":5.43527,"is_reserved":false,"is_disabled":false,"rental_uris":{"android":"levelo://app?vid=7c3e4dc0-a7e8-4178-b3c7-70ceb02652cc","ios":"levelo://app?vid=7c3e4dc0-a7e8-4178-b3c7-70ceb02652cc"},"vehicle_type_id":"4","last_reported":1679206213,"current_range_meters":7200,"station_id":"ce4bhph2rcd13ifvqheg","pricing_plan_id":"free"},{"bike_id":"5f6679d7-4f4d-4ce4-bd2c-2992d4a7cbbd","system_id":"levelo_inurba_marseille","lat":43.30796,"lon":5.43526,"is_reserved":false,"is_disabled":false,"rental_uris":{"android":"levelo://app?vid=5f6679d7-4f4d-4ce4-bd2c-2992d4a7cbbd","ios":"levelo://app?vid=5f6679d7-4f4d-4ce4-bd2c-2992d4a7cbbd"},"vehicle_type_id":"4","last_reported":1679206213,"current_range_meters":4000,"station_id":"ce4bhph2rcd13ifvqheg","pricing_plan_id":"free"},{"bike_id":"a9afc963-7866-418e-ba86-0db268828293","system_id":"levelo_inurba_marseille","lat":43.265569,"lon":5.390047,"is_reserved":false,"is_disabled":false,"rental_uris":{"android":"levelo://app?vid=a9afc963-7866-418e-ba86-0db268828293","ios":"levelo://app?vid=a9afc963-7866-418e-ba86-0db268828293"},"vehicle_type_id":"4","last_reported":1679206213,"current_range_meters":0,"station_id":"ce4bhe12rcd13ifvqf30","pricing_plan_id":"free"},{"bike_id":"cb9adb3a-20f0-4bd1-98dc-dfb82e03442a","system_id":"levelo_inurba_marseille","lat":43.317104,"lon":5.436818,"is_reserved":false,"is_disabled":false,"rental_uris":{"android":"levelo://app?vid=cb9adb3a-20f0-4bd1-98dc-dfb82e03442a","ios":"levelo://app?vid=cb9adb3a-20f0-4bd1-98dc-dfb82e03442a"},"vehicle_type_id":"4","last_reported":1679206213,"current_range_meters":0,"station_id":"ce4bhp92rcd13ifvqhcg","pricing_plan_id":"free"},{"bike_id":"47d851c8-fc9f-480b-ac93-9404412c9008","system_id":"levelo_inurba_marseille","lat":43.2586,"lon":5.38212,"is_reserved":false,"is_disabled":false,"rental_uris":{"android":"levelo://app?vid=47d851c8-fc9f-480b-ac93-9404412c9008","ios":"levelo://app?vid=47d851c8-fc9f-480b-ac93-9404412c9008"},"vehicle_type_id":"4","last_reported":1679206213,"current_range_meters":0,"station_id":"","pricing_plan_id":"free"},{"bike_id":"75ed8a68-5751-44e1-96eb-c17b5916d9cf","system_id":"levelo_inurba_marseille","lat":43.2607,"lon":5.393983,"is_reserved":false,"is_disabled":false,"rental_uris":{"android":"levelo://app?vid=75ed8a68-5751-44e1-96eb-c17b5916d9cf","ios":"levelo://app?vid=75ed8a68-5751-44e1-96eb-c17b5916d9cf"},"vehicle_type_id":"4","last_reported":1679206213,"current_range_meters":25600,"station_id":"ce4bhh92rcd13ifvqfj0","pricing_plan_id":"free"},{"bike_id":"2d3a60e8-2647-4de4-b6b7-bfb2d8da8fbe","system_id":"levelo_inurba_marseille","lat":43.260909,"lon":5.397591,"is_reserved":false,"is_disabled":false,"rental_uris":{"android":"levelo://app?vid=2d3a60e8-2647-4de4-b6b7-bfb2d8da8fbe","ios":"levelo://app?vid=2d3a60e8-2647-4de4-b6b7-bfb2d8da8fbe"},"vehicle_type_id":"4","last_reported":1679206213,"current_range_meters":0,"station_id":"ce4bhi12rcd13ifvqfq0","pricing_plan_id":"free"},{"bike_id":"e75bbaa1-beed-4674-a728-48aee5d3b251","system_id":"levelo_inurba_marseille","lat":43.29248,"lon":5.44137,"is_reserved":false,"is_disabled":false,"rental_uris":{"android":"levelo://app?vid=e75bbaa1-beed-4674-a728-48aee5d3b251","ios":"levelo://app?vid=e75bbaa1-beed-4674-a728-48aee5d3b251"},"vehicle_type_id":"4","last_reported":1679206213,"current_range_meters":21200,"station_id":"","pricing_plan_id":"free"},{"bike_id":"6f0614e8-a7ca-40b7-a0cf-f5e3029b8583","system_id":"levelo_inurba_marseille","lat":43.270664,"lon":5.422759,"is_reserved":false,"is_disabled":false,"rental_uris":{"android":"levelo://app?vid=6f0614e8-a7ca-40b7-a0cf-f5e3029b8583","ios":"levelo://app?vid=6f0614e8-a7ca-40b7-a0cf-f5e3029b8583"},"vehicle_type_id":"4","last_reported":1679206213,"current_range_meters":12000,"station_id":"ce4bhk92rcd13ifvqgb0","pricing_plan_id":"free"},{"bike_id":"ca489363-112d-4150-8ce2-278841787b4c","system_id":"levelo_inurba_marseille","lat":43.258658,"lon":5.398935,"is_reserved":false,"is_disabled":false,"rental_uris":{"android":"levelo://app?vid=ca489363-112d-4150-8ce2-278841787b4c","ios":"levelo://app?vid=ca489363-112d-4150-8ce2-278841787b4c"},"vehicle_type_id":"4","last_reported":1679206213,"current_range_meters":29600,"station_id":"ce4bhl92rcd13ifvqghg","pricing_plan_id":"free"},{"bike_id":"71d96dbe-36f5-40f7-9eb1-6ab30ce570c9","system_id":"levelo_inurba_marseille","lat":43.258658,"lon":5.398935,"is_reserved":false,"is_disabled":false,"rental_uris":{"android":"levelo://app?vid=71d96dbe-36f5-40f7-9eb1-6ab30ce570c9","ios":"levelo://app?vid=71d96dbe-36f5-40f7-9eb1-6ab30ce570c9"},"vehicle_type_id":"4","last_reported":1679206213,"current_range_meters":27600,"station_id":"ce4bhl92rcd13ifvqghg","pricing_plan_id":"free"},{"bike_id":"e0736921-49cf-4829-96e9-c0918d1f5068","system_id":"levelo_inurba_marseille","lat":43.250071,"lon":5.389148,"is_reserved":false,"is_disabled":false,"rental_uris":{"android":"levelo://app?vid=e0736921-49cf-4829-96e9-c0918d1f5068","ios":"levelo://app?vid=e0736921-49cf-4829-96e9-c0918d1f5068"},"vehicle_type_id":"4","last_reported":1679206213,"current_range_meters":0,"station_id":"","pricing_plan_id":"free"},{"bike_id":"c2bd7769-3b16-4159-87b2-94391b964763","system_id":"levelo_inurba_marseille","lat":43.250009,"lon":5.389195,"is_reserved":false,"is_disabled":false,"rental_uris":{"android":"levelo://app?vid=c2bd7769-3b16-4159-87b2-94391b964763","ios":"levelo://app?vid=c2bd7769-3b16-4159-87b2-94391b964763"},"vehicle_type_id":"4","last_reported":1679206213,"current_range_meters":15200,"station_id":"ce4bhgp2rcd13ifvqfd0","pricing_plan_id":"free"},{"bike_id":"96186fc4-e261-4c9c-b25c-ccd926aa07dd","system_id":"levelo_inurba_marseille","lat":43.24815,"lon":5.37462,"is_reserved":false,"is_disabled":false,"rental_uris":{"android":"levelo://app?vid=96186fc4-e261-4c9c-b25c-ccd926aa07dd","ios":"levelo://app?vid=96186fc4-e261-4c9c-b25c-ccd926aa07dd"},"vehicle_type_id":"4","last_reported":1679206213,"current_range_meters":12800,"station_id":"","pricing_plan_id":"free"},{"bike_id":"22af5f68-1fad-4b6c-a857-f8f55f963a3b","system_id":"levelo_inurba_marseille","lat":43.24815,"lon":5.37463,"is_reserved":false,"is_disabled":false,"rental_uris":{"android":"levelo://app?vid=22af5f68-1fad-4b6c-a857-f8f55f963a3b","ios":"levelo://app?vid=22af5f68-1fad-4b6c-a857-f8f55f963a3b"},"vehicle_type_id":"4","last_reported":1679206213,"current_range_meters":8000,"station_id":"","pricing_plan_id":"free"},{"bike_id":"4198d439-6bcd-4695-a8dc-ae254dd71863","system_id":"levelo_inurba_marseille","lat":43.24809,"lon":5.37456,"is_reserved":false,"is_disabled":false,"rental_uris":{"android":"levelo://app?vid=4198d439-6bcd-4695-a8dc-ae254dd71863","ios":"levelo://app?vid=4198d439-6bcd-4695-a8dc-ae254dd71863"},"vehicle_type_id":"4","last_reported":1679206213,"current_range_meters":28800,"station_id":"ce4bhgh2rcd13ifvqfb0","pricing_plan_id":"free"},{"bike_id":"32d47f2d-0bbe-4cc0-a374-e84fb1c4a813","system_id":"levelo_inurba_marseille","lat":43.248049,"lon":5.374529,"is_reserved":false,"is_disabled":false,"rental_uris":{"android":"levelo://app?vid=32d47f2d-0bbe-4cc0-a374-e84fb1c4a813","ios":"levelo://app?vid=32d47f2d-0bbe-4cc0-a374-e84fb1c4a813"},"vehicle_type_id":"4","last_reported":1679206213,"current_range_meters":27200,"station_id":"ce4bhgh2rcd13ifvqfb0","pricing_plan_id":"free"},{"bike_id":"d7697645-5c87-4b1e-b85f-dae3668138f1","system_id":"levelo_inurba_marseille","lat":43.24803,"lon":5.37451,"is_reserved":false,"is_disabled":false,"rental_uris":{"android":"levelo://app?vid=d7697645-5c87-4b1e-b85f-dae3668138f1","ios":"levelo://app?vid=d7697645-5c87-4b1e-b85f-dae3668138f1"},"vehicle_type_id":"4","last_reported":1679206213,"current_range_meters":4400,"station_id":"ce4bhgh2rcd13ifvqfb0","pricing_plan_id":"free"},{"bike_id":"87b02d55-bd4c-47e7-b4a2-8e6a3fd9412c","system_id":"levelo_inurba_marseille","lat":43.250966,"lon":5.395186,"is_reserved":false,"is_disabled":false,"rental_uris":{"android":"levelo://app?vid=87b02d55-bd4c-47e7-b4a2-8e6a3fd9412c","ios":"levelo://app?vid=87b02d55-bd4c-47e7-b4a2-8e6a3fd9412c"},"vehicle_type_id":"4","last_reported":1679206213,"current_range_meters":24400,"station_id":"ce4bhm12rcd13ifvqgkg","pricing_plan_id":"free"},{"bike_id":"0774bb22-5cd0-4e90-8f48-636c2f00cf75","system_id":"levelo_inurba_marseille","lat":43.250966,"lon":5.395186,"is_reserved":false,"is_disabled":false,"rental_uris":{"android":"levelo://app?vid=0774bb22-5cd0-4e90-8f48-636c2f00cf75","ios":"levelo://app?vid=0774bb22-5cd0-4e90-8f48-636c2f00cf75"},"vehicle_type_id":"4","last_reported":1679206213,"current_range_meters":10800,"station_id":"ce4bhm12rcd13ifvqgkg","pricing_plan_id":"free"},{"bike_id":"6226b057-c565-4f10-824c-4158b47e8105","system_id":"levelo_inurba_marseille","lat":43.250966,"lon":5.395186,"is_reserved":false,"is_disabled":false,"rental_uris":{"android":"levelo://app?vid=6226b057-c565-4f10-824c-4158b47e8105","ios":"levelo://app?vid=6226b057-c565-4f10-824c-4158b47e8105"},"vehicle_type_id":"4","last_reported":1679206213,"current_range_meters":31600,"station_id":"ce4bhm12rcd13ifvqgkg","pricing_plan_id":"free"},{"bike_id":"875d5d08-cfe6-456e-884a-2e9b70ba5783","system_id":"levelo_inurba_marseille","lat":43.25102,"lon":5.403214,"is_reserved":false,"is_disabled":false,"rental_uris":{"android":"levelo://app?vid=875d5d08-cfe6-456e-884a-2e9b70ba5783","ios":"levelo://app?vid=875d5d08-cfe6-456e-884a-2e9b70ba5783"},"vehicle_type_id":"4","last_reported":1679206213,"current_range_meters":31600,"station_id":"ce4bhlh2rcd13ifvqgig","pricing_plan_id":"free"},{"bike_id":"246e0911-2090-4290-9ee8-620cd0253e1f","system_id":"levelo_inurba_marseille","lat":43.25102,"lon":5.403214,"is_reserved":false,"is_disabled":false,"rental_uris":{"android":"levelo://app?vid=246e0911-2090-4290-9ee8-620cd0253e1f","ios":"levelo://app?vid=246e0911-2090-4290-9ee8-620cd0253e1f"},"vehicle_type_id":"4","last_reported":1679206213,"current_range_meters":20400,"station_id":"ce4bhlh2rcd13ifvqgig","pricing_plan_id":"free"},{"bike_id":"84e201f5-fd74-4daf-b70a-0c8b6bb115c7","system_id":"levelo_inurba_marseille","lat":43.25102,"lon":5.403214,"is_reserved":false,"is_disabled":false,"rental_uris":{"android":"levelo://app?vid=84e201f5-fd74-4daf-b70a-0c8b6bb115c7","ios":"levelo://app?vid=84e201f5-fd74-4daf-b70a-0c8b6bb115c7"},"vehicle_type_id":"4","last_reported":1679206213,"current_range_meters":10800,"station_id":"ce4bhlh2rcd13ifvqgig","pricing_plan_id":"free"},{"bike_id":"ca8455ae-9f0e-4d8e-9679-8d4b66a612ab","system_id":"levelo_inurba_marseille","lat":43.25102,"lon":5.403214,"is_reserved":false,"is_disabled":false,"rental_uris":{"android":"levelo://app?vid=ca8455ae-9f0e-4d8e-9679-8d4b66a612ab","ios":"levelo://app?vid=ca8455ae-9f0e-4d8e-9679-8d4b66a612ab"},"vehicle_type_id":"4","last_reported":1679206213,"current_range_meters":29200,"station_id":"ce4bhlh2rcd13ifvqgig","pricing_plan_id":"free"},{"bike_id":"4bf33eb8-2b19-41a0-b8eb-f4197208fd18","system_id":"levelo_inurba_marseille","lat":43.25102,"lon":5.403214,"is_reserved":false,"is_disabled":false,"rental_uris":{"android":"levelo://app?vid=4bf33eb8-2b19-41a0-b8eb-f4197208fd18","ios":"levelo://app?vid=4bf33eb8-2b19-41a0-b8eb-f4197208fd18"},"vehicle_type_id":"4","last_reported":1679206213,"current_range_meters":30400,"station_id":"ce4bhlh2rcd13ifvqgig","pricing_plan_id":"free"},{"bike_id":"26545bc5-7353-408d-9699-715d1aece88c","system_id":"levelo_inurba_marseille","lat":43.25102,"lon":5.403214,"is_reserved":false,"is_disabled":false,"rental_uris":{"android":"levelo://app?vid=26545bc5-7353-408d-9699-715d1aece88c","ios":"levelo://app?vid=26545bc5-7353-408d-9699-715d1aece88c"},"vehicle_type_id":"4","last_reported":1679206213,"current_range_meters":31600,"station_id":"ce4bhlh2rcd13ifvqgig","pricing_plan_id":"free"},{"bike_id":"13b6f600-6bf7-44e2-9643-255e5169245c","system_id":"levelo_inurba_marseille","lat":43.2484,"lon":5.39375,"is_reserved":false,"is_disabled":false,"rental_uris":{"android":"levelo://app?vid=13b6f600-6bf7-44e2-9643-255e5169245c","ios":"levelo://app?vid=13b6f600-6bf7-44e2-9643-255e5169245c"},"vehicle_type_id":"4","last_reported":1679206213,"current_range_meters":12400,"station_id":"","pricing_plan_id":"free"},{"bike_id":"088a25f1-4e71-4e12-b29e-c5b32ef46c65","system_id":"levelo_inurba_marseille","lat":43.245581,"lon":5.395069,"is_reserved":false,"is_disabled":false,"rental_uris":{"android":"levelo://app?vid=088a25f1-4e71-4e12-b29e-c5b32ef46c65","ios":"levelo://app?vid=088a25f1-4e71-4e12-b29e-c5b32ef46c65"},"vehicle_type_id":"4","last_reported":1679206213,"current_range_meters":1200,"station_id":"ce4bhlp2rcd13ifvqgjg","pricing_plan_id":"free"},{"bike_id":"1175c512-acdf-4efb-ba20-5d22e42c5322","system_id":"levelo_inurba_marseille","lat":43.240623,"lon":5.377642,"is_reserved":false,"is_disabled":false,"rental_uris":{"android":"levelo://app?vid=1175c512-acdf-4efb-ba20-5d22e42c5322","ios":"levelo://app?vid=1175c512-acdf-4efb-ba20-5d22e42c5322"},"vehicle_type_id":"4","last_reported":1679206213,"current_range_meters":1200,"station_id":"ce4bhnp2rcd13ifvqgvg","pricing_plan_id":"free"},{"bike_id":"4f98cc0f-5688-4d40-91c4-e1bbe0362004","system_id":"levelo_inurba_marseille","lat":43.2407,"lon":5.37763,"is_reserved":false,"is_disabled":false,"rental_uris":{"android":"levelo://app?vid=4f98cc0f-5688-4d40-91c4-e1bbe0362004","ios":"levelo://app?vid=4f98cc0f-5688-4d40-91c4-e1bbe0362004"},"vehicle_type_id":"4","last_reported":1679206213,"current_range_meters":15200,"station_id":"ce4bhnp2rcd13ifvqgvg","pricing_plan_id":"free"},{"bike_id":"afd9d1df-a4ec-4e3a-b1c7-2d2faa43b8f9","system_id":"levelo_inurba_marseille","lat":43.239588,"lon":5.366238,"is_reserved":false,"is_disabled":false,"rental_uris":{"android":"levelo://app?vid=afd9d1df-a4ec-4e3a-b1c7-2d2faa43b8f9","ios":"levelo://app?vid=afd9d1df-a4ec-4e3a-b1c7-2d2faa43b8f9"},"vehicle_type_id":"4","last_reported":1679206213,"current_range_meters":7200,"station_id":"ce4bhi12rcd13ifvqfp0","pricing_plan_id":"free"},{"bike_id":"b9eb7df5-4549-486d-acf3-adcd910c731d","system_id":"levelo_inurba_marseille","lat":43.239643,"lon":5.366374,"is_reserved":false,"is_disabled":false,"rental_uris":{"android":"levelo://app?vid=b9eb7df5-4549-486d-acf3-adcd910c731d","ios":"levelo://app?vid=b9eb7df5-4549-486d-acf3-adcd910c731d"},"vehicle_type_id":"4","last_reported":1679206213,"current_range_meters":5600,"station_id":"ce4bhi12rcd13ifvqfp0","pricing_plan_id":"free"},{"bike_id":"aee4b4a6-f9ab-4084-a4f7-edd5ccad8d40","system_id":"levelo_inurba_marseille","lat":43.239588,"lon":5.366238,"is_reserved":false,"is_disabled":false,"rental_uris":{"android":"levelo://app?vid=aee4b4a6-f9ab-4084-a4f7-edd5ccad8d40","ios":"levelo://app?vid=aee4b4a6-f9ab-4084-a4f7-edd5ccad8d40"},"vehicle_type_id":"4","last_reported":1679206213,"current_range_meters":16800,"station_id":"ce4bhi12rcd13ifvqfp0","pricing_plan_id":"free"},{"bike_id":"60ec317c-9c95-456f-90a7-3e1b12c23fe5","system_id":"levelo_inurba_marseille","lat":43.239588,"lon":5.366238,"is_reserved":false,"is_disabled":false,"rental_uris":{"android":"levelo://app?vid=60ec317c-9c95-456f-90a7-3e1b12c23fe5","ios":"levelo://app?vid=60ec317c-9c95-456f-90a7-3e1b12c23fe5"},"vehicle_type_id":"4","last_reported":1679206213,"current_range_meters":2400,"station_id":"ce4bhi12rcd13ifvqfp0","pricing_plan_id":"free"},{"bike_id":"dcfbe225-2601-4561-81df-92cf185c56f6","system_id":"levelo_inurba_marseille","lat":43.239588,"lon":5.366238,"is_reserved":false,"is_disabled":false,"rental_uris":{"android":"levelo://app?vid=dcfbe225-2601-4561-81df-92cf185c56f6","ios":"levelo://app?vid=dcfbe225-2601-4561-81df-92cf185c56f6"},"vehicle_type_id":"4","last_reported":1679206213,"current_range_meters":4400,"station_id":"ce4bhi12rcd13ifvqfp0","pricing_plan_id":"free"},{"bike_id":"567bff39-c647-4651-8acf-b71e598bd4a1","system_id":"levelo_inurba_marseille","lat":43.241808,"lon":5.397216,"is_reserved":false,"is_disabled":false,"rental_uris":{"android":"levelo://app?vid=567bff39-c647-4651-8acf-b71e598bd4a1","ios":"levelo://app?vid=567bff39-c647-4651-8acf-b71e598bd4a1"},"vehicle_type_id":"4","last_reported":1679206213,"current_range_meters":0,"station_id":"ce4bhn12rcd13ifvqgpg","pricing_plan_id":"free"},{"bike_id":"95ed0060-cb4c-4172-94be-0a06d5bb64ee","system_id":"levelo_inurba_marseille","lat":43.241782,"lon":5.397264,"is_reserved":false,"is_disabled":false,"rental_uris":{"android":"levelo://app?vid=95ed0060-cb4c-4172-94be-0a06d5bb64ee","ios":"levelo://app?vid=95ed0060-cb4c-4172-94be-0a06d5bb64ee"},"vehicle_type_id":"4","last_reported":1679206213,"current_range_meters":2800,"station_id":"ce4bhn12rcd13ifvqgpg","pricing_plan_id":"free"},{"bike_id":"badd26db-d74e-47d1-a8af-80511d09ad4e","system_id":"levelo_inurba_marseille","lat":43.241782,"lon":5.397264,"is_reserved":false,"is_disabled":false,"rental_uris":{"android":"levelo://app?vid=badd26db-d74e-47d1-a8af-80511d09ad4e","ios":"levelo://app?vid=badd26db-d74e-47d1-a8af-80511d09ad4e"},"vehicle_type_id":"4","last_reported":1679206213,"current_range_meters":8800,"station_id":"ce4bhn12rcd13ifvqgpg","pricing_plan_id":"free"},{"bike_id":"870e2db0-f3e6-44cd-9996-40e824331de9","system_id":"levelo_inurba_marseille","lat":43.241782,"lon":5.397264,"is_reserved":false,"is_disabled":false,"rental_uris":{"android":"levelo://app?vid=870e2db0-f3e6-44cd-9996-40e824331de9","ios":"levelo://app?vid=870e2db0-f3e6-44cd-9996-40e824331de9"},"vehicle_type_id":"4","last_reported":1679206213,"current_range_meters":0,"station_id":"ce4bhn12rcd13ifvqgpg","pricing_plan_id":"free"},{"bike_id":"0510984e-f649-44d1-8242-9d987e2a499a","system_id":"levelo_inurba_marseille","lat":43.231986,"lon":5.355517,"is_reserved":false,"is_disabled":false,"rental_uris":{"android":"levelo://app?vid=0510984e-f649-44d1-8242-9d987e2a499a","ios":"levelo://app?vid=0510984e-f649-44d1-8242-9d987e2a499a"},"vehicle_type_id":"4","last_reported":1679206213,"current_range_meters":23200,"station_id":"ce4bhu92rcd13ifvqi70","pricing_plan_id":"free"},{"bike_id":"beaf722f-8cce-48cc-9f08-62b9af3ed634","system_id":"levelo_inurba_marseille","lat":43.231983,"lon":5.355547,"is_reserved":false,"is_disabled":false,"rental_uris":{"android":"levelo://app?vid=beaf722f-8cce-48cc-9f08-62b9af3ed634","ios":"levelo://app?vid=beaf722f-8cce-48cc-9f08-62b9af3ed634"},"vehicle_type_id":"4","last_reported":1679206213,"current_range_meters":22800,"station_id":"ce4bhu92rcd13ifvqi70","pricing_plan_id":"free"},{"bike_id":"b71d4bb3-9dd8-4f9d-8402-e3595c6b6b91","system_id":"levelo_inurba_marseille","lat":43.231972,"lon":5.355477,"is_reserved":false,"is_disabled":false,"rental_uris":{"android":"levelo://app?vid=b71d4bb3-9dd8-4f9d-8402-e3595c6b6b91","ios":"levelo://app?vid=b71d4bb3-9dd8-4f9d-8402-e3595c6b6b91"},"vehicle_type_id":"4","last_reported":1679206213,"current_range_meters":23600,"station_id":"ce4bhu92rcd13ifvqi70","pricing_plan_id":"free"},{"bike_id":"c4a765e8-1981-4501-b559-fd423b924ef4","system_id":"levelo_inurba_marseille","lat":43.231923,"lon":5.355545,"is_reserved":false,"is_disabled":false,"rental_uris":{"android":"levelo://app?vid=c4a765e8-1981-4501-b559-fd423b924ef4","ios":"levelo://app?vid=c4a765e8-1981-4501-b559-fd423b924ef4"},"vehicle_type_id":"4","last_reported":1679206213,"current_range_meters":27600,"station_id":"ce4bhu92rcd13ifvqi70","pricing_plan_id":"free"},{"bike_id":"2f1e89bb-26de-4f28-9f9c-8145daa23f89","system_id":"levelo_inurba_marseille","lat":43.231943,"lon":5.35558,"is_reserved":false,"is_disabled":false,"rental_uris":{"android":"levelo://app?vid=2f1e89bb-26de-4f28-9f9c-8145daa23f89","ios":"levelo://app?vid=2f1e89bb-26de-4f28-9f9c-8145daa23f89"},"vehicle_type_id":"4","last_reported":1679206213,"current_range_meters":30400,"station_id":"ce4bhu92rcd13ifvqi70","pricing_plan_id":"free"},{"bike_id":"b9f6f4f0-f36b-4f70-8715-1fede5862196","system_id":"levelo_inurba_marseille","lat":43.23193,"lon":5.35553,"is_reserved":false,"is_disabled":false,"rental_uris":{"android":"levelo://app?vid=b9f6f4f0-f36b-4f70-8715-1fede5862196","ios":"levelo://app?vid=b9f6f4f0-f36b-4f70-8715-1fede5862196"},"vehicle_type_id":"4","last_reported":1679206213,"current_range_meters":28000,"station_id":"ce4bhu92rcd13ifvqi70","pricing_plan_id":"free"},{"bike_id":"e8fea5b7-48a9-48c9-b449-fe6211bd9de6","system_id":"levelo_inurba_marseille","lat":43.231923,"lon":5.355545,"is_reserved":false,"is_disabled":false,"rental_uris":{"android":"levelo://app?vid=e8fea5b7-48a9-48c9-b449-fe6211bd9de6","ios":"levelo://app?vid=e8fea5b7-48a9-48c9-b449-fe6211bd9de6"},"vehicle_type_id":"4","last_reported":1679206213,"current_range_meters":29600,"station_id":"ce4bhu92rcd13ifvqi70","pricing_plan_id":"free"},{"bike_id":"8057768e-761b-41d6-916d-02a9ceb83bc6","system_id":"levelo_inurba_marseille","lat":43.231921,"lon":5.355563,"is_reserved":false,"is_disabled":false,"rental_uris":{"android":"levelo://app?vid=8057768e-761b-41d6-916d-02a9ceb83bc6","ios":"levelo://app?vid=8057768e-761b-41d6-916d-02a9ceb83bc6"},"vehicle_type_id":"4","last_reported":1679206213,"current_range_meters":26400,"station_id":"ce4bhu92rcd13ifvqi70","pricing_plan_id":"free"},{"bike_id":"9396a642-8421-4ca9-b20d-a2492104caf9","system_id":"levelo_inurba_marseille","lat":43.23192,"lon":5.35556,"is_reserved":false,"is_disabled":false,"rental_uris":{"android":"levelo://app?vid=9396a642-8421-4ca9-b20d-a2492104caf9","ios":"levelo://app?vid=9396a642-8421-4ca9-b20d-a2492104caf9"},"vehicle_type_id":"4","last_reported":1679206213,"current_range_meters":29200,"station_id":"ce4bhu92rcd13ifvqi70","pricing_plan_id":"free"},{"bike_id":"956fe110-a343-4414-91a1-6e3d50bfa094","system_id":"levelo_inurba_marseille","lat":43.231923,"lon":5.355545,"is_reserved":false,"is_disabled":false,"rental_uris":{"android":"levelo://app?vid=956fe110-a343-4414-91a1-6e3d50bfa094","ios":"levelo://app?vid=956fe110-a343-4414-91a1-6e3d50bfa094"},"vehicle_type_id":"4","last_reported":1679206213,"current_range_meters":30800,"station_id":"ce4bhu92rcd13ifvqi70","pricing_plan_id":"free"},{"bike_id":"ff98316f-748f-4069-a942-b27635abd352","system_id":"levelo_inurba_marseille","lat":43.231923,"lon":5.355545,"is_reserved":false,"is_disabled":false,"rental_uris":{"android":"levelo://app?vid=ff98316f-748f-4069-a942-b27635abd352","ios":"levelo://app?vid=ff98316f-748f-4069-a942-b27635abd352"},"vehicle_type_id":"4","last_reported":1679206213,"current_range_meters":31600,"station_id":"ce4bhu92rcd13ifvqi70","pricing_plan_id":"free"},{"bike_id":"aa784494-bcc8-4b38-921b-25d4252dc6ab","system_id":"levelo_inurba_marseille","lat":43.231912,"lon":5.355529,"is_reserved":false,"is_disabled":false,"rental_uris":{"android":"levelo://app?vid=aa784494-bcc8-4b38-921b-25d4252dc6ab","ios":"levelo://app?vid=aa784494-bcc8-4b38-921b-25d4252dc6ab"},"vehicle_type_id":"4","last_reported":1679206213,"current_range_meters":7600,"station_id":"ce4bhu92rcd13ifvqi70","pricing_plan_id":"free"},{"bike_id":"0010ebe6-0da4-49c8-96ff-1cfa6d1925a0","system_id":"levelo_inurba_marseille","lat":43.2319,"lon":5.35556,"is_reserved":false,"is_disabled":false,"rental_uris":{"android":"levelo://app?vid=0010ebe6-0da4-49c8-96ff-1cfa6d1925a0","ios":"levelo://app?vid=0010ebe6-0da4-49c8-96ff-1cfa6d1925a0"},"vehicle_type_id":"4","last_reported":1679206213,"current_range_meters":24800,"station_id":"ce4bhu92rcd13ifvqi70","pricing_plan_id":"free"}]}}