{"last_updated":1736338682,"ttl":60,"version":"2.2","data":{"bikes":[{"bike_id":"89421f62-06fd-4b68-bcb1-b94fd7ea6d26","system_id":"levelo_inurba_marseille","lat":43.32367,"lon":5.38887,"is_reserved":false,"is_disabled":false,"rental_uris":{"android":"levelo://app?vid=89421f62-06fd-4b68-bcb1-b94fd7ea6d26","ios":"levelo://app?vid=89421f62-06fd-4b68-bcb1-b94fd7ea6d26"},"vehicle_type_id":"4","last_reported":1736338682,"current_range_meters":17600,"station_id":"ce4bhqp2rcd13ifvqhog","pricing_plan_id":"cebpf4jnsgd1na2vs0mg"},{"bike_id":"19aa1d25-f781-496a-bbb9-147e19783b08","system_id":"levelo_inurba_marseille","lat":43.2955,"lon":5.42266,"is_reserved":false,"is_disabled":false,"rental_uris":{"android":"levelo://app?vid=19aa1d25-f781-496a-bbb9-147e19783b08","ios":"levelo://app?vid=19aa1d25-f781-496a-bbb9-147e19783b08"},"vehicle_type_id":"4","last_reported":1736338682,"current_range_meters":36800,"station_id":"ce4bhph2rcd13ifvqhdg","pricing_plan_id":"cebpf4jnsgd1na2vs0mg"},{"bike_id":"814654f8-01c6-431c-8f61-0883e6b6823c","system_id":"levelo_inurba_marseille","lat":43.3096,"lon":5.3906,"is_reserved":false,"is_disabled":false,"rental_uris":{"android":"levelo://app?vid=814654f8-01c6-431c-8f61-0883e6b6823c","ios":"levelo://app?vid=814654f8-01c6-431c-8f61-0883e6b6823c"},"vehicle_type_id":"4","last_reported":1736338682,"current_range_meters":37600,"station_id":"ce4bgup2rcd13ifvqco0","pricing_plan_id":"cebpf4jnsgd1na2vs0mg"},{"bike_id":"8ce999e7-77d8-45fe-ac23-e1045b33ab7b","system_id":"levelo_inurba_marseille","lat":43.26809,"lon":5.40278,"is_reserved":false,"is_disabled":false,"rental_uris":{"android":"levelo://app?vid=8ce999e7-77d8-45fe-ac23-e1045b33ab7b","ios":"levelo://app?vid=8ce999e7-77d8-45fe-ac23-e1045b33ab7b"},"vehicle_type_id":"4","last_reported":1736338682,"current_range_meters":38000,"station_id":"ce501612rcd8frsf0b60","pricing_plan_id":"cebpf4jnsgd1na2vs0mg"},{"bike_id":"221f7edb-0a48-4b56-85a2-56ecefcb9d81","system_id":"levelo_inurba_marseille","lat":43.27577,"lon":5.3843,"is_reserved":false,"is_disabled":false,"rental_uris":{"android":"levelo://app?vid=221f7edb-0a48-4b56-85a2-56ecefcb9d81","ios":"levelo://app?vid=221f7edb-0a48-4b56-85a2-56ecefcb9d81"},"vehicle_type_id":"4","last_reported":1736338682,"current_range_meters":9200,"station_id":"ce4bhh92rcd13ifvqfi0","pricing_plan_id":"cebpf4jnsgd1na2vs0mg"},{"bike_id":"c118b227-2b78-4706-8f34-1abff6342c8d","system_id":"levelo_inurba_marseille","lat":43.31241,"lon":5.36839,"is_reserved":false,"is_disabled":false,"rental_uris":{"android":"levelo://app?vid=c118b227-2b78-4706-8f34-1abff6342c8d","ios":"levelo://app?vid=c118b227-2b78-4706-8f34-1abff6342c8d"},"vehicle_type_id":"4","last_reported":1736338682,"current_range_meters":11200,"station_id":"ce4bgl92rcd13ifvqbq0","pricing_plan_id":"cebpf4jnsgd1na2vs0mg"},{"bike_id":"e76c191c-d5b0-4bb0-8de7-7c73600b8ad0","system_id":"levelo_inurba_marseille","lat":43.2293,"lon":5.35382,"is_reserved":false,"is_disabled":false,"rental_uris":{"android":"levelo://app?vid=e76c191c-d5b0-4bb0-8de7-7c73600b8ad0","ios":"levelo://app?vid=e76c191c-d5b0-4bb0-8de7-7c73600b8ad0"},"vehicle_type_id":"4","last_reported":1736338682,"current_range_meters":18000,"station_id":"cpo3532slgdg3j2ikp40","pricing_plan_id":"cebpf4jnsgd1na2vs0mg"},{"bike_id":"0c06f679-85b2-4f8b-8237-3c1bdba6d34d","system_id":"levelo_inurba_marseille","lat":43.27174,"lon":5.41006,"is_reserved":false,"is_disabled":false,"rental_uris":{"android":"levelo://app?vid=0c06f679-85b2-4f8b-8237-3c1bdba6d34d","ios":"levelo://app?vid=0c06f679-85b2-4f8b-8237-3c1bdba6d34d"},"vehicle_type_id":"4","last_reported":1736338682,"current_range_meters":38000,"station_id":"ce4bhl12rcd13ifvqgf0","pricing_plan_id":"cebpf4jnsgd1na2vs0mg"},{"bike_id":"86735338-e174-46cf-b2bf-25fc524e4f88","system_id":"levelo_inurba_marseille","lat":43.25869,"lon":5.39897,"is_reserved":false,"is_disabled":false,"rental_uris":{"android":"levelo://app?vid=86735338-e174-46cf-b2bf-25fc524e4f88","ios":"levelo://app?vid=86735338-e174-46cf-b2bf-25fc524e4f88"},"vehicle_type_id":"4","last_reported":1736338682,"current_range_meters":39200,"station_id":"ce4bhl92rcd13ifvqghg","pricing_plan_id":"cebpf4jnsgd1na2vs0mg"},{"bike_id":"b139e05c-4737-49db-82fb-5c584a77c17a","system_id":"levelo_inurba_marseille","lat":43.27309,"lon":5.39098,"is_reserved":false,"is_disabled":false,"rental_uris":{"android":"levelo://app?vid=b139e05c-4737-49db-82fb-5c584a77c17a","ios":"levelo://app?vid=b139e05c-4737-49db-82fb-5c584a77c17a"},"vehicle_type_id":"4","last_reported":1736338682,"current_range_meters":30000,"station_id":"ce4bhgp2rcd13ifvqfe0","pricing_plan_id":"cebpf4jnsgd1na2vs0mg"},{"bike_id":"370ad38a-304d-4a90-bf1a-b087c05d2284","system_id":"levelo_inurba_marseille","lat":43.30128,"lon":5.39869,"is_reserved":false,"is_disabled":false,"rental_uris":{"android":"levelo://app?vid=370ad38a-304d-4a90-bf1a-b087c05d2284","ios":"levelo://app?vid=370ad38a-304d-4a90-bf1a-b087c05d2284"},"vehicle_type_id":"4","last_reported":1736338682,"current_range_meters":8400,"station_id":"ce4bh0h2rcd13ifvqd40","pricing_plan_id":"cebpf4jnsgd1na2vs0mg"},{"bike_id":"a66a0c9d-3e90-4e2f-a813-6ebdf1b8c770","system_id":"levelo_inurba_marseille","lat":43.337218,"lon":5.391983,"is_reserved":false,"is_disabled":false,"rental_uris":{"android":"levelo://app?vid=a66a0c9d-3e90-4e2f-a813-6ebdf1b8c770","ios":"levelo://app?vid=a66a0c9d-3e90-4e2f-a813-6ebdf1b8c770"},"vehicle_type_id":"4","last_reported":1736338682,"current_range_meters":36000,"station_id":"ce4bhr92rcd13ifvqhsg","pricing_plan_id":"cebpf4jnsgd1na2vs0mg"},{"bike_id":"9eadb4d0-fc14-4c9f-a0b4-c558f55ec1c8","system_id":"levelo_inurba_marseille","lat":43.29385,"lon":5.3786,"is_reserved":false,"is_disabled":false,"rental_uris":{"android":"levelo://app?vid=9eadb4d0-fc14-4c9f-a0b4-c558f55ec1c8","ios":"levelo://app?vid=9eadb4d0-fc14-4c9f-a0b4-c558f55ec1c8"},"vehicle_type_id":"4","last_reported":1736338682,"current_range_meters":36400,"station_id":"ce4bgjh2rcd13ifvqbf0","pricing_plan_id":"cebpf4jnsgd1na2vs0mg"},{"bike_id":"2e3020fc-739e-484f-aff1-968aa18f2ac1","system_id":"levelo_inurba_marseille","lat":43.27991,"lon":5.41661,"is_reserved":false,"is_disabled":true,"rental_uris":{"android":"levelo://app?vid=2e3020fc-739e-484f-aff1-968aa18f2ac1","ios":"levelo://app?vid=2e3020fc-739e-484f-aff1-968aa18f2ac1"},"vehicle_type_id":"4","last_reported":1736338682,"current_range_meters":30000,"station_id":"ce4bho12rcd13ifvqh1g","pricing_plan_id":"cebpf4jnsgd1na2vs0mg"},{"bike_id":"56c3eec9-aaf7-435e-81a3-4fd508db7c27","system_id":"levelo_inurba_marseille","lat":43.31322,"lon":5.39682,"is_reserved":false,"is_disabled":false,"rental_uris":{"android":"levelo://app?vid=56c3eec9-aaf7-435e-81a3-4fd508db7c27","ios":"levelo://app?vid=56c3eec9-aaf7-435e-81a3-4fd508db7c27"},"vehicle_type_id":"4","last_reported":1736338682,"current_range_meters":31200,"station_id":"ce4bgvp2rcd13ifvqcu0","pricing_plan_id":"cebpf4jnsgd1na2vs0mg"},{"bike_id":"52ed51df-4218-4661-b05e-ddff698bd8a0","system_id":"levelo_inurba_marseille","lat":43.26948,"lon":5.4024,"is_reserved":false,"is_disabled":false,"rental_uris":{"android":"levelo://app?vid=52ed51df-4218-4661-b05e-ddff698bd8a0","ios":"levelo://app?vid=52ed51df-4218-4661-b05e-ddff698bd8a0"},"vehicle_type_id":"4","last_reported":1736338682,"current_range_meters":3200,"station_id":"cjm6bp8fraef2m0cb0m0","pricing_plan_id":"cebpf4jnsgd1na2vs0mg"},{"bike_id":"253dce08-9ecd-4b2e-a405-e2079672eff4","system_id":"levelo_inurba_marseille","lat":43.31325,"lon":5.39703,"is_reserved":false,"is_disabled":false,"rental_uris":{"android":"levelo://app?vid=253dce08-9ecd-4b2e-a405-e2079672eff4","ios":"levelo://app?vid=253dce08-9ecd-4b2e-a405-e2079672eff4"},"vehicle_type_id":"4","last_reported":1736338682,"current_range_meters":39200,"station_id":"ce4bgvp2rcd13ifvqcu0","pricing_plan_id":"cebpf4jnsgd1na2vs0mg"},{"bike_id":"54706f4d-3807-4316-80c4-c6c99386bb04","system_id":"levelo_inurba_marseille","lat":43.267,"lon":5.38279,"is_reserved":false,"is_disabled":false,"rental_uris":{"android":"levelo://app?vid=54706f4d-3807-4316-80c4-c6c99386bb04","ios":"levelo://app?vid=54706f4d-3807-4316-80c4-c6c99386bb04"},"vehicle_type_id":"4","last_reported":1736338682,"current_range_meters":38800,"station_id":"ce4bhg92rcd13ifvqf90","pricing_plan_id":"cebpf4jnsgd1na2vs0mg"},{"bike_id":"0aa57b60-0372-49a1-bff6-f446e93b2583","system_id":"levelo_inurba_marseille","lat":43.28381,"lon":5.38655,"is_reserved":false,"is_disabled":true,"rental_uris":{"android":"levelo://app?vid=0aa57b60-0372-49a1-bff6-f446e93b2583","ios":"levelo://app?vid=0aa57b60-0372-49a1-bff6-f446e93b2583"},"vehicle_type_id":"4","last_reported":1736338682,"current_range_meters":38000,"station_id":"ce4bh492rcd13ifvqdvg","pricing_plan_id":"cebpf4jnsgd1na2vs0mg"},{"bike_id":"e1d67e76-e9ef-43a5-b307-2704c03519b0","system_id":"levelo_inurba_marseille","lat":43.28921,"lon":5.39693,"is_reserved":false,"is_disabled":false,"rental_uris":{"android":"levelo://app?vid=e1d67e76-e9ef-43a5-b307-2704c03519b0","ios":"levelo://app?vid=e1d67e76-e9ef-43a5-b307-2704c03519b0"},"vehicle_type_id":"4","last_reported":1736338682,"current_range_meters":17200,"station_id":"","pricing_plan_id":"cebpf4jnsgd1na2vs0mg"},{"bike_id":"7f65b3b8-dd0a-4742-a2e9-7a8c4257f5c8","system_id":"levelo_inurba_marseille","lat":43.29711,"lon":5.37713,"is_reserved":false,"is_disabled":false,"rental_uris":{"android":"levelo://app?vid=7f65b3b8-dd0a-4742-a2e9-7a8c4257f5c8","ios":"levelo://app?vid=7f65b3b8-dd0a-4742-a2e9-7a8c4257f5c8"},"vehicle_type_id":"4","last_reported":1736338682,"current_range_meters":24400,"station_id":"ce4bgkh2rcd13ifvqbl0","pricing_plan_id":"cebpf4jnsgd1na2vs0mg"},{"bike_id":"8d65b2b1-927b-45d9-8b22-6f75685ab908","system_id":"levelo_inurba_marseille","lat":43.23154,"lon":5.43719,"is_reserved":false,"is_disabled":false,"rental_uris":{"android":"levelo://app?vid=8d65b2b1-927b-45d9-8b22-6f75685ab908","ios":"levelo://app?vid=8d65b2b1-927b-45d9-8b22-6f75685ab908"},"vehicle_type_id":"4","last_reported":1736338682,"current_range_meters":38800,"station_id":"ce4bhmp2rcd13ifvqgog","pricing_plan_id":"cebpf4jnsgd1na2vs0mg"},{"bike_id":"194b3f7e-8eca-4d54-b69e-47036d7a9f26","system_id":"levelo_inurba_marseille","lat":43.29076,"lon":5.3717,"is_reserved":false,"is_disabled":false,"rental_uris":{"android":"levelo://app?vid=194b3f7e-8eca-4d54-b69e-47036d7a9f26","ios":"levelo://app?vid=194b3f7e-8eca-4d54-b69e-47036d7a9f26"},"vehicle_type_id":"4","last_reported":1736338682,"current_range_meters":18000,"station_id":"ce4bh5p2rcd13ifvqe4g","pricing_plan_id":"cebpf4jnsgd1na2vs0mg"},{"bike_id":"1e6cf43c-5bc4-4280-891f-e1e1dbe235ed","system_id":"levelo_inurba_marseille","lat":43.25124,"lon":5.40316,"is_reserved":false,"is_disabled":false,"rental_uris":{"android":"levelo://app?vid=1e6cf43c-5bc4-4280-891f-e1e1dbe235ed","ios":"levelo://app?vid=1e6cf43c-5bc4-4280-891f-e1e1dbe235ed"},"vehicle_type_id":"4","last_reported":1736338682,"current_range_meters":17600,"station_id":"ce4bhlh2rcd13ifvqgig","pricing_plan_id":"cebpf4jnsgd1na2vs0mg"},{"bike_id":"c9e6329b-81c0-4a33-bf19-b3b1edd120f3","system_id":"levelo_inurba_marseille","lat":43.23186,"lon":5.39989,"is_reserved":false,"is_disabled":false,"rental_uris":{"android":"levelo://app?vid=c9e6329b-81c0-4a33-bf19-b3b1edd120f3","ios":"levelo://app?vid=c9e6329b-81c0-4a33-bf19-b3b1edd120f3"},"vehicle_type_id":"4","last_reported":1736338682,"current_range_meters":28000,"station_id":"ce4bhn12rcd13ifvqgqg","pricing_plan_id":"cebpf4jnsgd1na2vs0mg"},{"bike_id":"f5477bd9-ae2b-4f4a-90d2-43e1d2905a20","system_id":"levelo_inurba_marseille","lat":43.28416,"lon":5.34996,"is_reserved":false,"is_disabled":false,"rental_uris":{"android":"levelo://app?vid=f5477bd9-ae2b-4f4a-90d2-43e1d2905a20","ios":"levelo://app?vid=f5477bd9-ae2b-4f4a-90d2-43e1d2905a20"},"vehicle_type_id":"4","last_reported":1736338682,"current_range_meters":19200,"station_id":"ce4bhbh2rcd13ifvqepg","pricing_plan_id":"cebpf4jnsgd1na2vs0mg"},{"bike_id":"6fc2ccbc-6386-4126-bf58-d8467b5299c7","system_id":"levelo_inurba_marseille","lat":43.31328,"lon":5.39685,"is_reserved":false,"is_disabled":false,"rental_uris":{"android":"levelo://app?vid=6fc2ccbc-6386-4126-bf58-d8467b5299c7","ios":"levelo://app?vid=6fc2ccbc-6386-4126-bf58-d8467b5299c7"},"vehicle_type_id":"4","last_reported":1736338682,"current_range_meters":24400,"station_id":"ce4bgvp2rcd13ifvqcu0","pricing_plan_id":"cebpf4jnsgd1na2vs0mg"},{"bike_id":"3db76c14-10ba-44c7-9025-9f542d5d4924","system_id":"levelo_inurba_marseille","lat":43.29264,"lon":5.37452,"is_reserved":false,"is_disabled":false,"rental_uris":{"android":"levelo://app?vid=3db76c14-10ba-44c7-9025-9f542d5d4924","ios":"levelo://app?vid=3db76c14-10ba-44c7-9025-9f542d5d4924"},"vehicle_type_id":"4","last_reported":1736338682,"current_range_meters":37600,"station_id":"ce4bgi12rcd13ifvqb70","pricing_plan_id":"cebpf4jnsgd1na2vs0mg"},{"bike_id":"a25a9571-68eb-4f8c-b5c4-11cd6d79579e","system_id":"levelo_inurba_marseille","lat":43.2315,"lon":5.4371,"is_reserved":false,"is_disabled":false,"rental_uris":{"android":"levelo://app?vid=a25a9571-68eb-4f8c-b5c4-11cd6d79579e","ios":"levelo://app?vid=a25a9571-68eb-4f8c-b5c4-11cd6d79579e"},"vehicle_type_id":"4","last_reported":1736338682,"current_range_meters":39200,"station_id":"ce4bhmp2rcd13ifvqgog","pricing_plan_id":"cebpf4jnsgd1na2vs0mg"},{"bike_id":"ab0af7f7-aad2-428a-b763-076a11f417cd","system_id":"levelo_inurba_marseille","lat":43.32656,"lon":5.41003,"is_reserved":false,"is_disabled":false,"rental_uris":{"android":"levelo://app?vid=ab0af7f7-aad2-428a-b763-076a11f417cd","ios":"levelo://app?vid=ab0af7f7-aad2-428a-b763-076a11f417cd"},"vehicle_type_id":"4","last_reported":1736338682,"current_range_meters":36000,"station_id":"ce4bhpp2rcd13ifvqhgg","pricing_plan_id":"cebpf4jnsgd1na2vs0mg"},{"bike_id":"002b128a-c93a-4ad8-9e82-de7ccaa4ca70","system_id":"levelo_inurba_marseille","lat":43.29439,"lon":5.38602,"is_reserved":false,"is_disabled":false,"rental_uris":{"android":"levelo://app?vid=002b128a-c93a-4ad8-9e82-de7ccaa4ca70","ios":"levelo://app?vid=002b128a-c93a-4ad8-9e82-de7ccaa4ca70"},"vehicle_type_id":"4","last_reported":1736338682,"current_range_meters":31200,"station_id":"ce4bh2h2rcd13ifvqdh0","pricing_plan_id":"cebpf4jnsgd1na2vs0mg"},{"bike_id":"031c2797-021a-413d-9a4a-117028831830","system_id":"levelo_inurba_marseille","lat":43.28416,"lon":5.37517,"is_reserved":false,"is_disabled":true,"rental_uris":{"android":"levelo://app?vid=031c2797-021a-413d-9a4a-117028831830","ios":"levelo://app?vid=031c2797-021a-413d-9a4a-117028831830"},"vehicle_type_id":"4","last_reported":1736338682,"current_range_meters":800,"station_id":"ce4bh412rcd13ifvqds0","pricing_plan_id":"cebpf4jnsgd1na2vs0mg"},{"bike_id":"68625220-1783-43f3-81ff-51d113fca8be","system_id":"levelo_inurba_marseille","lat":43.286133,"lon":5.351049,"is_reserved":false,"is_disabled":false,"rental_uris":{"android":"levelo://app?vid=68625220-1783-43f3-81ff-51d113fca8be","ios":"levelo://app?vid=68625220-1783-43f3-81ff-51d113fca8be"},"vehicle_type_id":"4","last_reported":1736338682,"current_range_meters":28800,"station_id":"ce4bhch2rcd13ifvqeug","pricing_plan_id":"cebpf4jnsgd1na2vs0mg"},{"bike_id":"96ea8a1e-a989-49b8-9496-51632de1ddfe","system_id":"levelo_inurba_marseille","lat":43.29376,"lon":5.37854,"is_reserved":false,"is_disabled":false,"rental_uris":{"android":"levelo://app?vid=96ea8a1e-a989-49b8-9496-51632de1ddfe","ios":"levelo://app?vid=96ea8a1e-a989-49b8-9496-51632de1ddfe"},"vehicle_type_id":"4","last_reported":1736338682,"current_range_meters":38800,"station_id":"ce4bgjh2rcd13ifvqbf0","pricing_plan_id":"cebpf4jnsgd1na2vs0mg"},{"bike_id":"687d3387-4e10-4b8a-852a-57530c17e7ca","system_id":"levelo_inurba_marseille","lat":43.32862,"lon":5.39165,"is_reserved":false,"is_disabled":false,"rental_uris":{"android":"levelo://app?vid=687d3387-4e10-4b8a-852a-57530c17e7ca","ios":"levelo://app?vid=687d3387-4e10-4b8a-852a-57530c17e7ca"},"vehicle_type_id":"4","last_reported":1736338682,"current_range_meters":16400,"station_id":"","pricing_plan_id":"cebpf4jnsgd1na2vs0mg"},{"bike_id":"670aca15-a0b5-4e9b-9f94-4d512f324a68","system_id":"levelo_inurba_marseille","lat":43.291849,"lon":5.393176,"is_reserved":false,"is_disabled":true,"rental_uris":{"android":"levelo://app?vid=670aca15-a0b5-4e9b-9f94-4d512f324a68","ios":"levelo://app?vid=670aca15-a0b5-4e9b-9f94-4d512f324a68"},"vehicle_type_id":"4","last_reported":1736338682,"current_range_meters":4000,"station_id":"ce4bh192rcd13ifvqdd0","pricing_plan_id":"cebpf4jnsgd1na2vs0mg"},{"bike_id":"1bdf9ea7-9cda-433d-929f-366643850a3b","system_id":"levelo_inurba_marseille","lat":43.23164,"lon":5.437095,"is_reserved":false,"is_disabled":false,"rental_uris":{"android":"levelo://app?vid=1bdf9ea7-9cda-433d-929f-366643850a3b","ios":"levelo://app?vid=1bdf9ea7-9cda-433d-929f-366643850a3b"},"vehicle_type_id":"4","last_reported":1736338682,"current_range_meters":38800,"station_id":"ce4bhmp2rcd13ifvqgog","pricing_plan_id":"cebpf4jnsgd1na2vs0mg"},{"bike_id":"0d869571-702b-474e-9734-e51fa36b8db2","system_id":"levelo_inurba_marseille","lat":43.29215,"lon":5.39317,"is_reserved":false,"is_disabled":true,"rental_uris":{"android":"levelo://app?vid=0d869571-702b-474e-9734-e51fa36b8db2","ios":"levelo://app?vid=0d869571-702b-474e-9734-e51fa36b8db2"},"vehicle_type_id":"4","last_reported":1736338682,"current_range_meters":3600,"station_id":"ce4bh192rcd13ifvqdd0","pricing_plan_id":"cebpf4jnsgd1na2vs0mg"},{"bike_id":"9e79ea42-910e-4dda-aed4-135214be3fa2","system_id":"levelo_inurba_marseille","lat":43.30552,"lon":5.36539,"is_reserved":false,"is_disabled":true,"rental_uris":{"android":"levelo://app?vid=9e79ea42-910e-4dda-aed4-135214be3fa2","ios":"levelo://app?vid=9e79ea42-910e-4dda-aed4-135214be3fa2"},"vehicle_type_id":"4","last_reported":1736338682,"current_range_meters":25200,"station_id":"ce4bgs12rcd13ifvqcag","pricing_plan_id":"cebpf4jnsgd1na2vs0mg"},{"bike_id":"17455e38-23e7-4417-bfd6-acfba9715e77","system_id":"levelo_inurba_marseille","lat":43.31167,"lon":5.38713,"is_reserved":false,"is_disabled":false,"rental_uris":{"android":"levelo://app?vid=17455e38-23e7-4417-bfd6-acfba9715e77","ios":"levelo://app?vid=17455e38-23e7-4417-bfd6-acfba9715e77"},"vehicle_type_id":"4","last_reported":1736338682,"current_range_meters":38800,"station_id":"ce4bgv12rcd13ifvqcp0","pricing_plan_id":"cebpf4jnsgd1na2vs0mg"},{"bike_id":"9b8224b3-3f84-45c3-8c40-f6c39211b8da","system_id":"levelo_inurba_marseille","lat":43.29048,"lon":5.38625,"is_reserved":false,"is_disabled":false,"rental_uris":{"android":"levelo://app?vid=9b8224b3-3f84-45c3-8c40-f6c39211b8da","ios":"levelo://app?vid=9b8224b3-3f84-45c3-8c40-f6c39211b8da"},"vehicle_type_id":"4","last_reported":1736338682,"current_range_meters":11200,"station_id":"ce4bh4p2rcd13ifvqe0g","pricing_plan_id":"cebpf4jnsgd1na2vs0mg"},{"bike_id":"145dbb6b-cc62-42be-af6e-0abb4ac9cc2b","system_id":"levelo_inurba_marseille","lat":43.2668,"lon":5.38268,"is_reserved":false,"is_disabled":false,"rental_uris":{"android":"levelo://app?vid=145dbb6b-cc62-42be-af6e-0abb4ac9cc2b","ios":"levelo://app?vid=145dbb6b-cc62-42be-af6e-0abb4ac9cc2b"},"vehicle_type_id":"4","last_reported":1736338682,"current_range_meters":22000,"station_id":"ce4bhg92rcd13ifvqf90","pricing_plan_id":"cebpf4jnsgd1na2vs0mg"},{"bike_id":"81505764-dca5-4800-8b2b-cb9e5b82a3a8","system_id":"levelo_inurba_marseille","lat":43.29566,"lon":5.42279,"is_reserved":false,"is_disabled":false,"rental_uris":{"android":"levelo://app?vid=81505764-dca5-4800-8b2b-cb9e5b82a3a8","ios":"levelo://app?vid=81505764-dca5-4800-8b2b-cb9e5b82a3a8"},"vehicle_type_id":"4","last_reported":1736338682,"current_range_meters":11200,"station_id":"ce4bhph2rcd13ifvqhdg","pricing_plan_id":"cebpf4jnsgd1na2vs0mg"},{"bike_id":"129946c8-9f9a-4ba2-9e9c-1829d86903e0","system_id":"levelo_inurba_marseille","lat":43.29936,"lon":5.36547,"is_reserved":false,"is_disabled":false,"rental_uris":{"android":"levelo://app?vid=129946c8-9f9a-4ba2-9e9c-1829d86903e0","ios":"levelo://app?vid=129946c8-9f9a-4ba2-9e9c-1829d86903e0"},"vehicle_type_id":"4","last_reported":1736338682,"current_range_meters":4800,"station_id":"ce4bgm92rcd13ifvqbr0","pricing_plan_id":"cebpf4jnsgd1na2vs0mg"},{"bike_id":"3b617068-8ecc-431f-ab2b-fbd4ed126007","system_id":"levelo_inurba_marseille","lat":43.27621,"lon":5.3611,"is_reserved":false,"is_disabled":false,"rental_uris":{"android":"levelo://app?vid=3b617068-8ecc-431f-ab2b-fbd4ed126007","ios":"levelo://app?vid=3b617068-8ecc-431f-ab2b-fbd4ed126007"},"vehicle_type_id":"4","last_reported":1736338682,"current_range_meters":38400,"station_id":"ce4bgj92rcd13ifvqbe0","pricing_plan_id":"cebpf4jnsgd1na2vs0mg"},{"bike_id":"ddd3be09-f86c-4a46-a9f8-b7504e8f1d97","system_id":"levelo_inurba_marseille","lat":43.24649,"lon":5.38895,"is_reserved":false,"is_disabled":false,"rental_uris":{"android":"levelo://app?vid=ddd3be09-f86c-4a46-a9f8-b7504e8f1d97","ios":"levelo://app?vid=ddd3be09-f86c-4a46-a9f8-b7504e8f1d97"},"vehicle_type_id":"4","last_reported":1736338682,"current_range_meters":39200,"station_id":"ce4bhg12rcd13ifvqf60","pricing_plan_id":"cebpf4jnsgd1na2vs0mg"},{"bike_id":"3fb72a23-64f6-4200-b6c3-659fde2a8b9f","system_id":"levelo_inurba_marseille","lat":43.31337,"lon":5.3969,"is_reserved":false,"is_disabled":false,"rental_uris":{"android":"levelo://app?vid=3fb72a23-64f6-4200-b6c3-659fde2a8b9f","ios":"levelo://app?vid=3fb72a23-64f6-4200-b6c3-659fde2a8b9f"},"vehicle_type_id":"4","last_reported":1736338682,"current_range_meters":11600,"station_id":"ce4bgvp2rcd13ifvqcu0","pricing_plan_id":"cebpf4jnsgd1na2vs0mg"},{"bike_id":"5cf5d467-316b-44fa-8fb8-856da6a44a4c","system_id":"levelo_inurba_marseille","lat":43.27816,"lon":5.40718,"is_reserved":false,"is_disabled":false,"rental_uris":{"android":"levelo://app?vid=5cf5d467-316b-44fa-8fb8-856da6a44a4c","ios":"levelo://app?vid=5cf5d467-316b-44fa-8fb8-856da6a44a4c"},"vehicle_type_id":"4","last_reported":1736338682,"current_range_meters":38800,"station_id":"ce4bhnh2rcd13ifvqgtg","pricing_plan_id":"cebpf4jnsgd1na2vs0mg"},{"bike_id":"1dc0e0a6-585b-4423-aa6a-3e3b8d5506fa","system_id":"levelo_inurba_marseille","lat":43.27947,"lon":5.41043,"is_reserved":false,"is_disabled":false,"rental_uris":{"android":"levelo://app?vid=1dc0e0a6-585b-4423-aa6a-3e3b8d5506fa","ios":"levelo://app?vid=1dc0e0a6-585b-4423-aa6a-3e3b8d5506fa"},"vehicle_type_id":"4","last_reported":1736338682,"current_range_meters":35600,"station_id":"ce4bhnp2rcd13ifvqh0g","pricing_plan_id":"cebpf4jnsgd1na2vs0mg"},{"bike_id":"9316647f-ed5c-4405-9959-54bd12d4298a","system_id":"levelo_inurba_marseille","lat":43.282525,"lon":5.350775,"is_reserved":false,"is_disabled":false,"rental_uris":{"android":"levelo://app?vid=9316647f-ed5c-4405-9959-54bd12d4298a","ios":"levelo://app?vid=9316647f-ed5c-4405-9959-54bd12d4298a"},"vehicle_type_id":"4","last_reported":1736338682,"current_range_meters":6400,"station_id":"ce4bhbp2rcd13ifvqerg","pricing_plan_id":"cebpf4jnsgd1na2vs0mg"},{"bike_id":"0a8cb51e-1526-4c59-99b2-3f5fff00096c","system_id":"levelo_inurba_marseille","lat":43.28452,"lon":5.39196,"is_reserved":false,"is_disabled":false,"rental_uris":{"android":"levelo://app?vid=0a8cb51e-1526-4c59-99b2-3f5fff00096c","ios":"levelo://app?vid=0a8cb51e-1526-4c59-99b2-3f5fff00096c"},"vehicle_type_id":"4","last_reported":1736338682,"current_range_meters":39200,"station_id":"ce4bhoh2rcd13ifvqh5g","pricing_plan_id":"cebpf4jnsgd1na2vs0mg"},{"bike_id":"bc844efb-0478-4946-9318-45de67b390db","system_id":"levelo_inurba_marseille","lat":43.28254,"lon":5.35049,"is_reserved":false,"is_disabled":false,"rental_uris":{"android":"levelo://app?vid=bc844efb-0478-4946-9318-45de67b390db","ios":"levelo://app?vid=bc844efb-0478-4946-9318-45de67b390db"},"vehicle_type_id":"4","last_reported":1736338682,"current_range_meters":34000,"station_id":"ce4bhbp2rcd13ifvqerg","pricing_plan_id":"cebpf4jnsgd1na2vs0mg"},{"bike_id":"840e3f90-17d0-4c94-88a0-c5120c40cdea","system_id":"levelo_inurba_marseille","lat":43.2573,"lon":5.41112,"is_reserved":false,"is_disabled":false,"rental_uris":{"android":"levelo://app?vid=840e3f90-17d0-4c94-88a0-c5120c40cdea","ios":"levelo://app?vid=840e3f90-17d0-4c94-88a0-c5120c40cdea"},"vehicle_type_id":"4","last_reported":1736338682,"current_range_meters":38800,"station_id":"ce4bhkp2rcd13ifvqgd0","pricing_plan_id":"cebpf4jnsgd1na2vs0mg"},{"bike_id":"1bc78c82-74eb-430f-9c54-76623708396a","system_id":"levelo_inurba_marseille","lat":43.26217,"lon":5.3792,"is_reserved":false,"is_disabled":false,"rental_uris":{"android":"levelo://app?vid=1bc78c82-74eb-430f-9c54-76623708396a","ios":"levelo://app?vid=1bc78c82-74eb-430f-9c54-76623708396a"},"vehicle_type_id":"4","last_reported":1736338682,"current_range_meters":20400,"station_id":"ce4bhjp2rcd13ifvqg90","pricing_plan_id":"cebpf4jnsgd1na2vs0mg"},{"bike_id":"b88b36eb-a09d-43f7-b358-c8a9423da704","system_id":"levelo_inurba_marseille","lat":43.30542,"lon":5.36562,"is_reserved":false,"is_disabled":false,"rental_uris":{"android":"levelo://app?vid=b88b36eb-a09d-43f7-b358-c8a9423da704","ios":"levelo://app?vid=b88b36eb-a09d-43f7-b358-c8a9423da704"},"vehicle_type_id":"4","last_reported":1736338682,"current_range_meters":27600,"station_id":"ce4bgs12rcd13ifvqcag","pricing_plan_id":"cebpf4jnsgd1na2vs0mg"},{"bike_id":"19010837-aae9-48c7-8dfa-404ec1fa216a","system_id":"levelo_inurba_marseille","lat":43.27372,"lon":5.36253,"is_reserved":false,"is_disabled":false,"rental_uris":{"android":"levelo://app?vid=19010837-aae9-48c7-8dfa-404ec1fa216a","ios":"levelo://app?vid=19010837-aae9-48c7-8dfa-404ec1fa216a"},"vehicle_type_id":"4","last_reported":1736338682,"current_range_meters":39200,"station_id":"ce4bhbh2rcd13ifvqeo0","pricing_plan_id":"cebpf4jnsgd1na2vs0mg"},{"bike_id":"fd6f4bdb-b571-49af-a0f0-595f48931cd9","system_id":"levelo_inurba_marseille","lat":43.299651,"lon":5.371884,"is_reserved":false,"is_disabled":false,"rental_uris":{"android":"levelo://app?vid=fd6f4bdb-b571-49af-a0f0-595f48931cd9","ios":"levelo://app?vid=fd6f4bdb-b571-49af-a0f0-595f48931cd9"},"vehicle_type_id":"4","last_reported":1736338682,"current_range_meters":30400,"station_id":"ce4bgr92rcd13ifvqc7g","pricing_plan_id":"cebpf4jnsgd1na2vs0mg"},{"bike_id":"f315f1f6-15a6-45f1-b66d-ebc071343df0","system_id":"levelo_inurba_marseille","lat":43.29391,"lon":5.37848,"is_reserved":false,"is_disabled":false,"rental_uris":{"android":"levelo://app?vid=f315f1f6-15a6-45f1-b66d-ebc071343df0","ios":"levelo://app?vid=f315f1f6-15a6-45f1-b66d-ebc071343df0"},"vehicle_type_id":"4","last_reported":1736338682,"current_range_meters":32000,"station_id":"ce4bgjh2rcd13ifvqbf0","pricing_plan_id":"cebpf4jnsgd1na2vs0mg"},{"bike_id":"514d218d-b1d9-4d7b-9fa0-8ced26e21a3c","system_id":"levelo_inurba_marseille","lat":43.27189,"lon":5.4099,"is_reserved":false,"is_disabled":false,"rental_uris":{"android":"levelo://app?vid=514d218d-b1d9-4d7b-9fa0-8ced26e21a3c","ios":"levelo://app?vid=514d218d-b1d9-4d7b-9fa0-8ced26e21a3c"},"vehicle_type_id":"4","last_reported":1736338682,"current_range_meters":38400,"station_id":"ce4bhl12rcd13ifvqgf0","pricing_plan_id":"cebpf4jnsgd1na2vs0mg"},{"bike_id":"8e64f543-6973-4df8-a53a-deacfc512648","system_id":"levelo_inurba_marseille","lat":43.29796,"lon":5.40411,"is_reserved":false,"is_disabled":false,"rental_uris":{"android":"levelo://app?vid=8e64f543-6973-4df8-a53a-deacfc512648","ios":"levelo://app?vid=8e64f543-6973-4df8-a53a-deacfc512648"},"vehicle_type_id":"4","last_reported":1736338682,"current_range_meters":37600,"station_id":"ce4bh112rcd13ifvqd90","pricing_plan_id":"cebpf4jnsgd1na2vs0mg"},{"bike_id":"b5be4f11-d6b3-4743-b397-0825a058802c","system_id":"levelo_inurba_marseille","lat":43.28975,"lon":5.38125,"is_reserved":false,"is_disabled":false,"rental_uris":{"android":"levelo://app?vid=b5be4f11-d6b3-4743-b397-0825a058802c","ios":"levelo://app?vid=b5be4f11-d6b3-4743-b397-0825a058802c"},"vehicle_type_id":"4","last_reported":1736338682,"current_range_meters":36800,"station_id":"ce4bh4p2rcd13ifvqe1g","pricing_plan_id":"cebpf4jnsgd1na2vs0mg"},{"bike_id":"ff46399f-c51b-4e98-a95c-e2be004ddcd0","system_id":"levelo_inurba_marseille","lat":43.28707,"lon":5.37418,"is_reserved":false,"is_disabled":false,"rental_uris":{"android":"levelo://app?vid=ff46399f-c51b-4e98-a95c-e2be004ddcd0","ios":"levelo://app?vid=ff46399f-c51b-4e98-a95c-e2be004ddcd0"},"vehicle_type_id":"4","last_reported":1736338682,"current_range_meters":12400,"station_id":"ce4bh3p2rcd13ifvqdq0","pricing_plan_id":"cebpf4jnsgd1na2vs0mg"},{"bike_id":"cb0f9f99-ad92-486a-b4a0-b59cd34fb503","system_id":"levelo_inurba_marseille","lat":43.30934,"lon":5.40145,"is_reserved":false,"is_disabled":false,"rental_uris":{"android":"levelo://app?vid=cb0f9f99-ad92-486a-b4a0-b59cd34fb503","ios":"levelo://app?vid=cb0f9f99-ad92-486a-b4a0-b59cd34fb503"},"vehicle_type_id":"4","last_reported":1736338682,"current_range_meters":9600,"station_id":"ce4bgvp2rcd13ifvqct0","pricing_plan_id":"cebpf4jnsgd1na2vs0mg"},{"bike_id":"8c9f902b-6145-4b29-8893-9f907145c8a9","system_id":"levelo_inurba_marseille","lat":43.23063,"lon":5.35497,"is_reserved":false,"is_disabled":false,"rental_uris":{"android":"levelo://app?vid=8c9f902b-6145-4b29-8893-9f907145c8a9","ios":"levelo://app?vid=8c9f902b-6145-4b29-8893-9f907145c8a9"},"vehicle_type_id":"4","last_reported":1736338682,"current_range_meters":37600,"station_id":"cpo3342slgdg3j2ifvpg","pricing_plan_id":"cebpf4jnsgd1na2vs0mg"},{"bike_id":"c4dfe9dc-b7cf-4db8-8579-7680a89936e8","system_id":"levelo_inurba_marseille","lat":43.337444,"lon":5.374475,"is_reserved":false,"is_disabled":false,"rental_uris":{"android":"levelo://app?vid=c4dfe9dc-b7cf-4db8-8579-7680a89936e8","ios":"levelo://app?vid=c4dfe9dc-b7cf-4db8-8579-7680a89936e8"},"vehicle_type_id":"4","last_reported":1736338682,"current_range_meters":36800,"station_id":"ce4bhbh2rcd13ifvqeo0","pricing_plan_id":"cebpf4jnsgd1na2vs0mg"},{"bike_id":"c149f94c-e67e-4d82-8d58-defaef1244a4","system_id":"levelo_inurba_marseille","lat":43.24552,"lon":5.39527,"is_reserved":false,"is_disabled":false,"rental_uris":{"android":"levelo://app?vid=c149f94c-e67e-4d82-8d58-defaef1244a4","ios":"levelo://app?vid=c149f94c-e67e-4d82-8d58-defaef1244a4"},"vehicle_type_id":"4","last_reported":1736338682,"current_range_meters":38800,"station_id":"ce4bhlp2rcd13ifvqgjg","pricing_plan_id":"cebpf4jnsgd1na2vs0mg"},{"bike_id":"6a299307-cb31-4701-aff9-d0095ea2acfb","system_id":"levelo_inurba_marseille","lat":43.231496,"lon":5.43728,"is_reserved":false,"is_disabled":false,"rental_uris":{"android":"levelo://app?vid=6a299307-cb31-4701-aff9-d0095ea2acfb","ios":"levelo://app?vid=6a299307-cb31-4701-aff9-d0095ea2acfb"},"vehicle_type_id":"4","last_reported":1736338682,"current_range_meters":20800,"station_id":"ce4bhmp2rcd13ifvqgog","pricing_plan_id":"cebpf4jnsgd1na2vs0mg"},{"bike_id":"19b91a9f-fd48-4df2-8b35-159611c05670","system_id":"levelo_inurba_marseille","lat":43.30606,"lon":5.37225,"is_reserved":false,"is_disabled":false,"rental_uris":{"android":"levelo://app?vid=19b91a9f-fd48-4df2-8b35-159611c05670","ios":"levelo://app?vid=19b91a9f-fd48-4df2-8b35-159611c05670"},"vehicle_type_id":"4","last_reported":1736338682,"current_range_meters":34800,"station_id":"ce4bgqh2rcd13ifvqc4g","pricing_plan_id":"cebpf4jnsgd1na2vs0mg"},{"bike_id":"ea60edce-76ab-4155-8e79-99022a30bcac","system_id":"levelo_inurba_marseille","lat":43.29563,"lon":5.42293,"is_reserved":false,"is_disabled":false,"rental_uris":{"android":"levelo://app?vid=ea60edce-76ab-4155-8e79-99022a30bcac","ios":"levelo://app?vid=ea60edce-76ab-4155-8e79-99022a30bcac"},"vehicle_type_id":"4","last_reported":1736338682,"current_range_meters":19200,"station_id":"ce4bhph2rcd13ifvqhdg","pricing_plan_id":"cebpf4jnsgd1na2vs0mg"},{"bike_id":"3a2537e5-a1dc-4389-8b8f-0a1f00a218a5","system_id":"levelo_inurba_marseille","lat":43.28695,"lon":5.37382,"is_reserved":false,"is_disabled":false,"rental_uris":{"android":"levelo://app?vid=3a2537e5-a1dc-4389-8b8f-0a1f00a218a5","ios":"levelo://app?vid=3a2537e5-a1dc-4389-8b8f-0a1f00a218a5"},"vehicle_type_id":"4","last_reported":1736338682,"current_range_meters":22800,"station_id":"ce4bh3p2rcd13ifvqdq0","pricing_plan_id":"cebpf4jnsgd1na2vs0mg"},{"bike_id":"32754458-9006-462e-8547-8e413db8f7c5","system_id":"levelo_inurba_marseille","lat":43.2836,"lon":5.38113,"is_reserved":false,"is_disabled":false,"rental_uris":{"android":"levelo://app?vid=32754458-9006-462e-8547-8e413db8f7c5","ios":"levelo://app?vid=32754458-9006-462e-8547-8e413db8f7c5"},"vehicle_type_id":"4","last_reported":1736338682,"current_range_meters":22400,"station_id":"ce4bh412rcd13ifvqdr0","pricing_plan_id":"cebpf4jnsgd1na2vs0mg"},{"bike_id":"b13965eb-7a3e-487c-8f4f-1d2936af4009","system_id":"levelo_inurba_marseille","lat":43.25799,"lon":5.39401,"is_reserved":false,"is_disabled":false,"rental_uris":{"android":"levelo://app?vid=b13965eb-7a3e-487c-8f4f-1d2936af4009","ios":"levelo://app?vid=b13965eb-7a3e-487c-8f4f-1d2936af4009"},"vehicle_type_id":"4","last_reported":1736338682,"current_range_meters":38800,"station_id":"ce4bhip2rcd13ifvqft0","pricing_plan_id":"cebpf4jnsgd1na2vs0mg"},{"bike_id":"d900b582-e8ac-43b6-84c3-72cd6673cdf3","system_id":"levelo_inurba_marseille","lat":43.28609,"lon":5.37071,"is_reserved":false,"is_disabled":false,"rental_uris":{"android":"levelo://app?vid=d900b582-e8ac-43b6-84c3-72cd6673cdf3","ios":"levelo://app?vid=d900b582-e8ac-43b6-84c3-72cd6673cdf3"},"vehicle_type_id":"4","last_reported":1736338682,"current_range_meters":33200,"station_id":"ce4bht12rcd13ifvqi60","pricing_plan_id":"cebpf4jnsgd1na2vs0mg"},{"bike_id":"335f33dc-e8a2-4e20-86f2-7842bb962305","system_id":"levelo_inurba_marseille","lat":43.26584,"lon":5.39039,"is_reserved":false,"is_disabled":false,"rental_uris":{"android":"levelo://app?vid=335f33dc-e8a2-4e20-86f2-7842bb962305","ios":"levelo://app?vid=335f33dc-e8a2-4e20-86f2-7842bb962305"},"vehicle_type_id":"4","last_reported":1736338682,"current_range_meters":34000,"station_id":"ce4bhe12rcd13ifvqf30","pricing_plan_id":"cebpf4jnsgd1na2vs0mg"},{"bike_id":"3ad0f3ed-1061-459e-b238-515ecfd1abd9","system_id":"levelo_inurba_marseille","lat":43.30783,"lon":5.37652,"is_reserved":false,"is_disabled":true,"rental_uris":{"android":"levelo://app?vid=3ad0f3ed-1061-459e-b238-515ecfd1abd9","ios":"levelo://app?vid=3ad0f3ed-1061-459e-b238-515ecfd1abd9"},"vehicle_type_id":"4","last_reported":1736338682,"current_range_meters":38000,"station_id":"","pricing_plan_id":"cebpf4jnsgd1na2vs0mg"},{"bike_id":"637c9e25-6ec5-4d5c-9ec9-ed6c73dcb821","system_id":"levelo_inurba_marseille","lat":43.31701,"lon":5.37785,"is_reserved":false,"is_disabled":false,"rental_uris":{"android":"levelo://app?vid=637c9e25-6ec5-4d5c-9ec9-ed6c73dcb821","ios":"levelo://app?vid=637c9e25-6ec5-4d5c-9ec9-ed6c73dcb821"},"vehicle_type_id":"4","last_reported":1736338682,"current_range_meters":31200,"station_id":"ce4bgth2rcd13ifvqch0","pricing_plan_id":"cebpf4jnsgd1na2vs0mg"},{"bike_id":"71407755-90b9-4440-9660-39dda1384a58","system_id":"levelo_inurba_marseille","lat":43.27923,"lon":5.39589,"is_reserved":false,"is_disabled":false,"rental_uris":{"android":"levelo://app?vid=71407755-90b9-4440-9660-39dda1384a58","ios":"levelo://app?vid=71407755-90b9-4440-9660-39dda1384a58"},"vehicle_type_id":"4","last_reported":1736338682,"current_range_meters":19200,"station_id":"ce4bhf92rcd13ifvqf40","pricing_plan_id":"cebpf4jnsgd1na2vs0mg"},{"bike_id":"c6b0047e-cd1e-4171-84c5-36b9170be689","system_id":"levelo_inurba_marseille","lat":43.31164,"lon":5.38722,"is_reserved":false,"is_disabled":false,"rental_uris":{"android":"levelo://app?vid=c6b0047e-cd1e-4171-84c5-36b9170be689","ios":"levelo://app?vid=c6b0047e-cd1e-4171-84c5-36b9170be689"},"vehicle_type_id":"4","last_reported":1736338682,"current_range_meters":19200,"station_id":"ce4bgv12rcd13ifvqcp0","pricing_plan_id":"cebpf4jnsgd1na2vs0mg"},{"bike_id":"4a6680ee-de6f-4fc0-bbf8-f8aa872a7cc5","system_id":"levelo_inurba_marseille","lat":43.23961,"lon":5.36639,"is_reserved":false,"is_disabled":false,"rental_uris":{"android":"levelo://app?vid=4a6680ee-de6f-4fc0-bbf8-f8aa872a7cc5","ios":"levelo://app?vid=4a6680ee-de6f-4fc0-bbf8-f8aa872a7cc5"},"vehicle_type_id":"4","last_reported":1736338682,"current_range_meters":6400,"station_id":"ce4bhi12rcd13ifvqfp0","pricing_plan_id":"cebpf4jnsgd1na2vs0mg"},{"bike_id":"5671a7cc-1094-4b46-906d-b97f733ad9e2","system_id":"levelo_inurba_marseille","lat":43.30323,"lon":5.40457,"is_reserved":false,"is_disabled":true,"rental_uris":{"android":"levelo://app?vid=5671a7cc-1094-4b46-906d-b97f733ad9e2","ios":"levelo://app?vid=5671a7cc-1094-4b46-906d-b97f733ad9e2"},"vehicle_type_id":"4","last_reported":1736338682,"current_range_meters":32800,"station_id":"ce4bh012rcd13ifvqd10","pricing_plan_id":"cebpf4jnsgd1na2vs0mg"},{"bike_id":"e595796a-c7a2-4bc5-9efd-820721cae471","system_id":"levelo_inurba_marseille","lat":43.259299,"lon":5.409119,"is_reserved":false,"is_disabled":false,"rental_uris":{"android":"levelo://app?vid=e595796a-c7a2-4bc5-9efd-820721cae471","ios":"levelo://app?vid=e595796a-c7a2-4bc5-9efd-820721cae471"},"vehicle_type_id":"4","last_reported":1736338682,"current_range_meters":37600,"station_id":"ce4bhm92rcd13ifvqglg","pricing_plan_id":"cebpf4jnsgd1na2vs0mg"},{"bike_id":"013091b2-da9b-4660-95cc-06e55ec64952","system_id":"levelo_inurba_marseille","lat":43.25079,"lon":5.39574,"is_reserved":false,"is_disabled":false,"rental_uris":{"android":"levelo://app?vid=013091b2-da9b-4660-95cc-06e55ec64952","ios":"levelo://app?vid=013091b2-da9b-4660-95cc-06e55ec64952"},"vehicle_type_id":"4","last_reported":1736338682,"current_range_meters":16000,"station_id":"ce4bhm12rcd13ifvqgkg","pricing_plan_id":"cebpf4jnsgd1na2vs0mg"},{"bike_id":"005c2044-0c78-410b-b1cd-e1e9feaa0e05","system_id":"levelo_inurba_marseille","lat":43.23962,"lon":5.3664,"is_reserved":false,"is_disabled":false,"rental_uris":{"android":"levelo://app?vid=005c2044-0c78-410b-b1cd-e1e9feaa0e05","ios":"levelo://app?vid=005c2044-0c78-410b-b1cd-e1e9feaa0e05"},"vehicle_type_id":"4","last_reported":1736338682,"current_range_meters":13600,"station_id":"ce4bhi12rcd13ifvqfp0","pricing_plan_id":"cebpf4jnsgd1na2vs0mg"},{"bike_id":"db190856-6440-4075-89bd-6bb8e507459d","system_id":"levelo_inurba_marseille","lat":43.23965,"lon":5.36626,"is_reserved":false,"is_disabled":false,"rental_uris":{"android":"levelo://app?vid=db190856-6440-4075-89bd-6bb8e507459d","ios":"levelo://app?vid=db190856-6440-4075-89bd-6bb8e507459d"},"vehicle_type_id":"4","last_reported":1736338682,"current_range_meters":9200,"station_id":"ce4bhi12rcd13ifvqfp0","pricing_plan_id":"cebpf4jnsgd1na2vs0mg"},{"bike_id":"f1a5c5e2-3575-4312-a357-6f3fd68fe5f5","system_id":"levelo_inurba_marseille","lat":43.25819,"lon":5.3944,"is_reserved":false,"is_disabled":false,"rental_uris":{"android":"levelo://app?vid=f1a5c5e2-3575-4312-a357-6f3fd68fe5f5","ios":"levelo://app?vid=f1a5c5e2-3575-4312-a357-6f3fd68fe5f5"},"vehicle_type_id":"4","last_reported":1736338682,"current_range_meters":33600,"station_id":"ce4bhip2rcd13ifvqft0","pricing_plan_id":"cebpf4jnsgd1na2vs0mg"},{"bike_id":"83baf20d-1b09-4226-9cb3-9496b8c6d245","system_id":"levelo_inurba_marseille","lat":43.3081,"lon":5.43552,"is_reserved":false,"is_disabled":false,"rental_uris":{"android":"levelo://app?vid=83baf20d-1b09-4226-9cb3-9496b8c6d245","ios":"levelo://app?vid=83baf20d-1b09-4226-9cb3-9496b8c6d245"},"vehicle_type_id":"4","last_reported":1736338682,"current_range_meters":24800,"station_id":"ce4bhph2rcd13ifvqheg","pricing_plan_id":"cebpf4jnsgd1na2vs0mg"},{"bike_id":"4d2951cd-0fad-40f9-b73d-d51505e6b936","system_id":"levelo_inurba_marseille","lat":43.28672,"lon":5.38668,"is_reserved":false,"is_disabled":false,"rental_uris":{"android":"levelo://app?vid=4d2951cd-0fad-40f9-b73d-d51505e6b936","ios":"levelo://app?vid=4d2951cd-0fad-40f9-b73d-d51505e6b936"},"vehicle_type_id":"4","last_reported":1736338682,"current_range_meters":7200,"station_id":"ce4bh492rcd13ifvqdug","pricing_plan_id":"cebpf4jnsgd1na2vs0mg"},{"bike_id":"6a595de3-0911-46a9-bdbf-4cca5437105e","system_id":"levelo_inurba_marseille","lat":43.2319,"lon":5.35558,"is_reserved":false,"is_disabled":false,"rental_uris":{"android":"levelo://app?vid=6a595de3-0911-46a9-bdbf-4cca5437105e","ios":"levelo://app?vid=6a595de3-0911-46a9-bdbf-4cca5437105e"},"vehicle_type_id":"4","last_reported":1736338682,"current_range_meters":10800,"station_id":"ce4bhu92rcd13ifvqi70","pricing_plan_id":"cebpf4jnsgd1na2vs0mg"},{"bike_id":"641d8acc-50b2-4173-ab23-c70f2a11d28e","system_id":"levelo_inurba_marseille","lat":43.28153,"lon":5.42635,"is_reserved":false,"is_disabled":true,"rental_uris":{"android":"levelo://app?vid=641d8acc-50b2-4173-ab23-c70f2a11d28e","ios":"levelo://app?vid=641d8acc-50b2-4173-ab23-c70f2a11d28e"},"vehicle_type_id":"4","last_reported":1736338682,"current_range_meters":19200,"station_id":"ce4bhnh2rcd13ifvqgug","pricing_plan_id":"cebpf4jnsgd1na2vs0mg"},{"bike_id":"46949c03-a242-4194-afde-6b6223fab5f1","system_id":"levelo_inurba_marseille","lat":43.32054,"lon":5.41542,"is_reserved":false,"is_disabled":false,"rental_uris":{"android":"levelo://app?vid=46949c03-a242-4194-afde-6b6223fab5f1","ios":"levelo://app?vid=46949c03-a242-4194-afde-6b6223fab5f1"},"vehicle_type_id":"4","last_reported":1736338682,"current_range_meters":12400,"station_id":"ce4bhq92rcd13ifvqhkg","pricing_plan_id":"cebpf4jnsgd1na2vs0mg"},{"bike_id":"4a309558-80dc-41fc-8d1f-f7f76baadbf6","system_id":"levelo_inurba_marseille","lat":43.29847,"lon":5.36294,"is_reserved":false,"is_disabled":false,"rental_uris":{"android":"levelo://app?vid=4a309558-80dc-41fc-8d1f-f7f76baadbf6","ios":"levelo://app?vid=4a309558-80dc-41fc-8d1f-f7f76baadbf6"},"vehicle_type_id":"4","last_reported":1736338682,"current_range_meters":16800,"station_id":"ce4bgpp2rcd13ifvqc3g","pricing_plan_id":"cebpf4jnsgd1na2vs0mg"},{"bike_id":"d9697bb8-b1e0-405f-a7a8-a19e2df9e468","system_id":"levelo_inurba_marseille","lat":43.30527,"lon":5.367,"is_reserved":false,"is_disabled":false,"rental_uris":{"android":"levelo://app?vid=d9697bb8-b1e0-405f-a7a8-a19e2df9e468","ios":"levelo://app?vid=d9697bb8-b1e0-405f-a7a8-a19e2df9e468"},"vehicle_type_id":"4","last_reported":1736338682,"current_range_meters":39200,"station_id":"ce4bgrp2rcd13ifvqc9g","pricing_plan_id":"cebpf4jnsgd1na2vs0mg"},{"bike_id":"8f4249ba-c76b-4bbb-a8d2-e5857a619d91","system_id":"levelo_inurba_marseille","lat":43.31705,"lon":5.37754,"is_reserved":false,"is_disabled":false,"rental_uris":{"android":"levelo://app?vid=8f4249ba-c76b-4bbb-a8d2-e5857a619d91","ios":"levelo://app?vid=8f4249ba-c76b-4bbb-a8d2-e5857a619d91"},"vehicle_type_id":"4","last_reported":1736338682,"current_range_meters":38400,"station_id":"ce4bgth2rcd13ifvqch0","pricing_plan_id":"cebpf4jnsgd1na2vs0mg"},{"bike_id":"8c858107-e5fd-4fbe-8983-30181ef150ee","system_id":"levelo_inurba_marseille","lat":43.23963,"lon":5.36643,"is_reserved":false,"is_disabled":false,"rental_uris":{"android":"levelo://app?vid=8c858107-e5fd-4fbe-8983-30181ef150ee","ios":"levelo://app?vid=8c858107-e5fd-4fbe-8983-30181ef150ee"},"vehicle_type_id":"4","last_reported":1736338682,"current_range_meters":14800,"station_id":"ce4bhi12rcd13ifvqfp0","pricing_plan_id":"cebpf4jnsgd1na2vs0mg"},{"bike_id":"eb76c646-8adc-409f-b1e6-d1eabb3d2215","system_id":"levelo_inurba_marseille","lat":43.25941,"lon":5.40905,"is_reserved":false,"is_disabled":false,"rental_uris":{"android":"levelo://app?vid=eb76c646-8adc-409f-b1e6-d1eabb3d2215","ios":"levelo://app?vid=eb76c646-8adc-409f-b1e6-d1eabb3d2215"},"vehicle_type_id":"4","last_reported":1736338682,"current_range_meters":27200,"station_id":"ce4bhm92rcd13ifvqglg","pricing_plan_id":"cebpf4jnsgd1na2vs0mg"},{"bike_id":"ef865a1a-dbe5-4277-9b7f-b3ee8f9d5707","system_id":"levelo_inurba_marseille","lat":43.25941,"lon":5.409,"is_reserved":false,"is_disabled":false,"rental_uris":{"android":"levelo://app?vid=ef865a1a-dbe5-4277-9b7f-b3ee8f9d5707","ios":"levelo://app?vid=ef865a1a-dbe5-4277-9b7f-b3ee8f9d5707"},"vehicle_type_id":"4","last_reported":1736338682,"current_range_meters":38800,"station_id":"ce4bhm92rcd13ifvqglg","pricing_plan_id":"cebpf4jnsgd1na2vs0mg"},{"bike_id":"0a79eed2-003b-4218-9fdf-f43d76c17e3e","system_id":"levelo_inurba_marseille","lat":43.292991,"lon":5.374633,"is_reserved":false,"is_disabled":true,"rental_uris":{"android":"levelo://app?vid=0a79eed2-003b-4218-9fdf-f43d76c17e3e","ios":"levelo://app?vid=0a79eed2-003b-4218-9fdf-f43d76c17e3e"},"vehicle_type_id":"4","last_reported":1736338682,"current_range_meters":34000,"station_id":"ce4bgi12rcd13ifvqb70","pricing_plan_id":"cebpf4jnsgd1na2vs0mg"},{"bike_id":"6d88bbf0-f428-4bd4-ab8a-2ee8d5e7c74e","system_id":"levelo_inurba_marseille","lat":43.23064,"lon":5.35494,"is_reserved":false,"is_disabled":false,"rental_uris":{"android":"levelo://app?vid=6d88bbf0-f428-4bd4-ab8a-2ee8d5e7c74e","ios":"levelo://app?vid=6d88bbf0-f428-4bd4-ab8a-2ee8d5e7c74e"},"vehicle_type_id":"4","last_reported":1736338682,"current_range_meters":35200,"station_id":"cpo3342slgdg3j2ifvpg","pricing_plan_id":"cebpf4jnsgd1na2vs0mg"},{"bike_id":"6400aee8-26e3-4fcf-8f48-3eaa2029e573","system_id":"levelo_inurba_marseille","lat":43.29555,"lon":5.42275,"is_reserved":false,"is_disabled":false,"rental_uris":{"android":"levelo://app?vid=6400aee8-26e3-4fcf-8f48-3eaa2029e573","ios":"levelo://app?vid=6400aee8-26e3-4fcf-8f48-3eaa2029e573"},"vehicle_type_id":"4","last_reported":1736338682,"current_range_meters":4000,"station_id":"ce4bhph2rcd13ifvqhdg","pricing_plan_id":"cebpf4jnsgd1na2vs0mg"},{"bike_id":"b350f37e-7bef-4b92-8fb5-89efd4304518","system_id":"levelo_inurba_marseille","lat":43.28829,"lon":5.3932,"is_reserved":false,"is_disabled":false,"rental_uris":{"android":"levelo://app?vid=b350f37e-7bef-4b92-8fb5-89efd4304518","ios":"levelo://app?vid=b350f37e-7bef-4b92-8fb5-89efd4304518"},"vehicle_type_id":"4","last_reported":1736338682,"current_range_meters":28000,"station_id":"ce4bh2p2rcd13ifvqdi0","pricing_plan_id":"cebpf4jnsgd1na2vs0mg"},{"bike_id":"03ba6064-3992-4f09-bdc3-a9b05f898823","system_id":"levelo_inurba_marseille","lat":43.3053,"lon":5.36557,"is_reserved":false,"is_disabled":false,"rental_uris":{"android":"levelo://app?vid=03ba6064-3992-4f09-bdc3-a9b05f898823","ios":"levelo://app?vid=03ba6064-3992-4f09-bdc3-a9b05f898823"},"vehicle_type_id":"4","last_reported":1736338682,"current_range_meters":33600,"station_id":"ce4bgs12rcd13ifvqcag","pricing_plan_id":"cebpf4jnsgd1na2vs0mg"},{"bike_id":"1a096314-d6ef-461f-a95e-455f564da617","system_id":"levelo_inurba_marseille","lat":43.28399,"lon":5.37518,"is_reserved":false,"is_disabled":true,"rental_uris":{"android":"levelo://app?vid=1a096314-d6ef-461f-a95e-455f564da617","ios":"levelo://app?vid=1a096314-d6ef-461f-a95e-455f564da617"},"vehicle_type_id":"4","last_reported":1736338682,"current_range_meters":36800,"station_id":"ce4bh412rcd13ifvqds0","pricing_plan_id":"cebpf4jnsgd1na2vs0mg"},{"bike_id":"59d71a93-f32e-4c59-9637-13fefd978859","system_id":"levelo_inurba_marseille","lat":43.23179,"lon":5.39993,"is_reserved":false,"is_disabled":false,"rental_uris":{"android":"levelo://app?vid=59d71a93-f32e-4c59-9637-13fefd978859","ios":"levelo://app?vid=59d71a93-f32e-4c59-9637-13fefd978859"},"vehicle_type_id":"4","last_reported":1736338682,"current_range_meters":26000,"station_id":"ce4bhn12rcd13ifvqgqg","pricing_plan_id":"cebpf4jnsgd1na2vs0mg"},{"bike_id":"05171470-9655-4536-889b-43822d7bd8f5","system_id":"levelo_inurba_marseille","lat":43.31291,"lon":5.3739,"is_reserved":false,"is_disabled":false,"rental_uris":{"android":"levelo://app?vid=05171470-9655-4536-889b-43822d7bd8f5","ios":"levelo://app?vid=05171470-9655-4536-889b-43822d7bd8f5"},"vehicle_type_id":"4","last_reported":1736338682,"current_range_meters":9600,"station_id":"","pricing_plan_id":"cebpf4jnsgd1na2vs0mg"},{"bike_id":"7428c0ed-3a00-4d60-87c0-26b13d164ebb","system_id":"levelo_inurba_marseille","lat":43.29923,"lon":5.36545,"is_reserved":false,"is_disabled":false,"rental_uris":{"android":"levelo://app?vid=7428c0ed-3a00-4d60-87c0-26b13d164ebb","ios":"levelo://app?vid=7428c0ed-3a00-4d60-87c0-26b13d164ebb"},"vehicle_type_id":"4","last_reported":1736338682,"current_range_meters":26000,"station_id":"ce4bgm92rcd13ifvqbr0","pricing_plan_id":"cebpf4jnsgd1na2vs0mg"},{"bike_id":"69bf948e-b223-4f4b-aca6-f2623c44a21c","system_id":"levelo_inurba_marseille","lat":43.2668,"lon":5.3827,"is_reserved":false,"is_disabled":false,"rental_uris":{"android":"levelo://app?vid=69bf948e-b223-4f4b-aca6-f2623c44a21c","ios":"levelo://app?vid=69bf948e-b223-4f4b-aca6-f2623c44a21c"},"vehicle_type_id":"4","last_reported":1736338682,"current_range_meters":6800,"station_id":"ce4bhg92rcd13ifvqf90","pricing_plan_id":"cebpf4jnsgd1na2vs0mg"},{"bike_id":"67830ff5-94e0-4149-bc47-bd2f281db56b","system_id":"levelo_inurba_marseille","lat":43.29606,"lon":5.3772,"is_reserved":false,"is_disabled":false,"rental_uris":{"android":"levelo://app?vid=67830ff5-94e0-4149-bc47-bd2f281db56b","ios":"levelo://app?vid=67830ff5-94e0-4149-bc47-bd2f281db56b"},"vehicle_type_id":"4","last_reported":1736338682,"current_range_meters":38800,"station_id":"ce4bgi92rcd13ifvqb90","pricing_plan_id":"cebpf4jnsgd1na2vs0mg"},{"bike_id":"ef18015a-c2b8-4fe2-b01a-49731bda1825","system_id":"levelo_inurba_marseille","lat":43.29693,"lon":5.37689,"is_reserved":false,"is_disabled":false,"rental_uris":{"android":"levelo://app?vid=ef18015a-c2b8-4fe2-b01a-49731bda1825","ios":"levelo://app?vid=ef18015a-c2b8-4fe2-b01a-49731bda1825"},"vehicle_type_id":"4","last_reported":1736338682,"current_range_meters":30800,"station_id":"ce4bgkh2rcd13ifvqbl0","pricing_plan_id":"cebpf4jnsgd1na2vs0mg"},{"bike_id":"ab037b9e-8e35-4497-b3de-17439dda7625","system_id":"levelo_inurba_marseille","lat":43.2315,"lon":5.43728,"is_reserved":false,"is_disabled":false,"rental_uris":{"android":"levelo://app?vid=ab037b9e-8e35-4497-b3de-17439dda7625","ios":"levelo://app?vid=ab037b9e-8e35-4497-b3de-17439dda7625"},"vehicle_type_id":"4","last_reported":1736338682,"current_range_meters":38400,"station_id":"ce4bhmp2rcd13ifvqgog","pricing_plan_id":"cebpf4jnsgd1na2vs0mg"},{"bike_id":"1eb8b8fc-0fdf-4440-98ab-d54db1502e51","system_id":"levelo_inurba_marseille","lat":43.30203,"lon":5.36582,"is_reserved":false,"is_disabled":false,"rental_uris":{"android":"levelo://app?vid=1eb8b8fc-0fdf-4440-98ab-d54db1502e51","ios":"levelo://app?vid=1eb8b8fc-0fdf-4440-98ab-d54db1502e51"},"vehicle_type_id":"4","last_reported":1736338682,"current_range_meters":38800,"station_id":"ce4bgrh2rcd13ifvqc8g","pricing_plan_id":"cebpf4jnsgd1na2vs0mg"},{"bike_id":"7f76c847-2e05-4425-8f67-746ebbbebab6","system_id":"levelo_inurba_marseille","lat":43.29839,"lon":5.36274,"is_reserved":false,"is_disabled":false,"rental_uris":{"android":"levelo://app?vid=7f76c847-2e05-4425-8f67-746ebbbebab6","ios":"levelo://app?vid=7f76c847-2e05-4425-8f67-746ebbbebab6"},"vehicle_type_id":"4","last_reported":1736338682,"current_range_meters":37600,"station_id":"ce4bgpp2rcd13ifvqc3g","pricing_plan_id":"cebpf4jnsgd1na2vs0mg"},{"bike_id":"c10b7ff4-17e1-43ab-bc48-1e6ef08f0e0c","system_id":"levelo_inurba_marseille","lat":43.29581,"lon":5.36741,"is_reserved":false,"is_disabled":false,"rental_uris":{"android":"levelo://app?vid=c10b7ff4-17e1-43ab-bc48-1e6ef08f0e0c","ios":"levelo://app?vid=c10b7ff4-17e1-43ab-bc48-1e6ef08f0e0c"},"vehicle_type_id":"4","last_reported":1736338682,"current_range_meters":12800,"station_id":"ce4bgph2rcd13ifvqc2g","pricing_plan_id":"cebpf4jnsgd1na2vs0mg"},{"bike_id":"e41d0544-64de-4990-b09b-0c1662eab0ae","system_id":"levelo_inurba_marseille","lat":43.25586,"lon":5.38237,"is_reserved":false,"is_disabled":false,"rental_uris":{"android":"levelo://app?vid=e41d0544-64de-4990-b09b-0c1662eab0ae","ios":"levelo://app?vid=e41d0544-64de-4990-b09b-0c1662eab0ae"},"vehicle_type_id":"4","last_reported":1736338682,"current_range_meters":27200,"station_id":"ce4bhih2rcd13ifvqfs0","pricing_plan_id":"cebpf4jnsgd1na2vs0mg"},{"bike_id":"99da3511-370e-41a5-9298-16d1e96b4935","system_id":"levelo_inurba_marseille","lat":43.28269,"lon":5.35054,"is_reserved":false,"is_disabled":false,"rental_uris":{"android":"levelo://app?vid=99da3511-370e-41a5-9298-16d1e96b4935","ios":"levelo://app?vid=99da3511-370e-41a5-9298-16d1e96b4935"},"vehicle_type_id":"4","last_reported":1736338682,"current_range_meters":32000,"station_id":"ce4bhbp2rcd13ifvqerg","pricing_plan_id":"cebpf4jnsgd1na2vs0mg"},{"bike_id":"ebe2855d-10ef-4682-8861-c7f4ec91888f","system_id":"levelo_inurba_marseille","lat":43.33729,"lon":5.39192,"is_reserved":false,"is_disabled":false,"rental_uris":{"android":"levelo://app?vid=ebe2855d-10ef-4682-8861-c7f4ec91888f","ios":"levelo://app?vid=ebe2855d-10ef-4682-8861-c7f4ec91888f"},"vehicle_type_id":"4","last_reported":1736338682,"current_range_meters":39200,"station_id":"ce4bhr92rcd13ifvqhsg","pricing_plan_id":"cebpf4jnsgd1na2vs0mg"},{"bike_id":"3ba2ae87-072b-4c97-a591-fea60c9c8af7","system_id":"levelo_inurba_marseille","lat":43.292716,"lon":5.409116,"is_reserved":false,"is_disabled":false,"rental_uris":{"android":"levelo://app?vid=3ba2ae87-072b-4c97-a591-fea60c9c8af7","ios":"levelo://app?vid=3ba2ae87-072b-4c97-a591-fea60c9c8af7"},"vehicle_type_id":"4","last_reported":1736338682,"current_range_meters":38000,"station_id":"ce4bh192rcd13ifvqdc0","pricing_plan_id":"cebpf4jnsgd1na2vs0mg"},{"bike_id":"0b3e852a-2bdf-40a0-90cb-3e311ad6cc6c","system_id":"levelo_inurba_marseille","lat":43.23965,"lon":5.36628,"is_reserved":false,"is_disabled":false,"rental_uris":{"android":"levelo://app?vid=0b3e852a-2bdf-40a0-90cb-3e311ad6cc6c","ios":"levelo://app?vid=0b3e852a-2bdf-40a0-90cb-3e311ad6cc6c"},"vehicle_type_id":"4","last_reported":1736338682,"current_range_meters":7200,"station_id":"ce4bhi12rcd13ifvqfp0","pricing_plan_id":"cebpf4jnsgd1na2vs0mg"},{"bike_id":"f7a782e4-e937-4f0f-8751-a5267e08d177","system_id":"levelo_inurba_marseille","lat":43.26944,"lon":5.40262,"is_reserved":false,"is_disabled":false,"rental_uris":{"android":"levelo://app?vid=f7a782e4-e937-4f0f-8751-a5267e08d177","ios":"levelo://app?vid=f7a782e4-e937-4f0f-8751-a5267e08d177"},"vehicle_type_id":"4","last_reported":1736338682,"current_range_meters":38800,"station_id":"cjm6bp8fraef2m0cb0m0","pricing_plan_id":"cebpf4jnsgd1na2vs0mg"},{"bike_id":"95cb9be4-3c13-4db7-aab3-f290173bc916","system_id":"levelo_inurba_marseille","lat":43.28272,"lon":5.3506,"is_reserved":false,"is_disabled":false,"rental_uris":{"android":"levelo://app?vid=95cb9be4-3c13-4db7-aab3-f290173bc916","ios":"levelo://app?vid=95cb9be4-3c13-4db7-aab3-f290173bc916"},"vehicle_type_id":"4","last_reported":1736338682,"current_range_meters":30000,"station_id":"ce4bhbp2rcd13ifvqerg","pricing_plan_id":"cebpf4jnsgd1na2vs0mg"},{"bike_id":"91d6d03a-7866-4268-abce-7fcd943ffc06","system_id":"levelo_inurba_marseille","lat":43.33611,"lon":5.41033,"is_reserved":false,"is_disabled":false,"rental_uris":{"android":"levelo://app?vid=91d6d03a-7866-4268-abce-7fcd943ffc06","ios":"levelo://app?vid=91d6d03a-7866-4268-abce-7fcd943ffc06"},"vehicle_type_id":"4","last_reported":1736338682,"current_range_meters":36000,"station_id":"ce4bhqh2rcd13ifvqhmg","pricing_plan_id":"cebpf4jnsgd1na2vs0mg"},{"bike_id":"d2b56a15-230e-4877-8466-23e461fb8aea","system_id":"levelo_inurba_marseille","lat":43.30542,"lon":5.3653,"is_reserved":false,"is_disabled":false,"rental_uris":{"android":"levelo://app?vid=d2b56a15-230e-4877-8466-23e461fb8aea","ios":"levelo://app?vid=d2b56a15-230e-4877-8466-23e461fb8aea"},"vehicle_type_id":"4","last_reported":1736338682,"current_range_meters":20000,"station_id":"ce4bgs12rcd13ifvqcag","pricing_plan_id":"cebpf4jnsgd1na2vs0mg"},{"bike_id":"65337538-34f8-4693-a51e-54106faecafb","system_id":"levelo_inurba_marseille","lat":43.272,"lon":5.39207,"is_reserved":false,"is_disabled":false,"rental_uris":{"android":"levelo://app?vid=65337538-34f8-4693-a51e-54106faecafb","ios":"levelo://app?vid=65337538-34f8-4693-a51e-54106faecafb"},"vehicle_type_id":"4","last_reported":1736338682,"current_range_meters":38400,"station_id":"ce4bhhp2rcd13ifvqfm0","pricing_plan_id":"cebpf4jnsgd1na2vs0mg"},{"bike_id":"f4718762-5bbc-457e-96e6-2366473acef8","system_id":"levelo_inurba_marseille","lat":43.24662,"lon":5.38174,"is_reserved":false,"is_disabled":false,"rental_uris":{"android":"levelo://app?vid=f4718762-5bbc-457e-96e6-2366473acef8","ios":"levelo://app?vid=f4718762-5bbc-457e-96e6-2366473acef8"},"vehicle_type_id":"4","last_reported":1736338682,"current_range_meters":25200,"station_id":"ce4bhih2rcd13ifvqfr0","pricing_plan_id":"cebpf4jnsgd1na2vs0mg"},{"bike_id":"0ffe7f1c-13a8-4387-809b-001b924daada","system_id":"levelo_inurba_marseille","lat":43.32646,"lon":5.40983,"is_reserved":false,"is_disabled":false,"rental_uris":{"android":"levelo://app?vid=0ffe7f1c-13a8-4387-809b-001b924daada","ios":"levelo://app?vid=0ffe7f1c-13a8-4387-809b-001b924daada"},"vehicle_type_id":"4","last_reported":1736338682,"current_range_meters":22400,"station_id":"ce4bhpp2rcd13ifvqhgg","pricing_plan_id":"cebpf4jnsgd1na2vs0mg"},{"bike_id":"c98f6f02-61f6-40ec-bb0c-2ae518ae139c","system_id":"levelo_inurba_marseille","lat":43.27492,"lon":5.42454,"is_reserved":false,"is_disabled":true,"rental_uris":{"android":"levelo://app?vid=c98f6f02-61f6-40ec-bb0c-2ae518ae139c","ios":"levelo://app?vid=c98f6f02-61f6-40ec-bb0c-2ae518ae139c"},"vehicle_type_id":"4","last_reported":1736338682,"current_range_meters":0,"station_id":"ce4bhn92rcd13ifvqgrg","pricing_plan_id":"cebpf4jnsgd1na2vs0mg"},{"bike_id":"f2a3cdcc-5185-474c-89ab-68221595732c","system_id":"levelo_inurba_marseille","lat":43.30561,"lon":5.36692,"is_reserved":false,"is_disabled":false,"rental_uris":{"android":"levelo://app?vid=f2a3cdcc-5185-474c-89ab-68221595732c","ios":"levelo://app?vid=f2a3cdcc-5185-474c-89ab-68221595732c"},"vehicle_type_id":"4","last_reported":1736338682,"current_range_meters":38800,"station_id":"ce4bgrp2rcd13ifvqc9g","pricing_plan_id":"cebpf4jnsgd1na2vs0mg"},{"bike_id":"ec5e1995-bc93-4317-a3ea-c5a3988c773e","system_id":"levelo_inurba_marseille","lat":43.23226,"lon":5.35523,"is_reserved":false,"is_disabled":false,"rental_uris":{"android":"levelo://app?vid=ec5e1995-bc93-4317-a3ea-c5a3988c773e","ios":"levelo://app?vid=ec5e1995-bc93-4317-a3ea-c5a3988c773e"},"vehicle_type_id":"4","last_reported":1736338682,"current_range_meters":14000,"station_id":"ce4bhu92rcd13ifvqi70","pricing_plan_id":"cebpf4jnsgd1na2vs0mg"},{"bike_id":"e63f1381-465a-42a4-9983-175aafc43e9d","system_id":"levelo_inurba_marseille","lat":43.23159,"lon":5.43746,"is_reserved":false,"is_disabled":false,"rental_uris":{"android":"levelo://app?vid=e63f1381-465a-42a4-9983-175aafc43e9d","ios":"levelo://app?vid=e63f1381-465a-42a4-9983-175aafc43e9d"},"vehicle_type_id":"4","last_reported":1736338682,"current_range_meters":19200,"station_id":"ce4bhmp2rcd13ifvqgog","pricing_plan_id":"cebpf4jnsgd1na2vs0mg"},{"bike_id":"3af9aed3-600d-41eb-821b-058b9ff7b0d9","system_id":"levelo_inurba_marseille","lat":43.26202,"lon":5.37925,"is_reserved":false,"is_disabled":false,"rental_uris":{"android":"levelo://app?vid=3af9aed3-600d-41eb-821b-058b9ff7b0d9","ios":"levelo://app?vid=3af9aed3-600d-41eb-821b-058b9ff7b0d9"},"vehicle_type_id":"4","last_reported":1736338682,"current_range_meters":37600,"station_id":"ce4bhjp2rcd13ifvqg90","pricing_plan_id":"cebpf4jnsgd1na2vs0mg"},{"bike_id":"a5b7c461-e4de-429b-b022-e088837085a0","system_id":"levelo_inurba_marseille","lat":43.26804,"lon":5.40268,"is_reserved":false,"is_disabled":false,"rental_uris":{"android":"levelo://app?vid=a5b7c461-e4de-429b-b022-e088837085a0","ios":"levelo://app?vid=a5b7c461-e4de-429b-b022-e088837085a0"},"vehicle_type_id":"4","last_reported":1736338682,"current_range_meters":19600,"station_id":"ce501612rcd8frsf0b60","pricing_plan_id":"cebpf4jnsgd1na2vs0mg"},{"bike_id":"dde31d37-e327-42bf-942b-09052dc4f4d9","system_id":"levelo_inurba_marseille","lat":43.29264,"lon":5.38443,"is_reserved":false,"is_disabled":false,"rental_uris":{"android":"levelo://app?vid=dde31d37-e327-42bf-942b-09052dc4f4d9","ios":"levelo://app?vid=dde31d37-e327-42bf-942b-09052dc4f4d9"},"vehicle_type_id":"4","last_reported":1736338682,"current_range_meters":34000,"station_id":"ce4bh692rcd13ifvqea0","pricing_plan_id":"cebpf4jnsgd1na2vs0mg"},{"bike_id":"f5b4a236-daf6-4cfa-a3e2-7846111f72b1","system_id":"levelo_inurba_marseille","lat":43.28038,"lon":5.3695,"is_reserved":false,"is_disabled":false,"rental_uris":{"android":"levelo://app?vid=f5b4a236-daf6-4cfa-a3e2-7846111f72b1","ios":"levelo://app?vid=f5b4a236-daf6-4cfa-a3e2-7846111f72b1"},"vehicle_type_id":"4","last_reported":1736338682,"current_range_meters":29600,"station_id":"ce4bha12rcd13ifvqef0","pricing_plan_id":"cebpf4jnsgd1na2vs0mg"},{"bike_id":"1225f499-cee0-4834-b908-2739fc8be400","system_id":"levelo_inurba_marseille","lat":43.27308,"lon":5.3908,"is_reserved":false,"is_disabled":false,"rental_uris":{"android":"levelo://app?vid=1225f499-cee0-4834-b908-2739fc8be400","ios":"levelo://app?vid=1225f499-cee0-4834-b908-2739fc8be400"},"vehicle_type_id":"4","last_reported":1736338682,"current_range_meters":10800,"station_id":"ce4bhgp2rcd13ifvqfe0","pricing_plan_id":"cebpf4jnsgd1na2vs0mg"},{"bike_id":"18e331ea-1f05-47ba-82b6-99d6f4fdbdf2","system_id":"levelo_inurba_marseille","lat":43.286102,"lon":5.351168,"is_reserved":false,"is_disabled":false,"rental_uris":{"android":"levelo://app?vid=18e331ea-1f05-47ba-82b6-99d6f4fdbdf2","ios":"levelo://app?vid=18e331ea-1f05-47ba-82b6-99d6f4fdbdf2"},"vehicle_type_id":"4","last_reported":1736338682,"current_range_meters":24400,"station_id":"ce4bhch2rcd13ifvqeug","pricing_plan_id":"cebpf4jnsgd1na2vs0mg"},{"bike_id":"9b0f9363-fba1-48bc-babd-ff1d091fcd33","system_id":"levelo_inurba_marseille","lat":43.28349,"lon":5.3811,"is_reserved":false,"is_disabled":false,"rental_uris":{"android":"levelo://app?vid=9b0f9363-fba1-48bc-babd-ff1d091fcd33","ios":"levelo://app?vid=9b0f9363-fba1-48bc-babd-ff1d091fcd33"},"vehicle_type_id":"4","last_reported":1736338682,"current_range_meters":34800,"station_id":"ce4bh412rcd13ifvqdr0","pricing_plan_id":"cebpf4jnsgd1na2vs0mg"},{"bike_id":"263a8b3b-a5a6-4bcc-823a-46231cffee77","system_id":"levelo_inurba_marseille","lat":43.292,"lon":5.39324,"is_reserved":false,"is_disabled":false,"rental_uris":{"android":"levelo://app?vid=263a8b3b-a5a6-4bcc-823a-46231cffee77","ios":"levelo://app?vid=263a8b3b-a5a6-4bcc-823a-46231cffee77"},"vehicle_type_id":"4","last_reported":1736338682,"current_range_meters":4800,"station_id":"ce4bh192rcd13ifvqdd0","pricing_plan_id":"cebpf4jnsgd1na2vs0mg"},{"bike_id":"aa33a53e-f806-43a8-ad7e-8e2bd9644426","system_id":"levelo_inurba_marseille","lat":43.32345,"lon":5.40629,"is_reserved":false,"is_disabled":true,"rental_uris":{"android":"levelo://app?vid=aa33a53e-f806-43a8-ad7e-8e2bd9644426","ios":"levelo://app?vid=aa33a53e-f806-43a8-ad7e-8e2bd9644426"},"vehicle_type_id":"4","last_reported":1736338682,"current_range_meters":0,"station_id":"ce4bhq92rcd13ifvqhjg","pricing_plan_id":"cebpf4jnsgd1na2vs0mg"},{"bike_id":"58fcdee5-3443-4c00-96c2-69ecd1f417c0","system_id":"levelo_inurba_marseille","lat":43.31347,"lon":5.39736,"is_reserved":false,"is_disabled":false,"rental_uris":{"android":"levelo://app?vid=58fcdee5-3443-4c00-96c2-69ecd1f417c0","ios":"levelo://app?vid=58fcdee5-3443-4c00-96c2-69ecd1f417c0"},"vehicle_type_id":"4","last_reported":1736338682,"current_range_meters":9600,"station_id":"ce4bgvp2rcd13ifvqcu0","pricing_plan_id":"cebpf4jnsgd1na2vs0mg"},{"bike_id":"015df2ec-0dd0-4de1-8244-56462b4571fd","system_id":"levelo_inurba_marseille","lat":43.25827,"lon":5.39427,"is_reserved":false,"is_disabled":false,"rental_uris":{"android":"levelo://app?vid=015df2ec-0dd0-4de1-8244-56462b4571fd","ios":"levelo://app?vid=015df2ec-0dd0-4de1-8244-56462b4571fd"},"vehicle_type_id":"4","last_reported":1736338682,"current_range_meters":12400,"station_id":"ce4bhip2rcd13ifvqft0","pricing_plan_id":"cebpf4jnsgd1na2vs0mg"},{"bike_id":"6ba01585-4525-4f1d-bf7c-4f5436d092cf","system_id":"levelo_inurba_marseille","lat":43.29939,"lon":5.36544,"is_reserved":false,"is_disabled":false,"rental_uris":{"android":"levelo://app?vid=6ba01585-4525-4f1d-bf7c-4f5436d092cf","ios":"levelo://app?vid=6ba01585-4525-4f1d-bf7c-4f5436d092cf"},"vehicle_type_id":"4","last_reported":1736338682,"current_range_meters":13600,"station_id":"ce4bgm92rcd13ifvqbr0","pricing_plan_id":"cebpf4jnsgd1na2vs0mg"},{"bike_id":"be457d0e-e951-4c20-92b5-c162743063cd","system_id":"levelo_inurba_marseille","lat":43.33035,"lon":5.39025,"is_reserved":false,"is_disabled":false,"rental_uris":{"android":"levelo://app?vid=be457d0e-e951-4c20-92b5-c162743063cd","ios":"levelo://app?vid=be457d0e-e951-4c20-92b5-c162743063cd"},"vehicle_type_id":"4","last_reported":1736338682,"current_range_meters":14000,"station_id":"ce4bhr92rcd13ifvqhrg","pricing_plan_id":"cebpf4jnsgd1na2vs0mg"},{"bike_id":"848a32f2-5334-415d-b217-dfbc39bd34b9","system_id":"levelo_inurba_marseille","lat":43.30841,"lon":5.38039,"is_reserved":false,"is_disabled":true,"rental_uris":{"android":"levelo://app?vid=848a32f2-5334-415d-b217-dfbc39bd34b9","ios":"levelo://app?vid=848a32f2-5334-415d-b217-dfbc39bd34b9"},"vehicle_type_id":"4","last_reported":1736338682,"current_range_meters":0,"station_id":"ce4bgt12rcd13ifvqce0","pricing_plan_id":"cebpf4jnsgd1na2vs0mg"},{"bike_id":"8b42b122-781c-4312-8289-d3e216b3876e","system_id":"levelo_inurba_marseille","lat":43.25924,"lon":5.40932,"is_reserved":false,"is_disabled":false,"rental_uris":{"android":"levelo://app?vid=8b42b122-781c-4312-8289-d3e216b3876e","ios":"levelo://app?vid=8b42b122-781c-4312-8289-d3e216b3876e"},"vehicle_type_id":"4","last_reported":1736338682,"current_range_meters":38800,"station_id":"ce4bhm92rcd13ifvqglg","pricing_plan_id":"cebpf4jnsgd1na2vs0mg"},{"bike_id":"16ca2829-1cfb-4587-8826-dd649700aa02","system_id":"levelo_inurba_marseille","lat":43.31714,"lon":5.37774,"is_reserved":false,"is_disabled":false,"rental_uris":{"android":"levelo://app?vid=16ca2829-1cfb-4587-8826-dd649700aa02","ios":"levelo://app?vid=16ca2829-1cfb-4587-8826-dd649700aa02"},"vehicle_type_id":"4","last_reported":1736338682,"current_range_meters":39200,"station_id":"ce4bgth2rcd13ifvqch0","pricing_plan_id":"cebpf4jnsgd1na2vs0mg"},{"bike_id":"7bdc62c7-c14a-439c-bbed-8541deda2376","system_id":"levelo_inurba_marseille","lat":43.26222,"lon":5.37435,"is_reserved":false,"is_disabled":false,"rental_uris":{"android":"levelo://app?vid=7bdc62c7-c14a-439c-bbed-8541deda2376","ios":"levelo://app?vid=7bdc62c7-c14a-439c-bbed-8541deda2376"},"vehicle_type_id":"4","last_reported":1736338682,"current_range_meters":35200,"station_id":"ce4bhgp2rcd13ifvqfc0","pricing_plan_id":"cebpf4jnsgd1na2vs0mg"},{"bike_id":"14a4122a-f452-4aae-b18c-712339646710","system_id":"levelo_inurba_marseille","lat":43.33006,"lon":5.39049,"is_reserved":false,"is_disabled":false,"rental_uris":{"android":"levelo://app?vid=14a4122a-f452-4aae-b18c-712339646710","ios":"levelo://app?vid=14a4122a-f452-4aae-b18c-712339646710"},"vehicle_type_id":"4","last_reported":1736338682,"current_range_meters":38800,"station_id":"ce4bhr92rcd13ifvqhrg","pricing_plan_id":"cebpf4jnsgd1na2vs0mg"},{"bike_id":"31fc1b88-f4e1-46ba-b85e-c38872103c84","system_id":"levelo_inurba_marseille","lat":43.27968,"lon":5.38708,"is_reserved":false,"is_disabled":true,"rental_uris":{"android":"levelo://app?vid=31fc1b88-f4e1-46ba-b85e-c38872103c84","ios":"levelo://app?vid=31fc1b88-f4e1-46ba-b85e-c38872103c84"},"vehicle_type_id":"4","last_reported":1736338682,"current_range_meters":1200,"station_id":"ce4bhg12rcd13ifvqf80","pricing_plan_id":"cebpf4jnsgd1na2vs0mg"},{"bike_id":"7b786416-a15d-4888-bc83-cebc3c5143fe","system_id":"levelo_inurba_marseille","lat":43.28042,"lon":5.36945,"is_reserved":false,"is_disabled":false,"rental_uris":{"android":"levelo://app?vid=7b786416-a15d-4888-bc83-cebc3c5143fe","ios":"levelo://app?vid=7b786416-a15d-4888-bc83-cebc3c5143fe"},"vehicle_type_id":"4","last_reported":1736338682,"current_range_meters":35200,"station_id":"ce4bha12rcd13ifvqef0","pricing_plan_id":"cebpf4jnsgd1na2vs0mg"},{"bike_id":"7d7d62a9-5e86-4f3c-becf-6a359731c05c","system_id":"levelo_inurba_marseille","lat":43.29028,"lon":5.381308,"is_reserved":false,"is_disabled":false,"rental_uris":{"android":"levelo://app?vid=7d7d62a9-5e86-4f3c-becf-6a359731c05c","ios":"levelo://app?vid=7d7d62a9-5e86-4f3c-becf-6a359731c05c"},"vehicle_type_id":"4","last_reported":1736338682,"current_range_meters":24800,"station_id":"ce4bh4p2rcd13ifvqe1g","pricing_plan_id":"cebpf4jnsgd1na2vs0mg"},{"bike_id":"de8a46bb-053e-4a17-891d-e39aa46bd2bb","system_id":"levelo_inurba_marseille","lat":43.32049,"lon":5.4153,"is_reserved":false,"is_disabled":false,"rental_uris":{"android":"levelo://app?vid=de8a46bb-053e-4a17-891d-e39aa46bd2bb","ios":"levelo://app?vid=de8a46bb-053e-4a17-891d-e39aa46bd2bb"},"vehicle_type_id":"4","last_reported":1736338682,"current_range_meters":38400,"station_id":"ce4bhq92rcd13ifvqhkg","pricing_plan_id":"cebpf4jnsgd1na2vs0mg"},{"bike_id":"cb076f3a-6344-414a-b8d5-bf28409dd6b4","system_id":"levelo_inurba_marseille","lat":43.32064,"lon":5.41525,"is_reserved":false,"is_disabled":false,"rental_uris":{"android":"levelo://app?vid=cb076f3a-6344-414a-b8d5-bf28409dd6b4","ios":"levelo://app?vid=cb076f3a-6344-414a-b8d5-bf28409dd6b4"},"vehicle_type_id":"4","last_reported":1736338682,"current_range_meters":38400,"station_id":"ce4bhq92rcd13ifvqhkg","pricing_plan_id":"cebpf4jnsgd1na2vs0mg"},{"bike_id":"f5ca4a62-7631-44c3-8b4f-fdf986819475","system_id":"levelo_inurba_marseille","lat":43.272025,"lon":5.391955,"is_reserved":false,"is_disabled":false,"rental_uris":{"android":"levelo://app?vid=f5ca4a62-7631-44c3-8b4f-fdf986819475","ios":"levelo://app?vid=f5ca4a62-7631-44c3-8b4f-fdf986819475"},"vehicle_type_id":"4","last_reported":1736338682,"current_range_meters":22000,"station_id":"ce4bhhp2rcd13ifvqfm0","pricing_plan_id":"cebpf4jnsgd1na2vs0mg"},{"bike_id":"bbf998ea-d252-4590-8711-16d78ff4b07c","system_id":"levelo_inurba_marseille","lat":43.24648,"lon":5.38891,"is_reserved":false,"is_disabled":false,"rental_uris":{"android":"levelo://app?vid=bbf998ea-d252-4590-8711-16d78ff4b07c","ios":"levelo://app?vid=bbf998ea-d252-4590-8711-16d78ff4b07c"},"vehicle_type_id":"4","last_reported":1736338682,"current_range_meters":35600,"station_id":"ce4bhg12rcd13ifvqf60","pricing_plan_id":"cebpf4jnsgd1na2vs0mg"},{"bike_id":"3d7c547d-033a-45c5-9670-a303d902e9ae","system_id":"levelo_inurba_marseille","lat":43.27832,"lon":5.392,"is_reserved":false,"is_disabled":false,"rental_uris":{"android":"levelo://app?vid=3d7c547d-033a-45c5-9670-a303d902e9ae","ios":"levelo://app?vid=3d7c547d-033a-45c5-9670-a303d902e9ae"},"vehicle_type_id":"4","last_reported":1736338682,"current_range_meters":23200,"station_id":"ce4bhjp2rcd13ifvqga0","pricing_plan_id":"cebpf4jnsgd1na2vs0mg"},{"bike_id":"c356d027-96d2-4f16-a79d-f6e059e75f83","system_id":"levelo_inurba_marseille","lat":43.26782,"lon":5.39428,"is_reserved":false,"is_disabled":false,"rental_uris":{"android":"levelo://app?vid=c356d027-96d2-4f16-a79d-f6e059e75f83","ios":"levelo://app?vid=c356d027-96d2-4f16-a79d-f6e059e75f83"},"vehicle_type_id":"4","last_reported":1736338682,"current_range_meters":17600,"station_id":"ce4bhh12rcd13ifvqfg0","pricing_plan_id":"cebpf4jnsgd1na2vs0mg"},{"bike_id":"b1d27a1f-e25d-4148-8207-08a1fe843266","system_id":"levelo_inurba_marseille","lat":43.299332,"lon":5.374468,"is_reserved":false,"is_disabled":false,"rental_uris":{"android":"levelo://app?vid=b1d27a1f-e25d-4148-8207-08a1fe843266","ios":"levelo://app?vid=b1d27a1f-e25d-4148-8207-08a1fe843266"},"vehicle_type_id":"4","last_reported":1736338682,"current_range_meters":38800,"station_id":"ce4bgjh2rcd13ifvqbg0","pricing_plan_id":"cebpf4jnsgd1na2vs0mg"},{"bike_id":"abcbd0db-c59a-4e81-a1c5-e2c6bc9197e4","system_id":"levelo_inurba_marseille","lat":43.28616,"lon":5.37063,"is_reserved":false,"is_disabled":false,"rental_uris":{"android":"levelo://app?vid=abcbd0db-c59a-4e81-a1c5-e2c6bc9197e4","ios":"levelo://app?vid=abcbd0db-c59a-4e81-a1c5-e2c6bc9197e4"},"vehicle_type_id":"4","last_reported":1736338682,"current_range_meters":37600,"station_id":"ce4bht12rcd13ifvqi60","pricing_plan_id":"cebpf4jnsgd1na2vs0mg"},{"bike_id":"2f7e1659-fe83-4831-a172-ca187959dcbd","system_id":"levelo_inurba_marseille","lat":43.33018,"lon":5.39042,"is_reserved":false,"is_disabled":false,"rental_uris":{"android":"levelo://app?vid=2f7e1659-fe83-4831-a172-ca187959dcbd","ios":"levelo://app?vid=2f7e1659-fe83-4831-a172-ca187959dcbd"},"vehicle_type_id":"4","last_reported":1736338682,"current_range_meters":39200,"station_id":"ce4bhr92rcd13ifvqhrg","pricing_plan_id":"cebpf4jnsgd1na2vs0mg"},{"bike_id":"d9498735-00f3-48c9-ad13-3d0c9ae00353","system_id":"levelo_inurba_marseille","lat":43.266803,"lon":5.382666,"is_reserved":false,"is_disabled":false,"rental_uris":{"android":"levelo://app?vid=d9498735-00f3-48c9-ad13-3d0c9ae00353","ios":"levelo://app?vid=d9498735-00f3-48c9-ad13-3d0c9ae00353"},"vehicle_type_id":"4","last_reported":1736338682,"current_range_meters":38800,"station_id":"ce4bhg92rcd13ifvqf90","pricing_plan_id":"cebpf4jnsgd1na2vs0mg"},{"bike_id":"ddcc6688-db42-43f0-8a63-ce69f78319e3","system_id":"levelo_inurba_marseille","lat":43.28273,"lon":5.3507,"is_reserved":false,"is_disabled":false,"rental_uris":{"android":"levelo://app?vid=ddcc6688-db42-43f0-8a63-ce69f78319e3","ios":"levelo://app?vid=ddcc6688-db42-43f0-8a63-ce69f78319e3"},"vehicle_type_id":"4","last_reported":1736338682,"current_range_meters":28000,"station_id":"ce4bhbp2rcd13ifvqerg","pricing_plan_id":"cebpf4jnsgd1na2vs0mg"},{"bike_id":"d9829386-769b-47b8-9214-63b638d1061f","system_id":"levelo_inurba_marseille","lat":43.26543,"lon":5.37304,"is_reserved":false,"is_disabled":false,"rental_uris":{"android":"levelo://app?vid=d9829386-769b-47b8-9214-63b638d1061f","ios":"levelo://app?vid=d9829386-769b-47b8-9214-63b638d1061f"},"vehicle_type_id":"4","last_reported":1736338682,"current_range_meters":17200,"station_id":"ce4bhg12rcd13ifvqf70","pricing_plan_id":"cebpf4jnsgd1na2vs0mg"},{"bike_id":"9de0f47f-f279-475a-9983-15ddd7678129","system_id":"levelo_inurba_marseille","lat":43.31536,"lon":5.38038,"is_reserved":false,"is_disabled":false,"rental_uris":{"android":"levelo://app?vid=9de0f47f-f279-475a-9983-15ddd7678129","ios":"levelo://app?vid=9de0f47f-f279-475a-9983-15ddd7678129"},"vehicle_type_id":"4","last_reported":1736338682,"current_range_meters":16800,"station_id":"ce4bhsp2rcd13ifvqi50","pricing_plan_id":"cebpf4jnsgd1na2vs0mg"},{"bike_id":"4580257e-7544-4f88-a6d8-b05cae6e0a98","system_id":"levelo_inurba_marseille","lat":43.33021,"lon":5.39039,"is_reserved":false,"is_disabled":false,"rental_uris":{"android":"levelo://app?vid=4580257e-7544-4f88-a6d8-b05cae6e0a98","ios":"levelo://app?vid=4580257e-7544-4f88-a6d8-b05cae6e0a98"},"vehicle_type_id":"4","last_reported":1736338682,"current_range_meters":17600,"station_id":"ce4bhr92rcd13ifvqhrg","pricing_plan_id":"cebpf4jnsgd1na2vs0mg"},{"bike_id":"e547b993-b977-42c6-9230-5655f26bec78","system_id":"levelo_inurba_marseille","lat":43.27307,"lon":5.39093,"is_reserved":false,"is_disabled":false,"rental_uris":{"android":"levelo://app?vid=e547b993-b977-42c6-9230-5655f26bec78","ios":"levelo://app?vid=e547b993-b977-42c6-9230-5655f26bec78"},"vehicle_type_id":"4","last_reported":1736338682,"current_range_meters":36000,"station_id":"ce4bhgp2rcd13ifvqfe0","pricing_plan_id":"cebpf4jnsgd1na2vs0mg"},{"bike_id":"f3068faf-6ea3-45c0-943e-8f5eb9fecb3c","system_id":"levelo_inurba_marseille","lat":43.23961,"lon":5.36631,"is_reserved":false,"is_disabled":false,"rental_uris":{"android":"levelo://app?vid=f3068faf-6ea3-45c0-943e-8f5eb9fecb3c","ios":"levelo://app?vid=f3068faf-6ea3-45c0-943e-8f5eb9fecb3c"},"vehicle_type_id":"4","last_reported":1736338682,"current_range_meters":33200,"station_id":"ce4bhi12rcd13ifvqfp0","pricing_plan_id":"cebpf4jnsgd1na2vs0mg"},{"bike_id":"18c286bc-b188-457e-a073-6e1ac3401cf8","system_id":"levelo_inurba_marseille","lat":43.29029,"lon":5.38644,"is_reserved":false,"is_disabled":false,"rental_uris":{"android":"levelo://app?vid=18c286bc-b188-457e-a073-6e1ac3401cf8","ios":"levelo://app?vid=18c286bc-b188-457e-a073-6e1ac3401cf8"},"vehicle_type_id":"4","last_reported":1736338682,"current_range_meters":36400,"station_id":"ce4bh4p2rcd13ifvqe0g","pricing_plan_id":"cebpf4jnsgd1na2vs0mg"},{"bike_id":"2937c8f0-6f06-4c7f-8240-41ad44bc55fa","system_id":"levelo_inurba_marseille","lat":43.23186,"lon":5.39999,"is_reserved":false,"is_disabled":false,"rental_uris":{"android":"levelo://app?vid=2937c8f0-6f06-4c7f-8240-41ad44bc55fa","ios":"levelo://app?vid=2937c8f0-6f06-4c7f-8240-41ad44bc55fa"},"vehicle_type_id":"4","last_reported":1736338682,"current_range_meters":16000,"station_id":"ce4bhn12rcd13ifvqgqg","pricing_plan_id":"cebpf4jnsgd1na2vs0mg"},{"bike_id":"c67f86a7-d1e6-4e2d-a762-5d292001711c","system_id":"levelo_inurba_marseille","lat":43.33026,"lon":5.39047,"is_reserved":false,"is_disabled":false,"rental_uris":{"android":"levelo://app?vid=c67f86a7-d1e6-4e2d-a762-5d292001711c","ios":"levelo://app?vid=c67f86a7-d1e6-4e2d-a762-5d292001711c"},"vehicle_type_id":"4","last_reported":1736338682,"current_range_meters":38000,"station_id":"ce4bhr92rcd13ifvqhrg","pricing_plan_id":"cebpf4jnsgd1na2vs0mg"},{"bike_id":"06ab8898-a6a6-4b09-90c0-c31d3535a89b","system_id":"levelo_inurba_marseille","lat":43.27938,"lon":5.41048,"is_reserved":false,"is_disabled":false,"rental_uris":{"android":"levelo://app?vid=06ab8898-a6a6-4b09-90c0-c31d3535a89b","ios":"levelo://app?vid=06ab8898-a6a6-4b09-90c0-c31d3535a89b"},"vehicle_type_id":"4","last_reported":1736338682,"current_range_meters":6000,"station_id":"ce4bhnp2rcd13ifvqh0g","pricing_plan_id":"cebpf4jnsgd1na2vs0mg"},{"bike_id":"23341711-bd23-4ddc-9363-b585e5591991","system_id":"levelo_inurba_marseille","lat":43.28357,"lon":5.38648,"is_reserved":false,"is_disabled":false,"rental_uris":{"android":"levelo://app?vid=23341711-bd23-4ddc-9363-b585e5591991","ios":"levelo://app?vid=23341711-bd23-4ddc-9363-b585e5591991"},"vehicle_type_id":"4","last_reported":1736338682,"current_range_meters":14400,"station_id":"ce4bh492rcd13ifvqdvg","pricing_plan_id":"cebpf4jnsgd1na2vs0mg"},{"bike_id":"5993c042-49d4-4eb1-a03d-b6c2403682a0","system_id":"levelo_inurba_marseille","lat":43.29522,"lon":5.37518,"is_reserved":false,"is_disabled":false,"rental_uris":{"android":"levelo://app?vid=5993c042-49d4-4eb1-a03d-b6c2403682a0","ios":"levelo://app?vid=5993c042-49d4-4eb1-a03d-b6c2403682a0"},"vehicle_type_id":"4","last_reported":1736338682,"current_range_meters":38800,"station_id":"ce4bgkp2rcd13ifvqbmg","pricing_plan_id":"cebpf4jnsgd1na2vs0mg"},{"bike_id":"d014f699-d84d-436b-b3bf-8c059d18ea89","system_id":"levelo_inurba_marseille","lat":43.22911,"lon":5.35403,"is_reserved":false,"is_disabled":false,"rental_uris":{"android":"levelo://app?vid=d014f699-d84d-436b-b3bf-8c059d18ea89","ios":"levelo://app?vid=d014f699-d84d-436b-b3bf-8c059d18ea89"},"vehicle_type_id":"4","last_reported":1736338682,"current_range_meters":3200,"station_id":"cpo3532slgdg3j2ikp40","pricing_plan_id":"cebpf4jnsgd1na2vs0mg"},{"bike_id":"85db0274-aa0a-4f9a-b691-02cfca5d3623","system_id":"levelo_inurba_marseille","lat":43.29841,"lon":5.36275,"is_reserved":false,"is_disabled":false,"rental_uris":{"android":"levelo://app?vid=85db0274-aa0a-4f9a-b691-02cfca5d3623","ios":"levelo://app?vid=85db0274-aa0a-4f9a-b691-02cfca5d3623"},"vehicle_type_id":"4","last_reported":1736338682,"current_range_meters":38800,"station_id":"ce4bgpp2rcd13ifvqc3g","pricing_plan_id":"cebpf4jnsgd1na2vs0mg"},{"bike_id":"dec5ea81-6c0e-4425-8a14-004e9c85f704","system_id":"levelo_inurba_marseille","lat":43.29225,"lon":5.36061,"is_reserved":false,"is_disabled":false,"rental_uris":{"android":"levelo://app?vid=dec5ea81-6c0e-4425-8a14-004e9c85f704","ios":"levelo://app?vid=dec5ea81-6c0e-4425-8a14-004e9c85f704"},"vehicle_type_id":"4","last_reported":1736338682,"current_range_meters":38800,"station_id":"ce4bhbh2rcd13ifvqeqg","pricing_plan_id":"cebpf4jnsgd1na2vs0mg"},{"bike_id":"955387a8-4a47-4691-946f-78754c88504b","system_id":"levelo_inurba_marseille","lat":43.23186,"lon":5.35555,"is_reserved":false,"is_disabled":false,"rental_uris":{"android":"levelo://app?vid=955387a8-4a47-4691-946f-78754c88504b","ios":"levelo://app?vid=955387a8-4a47-4691-946f-78754c88504b"},"vehicle_type_id":"4","last_reported":1736338682,"current_range_meters":32400,"station_id":"ce4bhu92rcd13ifvqi70","pricing_plan_id":"cebpf4jnsgd1na2vs0mg"},{"bike_id":"87cc4d56-b2e3-4a1f-9d41-6d4c894cc4bc","system_id":"levelo_inurba_marseille","lat":43.27946,"lon":5.38737,"is_reserved":false,"is_disabled":false,"rental_uris":{"android":"levelo://app?vid=87cc4d56-b2e3-4a1f-9d41-6d4c894cc4bc","ios":"levelo://app?vid=87cc4d56-b2e3-4a1f-9d41-6d4c894cc4bc"},"vehicle_type_id":"4","last_reported":1736338682,"current_range_meters":17200,"station_id":"ce4bhg12rcd13ifvqf80","pricing_plan_id":"cebpf4jnsgd1na2vs0mg"},{"bike_id":"9a9f40db-98b8-4c03-a419-e4b9c52e8d68","system_id":"levelo_inurba_marseille","lat":43.29,"lon":5.35628,"is_reserved":false,"is_disabled":false,"rental_uris":{"android":"levelo://app?vid=9a9f40db-98b8-4c03-a419-e4b9c52e8d68","ios":"levelo://app?vid=9a9f40db-98b8-4c03-a419-e4b9c52e8d68"},"vehicle_type_id":"4","last_reported":1736338682,"current_range_meters":35600,"station_id":"ce4bhb92rcd13ifvqen0","pricing_plan_id":"cebpf4jnsgd1na2vs0mg"},{"bike_id":"924cf6cf-e55f-47b8-a215-85149c3ae1eb","system_id":"levelo_inurba_marseille","lat":43.29576,"lon":5.37724,"is_reserved":false,"is_disabled":false,"rental_uris":{"android":"levelo://app?vid=924cf6cf-e55f-47b8-a215-85149c3ae1eb","ios":"levelo://app?vid=924cf6cf-e55f-47b8-a215-85149c3ae1eb"},"vehicle_type_id":"4","last_reported":1736338682,"current_range_meters":30400,"station_id":"","pricing_plan_id":"cebpf4jnsgd1na2vs0mg"},{"bike_id":"963de74f-cac6-496f-b456-d8e98cb22421","system_id":"levelo_inurba_marseille","lat":43.28264,"lon":5.3507,"is_reserved":false,"is_disabled":false,"rental_uris":{"android":"levelo://app?vid=963de74f-cac6-496f-b456-d8e98cb22421","ios":"levelo://app?vid=963de74f-cac6-496f-b456-d8e98cb22421"},"vehicle_type_id":"4","last_reported":1736338682,"current_range_meters":39200,"station_id":"ce4bhbp2rcd13ifvqerg","pricing_plan_id":"cebpf4jnsgd1na2vs0mg"},{"bike_id":"87378e09-222f-48c1-8775-a9f2c4931a87","system_id":"levelo_inurba_marseille","lat":43.30822,"lon":5.38136,"is_reserved":false,"is_disabled":false,"rental_uris":{"android":"levelo://app?vid=87378e09-222f-48c1-8775-a9f2c4931a87","ios":"levelo://app?vid=87378e09-222f-48c1-8775-a9f2c4931a87"},"vehicle_type_id":"4","last_reported":1736338682,"current_range_meters":29600,"station_id":"ce4bgt12rcd13ifvqce0","pricing_plan_id":"cebpf4jnsgd1na2vs0mg"},{"bike_id":"342524fc-8f93-41ec-80be-1909856e171b","system_id":"levelo_inurba_marseille","lat":43.257237,"lon":5.410887,"is_reserved":false,"is_disabled":false,"rental_uris":{"android":"levelo://app?vid=342524fc-8f93-41ec-80be-1909856e171b","ios":"levelo://app?vid=342524fc-8f93-41ec-80be-1909856e171b"},"vehicle_type_id":"4","last_reported":1736338682,"current_range_meters":38800,"station_id":"ce4bhkp2rcd13ifvqgd0","pricing_plan_id":"cebpf4jnsgd1na2vs0mg"},{"bike_id":"a344e607-2212-45d5-b6de-a9033a6aa79f","system_id":"levelo_inurba_marseille","lat":43.262106,"lon":5.379326,"is_reserved":false,"is_disabled":false,"rental_uris":{"android":"levelo://app?vid=a344e607-2212-45d5-b6de-a9033a6aa79f","ios":"levelo://app?vid=a344e607-2212-45d5-b6de-a9033a6aa79f"},"vehicle_type_id":"4","last_reported":1736338682,"current_range_meters":36000,"station_id":"ce4bhjp2rcd13ifvqg90","pricing_plan_id":"cebpf4jnsgd1na2vs0mg"},{"bike_id":"45dd29a0-0fa6-4bb4-9d8a-92b8eb16c0bc","system_id":"levelo_inurba_marseille","lat":43.28348,"lon":5.38117,"is_reserved":false,"is_disabled":false,"rental_uris":{"android":"levelo://app?vid=45dd29a0-0fa6-4bb4-9d8a-92b8eb16c0bc","ios":"levelo://app?vid=45dd29a0-0fa6-4bb4-9d8a-92b8eb16c0bc"},"vehicle_type_id":"4","last_reported":1736338682,"current_range_meters":18800,"station_id":"ce4bh412rcd13ifvqdr0","pricing_plan_id":"cebpf4jnsgd1na2vs0mg"},{"bike_id":"4d8933e2-5888-4f6b-80fa-fa70e448ecfe","system_id":"levelo_inurba_marseille","lat":43.241659,"lon":5.364028,"is_reserved":false,"is_disabled":false,"rental_uris":{"android":"levelo://app?vid=4d8933e2-5888-4f6b-80fa-fa70e448ecfe","ios":"levelo://app?vid=4d8933e2-5888-4f6b-80fa-fa70e448ecfe"},"vehicle_type_id":"4","last_reported":1736338682,"current_range_meters":19600,"station_id":"cpo36qri1sfpv3e86is0","pricing_plan_id":"cebpf4jnsgd1na2vs0mg"},{"bike_id":"03e59385-b7a0-4dcb-a549-d3b279f78152","system_id":"levelo_inurba_marseille","lat":43.31358,"lon":5.38494,"is_reserved":false,"is_disabled":false,"rental_uris":{"android":"levelo://app?vid=03e59385-b7a0-4dcb-a549-d3b279f78152","ios":"levelo://app?vid=03e59385-b7a0-4dcb-a549-d3b279f78152"},"vehicle_type_id":"4","last_reported":1736338682,"current_range_meters":29600,"station_id":"ce4bgt92rcd13ifvqcf0","pricing_plan_id":"cebpf4jnsgd1na2vs0mg"},{"bike_id":"f1447d2e-f904-49ee-abf5-800316253d03","system_id":"levelo_inurba_marseille","lat":43.29932,"lon":5.36547,"is_reserved":false,"is_disabled":false,"rental_uris":{"android":"levelo://app?vid=f1447d2e-f904-49ee-abf5-800316253d03","ios":"levelo://app?vid=f1447d2e-f904-49ee-abf5-800316253d03"},"vehicle_type_id":"4","last_reported":1736338682,"current_range_meters":20000,"station_id":"ce4bgm92rcd13ifvqbr0","pricing_plan_id":"cebpf4jnsgd1na2vs0mg"},{"bike_id":"79e4c495-71e2-48e1-96ce-26f15ec0fd56","system_id":"levelo_inurba_marseille","lat":43.29579,"lon":5.367413,"is_reserved":false,"is_disabled":false,"rental_uris":{"android":"levelo://app?vid=79e4c495-71e2-48e1-96ce-26f15ec0fd56","ios":"levelo://app?vid=79e4c495-71e2-48e1-96ce-26f15ec0fd56"},"vehicle_type_id":"4","last_reported":1736338682,"current_range_meters":39200,"station_id":"ce4bgph2rcd13ifvqc2g","pricing_plan_id":"cebpf4jnsgd1na2vs0mg"},{"bike_id":"e53145cc-32b8-4093-8da4-ab068b8658f0","system_id":"levelo_inurba_marseille","lat":43.30302,"lon":5.36905,"is_reserved":false,"is_disabled":false,"rental_uris":{"android":"levelo://app?vid=e53145cc-32b8-4093-8da4-ab068b8658f0","ios":"levelo://app?vid=e53145cc-32b8-4093-8da4-ab068b8658f0"},"vehicle_type_id":"4","last_reported":1736338682,"current_range_meters":20800,"station_id":"ce4bgqh2rcd13ifvqc5g","pricing_plan_id":"cebpf4jnsgd1na2vs0mg"},{"bike_id":"31323f8c-61d2-4672-a34c-9ad51ac4824f","system_id":"levelo_inurba_marseille","lat":43.29379,"lon":5.3784,"is_reserved":false,"is_disabled":true,"rental_uris":{"android":"levelo://app?vid=31323f8c-61d2-4672-a34c-9ad51ac4824f","ios":"levelo://app?vid=31323f8c-61d2-4672-a34c-9ad51ac4824f"},"vehicle_type_id":"4","last_reported":1736338682,"current_range_meters":4000,"station_id":"ce4bgjh2rcd13ifvqbf0","pricing_plan_id":"cebpf4jnsgd1na2vs0mg"},{"bike_id":"8acf80f2-4e4a-44a4-941b-f3bd188c4a73","system_id":"levelo_inurba_marseille","lat":43.28256,"lon":5.35073,"is_reserved":false,"is_disabled":false,"rental_uris":{"android":"levelo://app?vid=8acf80f2-4e4a-44a4-941b-f3bd188c4a73","ios":"levelo://app?vid=8acf80f2-4e4a-44a4-941b-f3bd188c4a73"},"vehicle_type_id":"4","last_reported":1736338682,"current_range_meters":39200,"station_id":"ce4bhbp2rcd13ifvqerg","pricing_plan_id":"cebpf4jnsgd1na2vs0mg"},{"bike_id":"7fa730a9-5e97-4bee-8679-c9626f1178e6","system_id":"levelo_inurba_marseille","lat":43.28444,"lon":5.39196,"is_reserved":false,"is_disabled":false,"rental_uris":{"android":"levelo://app?vid=7fa730a9-5e97-4bee-8679-c9626f1178e6","ios":"levelo://app?vid=7fa730a9-5e97-4bee-8679-c9626f1178e6"},"vehicle_type_id":"4","last_reported":1736338682,"current_range_meters":37600,"station_id":"ce4bhoh2rcd13ifvqh5g","pricing_plan_id":"cebpf4jnsgd1na2vs0mg"},{"bike_id":"297c4a39-d81e-484e-921e-2bcc1b109361","system_id":"levelo_inurba_marseille","lat":43.27383,"lon":5.3627,"is_reserved":false,"is_disabled":false,"rental_uris":{"android":"levelo://app?vid=297c4a39-d81e-484e-921e-2bcc1b109361","ios":"levelo://app?vid=297c4a39-d81e-484e-921e-2bcc1b109361"},"vehicle_type_id":"4","last_reported":1736338682,"current_range_meters":34800,"station_id":"ce4bhbh2rcd13ifvqeo0","pricing_plan_id":"cebpf4jnsgd1na2vs0mg"},{"bike_id":"e5f62c7b-5a1e-43d6-9f17-7b5fd8435de9","system_id":"levelo_inurba_marseille","lat":43.28439,"lon":5.3919,"is_reserved":false,"is_disabled":false,"rental_uris":{"android":"levelo://app?vid=e5f62c7b-5a1e-43d6-9f17-7b5fd8435de9","ios":"levelo://app?vid=e5f62c7b-5a1e-43d6-9f17-7b5fd8435de9"},"vehicle_type_id":"4","last_reported":1736338682,"current_range_meters":14800,"station_id":"ce4bhoh2rcd13ifvqh5g","pricing_plan_id":"cebpf4jnsgd1na2vs0mg"},{"bike_id":"295a4dcf-0b6e-4c11-b779-d48b33f08e0b","system_id":"levelo_inurba_marseille","lat":43.30167,"lon":5.36634,"is_reserved":false,"is_disabled":false,"rental_uris":{"android":"levelo://app?vid=295a4dcf-0b6e-4c11-b779-d48b33f08e0b","ios":"levelo://app?vid=295a4dcf-0b6e-4c11-b779-d48b33f08e0b"},"vehicle_type_id":"4","last_reported":1736338682,"current_range_meters":38800,"station_id":"ce4bgrh2rcd13ifvqc8g","pricing_plan_id":"cebpf4jnsgd1na2vs0mg"},{"bike_id":"68f5fc8e-d87d-473b-af7a-496078b31141","system_id":"levelo_inurba_marseille","lat":43.31117,"lon":5.37768,"is_reserved":false,"is_disabled":false,"rental_uris":{"android":"levelo://app?vid=68f5fc8e-d87d-473b-af7a-496078b31141","ios":"levelo://app?vid=68f5fc8e-d87d-473b-af7a-496078b31141"},"vehicle_type_id":"4","last_reported":1736338682,"current_range_meters":16800,"station_id":"ce4bgt92rcd13ifvqcg0","pricing_plan_id":"cebpf4jnsgd1na2vs0mg"},{"bike_id":"1569853a-3f58-4ae9-8f61-db33ec95dfbc","system_id":"levelo_inurba_marseille","lat":43.32289,"lon":5.38302,"is_reserved":false,"is_disabled":false,"rental_uris":{"android":"levelo://app?vid=1569853a-3f58-4ae9-8f61-db33ec95dfbc","ios":"levelo://app?vid=1569853a-3f58-4ae9-8f61-db33ec95dfbc"},"vehicle_type_id":"4","last_reported":1736338682,"current_range_meters":38800,"station_id":"ce4bhr12rcd13ifvqhqg","pricing_plan_id":"cebpf4jnsgd1na2vs0mg"},{"bike_id":"c87a419d-309d-4d85-ae71-3d4c2d59d04c","system_id":"levelo_inurba_marseille","lat":43.2827,"lon":5.35057,"is_reserved":false,"is_disabled":false,"rental_uris":{"android":"levelo://app?vid=c87a419d-309d-4d85-ae71-3d4c2d59d04c","ios":"levelo://app?vid=c87a419d-309d-4d85-ae71-3d4c2d59d04c"},"vehicle_type_id":"4","last_reported":1736338682,"current_range_meters":16800,"station_id":"ce4bhbp2rcd13ifvqerg","pricing_plan_id":"cebpf4jnsgd1na2vs0mg"},{"bike_id":"546bf4ad-2cba-47ff-8fff-98adf60600c8","system_id":"levelo_inurba_marseille","lat":43.2862,"lon":5.3511,"is_reserved":false,"is_disabled":false,"rental_uris":{"android":"levelo://app?vid=546bf4ad-2cba-47ff-8fff-98adf60600c8","ios":"levelo://app?vid=546bf4ad-2cba-47ff-8fff-98adf60600c8"},"vehicle_type_id":"4","last_reported":1736338682,"current_range_meters":38400,"station_id":"ce4bhch2rcd13ifvqeug","pricing_plan_id":"cebpf4jnsgd1na2vs0mg"},{"bike_id":"d99f98df-5015-4bbb-a221-14ee96af08a1","system_id":"levelo_inurba_marseille","lat":43.24403,"lon":5.37096,"is_reserved":false,"is_disabled":false,"rental_uris":{"android":"levelo://app?vid=d99f98df-5015-4bbb-a221-14ee96af08a1","ios":"levelo://app?vid=d99f98df-5015-4bbb-a221-14ee96af08a1"},"vehicle_type_id":"4","last_reported":1736338682,"current_range_meters":38400,"station_id":"ce4bhhh2rcd13ifvqfk0","pricing_plan_id":"cebpf4jnsgd1na2vs0mg"},{"bike_id":"13ef97fd-a4dc-4128-81ba-c93f77a5e6f9","system_id":"levelo_inurba_marseille","lat":43.27057,"lon":5.40271,"is_reserved":false,"is_disabled":false,"rental_uris":{"android":"levelo://app?vid=13ef97fd-a4dc-4128-81ba-c93f77a5e6f9","ios":"levelo://app?vid=13ef97fd-a4dc-4128-81ba-c93f77a5e6f9"},"vehicle_type_id":"4","last_reported":1736338682,"current_range_meters":38400,"station_id":"ce4bhk92rcd13ifvqgc0","pricing_plan_id":"cebpf4jnsgd1na2vs0mg"},{"bike_id":"f0f170b8-94b1-4968-8b89-52f9e32fa834","system_id":"levelo_inurba_marseille","lat":43.24997,"lon":5.38943,"is_reserved":false,"is_disabled":false,"rental_uris":{"android":"levelo://app?vid=f0f170b8-94b1-4968-8b89-52f9e32fa834","ios":"levelo://app?vid=f0f170b8-94b1-4968-8b89-52f9e32fa834"},"vehicle_type_id":"4","last_reported":1736338682,"current_range_meters":24400,"station_id":"ce4bhgp2rcd13ifvqfd0","pricing_plan_id":"cebpf4jnsgd1na2vs0mg"},{"bike_id":"d5d300c3-3b48-49ec-b209-c125133514cb","system_id":"levelo_inurba_marseille","lat":43.27493,"lon":5.42437,"is_reserved":false,"is_disabled":false,"rental_uris":{"android":"levelo://app?vid=d5d300c3-3b48-49ec-b209-c125133514cb","ios":"levelo://app?vid=d5d300c3-3b48-49ec-b209-c125133514cb"},"vehicle_type_id":"4","last_reported":1736338682,"current_range_meters":19200,"station_id":"ce4bhn92rcd13ifvqgrg","pricing_plan_id":"cebpf4jnsgd1na2vs0mg"},{"bike_id":"02aaef76-7feb-41d4-9808-872296546153","system_id":"levelo_inurba_marseille","lat":43.2812,"lon":5.42614,"is_reserved":false,"is_disabled":true,"rental_uris":{"android":"levelo://app?vid=02aaef76-7feb-41d4-9808-872296546153","ios":"levelo://app?vid=02aaef76-7feb-41d4-9808-872296546153"},"vehicle_type_id":"4","last_reported":1736338682,"current_range_meters":800,"station_id":"ce4bhnh2rcd13ifvqgug","pricing_plan_id":"cebpf4jnsgd1na2vs0mg"},{"bike_id":"721e80bf-52f3-4114-81ea-9878b00b9d8f","system_id":"levelo_inurba_marseille","lat":43.24587,"lon":5.39086,"is_reserved":false,"is_disabled":false,"rental_uris":{"android":"levelo://app?vid=721e80bf-52f3-4114-81ea-9878b00b9d8f","ios":"levelo://app?vid=721e80bf-52f3-4114-81ea-9878b00b9d8f"},"vehicle_type_id":"4","last_reported":1736338682,"current_range_meters":35600,"station_id":"","pricing_plan_id":"cebpf4jnsgd1na2vs0mg"},{"bike_id":"a7c3c5ce-fb65-4c69-b9f5-23279818b110","system_id":"levelo_inurba_marseille","lat":43.28707,"lon":5.3866,"is_reserved":false,"is_disabled":false,"rental_uris":{"android":"levelo://app?vid=a7c3c5ce-fb65-4c69-b9f5-23279818b110","ios":"levelo://app?vid=a7c3c5ce-fb65-4c69-b9f5-23279818b110"},"vehicle_type_id":"4","last_reported":1736338682,"current_range_meters":3200,"station_id":"ce4bh492rcd13ifvqdug","pricing_plan_id":"cebpf4jnsgd1na2vs0mg"},{"bike_id":"9f1d3216-7725-4600-abc1-82447f7ecac3","system_id":"levelo_inurba_marseille","lat":43.30531,"lon":5.36549,"is_reserved":false,"is_disabled":false,"rental_uris":{"android":"levelo://app?vid=9f1d3216-7725-4600-abc1-82447f7ecac3","ios":"levelo://app?vid=9f1d3216-7725-4600-abc1-82447f7ecac3"},"vehicle_type_id":"4","last_reported":1736338682,"current_range_meters":30800,"station_id":"ce4bgs12rcd13ifvqcag","pricing_plan_id":"cebpf4jnsgd1na2vs0mg"},{"bike_id":"907ad97d-8e3f-4ea9-be69-896768e83544","system_id":"levelo_inurba_marseille","lat":43.29602,"lon":5.38109,"is_reserved":false,"is_disabled":false,"rental_uris":{"android":"levelo://app?vid=907ad97d-8e3f-4ea9-be69-896768e83544","ios":"levelo://app?vid=907ad97d-8e3f-4ea9-be69-896768e83544"},"vehicle_type_id":"4","last_reported":1736338682,"current_range_meters":20400,"station_id":"ce4bgl12rcd13ifvqbo0","pricing_plan_id":"cebpf4jnsgd1na2vs0mg"},{"bike_id":"d1f08f31-6050-4266-95d0-b5b9f2cef4de","system_id":"levelo_inurba_marseille","lat":43.29614,"lon":5.36742,"is_reserved":false,"is_disabled":false,"rental_uris":{"android":"levelo://app?vid=d1f08f31-6050-4266-95d0-b5b9f2cef4de","ios":"levelo://app?vid=d1f08f31-6050-4266-95d0-b5b9f2cef4de"},"vehicle_type_id":"4","last_reported":1736338682,"current_range_meters":16400,"station_id":"ce4bgph2rcd13ifvqc2g","pricing_plan_id":"cebpf4jnsgd1na2vs0mg"},{"bike_id":"50fa1856-32a7-461f-9ce1-2ea42abf61fd","system_id":"levelo_inurba_marseille","lat":43.25933,"lon":5.40901,"is_reserved":false,"is_disabled":false,"rental_uris":{"android":"levelo://app?vid=50fa1856-32a7-461f-9ce1-2ea42abf61fd","ios":"levelo://app?vid=50fa1856-32a7-461f-9ce1-2ea42abf61fd"},"vehicle_type_id":"4","last_reported":1736338682,"current_range_meters":32400,"station_id":"ce4bhm92rcd13ifvqglg","pricing_plan_id":"cebpf4jnsgd1na2vs0mg"},{"bike_id":"152c2437-9aa1-4fe7-b26f-ffa6e1546272","system_id":"levelo_inurba_marseille","lat":43.292,"lon":5.35804,"is_reserved":false,"is_disabled":false,"rental_uris":{"android":"levelo://app?vid=152c2437-9aa1-4fe7-b26f-ffa6e1546272","ios":"levelo://app?vid=152c2437-9aa1-4fe7-b26f-ffa6e1546272"},"vehicle_type_id":"4","last_reported":1736338682,"current_range_meters":21600,"station_id":"ce4bhb12rcd13ifvqel0","pricing_plan_id":"cebpf4jnsgd1na2vs0mg"},{"bike_id":"a8b6888e-d27e-40ac-990e-440f9348d454","system_id":"levelo_inurba_marseille","lat":43.28619,"lon":5.35105,"is_reserved":false,"is_disabled":true,"rental_uris":{"android":"levelo://app?vid=a8b6888e-d27e-40ac-990e-440f9348d454","ios":"levelo://app?vid=a8b6888e-d27e-40ac-990e-440f9348d454"},"vehicle_type_id":"4","last_reported":1736338682,"current_range_meters":0,"station_id":"ce4bhch2rcd13ifvqeug","pricing_plan_id":"cebpf4jnsgd1na2vs0mg"},{"bike_id":"ca13a100-455b-489f-a552-7cc573e049db","system_id":"levelo_inurba_marseille","lat":43.24552,"lon":5.39528,"is_reserved":false,"is_disabled":false,"rental_uris":{"android":"levelo://app?vid=ca13a100-455b-489f-a552-7cc573e049db","ios":"levelo://app?vid=ca13a100-455b-489f-a552-7cc573e049db"},"vehicle_type_id":"4","last_reported":1736338682,"current_range_meters":37600,"station_id":"ce4bhlp2rcd13ifvqgjg","pricing_plan_id":"cebpf4jnsgd1na2vs0mg"},{"bike_id":"11084312-9877-4d6c-847d-83289f1ad656","system_id":"levelo_inurba_marseille","lat":43.26196,"lon":5.37453,"is_reserved":false,"is_disabled":false,"rental_uris":{"android":"levelo://app?vid=11084312-9877-4d6c-847d-83289f1ad656","ios":"levelo://app?vid=11084312-9877-4d6c-847d-83289f1ad656"},"vehicle_type_id":"4","last_reported":1736338682,"current_range_meters":30000,"station_id":"ce4bhgp2rcd13ifvqfc0","pricing_plan_id":"cebpf4jnsgd1na2vs0mg"},{"bike_id":"8ba45517-a3fe-4cb0-95d6-962973296212","system_id":"levelo_inurba_marseille","lat":43.27566,"lon":5.3842,"is_reserved":false,"is_disabled":false,"rental_uris":{"android":"levelo://app?vid=8ba45517-a3fe-4cb0-95d6-962973296212","ios":"levelo://app?vid=8ba45517-a3fe-4cb0-95d6-962973296212"},"vehicle_type_id":"4","last_reported":1736338682,"current_range_meters":38800,"station_id":"ce4bhh92rcd13ifvqfi0","pricing_plan_id":"cebpf4jnsgd1na2vs0mg"},{"bike_id":"dc40d0c3-72c0-4af8-a8bb-f4f6ca5fbe17","system_id":"levelo_inurba_marseille","lat":43.33008,"lon":5.39045,"is_reserved":false,"is_disabled":false,"rental_uris":{"android":"levelo://app?vid=dc40d0c3-72c0-4af8-a8bb-f4f6ca5fbe17","ios":"levelo://app?vid=dc40d0c3-72c0-4af8-a8bb-f4f6ca5fbe17"},"vehicle_type_id":"4","last_reported":1736338682,"current_range_meters":12000,"station_id":"ce4bhr92rcd13ifvqhrg","pricing_plan_id":"cebpf4jnsgd1na2vs0mg"},{"bike_id":"4310c1ec-5304-4985-a519-25a7deab2154","system_id":"levelo_inurba_marseille","lat":43.30541,"lon":5.36724,"is_reserved":false,"is_disabled":false,"rental_uris":{"android":"levelo://app?vid=4310c1ec-5304-4985-a519-25a7deab2154","ios":"levelo://app?vid=4310c1ec-5304-4985-a519-25a7deab2154"},"vehicle_type_id":"4","last_reported":1736338682,"current_range_meters":38800,"station_id":"ce4bgrp2rcd13ifvqc9g","pricing_plan_id":"cebpf4jnsgd1na2vs0mg"},{"bike_id":"1096febd-74ba-4045-8055-7a72c5e81f92","system_id":"levelo_inurba_marseille","lat":43.259294,"lon":5.409155,"is_reserved":false,"is_disabled":false,"rental_uris":{"android":"levelo://app?vid=1096febd-74ba-4045-8055-7a72c5e81f92","ios":"levelo://app?vid=1096febd-74ba-4045-8055-7a72c5e81f92"},"vehicle_type_id":"4","last_reported":1736338682,"current_range_meters":28800,"station_id":"ce4bhm92rcd13ifvqglg","pricing_plan_id":"cebpf4jnsgd1na2vs0mg"},{"bike_id":"c86a34eb-35bb-46b0-aa55-a09e2441f822","system_id":"levelo_inurba_marseille","lat":43.29718,"lon":5.3768,"is_reserved":false,"is_disabled":false,"rental_uris":{"android":"levelo://app?vid=c86a34eb-35bb-46b0-aa55-a09e2441f822","ios":"levelo://app?vid=c86a34eb-35bb-46b0-aa55-a09e2441f822"},"vehicle_type_id":"4","last_reported":1736338682,"current_range_meters":38800,"station_id":"ce4bgkh2rcd13ifvqbl0","pricing_plan_id":"cebpf4jnsgd1na2vs0mg"},{"bike_id":"d4999787-d0a7-45dd-8fcf-424f48cb5762","system_id":"levelo_inurba_marseille","lat":43.2307,"lon":5.35492,"is_reserved":false,"is_disabled":false,"rental_uris":{"android":"levelo://app?vid=d4999787-d0a7-45dd-8fcf-424f48cb5762","ios":"levelo://app?vid=d4999787-d0a7-45dd-8fcf-424f48cb5762"},"vehicle_type_id":"4","last_reported":1736338682,"current_range_meters":8000,"station_id":"cpo3342slgdg3j2ifvpg","pricing_plan_id":"cebpf4jnsgd1na2vs0mg"},