{"last_updated":1731946309,"ttl":60,"version":"2.2","data":{"bikes":[{"bike_id":"b9e80e2c-21af-4e46-a4ab-7690bae665d9","system_id":"levelo_inurba_marseille","lat":43.28266,"lon":5.35071,"is_reserved":false,"is_disabled":false,"rental_uris":{"android":"levelo://app?vid=b9e80e2c-21af-4e46-a4ab-7690bae665d9","ios":"levelo://app?vid=b9e80e2c-21af-4e46-a4ab-7690bae665d9"},"vehicle_type_id":"4","last_reported":1731946309,"current_range_meters":31200,"station_id":"ce4bhbp2rcd13ifvqerg","pricing_plan_id":"cebpf4jnsgd1na2vs0mg"},{"bike_id":"acdc81e1-6801-4889-b6ed-319f591512ed","system_id":"levelo_inurba_marseille","lat":43.27817,"lon":5.40715,"is_reserved":false,"is_disabled":false,"rental_uris":{"android":"levelo://app?vid=acdc81e1-6801-4889-b6ed-319f591512ed","ios":"levelo://app?vid=acdc81e1-6801-4889-b6ed-319f591512ed"},"vehicle_type_id":"4","last_reported":1731946309,"current_range_meters":32800,"station_id":"ce4bhnh2rcd13ifvqgtg","pricing_plan_id":"cebpf4jnsgd1na2vs0mg"},{"bike_id":"d9662575-f3e4-4030-8357-61afc8834334","system_id":"levelo_inurba_marseille","lat":43.27939,"lon":5.41052,"is_reserved":false,"is_disabled":false,"rental_uris":{"android":"levelo://app?vid=d9662575-f3e4-4030-8357-61afc8834334","ios":"levelo://app?vid=d9662575-f3e4-4030-8357-61afc8834334"},"vehicle_type_id":"4","last_reported":1731946309,"current_range_meters":34000,"station_id":"ce4bhnp2rcd13ifvqh0g","pricing_plan_id":"cebpf4jnsgd1na2vs0mg"},{"bike_id":"3243b4c5-9f88-4367-b6dc-554bc8b91ec9","system_id":"levelo_inurba_marseille","lat":43.28941,"lon":5.36397,"is_reserved":false,"is_disabled":false,"rental_uris":{"android":"levelo://app?vid=3243b4c5-9f88-4367-b6dc-554bc8b91ec9","ios":"levelo://app?vid=3243b4c5-9f88-4367-b6dc-554bc8b91ec9"},"vehicle_type_id":"4","last_reported":1731946309,"current_range_meters":25600,"station_id":"ce4bhc92rcd13ifvqetg","pricing_plan_id":"cebpf4jnsgd1na2vs0mg"},{"bike_id":"7085589b-a3d3-461f-a069-12ae5cfc57c3","system_id":"levelo_inurba_marseille","lat":43.30543,"lon":5.36529,"is_reserved":false,"is_disabled":false,"rental_uris":{"android":"levelo://app?vid=7085589b-a3d3-461f-a069-12ae5cfc57c3","ios":"levelo://app?vid=7085589b-a3d3-461f-a069-12ae5cfc57c3"},"vehicle_type_id":"4","last_reported":1731946309,"current_range_meters":38800,"station_id":"ce4bgs12rcd13ifvqcag","pricing_plan_id":"cebpf4jnsgd1na2vs0mg"},{"bike_id":"bde15680-f1ae-404d-86ae-8b10d1d0457c","system_id":"levelo_inurba_marseille","lat":43.26059,"lon":5.394,"is_reserved":false,"is_disabled":false,"rental_uris":{"android":"levelo://app?vid=bde15680-f1ae-404d-86ae-8b10d1d0457c","ios":"levelo://app?vid=bde15680-f1ae-404d-86ae-8b10d1d0457c"},"vehicle_type_id":"4","last_reported":1731946309,"current_range_meters":36800,"station_id":"ce4bhh92rcd13ifvqfj0","pricing_plan_id":"cebpf4jnsgd1na2vs0mg"},{"bike_id":"96a870c1-8880-4c3c-a744-c5a177502b82","system_id":"levelo_inurba_marseille","lat":43.25871,"lon":5.39893,"is_reserved":false,"is_disabled":false,"rental_uris":{"android":"levelo://app?vid=96a870c1-8880-4c3c-a744-c5a177502b82","ios":"levelo://app?vid=96a870c1-8880-4c3c-a744-c5a177502b82"},"vehicle_type_id":"4","last_reported":1731946309,"current_range_meters":38800,"station_id":"ce4bhl92rcd13ifvqghg","pricing_plan_id":"cebpf4jnsgd1na2vs0mg"},{"bike_id":"f4749871-b280-4f8e-95c9-b90126b5b32b","system_id":"levelo_inurba_marseille","lat":43.28081,"lon":5.3967,"is_reserved":false,"is_disabled":false,"rental_uris":{"android":"levelo://app?vid=f4749871-b280-4f8e-95c9-b90126b5b32b","ios":"levelo://app?vid=f4749871-b280-4f8e-95c9-b90126b5b32b"},"vehicle_type_id":"4","last_reported":1731946309,"current_range_meters":30000,"station_id":"ce4bho12rcd13ifvqh2g","pricing_plan_id":"cebpf4jnsgd1na2vs0mg"},{"bike_id":"0ea44848-01bd-4ed5-98b4-d4fbd5a0a025","system_id":"levelo_inurba_marseille","lat":43.29513,"lon":5.39044,"is_reserved":false,"is_disabled":false,"rental_uris":{"android":"levelo://app?vid=0ea44848-01bd-4ed5-98b4-d4fbd5a0a025","ios":"levelo://app?vid=0ea44848-01bd-4ed5-98b4-d4fbd5a0a025"},"vehicle_type_id":"4","last_reported":1731946309,"current_range_meters":38400,"station_id":"ce4bh3p2rcd13ifvqdp0","pricing_plan_id":"cebpf4jnsgd1na2vs0mg"},{"bike_id":"be3a2bb7-18a3-4e12-a14b-d5b8350952c7","system_id":"levelo_inurba_marseille","lat":43.3266,"lon":5.40988,"is_reserved":false,"is_disabled":false,"rental_uris":{"android":"levelo://app?vid=be3a2bb7-18a3-4e12-a14b-d5b8350952c7","ios":"levelo://app?vid=be3a2bb7-18a3-4e12-a14b-d5b8350952c7"},"vehicle_type_id":"4","last_reported":1731946309,"current_range_meters":22800,"station_id":"ce4bhpp2rcd13ifvqhgg","pricing_plan_id":"cebpf4jnsgd1na2vs0mg"},{"bike_id":"e4a21289-fd7d-4a16-96e5-93faccc1204a","system_id":"levelo_inurba_marseille","lat":43.29257,"lon":5.40903,"is_reserved":false,"is_disabled":false,"rental_uris":{"android":"levelo://app?vid=e4a21289-fd7d-4a16-96e5-93faccc1204a","ios":"levelo://app?vid=e4a21289-fd7d-4a16-96e5-93faccc1204a"},"vehicle_type_id":"4","last_reported":1731946309,"current_range_meters":33600,"station_id":"ce4bh192rcd13ifvqdc0","pricing_plan_id":"cebpf4jnsgd1na2vs0mg"},{"bike_id":"69b9fb52-b1e8-402f-9b6f-d88522e081d9","system_id":"levelo_inurba_marseille","lat":43.28005,"lon":5.40017,"is_reserved":false,"is_disabled":false,"rental_uris":{"android":"levelo://app?vid=69b9fb52-b1e8-402f-9b6f-d88522e081d9","ios":"levelo://app?vid=69b9fb52-b1e8-402f-9b6f-d88522e081d9"},"vehicle_type_id":"4","last_reported":1731946309,"current_range_meters":24800,"station_id":"ce4bho92rcd13ifvqh4g","pricing_plan_id":"cebpf4jnsgd1na2vs0mg"},{"bike_id":"6c926eef-89ef-4421-9c04-3c9899f3173b","system_id":"levelo_inurba_marseille","lat":43.29901,"lon":5.43661,"is_reserved":false,"is_disabled":true,"rental_uris":{"android":"levelo://app?vid=6c926eef-89ef-4421-9c04-3c9899f3173b","ios":"levelo://app?vid=6c926eef-89ef-4421-9c04-3c9899f3173b"},"vehicle_type_id":"4","last_reported":1731946309,"current_range_meters":0,"station_id":"ce4bhpp2rcd13ifvqhfg","pricing_plan_id":"cebpf4jnsgd1na2vs0mg"},{"bike_id":"68659cf0-4fd2-4892-b1f5-2895655bc320","system_id":"levelo_inurba_marseille","lat":43.29432,"lon":5.39739,"is_reserved":false,"is_disabled":false,"rental_uris":{"android":"levelo://app?vid=68659cf0-4fd2-4892-b1f5-2895655bc320","ios":"levelo://app?vid=68659cf0-4fd2-4892-b1f5-2895655bc320"},"vehicle_type_id":"4","last_reported":1731946309,"current_range_meters":25200,"station_id":"ce4bh3h2rcd13ifvqdo0","pricing_plan_id":"cebpf4jnsgd1na2vs0mg"},{"bike_id":"81108a94-b9fd-4847-be3f-917addbb08ef","system_id":"levelo_inurba_marseille","lat":43.26559,"lon":5.37286,"is_reserved":false,"is_disabled":true,"rental_uris":{"android":"levelo://app?vid=81108a94-b9fd-4847-be3f-917addbb08ef","ios":"levelo://app?vid=81108a94-b9fd-4847-be3f-917addbb08ef"},"vehicle_type_id":"4","last_reported":1731946309,"current_range_meters":0,"station_id":"ce4bhg12rcd13ifvqf70","pricing_plan_id":"cebpf4jnsgd1na2vs0mg"},{"bike_id":"e08875d1-5eda-43a9-a5b5-ee3ebd16c83c","system_id":"levelo_inurba_marseille","lat":43.25006,"lon":5.38921,"is_reserved":false,"is_disabled":false,"rental_uris":{"android":"levelo://app?vid=e08875d1-5eda-43a9-a5b5-ee3ebd16c83c","ios":"levelo://app?vid=e08875d1-5eda-43a9-a5b5-ee3ebd16c83c"},"vehicle_type_id":"4","last_reported":1731946309,"current_range_meters":2000,"station_id":"ce4bhgp2rcd13ifvqfd0","pricing_plan_id":"cebpf4jnsgd1na2vs0mg"},{"bike_id":"30516071-9e66-42e3-b648-e48d09c9c50c","system_id":"levelo_inurba_marseille","lat":43.28612,"lon":5.37062,"is_reserved":false,"is_disabled":false,"rental_uris":{"android":"levelo://app?vid=30516071-9e66-42e3-b648-e48d09c9c50c","ios":"levelo://app?vid=30516071-9e66-42e3-b648-e48d09c9c50c"},"vehicle_type_id":"4","last_reported":1731946309,"current_range_meters":22000,"station_id":"ce4bht12rcd13ifvqi60","pricing_plan_id":"cebpf4jnsgd1na2vs0mg"},{"bike_id":"fe0b140c-fc4f-4bd5-866d-5e8da82ec100","system_id":"levelo_inurba_marseille","lat":43.291958,"lon":5.39316,"is_reserved":false,"is_disabled":false,"rental_uris":{"android":"levelo://app?vid=fe0b140c-fc4f-4bd5-866d-5e8da82ec100","ios":"levelo://app?vid=fe0b140c-fc4f-4bd5-866d-5e8da82ec100"},"vehicle_type_id":"4","last_reported":1731946309,"current_range_meters":20400,"station_id":"ce4bh192rcd13ifvqdd0","pricing_plan_id":"cebpf4jnsgd1na2vs0mg"},{"bike_id":"3779a507-6f21-4bd7-80a8-b3db05a989bf","system_id":"levelo_inurba_marseille","lat":43.26559,"lon":5.37285,"is_reserved":false,"is_disabled":false,"rental_uris":{"android":"levelo://app?vid=3779a507-6f21-4bd7-80a8-b3db05a989bf","ios":"levelo://app?vid=3779a507-6f21-4bd7-80a8-b3db05a989bf"},"vehicle_type_id":"4","last_reported":1731946309,"current_range_meters":29600,"station_id":"ce4bhg12rcd13ifvqf70","pricing_plan_id":"cebpf4jnsgd1na2vs0mg"},{"bike_id":"4526f07c-7557-49b9-a892-a552ade695b3","system_id":"levelo_inurba_marseille","lat":43.32515,"lon":5.3658,"is_reserved":false,"is_disabled":false,"rental_uris":{"android":"levelo://app?vid=4526f07c-7557-49b9-a892-a552ade695b3","ios":"levelo://app?vid=4526f07c-7557-49b9-a892-a552ade695b3"},"vehicle_type_id":"4","last_reported":1731946309,"current_range_meters":30000,"station_id":"ce4bhs12rcd13ifvqhvg","pricing_plan_id":"cebpf4jnsgd1na2vs0mg"},{"bike_id":"b0ffed0f-5a98-4a2a-bb0c-4462c3aece44","system_id":"levelo_inurba_marseille","lat":43.324188,"lon":5.415316,"is_reserved":false,"is_disabled":false,"rental_uris":{"android":"levelo://app?vid=b0ffed0f-5a98-4a2a-bb0c-4462c3aece44","ios":"levelo://app?vid=b0ffed0f-5a98-4a2a-bb0c-4462c3aece44"},"vehicle_type_id":"4","last_reported":1731946309,"current_range_meters":30400,"station_id":"ce4bhq12rcd13ifvqhhg","pricing_plan_id":"cebpf4jnsgd1na2vs0mg"},{"bike_id":"1d286503-819c-42a5-bc04-2ab603332f88","system_id":"levelo_inurba_marseille","lat":43.28863,"lon":5.35852,"is_reserved":false,"is_disabled":false,"rental_uris":{"android":"levelo://app?vid=1d286503-819c-42a5-bc04-2ab603332f88","ios":"levelo://app?vid=1d286503-819c-42a5-bc04-2ab603332f88"},"vehicle_type_id":"4","last_reported":1731946309,"current_range_meters":37600,"station_id":"ce4bhb12rcd13ifvqem0","pricing_plan_id":"cebpf4jnsgd1na2vs0mg"},{"bike_id":"95c175a7-15af-4b04-ab7a-2ffd7984854e","system_id":"levelo_inurba_marseille","lat":43.28082,"lon":5.39667,"is_reserved":false,"is_disabled":false,"rental_uris":{"android":"levelo://app?vid=95c175a7-15af-4b04-ab7a-2ffd7984854e","ios":"levelo://app?vid=95c175a7-15af-4b04-ab7a-2ffd7984854e"},"vehicle_type_id":"4","last_reported":1731946309,"current_range_meters":8400,"station_id":"ce4bho12rcd13ifvqh2g","pricing_plan_id":"cebpf4jnsgd1na2vs0mg"},{"bike_id":"d930277f-ae59-4a27-9409-f96eb995b54c","system_id":"levelo_inurba_marseille","lat":43.29532,"lon":5.39043,"is_reserved":false,"is_disabled":false,"rental_uris":{"android":"levelo://app?vid=d930277f-ae59-4a27-9409-f96eb995b54c","ios":"levelo://app?vid=d930277f-ae59-4a27-9409-f96eb995b54c"},"vehicle_type_id":"4","last_reported":1731946309,"current_range_meters":31200,"station_id":"ce4bh3p2rcd13ifvqdp0","pricing_plan_id":"cebpf4jnsgd1na2vs0mg"},{"bike_id":"d81e0202-add5-42dd-b983-41434047256b","system_id":"levelo_inurba_marseille","lat":43.25117,"lon":5.40326,"is_reserved":false,"is_disabled":true,"rental_uris":{"android":"levelo://app?vid=d81e0202-add5-42dd-b983-41434047256b","ios":"levelo://app?vid=d81e0202-add5-42dd-b983-41434047256b"},"vehicle_type_id":"4","last_reported":1731946309,"current_range_meters":2000,"station_id":"ce4bhlh2rcd13ifvqgig","pricing_plan_id":"cebpf4jnsgd1na2vs0mg"},{"bike_id":"f32d7d5f-79fa-4f67-ae0d-c6efeb9e2cd8","system_id":"levelo_inurba_marseille","lat":43.2867,"lon":5.38675,"is_reserved":false,"is_disabled":false,"rental_uris":{"android":"levelo://app?vid=f32d7d5f-79fa-4f67-ae0d-c6efeb9e2cd8","ios":"levelo://app?vid=f32d7d5f-79fa-4f67-ae0d-c6efeb9e2cd8"},"vehicle_type_id":"4","last_reported":1731946309,"current_range_meters":25200,"station_id":"ce4bh492rcd13ifvqdug","pricing_plan_id":"cebpf4jnsgd1na2vs0mg"},{"bike_id":"2af03b68-292c-4370-ba26-702a00aadf9d","system_id":"levelo_inurba_marseille","lat":43.30792,"lon":5.38155,"is_reserved":false,"is_disabled":true,"rental_uris":{"android":"levelo://app?vid=2af03b68-292c-4370-ba26-702a00aadf9d","ios":"levelo://app?vid=2af03b68-292c-4370-ba26-702a00aadf9d"},"vehicle_type_id":"4","last_reported":1731946309,"current_range_meters":4400,"station_id":"ce4bgt12rcd13ifvqce0","pricing_plan_id":"cebpf4jnsgd1na2vs0mg"},{"bike_id":"539062b7-883c-4c3a-871b-4d1612863976","system_id":"levelo_inurba_marseille","lat":43.32365,"lon":5.38883,"is_reserved":false,"is_disabled":false,"rental_uris":{"android":"levelo://app?vid=539062b7-883c-4c3a-871b-4d1612863976","ios":"levelo://app?vid=539062b7-883c-4c3a-871b-4d1612863976"},"vehicle_type_id":"4","last_reported":1731946309,"current_range_meters":26800,"station_id":"ce4bhqp2rcd13ifvqhog","pricing_plan_id":"cebpf4jnsgd1na2vs0mg"},{"bike_id":"e4fe3deb-e5b4-4862-8743-74e19371d9b9","system_id":"levelo_inurba_marseille","lat":43.27807,"lon":5.4071,"is_reserved":false,"is_disabled":false,"rental_uris":{"android":"levelo://app?vid=e4fe3deb-e5b4-4862-8743-74e19371d9b9","ios":"levelo://app?vid=e4fe3deb-e5b4-4862-8743-74e19371d9b9"},"vehicle_type_id":"4","last_reported":1731946309,"current_range_meters":22400,"station_id":"ce4bhnh2rcd13ifvqgtg","pricing_plan_id":"cebpf4jnsgd1na2vs0mg"},{"bike_id":"33419e94-3556-41c0-9aea-4460661ab9bf","system_id":"levelo_inurba_marseille","lat":43.27669,"lon":5.38913,"is_reserved":false,"is_disabled":false,"rental_uris":{"android":"levelo://app?vid=33419e94-3556-41c0-9aea-4460661ab9bf","ios":"levelo://app?vid=33419e94-3556-41c0-9aea-4460661ab9bf"},"vehicle_type_id":"4","last_reported":1731946309,"current_range_meters":40000,"station_id":"ce4bhi12rcd13ifvqfo0","pricing_plan_id":"cebpf4jnsgd1na2vs0mg"},{"bike_id":"1341a828-b981-4198-a789-8a5791ca7539","system_id":"levelo_inurba_marseille","lat":43.25006,"lon":5.3892,"is_reserved":false,"is_disabled":true,"rental_uris":{"android":"levelo://app?vid=1341a828-b981-4198-a789-8a5791ca7539","ios":"levelo://app?vid=1341a828-b981-4198-a789-8a5791ca7539"},"vehicle_type_id":"4","last_reported":1731946309,"current_range_meters":0,"station_id":"ce4bhgp2rcd13ifvqfd0","pricing_plan_id":"cebpf4jnsgd1na2vs0mg"},{"bike_id":"659c66d5-83ce-4720-aee0-7168b322a518","system_id":"levelo_inurba_marseille","lat":43.32114,"lon":5.36792,"is_reserved":false,"is_disabled":false,"rental_uris":{"android":"levelo://app?vid=659c66d5-83ce-4720-aee0-7168b322a518","ios":"levelo://app?vid=659c66d5-83ce-4720-aee0-7168b322a518"},"vehicle_type_id":"4","last_reported":1731946309,"current_range_meters":35200,"station_id":"ce4bhrh2rcd13ifvqhug","pricing_plan_id":"cebpf4jnsgd1na2vs0mg"},{"bike_id":"9c76e355-f854-4e7e-9e65-4d89eaae6ea3","system_id":"levelo_inurba_marseille","lat":43.24388,"lon":5.37061,"is_reserved":false,"is_disabled":false,"rental_uris":{"android":"levelo://app?vid=9c76e355-f854-4e7e-9e65-4d89eaae6ea3","ios":"levelo://app?vid=9c76e355-f854-4e7e-9e65-4d89eaae6ea3"},"vehicle_type_id":"4","last_reported":1731946309,"current_range_meters":16000,"station_id":"ce4bhhh2rcd13ifvqfk0","pricing_plan_id":"cebpf4jnsgd1na2vs0mg"},{"bike_id":"5f9a24f2-7fa6-4065-ba39-d9ef9fd7d02d","system_id":"levelo_inurba_marseille","lat":43.30785,"lon":5.37656,"is_reserved":false,"is_disabled":false,"rental_uris":{"android":"levelo://app?vid=5f9a24f2-7fa6-4065-ba39-d9ef9fd7d02d","ios":"levelo://app?vid=5f9a24f2-7fa6-4065-ba39-d9ef9fd7d02d"},"vehicle_type_id":"4","last_reported":1731946309,"current_range_meters":26000,"station_id":"ce4bgv92rcd13ifvqcq0","pricing_plan_id":"cebpf4jnsgd1na2vs0mg"},{"bike_id":"ef31495f-6a34-4d74-a72b-91bbac7371df","system_id":"levelo_inurba_marseille","lat":43.2593,"lon":5.40908,"is_reserved":false,"is_disabled":true,"rental_uris":{"android":"levelo://app?vid=ef31495f-6a34-4d74-a72b-91bbac7371df","ios":"levelo://app?vid=ef31495f-6a34-4d74-a72b-91bbac7371df"},"vehicle_type_id":"4","last_reported":1731946309,"current_range_meters":24400,"station_id":"ce4bhm92rcd13ifvqglg","pricing_plan_id":"cebpf4jnsgd1na2vs0mg"},{"bike_id":"d10c90fd-3c70-4bb6-bcaa-6d62b6ce4770","system_id":"levelo_inurba_marseille","lat":43.26066,"lon":5.39394,"is_reserved":false,"is_disabled":true,"rental_uris":{"android":"levelo://app?vid=d10c90fd-3c70-4bb6-bcaa-6d62b6ce4770","ios":"levelo://app?vid=d10c90fd-3c70-4bb6-bcaa-6d62b6ce4770"},"vehicle_type_id":"4","last_reported":1731946309,"current_range_meters":11200,"station_id":"ce4bhh92rcd13ifvqfj0","pricing_plan_id":"cebpf4jnsgd1na2vs0mg"},{"bike_id":"5917a06d-1a89-42ee-9c96-70b3e49f2520","system_id":"levelo_inurba_marseille","lat":43.31706,"lon":5.40473,"is_reserved":false,"is_disabled":true,"rental_uris":{"android":"levelo://app?vid=5917a06d-1a89-42ee-9c96-70b3e49f2520","ios":"levelo://app?vid=5917a06d-1a89-42ee-9c96-70b3e49f2520"},"vehicle_type_id":"4","last_reported":1731946309,"current_range_meters":19200,"station_id":"ce4bh012rcd13ifvqd00","pricing_plan_id":"cebpf4jnsgd1na2vs0mg"},{"bike_id":"09df0721-62c4-4f5e-8c0d-1fc1a5ae1d4f","system_id":"levelo_inurba_marseille","lat":43.27998,"lon":5.41666,"is_reserved":false,"is_disabled":false,"rental_uris":{"android":"levelo://app?vid=09df0721-62c4-4f5e-8c0d-1fc1a5ae1d4f","ios":"levelo://app?vid=09df0721-62c4-4f5e-8c0d-1fc1a5ae1d4f"},"vehicle_type_id":"4","last_reported":1731946309,"current_range_meters":3200,"station_id":"ce4bho12rcd13ifvqh1g","pricing_plan_id":"cebpf4jnsgd1na2vs0mg"},{"bike_id":"68c45182-e6ce-4a50-ad10-91d7d21d9e3f","system_id":"levelo_inurba_marseille","lat":43.286927,"lon":5.39991,"is_reserved":false,"is_disabled":false,"rental_uris":{"android":"levelo://app?vid=68c45182-e6ce-4a50-ad10-91d7d21d9e3f","ios":"levelo://app?vid=68c45182-e6ce-4a50-ad10-91d7d21d9e3f"},"vehicle_type_id":"4","last_reported":1731946309,"current_range_meters":3200,"station_id":"ce4bgrh2rcd13ifvqc8g","pricing_plan_id":"cebpf4jnsgd1na2vs0mg"},{"bike_id":"127f1b8a-3c7f-4ff5-aefd-de9fcad5bb39","system_id":"levelo_inurba_marseille","lat":43.298645,"lon":5.384416,"is_reserved":false,"is_disabled":false,"rental_uris":{"android":"levelo://app?vid=127f1b8a-3c7f-4ff5-aefd-de9fcad5bb39","ios":"levelo://app?vid=127f1b8a-3c7f-4ff5-aefd-de9fcad5bb39"},"vehicle_type_id":"4","last_reported":1731946309,"current_range_meters":29600,"station_id":"ce4bhp92rcd13ifvqhcg","pricing_plan_id":"cebpf4jnsgd1na2vs0mg"},{"bike_id":"0534ce24-46b6-4220-851d-cebdfec71164","system_id":"levelo_inurba_marseille","lat":43.23179,"lon":5.39993,"is_reserved":false,"is_disabled":true,"rental_uris":{"android":"levelo://app?vid=0534ce24-46b6-4220-851d-cebdfec71164","ios":"levelo://app?vid=0534ce24-46b6-4220-851d-cebdfec71164"},"vehicle_type_id":"4","last_reported":1731946309,"current_range_meters":0,"station_id":"ce4bhn12rcd13ifvqgqg","pricing_plan_id":"cebpf4jnsgd1na2vs0mg"},{"bike_id":"5c1089b7-ae87-4494-933a-81812c0ebff9","system_id":"levelo_inurba_marseille","lat":43.2767,"lon":5.38893,"is_reserved":false,"is_disabled":false,"rental_uris":{"android":"levelo://app?vid=5c1089b7-ae87-4494-933a-81812c0ebff9","ios":"levelo://app?vid=5c1089b7-ae87-4494-933a-81812c0ebff9"},"vehicle_type_id":"4","last_reported":1731946309,"current_range_meters":32400,"station_id":"ce4bhi12rcd13ifvqfo0","pricing_plan_id":"cebpf4jnsgd1na2vs0mg"},{"bike_id":"62b7d9c7-15df-47c9-84d2-028a7e481c3c","system_id":"levelo_inurba_marseille","lat":43.31994,"lon":5.38157,"is_reserved":false,"is_disabled":false,"rental_uris":{"android":"levelo://app?vid=62b7d9c7-15df-47c9-84d2-028a7e481c3c","ios":"levelo://app?vid=62b7d9c7-15df-47c9-84d2-028a7e481c3c"},"vehicle_type_id":"4","last_reported":1731946309,"current_range_meters":26800,"station_id":"ce4bhr12rcd13ifvqhpg","pricing_plan_id":"cebpf4jnsgd1na2vs0mg"},{"bike_id":"3f095bc8-9af8-4b0b-a298-157d8e949f36","system_id":"levelo_inurba_marseille","lat":43.27666,"lon":5.38882,"is_reserved":false,"is_disabled":true,"rental_uris":{"android":"levelo://app?vid=3f095bc8-9af8-4b0b-a298-157d8e949f36","ios":"levelo://app?vid=3f095bc8-9af8-4b0b-a298-157d8e949f36"},"vehicle_type_id":"4","last_reported":1731946309,"current_range_meters":10800,"station_id":"ce4bhi12rcd13ifvqfo0","pricing_plan_id":"cebpf4jnsgd1na2vs0mg"},{"bike_id":"7c407d42-b656-4801-b91f-c3365028215c","system_id":"levelo_inurba_marseille","lat":43.26212,"lon":5.37444,"is_reserved":false,"is_disabled":true,"rental_uris":{"android":"levelo://app?vid=7c407d42-b656-4801-b91f-c3365028215c","ios":"levelo://app?vid=7c407d42-b656-4801-b91f-c3365028215c"},"vehicle_type_id":"4","last_reported":1731946309,"current_range_meters":800,"station_id":"ce4bhgp2rcd13ifvqfc0","pricing_plan_id":"cebpf4jnsgd1na2vs0mg"},{"bike_id":"6b06eb62-aa5f-4e47-b956-27b90ed16d11","system_id":"levelo_inurba_marseille","lat":43.29604,"lon":5.38103,"is_reserved":false,"is_disabled":false,"rental_uris":{"android":"levelo://app?vid=6b06eb62-aa5f-4e47-b956-27b90ed16d11","ios":"levelo://app?vid=6b06eb62-aa5f-4e47-b956-27b90ed16d11"},"vehicle_type_id":"4","last_reported":1731946309,"current_range_meters":38400,"station_id":"ce4bgl12rcd13ifvqbo0","pricing_plan_id":"cebpf4jnsgd1na2vs0mg"},{"bike_id":"d674a550-723f-4e20-a0c2-89aa344c2ade","system_id":"levelo_inurba_marseille","lat":43.28201,"lon":5.44373,"is_reserved":false,"is_disabled":false,"rental_uris":{"android":"levelo://app?vid=d674a550-723f-4e20-a0c2-89aa344c2ade","ios":"levelo://app?vid=d674a550-723f-4e20-a0c2-89aa344c2ade"},"vehicle_type_id":"4","last_reported":1731946309,"current_range_meters":8000,"station_id":"","pricing_plan_id":"cebpf4jnsgd1na2vs0mg"},{"bike_id":"c5506e34-3cec-4b45-9228-117b2748865f","system_id":"levelo_inurba_marseille","lat":43.29751,"lon":5.37683,"is_reserved":false,"is_disabled":false,"rental_uris":{"android":"levelo://app?vid=c5506e34-3cec-4b45-9228-117b2748865f","ios":"levelo://app?vid=c5506e34-3cec-4b45-9228-117b2748865f"},"vehicle_type_id":"4","last_reported":1731946309,"current_range_meters":38800,"station_id":"ce4bgkh2rcd13ifvqbl0","pricing_plan_id":"cebpf4jnsgd1na2vs0mg"},{"bike_id":"8ac55fdf-5986-4e73-a605-04c1c2cb13ec","system_id":"levelo_inurba_marseille","lat":43.30303,"lon":5.39209,"is_reserved":false,"is_disabled":false,"rental_uris":{"android":"levelo://app?vid=8ac55fdf-5986-4e73-a605-04c1c2cb13ec","ios":"levelo://app?vid=8ac55fdf-5986-4e73-a605-04c1c2cb13ec"},"vehicle_type_id":"4","last_reported":1731946309,"current_range_meters":12400,"station_id":"ce4bgkh2rcd13ifvqbk0","pricing_plan_id":"cebpf4jnsgd1na2vs0mg"},{"bike_id":"0971947d-e2b4-4cd3-a154-348cee953900","system_id":"levelo_inurba_marseille","lat":43.25501,"lon":5.37656,"is_reserved":false,"is_disabled":false,"rental_uris":{"android":"levelo://app?vid=0971947d-e2b4-4cd3-a154-348cee953900","ios":"levelo://app?vid=0971947d-e2b4-4cd3-a154-348cee953900"},"vehicle_type_id":"4","last_reported":1731946309,"current_range_meters":31200,"station_id":"ce4bhh12rcd13ifvqff0","pricing_plan_id":"cebpf4jnsgd1na2vs0mg"},{"bike_id":"a2a4691c-6a36-4416-b362-e8e4e06cf2a5","system_id":"levelo_inurba_marseille","lat":43.28445,"lon":5.39208,"is_reserved":false,"is_disabled":true,"rental_uris":{"android":"levelo://app?vid=a2a4691c-6a36-4416-b362-e8e4e06cf2a5","ios":"levelo://app?vid=a2a4691c-6a36-4416-b362-e8e4e06cf2a5"},"vehicle_type_id":"4","last_reported":1731946309,"current_range_meters":0,"station_id":"ce4bhoh2rcd13ifvqh5g","pricing_plan_id":"cebpf4jnsgd1na2vs0mg"},{"bike_id":"565c5e69-e3b5-48c6-826f-f5e6eb9578ea","system_id":"levelo_inurba_marseille","lat":43.29619,"lon":5.37709,"is_reserved":false,"is_disabled":false,"rental_uris":{"android":"levelo://app?vid=565c5e69-e3b5-48c6-826f-f5e6eb9578ea","ios":"levelo://app?vid=565c5e69-e3b5-48c6-826f-f5e6eb9578ea"},"vehicle_type_id":"4","last_reported":1731946309,"current_range_meters":30000,"station_id":"ce4bgi92rcd13ifvqb90","pricing_plan_id":"cebpf4jnsgd1na2vs0mg"},{"bike_id":"f1f50780-48cb-44fa-9dee-6831b7cf5f41","system_id":"levelo_inurba_marseille","lat":43.29528,"lon":5.39031,"is_reserved":false,"is_disabled":false,"rental_uris":{"android":"levelo://app?vid=f1f50780-48cb-44fa-9dee-6831b7cf5f41","ios":"levelo://app?vid=f1f50780-48cb-44fa-9dee-6831b7cf5f41"},"vehicle_type_id":"4","last_reported":1731946309,"current_range_meters":36800,"station_id":"ce4bh3p2rcd13ifvqdp0","pricing_plan_id":"cebpf4jnsgd1na2vs0mg"},{"bike_id":"5873cbbb-60e4-463a-a62f-14bc6adde5e8","system_id":"levelo_inurba_marseille","lat":43.28785,"lon":5.36683,"is_reserved":false,"is_disabled":true,"rental_uris":{"android":"levelo://app?vid=5873cbbb-60e4-463a-a62f-14bc6adde5e8","ios":"levelo://app?vid=5873cbbb-60e4-463a-a62f-14bc6adde5e8"},"vehicle_type_id":"4","last_reported":1731946309,"current_range_meters":800,"station_id":"ce4bha12rcd13ifvqef0","pricing_plan_id":"cebpf4jnsgd1na2vs0mg"},{"bike_id":"a74ebd93-bc18-4c3e-aace-af4ac37176f1","system_id":"levelo_inurba_marseille","lat":43.32365,"lon":5.3888,"is_reserved":false,"is_disabled":false,"rental_uris":{"android":"levelo://app?vid=a74ebd93-bc18-4c3e-aace-af4ac37176f1","ios":"levelo://app?vid=a74ebd93-bc18-4c3e-aace-af4ac37176f1"},"vehicle_type_id":"4","last_reported":1731946309,"current_range_meters":30000,"station_id":"ce4bhqp2rcd13ifvqhog","pricing_plan_id":"cebpf4jnsgd1na2vs0mg"},{"bike_id":"1faa642b-f50c-418e-82ec-b3b9615467a1","system_id":"levelo_inurba_marseille","lat":43.26028,"lon":5.37554,"is_reserved":false,"is_disabled":false,"rental_uris":{"android":"levelo://app?vid=1faa642b-f50c-418e-82ec-b3b9615467a1","ios":"levelo://app?vid=1faa642b-f50c-418e-82ec-b3b9615467a1"},"vehicle_type_id":"4","last_reported":1731946309,"current_range_meters":14800,"station_id":"ce4bhgh2rcd13ifvqfa0","pricing_plan_id":"cebpf4jnsgd1na2vs0mg"},{"bike_id":"d9473ef4-2b18-452d-940b-8af7342eef51","system_id":"levelo_inurba_marseille","lat":43.27998,"lon":5.4001,"is_reserved":false,"is_disabled":false,"rental_uris":{"android":"levelo://app?vid=d9473ef4-2b18-452d-940b-8af7342eef51","ios":"levelo://app?vid=d9473ef4-2b18-452d-940b-8af7342eef51"},"vehicle_type_id":"4","last_reported":1731946309,"current_range_meters":27600,"station_id":"ce4bho92rcd13ifvqh4g","pricing_plan_id":"cebpf4jnsgd1na2vs0mg"},{"bike_id":"7454fc57-78fd-4bde-9316-63ec01badcd6","system_id":"levelo_inurba_marseille","lat":43.33726,"lon":5.39183,"is_reserved":false,"is_disabled":false,"rental_uris":{"android":"levelo://app?vid=7454fc57-78fd-4bde-9316-63ec01badcd6","ios":"levelo://app?vid=7454fc57-78fd-4bde-9316-63ec01badcd6"},"vehicle_type_id":"4","last_reported":1731946309,"current_range_meters":6000,"station_id":"ce4bhr92rcd13ifvqhsg","pricing_plan_id":"cebpf4jnsgd1na2vs0mg"},{"bike_id":"106b556b-6ce5-4b57-a061-3eb5f648d1e8","system_id":"levelo_inurba_marseille","lat":43.27888,"lon":5.38178,"is_reserved":false,"is_disabled":false,"rental_uris":{"android":"levelo://app?vid=106b556b-6ce5-4b57-a061-3eb5f648d1e8","ios":"levelo://app?vid=106b556b-6ce5-4b57-a061-3eb5f648d1e8"},"vehicle_type_id":"4","last_reported":1731946309,"current_range_meters":16000,"station_id":"ce4bhf92rcd13ifvqf50","pricing_plan_id":"cebpf4jnsgd1na2vs0mg"},{"bike_id":"03e86a75-4872-4548-9575-ac8738d7d8d3","system_id":"levelo_inurba_marseille","lat":43.29438,"lon":5.39741,"is_reserved":false,"is_disabled":false,"rental_uris":{"android":"levelo://app?vid=03e86a75-4872-4548-9575-ac8738d7d8d3","ios":"levelo://app?vid=03e86a75-4872-4548-9575-ac8738d7d8d3"},"vehicle_type_id":"4","last_reported":1731946309,"current_range_meters":31200,"station_id":"ce4bh3h2rcd13ifvqdo0","pricing_plan_id":"cebpf4jnsgd1na2vs0mg"},{"bike_id":"6fac335b-0f7c-42c5-a13a-da6995866591","system_id":"levelo_inurba_marseille","lat":43.31121,"lon":5.37775,"is_reserved":false,"is_disabled":false,"rental_uris":{"android":"levelo://app?vid=6fac335b-0f7c-42c5-a13a-da6995866591","ios":"levelo://app?vid=6fac335b-0f7c-42c5-a13a-da6995866591"},"vehicle_type_id":"4","last_reported":1731946309,"current_range_meters":35600,"station_id":"ce4bgt92rcd13ifvqcg0","pricing_plan_id":"cebpf4jnsgd1na2vs0mg"},{"bike_id":"899d9483-0dc1-4be9-a3f2-dd55ed3436c0","system_id":"levelo_inurba_marseille","lat":43.2792,"lon":5.39583,"is_reserved":false,"is_disabled":false,"rental_uris":{"android":"levelo://app?vid=899d9483-0dc1-4be9-a3f2-dd55ed3436c0","ios":"levelo://app?vid=899d9483-0dc1-4be9-a3f2-dd55ed3436c0"},"vehicle_type_id":"4","last_reported":1731946309,"current_range_meters":30400,"station_id":"ce4bhf92rcd13ifvqf40","pricing_plan_id":"cebpf4jnsgd1na2vs0mg"},{"bike_id":"77e76035-4789-4dd1-8014-953c960c189c","system_id":"levelo_inurba_marseille","lat":43.29932,"lon":5.36552,"is_reserved":false,"is_disabled":false,"rental_uris":{"android":"levelo://app?vid=77e76035-4789-4dd1-8014-953c960c189c","ios":"levelo://app?vid=77e76035-4789-4dd1-8014-953c960c189c"},"vehicle_type_id":"4","last_reported":1731946309,"current_range_meters":30000,"station_id":"ce4bgm92rcd13ifvqbr0","pricing_plan_id":"cebpf4jnsgd1na2vs0mg"},{"bike_id":"f0d903aa-7895-44e0-bdfd-4e535915434d","system_id":"levelo_inurba_marseille","lat":43.30133,"lon":5.39862,"is_reserved":false,"is_disabled":false,"rental_uris":{"android":"levelo://app?vid=f0d903aa-7895-44e0-bdfd-4e535915434d","ios":"levelo://app?vid=f0d903aa-7895-44e0-bdfd-4e535915434d"},"vehicle_type_id":"4","last_reported":1731946309,"current_range_meters":38800,"station_id":"ce4bh0h2rcd13ifvqd40","pricing_plan_id":"cebpf4jnsgd1na2vs0mg"},{"bike_id":"830a9429-2134-4e24-8657-3b885183a61d","system_id":"levelo_inurba_marseille","lat":43.29037,"lon":5.37564,"is_reserved":false,"is_disabled":false,"rental_uris":{"android":"levelo://app?vid=830a9429-2134-4e24-8657-3b885183a61d","ios":"levelo://app?vid=830a9429-2134-4e24-8657-3b885183a61d"},"vehicle_type_id":"4","last_reported":1731946309,"current_range_meters":8000,"station_id":"ce4bh692rcd13ifvqe90","pricing_plan_id":"cebpf4jnsgd1na2vs0mg"},{"bike_id":"da11c129-d340-4e5d-a617-3fd0c02b9fab","system_id":"levelo_inurba_marseille","lat":43.299652,"lon":5.371975,"is_reserved":false,"is_disabled":false,"rental_uris":{"android":"levelo://app?vid=da11c129-d340-4e5d-a617-3fd0c02b9fab","ios":"levelo://app?vid=da11c129-d340-4e5d-a617-3fd0c02b9fab"},"vehicle_type_id":"4","last_reported":1731946309,"current_range_meters":38800,"station_id":"ce4bgr92rcd13ifvqc7g","pricing_plan_id":"cebpf4jnsgd1na2vs0mg"},{"bike_id":"c32212ce-a171-4ec5-8d7a-215d06b1396b","system_id":"levelo_inurba_marseille","lat":43.290809,"lon":5.381049,"is_reserved":false,"is_disabled":false,"rental_uris":{"android":"levelo://app?vid=c32212ce-a171-4ec5-8d7a-215d06b1396b","ios":"levelo://app?vid=c32212ce-a171-4ec5-8d7a-215d06b1396b"},"vehicle_type_id":"4","last_reported":1731946309,"current_range_meters":37600,"station_id":"ce4bh512rcd13ifvqe2g","pricing_plan_id":"cebpf4jnsgd1na2vs0mg"},{"bike_id":"629c8428-341f-4732-aba3-e6963cd59f11","system_id":"levelo_inurba_marseille","lat":43.29041,"lon":5.37572,"is_reserved":false,"is_disabled":false,"rental_uris":{"android":"levelo://app?vid=629c8428-341f-4732-aba3-e6963cd59f11","ios":"levelo://app?vid=629c8428-341f-4732-aba3-e6963cd59f11"},"vehicle_type_id":"4","last_reported":1731946309,"current_range_meters":17600,"station_id":"ce4bh692rcd13ifvqe90","pricing_plan_id":"cebpf4jnsgd1na2vs0mg"},{"bike_id":"56edd46b-d236-45f1-ba2f-1f7d8acc3af2","system_id":"levelo_inurba_marseille","lat":43.337444,"lon":5.374475,"is_reserved":false,"is_disabled":false,"rental_uris":{"android":"levelo://app?vid=56edd46b-d236-45f1-ba2f-1f7d8acc3af2","ios":"levelo://app?vid=56edd46b-d236-45f1-ba2f-1f7d8acc3af2"},"vehicle_type_id":"4","last_reported":1731946309,"current_range_meters":38400,"station_id":"","pricing_plan_id":"cebpf4jnsgd1na2vs0mg"},{"bike_id":"794dd135-41b1-47af-8a43-5aa322243a6d","system_id":"levelo_inurba_marseille","lat":43.30099,"lon":5.39086,"is_reserved":false,"is_disabled":false,"rental_uris":{"android":"levelo://app?vid=794dd135-41b1-47af-8a43-5aa322243a6d","ios":"levelo://app?vid=794dd135-41b1-47af-8a43-5aa322243a6d"},"vehicle_type_id":"4","last_reported":1731946309,"current_range_meters":23200,"station_id":"ce4bh192rcd13ifvqdb0","pricing_plan_id":"cebpf4jnsgd1na2vs0mg"},{"bike_id":"ca274fea-6295-43b4-894f-9a28639a74b6","system_id":"levelo_inurba_marseille","lat":43.28334,"lon":5.38103,"is_reserved":false,"is_disabled":false,"rental_uris":{"android":"levelo://app?vid=ca274fea-6295-43b4-894f-9a28639a74b6","ios":"levelo://app?vid=ca274fea-6295-43b4-894f-9a28639a74b6"},"vehicle_type_id":"4","last_reported":1731946309,"current_range_meters":27200,"station_id":"ce4bh412rcd13ifvqdr0","pricing_plan_id":"cebpf4jnsgd1na2vs0mg"},{"bike_id":"be25e552-734a-473e-abbb-52c79bbad7b1","system_id":"levelo_inurba_marseille","lat":43.27175,"lon":5.40997,"is_reserved":false,"is_disabled":false,"rental_uris":{"android":"levelo://app?vid=be25e552-734a-473e-abbb-52c79bbad7b1","ios":"levelo://app?vid=be25e552-734a-473e-abbb-52c79bbad7b1"},"vehicle_type_id":"4","last_reported":1731946309,"current_range_meters":39200,"station_id":"ce4bhl12rcd13ifvqgf0","pricing_plan_id":"cebpf4jnsgd1na2vs0mg"},{"bike_id":"c8b4e4f4-188f-4ddb-9934-f4c256f8e1ab","system_id":"levelo_inurba_marseille","lat":43.29444,"lon":5.39745,"is_reserved":false,"is_disabled":false,"rental_uris":{"android":"levelo://app?vid=c8b4e4f4-188f-4ddb-9934-f4c256f8e1ab","ios":"levelo://app?vid=c8b4e4f4-188f-4ddb-9934-f4c256f8e1ab"},"vehicle_type_id":"4","last_reported":1731946309,"current_range_meters":9600,"station_id":"ce4bh3h2rcd13ifvqdo0","pricing_plan_id":"cebpf4jnsgd1na2vs0mg"},{"bike_id":"6f64e415-892c-4c28-82bd-fab1be079526","system_id":"levelo_inurba_marseille","lat":43.30781,"lon":5.37646,"is_reserved":false,"is_disabled":false,"rental_uris":{"android":"levelo://app?vid=6f64e415-892c-4c28-82bd-fab1be079526","ios":"levelo://app?vid=6f64e415-892c-4c28-82bd-fab1be079526"},"vehicle_type_id":"4","last_reported":1731946309,"current_range_meters":35200,"station_id":"ce4bgv92rcd13ifvqcq0","pricing_plan_id":"cebpf4jnsgd1na2vs0mg"},{"bike_id":"0ce6e147-7480-473b-9ab2-a2c94aba6a79","system_id":"levelo_inurba_marseille","lat":43.29258,"lon":5.40908,"is_reserved":false,"is_disabled":false,"rental_uris":{"android":"levelo://app?vid=0ce6e147-7480-473b-9ab2-a2c94aba6a79","ios":"levelo://app?vid=0ce6e147-7480-473b-9ab2-a2c94aba6a79"},"vehicle_type_id":"4","last_reported":1731946309,"current_range_meters":38000,"station_id":"ce4bh192rcd13ifvqdc0","pricing_plan_id":"cebpf4jnsgd1na2vs0mg"},{"bike_id":"44813849-3436-4805-bc16-59fa514f9038","system_id":"levelo_inurba_marseille","lat":43.287,"lon":5.37393,"is_reserved":false,"is_disabled":false,"rental_uris":{"android":"levelo://app?vid=44813849-3436-4805-bc16-59fa514f9038","ios":"levelo://app?vid=44813849-3436-4805-bc16-59fa514f9038"},"vehicle_type_id":"4","last_reported":1731946309,"current_range_meters":39200,"station_id":"ce4bh3p2rcd13ifvqdq0","pricing_plan_id":"cebpf4jnsgd1na2vs0mg"},{"bike_id":"043758f1-1ca4-4759-b6f3-0b5f67b0f955","system_id":"levelo_inurba_marseille","lat":43.2791,"lon":5.38008,"is_reserved":false,"is_disabled":false,"rental_uris":{"android":"levelo://app?vid=043758f1-1ca4-4759-b6f3-0b5f67b0f955","ios":"levelo://app?vid=043758f1-1ca4-4759-b6f3-0b5f67b0f955"},"vehicle_type_id":"4","last_reported":1731946309,"current_range_meters":35600,"station_id":"ce4bhf92rcd13ifvqf50","pricing_plan_id":"cebpf4jnsgd1na2vs0mg"},{"bike_id":"4293724c-a87e-4a9e-84c3-ec23889e6637","system_id":"levelo_inurba_marseille","lat":43.29011,"lon":5.38634,"is_reserved":false,"is_disabled":false,"rental_uris":{"android":"levelo://app?vid=4293724c-a87e-4a9e-84c3-ec23889e6637","ios":"levelo://app?vid=4293724c-a87e-4a9e-84c3-ec23889e6637"},"vehicle_type_id":"4","last_reported":1731946309,"current_range_meters":28400,"station_id":"ce4bh4p2rcd13ifvqe0g","pricing_plan_id":"cebpf4jnsgd1na2vs0mg"},{"bike_id":"082e9fcf-e027-46cb-9584-d83a0d34771a","system_id":"levelo_inurba_marseille","lat":43.29521,"lon":5.39053,"is_reserved":false,"is_disabled":false,"rental_uris":{"android":"levelo://app?vid=082e9fcf-e027-46cb-9584-d83a0d34771a","ios":"levelo://app?vid=082e9fcf-e027-46cb-9584-d83a0d34771a"},"vehicle_type_id":"4","last_reported":1731946309,"current_range_meters":26800,"station_id":"ce4bh3p2rcd13ifvqdp0","pricing_plan_id":"cebpf4jnsgd1na2vs0mg"},{"bike_id":"ae69dab7-ceb7-4194-8907-2de6a16892b3","system_id":"levelo_inurba_marseille","lat":43.32364,"lon":5.38897,"is_reserved":false,"is_disabled":false,"rental_uris":{"android":"levelo://app?vid=ae69dab7-ceb7-4194-8907-2de6a16892b3","ios":"levelo://app?vid=ae69dab7-ceb7-4194-8907-2de6a16892b3"},"vehicle_type_id":"4","last_reported":1731946309,"current_range_meters":4000,"station_id":"ce4bhqp2rcd13ifvqhog","pricing_plan_id":"cebpf4jnsgd1na2vs0mg"},{"bike_id":"b60866bb-d716-4ffa-8494-bc543d498043","system_id":"levelo_inurba_marseille","lat":43.28431,"lon":5.34979,"is_reserved":false,"is_disabled":false,"rental_uris":{"android":"levelo://app?vid=b60866bb-d716-4ffa-8494-bc543d498043","ios":"levelo://app?vid=b60866bb-d716-4ffa-8494-bc543d498043"},"vehicle_type_id":"4","last_reported":1731946309,"current_range_meters":26800,"station_id":"ce4bhbh2rcd13ifvqepg","pricing_plan_id":"cebpf4jnsgd1na2vs0mg"},{"bike_id":"dff9c07f-352a-4989-b94c-5b504a6c2256","system_id":"levelo_inurba_marseille","lat":43.2951,"lon":5.3859,"is_reserved":false,"is_disabled":false,"rental_uris":{"android":"levelo://app?vid=dff9c07f-352a-4989-b94c-5b504a6c2256","ios":"levelo://app?vid=dff9c07f-352a-4989-b94c-5b504a6c2256"},"vehicle_type_id":"4","last_reported":1731946309,"current_range_meters":21600,"station_id":"ce4bgih2rcd13ifvqba0","pricing_plan_id":"cebpf4jnsgd1na2vs0mg"},{"bike_id":"647e671d-7a38-4f90-9942-2979b6599a3f","system_id":"levelo_inurba_marseille","lat":43.29623,"lon":5.37151,"is_reserved":false,"is_disabled":false,"rental_uris":{"android":"levelo://app?vid=647e671d-7a38-4f90-9942-2979b6599a3f","ios":"levelo://app?vid=647e671d-7a38-4f90-9942-2979b6599a3f"},"vehicle_type_id":"4","last_reported":1731946309,"current_range_meters":36800,"station_id":"ce4bgnh2rcd13ifvqc0g","pricing_plan_id":"cebpf4jnsgd1na2vs0mg"},{"bike_id":"e01474fe-88ce-4242-ad3f-f26f090c5b89","system_id":"levelo_inurba_marseille","lat":43.29908,"lon":5.3814,"is_reserved":false,"is_disabled":false,"rental_uris":{"android":"levelo://app?vid=e01474fe-88ce-4242-ad3f-f26f090c5b89","ios":"levelo://app?vid=e01474fe-88ce-4242-ad3f-f26f090c5b89"},"vehicle_type_id":"4","last_reported":1731946309,"current_range_meters":38800,"station_id":"ce4bgj12rcd13ifvqbc0","pricing_plan_id":"cebpf4jnsgd1na2vs0mg"},{"bike_id":"d739305a-e68e-45c2-be94-bfae6e2d7405","system_id":"levelo_inurba_marseille","lat":43.30321,"lon":5.40437,"is_reserved":false,"is_disabled":true,"rental_uris":{"android":"levelo://app?vid=d739305a-e68e-45c2-be94-bfae6e2d7405","ios":"levelo://app?vid=d739305a-e68e-45c2-be94-bfae6e2d7405"},"vehicle_type_id":"4","last_reported":1731946309,"current_range_meters":0,"station_id":"ce4bh012rcd13ifvqd10","pricing_plan_id":"cebpf4jnsgd1na2vs0mg"},{"bike_id":"884f46f0-e1b4-4549-ae5e-3263f14f23c2","system_id":"levelo_inurba_marseille","lat":43.30597,"lon":5.37229,"is_reserved":false,"is_disabled":true,"rental_uris":{"android":"levelo://app?vid=884f46f0-e1b4-4549-ae5e-3263f14f23c2","ios":"levelo://app?vid=884f46f0-e1b4-4549-ae5e-3263f14f23c2"},"vehicle_type_id":"4","last_reported":1731946309,"current_range_meters":0,"station_id":"ce4bgqh2rcd13ifvqc4g","pricing_plan_id":"cebpf4jnsgd1na2vs0mg"},{"bike_id":"86b6ae72-b9c8-460e-8061-afc9141c2b5b","system_id":"levelo_inurba_marseille","lat":43.292988,"lon":5.374575,"is_reserved":false,"is_disabled":false,"rental_uris":{"android":"levelo://app?vid=86b6ae72-b9c8-460e-8061-afc9141c2b5b","ios":"levelo://app?vid=86b6ae72-b9c8-460e-8061-afc9141c2b5b"},"vehicle_type_id":"4","last_reported":1731946309,"current_range_meters":33600,"station_id":"ce4bgi12rcd13ifvqb70","pricing_plan_id":"cebpf4jnsgd1na2vs0mg"},{"bike_id":"cc94800f-8f00-4fa2-8321-7ffb60c60a1c","system_id":"levelo_inurba_marseille","lat":43.28461,"lon":5.35896,"is_reserved":false,"is_disabled":false,"rental_uris":{"android":"levelo://app?vid=cc94800f-8f00-4fa2-8321-7ffb60c60a1c","ios":"levelo://app?vid=cc94800f-8f00-4fa2-8321-7ffb60c60a1c"},"vehicle_type_id":"4","last_reported":1731946309,"current_range_meters":27600,"station_id":"ce4bhah2rcd13ifvqei0","pricing_plan_id":"cebpf4jnsgd1na2vs0mg"},{"bike_id":"0b733133-03c9-4766-961e-92b775b50bbc","system_id":"levelo_inurba_marseille","lat":43.28191,"lon":5.44257,"is_reserved":false,"is_disabled":false,"rental_uris":{"android":"levelo://app?vid=0b733133-03c9-4766-961e-92b775b50bbc","ios":"levelo://app?vid=0b733133-03c9-4766-961e-92b775b50bbc"},"vehicle_type_id":"4","last_reported":1731946309,"current_range_meters":2000,"station_id":"","pricing_plan_id":"cebpf4jnsgd1na2vs0mg"},{"bike_id":"74eb70e9-b94e-49a5-9a48-368b4be133db","system_id":"levelo_inurba_marseille","lat":43.30791,"lon":5.43525,"is_reserved":false,"is_disabled":false,"rental_uris":{"android":"levelo://app?vid=74eb70e9-b94e-49a5-9a48-368b4be133db","ios":"levelo://app?vid=74eb70e9-b94e-49a5-9a48-368b4be133db"},"vehicle_type_id":"4","last_reported":1731946309,"current_range_meters":24000,"station_id":"ce4bhph2rcd13ifvqheg","pricing_plan_id":"cebpf4jnsgd1na2vs0mg"},{"bike_id":"4cba050b-d851-4ee5-8ce0-ea7f25d9c27b","system_id":"levelo_inurba_marseille","lat":43.27498,"lon":5.42454,"is_reserved":false,"is_disabled":true,"rental_uris":{"android":"levelo://app?vid=4cba050b-d851-4ee5-8ce0-ea7f25d9c27b","ios":"levelo://app?vid=4cba050b-d851-4ee5-8ce0-ea7f25d9c27b"},"vehicle_type_id":"4","last_reported":1731946309,"current_range_meters":20800,"station_id":"ce4bhn92rcd13ifvqgrg","pricing_plan_id":"cebpf4jnsgd1na2vs0mg"},{"bike_id":"42ca7e64-e004-4d43-85b9-72275a646414","system_id":"levelo_inurba_marseille","lat":43.31081,"lon":5.38351,"is_reserved":false,"is_disabled":false,"rental_uris":{"android":"levelo://app?vid=42ca7e64-e004-4d43-85b9-72275a646414","ios":"levelo://app?vid=42ca7e64-e004-4d43-85b9-72275a646414"},"vehicle_type_id":"4","last_reported":1731946309,"current_range_meters":20400,"station_id":"ce4bgv92rcd13ifvqcr0","pricing_plan_id":"cebpf4jnsgd1na2vs0mg"},{"bike_id":"87672914-3a8f-4d86-923d-e6e828294233","system_id":"levelo_inurba_marseille","lat":43.29704,"lon":5.36803,"is_reserved":false,"is_disabled":false,"rental_uris":{"android":"levelo://app?vid=87672914-3a8f-4d86-923d-e6e828294233","ios":"levelo://app?vid=87672914-3a8f-4d86-923d-e6e828294233"},"vehicle_type_id":"4","last_reported":1731946309,"current_range_meters":15200,"station_id":"ce4bgn12rcd13ifvqbt0","pricing_plan_id":"cebpf4jnsgd1na2vs0mg"},{"bike_id":"7fdb167d-6137-4050-9ec1-b84fe9675b11","system_id":"levelo_inurba_marseille","lat":43.2737,"lon":5.3626,"is_reserved":false,"is_disabled":false,"rental_uris":{"android":"levelo://app?vid=7fdb167d-6137-4050-9ec1-b84fe9675b11","ios":"levelo://app?vid=7fdb167d-6137-4050-9ec1-b84fe9675b11"},"vehicle_type_id":"4","last_reported":1731946309,"current_range_meters":36400,"station_id":"ce4bhbh2rcd13ifvqeo0","pricing_plan_id":"cebpf4jnsgd1na2vs0mg"},{"bike_id":"a021a1f0-77e9-498f-9e71-b61d94ba84b3","system_id":"levelo_inurba_marseille","lat":43.29442,"lon":5.39751,"is_reserved":false,"is_disabled":false,"rental_uris":{"android":"levelo://app?vid=a021a1f0-77e9-498f-9e71-b61d94ba84b3","ios":"levelo://app?vid=a021a1f0-77e9-498f-9e71-b61d94ba84b3"},"vehicle_type_id":"4","last_reported":1731946309,"current_range_meters":22800,"station_id":"ce4bh3h2rcd13ifvqdo0","pricing_plan_id":"cebpf4jnsgd1na2vs0mg"},{"bike_id":"7b5a6fd5-96dd-4f29-a02f-e5107d7cafbe","system_id":"levelo_inurba_marseille","lat":43.29509,"lon":5.39043,"is_reserved":false,"is_disabled":false,"rental_uris":{"android":"levelo://app?vid=7b5a6fd5-96dd-4f29-a02f-e5107d7cafbe","ios":"levelo://app?vid=7b5a6fd5-96dd-4f29-a02f-e5107d7cafbe"},"vehicle_type_id":"4","last_reported":1731946309,"current_range_meters":11600,"station_id":"ce4bh3p2rcd13ifvqdp0","pricing_plan_id":"cebpf4jnsgd1na2vs0mg"},{"bike_id":"6799c54c-4cd6-4d25-a1cb-a4067a584a72","system_id":"levelo_inurba_marseille","lat":43.33728,"lon":5.39192,"is_reserved":false,"is_disabled":false,"rental_uris":{"android":"levelo://app?vid=6799c54c-4cd6-4d25-a1cb-a4067a584a72","ios":"levelo://app?vid=6799c54c-4cd6-4d25-a1cb-a4067a584a72"},"vehicle_type_id":"4","last_reported":1731946309,"current_range_meters":32400,"station_id":"ce4bhr92rcd13ifvqhsg","pricing_plan_id":"cebpf4jnsgd1na2vs0mg"},{"bike_id":"01037e8f-a754-406b-99dd-96f5f23266a9","system_id":"levelo_inurba_marseille","lat":43.29276,"lon":5.3684,"is_reserved":false,"is_disabled":false,"rental_uris":{"android":"levelo://app?vid=01037e8f-a754-406b-99dd-96f5f23266a9","ios":"levelo://app?vid=01037e8f-a754-406b-99dd-96f5f23266a9"},"vehicle_type_id":"4","last_reported":1731946309,"current_range_meters":33600,"station_id":"ce4bhbp2rcd13ifvqesg","pricing_plan_id":"cebpf4jnsgd1na2vs0mg"},{"bike_id":"5d968cad-e227-4d48-ad7f-62c2e80b8b7c","system_id":"levelo_inurba_marseille","lat":43.30421,"lon":5.41283,"is_reserved":false,"is_disabled":false,"rental_uris":{"android":"levelo://app?vid=5d968cad-e227-4d48-ad7f-62c2e80b8b7c","ios":"levelo://app?vid=5d968cad-e227-4d48-ad7f-62c2e80b8b7c"},"vehicle_type_id":"4","last_reported":1731946309,"current_range_meters":20400,"station_id":"ce4bhop2rcd13ifvqh8g","pricing_plan_id":"cebpf4jnsgd1na2vs0mg"},{"bike_id":"5d30b61f-0876-43d0-ac47-4eac4011dcf6","system_id":"levelo_inurba_marseille","lat":43.26233,"lon":5.37441,"is_reserved":false,"is_disabled":false,"rental_uris":{"android":"levelo://app?vid=5d30b61f-0876-43d0-ac47-4eac4011dcf6","ios":"levelo://app?vid=5d30b61f-0876-43d0-ac47-4eac4011dcf6"},"vehicle_type_id":"4","last_reported":1731946309,"current_range_meters":36800,"station_id":"ce4bhgp2rcd13ifvqfc0","pricing_plan_id":"cebpf4jnsgd1na2vs0mg"},{"bike_id":"9f1dfffb-1213-4f6e-84d3-a2f0789a9ef3","system_id":"levelo_inurba_marseille","lat":43.27623,"lon":5.35886,"is_reserved":false,"is_disabled":true,"rental_uris":{"android":"levelo://app?vid=9f1dfffb-1213-4f6e-84d3-a2f0789a9ef3","ios":"levelo://app?vid=9f1dfffb-1213-4f6e-84d3-a2f0789a9ef3"},"vehicle_type_id":"4","last_reported":1731946309,"current_range_meters":0,"station_id":"","pricing_plan_id":"cebpf4jnsgd1na2vs0mg"},{"bike_id":"f13e0168-a456-4aef-a828-a63e7cfccfa9","system_id":"levelo_inurba_marseille","lat":43.29528,"lon":5.38542,"is_reserved":false,"is_disabled":false,"rental_uris":{"android":"levelo://app?vid=f13e0168-a456-4aef-a828-a63e7cfccfa9","ios":"levelo://app?vid=f13e0168-a456-4aef-a828-a63e7cfccfa9"},"vehicle_type_id":"4","last_reported":1731946309,"current_range_meters":34000,"station_id":"ce4bgih2rcd13ifvqba0","pricing_plan_id":"cebpf4jnsgd1na2vs0mg"},{"bike_id":"8db53ab6-e2fa-4723-825d-1cea3e43b64c","system_id":"levelo_inurba_marseille","lat":43.27994,"lon":5.41658,"is_reserved":false,"is_disabled":false,"rental_uris":{"android":"levelo://app?vid=8db53ab6-e2fa-4723-825d-1cea3e43b64c","ios":"levelo://app?vid=8db53ab6-e2fa-4723-825d-1cea3e43b64c"},"vehicle_type_id":"4","last_reported":1731946309,"current_range_meters":36400,"station_id":"ce4bho12rcd13ifvqh1g","pricing_plan_id":"cebpf4jnsgd1na2vs0mg"},{"bike_id":"57f1babf-1453-4341-9d59-ce6cc215d9e7","system_id":"levelo_inurba_marseille","lat":43.23964,"lon":5.36636,"is_reserved":false,"is_disabled":false,"rental_uris":{"android":"levelo://app?vid=57f1babf-1453-4341-9d59-ce6cc215d9e7","ios":"levelo://app?vid=57f1babf-1453-4341-9d59-ce6cc215d9e7"},"vehicle_type_id":"4","last_reported":1731946309,"current_range_meters":19200,"station_id":"ce4bhi12rcd13ifvqfp0","pricing_plan_id":"cebpf4jnsgd1na2vs0mg"},{"bike_id":"db79adb8-3f62-42db-ae7d-2162f77af82e","system_id":"levelo_inurba_marseille","lat":43.28715,"lon":5.37383,"is_reserved":false,"is_disabled":false,"rental_uris":{"android":"levelo://app?vid=db79adb8-3f62-42db-ae7d-2162f77af82e","ios":"levelo://app?vid=db79adb8-3f62-42db-ae7d-2162f77af82e"},"vehicle_type_id":"4","last_reported":1731946309,"current_range_meters":32800,"station_id":"ce4bh3p2rcd13ifvqdq0","pricing_plan_id":"cebpf4jnsgd1na2vs0mg"},{"bike_id":"8c330e87-eef2-41e9-8f36-efd3188e06c6","system_id":"levelo_inurba_marseille","lat":43.28981,"lon":5.37843,"is_reserved":false,"is_disabled":false,"rental_uris":{"android":"levelo://app?vid=8c330e87-eef2-41e9-8f36-efd3188e06c6","ios":"levelo://app?vid=8c330e87-eef2-41e9-8f36-efd3188e06c6"},"vehicle_type_id":"4","last_reported":1731946309,"current_range_meters":34800,"station_id":"ce4bh9p2rcd13ifvqed0","pricing_plan_id":"cebpf4jnsgd1na2vs0mg"},{"bike_id":"c18bcb7c-3058-4429-bcd2-a8a890f3689d","system_id":"levelo_inurba_marseille","lat":43.2901,"lon":5.3561,"is_reserved":false,"is_disabled":false,"rental_uris":{"android":"levelo://app?vid=c18bcb7c-3058-4429-bcd2-a8a890f3689d","ios":"levelo://app?vid=c18bcb7c-3058-4429-bcd2-a8a890f3689d"},"vehicle_type_id":"4","last_reported":1731946309,"current_range_meters":36800,"station_id":"ce4bhb92rcd13ifvqen0","pricing_plan_id":"cebpf4jnsgd1na2vs0mg"},{"bike_id":"66cee07e-55db-4ffb-bbcd-870b9c29564f","system_id":"levelo_inurba_marseille","lat":43.29903,"lon":5.43675,"is_reserved":false,"is_disabled":false,"rental_uris":{"android":"levelo://app?vid=66cee07e-55db-4ffb-bbcd-870b9c29564f","ios":"levelo://app?vid=66cee07e-55db-4ffb-bbcd-870b9c29564f"},"vehicle_type_id":"4","last_reported":1731946309,"current_range_meters":8400,"station_id":"ce4bhpp2rcd13ifvqhfg","pricing_plan_id":"cebpf4jnsgd1na2vs0mg"},{"bike_id":"e264033a-f915-4b27-a08a-2f42cfcf052a","system_id":"levelo_inurba_marseille","lat":43.337444,"lon":5.374475,"is_reserved":false,"is_disabled":false,"rental_uris":{"android":"levelo://app?vid=e264033a-f915-4b27-a08a-2f42cfcf052a","ios":"levelo://app?vid=e264033a-f915-4b27-a08a-2f42cfcf052a"},"vehicle_type_id":"4","last_reported":1731946309,"current_range_meters":36800,"station_id":"","pricing_plan_id":"cebpf4jnsgd1na2vs0mg"},{"bike_id":"684f862f-841f-4393-b414-d2ddb6693dff","system_id":"levelo_inurba_marseille","lat":43.30537,"lon":5.36535,"is_reserved":false,"is_disabled":false,"rental_uris":{"android":"levelo://app?vid=684f862f-841f-4393-b414-d2ddb6693dff","ios":"levelo://app?vid=684f862f-841f-4393-b414-d2ddb6693dff"},"vehicle_type_id":"4","last_reported":1731946309,"current_range_meters":40000,"station_id":"ce4bgs12rcd13ifvqcag","pricing_plan_id":"cebpf4jnsgd1na2vs0mg"},{"bike_id":"68a9156b-ece2-43d6-9446-194b1eca0e0d","system_id":"levelo_inurba_marseille","lat":43.29624,"lon":5.37726,"is_reserved":false,"is_disabled":false,"rental_uris":{"android":"levelo://app?vid=68a9156b-ece2-43d6-9446-194b1eca0e0d","ios":"levelo://app?vid=68a9156b-ece2-43d6-9446-194b1eca0e0d"},"vehicle_type_id":"4","last_reported":1731946309,"current_range_meters":26000,"station_id":"ce4bgi92rcd13ifvqb90","pricing_plan_id":"cebpf4jnsgd1na2vs0mg"},{"bike_id":"123862ba-68e2-48f6-a477-31ab9dae8bd5","system_id":"levelo_inurba_marseille","lat":43.337444,"lon":5.374475,"is_reserved":false,"is_disabled":true,"rental_uris":{"android":"levelo://app?vid=123862ba-68e2-48f6-a477-31ab9dae8bd5","ios":"levelo://app?vid=123862ba-68e2-48f6-a477-31ab9dae8bd5"},"vehicle_type_id":"4","last_reported":1731946309,"current_range_meters":19600,"station_id":"","pricing_plan_id":"cebpf4jnsgd1na2vs0mg"},{"bike_id":"25ddf417-8230-4dbc-b38a-2b2cb1ba9d73","system_id":"levelo_inurba_marseille","lat":43.30283,"lon":5.37696,"is_reserved":false,"is_disabled":true,"rental_uris":{"android":"levelo://app?vid=25ddf417-8230-4dbc-b38a-2b2cb1ba9d73","ios":"levelo://app?vid=25ddf417-8230-4dbc-b38a-2b2cb1ba9d73"},"vehicle_type_id":"4","last_reported":1731946309,"current_range_meters":16800,"station_id":"ce4bguh2rcd13ifvqcj0","pricing_plan_id":"cebpf4jnsgd1na2vs0mg"},{"bike_id":"203aeef1-141c-4fdd-8aad-facad2087071","system_id":"levelo_inurba_marseille","lat":43.33761,"lon":5.37429,"is_reserved":false,"is_disabled":false,"rental_uris":{"android":"levelo://app?vid=203aeef1-141c-4fdd-8aad-facad2087071","ios":"levelo://app?vid=203aeef1-141c-4fdd-8aad-facad2087071"},"vehicle_type_id":"4","last_reported":1731946309,"current_range_meters":26800,"station_id":"","pricing_plan_id":"cebpf4jnsgd1na2vs0mg"},{"bike_id":"7acb7ca3-6838-4d28-b437-03a1bf3c13d7","system_id":"levelo_inurba_marseille","lat":43.29618,"lon":5.37155,"is_reserved":false,"is_disabled":false,"rental_uris":{"android":"levelo://app?vid=7acb7ca3-6838-4d28-b437-03a1bf3c13d7","ios":"levelo://app?vid=7acb7ca3-6838-4d28-b437-03a1bf3c13d7"},"vehicle_type_id":"4","last_reported":1731946309,"current_range_meters":26800,"station_id":"ce4bgnh2rcd13ifvqc0g","pricing_plan_id":"cebpf4jnsgd1na2vs0mg"},{"bike_id":"20d83097-7dce-4b95-bcd8-8f0374b4d965","system_id":"levelo_inurba_marseille","lat":43.23155,"lon":5.43732,"is_reserved":false,"is_disabled":false,"rental_uris":{"android":"levelo://app?vid=20d83097-7dce-4b95-bcd8-8f0374b4d965","ios":"levelo://app?vid=20d83097-7dce-4b95-bcd8-8f0374b4d965"},"vehicle_type_id":"4","last_reported":1731946309,"current_range_meters":29600,"station_id":"ce4bhmp2rcd13ifvqgog","pricing_plan_id":"cebpf4jnsgd1na2vs0mg"},{"bike_id":"0866ede3-f8b2-4286-a17a-a2c8c2995ad1","system_id":"levelo_inurba_marseille","lat":43.28665,"lon":5.38673,"is_reserved":false,"is_disabled":false,"rental_uris":{"android":"levelo://app?vid=0866ede3-f8b2-4286-a17a-a2c8c2995ad1","ios":"levelo://app?vid=0866ede3-f8b2-4286-a17a-a2c8c2995ad1"},"vehicle_type_id":"4","last_reported":1731946309,"current_range_meters":30800,"station_id":"ce4bh492rcd13ifvqdug","pricing_plan_id":"cebpf4jnsgd1na2vs0mg"},{"bike_id":"66669824-cc06-4011-8682-904d83b073f5","system_id":"levelo_inurba_marseille","lat":43.28707,"lon":5.3795,"is_reserved":false,"is_disabled":false,"rental_uris":{"android":"levelo://app?vid=66669824-cc06-4011-8682-904d83b073f5","ios":"levelo://app?vid=66669824-cc06-4011-8682-904d83b073f5"},"vehicle_type_id":"4","last_reported":1731946309,"current_range_meters":35600,"station_id":"ce4bh9p2rcd13ifvqec0","pricing_plan_id":"cebpf4jnsgd1na2vs0mg"},{"bike_id":"0814e5b2-afc4-4274-a5e1-ccb784183380","system_id":"levelo_inurba_marseille","lat":43.29524,"lon":5.39037,"is_reserved":false,"is_disabled":false,"rental_uris":{"android":"levelo://app?vid=0814e5b2-afc4-4274-a5e1-ccb784183380","ios":"levelo://app?vid=0814e5b2-afc4-4274-a5e1-ccb784183380"},"vehicle_type_id":"4","last_reported":1731946309,"current_range_meters":29600,"station_id":"ce4bh3p2rcd13ifvqdp0","pricing_plan_id":"cebpf4jnsgd1na2vs0mg"},{"bike_id":"2a18b8cf-0cd6-4e7b-a5fe-e4701290a1b5","system_id":"levelo_inurba_marseille","lat":43.30136,"lon":5.39862,"is_reserved":false,"is_disabled":false,"rental_uris":{"android":"levelo://app?vid=2a18b8cf-0cd6-4e7b-a5fe-e4701290a1b5","ios":"levelo://app?vid=2a18b8cf-0cd6-4e7b-a5fe-e4701290a1b5"},"vehicle_type_id":"4","last_reported":1731946309,"current_range_meters":22000,"station_id":"ce4bh0h2rcd13ifvqd40","pricing_plan_id":"cebpf4jnsgd1na2vs0mg"},{"bike_id":"66a05433-0535-4a85-840b-060e1faf9a6a","system_id":"levelo_inurba_marseille","lat":43.29891,"lon":5.38905,"is_reserved":false,"is_disabled":false,"rental_uris":{"android":"levelo://app?vid=66a05433-0535-4a85-840b-060e1faf9a6a","ios":"levelo://app?vid=66a05433-0535-4a85-840b-060e1faf9a6a"},"vehicle_type_id":"4","last_reported":1731946309,"current_range_meters":38800,"station_id":"ce4bh392rcd13ifvqdl0","pricing_plan_id":"cebpf4jnsgd1na2vs0mg"},{"bike_id":"deae6459-a5c0-4b73-912d-5320c0056c88","system_id":"levelo_inurba_marseille","lat":43.30468,"lon":5.37906,"is_reserved":false,"is_disabled":false,"rental_uris":{"android":"levelo://app?vid=deae6459-a5c0-4b73-912d-5320c0056c88","ios":"levelo://app?vid=deae6459-a5c0-4b73-912d-5320c0056c88"},"vehicle_type_id":"4","last_reported":1731946309,"current_range_meters":37600,"station_id":"ce4bgup2rcd13ifvqcn0","pricing_plan_id":"cebpf4jnsgd1na2vs0mg"},{"bike_id":"c1a608b1-d0da-454b-b648-8bf15b8ba679","system_id":"levelo_inurba_marseille","lat":43.30144,"lon":5.38019,"is_reserved":false,"is_disabled":false,"rental_uris":{"android":"levelo://app?vid=c1a608b1-d0da-454b-b648-8bf15b8ba679","ios":"levelo://app?vid=c1a608b1-d0da-454b-b648-8bf15b8ba679"},"vehicle_type_id":"4","last_reported":1731946309,"current_range_meters":32400,"station_id":"ce4bhjp2rcd13ifvqga0","pricing_plan_id":"cebpf4jnsgd1na2vs0mg"},{"bike_id":"406b27d8-6247-424a-ac46-51ed04c17f48","system_id":"levelo_inurba_marseille","lat":43.30542,"lon":5.36547,"is_reserved":false,"is_disabled":true,"rental_uris":{"android":"levelo://app?vid=406b27d8-6247-424a-ac46-51ed04c17f48","ios":"levelo://app?vid=406b27d8-6247-424a-ac46-51ed04c17f48"},"vehicle_type_id":"4","last_reported":1731946309,"current_range_meters":0,"station_id":"ce4bgs12rcd13ifvqcag","pricing_plan_id":"cebpf4jnsgd1na2vs0mg"},{"bike_id":"746c26b3-b945-4191-b394-93c5195805c3","system_id":"levelo_inurba_marseille","lat":43.27942,"lon":5.41052,"is_reserved":false,"is_disabled":false,"rental_uris":{"android":"levelo://app?vid=746c26b3-b945-4191-b394-93c5195805c3","ios":"levelo://app?vid=746c26b3-b945-4191-b394-93c5195805c3"},"vehicle_type_id":"4","last_reported":1731946309,"current_range_meters":14800,"station_id":"ce4bhnp2rcd13ifvqh0g","pricing_plan_id":"cebpf4jnsgd1na2vs0mg"},{"bike_id":"75420037-a1a0-44de-85e1-44ce9ad329ea","system_id":"levelo_inurba_marseille","lat":43.28455,"lon":5.35897,"is_reserved":false,"is_disabled":false,"rental_uris":{"android":"levelo://app?vid=75420037-a1a0-44de-85e1-44ce9ad329ea","ios":"levelo://app?vid=75420037-a1a0-44de-85e1-44ce9ad329ea"},"vehicle_type_id":"4","last_reported":1731946309,"current_range_meters":37600,"station_id":"ce4bhah2rcd13ifvqei0","pricing_plan_id":"cebpf4jnsgd1na2vs0mg"},{"bike_id":"8a758b0a-427b-4dc7-8302-e5c95f46f064","system_id":"levelo_inurba_marseille","lat":43.26678,"lon":5.38271,"is_reserved":false,"is_disabled":false,"rental_uris":{"android":"levelo://app?vid=8a758b0a-427b-4dc7-8302-e5c95f46f064","ios":"levelo://app?vid=8a758b0a-427b-4dc7-8302-e5c95f46f064"},"vehicle_type_id":"4","last_reported":1731946309,"current_range_meters":38800,"station_id":"ce4bhg92rcd13ifvqf90","pricing_plan_id":"cebpf4jnsgd1na2vs0mg"},{"bike_id":"3a582fd7-570c-4825-af1f-4450238f5741","system_id":"levelo_inurba_marseille","lat":43.29612,"lon":5.37728,"is_reserved":false,"is_disabled":false,"rental_uris":{"android":"levelo://app?vid=3a582fd7-570c-4825-af1f-4450238f5741","ios":"levelo://app?vid=3a582fd7-570c-4825-af1f-4450238f5741"},"vehicle_type_id":"4","last_reported":1731946309,"current_range_meters":38000,"station_id":"ce4bgi92rcd13ifvqb90","pricing_plan_id":"cebpf4jnsgd1na2vs0mg"},{"bike_id":"b255d923-2499-4c8d-a4f2-ac8fd0e6b2d2","system_id":"levelo_inurba_marseille","lat":43.262045,"lon":5.374497,"is_reserved":false,"is_disabled":false,"rental_uris":{"android":"levelo://app?vid=b255d923-2499-4c8d-a4f2-ac8fd0e6b2d2","ios":"levelo://app?vid=b255d923-2499-4c8d-a4f2-ac8fd0e6b2d2"},"vehicle_type_id":"4","last_reported":1731946309,"current_range_meters":24400,"station_id":"ce4bhgp2rcd13ifvqfc0","pricing_plan_id":"cebpf4jnsgd1na2vs0mg"},{"bike_id":"421e2e6a-30ad-4f12-91e0-c2f2c50f863a","system_id":"levelo_inurba_marseille","lat":43.28466,"lon":5.3589,"is_reserved":false,"is_disabled":false,"rental_uris":{"android":"levelo://app?vid=421e2e6a-30ad-4f12-91e0-c2f2c50f863a","ios":"levelo://app?vid=421e2e6a-30ad-4f12-91e0-c2f2c50f863a"},"vehicle_type_id":"4","last_reported":1731946309,"current_range_meters":24800,"station_id":"ce4bhah2rcd13ifvqei0","pricing_plan_id":"cebpf4jnsgd1na2vs0mg"},{"bike_id":"f8b882b3-d0bb-4d92-a34f-27c69ff03976","system_id":"levelo_inurba_marseille","lat":43.30141,"lon":5.39866,"is_reserved":false,"is_disabled":false,"rental_uris":{"android":"levelo://app?vid=f8b882b3-d0bb-4d92-a34f-27c69ff03976","ios":"levelo://app?vid=f8b882b3-d0bb-4d92-a34f-27c69ff03976"},"vehicle_type_id":"4","last_reported":1731946309,"current_range_meters":24400,"station_id":"ce4bh0h2rcd13ifvqd40","pricing_plan_id":"cebpf4jnsgd1na2vs0mg"},{"bike_id":"54a67cd5-26ed-4875-b43e-821358943f2f","system_id":"levelo_inurba_marseille","lat":43.31233,"lon":5.36864,"is_reserved":false,"is_disabled":false,"rental_uris":{"android":"levelo://app?vid=54a67cd5-26ed-4875-b43e-821358943f2f","ios":"levelo://app?vid=54a67cd5-26ed-4875-b43e-821358943f2f"},"vehicle_type_id":"4","last_reported":1731946309,"current_range_meters":30800,"station_id":"ce4bgl92rcd13ifvqbq0","pricing_plan_id":"cebpf4jnsgd1na2vs0mg"},{"bike_id":"3edbf4db-accc-4b0d-aeaa-59b4b8f30e74","system_id":"levelo_inurba_marseille","lat":43.31115,"lon":5.37764,"is_reserved":false,"is_disabled":false,"rental_uris":{"android":"levelo://app?vid=3edbf4db-accc-4b0d-aeaa-59b4b8f30e74","ios":"levelo://app?vid=3edbf4db-accc-4b0d-aeaa-59b4b8f30e74"},"vehicle_type_id":"4","last_reported":1731946309,"current_range_meters":35200,"station_id":"ce4bgt92rcd13ifvqcg0","pricing_plan_id":"cebpf4jnsgd1na2vs0mg"},{"bike_id":"db73229d-fc72-4442-a83a-55f41c9e3fac","system_id":"levelo_inurba_marseille","lat":43.29631,"lon":5.40605,"is_reserved":false,"is_disabled":false,"rental_uris":{"android":"levelo://app?vid=db73229d-fc72-4442-a83a-55f41c9e3fac","ios":"levelo://app?vid=db73229d-fc72-4442-a83a-55f41c9e3fac"},"vehicle_type_id":"4","last_reported":1731946309,"current_range_meters":38400,"station_id":"ce4bh0h2rcd13ifvqd60","pricing_plan_id":"cebpf4jnsgd1na2vs0mg"},{"bike_id":"d64617a1-f87f-49d0-a310-e66762f2b02b","system_id":"levelo_inurba_marseille","lat":43.24182,"lon":5.39724,"is_reserved":false,"is_disabled":false,"rental_uris":{"android":"levelo://app?vid=d64617a1-f87f-49d0-a310-e66762f2b02b","ios":"levelo://app?vid=d64617a1-f87f-49d0-a310-e66762f2b02b"},"vehicle_type_id":"4","last_reported":1731946309,"current_range_meters":27200,"station_id":"ce4bhn12rcd13ifvqgpg","pricing_plan_id":"cebpf4jnsgd1na2vs0mg"},{"bike_id":"628384db-a629-44bc-856e-9d5ee504cce9","system_id":"levelo_inurba_marseille","lat":43.24997,"lon":5.38932,"is_reserved":false,"is_disabled":true,"rental_uris":{"android":"levelo://app?vid=628384db-a629-44bc-856e-9d5ee504cce9","ios":"levelo://app?vid=628384db-a629-44bc-856e-9d5ee504cce9"},"vehicle_type_id":"4","last_reported":1731946309,"current_range_meters":38800,"station_id":"ce4bhgp2rcd13ifvqfd0","pricing_plan_id":"cebpf4jnsgd1na2vs0mg"},{"bike_id":"32d3970d-638b-468c-bd9b-a9f4a13c87a3","system_id":"levelo_inurba_marseille","lat":43.29257,"lon":5.40914,"is_reserved":false,"is_disabled":false,"rental_uris":{"android":"levelo://app?vid=32d3970d-638b-468c-bd9b-a9f4a13c87a3","ios":"levelo://app?vid=32d3970d-638b-468c-bd9b-a9f4a13c87a3"},"vehicle_type_id":"4","last_reported":1731946309,"current_range_meters":28000,"station_id":"ce4bh192rcd13ifvqdc0","pricing_plan_id":"cebpf4jnsgd1na2vs0mg"},{"bike_id":"3f32c9d6-8aed-4b6d-92f4-88b3106e6e04","system_id":"levelo_inurba_marseille","lat":43.25861,"lon":5.39901,"is_reserved":false,"is_disabled":true,"rental_uris":{"android":"levelo://app?vid=3f32c9d6-8aed-4b6d-92f4-88b3106e6e04","ios":"levelo://app?vid=3f32c9d6-8aed-4b6d-92f4-88b3106e6e04"},"vehicle_type_id":"4","last_reported":1731946309,"current_range_meters":12800,"station_id":"ce4bhl92rcd13ifvqghg","pricing_plan_id":"cebpf4jnsgd1na2vs0mg"},{"bike_id":"59282a02-6b4b-4617-b658-ff49c6291b10","system_id":"levelo_inurba_marseille","lat":43.28457,"lon":5.35886,"is_reserved":false,"is_disabled":false,"rental_uris":{"android":"levelo://app?vid=59282a02-6b4b-4617-b658-ff49c6291b10","ios":"levelo://app?vid=59282a02-6b4b-4617-b658-ff49c6291b10"},"vehicle_type_id":"4","last_reported":1731946309,"current_range_meters":16000,"station_id":"ce4bhah2rcd13ifvqei0","pricing_plan_id":"cebpf4jnsgd1na2vs0mg"},{"bike_id":"71b4cea3-fb0c-4824-b724-67cf61323e4c","system_id":"levelo_inurba_marseille","lat":43.30529,"lon":5.36541,"is_reserved":false,"is_disabled":false,"rental_uris":{"android":"levelo://app?vid=71b4cea3-fb0c-4824-b724-67cf61323e4c","ios":"levelo://app?vid=71b4cea3-fb0c-4824-b724-67cf61323e4c"},"vehicle_type_id":"4","last_reported":1731946309,"current_range_meters":38400,"station_id":"ce4bgs12rcd13ifvqcag","pricing_plan_id":"cebpf4jnsgd1na2vs0mg"},{"bike_id":"48955b97-0b57-47ed-9253-f1b59c3a4456","system_id":"levelo_inurba_marseille","lat":43.28944,"lon":5.38392,"is_reserved":false,"is_disabled":false,"rental_uris":{"android":"levelo://app?vid=48955b97-0b57-47ed-9253-f1b59c3a4456","ios":"levelo://app?vid=48955b97-0b57-47ed-9253-f1b59c3a4456"},"vehicle_type_id":"4","last_reported":1731946309,"current_range_meters":38800,"station_id":"ce4bh612rcd13ifvqe6g","pricing_plan_id":"cebpf4jnsgd1na2vs0mg"},{"bike_id":"bec12e29-1589-4be2-adcb-48da2dc577d6","system_id":"levelo_inurba_marseille","lat":43.30779,"lon":5.37662,"is_reserved":false,"is_disabled":false,"rental_uris":{"android":"levelo://app?vid=bec12e29-1589-4be2-adcb-48da2dc577d6","ios":"levelo://app?vid=bec12e29-1589-4be2-adcb-48da2dc577d6"},"vehicle_type_id":"4","last_reported":1731946309,"current_range_meters":38400,"station_id":"ce4bgv92rcd13ifvqcq0","pricing_plan_id":"cebpf4jnsgd1na2vs0mg"},{"bike_id":"4da9c253-6e81-45dd-a2b7-ca7b59046c34","system_id":"levelo_inurba_marseille","lat":43.29303,"lon":5.37446,"is_reserved":false,"is_disabled":false,"rental_uris":{"android":"levelo://app?vid=4da9c253-6e81-45dd-a2b7-ca7b59046c34","ios":"levelo://app?vid=4da9c253-6e81-45dd-a2b7-ca7b59046c34"},"vehicle_type_id":"4","last_reported":1731946309,"current_range_meters":36000,"station_id":"ce4bgi12rcd13ifvqb70","pricing_plan_id":"cebpf4jnsgd1na2vs0mg"},{"bike_id":"22ab4885-844a-4d66-83cb-c2e82f7ac31c","system_id":"levelo_inurba_marseille","lat":43.25086,"lon":5.39521,"is_reserved":false,"is_disabled":false,"rental_uris":{"android":"levelo://app?vid=22ab4885-844a-4d66-83cb-c2e82f7ac31c","ios":"levelo://app?vid=22ab4885-844a-4d66-83cb-c2e82f7ac31c"},"vehicle_type_id":"4","last_reported":1731946309,"current_range_meters":18000,"station_id":"ce4bhm12rcd13ifvqgkg","pricing_plan_id":"cebpf4jnsgd1na2vs0mg"},{"bike_id":"15b87b0f-f499-4405-8bf8-5911eac2cdec","system_id":"levelo_inurba_marseille","lat":43.29533,"lon":5.3855,"is_reserved":false,"is_disabled":false,"rental_uris":{"android":"levelo://app?vid=15b87b0f-f499-4405-8bf8-5911eac2cdec","ios":"levelo://app?vid=15b87b0f-f499-4405-8bf8-5911eac2cdec"},"vehicle_type_id":"4","last_reported":1731946309,"current_range_meters":38800,"station_id":"ce4bgih2rcd13ifvqba0","pricing_plan_id":"cebpf4jnsgd1na2vs0mg"},{"bike_id":"7c583978-2eae-4718-931f-8c30e30276a4","system_id":"levelo_inurba_marseille","lat":43.26801,"lon":5.40271,"is_reserved":false,"is_disabled":false,"rental_uris":{"android":"levelo://app?vid=7c583978-2eae-4718-931f-8c30e30276a4","ios":"levelo://app?vid=7c583978-2eae-4718-931f-8c30e30276a4"},"vehicle_type_id":"4","last_reported":1731946309,"current_range_meters":31200,"station_id":"ce501612rcd8frsf0b60","pricing_plan_id":"cebpf4jnsgd1na2vs0mg"},{"bike_id":"bd182e2a-df14-4310-a2a4-02d771135f2b","system_id":"levelo_inurba_marseille","lat":43.28277,"lon":5.35065,"is_reserved":false,"is_disabled":false,"rental_uris":{"android":"levelo://app?vid=bd182e2a-df14-4310-a2a4-02d771135f2b","ios":"levelo://app?vid=bd182e2a-df14-4310-a2a4-02d771135f2b"},"vehicle_type_id":"4","last_reported":1731946309,"current_range_meters":28000,"station_id":"ce4bhbp2rcd13ifvqerg","pricing_plan_id":"cebpf4jnsgd1na2vs0mg"},{"bike_id":"bb84e5be-c407-446a-a378-bba419b93f9e","system_id":"levelo_inurba_marseille","lat":43.29558,"lon":5.42287,"is_reserved":false,"is_disabled":false,"rental_uris":{"android":"levelo://app?vid=bb84e5be-c407-446a-a378-bba419b93f9e","ios":"levelo://app?vid=bb84e5be-c407-446a-a378-bba419b93f9e"},"vehicle_type_id":"4","last_reported":1731946309,"current_range_meters":37600,"station_id":"ce4bhph2rcd13ifvqhdg","pricing_plan_id":"cebpf4jnsgd1na2vs0mg"},{"bike_id":"fea7a1a9-d579-4c82-bd1c-9bdd823fa6c8","system_id":"levelo_inurba_marseille","lat":43.31492,"lon":5.373,"is_reserved":false,"is_disabled":false,"rental_uris":{"android":"levelo://app?vid=fea7a1a9-d579-4c82-bd1c-9bdd823fa6c8","ios":"levelo://app?vid=fea7a1a9-d579-4c82-bd1c-9bdd823fa6c8"},"vehicle_type_id":"4","last_reported":1731946309,"current_range_meters":31200,"station_id":"ce4bgt12rcd13ifvqcd0","pricing_plan_id":"cebpf4jnsgd1na2vs0mg"},{"bike_id":"0dfc423f-a909-475b-9ffc-cc97b742bbc2","system_id":"levelo_inurba_marseille","lat":43.27421,"lon":5.39438,"is_reserved":false,"is_disabled":false,"rental_uris":{"android":"levelo://app?vid=0dfc423f-a909-475b-9ffc-cc97b742bbc2","ios":"levelo://app?vid=0dfc423f-a909-475b-9ffc-cc97b742bbc2"},"vehicle_type_id":"4","last_reported":1731946309,"current_range_meters":9600,"station_id":"ce4bhdp2rcd13ifvqf20","pricing_plan_id":"cebpf4jnsgd1na2vs0mg"},{"bike_id":"4ff195aa-0e94-4780-a4e9-74e0f4125314","system_id":"levelo_inurba_marseille","lat":43.29789,"lon":5.3936,"is_reserved":false,"is_disabled":true,"rental_uris":{"android":"levelo://app?vid=4ff195aa-0e94-4780-a4e9-74e0f4125314","ios":"levelo://app?vid=4ff195aa-0e94-4780-a4e9-74e0f4125314"},"vehicle_type_id":"4","last_reported":1731946309,"current_range_meters":38800,"station_id":"chh1huq6cuj3fo74tm60","pricing_plan_id":"cebpf4jnsgd1na2vs0mg"},{"bike_id":"e40dc26b-1873-48f0-8897-452afb53af87","system_id":"levelo_inurba_marseille","lat":43.24653,"lon":5.38899,"is_reserved":false,"is_disabled":false,"rental_uris":{"android":"levelo://app?vid=e40dc26b-1873-48f0-8897-452afb53af87","ios":"levelo://app?vid=e40dc26b-1873-48f0-8897-452afb53af87"},"vehicle_type_id":"4","last_reported":1731946309,"current_range_meters":39200,"station_id":"ce4bhg12rcd13ifvqf60","pricing_plan_id":"cebpf4jnsgd1na2vs0mg"},{"bike_id":"84add0bd-cb10-4dcb-82e1-3da91d21fda0","system_id":"levelo_inurba_marseille","lat":43.29901,"lon":5.43679,"is_reserved":false,"is_disabled":false,"rental_uris":{"android":"levelo://app?vid=84add0bd-cb10-4dcb-82e1-3da91d21fda0","ios":"levelo://app?vid=84add0bd-cb10-4dcb-82e1-3da91d21fda0"},"vehicle_type_id":"4","last_reported":1731946309,"current_range_meters":6800,"station_id":"ce4bhpp2rcd13ifvqhfg","pricing_plan_id":"cebpf4jnsgd1na2vs0mg"},{"bike_id":"026b8c68-bd26-4b3a-92e6-b0fa8d046556","system_id":"levelo_inurba_marseille","lat":43.26573,"lon":5.39013,"is_reserved":false,"is_disabled":true,"rental_uris":{"android":"levelo://app?vid=026b8c68-bd26-4b3a-92e6-b0fa8d046556","ios":"levelo://app?vid=026b8c68-bd26-4b3a-92e6-b0fa8d046556"},"vehicle_type_id":"4","last_reported":1731946309,"current_range_meters":1200,"station_id":"ce4bhe12rcd13ifvqf30","pricing_plan_id":"cebpf4jnsgd1na2vs0mg"},{"bike_id":"154ab370-1855-41a4-8107-4b0260520ccd","system_id":"levelo_inurba_marseille","lat":43.29006,"lon":5.35611,"is_reserved":false,"is_disabled":false,"rental_uris":{"android":"levelo://app?vid=154ab370-1855-41a4-8107-4b0260520ccd","ios":"levelo://app?vid=154ab370-1855-41a4-8107-4b0260520ccd"},"vehicle_type_id":"4","last_reported":1731946309,"current_range_meters":38000,"station_id":"ce4bhb92rcd13ifvqen0","pricing_plan_id":"cebpf4jnsgd1na2vs0mg"},{"bike_id":"f2278039-220e-444b-957e-3956a14b8e80","system_id":"levelo_inurba_marseille","lat":43.26553,"lon":5.37287,"is_reserved":false,"is_disabled":false,"rental_uris":{"android":"levelo://app?vid=f2278039-220e-444b-957e-3956a14b8e80","ios":"levelo://app?vid=f2278039-220e-444b-957e-3956a14b8e80"},"vehicle_type_id":"4","last_reported":1731946309,"current_range_meters":6800,"station_id":"ce4bhg12rcd13ifvqf70","pricing_plan_id":"cebpf4jnsgd1na2vs0mg"},{"bike_id":"ca2bc7ea-a124-4ac1-aed8-310d2382e682","system_id":"levelo_inurba_marseille","lat":43.2903,"lon":5.38638,"is_reserved":false,"is_disabled":false,"rental_uris":{"android":"levelo://app?vid=ca2bc7ea-a124-4ac1-aed8-310d2382e682","ios":"levelo://app?vid=ca2bc7ea-a124-4ac1-aed8-310d2382e682"},"vehicle_type_id":"4","last_reported":1731946309,"current_range_meters":38800,"station_id":"ce4bh4p2rcd13ifvqe0g","pricing_plan_id":"cebpf4jnsgd1na2vs0mg"},{"bike_id":"85d84fc4-44e8-40ff-8559-64afa1b1721c","system_id":"levelo_inurba_marseille","lat":43.30952,"lon":5.39034,"is_reserved":false,"is_disabled":true,"rental_uris":{"android":"levelo://app?vid=85d84fc4-44e8-40ff-8559-64afa1b1721c","ios":"levelo://app?vid=85d84fc4-44e8-40ff-8559-64afa1b1721c"},"vehicle_type_id":"4","last_reported":1731946309,"current_range_meters":0,"station_id":"ce4bgup2rcd13ifvqco0","pricing_plan_id":"cebpf4jnsgd1na2vs0mg"},{"bike_id":"cde5eb04-35f5-4971-aec4-8004f9b2dcd9","system_id":"levelo_inurba_marseille","lat":43.28275,"lon":5.35072,"is_reserved":false,"is_disabled":true,"rental_uris":{"android":"levelo://app?vid=cde5eb04-35f5-4971-aec4-8004f9b2dcd9","ios":"levelo://app?vid=cde5eb04-35f5-4971-aec4-8004f9b2dcd9"},"vehicle_type_id":"4","last_reported":1731946309,"current_range_meters":36800,"station_id":"ce4bhbp2rcd13ifvqerg","pricing_plan_id":"cebpf4jnsgd1na2vs0mg"},{"bike_id":"6d739aa8-a061-4504-96f0-05087cb36e8b","system_id":"levelo_inurba_marseille","lat":43.31119,"lon":5.37782,"is_reserved":false,"is_disabled":false,"rental_uris":{"android":"levelo://app?vid=6d739aa8-a061-4504-96f0-05087cb36e8b","ios":"levelo://app?vid=6d739aa8-a061-4504-96f0-05087cb36e8b"},"vehicle_type_id":"4","last_reported":1731946309,"current_range_meters":32400,"station_id":"ce4bgt92rcd13ifvqcg0","pricing_plan_id":"cebpf4jnsgd1na2vs0mg"},{"bike_id":"9149b744-3ab9-4c51-83ea-c9bdd28789c0","system_id":"levelo_inurba_marseille","lat":43.29552,"lon":5.42297,"is_reserved":false,"is_disabled":true,"rental_uris":{"android":"levelo://app?vid=9149b744-3ab9-4c51-83ea-c9bdd28789c0","ios":"levelo://app?vid=9149b744-3ab9-4c51-83ea-c9bdd28789c0"},"vehicle_type_id":"4","last_reported":1731946309,"current_range_meters":0,"station_id":"ce4bhph2rcd13ifvqhdg","pricing_plan_id":"cebpf4jnsgd1na2vs0mg"},{"bike_id":"f11dd7eb-37d4-402c-b42c-0381ad453fd4","system_id":"levelo_inurba_marseille","lat":43.33783,"lon":5.37432,"is_reserved":false,"is_disabled":false,"rental_uris":{"android":"levelo://app?vid=f11dd7eb-37d4-402c-b42c-0381ad453fd4","ios":"levelo://app?vid=f11dd7eb-37d4-402c-b42c-0381ad453fd4"},"vehicle_type_id":"4","last_reported":1731946309,"current_range_meters":28400,"station_id":"","pricing_plan_id":"cebpf4jnsgd1na2vs0mg"},{"bike_id":"5facb990-bb40-4c9f-a4aa-1ed9dcedde66","system_id":"levelo_inurba_marseille","lat":43.33022,"lon":5.39037,"is_reserved":false,"is_disabled":false,"rental_uris":{"android":"levelo://app?vid=5facb990-bb40-4c9f-a4aa-1ed9dcedde66","ios":"levelo://app?vid=5facb990-bb40-4c9f-a4aa-1ed9dcedde66"},"vehicle_type_id":"4","last_reported":1731946309,"current_range_meters":24400,"station_id":"ce4bhr92rcd13ifvqhrg","pricing_plan_id":"cebpf4jnsgd1na2vs0mg"},{"bike_id":"1a9b2b7f-bafc-4bc5-bab2-74e5a12548ab","system_id":"levelo_inurba_marseille","lat":43.31417,"lon":5.38205,"is_reserved":false,"is_disabled":false,"rental_uris":{"android":"levelo://app?vid=1a9b2b7f-bafc-4bc5-bab2-74e5a12548ab","ios":"levelo://app?vid=1a9b2b7f-bafc-4bc5-bab2-74e5a12548ab"},"vehicle_type_id":"4","last_reported":1731946309,"current_range_meters":38800,"station_id":"","pricing_plan_id":"cebpf4jnsgd1na2vs0mg"},{"bike_id":"0e2bbe61-8f31-47ba-b582-6a82d0b052e0","system_id":"levelo_inurba_marseille","lat":43.29039,"lon":5.38356,"is_reserved":false,"is_disabled":false,"rental_uris":{"android":"levelo://app?vid=0e2bbe61-8f31-47ba-b582-6a82d0b052e0","ios":"levelo://app?vid=0e2bbe61-8f31-47ba-b582-6a82d0b052e0"},"vehicle_type_id":"4","last_reported":1731946309,"current_range_meters":33600,"station_id":"ce4bgip2rcd13ifvqbb0","pricing_plan_id":"cebpf4jnsgd1na2vs0mg"},{"bike_id":"bff402ee-970d-46d4-8d25-a5216fd3bac3","system_id":"levelo_inurba_marseille","lat":43.25009,"lon":5.38914,"is_reserved":false,"is_disabled":true,"rental_uris":{"android":"levelo://app?vid=bff402ee-970d-46d4-8d25-a5216fd3bac3","ios":"levelo://app?vid=bff402ee-970d-46d4-8d25-a5216fd3bac3"},"vehicle_type_id":"4","last_reported":1731946309,"current_range_meters":8400,"station_id":"ce4bhgp2rcd13ifvqfd0","pricing_plan_id":"cebpf4jnsgd1na2vs0mg"},{"bike_id":"c3bc0f64-f384-48a7-9517-04f95522a7e3","system_id":"levelo_inurba_marseille","lat":43.318242,"lon":5.37611,"is_reserved":false,"is_disabled":false,"rental_uris":{"android":"levelo://app?vid=c3bc0f64-f384-48a7-9517-04f95522a7e3","ios":"levelo://app?vid=c3bc0f64-f384-48a7-9517-04f95522a7e3"},"vehicle_type_id":"4","last_reported":1731946309,"current_range_meters":19200,"station_id":"","pricing_plan_id":"cebpf4jnsgd1na2vs0mg"},{"bike_id":"c3adda95-8823-44a7-ab6f-ce72306eabe1","system_id":"levelo_inurba_marseille","lat":43.27423,"lon":5.39413,"is_reserved":false,"is_disabled":true,"rental_uris":{"android":"levelo://app?vid=c3adda95-8823-44a7-ab6f-ce72306eabe1","ios":"levelo://app?vid=c3adda95-8823-44a7-ab6f-ce72306eabe1"},"vehicle_type_id":"4","last_reported":1731946309,"current_range_meters":38800,"station_id":"ce4bhdp2rcd13ifvqf20","pricing_plan_id":"cebpf4jnsgd1na2vs0mg"},{"bike_id":"0a2e4fb8-7c8d-4eb2-b6fb-af8c2b7f3d40","system_id":"levelo_inurba_marseille","lat":43.31443,"lon":5.37056,"is_reserved":false,"is_disabled":false,"rental_uris":{"android":"levelo://app?vid=0a2e4fb8-7c8d-4eb2-b6fb-af8c2b7f3d40","ios":"levelo://app?vid=0a2e4fb8-7c8d-4eb2-b6fb-af8c2b7f3d40"},"vehicle_type_id":"4","last_reported":1731946309,"current_range_meters":27600,"station_id":"","pricing_plan_id":"cebpf4jnsgd1na2vs0mg"},{"bike_id":"8a4dd740-eed4-4cba-ab9f-bf5d59764355","system_id":"levelo_inurba_marseille","lat":43.24574,"lon":5.39503,"is_reserved":false,"is_disabled":false,"rental_uris":{"android":"levelo://app?vid=8a4dd740-eed4-4cba-ab9f-bf5d59764355","ios":"levelo://app?vid=8a4dd740-eed4-4cba-ab9f-bf5d59764355"},"vehicle_type_id":"4","last_reported":1731946309,"current_range_meters":16000,"station_id":"ce4bhlp2rcd13ifvqgjg","pricing_plan_id":"cebpf4jnsgd1na2vs0mg"},{"bike_id":"796ab6dd-02c2-4bc6-93d9-4ded74a14f26","system_id":"levelo_inurba_marseille","lat":43.27678,"lon":5.38892,"is_reserved":false,"is_disabled":false,"rental_uris":{"android":"levelo://app?vid=796ab6dd-02c2-4bc6-93d9-4ded74a14f26","ios":"levelo://app?vid=796ab6dd-02c2-4bc6-93d9-4ded74a14f26"},"vehicle_type_id":"4","last_reported":1731946309,"current_range_meters":36800,"station_id":"ce4bhi12rcd13ifvqfo0","pricing_plan_id":"cebpf4jnsgd1na2vs0mg"},{"bike_id":"6b195ebb-3503-44a9-9e9e-3b7cad4e97e8","system_id":"levelo_inurba_marseille","lat":43.28694,"lon":5.37398,"is_reserved":false,"is_disabled":false,"rental_uris":{"android":"levelo://app?vid=6b195ebb-3503-44a9-9e9e-3b7cad4e97e8","ios":"levelo://app?vid=6b195ebb-3503-44a9-9e9e-3b7cad4e97e8"},"vehicle_type_id":"4","last_reported":1731946309,"current_range_meters":10000,"station_id":"ce4bh3p2rcd13ifvqdq0","pricing_plan_id":"cebpf4jnsgd1na2vs0mg"},{"bike_id":"ebcc897b-f136-4a63-9697-be9f32dd49b3","system_id":"levelo_inurba_marseille","lat":43.30121,"lon":5.3879,"is_reserved":false,"is_disabled":false,"rental_uris":{"android":"levelo://app?vid=ebcc897b-f136-4a63-9697-be9f32dd49b3","ios":"levelo://app?vid=ebcc897b-f136-4a63-9697-be9f32dd49b3"},"vehicle_type_id":"4","last_reported":1731946309,"current_range_meters":32400,"station_id":"ce4bghh2rcd13ifvqb60","pricing_plan_id":"cebpf4jnsgd1na2vs0mg"},{"bike_id":"95a90de2-6a0e-4861-b995-61edb68a471e","system_id":"levelo_inurba_marseille","lat":43.31169,"lon":5.38727,"is_reserved":false,"is_disabled":false,"rental_uris":{"android":"levelo://app?vid=95a90de2-6a0e-4861-b995-61edb68a471e","ios":"levelo://app?vid=95a90de2-6a0e-4861-b995-61edb68a471e"},"vehicle_type_id":"4","last_reported":1731946309,"current_range_meters":27200,"station_id":"ce4bgv12rcd13ifvqcp0","pricing_plan_id":"cebpf4jnsgd1na2vs0mg"},{"bike_id":"638f8d00-ceb3-4062-9f5f-ca647d7df496","system_id":"levelo_inurba_marseille","lat":43.27422,"lon":5.39413,"is_reserved":false,"is_disabled":true,"rental_uris":{"android":"levelo://app?vid=638f8d00-ceb3-4062-9f5f-ca647d7df496","ios":"levelo://app?vid=638f8d00-ceb3-4062-9f5f-ca647d7df496"},"vehicle_type_id":"4","last_reported":1731946309,"current_range_meters":32400,"station_id":"ce4bhdp2rcd13ifvqf20","pricing_plan_id":"cebpf4jnsgd1na2vs0mg"},{"bike_id":"1e42ec7c-f2d7-4887-aa3d-e07910ef0df7","system_id":"levelo_inurba_marseille","lat":43.2417,"lon":5.36401,"is_reserved":false,"is_disabled":false,"rental_uris":{"android":"levelo://app?vid=1e42ec7c-f2d7-4887-aa3d-e07910ef0df7","ios":"levelo://app?vid=1e42ec7c-f2d7-4887-aa3d-e07910ef0df7"},"vehicle_type_id":"4","last_reported":1731946309,"current_range_meters":17600,"station_id":"cpo36qri1sfpv3e86is0","pricing_plan_id":"cebpf4jnsgd1na2vs0mg"},{"bike_id":"4a4eab77-725b-412c-9743-c096390a45fd","system_id":"levelo_inurba_marseille","lat":43.28033,"lon":5.36964,"is_reserved":false,"is_disabled":false,"rental_uris":{"android":"levelo://app?vid=4a4eab77-725b-412c-9743-c096390a45fd","ios":"levelo://app?vid=4a4eab77-725b-412c-9743-c096390a45fd"},"vehicle_type_id":"4","last_reported":1731946309,"current_range_meters":39200,"station_id":"ce4bha12rcd13ifvqef0","pricing_plan_id":"cebpf4jnsgd1na2vs0mg"},{"bike_id":"bb10a0d0-2c33-4c3c-8252-c35126e2259d","system_id":"levelo_inurba_marseille","lat":43.2649,"lon":5.39555,"is_reserved":false,"is_disabled":false,"rental_uris":{"android":"levelo://app?vid=bb10a0d0-2c33-4c3c-8252-c35126e2259d","ios":"levelo://app?vid=bb10a0d0-2c33-4c3c-8252-c35126e2259d"},"vehicle_type_id":"4","last_reported":1731946309,"current_range_meters":21600,"station_id":"ce4bhi12rcd13ifvqfq0","pricing_plan_id":"cebpf4jnsgd1na2vs0mg"},{"bike_id":"53d17918-cb4c-4fde-b258-af9aa36b3247","system_id":"levelo_inurba_marseille","lat":43.25864,"lon":5.39897,"is_reserved":false,"is_disabled":true,"rental_uris":{"android":"levelo://app?vid=53d17918-cb4c-4fde-b258-af9aa36b3247","ios":"levelo://app?vid=53d17918-cb4c-4fde-b258-af9aa36b3247"},"vehicle_type_id":"4","last_reported":1731946309,"current_range_meters":0,"station_id":"ce4bhl92rcd13ifvqghg","pricing_plan_id":"cebpf4jnsgd1na2vs0mg"},{"bike_id":"5b6bc891-12ea-456b-be38-303af3a6bc51","system_id":"levelo_inurba_marseille","lat":43.27993,"lon":5.40017,"is_reserved":false,"is_disabled":false,"rental_uris":{"android":"levelo://app?vid=5b6bc891-12ea-456b-be38-303af3a6bc51","ios":"levelo://app?vid=5b6bc891-12ea-456b-be38-303af3a6bc51"},"vehicle_type_id":"4","last_reported":1731946309,"current_range_meters":28800,"station_id":"ce4bho92rcd13ifvqh4g","pricing_plan_id":"cebpf4jnsgd1na2vs0mg"},{"bike_id":"3d25d818-80cf-415a-996a-afc2d01ce97b","system_id":"levelo_inurba_marseille","lat":43.27789,"lon":5.40736,"is_reserved":false,"is_disabled":false,"rental_uris":{"android":"levelo://app?vid=3d25d818-80cf-415a-996a-afc2d01ce97b","ios":"levelo://app?vid=3d25d818-80cf-415a-996a-afc2d01ce97b"},"vehicle_type_id":"4","last_reported":1731946309,"current_range_meters":21600,"station_id":"ce4bhnh2rcd13ifvqgtg","pricing_plan_id":"cebpf4jnsgd1na2vs0mg"},{"bike_id":"5fbaf450-90c7-416c-a9b6-8e3b3003c75c","system_id":"levelo_inurba_marseille","lat":43.32483,"lon":5.36574,"is_reserved":false,"is_disabled":false,"rental_uris":{"android":"levelo://app?vid=5fbaf450-90c7-416c-a9b6-8e3b3003c75c","ios":"levelo://app?vid=5fbaf450-90c7-416c-a9b6-8e3b3003c75c"},"vehicle_type_id":"4","last_reported":1731946309,"current_range_meters":39200,"station_id":"ce4bhs12rcd13ifvqhvg","pricing_plan_id":"cebpf4jnsgd1na2vs0mg"},{"bike_id":"e67669bb-48cb-4bb2-a5c9-969046a0eb98","system_id":"levelo_inurba_marseille","lat":43.29199,"lon":5.39332,"is_reserved":false,"is_disabled":false,"rental_uris":{"android":"levelo://app?vid=e67669bb-48cb-4bb2-a5c9-969046a0eb98","ios":"levelo://app?vid=e67669bb-48cb-4bb2-a5c9-969046a0eb98"},"vehicle_type_id":"4","last_reported":1731946309,"current_range_meters":2800,"station_id":"ce4bh192rcd13ifvqdd0","pricing_plan_id":"cebpf4jnsgd1na2vs0mg"},{"bike_id":"8f9ff61b-d56a-4542-bf57-217372f154b2","system_id":"levelo_inurba_marseille","lat":43.31854,"lon":5.37472,"is_reserved":false,"is_disabled":false,"rental_uris":{"android":"levelo://app?vid=8f9ff61b-d56a-4542-bf57-217372f154b2","ios":"levelo://app?vid=8f9ff61b-d56a-4542-bf57-217372f154b2"},"vehicle_type_id":"4","last_reported":1731946309,"current_range_meters":24800,"station_id":"","pricing_plan_id":"cebpf4jnsgd1na2vs0mg"},{"bike_id":"8827a74a-7eea-4b2c-9600-9d1036d8dae9","system_id":"levelo_inurba_marseille","lat":43.28267,"lon":5.35068,"is_reserved":false,"is_disabled":false,"rental_uris":{"android":"levelo://app?vid=8827a74a-7eea-4b2c-9600-9d1036d8dae9","ios":"levelo://app?vid=8827a74a-7eea-4b2c-9600-9d1036d8dae9"},"vehicle_type_id":"4","last_reported":1731946309,"current_range_meters":38000,"station_id":"ce4bhbp2rcd13ifvqerg","pricing_plan_id":"cebpf4jnsgd1na2vs0mg"},{"bike_id":"359b84e4-c783-484d-99af-8ca83e0ab34d","system_id":"levelo_inurba_marseille","lat":43.28615,"lon":5.35107,"is_reserved":false,"is_disabled":false,"rental_uris":{"android":"levelo://app?vid=359b84e4-c783-484d-99af-8ca83e0ab34d","ios":"levelo://app?vid=359b84e4-c783-484d-99af-8ca83e0ab34d"},"vehicle_type_id":"4","last_reported":1731946309,"current_range_meters":36400,"station_id":"ce4bhch2rcd13ifvqeug","pricing_plan_id":"cebpf4jnsgd1na2vs0mg"},{"bike_id":"0823ce1e-3a8d-4721-be3f-8a0bc45c837b","system_id":"levelo_inurba_marseille","lat":43.26191,"lon":5.3745,"is_reserved":false,"is_disabled":false,"rental_uris":{"android":"levelo://app?vid=0823ce1e-3a8d-4721-be3f-8a0bc45c837b","ios":"levelo://app?vid=0823ce1e-3a8d-4721-be3f-8a0bc45c837b"},"vehicle_type_id":"4","last_reported":1731946309,"current_range_meters":35600,"station_id":"ce4bhgp2rcd13ifvqfc0","pricing_plan_id":"cebpf4jnsgd1na2vs0mg"},{"bike_id":"0837b417-6298-4a4d-997f-bd298ccdaa0e","system_id":"levelo_inurba_marseille","lat":43.32663,"lon":5.40986,"is_reserved":false,"is_disabled":true,"rental_uris":{"android":"levelo://app?vid=0837b417-6298-4a4d-997f-bd298ccdaa0e","ios":"levelo://app?vid=0837b417-6298-4a4d-997f-bd298ccdaa0e"},"vehicle_type_id":"4","last_reported":1731946309,"current_range_meters":34000,"station_id":"ce4bhpp2rcd13ifvqhgg","pricing_plan_id":"cebpf4jnsgd1na2vs0mg"},{"bike_id":"1f7e3c58-5ede-43a9-8f8c-3dd90765cb5c","system_id":"levelo_inurba_marseille","lat":43.32483,"lon":5.36573,"is_reserved":false,"is_disabled":false,"rental_uris":{"android":"levelo://app?vid=1f7e3c58-5ede-43a9-8f8c-3dd90765cb5c","ios":"levelo://app?vid=1f7e3c58-5ede-43a9-8f8c-3dd90765cb5c"},"vehicle_type_id":"4","last_reported":1731946309,"current_range_meters":13600,"station_id":"ce4bhs12rcd13ifvqhvg","pricing_plan_id":"cebpf4jnsgd1na2vs0mg"},{"bike_id":"27e0be6f-ac1c-414f-8683-dd7248743189","system_id":"levelo_inurba_marseille","lat":43.29616,"lon":5.3773,"is_reserved":false,"is_disabled":false,"rental_uris":{"android":"levelo://app?vid=27e0be6f-ac1c-414f-8683-dd7248743189","ios":"levelo://app?vid=27e0be6f-ac1c-414f-8683-dd7248743189"},"vehicle_type_id":"4","last_reported":1731946309,"current_range_meters":39200,"station_id":"ce4bgi92rcd13ifvqb90","pricing_plan_id":"cebpf4jnsgd1na2vs0mg"},{"bike_id":"99be08e2-04a4-42ff-838b-ac517423d6a1","system_id":"levelo_inurba_marseille","lat":43.28343,"lon":5.38105,"is_reserved":false,"is_disabled":false,"rental_uris":{"android":"levelo://app?vid=99be08e2-04a4-42ff-838b-ac517423d6a1","ios":"levelo://app?vid=99be08e2-04a4-42ff-838b-ac517423d6a1"},"vehicle_type_id":"4","last_reported":1731946309,"current_range_meters":8000,"station_id":"ce4bh412rcd13ifvqdr0","pricing_plan_id":"cebpf4jnsgd1na2vs0mg"},{"bike_id":"121f8c61-7b63-45b5-9f2b-ef4e82809c10","system_id":"levelo_inurba_marseille","lat":43.337444,"lon":5.374475,"is_reserved":false,"is_disabled":false,"rental_uris":{"android":"levelo://app?vid=121f8c61-7b63-45b5-9f2b-ef4e82809c10","ios":"levelo://app?vid=121f8c61-7b63-45b5-9f2b-ef4e82809c10"},"vehicle_type_id":"4","last_reported":1731946309,"current_range_meters":29600,"station_id":"","pricing_plan_id":"cebpf4jnsgd1na2vs0mg"},{"bike_id":"8715cdca-3db4-4e44-92de-dd5cde90105e","system_id":"levelo_inurba_marseille","lat":43.27944,"lon":5.4105,"is_reserved":false,"is_disabled":false,"rental_uris":{"android":"levelo://app?vid=8715cdca-3db4-4e44-92de-dd5cde90105e","ios":"levelo://app?vid=8715cdca-3db4-4e44-92de-dd5cde90105e"},"vehicle_type_id":"4","last_reported":1731946309,"current_range_meters":10800,"station_id":"ce4bhnp2rcd13ifvqh0g","pricing_plan_id":"cebpf4jnsgd1na2vs0mg"},{"bike_id":"f0c87ac2-2691-4671-b12c-33b8f283661a","system_id":"levelo_inurba_marseille","lat":43.29618,"lon":5.37168,"is_reserved":false,"is_disabled":false,"rental_uris":{"android":"levelo://app?vid=f0c87ac2-2691-4671-b12c-33b8f283661a","ios":"levelo://app?vid=f0c87ac2-2691-4671-b12c-33b8f283661a"},"vehicle_type_id":"4","last_reported":1731946309,"current_range_meters":38800,"station_id":"ce4bgnh2rcd13ifvqc0g","pricing_plan_id":"cebpf4jnsgd1na2vs0mg"},{"bike_id":"e03a06b6-df6d-487f-8834-4cdb03f56f47","system_id":"levelo_inurba_marseille","lat":43.28112,"lon":5.44089,"is_reserved":false,"is_disabled":true,"rental_uris":{"android":"levelo://app?vid=e03a06b6-df6d-487f-8834-4cdb03f56f47","ios":"levelo://app?vid=e03a06b6-df6d-487f-8834-4cdb03f56f47"},"vehicle_type_id":"4","last_reported":1731946309,"current_range_meters":0,"station_id":"","pricing_plan_id":"cebpf4jnsgd1na2vs0mg"},{"bike_id":"7df4371d-48f7-4328-9332-62560ca8a37e","system_id":"levelo_inurba_marseille","lat":43.27664,"lon":5.38882,"is_reserved":false,"is_disabled":true,"rental_uris":{"android":"levelo://app?vid=7df4371d-48f7-4328-9332-62560ca8a37e","ios":"levelo://app?vid=7df4371d-48f7-4328-9332-62560ca8a37e"},"vehicle_type_id":"4","last_reported":1731946309,"current_range_meters":800,"station_id":"ce4bhi12rcd13ifvqfo0","pricing_plan_id":"cebpf4jnsgd1na2vs0mg"},{"bike_id":"87a1679d-aa59-41b4-bd56-bc5165abd16a","system_id":"levelo_inurba_marseille","lat":43.27901,"lon":5.38006,"is_reserved":false,"is_disabled":true,"rental_uris":{"android":"levelo://app?vid=87a1679d-aa59-41b4-bd56-bc5165abd16a","ios":"levelo://app?vid=87a1679d-aa59-41b4-bd56-bc5165abd16a"},"vehicle_type_id":"4","last_reported":1731946309,"current_range_meters":0,"station_id":"","pricing_plan_id":"cebpf4jnsgd1na2vs0mg"},{"bike_id":"69e62ff3-12a2-4648-8b30-91c23039e1f9","system_id":"levelo_inurba_marseille","lat":43.27998,"lon":5.40007,"is_reserved":false,"is_disabled":false,"rental_uris":{"android":"levelo://app?vid=69e62ff3-12a2-4648-8b30-91c23039e1f9","ios":"levelo://app?vid=69e62ff3-12a2-4648-8b30-91c23039e1f9"},"vehicle_type_id":"4","last_reported":1731946309,"current_range_meters":17600,"station_id":"ce4bho92rcd13ifvqh4g","pricing_plan_id":"cebpf4jnsgd1na2vs0mg"},{"bike_id":"ff89c562-d68c-470a-a5e9-0c80ee86f95f","system_id":"levelo_inurba_marseille","lat":43.29371,"lon":5.37857,"is_reserved":false,"is_disabled":false,"rental_uris":{"android":"levelo://app?vid=ff89c562-d68c-470a-a5e9-0c80ee86f95f","ios":"levelo://app?vid=ff89c562-d68c-470a-a5e9-0c80ee86f95f"},"vehicle_type_id":"4","last_reported":1731946309,"current_range_meters":38400,"station_id":"ce4bgjh2rcd13ifvqbf0","pricing_plan_id":"cebpf4jnsgd1na2vs0mg"},{"bike_id":"3dcdd6a2-a267-4775-b1b7-956586464464","system_id":"levelo_inurba_marseille","lat":43.25855,"lon":5.39911,"is_reserved":false,"is_disabled":true,"rental_uris":{"android":"levelo://app?vid=3dcdd6a2-a267-4775-b1b7-956586464464","ios":"levelo://app?vid=3dcdd6a2-a267-4775-b1b7-956586464464"},"vehicle_type_id":"4","last_reported":1731946309,"current_range_meters":32400,"station_id":"ce4bhl92rcd13ifvqghg","pricing_plan_id":"cebpf4jnsgd1na2vs0mg"},{"bike_id":"be9ebb33-6ddc-465b-abdd-52cb66f3d554","system_id":"levelo_inurba_marseille","lat":43.24419,"lon":5.40325,"is_reserved":false,"is_disabled":true,"rental_uris":{"android":"levelo://app?vid=be9ebb33-6ddc-465b-abdd-52cb66f3d554","ios":"levelo://app?vid=be9ebb33-6ddc-465b-abdd-52cb66f3d554"},"vehicle_type_id":"4","last_reported":1731946309,"current_range_meters":800,"station_id":"","pricing_plan_id":"cebpf4jnsgd1na2vs0mg"},{"bike_id":"dbaff8d2-ba0b-4086-8abc-fd4ca9ec0c45","system_id":"levelo_inurba_marseille","lat":43.31359,"lon":5.36701,"is_reserved":false,"is_disabled":false,"rental_uris":{"android":"levelo://app?vid=dbaff8d2-ba0b-4086-8abc-fd4ca9ec0c45","ios":"levelo://app?vid=dbaff8d2-ba0b-4086-8abc-fd4ca9ec0c45"},"vehicle_type_id":"4","last_reported":1731946309,"current_range_meters":14400,"station_id":"ce4bgr92rcd13ifvqc6g","pricing_plan_id":"cebpf4jnsgd1na2vs0mg"},{"bike_id":"554e81b2-20d8-4607-b476-0014eeca1e11","system_id":"levelo_inurba_marseille","lat":43.3013,"lon":5.39877,"is_reserved":false,"is_disabled":false,"rental_uris":{"android":"levelo://app?vid=554e81b2-20d8-4607-b476-0014eeca1e11","ios":"levelo://app?vid=554e81b2-20d8-4607-b476-0014eeca1e11"},"vehicle_type_id":"4","last_reported":1731946309,"current_range_meters":16800,"station_id":"ce4bh0h2rcd13ifvqd40","pricing_plan_id":"cebpf4jnsgd1na2vs0mg"},{"bike_id":"6de9ddf5-0bdd-44b2-aef8-e14958f6c736","system_id":"levelo_inurba_marseille","lat":43.27177,"lon":5.40991,"is_reserved":false,"is_disabled":true,"rental_uris":{"android":"levelo://app?vid=6de9ddf5-0bdd-44b2-aef8-e14958f6c736","ios":"levelo://app?vid=6de9ddf5-0bdd-44b2-aef8-e14958f6c736"},"vehicle_type_id":"4","last_reported":1731946309,"current_range_meters":28400,"station_id":"ce4bhl12rcd13ifvqgf0","pricing_plan_id":"cebpf4jnsgd1na2vs0mg"},{"bike_id":"1feae83f-ad96-4e3f-9a90-500f4643de9d","system_id":"levelo_inurba_marseille","lat":43.29098,"lon":5.42649,"is_reserved":false,"is_disabled":true,"rental_uris":{"android":"levelo://app?vid=1feae83f-ad96-4e3f-9a90-500f4643de9d","ios":"levelo://app?vid=1feae83f-ad96-4e3f-9a90-500f4643de9d"},"vehicle_type_id":"4","last_reported":1731946309,"current_range_meters":0,"station_id":"","pricing_plan_id":"cebpf4jnsgd1na2vs0mg"},{"bike_id":"9d29afb3-94e8-4208-8de4-a2777919a11c","system_id":"levelo_inurba_marseille","lat":43.30325,"lon":5.40433,"is_reserved":false,"is_disabled":false,"rental_uris":{"android":"levelo://app?vid=9d29afb3-94e8-4208-8de4-a2777919a11c","ios":"levelo://app?vid=9d29afb3-94e8-4208-8de4-a2777919a11c"},"vehicle_type_id":"4","last_reported":1731946309,"current_range_meters":28800,"station_id":"ce4bh012rcd13ifvqd10","pricing_plan_id":"cebpf4jnsgd1na2vs0mg"},{"bike_id":"46dd619f-53a3-418a-91b1-06832f4bfa6b","system_id":"levelo_inurba_marseille","lat":43.3172,"lon":5.4241,"is_reserved":false,"is_disabled":false,"rental_uris":{"android":"levelo://app?vid=46dd619f-53a3-418a-91b1-06832f4bfa6b","ios":"levelo://app?vid=46dd619f-53a3-418a-91b1-06832f4bfa6b"},"vehicle_type_id":"4","last_reported":1731946309,"current_range_meters":38800,"station_id":"ce4bhp92rcd13ifvqhbg","pricing_plan_id":"cebpf4jnsgd1na2vs0mg"},{"bike_id":"2dcf94a9-5169-4c90-ba5a-aeff614a9642","system_id":"levelo_inurba_marseille","lat":43.28155,"lon":5.42645,"is_reserved":false,"is_disabled":false,"rental_uris":{"android":"levelo://app?vid=2dcf94a9-5169-4c90-ba5a-aeff614a9642","ios":"levelo://app?vid=2dcf94a9-5169-4c90-ba5a-aeff614a9642"},"vehicle_type_id":"4","last_reported":1731946309,"current_range_meters":22800,"station_id":"ce4bhnh2rcd13ifvqgug","pricing_plan_id":"cebpf4jnsgd1na2vs0mg"},{"bike_id":"e8e9d054-b450-4642-898e-b7caf7e235cb","system_id":"levelo_inurba_marseille","lat":43.29879,"lon":5.38124,"is_reserved":false,"is_disabled":false,"rental_uris":{"android":"levelo://app?vid=e8e9d054-b450-4642-898e-b7caf7e235cb","ios":"levelo://app?vid=e8e9d054-b450-4642-898e-b7caf7e235cb"},"vehicle_type_id":"4","last_reported":1731946309,"current_range_meters":30000,"station_id":"ce4bgj12rcd13ifvqbc0","pricing_plan_id":"cebpf4jnsgd1na2vs0mg"},{"bike_id":"a9c54843-4809-4a01-ae6d-0d882aa0a275","system_id":"levelo_inurba_marseille","lat":43.27994,"lon":5.40019,"is_reserved":false,"is_disabled":false,"rental_uris":{"android":"levelo://app?vid=a9c54843-4809-4a01-ae6d-0d882aa0a275","ios":"levelo://app?vid=a9c54843-4809-4a01-ae6d-0d882aa0a275"},"vehicle_type_id":"4","last_reported":1731946309,"current_range_meters":23200,"station_id":"ce4bho92rcd13ifvqh4g","pricing_plan_id":"cebpf4jnsgd1na2vs0mg"},{"bike_id":"905b3029-3887-4025-8568-a9d07618d038","system_id":"levelo_inurba_marseille","lat":43.2718,"lon":5.41005,"is_reserved":false,"is_disabled":false,"rental_uris":{"android":"levelo://app?vid=905b3029-3887-4025-8568-a9d07618d038","ios":"levelo://app?vid=905b3029-3887-4025-8568-a9d07618d038"},"vehicle_type_id":"4","last_reported":1731946309,"current_range_meters":38800,"station_id":"ce4bhl12rcd13ifvqgf0","pricing_plan_id":"cebpf4jnsgd1na2vs0mg"},{"bike_id":"09d0c9a4-1c9a-4ec8-b255-eb2867edcba4","system_id":"levelo_inurba_marseille","lat":43.280824,"lon":5.396689,"is_reserved":false,"is_disabled":true,"rental_uris":{"android":"levelo://app?vid=09d0c9a4-1c9a-4ec8-b255-eb2867edcba4","ios":"levelo://app?vid=09d0c9a4-1c9a-4ec8-b255-eb2867edcba4"},"vehicle_type_id":"4","last_reported":1731946309,"current_range_meters":24400,"station_id":"ce4bho12rcd13ifvqh2g","pricing_plan_id":"cebpf4jnsgd1na2vs0mg"},{"bike_id":"3bda8b8b-8651-41e8-8372-99815d9ffbb0","system_id":"levelo_inurba_marseille","lat":43.32335,"lon":5.4062,"is_reserved":false,"is_disabled":false,"rental_uris":{"android":"levelo://app?vid=3bda8b8b-8651-41e8-8372-99815d9ffbb0","ios":"levelo://app?vid=3bda8b8b-8651-41e8-8372-99815d9ffbb0"},"vehicle_type_id":"4","last_reported":1731946309,"current_range_meters":25200,"station_id":"ce4bhq92rcd13ifvqhjg","pricing_plan_id":"cebpf4jnsgd1na2vs0mg"},{"bike_id":"1453fdae-ebe7-4e68-a828-fc537931e82c","system_id":"levelo_inurba_marseille","lat":43.24171,"lon":5.36402,"is_reserved":false,"is_disabled":false,"rental_uris":{"android":"levelo://app?vid=1453fdae-ebe7-4e68-a828-fc537931e82c","ios":"levelo://app?vid=1453fdae-ebe7-4e68-a828-fc537931e82c"},"vehicle_type_id":"4","last_reported":1731946309,"current_range_meters":12000,"station_id":"cpo36qri1sfpv3e86is0","pricing_plan_id":"cebpf4jnsgd1na2vs0mg"},{"bike_id":"5f0ff2c4-06fa-4fca-8c33-df3add0c7d83","system_id":"levelo_inurba_marseille","lat":43.23192,"lon":5.35557,"is_reserved":false,"is_disabled":false,"rental_uris":{"android":"levelo://app?vid=5f0ff2c4-06fa-4fca-8c33-df3add0c7d83","ios":"levelo://app?vid=5f0ff2c4-06fa-4fca-8c33-df3add0c7d83"},"vehicle_type_id":"4","last_reported":1731946309,"current_range_meters":34800,"station_id":"ce4bhu92rcd13ifvqi70","pricing_plan_id":"cebpf4jnsgd1na2vs0mg"},{"bike_id":"8fa2381b-af56-40b3-9ae7-43720966ee84","system_id":"levelo_inurba_marseille","lat":43.28121,"lon":5.439697,"is_reserved":false,"is_disabled":false,"rental_uris":{"android":"levelo://app?vid=8fa2381b-af56-40b3-9ae7-43720966ee84","ios":"levelo://app?vid=8fa2381b-af56-40b3-9ae7-43720966ee84"},"vehicle_type_id":"4","last_reported":1731946309,"current_range_meters":22400,"station_id":"","pricing_plan_id":"cebpf4jnsgd1na2vs0mg"},{"bike_id":"09b42800-ae2d-4156-808d-67913caa898b","system_id":"levelo_inurba_marseille","lat":43.30604,"lon":5.37221,"is_reserved":false,"is_disabled":false,"rental_uris":{"android":"levelo://app?vid=09b42800-ae2d-4156-808d-67913caa898b","ios":"levelo://app?vid=09b42800-ae2d-4156-808d-67913caa898b"},"vehicle_type_id":"4","last_reported":1731946309,"current_range_meters":12800,"station_id":"ce4bgqh2rcd13ifvqc4g","pricing_plan_id":"cebpf4jnsgd1na2vs0mg"},{"bike_id":"b8c7f097-b381-4986-9b60-4d20627ebf9a","system_id":"levelo_inurba_marseille","lat":43.29418,"lon":5.38631,"is_reserved":false,"is_disabled":false,"rental_uris":{"android":"levelo://app?vid=b8c7f097-b381-4986-9b60-4d20627ebf9a","ios":"levelo://app?vid=b8c7f097-b381-4986-9b60-4d20627ebf9a"},"vehicle_type_id":"4","last_reported":1731946309,"current_range_meters":36000,"station_id":"ce4bh2h2rcd13ifvqdh0","pricing_plan_id":"cebpf4jnsgd1na2vs0mg"},{"bike_id":"8350dcee-f2c0-4372-86e9-68c879d6e726","system_id":"levelo_inurba_marseille","lat":43.27949,"lon":5.4105,"is_reserved":false,"is_disabled":false,"rental_uris":{"android":"levelo://app?vid=8350dcee-f2c0-4372-86e9-68c879d6e726","ios":"levelo://app?vid=8350dcee-f2c0-4372-86e9-68c879d6e726"},"vehicle_type_id":"4","last_reported":1731946309,"current_range_meters":15200,"station_id":"ce4bhnp2rcd13ifvqh0g","pricing_plan_id":"cebpf4jnsgd1na2vs0mg"},{"bike_id":"46356cc9-baee-4172-8e55-192dbe36f710","system_id":"levelo_inurba_marseille","lat":43.29276,"lon":5.40114,"is_reserved":false,"is_disabled":false,"rental_uris":{"android":"levelo://app?vid=46356cc9-baee-4172-8e55-192dbe36f710","ios":"levelo://app?vid=46356cc9-baee-4172-8e55-192dbe36f710"},