{"last_updated":1767456738,"ttl":60,"version":"2.2","data":{"bikes":[{"bike_id":"aa4c0c3c-20a8-4dcd-8254-3a59efbed1dc","system_id":"levelo_inurba_marseille","lat":43.28415,"lon":5.38449,"is_reserved":false,"is_disabled":false,"rental_uris":{"android":"levelo://app?vid=aa4c0c3c-20a8-4dcd-8254-3a59efbed1dc","ios":"levelo://app?vid=aa4c0c3c-20a8-4dcd-8254-3a59efbed1dc"},"vehicle_type_id":"4","last_reported":1767456738,"current_range_meters":2800,"station_id":"","pricing_plan_id":"cebpf4jnsgd1na2vs0mg"},{"bike_id":"4e9b7826-9833-4a84-8916-93badf36f6d2","system_id":"levelo_inurba_marseille","lat":43.225351,"lon":5.348319,"is_reserved":false,"is_disabled":false,"rental_uris":{"android":"levelo://app?vid=4e9b7826-9833-4a84-8916-93badf36f6d2","ios":"levelo://app?vid=4e9b7826-9833-4a84-8916-93badf36f6d2"},"vehicle_type_id":"4","last_reported":1767456738,"current_range_meters":2800,"station_id":"","pricing_plan_id":"cebpf4jnsgd1na2vs0mg"},{"bike_id":"2d42aa17-c3b7-4399-a80f-3190c91cb12e","system_id":"levelo_inurba_marseille","lat":43.29817,"lon":5.44057,"is_reserved":false,"is_disabled":false,"rental_uris":{"android":"levelo://app?vid=2d42aa17-c3b7-4399-a80f-3190c91cb12e","ios":"levelo://app?vid=2d42aa17-c3b7-4399-a80f-3190c91cb12e"},"vehicle_type_id":"4","last_reported":1767456738,"current_range_meters":2800,"station_id":"st_d3jp68qikq2c7381ktn0","pricing_plan_id":"cebpf4jnsgd1na2vs0mg"},{"bike_id":"e385eb1b-cb1e-49e6-8e0d-4d906b7d149f","system_id":"levelo_inurba_marseille","lat":43.23957,"lon":5.36645,"is_reserved":false,"is_disabled":true,"rental_uris":{"android":"levelo://app?vid=e385eb1b-cb1e-49e6-8e0d-4d906b7d149f","ios":"levelo://app?vid=e385eb1b-cb1e-49e6-8e0d-4d906b7d149f"},"vehicle_type_id":"4","last_reported":1767456738,"current_range_meters":2800,"station_id":"ce4bhi12rcd13ifvqfp0","pricing_plan_id":"cebpf4jnsgd1na2vs0mg"},{"bike_id":"50a1ce80-e2ae-4637-b1b3-c5d653d75cd1","system_id":"levelo_inurba_marseille","lat":43.31889,"lon":5.39025,"is_reserved":false,"is_disabled":true,"rental_uris":{"android":"levelo://app?vid=50a1ce80-e2ae-4637-b1b3-c5d653d75cd1","ios":"levelo://app?vid=50a1ce80-e2ae-4637-b1b3-c5d653d75cd1"},"vehicle_type_id":"4","last_reported":1767456738,"current_range_meters":2800,"station_id":"","pricing_plan_id":"cebpf4jnsgd1na2vs0mg"},{"bike_id":"41ee273a-ea37-458d-9904-fa942d8d3355","system_id":"levelo_inurba_marseille","lat":43.29532,"lon":5.38539,"is_reserved":false,"is_disabled":false,"rental_uris":{"android":"levelo://app?vid=41ee273a-ea37-458d-9904-fa942d8d3355","ios":"levelo://app?vid=41ee273a-ea37-458d-9904-fa942d8d3355"},"vehicle_type_id":"4","last_reported":1767456738,"current_range_meters":2800,"station_id":"ce4bgih2rcd13ifvqba0","pricing_plan_id":"cebpf4jnsgd1na2vs0mg"},{"bike_id":"185e0c2e-84e6-4755-93a3-88817b0eaaae","system_id":"levelo_inurba_marseille","lat":43.23787,"lon":5.36621,"is_reserved":false,"is_disabled":false,"rental_uris":{"android":"levelo://app?vid=185e0c2e-84e6-4755-93a3-88817b0eaaae","ios":"levelo://app?vid=185e0c2e-84e6-4755-93a3-88817b0eaaae"},"vehicle_type_id":"4","last_reported":1767456738,"current_range_meters":2800,"station_id":"st_d3nk18o9ro0c73en2l3g","pricing_plan_id":"cebpf4jnsgd1na2vs0mg"},{"bike_id":"bfaad6e5-f911-4d86-852a-ebe818f35ee7","system_id":"levelo_inurba_marseille","lat":43.21759,"lon":5.34588,"is_reserved":false,"is_disabled":false,"rental_uris":{"android":"levelo://app?vid=bfaad6e5-f911-4d86-852a-ebe818f35ee7","ios":"levelo://app?vid=bfaad6e5-f911-4d86-852a-ebe818f35ee7"},"vehicle_type_id":"4","last_reported":1767456738,"current_range_meters":2800,"station_id":"st_cvj6r9ubvosntc0bgbag","pricing_plan_id":"cebpf4jnsgd1na2vs0mg"},{"bike_id":"4a92a9c2-b965-449a-ad6f-29719343a5f1","system_id":"levelo_inurba_marseille","lat":43.26222,"lon":5.37444,"is_reserved":false,"is_disabled":false,"rental_uris":{"android":"levelo://app?vid=4a92a9c2-b965-449a-ad6f-29719343a5f1","ios":"levelo://app?vid=4a92a9c2-b965-449a-ad6f-29719343a5f1"},"vehicle_type_id":"4","last_reported":1767456738,"current_range_meters":2800,"station_id":"ce4bhgp2rcd13ifvqfc0","pricing_plan_id":"cebpf4jnsgd1na2vs0mg"},{"bike_id":"8aaa8168-ff37-46d5-9fd2-4087a72ee2c2","system_id":"levelo_inurba_marseille","lat":43.24166,"lon":5.36391,"is_reserved":false,"is_disabled":false,"rental_uris":{"android":"levelo://app?vid=8aaa8168-ff37-46d5-9fd2-4087a72ee2c2","ios":"levelo://app?vid=8aaa8168-ff37-46d5-9fd2-4087a72ee2c2"},"vehicle_type_id":"4","last_reported":1767456738,"current_range_meters":2800,"station_id":"cpo36qri1sfpv3e86is0","pricing_plan_id":"cebpf4jnsgd1na2vs0mg"},{"bike_id":"e0decbbd-66f2-41ff-95bf-ae2a7b2f4e23","system_id":"levelo_inurba_marseille","lat":43.28628,"lon":5.42647,"is_reserved":false,"is_disabled":false,"rental_uris":{"android":"levelo://app?vid=e0decbbd-66f2-41ff-95bf-ae2a7b2f4e23","ios":"levelo://app?vid=e0decbbd-66f2-41ff-95bf-ae2a7b2f4e23"},"vehicle_type_id":"4","last_reported":1767456738,"current_range_meters":2800,"station_id":"","pricing_plan_id":"cebpf4jnsgd1na2vs0mg"},{"bike_id":"52586f3c-ad5f-4a4a-a857-4d898c856972","system_id":"levelo_inurba_marseille","lat":43.262089,"lon":5.374425,"is_reserved":false,"is_disabled":false,"rental_uris":{"android":"levelo://app?vid=52586f3c-ad5f-4a4a-a857-4d898c856972","ios":"levelo://app?vid=52586f3c-ad5f-4a4a-a857-4d898c856972"},"vehicle_type_id":"4","last_reported":1767456738,"current_range_meters":2800,"station_id":"ce4bhgp2rcd13ifvqfc0","pricing_plan_id":"cebpf4jnsgd1na2vs0mg"},{"bike_id":"ad04117d-b152-4ebe-9d0d-f71c42ab46e0","system_id":"levelo_inurba_marseille","lat":43.29568,"lon":5.37494,"is_reserved":false,"is_disabled":false,"rental_uris":{"android":"levelo://app?vid=ad04117d-b152-4ebe-9d0d-f71c42ab46e0","ios":"levelo://app?vid=ad04117d-b152-4ebe-9d0d-f71c42ab46e0"},"vehicle_type_id":"4","last_reported":1767456738,"current_range_meters":2800,"station_id":"ce4bgh92rcd13ifvqb50","pricing_plan_id":"cebpf4jnsgd1na2vs0mg"},{"bike_id":"a028f22a-7855-4b12-a426-9cb940dba865","system_id":"levelo_inurba_marseille","lat":43.22565,"lon":5.41633,"is_reserved":false,"is_disabled":false,"rental_uris":{"android":"levelo://app?vid=a028f22a-7855-4b12-a426-9cb940dba865","ios":"levelo://app?vid=a028f22a-7855-4b12-a426-9cb940dba865"},"vehicle_type_id":"4","last_reported":1767456738,"current_range_meters":3200,"station_id":"st_d2o4gvlbi1j2169b742g","pricing_plan_id":"cebpf4jnsgd1na2vs0mg"},{"bike_id":"9f721257-6fa9-436e-8f16-6a8001a4f6af","system_id":"levelo_inurba_marseille","lat":43.26561,"lon":5.37295,"is_reserved":false,"is_disabled":false,"rental_uris":{"android":"levelo://app?vid=9f721257-6fa9-436e-8f16-6a8001a4f6af","ios":"levelo://app?vid=9f721257-6fa9-436e-8f16-6a8001a4f6af"},"vehicle_type_id":"4","last_reported":1767456738,"current_range_meters":3200,"station_id":"ce4bhg12rcd13ifvqf70","pricing_plan_id":"cebpf4jnsgd1na2vs0mg"},{"bike_id":"79c656c5-35a3-4d68-80a9-b73151c9016f","system_id":"levelo_inurba_marseille","lat":43.24961,"lon":5.40483,"is_reserved":false,"is_disabled":false,"rental_uris":{"android":"levelo://app?vid=79c656c5-35a3-4d68-80a9-b73151c9016f","ios":"levelo://app?vid=79c656c5-35a3-4d68-80a9-b73151c9016f"},"vehicle_type_id":"4","last_reported":1767456738,"current_range_meters":3200,"station_id":"st_d2ngiaodas8pm72gd1h0","pricing_plan_id":"cebpf4jnsgd1na2vs0mg"},{"bike_id":"d17e6fe2-7a1e-4970-bf2f-cb8626ca5cf3","system_id":"levelo_inurba_marseille","lat":43.28614,"lon":5.35097,"is_reserved":false,"is_disabled":false,"rental_uris":{"android":"levelo://app?vid=d17e6fe2-7a1e-4970-bf2f-cb8626ca5cf3","ios":"levelo://app?vid=d17e6fe2-7a1e-4970-bf2f-cb8626ca5cf3"},"vehicle_type_id":"4","last_reported":1767456738,"current_range_meters":3200,"station_id":"ce4bhch2rcd13ifvqeug","pricing_plan_id":"cebpf4jnsgd1na2vs0mg"},{"bike_id":"40923e12-7712-4657-a751-946303d4bfd5","system_id":"levelo_inurba_marseille","lat":43.28604,"lon":5.37076,"is_reserved":false,"is_disabled":false,"rental_uris":{"android":"levelo://app?vid=40923e12-7712-4657-a751-946303d4bfd5","ios":"levelo://app?vid=40923e12-7712-4657-a751-946303d4bfd5"},"vehicle_type_id":"4","last_reported":1767456738,"current_range_meters":3200,"station_id":"ce4bht12rcd13ifvqi60","pricing_plan_id":"cebpf4jnsgd1na2vs0mg"},{"bike_id":"081e0fab-3d03-4c48-bb94-cc3c47c837cb","system_id":"levelo_inurba_marseille","lat":43.23066,"lon":5.3549,"is_reserved":false,"is_disabled":true,"rental_uris":{"android":"levelo://app?vid=081e0fab-3d03-4c48-bb94-cc3c47c837cb","ios":"levelo://app?vid=081e0fab-3d03-4c48-bb94-cc3c47c837cb"},"vehicle_type_id":"4","last_reported":1767456738,"current_range_meters":3200,"station_id":"cpo3342slgdg3j2ifvpg","pricing_plan_id":"cebpf4jnsgd1na2vs0mg"},{"bike_id":"f257b2d0-1f16-4656-837f-b9ab9f001b03","system_id":"levelo_inurba_marseille","lat":43.22566,"lon":5.41622,"is_reserved":false,"is_disabled":false,"rental_uris":{"android":"levelo://app?vid=f257b2d0-1f16-4656-837f-b9ab9f001b03","ios":"levelo://app?vid=f257b2d0-1f16-4656-837f-b9ab9f001b03"},"vehicle_type_id":"4","last_reported":1767456738,"current_range_meters":3200,"station_id":"st_d2o4gvlbi1j2169b742g","pricing_plan_id":"cebpf4jnsgd1na2vs0mg"},{"bike_id":"ebdd5f34-7c05-4142-b108-09bf63aa8869","system_id":"levelo_inurba_marseille","lat":43.28849,"lon":5.42527,"is_reserved":false,"is_disabled":false,"rental_uris":{"android":"levelo://app?vid=ebdd5f34-7c05-4142-b108-09bf63aa8869","ios":"levelo://app?vid=ebdd5f34-7c05-4142-b108-09bf63aa8869"},"vehicle_type_id":"4","last_reported":1767456738,"current_range_meters":3200,"station_id":"st_d3b462108ojc7389ooeg","pricing_plan_id":"cebpf4jnsgd1na2vs0mg"},{"bike_id":"25f1743a-a2b2-454e-84ce-5c43f5ea30d3","system_id":"levelo_inurba_marseille","lat":43.29888,"lon":5.43643,"is_reserved":false,"is_disabled":true,"rental_uris":{"android":"levelo://app?vid=25f1743a-a2b2-454e-84ce-5c43f5ea30d3","ios":"levelo://app?vid=25f1743a-a2b2-454e-84ce-5c43f5ea30d3"},"vehicle_type_id":"4","last_reported":1767456738,"current_range_meters":3200,"station_id":"ce4bhpp2rcd13ifvqhfg","pricing_plan_id":"cebpf4jnsgd1na2vs0mg"},{"bike_id":"7eb527da-1a9a-480a-a474-299b2b0b83bd","system_id":"levelo_inurba_marseille","lat":43.25736,"lon":5.41081,"is_reserved":false,"is_disabled":false,"rental_uris":{"android":"levelo://app?vid=7eb527da-1a9a-480a-a474-299b2b0b83bd","ios":"levelo://app?vid=7eb527da-1a9a-480a-a474-299b2b0b83bd"},"vehicle_type_id":"4","last_reported":1767456738,"current_range_meters":3200,"station_id":"ce4bhkp2rcd13ifvqgd0","pricing_plan_id":"cebpf4jnsgd1na2vs0mg"},{"bike_id":"f89a7ab5-4f10-40db-80a7-7c57c53bb059","system_id":"levelo_inurba_marseille","lat":43.2672,"lon":5.40671,"is_reserved":false,"is_disabled":false,"rental_uris":{"android":"levelo://app?vid=f89a7ab5-4f10-40db-80a7-7c57c53bb059","ios":"levelo://app?vid=f89a7ab5-4f10-40db-80a7-7c57c53bb059"},"vehicle_type_id":"4","last_reported":1767456738,"current_range_meters":3200,"station_id":"","pricing_plan_id":"cebpf4jnsgd1na2vs0mg"},{"bike_id":"465c2aa7-1647-4624-b6ed-1f27d58d95fd","system_id":"levelo_inurba_marseille","lat":43.28534,"lon":5.44098,"is_reserved":false,"is_disabled":false,"rental_uris":{"android":"levelo://app?vid=465c2aa7-1647-4624-b6ed-1f27d58d95fd","ios":"levelo://app?vid=465c2aa7-1647-4624-b6ed-1f27d58d95fd"},"vehicle_type_id":"4","last_reported":1767456738,"current_range_meters":3200,"station_id":"st_d3j3df2ikq2c7380ej80","pricing_plan_id":"cebpf4jnsgd1na2vs0mg"},{"bike_id":"74552231-d4f7-40b5-adf7-30ad0107af4b","system_id":"levelo_inurba_marseille","lat":43.30143,"lon":5.37425,"is_reserved":false,"is_disabled":false,"rental_uris":{"android":"levelo://app?vid=74552231-d4f7-40b5-adf7-30ad0107af4b","ios":"levelo://app?vid=74552231-d4f7-40b5-adf7-30ad0107af4b"},"vehicle_type_id":"4","last_reported":1767456738,"current_range_meters":3200,"station_id":"ce4bgs92rcd13ifvqcc0","pricing_plan_id":"cebpf4jnsgd1na2vs0mg"},{"bike_id":"81640354-1fdb-4e0c-8b2a-c31f90862a44","system_id":"levelo_inurba_marseille","lat":43.30504,"lon":5.39421,"is_reserved":false,"is_disabled":false,"rental_uris":{"android":"levelo://app?vid=81640354-1fdb-4e0c-8b2a-c31f90862a44","ios":"levelo://app?vid=81640354-1fdb-4e0c-8b2a-c31f90862a44"},"vehicle_type_id":"4","last_reported":1767456738,"current_range_meters":3200,"station_id":"","pricing_plan_id":"cebpf4jnsgd1na2vs0mg"},{"bike_id":"2a56364d-6751-49dc-809b-b7f70465669e","system_id":"levelo_inurba_marseille","lat":43.30423,"lon":5.41286,"is_reserved":false,"is_disabled":false,"rental_uris":{"android":"levelo://app?vid=2a56364d-6751-49dc-809b-b7f70465669e","ios":"levelo://app?vid=2a56364d-6751-49dc-809b-b7f70465669e"},"vehicle_type_id":"4","last_reported":1767456738,"current_range_meters":3200,"station_id":"ce4bhop2rcd13ifvqh8g","pricing_plan_id":"cebpf4jnsgd1na2vs0mg"},{"bike_id":"b62193e6-744b-4181-8bcc-23d13e78d12b","system_id":"levelo_inurba_marseille","lat":43.26558,"lon":5.40318,"is_reserved":false,"is_disabled":false,"rental_uris":{"android":"levelo://app?vid=b62193e6-744b-4181-8bcc-23d13e78d12b","ios":"levelo://app?vid=b62193e6-744b-4181-8bcc-23d13e78d12b"},"vehicle_type_id":"4","last_reported":1767456738,"current_range_meters":3600,"station_id":"ce4bhmp2rcd13ifvqgng","pricing_plan_id":"cebpf4jnsgd1na2vs0mg"},{"bike_id":"264f6b0f-68ed-483a-a0c0-7b40e6e8d241","system_id":"levelo_inurba_marseille","lat":43.29257,"lon":5.38442,"is_reserved":false,"is_disabled":true,"rental_uris":{"android":"levelo://app?vid=264f6b0f-68ed-483a-a0c0-7b40e6e8d241","ios":"levelo://app?vid=264f6b0f-68ed-483a-a0c0-7b40e6e8d241"},"vehicle_type_id":"4","last_reported":1767456738,"current_range_meters":3600,"station_id":"ce4bh692rcd13ifvqea0","pricing_plan_id":"cebpf4jnsgd1na2vs0mg"},{"bike_id":"9feea015-e373-4e65-a8f2-66772efb3348","system_id":"levelo_inurba_marseille","lat":43.24756,"lon":5.37608,"is_reserved":false,"is_disabled":false,"rental_uris":{"android":"levelo://app?vid=9feea015-e373-4e65-a8f2-66772efb3348","ios":"levelo://app?vid=9feea015-e373-4e65-a8f2-66772efb3348"},"vehicle_type_id":"4","last_reported":1767456738,"current_range_meters":3600,"station_id":"","pricing_plan_id":"cebpf4jnsgd1na2vs0mg"},{"bike_id":"eaef0065-ad0c-42a9-ad63-fe4eef751097","system_id":"levelo_inurba_marseille","lat":43.30639,"lon":5.40099,"is_reserved":false,"is_disabled":false,"rental_uris":{"android":"levelo://app?vid=eaef0065-ad0c-42a9-ad63-fe4eef751097","ios":"levelo://app?vid=eaef0065-ad0c-42a9-ad63-fe4eef751097"},"vehicle_type_id":"4","last_reported":1767456738,"current_range_meters":3600,"station_id":"ce4bh112rcd13ifvqda0","pricing_plan_id":"cebpf4jnsgd1na2vs0mg"},{"bike_id":"60a24bfa-71d1-4394-8423-89ffbc06474e","system_id":"levelo_inurba_marseille","lat":43.30283,"lon":5.37655,"is_reserved":false,"is_disabled":false,"rental_uris":{"android":"levelo://app?vid=60a24bfa-71d1-4394-8423-89ffbc06474e","ios":"levelo://app?vid=60a24bfa-71d1-4394-8423-89ffbc06474e"},"vehicle_type_id":"4","last_reported":1767456738,"current_range_meters":3600,"station_id":"ce4bguh2rcd13ifvqcj0","pricing_plan_id":"cebpf4jnsgd1na2vs0mg"},{"bike_id":"b6b7a146-8a76-4eb7-abd8-58e5d94b3994","system_id":"levelo_inurba_marseille","lat":43.24653,"lon":5.43136,"is_reserved":false,"is_disabled":false,"rental_uris":{"android":"levelo://app?vid=b6b7a146-8a76-4eb7-abd8-58e5d94b3994","ios":"levelo://app?vid=b6b7a146-8a76-4eb7-abd8-58e5d94b3994"},"vehicle_type_id":"4","last_reported":1767456738,"current_range_meters":3600,"station_id":"st_d2m6c4gdas8pm72e190g","pricing_plan_id":"cebpf4jnsgd1na2vs0mg"},{"bike_id":"b6633023-7126-4061-b725-029707af05dd","system_id":"levelo_inurba_marseille","lat":43.28085,"lon":5.39661,"is_reserved":false,"is_disabled":false,"rental_uris":{"android":"levelo://app?vid=b6633023-7126-4061-b725-029707af05dd","ios":"levelo://app?vid=b6633023-7126-4061-b725-029707af05dd"},"vehicle_type_id":"4","last_reported":1767456738,"current_range_meters":3600,"station_id":"ce4bho12rcd13ifvqh2g","pricing_plan_id":"cebpf4jnsgd1na2vs0mg"},{"bike_id":"8e008a1d-2d53-44d3-9066-d926a201f02b","system_id":"levelo_inurba_marseille","lat":43.2693,"lon":5.38912,"is_reserved":false,"is_disabled":false,"rental_uris":{"android":"levelo://app?vid=8e008a1d-2d53-44d3-9066-d926a201f02b","ios":"levelo://app?vid=8e008a1d-2d53-44d3-9066-d926a201f02b"},"vehicle_type_id":"4","last_reported":1767456738,"current_range_meters":3600,"station_id":"ce4bhhh2rcd13ifvqfl0","pricing_plan_id":"cebpf4jnsgd1na2vs0mg"},{"bike_id":"dab6d164-1bd4-4181-8358-90a690239230","system_id":"levelo_inurba_marseille","lat":43.30908,"lon":5.36839,"is_reserved":false,"is_disabled":false,"rental_uris":{"android":"levelo://app?vid=dab6d164-1bd4-4181-8358-90a690239230","ios":"levelo://app?vid=dab6d164-1bd4-4181-8358-90a690239230"},"vehicle_type_id":"4","last_reported":1767456738,"current_range_meters":3600,"station_id":"ce4bgn92rcd13ifvqbvg","pricing_plan_id":"cebpf4jnsgd1na2vs0mg"},{"bike_id":"1b60d7d2-7dac-4782-8161-2cd8d0681db6","system_id":"levelo_inurba_marseille","lat":43.27365,"lon":5.36254,"is_reserved":false,"is_disabled":false,"rental_uris":{"android":"levelo://app?vid=1b60d7d2-7dac-4782-8161-2cd8d0681db6","ios":"levelo://app?vid=1b60d7d2-7dac-4782-8161-2cd8d0681db6"},"vehicle_type_id":"4","last_reported":1767456738,"current_range_meters":3600,"station_id":"ce4bhbh2rcd13ifvqeo0","pricing_plan_id":"cebpf4jnsgd1na2vs0mg"},{"bike_id":"a6b30b96-6422-4f6a-a539-620dc43a669f","system_id":"levelo_inurba_marseille","lat":43.2854,"lon":5.44099,"is_reserved":false,"is_disabled":false,"rental_uris":{"android":"levelo://app?vid=a6b30b96-6422-4f6a-a539-620dc43a669f","ios":"levelo://app?vid=a6b30b96-6422-4f6a-a539-620dc43a669f"},"vehicle_type_id":"4","last_reported":1767456738,"current_range_meters":3600,"station_id":"st_d3j3df2ikq2c7380ej80","pricing_plan_id":"cebpf4jnsgd1na2vs0mg"},{"bike_id":"b3d7e9be-4b0c-433d-a227-ff645aa619cb","system_id":"levelo_inurba_marseille","lat":43.23208,"lon":5.35525,"is_reserved":false,"is_disabled":false,"rental_uris":{"android":"levelo://app?vid=b3d7e9be-4b0c-433d-a227-ff645aa619cb","ios":"levelo://app?vid=b3d7e9be-4b0c-433d-a227-ff645aa619cb"},"vehicle_type_id":"4","last_reported":1767456738,"current_range_meters":3600,"station_id":"ce4bhu92rcd13ifvqi70","pricing_plan_id":"cebpf4jnsgd1na2vs0mg"},{"bike_id":"b7a7f393-bac1-4d3b-8526-e86a918344f7","system_id":"levelo_inurba_marseille","lat":43.23144,"lon":5.43714,"is_reserved":false,"is_disabled":false,"rental_uris":{"android":"levelo://app?vid=b7a7f393-bac1-4d3b-8526-e86a918344f7","ios":"levelo://app?vid=b7a7f393-bac1-4d3b-8526-e86a918344f7"},"vehicle_type_id":"4","last_reported":1767456738,"current_range_meters":3600,"station_id":"ce4bhmp2rcd13ifvqgog","pricing_plan_id":"cebpf4jnsgd1na2vs0mg"},{"bike_id":"42d77009-fa58-4df2-b896-ba647ada43e5","system_id":"levelo_inurba_marseille","lat":43.27901,"lon":5.40481,"is_reserved":false,"is_disabled":false,"rental_uris":{"android":"levelo://app?vid=42d77009-fa58-4df2-b896-ba647ada43e5","ios":"levelo://app?vid=42d77009-fa58-4df2-b896-ba647ada43e5"},"vehicle_type_id":"4","last_reported":1767456738,"current_range_meters":3600,"station_id":"","pricing_plan_id":"cebpf4jnsgd1na2vs0mg"},{"bike_id":"97f3f525-e7bd-4e1a-8f8d-d27aa1a09717","system_id":"levelo_inurba_marseille","lat":43.29189,"lon":5.39333,"is_reserved":false,"is_disabled":false,"rental_uris":{"android":"levelo://app?vid=97f3f525-e7bd-4e1a-8f8d-d27aa1a09717","ios":"levelo://app?vid=97f3f525-e7bd-4e1a-8f8d-d27aa1a09717"},"vehicle_type_id":"4","last_reported":1767456738,"current_range_meters":3600,"station_id":"ce4bh192rcd13ifvqdd0","pricing_plan_id":"cebpf4jnsgd1na2vs0mg"},{"bike_id":"83e50346-c21e-466e-8922-aea3198152db","system_id":"levelo_inurba_marseille","lat":43.23778,"lon":5.36643,"is_reserved":false,"is_disabled":false,"rental_uris":{"android":"levelo://app?vid=83e50346-c21e-466e-8922-aea3198152db","ios":"levelo://app?vid=83e50346-c21e-466e-8922-aea3198152db"},"vehicle_type_id":"4","last_reported":1767456738,"current_range_meters":3600,"station_id":"st_d3nk18o9ro0c73en2l3g","pricing_plan_id":"cebpf4jnsgd1na2vs0mg"},{"bike_id":"10f3bcfa-52fd-4457-a83a-e6849d98ff8f","system_id":"levelo_inurba_marseille","lat":43.24966,"lon":5.40469,"is_reserved":false,"is_disabled":false,"rental_uris":{"android":"levelo://app?vid=10f3bcfa-52fd-4457-a83a-e6849d98ff8f","ios":"levelo://app?vid=10f3bcfa-52fd-4457-a83a-e6849d98ff8f"},"vehicle_type_id":"4","last_reported":1767456738,"current_range_meters":4000,"station_id":"st_d2ngiaodas8pm72gd1h0","pricing_plan_id":"cebpf4jnsgd1na2vs0mg"},{"bike_id":"3e9b8a52-1c26-4230-9ad9-77fb07c3ca7e","system_id":"levelo_inurba_marseille","lat":43.314971,"lon":5.373154,"is_reserved":false,"is_disabled":false,"rental_uris":{"android":"levelo://app?vid=3e9b8a52-1c26-4230-9ad9-77fb07c3ca7e","ios":"levelo://app?vid=3e9b8a52-1c26-4230-9ad9-77fb07c3ca7e"},"vehicle_type_id":"4","last_reported":1767456738,"current_range_meters":4000,"station_id":"","pricing_plan_id":"cebpf4jnsgd1na2vs0mg"},{"bike_id":"1c049e5b-b3eb-4985-9f60-a621f5ea8094","system_id":"levelo_inurba_marseille","lat":43.2998,"lon":5.4033,"is_reserved":false,"is_disabled":false,"rental_uris":{"android":"levelo://app?vid=1c049e5b-b3eb-4985-9f60-a621f5ea8094","ios":"levelo://app?vid=1c049e5b-b3eb-4985-9f60-a621f5ea8094"},"vehicle_type_id":"4","last_reported":1767456738,"current_range_meters":4000,"station_id":"","pricing_plan_id":"cebpf4jnsgd1na2vs0mg"},{"bike_id":"7fae1126-b1b6-44eb-af98-09f5131a7ed7","system_id":"levelo_inurba_marseille","lat":43.28267,"lon":5.3506,"is_reserved":false,"is_disabled":false,"rental_uris":{"android":"levelo://app?vid=7fae1126-b1b6-44eb-af98-09f5131a7ed7","ios":"levelo://app?vid=7fae1126-b1b6-44eb-af98-09f5131a7ed7"},"vehicle_type_id":"4","last_reported":1767456738,"current_range_meters":4000,"station_id":"ce4bhbp2rcd13ifvqerg","pricing_plan_id":"cebpf4jnsgd1na2vs0mg"},{"bike_id":"006976d2-d3cb-439d-b972-b36d863282da","system_id":"levelo_inurba_marseille","lat":43.2842,"lon":5.34978,"is_reserved":false,"is_disabled":false,"rental_uris":{"android":"levelo://app?vid=006976d2-d3cb-439d-b972-b36d863282da","ios":"levelo://app?vid=006976d2-d3cb-439d-b972-b36d863282da"},"vehicle_type_id":"4","last_reported":1767456738,"current_range_meters":4000,"station_id":"ce4bhbh2rcd13ifvqepg","pricing_plan_id":"cebpf4jnsgd1na2vs0mg"},{"bike_id":"2e74ff12-79b0-4692-8b68-eb2508b00db3","system_id":"levelo_inurba_marseille","lat":43.29525,"lon":5.39037,"is_reserved":false,"is_disabled":false,"rental_uris":{"android":"levelo://app?vid=2e74ff12-79b0-4692-8b68-eb2508b00db3","ios":"levelo://app?vid=2e74ff12-79b0-4692-8b68-eb2508b00db3"},"vehicle_type_id":"4","last_reported":1767456738,"current_range_meters":4000,"station_id":"ce4bh3p2rcd13ifvqdp0","pricing_plan_id":"cebpf4jnsgd1na2vs0mg"},{"bike_id":"66e710a3-adf4-4af5-a020-0212f628c58a","system_id":"levelo_inurba_marseille","lat":43.29288,"lon":5.37432,"is_reserved":false,"is_disabled":false,"rental_uris":{"android":"levelo://app?vid=66e710a3-adf4-4af5-a020-0212f628c58a","ios":"levelo://app?vid=66e710a3-adf4-4af5-a020-0212f628c58a"},"vehicle_type_id":"4","last_reported":1767456738,"current_range_meters":4000,"station_id":"ce4bgi12rcd13ifvqb70","pricing_plan_id":"cebpf4jnsgd1na2vs0mg"},{"bike_id":"78a8223b-1602-4997-a312-77a4faabdcda","system_id":"levelo_inurba_marseille","lat":43.25826,"lon":5.39433,"is_reserved":false,"is_disabled":false,"rental_uris":{"android":"levelo://app?vid=78a8223b-1602-4997-a312-77a4faabdcda","ios":"levelo://app?vid=78a8223b-1602-4997-a312-77a4faabdcda"},"vehicle_type_id":"4","last_reported":1767456738,"current_range_meters":4000,"station_id":"ce4bhip2rcd13ifvqft0","pricing_plan_id":"cebpf4jnsgd1na2vs0mg"},{"bike_id":"051ad2ac-501e-4631-844d-b9a4a46d26b6","system_id":"levelo_inurba_marseille","lat":43.27809,"lon":5.40699,"is_reserved":false,"is_disabled":false,"rental_uris":{"android":"levelo://app?vid=051ad2ac-501e-4631-844d-b9a4a46d26b6","ios":"levelo://app?vid=051ad2ac-501e-4631-844d-b9a4a46d26b6"},"vehicle_type_id":"4","last_reported":1767456738,"current_range_meters":4000,"station_id":"ce4bhnh2rcd13ifvqgtg","pricing_plan_id":"cebpf4jnsgd1na2vs0mg"},{"bike_id":"63fd638f-dd7a-4bc5-9bb1-217ce8370ec7","system_id":"levelo_inurba_marseille","lat":43.24946,"lon":5.40509,"is_reserved":false,"is_disabled":false,"rental_uris":{"android":"levelo://app?vid=63fd638f-dd7a-4bc5-9bb1-217ce8370ec7","ios":"levelo://app?vid=63fd638f-dd7a-4bc5-9bb1-217ce8370ec7"},"vehicle_type_id":"4","last_reported":1767456738,"current_range_meters":4000,"station_id":"st_d2ngiaodas8pm72gd1h0","pricing_plan_id":"cebpf4jnsgd1na2vs0mg"},{"bike_id":"0b4ae04b-456c-4d00-895b-9ef061b6db3f","system_id":"levelo_inurba_marseille","lat":43.260302,"lon":5.375491,"is_reserved":false,"is_disabled":false,"rental_uris":{"android":"levelo://app?vid=0b4ae04b-456c-4d00-895b-9ef061b6db3f","ios":"levelo://app?vid=0b4ae04b-456c-4d00-895b-9ef061b6db3f"},"vehicle_type_id":"4","last_reported":1767456738,"current_range_meters":4400,"station_id":"ce4bhgh2rcd13ifvqfa0","pricing_plan_id":"cebpf4jnsgd1na2vs0mg"},{"bike_id":"596f9555-cc2e-4719-a2eb-a2171c19b08c","system_id":"levelo_inurba_marseille","lat":43.30417,"lon":5.41291,"is_reserved":false,"is_disabled":false,"rental_uris":{"android":"levelo://app?vid=596f9555-cc2e-4719-a2eb-a2171c19b08c","ios":"levelo://app?vid=596f9555-cc2e-4719-a2eb-a2171c19b08c"},"vehicle_type_id":"4","last_reported":1767456738,"current_range_meters":4400,"station_id":"ce4bhop2rcd13ifvqh8g","pricing_plan_id":"cebpf4jnsgd1na2vs0mg"},{"bike_id":"649b874c-2158-4c53-8651-f5e61cfdd6d4","system_id":"levelo_inurba_marseille","lat":43.22538,"lon":5.34837,"is_reserved":false,"is_disabled":false,"rental_uris":{"android":"levelo://app?vid=649b874c-2158-4c53-8651-f5e61cfdd6d4","ios":"levelo://app?vid=649b874c-2158-4c53-8651-f5e61cfdd6d4"},"vehicle_type_id":"4","last_reported":1767456738,"current_range_meters":4400,"station_id":"","pricing_plan_id":"cebpf4jnsgd1na2vs0mg"},{"bike_id":"b1ea01e8-bfb1-4c5d-927e-78316f3a4fd0","system_id":"levelo_inurba_marseille","lat":43.24394,"lon":5.37072,"is_reserved":false,"is_disabled":false,"rental_uris":{"android":"levelo://app?vid=b1ea01e8-bfb1-4c5d-927e-78316f3a4fd0","ios":"levelo://app?vid=b1ea01e8-bfb1-4c5d-927e-78316f3a4fd0"},"vehicle_type_id":"4","last_reported":1767456738,"current_range_meters":4400,"station_id":"ce4bhhh2rcd13ifvqfk0","pricing_plan_id":"cebpf4jnsgd1na2vs0mg"},{"bike_id":"fdd9afc5-2105-47c4-9830-187ff572ca18","system_id":"levelo_inurba_marseille","lat":43.282648,"lon":5.350733,"is_reserved":false,"is_disabled":false,"rental_uris":{"android":"levelo://app?vid=fdd9afc5-2105-47c4-9830-187ff572ca18","ios":"levelo://app?vid=fdd9afc5-2105-47c4-9830-187ff572ca18"},"vehicle_type_id":"4","last_reported":1767456738,"current_range_meters":4400,"station_id":"ce4bhbp2rcd13ifvqerg","pricing_plan_id":"cebpf4jnsgd1na2vs0mg"},{"bike_id":"793e96b1-b3de-4fa2-ac20-161270d37920","system_id":"levelo_inurba_marseille","lat":43.3211,"lon":5.36775,"is_reserved":false,"is_disabled":false,"rental_uris":{"android":"levelo://app?vid=793e96b1-b3de-4fa2-ac20-161270d37920","ios":"levelo://app?vid=793e96b1-b3de-4fa2-ac20-161270d37920"},"vehicle_type_id":"4","last_reported":1767456738,"current_range_meters":4400,"station_id":"ce4bhrh2rcd13ifvqhug","pricing_plan_id":"cebpf4jnsgd1na2vs0mg"},{"bike_id":"d315c333-f174-48b1-aaed-b6cca0a078d8","system_id":"levelo_inurba_marseille","lat":43.2923,"lon":5.36059,"is_reserved":false,"is_disabled":false,"rental_uris":{"android":"levelo://app?vid=d315c333-f174-48b1-aaed-b6cca0a078d8","ios":"levelo://app?vid=d315c333-f174-48b1-aaed-b6cca0a078d8"},"vehicle_type_id":"4","last_reported":1767456738,"current_range_meters":4400,"station_id":"ce4bhbh2rcd13ifvqeqg","pricing_plan_id":"cebpf4jnsgd1na2vs0mg"},{"bike_id":"eee4bf0d-fa3e-49db-aa40-908685ca30f9","system_id":"levelo_inurba_marseille","lat":43.26947,"lon":5.38642,"is_reserved":false,"is_disabled":false,"rental_uris":{"android":"levelo://app?vid=eee4bf0d-fa3e-49db-aa40-908685ca30f9","ios":"levelo://app?vid=eee4bf0d-fa3e-49db-aa40-908685ca30f9"},"vehicle_type_id":"4","last_reported":1767456738,"current_range_meters":4400,"station_id":"ce4bhh92rcd13ifvqfh0","pricing_plan_id":"cebpf4jnsgd1na2vs0mg"},{"bike_id":"6bd99977-3adb-401f-80fd-bec39615e3ca","system_id":"levelo_inurba_marseille","lat":43.27062,"lon":5.40255,"is_reserved":false,"is_disabled":false,"rental_uris":{"android":"levelo://app?vid=6bd99977-3adb-401f-80fd-bec39615e3ca","ios":"levelo://app?vid=6bd99977-3adb-401f-80fd-bec39615e3ca"},"vehicle_type_id":"4","last_reported":1767456738,"current_range_meters":4400,"station_id":"ce4bhk92rcd13ifvqgc0","pricing_plan_id":"cebpf4jnsgd1na2vs0mg"},{"bike_id":"70863109-1d9f-4cf0-8c43-29a5e3efd5a3","system_id":"levelo_inurba_marseille","lat":43.28,"lon":5.40416,"is_reserved":false,"is_disabled":false,"rental_uris":{"android":"levelo://app?vid=70863109-1d9f-4cf0-8c43-29a5e3efd5a3","ios":"levelo://app?vid=70863109-1d9f-4cf0-8c43-29a5e3efd5a3"},"vehicle_type_id":"4","last_reported":1767456738,"current_range_meters":4400,"station_id":"","pricing_plan_id":"cebpf4jnsgd1na2vs0mg"},{"bike_id":"a55f26d2-a49a-4fec-873c-a642ac3cc483","system_id":"levelo_inurba_marseille","lat":43.29583,"lon":5.36725,"is_reserved":false,"is_disabled":false,"rental_uris":{"android":"levelo://app?vid=a55f26d2-a49a-4fec-873c-a642ac3cc483","ios":"levelo://app?vid=a55f26d2-a49a-4fec-873c-a642ac3cc483"},"vehicle_type_id":"4","last_reported":1767456738,"current_range_meters":4400,"station_id":"ce4bgph2rcd13ifvqc2g","pricing_plan_id":"cebpf4jnsgd1na2vs0mg"},{"bike_id":"0d6bb5ad-dcd1-405b-b68d-99b30db1c271","system_id":"levelo_inurba_marseille","lat":43.278658,"lon":5.385888,"is_reserved":false,"is_disabled":false,"rental_uris":{"android":"levelo://app?vid=0d6bb5ad-dcd1-405b-b68d-99b30db1c271","ios":"levelo://app?vid=0d6bb5ad-dcd1-405b-b68d-99b30db1c271"},"vehicle_type_id":"4","last_reported":1767456738,"current_range_meters":4400,"station_id":"","pricing_plan_id":"cebpf4jnsgd1na2vs0mg"},{"bike_id":"d43412f7-1927-4309-a5fd-7bdd488f607d","system_id":"levelo_inurba_marseille","lat":43.23157,"lon":5.43695,"is_reserved":false,"is_disabled":false,"rental_uris":{"android":"levelo://app?vid=d43412f7-1927-4309-a5fd-7bdd488f607d","ios":"levelo://app?vid=d43412f7-1927-4309-a5fd-7bdd488f607d"},"vehicle_type_id":"4","last_reported":1767456738,"current_range_meters":4800,"station_id":"ce4bhmp2rcd13ifvqgog","pricing_plan_id":"cebpf4jnsgd1na2vs0mg"},{"bike_id":"c7520a13-b022-4cba-860a-1d0a7964595c","system_id":"levelo_inurba_marseille","lat":43.23069,"lon":5.35493,"is_reserved":false,"is_disabled":false,"rental_uris":{"android":"levelo://app?vid=c7520a13-b022-4cba-860a-1d0a7964595c","ios":"levelo://app?vid=c7520a13-b022-4cba-860a-1d0a7964595c"},"vehicle_type_id":"4","last_reported":1767456738,"current_range_meters":4800,"station_id":"cpo3342slgdg3j2ifvpg","pricing_plan_id":"cebpf4jnsgd1na2vs0mg"},{"bike_id":"61fae4ff-2397-4842-852a-e1069beef8c4","system_id":"levelo_inurba_marseille","lat":43.2856,"lon":5.44069,"is_reserved":false,"is_disabled":false,"rental_uris":{"android":"levelo://app?vid=61fae4ff-2397-4842-852a-e1069beef8c4","ios":"levelo://app?vid=61fae4ff-2397-4842-852a-e1069beef8c4"},"vehicle_type_id":"4","last_reported":1767456738,"current_range_meters":4800,"station_id":"st_d3j3df2ikq2c7380ej80","pricing_plan_id":"cebpf4jnsgd1na2vs0mg"},{"bike_id":"222fb9ec-2875-4ac5-9c40-850f5a12dca5","system_id":"levelo_inurba_marseille","lat":43.22548,"lon":5.41632,"is_reserved":false,"is_disabled":false,"rental_uris":{"android":"levelo://app?vid=222fb9ec-2875-4ac5-9c40-850f5a12dca5","ios":"levelo://app?vid=222fb9ec-2875-4ac5-9c40-850f5a12dca5"},"vehicle_type_id":"4","last_reported":1767456738,"current_range_meters":4800,"station_id":"st_d2o4gvlbi1j2169b742g","pricing_plan_id":"cebpf4jnsgd1na2vs0mg"},{"bike_id":"650cf425-f87e-4c30-9156-354d5fef94cd","system_id":"levelo_inurba_marseille","lat":43.30116,"lon":5.36764,"is_reserved":false,"is_disabled":false,"rental_uris":{"android":"levelo://app?vid=650cf425-f87e-4c30-9156-354d5fef94cd","ios":"levelo://app?vid=650cf425-f87e-4c30-9156-354d5fef94cd"},"vehicle_type_id":"4","last_reported":1767456738,"current_range_meters":4800,"station_id":"","pricing_plan_id":"cebpf4jnsgd1na2vs0mg"},{"bike_id":"4730702b-5a06-40f3-a44b-0f0448608ad1","system_id":"levelo_inurba_marseille","lat":43.28412,"lon":5.34975,"is_reserved":false,"is_disabled":false,"rental_uris":{"android":"levelo://app?vid=4730702b-5a06-40f3-a44b-0f0448608ad1","ios":"levelo://app?vid=4730702b-5a06-40f3-a44b-0f0448608ad1"},"vehicle_type_id":"4","last_reported":1767456738,"current_range_meters":4800,"station_id":"ce4bhbh2rcd13ifvqepg","pricing_plan_id":"cebpf4jnsgd1na2vs0mg"},{"bike_id":"ce86fdf6-e10c-40d8-8f1d-92c00382a5b2","system_id":"levelo_inurba_marseille","lat":43.24394,"lon":5.37041,"is_reserved":false,"is_disabled":false,"rental_uris":{"android":"levelo://app?vid=ce86fdf6-e10c-40d8-8f1d-92c00382a5b2","ios":"levelo://app?vid=ce86fdf6-e10c-40d8-8f1d-92c00382a5b2"},"vehicle_type_id":"4","last_reported":1767456738,"current_range_meters":4800,"station_id":"ce4bhhh2rcd13ifvqfk0","pricing_plan_id":"cebpf4jnsgd1na2vs0mg"},{"bike_id":"2aad5c19-7962-4a02-9f37-3368ef728fe6","system_id":"levelo_inurba_marseille","lat":43.27506,"lon":5.42439,"is_reserved":false,"is_disabled":false,"rental_uris":{"android":"levelo://app?vid=2aad5c19-7962-4a02-9f37-3368ef728fe6","ios":"levelo://app?vid=2aad5c19-7962-4a02-9f37-3368ef728fe6"},"vehicle_type_id":"4","last_reported":1767456738,"current_range_meters":5600,"station_id":"ce4bhn92rcd13ifvqgrg","pricing_plan_id":"cebpf4jnsgd1na2vs0mg"},{"bike_id":"4278291f-1d21-4880-a0e3-52116de91cbe","system_id":"levelo_inurba_marseille","lat":43.2294,"lon":5.35364,"is_reserved":false,"is_disabled":false,"rental_uris":{"android":"levelo://app?vid=4278291f-1d21-4880-a0e3-52116de91cbe","ios":"levelo://app?vid=4278291f-1d21-4880-a0e3-52116de91cbe"},"vehicle_type_id":"4","last_reported":1767456738,"current_range_meters":5600,"station_id":"cpo3532slgdg3j2ikp40","pricing_plan_id":"cebpf4jnsgd1na2vs0mg"},{"bike_id":"5fa29f98-5fa2-4f07-b3da-54250996ebf5","system_id":"levelo_inurba_marseille","lat":43.28277,"lon":5.35092,"is_reserved":false,"is_disabled":false,"rental_uris":{"android":"levelo://app?vid=5fa29f98-5fa2-4f07-b3da-54250996ebf5","ios":"levelo://app?vid=5fa29f98-5fa2-4f07-b3da-54250996ebf5"},"vehicle_type_id":"4","last_reported":1767456738,"current_range_meters":5600,"station_id":"ce4bhbp2rcd13ifvqerg","pricing_plan_id":"cebpf4jnsgd1na2vs0mg"},{"bike_id":"a29324ba-2eb0-4583-8e17-136bc1812f67","system_id":"levelo_inurba_marseille","lat":43.2952,"lon":5.39043,"is_reserved":false,"is_disabled":false,"rental_uris":{"android":"levelo://app?vid=a29324ba-2eb0-4583-8e17-136bc1812f67","ios":"levelo://app?vid=a29324ba-2eb0-4583-8e17-136bc1812f67"},"vehicle_type_id":"4","last_reported":1767456738,"current_range_meters":5600,"station_id":"ce4bh3p2rcd13ifvqdp0","pricing_plan_id":"cebpf4jnsgd1na2vs0mg"},{"bike_id":"65131df1-0bed-43f7-938b-a392665de4f0","system_id":"levelo_inurba_marseille","lat":43.27062,"lon":5.42259,"is_reserved":false,"is_disabled":false,"rental_uris":{"android":"levelo://app?vid=65131df1-0bed-43f7-938b-a392665de4f0","ios":"levelo://app?vid=65131df1-0bed-43f7-938b-a392665de4f0"},"vehicle_type_id":"4","last_reported":1767456738,"current_range_meters":5600,"station_id":"ce4bhk92rcd13ifvqgb0","pricing_plan_id":"cebpf4jnsgd1na2vs0mg"},{"bike_id":"922f557c-e548-4116-93f2-3e96886e2c19","system_id":"levelo_inurba_marseille","lat":43.28413,"lon":5.37511,"is_reserved":false,"is_disabled":false,"rental_uris":{"android":"levelo://app?vid=922f557c-e548-4116-93f2-3e96886e2c19","ios":"levelo://app?vid=922f557c-e548-4116-93f2-3e96886e2c19"},"vehicle_type_id":"4","last_reported":1767456738,"current_range_meters":5600,"station_id":"ce4bh412rcd13ifvqds0","pricing_plan_id":"cebpf4jnsgd1na2vs0mg"},{"bike_id":"67bf8f90-a5df-42e7-b267-9ae66edff758","system_id":"levelo_inurba_marseille","lat":43.3062,"lon":5.37621,"is_reserved":false,"is_disabled":false,"rental_uris":{"android":"levelo://app?vid=67bf8f90-a5df-42e7-b267-9ae66edff758","ios":"levelo://app?vid=67bf8f90-a5df-42e7-b267-9ae66edff758"},"vehicle_type_id":"4","last_reported":1767456738,"current_range_meters":5600,"station_id":"","pricing_plan_id":"cebpf4jnsgd1na2vs0mg"},{"bike_id":"b870deac-71f4-45fc-86ee-bca107fc470f","system_id":"levelo_inurba_marseille","lat":43.26962,"lon":5.38624,"is_reserved":false,"is_disabled":false,"rental_uris":{"android":"levelo://app?vid=b870deac-71f4-45fc-86ee-bca107fc470f","ios":"levelo://app?vid=b870deac-71f4-45fc-86ee-bca107fc470f"},"vehicle_type_id":"4","last_reported":1767456738,"current_range_meters":5600,"station_id":"ce4bhh92rcd13ifvqfh0","pricing_plan_id":"cebpf4jnsgd1na2vs0mg"},{"bike_id":"69dc0993-e0ea-4035-94e6-29ab1505c34a","system_id":"levelo_inurba_marseille","lat":43.23038,"lon":5.35504,"is_reserved":false,"is_disabled":false,"rental_uris":{"android":"levelo://app?vid=69dc0993-e0ea-4035-94e6-29ab1505c34a","ios":"levelo://app?vid=69dc0993-e0ea-4035-94e6-29ab1505c34a"},"vehicle_type_id":"4","last_reported":1767456738,"current_range_meters":5600,"station_id":"cpo3342slgdg3j2ifvpg","pricing_plan_id":"cebpf4jnsgd1na2vs0mg"},{"bike_id":"e169c0ef-0fd8-4492-8047-41dcce3b9667","system_id":"levelo_inurba_marseille","lat":43.27323,"lon":5.39105,"is_reserved":false,"is_disabled":false,"rental_uris":{"android":"levelo://app?vid=e169c0ef-0fd8-4492-8047-41dcce3b9667","ios":"levelo://app?vid=e169c0ef-0fd8-4492-8047-41dcce3b9667"},"vehicle_type_id":"4","last_reported":1767456738,"current_range_meters":5600,"station_id":"ce4bhgp2rcd13ifvqfe0","pricing_plan_id":"cebpf4jnsgd1na2vs0mg"},{"bike_id":"135f5aae-6876-4e42-bdaa-6c13991f4488","system_id":"levelo_inurba_marseille","lat":43.24163,"lon":5.36399,"is_reserved":false,"is_disabled":false,"rental_uris":{"android":"levelo://app?vid=135f5aae-6876-4e42-bdaa-6c13991f4488","ios":"levelo://app?vid=135f5aae-6876-4e42-bdaa-6c13991f4488"},"vehicle_type_id":"4","last_reported":1767456738,"current_range_meters":5600,"station_id":"cpo36qri1sfpv3e86is0","pricing_plan_id":"cebpf4jnsgd1na2vs0mg"},{"bike_id":"5b8e0877-74d0-4505-84b4-8c7975a373e7","system_id":"levelo_inurba_marseille","lat":43.29689,"lon":5.37993,"is_reserved":false,"is_disabled":false,"rental_uris":{"android":"levelo://app?vid=5b8e0877-74d0-4505-84b4-8c7975a373e7","ios":"levelo://app?vid=5b8e0877-74d0-4505-84b4-8c7975a373e7"},"vehicle_type_id":"4","last_reported":1767456738,"current_range_meters":5600,"station_id":"","pricing_plan_id":"cebpf4jnsgd1na2vs0mg"},{"bike_id":"47212c02-9216-4f31-96e6-4289df75b7d8","system_id":"levelo_inurba_marseille","lat":43.28609,"lon":5.39868,"is_reserved":false,"is_disabled":false,"rental_uris":{"android":"levelo://app?vid=47212c02-9216-4f31-96e6-4289df75b7d8","ios":"levelo://app?vid=47212c02-9216-4f31-96e6-4289df75b7d8"},"vehicle_type_id":"4","last_reported":1767456738,"current_range_meters":5600,"station_id":"st_d4a7ka997mjs738ck50g","pricing_plan_id":"cebpf4jnsgd1na2vs0mg"},{"bike_id":"b01cbb4b-1af7-4a8c-bc2a-1979e8b3c46e","system_id":"levelo_inurba_marseille","lat":43.30913,"lon":5.368777,"is_reserved":false,"is_disabled":false,"rental_uris":{"android":"levelo://app?vid=b01cbb4b-1af7-4a8c-bc2a-1979e8b3c46e","ios":"levelo://app?vid=b01cbb4b-1af7-4a8c-bc2a-1979e8b3c46e"},"vehicle_type_id":"4","last_reported":1767456738,"current_range_meters":5600,"station_id":"ce4bgn92rcd13ifvqbvg","pricing_plan_id":"cebpf4jnsgd1na2vs0mg"},{"bike_id":"be34864a-9081-4de9-80b6-37a3cde517d0","system_id":"levelo_inurba_marseille","lat":43.280856,"lon":5.396623,"is_reserved":false,"is_disabled":false,"rental_uris":{"android":"levelo://app?vid=be34864a-9081-4de9-80b6-37a3cde517d0","ios":"levelo://app?vid=be34864a-9081-4de9-80b6-37a3cde517d0"},"vehicle_type_id":"4","last_reported":1767456738,"current_range_meters":5600,"station_id":"ce4bho12rcd13ifvqh2g","pricing_plan_id":"cebpf4jnsgd1na2vs0mg"},{"bike_id":"e8b81f7d-1086-4018-924f-9e92d12d3437","system_id":"levelo_inurba_marseille","lat":43.30555,"lon":5.36527,"is_reserved":false,"is_disabled":false,"rental_uris":{"android":"levelo://app?vid=e8b81f7d-1086-4018-924f-9e92d12d3437","ios":"levelo://app?vid=e8b81f7d-1086-4018-924f-9e92d12d3437"},"vehicle_type_id":"4","last_reported":1767456738,"current_range_meters":6000,"station_id":"ce4bgs12rcd13ifvqcag","pricing_plan_id":"cebpf4jnsgd1na2vs0mg"},{"bike_id":"83c93d47-f18b-4628-910f-4db9fa42d2c3","system_id":"levelo_inurba_marseille","lat":43.24682,"lon":5.38153,"is_reserved":false,"is_disabled":false,"rental_uris":{"android":"levelo://app?vid=83c93d47-f18b-4628-910f-4db9fa42d2c3","ios":"levelo://app?vid=83c93d47-f18b-4628-910f-4db9fa42d2c3"},"vehicle_type_id":"4","last_reported":1767456738,"current_range_meters":6000,"station_id":"ce4bhih2rcd13ifvqfr0","pricing_plan_id":"cebpf4jnsgd1na2vs0mg"},{"bike_id":"6f089a7e-e81b-483c-a174-dfec5ca5abcf","system_id":"levelo_inurba_marseille","lat":43.240739,"lon":5.377516,"is_reserved":false,"is_disabled":false,"rental_uris":{"android":"levelo://app?vid=6f089a7e-e81b-483c-a174-dfec5ca5abcf","ios":"levelo://app?vid=6f089a7e-e81b-483c-a174-dfec5ca5abcf"},"vehicle_type_id":"4","last_reported":1767456738,"current_range_meters":6000,"station_id":"ce4bhnp2rcd13ifvqgvg","pricing_plan_id":"cebpf4jnsgd1na2vs0mg"},{"bike_id":"d4ff50f4-bca8-4146-b72e-2da35f00941e","system_id":"levelo_inurba_marseille","lat":43.2961,"lon":5.38107,"is_reserved":false,"is_disabled":false,"rental_uris":{"android":"levelo://app?vid=d4ff50f4-bca8-4146-b72e-2da35f00941e","ios":"levelo://app?vid=d4ff50f4-bca8-4146-b72e-2da35f00941e"},"vehicle_type_id":"4","last_reported":1767456738,"current_range_meters":6000,"station_id":"ce4bgl12rcd13ifvqbo0","pricing_plan_id":"cebpf4jnsgd1na2vs0mg"},{"bike_id":"430881a2-ec0b-4a4c-b8c9-a5e85efe9cef","system_id":"levelo_inurba_marseille","lat":43.25579,"lon":5.38223,"is_reserved":false,"is_disabled":false,"rental_uris":{"android":"levelo://app?vid=430881a2-ec0b-4a4c-b8c9-a5e85efe9cef","ios":"levelo://app?vid=430881a2-ec0b-4a4c-b8c9-a5e85efe9cef"},"vehicle_type_id":"4","last_reported":1767456738,"current_range_meters":6000,"station_id":"ce4bhih2rcd13ifvqfs0","pricing_plan_id":"cebpf4jnsgd1na2vs0mg"},{"bike_id":"d412deb0-6ec3-42b4-ac65-14f0ea6939c7","system_id":"levelo_inurba_marseille","lat":43.25508,"lon":5.37652,"is_reserved":false,"is_disabled":false,"rental_uris":{"android":"levelo://app?vid=d412deb0-6ec3-42b4-ac65-14f0ea6939c7","ios":"levelo://app?vid=d412deb0-6ec3-42b4-ac65-14f0ea6939c7"},"vehicle_type_id":"4","last_reported":1767456738,"current_range_meters":6000,"station_id":"ce4bhh12rcd13ifvqff0","pricing_plan_id":"cebpf4jnsgd1na2vs0mg"},{"bike_id":"3ecab405-d6ca-4057-a83d-0721b8a2b9e2","system_id":"levelo_inurba_marseille","lat":43.25483,"lon":5.37653,"is_reserved":false,"is_disabled":false,"rental_uris":{"android":"levelo://app?vid=3ecab405-d6ca-4057-a83d-0721b8a2b9e2","ios":"levelo://app?vid=3ecab405-d6ca-4057-a83d-0721b8a2b9e2"},"vehicle_type_id":"4","last_reported":1767456738,"current_range_meters":6000,"station_id":"ce4bhh12rcd13ifvqff0","pricing_plan_id":"cebpf4jnsgd1na2vs0mg"},{"bike_id":"e27b965b-a33f-486a-9c04-e4b7166b9da4","system_id":"levelo_inurba_marseille","lat":43.290556,"lon":5.381125,"is_reserved":false,"is_disabled":false,"rental_uris":{"android":"levelo://app?vid=e27b965b-a33f-486a-9c04-e4b7166b9da4","ios":"levelo://app?vid=e27b965b-a33f-486a-9c04-e4b7166b9da4"},"vehicle_type_id":"4","last_reported":1767456738,"current_range_meters":6000,"station_id":"ce4bh612rcd13ifvqe6g","pricing_plan_id":"cebpf4jnsgd1na2vs0mg"},{"bike_id":"86b3ab90-56c2-4931-b543-c3a7edaf3cbe","system_id":"levelo_inurba_marseille","lat":43.29542,"lon":5.3749,"is_reserved":false,"is_disabled":false,"rental_uris":{"android":"levelo://app?vid=86b3ab90-56c2-4931-b543-c3a7edaf3cbe","ios":"levelo://app?vid=86b3ab90-56c2-4931-b543-c3a7edaf3cbe"},"vehicle_type_id":"4","last_reported":1767456738,"current_range_meters":6000,"station_id":"ce4bgkp2rcd13ifvqbmg","pricing_plan_id":"cebpf4jnsgd1na2vs0mg"},{"bike_id":"ed66bf8a-0755-4214-ab92-16f8a5a8cb2f","system_id":"levelo_inurba_marseille","lat":43.298401,"lon":5.362704,"is_reserved":false,"is_disabled":false,"rental_uris":{"android":"levelo://app?vid=ed66bf8a-0755-4214-ab92-16f8a5a8cb2f","ios":"levelo://app?vid=ed66bf8a-0755-4214-ab92-16f8a5a8cb2f"},"vehicle_type_id":"4","last_reported":1767456738,"current_range_meters":6400,"station_id":"ce4bgpp2rcd13ifvqc3g","pricing_plan_id":"cebpf4jnsgd1na2vs0mg"},{"bike_id":"074722cb-2569-4df8-9492-e46ca66ccdc6","system_id":"levelo_inurba_marseille","lat":43.30795,"lon":5.3731,"is_reserved":false,"is_disabled":false,"rental_uris":{"android":"levelo://app?vid=074722cb-2569-4df8-9492-e46ca66ccdc6","ios":"levelo://app?vid=074722cb-2569-4df8-9492-e46ca66ccdc6"},"vehicle_type_id":"4","last_reported":1767456738,"current_range_meters":6400,"station_id":"","pricing_plan_id":"cebpf4jnsgd1na2vs0mg"},{"bike_id":"b5afbf29-338b-46aa-a79f-a1143e099ef4","system_id":"levelo_inurba_marseille","lat":43.2962,"lon":5.37722,"is_reserved":false,"is_disabled":false,"rental_uris":{"android":"levelo://app?vid=b5afbf29-338b-46aa-a79f-a1143e099ef4","ios":"levelo://app?vid=b5afbf29-338b-46aa-a79f-a1143e099ef4"},"vehicle_type_id":"4","last_reported":1767456738,"current_range_meters":6400,"station_id":"ce4bgi92rcd13ifvqb90","pricing_plan_id":"cebpf4jnsgd1na2vs0mg"},{"bike_id":"9255467e-14b4-4b38-a086-cb9c5423bc3f","system_id":"levelo_inurba_marseille","lat":43.29372,"lon":5.37859,"is_reserved":false,"is_disabled":false,"rental_uris":{"android":"levelo://app?vid=9255467e-14b4-4b38-a086-cb9c5423bc3f","ios":"levelo://app?vid=9255467e-14b4-4b38-a086-cb9c5423bc3f"},"vehicle_type_id":"4","last_reported":1767456738,"current_range_meters":6400,"station_id":"ce4bgjh2rcd13ifvqbf0","pricing_plan_id":"cebpf4jnsgd1na2vs0mg"},{"bike_id":"7ff6d401-cc6c-49d2-b730-af1652764310","system_id":"levelo_inurba_marseille","lat":43.28427,"lon":5.37522,"is_reserved":false,"is_disabled":false,"rental_uris":{"android":"levelo://app?vid=7ff6d401-cc6c-49d2-b730-af1652764310","ios":"levelo://app?vid=7ff6d401-cc6c-49d2-b730-af1652764310"},"vehicle_type_id":"4","last_reported":1767456738,"current_range_meters":6400,"station_id":"ce4bh412rcd13ifvqds0","pricing_plan_id":"cebpf4jnsgd1na2vs0mg"},{"bike_id":"cacd189b-364d-4b1a-8882-a16ba27a8c11","system_id":"levelo_inurba_marseille","lat":43.23801,"lon":5.36615,"is_reserved":false,"is_disabled":false,"rental_uris":{"android":"levelo://app?vid=cacd189b-364d-4b1a-8882-a16ba27a8c11","ios":"levelo://app?vid=cacd189b-364d-4b1a-8882-a16ba27a8c11"},"vehicle_type_id":"4","last_reported":1767456738,"current_range_meters":6400,"station_id":"st_d3nk18o9ro0c73en2l3g","pricing_plan_id":"cebpf4jnsgd1na2vs0mg"},{"bike_id":"0c95dd9f-c660-4b76-b09f-1fe6a5fcdd5e","system_id":"levelo_inurba_marseille","lat":43.32362,"lon":5.36744,"is_reserved":false,"is_disabled":false,"rental_uris":{"android":"levelo://app?vid=0c95dd9f-c660-4b76-b09f-1fe6a5fcdd5e","ios":"levelo://app?vid=0c95dd9f-c660-4b76-b09f-1fe6a5fcdd5e"},"vehicle_type_id":"4","last_reported":1767456738,"current_range_meters":6400,"station_id":"ce4bhsh2rcd13ifvqi2g","pricing_plan_id":"cebpf4jnsgd1na2vs0mg"},{"bike_id":"2cd74853-5047-4511-932d-69e4273bcd1e","system_id":"levelo_inurba_marseille","lat":43.229275,"lon":5.353798,"is_reserved":false,"is_disabled":false,"rental_uris":{"android":"levelo://app?vid=2cd74853-5047-4511-932d-69e4273bcd1e","ios":"levelo://app?vid=2cd74853-5047-4511-932d-69e4273bcd1e"},"vehicle_type_id":"4","last_reported":1767456738,"current_range_meters":6400,"station_id":"cpo3532slgdg3j2ikp40","pricing_plan_id":"cebpf4jnsgd1na2vs0mg"},{"bike_id":"f88d60d0-86d2-4d4b-b3b2-e73e0d897671","system_id":"levelo_inurba_marseille","lat":43.28362,"lon":5.3965,"is_reserved":false,"is_disabled":true,"rental_uris":{"android":"levelo://app?vid=f88d60d0-86d2-4d4b-b3b2-e73e0d897671","ios":"levelo://app?vid=f88d60d0-86d2-4d4b-b3b2-e73e0d897671"},"vehicle_type_id":"4","last_reported":1767456738,"current_range_meters":6400,"station_id":"","pricing_plan_id":"cebpf4jnsgd1na2vs0mg"},{"bike_id":"8b720c35-4823-48af-825c-0c71ab5317be","system_id":"levelo_inurba_marseille","lat":43.27953,"lon":5.41038,"is_reserved":false,"is_disabled":true,"rental_uris":{"android":"levelo://app?vid=8b720c35-4823-48af-825c-0c71ab5317be","ios":"levelo://app?vid=8b720c35-4823-48af-825c-0c71ab5317be"},"vehicle_type_id":"4","last_reported":1767456738,"current_range_meters":6400,"station_id":"ce4bhnp2rcd13ifvqh0g","pricing_plan_id":"cebpf4jnsgd1na2vs0mg"},{"bike_id":"b069e66b-3d24-44ee-a3b6-26964d74bee5","system_id":"levelo_inurba_marseille","lat":43.2801,"lon":5.40601,"is_reserved":false,"is_disabled":false,"rental_uris":{"android":"levelo://app?vid=b069e66b-3d24-44ee-a3b6-26964d74bee5","ios":"levelo://app?vid=b069e66b-3d24-44ee-a3b6-26964d74bee5"},"vehicle_type_id":"4","last_reported":1767456738,"current_range_meters":6400,"station_id":"","pricing_plan_id":"cebpf4jnsgd1na2vs0mg"},{"bike_id":"f67fdd8e-3a18-4359-8f12-09494150cb39","system_id":"levelo_inurba_marseille","lat":43.2439,"lon":5.37059,"is_reserved":false,"is_disabled":false,"rental_uris":{"android":"levelo://app?vid=f67fdd8e-3a18-4359-8f12-09494150cb39","ios":"levelo://app?vid=f67fdd8e-3a18-4359-8f12-09494150cb39"},"vehicle_type_id":"4","last_reported":1767456738,"current_range_meters":6400,"station_id":"ce4bhhh2rcd13ifvqfk0","pricing_plan_id":"cebpf4jnsgd1na2vs0mg"},{"bike_id":"9ac66994-272c-4446-9157-a3f28373efae","system_id":"levelo_inurba_marseille","lat":43.24612,"lon":5.43147,"is_reserved":false,"is_disabled":false,"rental_uris":{"android":"levelo://app?vid=9ac66994-272c-4446-9157-a3f28373efae","ios":"levelo://app?vid=9ac66994-272c-4446-9157-a3f28373efae"},"vehicle_type_id":"4","last_reported":1767456738,"current_range_meters":6400,"station_id":"st_d2m6c4gdas8pm72e190g","pricing_plan_id":"cebpf4jnsgd1na2vs0mg"},{"bike_id":"93e27f2e-18ba-40e2-aeee-5f11ac3d2fb5","system_id":"levelo_inurba_marseille","lat":43.29928,"lon":5.36515,"is_reserved":false,"is_disabled":false,"rental_uris":{"android":"levelo://app?vid=93e27f2e-18ba-40e2-aeee-5f11ac3d2fb5","ios":"levelo://app?vid=93e27f2e-18ba-40e2-aeee-5f11ac3d2fb5"},"vehicle_type_id":"4","last_reported":1767456738,"current_range_meters":6400,"station_id":"ce4bgm92rcd13ifvqbr0","pricing_plan_id":"cebpf4jnsgd1na2vs0mg"},{"bike_id":"02cb24cc-e062-4b73-80fd-141f91a697f7","system_id":"levelo_inurba_marseille","lat":43.3156,"lon":5.37637,"is_reserved":false,"is_disabled":false,"rental_uris":{"android":"levelo://app?vid=02cb24cc-e062-4b73-80fd-141f91a697f7","ios":"levelo://app?vid=02cb24cc-e062-4b73-80fd-141f91a697f7"},"vehicle_type_id":"4","last_reported":1767456738,"current_range_meters":6400,"station_id":"","pricing_plan_id":"cebpf4jnsgd1na2vs0mg"},{"bike_id":"7304dd23-e185-4b36-b681-fec4a7828f7d","system_id":"levelo_inurba_marseille","lat":43.24181,"lon":5.39727,"is_reserved":false,"is_disabled":false,"rental_uris":{"android":"levelo://app?vid=7304dd23-e185-4b36-b681-fec4a7828f7d","ios":"levelo://app?vid=7304dd23-e185-4b36-b681-fec4a7828f7d"},"vehicle_type_id":"4","last_reported":1767456738,"current_range_meters":6400,"station_id":"ce4bhn12rcd13ifvqgpg","pricing_plan_id":"cebpf4jnsgd1na2vs0mg"},{"bike_id":"0adbbbca-aa96-4359-84ce-770238edac5c","system_id":"levelo_inurba_marseille","lat":43.26958,"lon":5.38629,"is_reserved":false,"is_disabled":false,"rental_uris":{"android":"levelo://app?vid=0adbbbca-aa96-4359-84ce-770238edac5c","ios":"levelo://app?vid=0adbbbca-aa96-4359-84ce-770238edac5c"},"vehicle_type_id":"4","last_reported":1767456738,"current_range_meters":6400,"station_id":"ce4bhh92rcd13ifvqfh0","pricing_plan_id":"cebpf4jnsgd1na2vs0mg"},{"bike_id":"73b27b4f-31a0-4739-afbf-b9a30438935b","system_id":"levelo_inurba_marseille","lat":43.27672,"lon":5.38366,"is_reserved":false,"is_disabled":false,"rental_uris":{"android":"levelo://app?vid=73b27b4f-31a0-4739-afbf-b9a30438935b","ios":"levelo://app?vid=73b27b4f-31a0-4739-afbf-b9a30438935b"},"vehicle_type_id":"4","last_reported":1767456738,"current_range_meters":6400,"station_id":"ce4bh512rcd13ifvqe2g","pricing_plan_id":"cebpf4jnsgd1na2vs0mg"},{"bike_id":"ddadb22a-87ae-403a-8f50-fcfddb4a2105","system_id":"levelo_inurba_marseille","lat":43.28471,"lon":5.38417,"is_reserved":false,"is_disabled":false,"rental_uris":{"android":"levelo://app?vid=ddadb22a-87ae-403a-8f50-fcfddb4a2105","ios":"levelo://app?vid=ddadb22a-87ae-403a-8f50-fcfddb4a2105"},"vehicle_type_id":"4","last_reported":1767456738,"current_range_meters":6800,"station_id":"ce4bh512rcd13ifvqe3g","pricing_plan_id":"cebpf4jnsgd1na2vs0mg"},{"bike_id":"e614cec8-6960-457b-8512-3755654f9453","system_id":"levelo_inurba_marseille","lat":43.28624,"lon":5.35111,"is_reserved":false,"is_disabled":false,"rental_uris":{"android":"levelo://app?vid=e614cec8-6960-457b-8512-3755654f9453","ios":"levelo://app?vid=e614cec8-6960-457b-8512-3755654f9453"},"vehicle_type_id":"4","last_reported":1767456738,"current_range_meters":6800,"station_id":"ce4bhch2rcd13ifvqeug","pricing_plan_id":"cebpf4jnsgd1na2vs0mg"},{"bike_id":"c4132bbb-772e-48f0-90d7-cbd352ee8290","system_id":"levelo_inurba_marseille","lat":43.29604,"lon":5.37689,"is_reserved":false,"is_disabled":false,"rental_uris":{"android":"levelo://app?vid=c4132bbb-772e-48f0-90d7-cbd352ee8290","ios":"levelo://app?vid=c4132bbb-772e-48f0-90d7-cbd352ee8290"},"vehicle_type_id":"4","last_reported":1767456738,"current_range_meters":6800,"station_id":"ce4bgi92rcd13ifvqb90","pricing_plan_id":"cebpf4jnsgd1na2vs0mg"},{"bike_id":"76ec9d64-19dc-4eb3-b663-a577b9c95d4a","system_id":"levelo_inurba_marseille","lat":43.30138,"lon":5.37411,"is_reserved":false,"is_disabled":false,"rental_uris":{"android":"levelo://app?vid=76ec9d64-19dc-4eb3-b663-a577b9c95d4a","ios":"levelo://app?vid=76ec9d64-19dc-4eb3-b663-a577b9c95d4a"},"vehicle_type_id":"4","last_reported":1767456738,"current_range_meters":6800,"station_id":"ce4bgs92rcd13ifvqcc0","pricing_plan_id":"cebpf4jnsgd1na2vs0mg"},{"bike_id":"eaa366bf-7a72-4e10-a28b-31349d7b017f","system_id":"levelo_inurba_marseille","lat":43.25333,"lon":5.42167,"is_reserved":false,"is_disabled":false,"rental_uris":{"android":"levelo://app?vid=eaa366bf-7a72-4e10-a28b-31349d7b017f","ios":"levelo://app?vid=eaa366bf-7a72-4e10-a28b-31349d7b017f"},"vehicle_type_id":"4","last_reported":1767456738,"current_range_meters":6800,"station_id":"st_d2m65c5bi1j21697t3ng","pricing_plan_id":"cebpf4jnsgd1na2vs0mg"},{"bike_id":"6af309a2-8f26-4463-a2f8-b68c7d811285","system_id":"levelo_inurba_marseille","lat":43.30841,"lon":5.37516,"is_reserved":false,"is_disabled":false,"rental_uris":{"android":"levelo://app?vid=6af309a2-8f26-4463-a2f8-b68c7d811285","ios":"levelo://app?vid=6af309a2-8f26-4463-a2f8-b68c7d811285"},"vehicle_type_id":"4","last_reported":1767456738,"current_range_meters":6800,"station_id":"","pricing_plan_id":"cebpf4jnsgd1na2vs0mg"},{"bike_id":"1cb07a07-9f8b-49b3-899d-e4d88daca5ff","system_id":"levelo_inurba_marseille","lat":43.26024,"lon":5.40768,"is_reserved":false,"is_disabled":false,"rental_uris":{"android":"levelo://app?vid=1cb07a07-9f8b-49b3-899d-e4d88daca5ff","ios":"levelo://app?vid=1cb07a07-9f8b-49b3-899d-e4d88daca5ff"},"vehicle_type_id":"4","last_reported":1767456738,"current_range_meters":6800,"station_id":"","pricing_plan_id":"cebpf4jnsgd1na2vs0mg"},{"bike_id":"dc9feb7e-742c-4c15-83bb-7db4fa4848d4","system_id":"levelo_inurba_marseille","lat":43.32845,"lon":5.36683,"is_reserved":false,"is_disabled":false,"rental_uris":{"android":"levelo://app?vid=dc9feb7e-742c-4c15-83bb-7db4fa4848d4","ios":"levelo://app?vid=dc9feb7e-742c-4c15-83bb-7db4fa4848d4"},"vehicle_type_id":"4","last_reported":1767456738,"current_range_meters":6800,"station_id":"","pricing_plan_id":"cebpf4jnsgd1na2vs0mg"},{"bike_id":"8f35c5ae-9ed7-43ef-a485-284120ab6a08","system_id":"levelo_inurba_marseille","lat":43.29796,"lon":5.38108,"is_reserved":false,"is_disabled":false,"rental_uris":{"android":"levelo://app?vid=8f35c5ae-9ed7-43ef-a485-284120ab6a08","ios":"levelo://app?vid=8f35c5ae-9ed7-43ef-a485-284120ab6a08"},"vehicle_type_id":"4","last_reported":1767456738,"current_range_meters":6800,"station_id":"ce4bgip2rcd13ifvqbb0","pricing_plan_id":"cebpf4jnsgd1na2vs0mg"},{"bike_id":"3b391aa1-1907-4005-88cc-7a9ac12c81d0","system_id":"levelo_inurba_marseille","lat":43.23946,"lon":5.36618,"is_reserved":false,"is_disabled":false,"rental_uris":{"android":"levelo://app?vid=3b391aa1-1907-4005-88cc-7a9ac12c81d0","ios":"levelo://app?vid=3b391aa1-1907-4005-88cc-7a9ac12c81d0"},"vehicle_type_id":"4","last_reported":1767456738,"current_range_meters":6800,"station_id":"ce4bhi12rcd13ifvqfp0","pricing_plan_id":"cebpf4jnsgd1na2vs0mg"},{"bike_id":"1e895ccc-52e7-4971-b1eb-1726250f7268","system_id":"levelo_inurba_marseille","lat":43.2293,"lon":5.35374,"is_reserved":false,"is_disabled":false,"rental_uris":{"android":"levelo://app?vid=1e895ccc-52e7-4971-b1eb-1726250f7268","ios":"levelo://app?vid=1e895ccc-52e7-4971-b1eb-1726250f7268"},"vehicle_type_id":"4","last_reported":1767456738,"current_range_meters":6800,"station_id":"cpo3532slgdg3j2ikp40","pricing_plan_id":"cebpf4jnsgd1na2vs0mg"},{"bike_id":"207f7791-00c4-40a1-8384-e2291dbc4baf","system_id":"levelo_inurba_marseille","lat":43.2319,"lon":5.35553,"is_reserved":false,"is_disabled":false,"rental_uris":{"android":"levelo://app?vid=207f7791-00c4-40a1-8384-e2291dbc4baf","ios":"levelo://app?vid=207f7791-00c4-40a1-8384-e2291dbc4baf"},"vehicle_type_id":"4","last_reported":1767456738,"current_range_meters":6800,"station_id":"ce4bhu92rcd13ifvqi70","pricing_plan_id":"cebpf4jnsgd1na2vs0mg"},{"bike_id":"3c3bc7db-3931-439e-9639-224f92d0a1d1","system_id":"levelo_inurba_marseille","lat":43.29873,"lon":5.38906,"is_reserved":false,"is_disabled":false,"rental_uris":{"android":"levelo://app?vid=3c3bc7db-3931-439e-9639-224f92d0a1d1","ios":"levelo://app?vid=3c3bc7db-3931-439e-9639-224f92d0a1d1"},"vehicle_type_id":"4","last_reported":1767456738,"current_range_meters":6800,"station_id":"ce4bh392rcd13ifvqdl0","pricing_plan_id":"cebpf4jnsgd1na2vs0mg"},{"bike_id":"bf53d760-628f-44cd-8b74-e91fb1b21691","system_id":"levelo_inurba_marseille","lat":43.30265,"lon":5.37717,"is_reserved":false,"is_disabled":false,"rental_uris":{"android":"levelo://app?vid=bf53d760-628f-44cd-8b74-e91fb1b21691","ios":"levelo://app?vid=bf53d760-628f-44cd-8b74-e91fb1b21691"},"vehicle_type_id":"4","last_reported":1767456738,"current_range_meters":6800,"station_id":"ce4bguh2rcd13ifvqcj0","pricing_plan_id":"cebpf4jnsgd1na2vs0mg"},{"bike_id":"e493b9f3-75a9-4b83-a37d-a0c34b5cbb80","system_id":"levelo_inurba_marseille","lat":43.24645,"lon":5.3889,"is_reserved":false,"is_disabled":false,"rental_uris":{"android":"levelo://app?vid=e493b9f3-75a9-4b83-a37d-a0c34b5cbb80","ios":"levelo://app?vid=e493b9f3-75a9-4b83-a37d-a0c34b5cbb80"},"vehicle_type_id":"4","last_reported":1767456738,"current_range_meters":6800,"station_id":"ce4bhg12rcd13ifvqf60","pricing_plan_id":"cebpf4jnsgd1na2vs0mg"},{"bike_id":"42d9e107-b2a6-4b81-b9a0-7db96c31f6d4","system_id":"levelo_inurba_marseille","lat":43.29364,"lon":5.37844,"is_reserved":false,"is_disabled":false,"rental_uris":{"android":"levelo://app?vid=42d9e107-b2a6-4b81-b9a0-7db96c31f6d4","ios":"levelo://app?vid=42d9e107-b2a6-4b81-b9a0-7db96c31f6d4"},"vehicle_type_id":"4","last_reported":1767456738,"current_range_meters":7200,"station_id":"ce4bgjh2rcd13ifvqbf0","pricing_plan_id":"cebpf4jnsgd1na2vs0mg"},{"bike_id":"62d99a00-3637-46ba-a6ee-d8aa40079683","system_id":"levelo_inurba_marseille","lat":43.29071,"lon":5.37161,"is_reserved":false,"is_disabled":false,"rental_uris":{"android":"levelo://app?vid=62d99a00-3637-46ba-a6ee-d8aa40079683","ios":"levelo://app?vid=62d99a00-3637-46ba-a6ee-d8aa40079683"},"vehicle_type_id":"4","last_reported":1767456738,"current_range_meters":7200,"station_id":"ce4bh5p2rcd13ifvqe4g","pricing_plan_id":"cebpf4jnsgd1na2vs0mg"},{"bike_id":"34f3a292-6f55-4da9-baea-9c8e3ef09af6","system_id":"levelo_inurba_marseille","lat":43.25503,"lon":5.37653,"is_reserved":false,"is_disabled":false,"rental_uris":{"android":"levelo://app?vid=34f3a292-6f55-4da9-baea-9c8e3ef09af6","ios":"levelo://app?vid=34f3a292-6f55-4da9-baea-9c8e3ef09af6"},"vehicle_type_id":"4","last_reported":1767456738,"current_range_meters":7200,"station_id":"ce4bhh12rcd13ifvqff0","pricing_plan_id":"cebpf4jnsgd1na2vs0mg"},{"bike_id":"607f6356-92f4-49b1-8436-7911c576c661","system_id":"levelo_inurba_marseille","lat":43.29271,"lon":5.374,"is_reserved":false,"is_disabled":false,"rental_uris":{"android":"levelo://app?vid=607f6356-92f4-49b1-8436-7911c576c661","ios":"levelo://app?vid=607f6356-92f4-49b1-8436-7911c576c661"},"vehicle_type_id":"4","last_reported":1767456738,"current_range_meters":7200,"station_id":"","pricing_plan_id":"cebpf4jnsgd1na2vs0mg"},{"bike_id":"1a9cb749-bacd-49f4-9f8b-e93e98ea3f8f","system_id":"levelo_inurba_marseille","lat":43.30113,"lon":5.38227,"is_reserved":false,"is_disabled":false,"rental_uris":{"android":"levelo://app?vid=1a9cb749-bacd-49f4-9f8b-e93e98ea3f8f","ios":"levelo://app?vid=1a9cb749-bacd-49f4-9f8b-e93e98ea3f8f"},"vehicle_type_id":"4","last_reported":1767456738,"current_range_meters":7200,"station_id":"","pricing_plan_id":"cebpf4jnsgd1na2vs0mg"},{"bike_id":"be59f674-a0bd-4fc3-a219-9eada39112de","system_id":"levelo_inurba_marseille","lat":43.29956,"lon":5.37372,"is_reserved":false,"is_disabled":false,"rental_uris":{"android":"levelo://app?vid=be59f674-a0bd-4fc3-a219-9eada39112de","ios":"levelo://app?vid=be59f674-a0bd-4fc3-a219-9eada39112de"},"vehicle_type_id":"4","last_reported":1767456738,"current_range_meters":7200,"station_id":"","pricing_plan_id":"cebpf4jnsgd1na2vs0mg"},{"bike_id":"3170b344-ccb5-4e10-87d2-0bfacd70bd7f","system_id":"levelo_inurba_marseille","lat":43.29614,"lon":5.37711,"is_reserved":false,"is_disabled":false,"rental_uris":{"android":"levelo://app?vid=3170b344-ccb5-4e10-87d2-0bfacd70bd7f","ios":"levelo://app?vid=3170b344-ccb5-4e10-87d2-0bfacd70bd7f"},"vehicle_type_id":"4","last_reported":1767456738,"current_range_meters":7200,"station_id":"ce4bgi92rcd13ifvqb90","pricing_plan_id":"cebpf4jnsgd1na2vs0mg"},{"bike_id":"47a9e8ce-5a44-441a-9695-e8dc7f3c9dfa","system_id":"levelo_inurba_marseille","lat":43.30724,"lon":5.4243,"is_reserved":false,"is_disabled":false,"rental_uris":{"android":"levelo://app?vid=47a9e8ce-5a44-441a-9695-e8dc7f3c9dfa","ios":"levelo://app?vid=47a9e8ce-5a44-441a-9695-e8dc7f3c9dfa"},"vehicle_type_id":"4","last_reported":1767456738,"current_range_meters":7200,"station_id":"st_cvj6ca6bvosntc0bfgr0","pricing_plan_id":"cebpf4jnsgd1na2vs0mg"},{"bike_id":"f73476a1-8b2a-42dc-b112-79fd77bdf5e0","system_id":"levelo_inurba_marseille","lat":43.27201,"lon":5.40976,"is_reserved":false,"is_disabled":false,"rental_uris":{"android":"levelo://app?vid=f73476a1-8b2a-42dc-b112-79fd77bdf5e0","ios":"levelo://app?vid=f73476a1-8b2a-42dc-b112-79fd77bdf5e0"},"vehicle_type_id":"4","last_reported":1767456738,"current_range_meters":7200,"station_id":"ce4bhl12rcd13ifvqgf0","pricing_plan_id":"cebpf4jnsgd1na2vs0mg"},{"bike_id":"b8312627-13c4-4db1-bc05-2c9ecea4546c","system_id":"levelo_inurba_marseille","lat":43.28454,"lon":5.39241,"is_reserved":false,"is_disabled":false,"rental_uris":{"android":"levelo://app?vid=b8312627-13c4-4db1-bc05-2c9ecea4546c","ios":"levelo://app?vid=b8312627-13c4-4db1-bc05-2c9ecea4546c"},"vehicle_type_id":"4","last_reported":1767456738,"current_range_meters":7200,"station_id":"ce4bhoh2rcd13ifvqh5g","pricing_plan_id":"cebpf4jnsgd1na2vs0mg"},{"bike_id":"ddea6b53-a329-474e-b86a-40e23ca5f3fa","system_id":"levelo_inurba_marseille","lat":43.26213,"lon":5.37439,"is_reserved":false,"is_disabled":false,"rental_uris":{"android":"levelo://app?vid=ddea6b53-a329-474e-b86a-40e23ca5f3fa","ios":"levelo://app?vid=ddea6b53-a329-474e-b86a-40e23ca5f3fa"},"vehicle_type_id":"4","last_reported":1767456738,"current_range_meters":7200,"station_id":"ce4bhgp2rcd13ifvqfc0","pricing_plan_id":"cebpf4jnsgd1na2vs0mg"},{"bike_id":"d21a3e34-58bc-4d1b-9ac9-a8532bb50fd1","system_id":"levelo_inurba_marseille","lat":43.29815,"lon":5.44043,"is_reserved":false,"is_disabled":false,"rental_uris":{"android":"levelo://app?vid=d21a3e34-58bc-4d1b-9ac9-a8532bb50fd1","ios":"levelo://app?vid=d21a3e34-58bc-4d1b-9ac9-a8532bb50fd1"},"vehicle_type_id":"4","last_reported":1767456738,"current_range_meters":7200,"station_id":"st_d3jp68qikq2c7381ktn0","pricing_plan_id":"cebpf4jnsgd1na2vs0mg"},{"bike_id":"5ec75759-55d6-4224-b4a0-635e337d68b2","system_id":"levelo_inurba_marseille","lat":43.30547,"lon":5.36545,"is_reserved":false,"is_disabled":false,"rental_uris":{"android":"levelo://app?vid=5ec75759-55d6-4224-b4a0-635e337d68b2","ios":"levelo://app?vid=5ec75759-55d6-4224-b4a0-635e337d68b2"},"vehicle_type_id":"4","last_reported":1767456738,"current_range_meters":7200,"station_id":"ce4bgs12rcd13ifvqcag","pricing_plan_id":"cebpf4jnsgd1na2vs0mg"},{"bike_id":"d113d57c-818c-4515-8f14-08e427a77b3e","system_id":"levelo_inurba_marseille","lat":43.290078,"lon":5.356119,"is_reserved":false,"is_disabled":false,"rental_uris":{"android":"levelo://app?vid=d113d57c-818c-4515-8f14-08e427a77b3e","ios":"levelo://app?vid=d113d57c-818c-4515-8f14-08e427a77b3e"},"vehicle_type_id":"4","last_reported":1767456738,"current_range_meters":7200,"station_id":"ce4bhb92rcd13ifvqen0","pricing_plan_id":"cebpf4jnsgd1na2vs0mg"},{"bike_id":"a5e341dd-f678-4ec1-a7c6-1c53bd98d5b6","system_id":"levelo_inurba_marseille","lat":43.29748,"lon":5.38048,"is_reserved":false,"is_disabled":false,"rental_uris":{"android":"levelo://app?vid=a5e341dd-f678-4ec1-a7c6-1c53bd98d5b6","ios":"levelo://app?vid=a5e341dd-f678-4ec1-a7c6-1c53bd98d5b6"},"vehicle_type_id":"4","last_reported":1767456738,"current_range_meters":7200,"station_id":"","pricing_plan_id":"cebpf4jnsgd1na2vs0mg"},{"bike_id":"eebd9e1f-1ba5-43d8-ba3e-599639161f1a","system_id":"levelo_inurba_marseille","lat":43.27348,"lon":5.39096,"is_reserved":false,"is_disabled":false,"rental_uris":{"android":"levelo://app?vid=eebd9e1f-1ba5-43d8-ba3e-599639161f1a","ios":"levelo://app?vid=eebd9e1f-1ba5-43d8-ba3e-599639161f1a"},"vehicle_type_id":"4","last_reported":1767456738,"current_range_meters":7200,"station_id":"ce4bhgp2rcd13ifvqfe0","pricing_plan_id":"cebpf4jnsgd1na2vs0mg"},{"bike_id":"7e3e607f-ab01-4059-8cb4-41a5b78f85a6","system_id":"levelo_inurba_marseille","lat":43.28007,"lon":5.41661,"is_reserved":false,"is_disabled":false,"rental_uris":{"android":"levelo://app?vid=7e3e607f-ab01-4059-8cb4-41a5b78f85a6","ios":"levelo://app?vid=7e3e607f-ab01-4059-8cb4-41a5b78f85a6"},"vehicle_type_id":"4","last_reported":1767456738,"current_range_meters":7200,"station_id":"ce4bho12rcd13ifvqh1g","pricing_plan_id":"cebpf4jnsgd1na2vs0mg"},{"bike_id":"d21ecf43-9b53-4ee7-aa3a-25d90ceab79f","system_id":"levelo_inurba_marseille","lat":43.24075,"lon":5.37768,"is_reserved":false,"is_disabled":false,"rental_uris":{"android":"levelo://app?vid=d21ecf43-9b53-4ee7-aa3a-25d90ceab79f","ios":"levelo://app?vid=d21ecf43-9b53-4ee7-aa3a-25d90ceab79f"},"vehicle_type_id":"4","last_reported":1767456738,"current_range_meters":7200,"station_id":"ce4bhnp2rcd13ifvqgvg","pricing_plan_id":"cebpf4jnsgd1na2vs0mg"},{"bike_id":"7a97e176-8039-4bfd-a5c1-b4e77eff01e2","system_id":"levelo_inurba_marseille","lat":43.28719,"lon":5.37932,"is_reserved":false,"is_disabled":false,"rental_uris":{"android":"levelo://app?vid=7a97e176-8039-4bfd-a5c1-b4e77eff01e2","ios":"levelo://app?vid=7a97e176-8039-4bfd-a5c1-b4e77eff01e2"},"vehicle_type_id":"4","last_reported":1767456738,"current_range_meters":7200,"station_id":"ce4bh9p2rcd13ifvqec0","pricing_plan_id":"cebpf4jnsgd1na2vs0mg"},{"bike_id":"37ef432c-009f-4e45-90d4-4795f9b7ca07","system_id":"levelo_inurba_marseille","lat":43.31697,"lon":5.40458,"is_reserved":false,"is_disabled":false,"rental_uris":{"android":"levelo://app?vid=37ef432c-009f-4e45-90d4-4795f9b7ca07","ios":"levelo://app?vid=37ef432c-009f-4e45-90d4-4795f9b7ca07"},"vehicle_type_id":"4","last_reported":1767456738,"current_range_meters":7200,"station_id":"ce4bh012rcd13ifvqd00","pricing_plan_id":"cebpf4jnsgd1na2vs0mg"},{"bike_id":"5c3fd8fa-1f47-4791-b997-9dfbc39e5952","system_id":"levelo_inurba_marseille","lat":43.29525,"lon":5.38544,"is_reserved":false,"is_disabled":false,"rental_uris":{"android":"levelo://app?vid=5c3fd8fa-1f47-4791-b997-9dfbc39e5952","ios":"levelo://app?vid=5c3fd8fa-1f47-4791-b997-9dfbc39e5952"},"vehicle_type_id":"4","last_reported":1767456738,"current_range_meters":8000,"station_id":"ce4bgih2rcd13ifvqba0","pricing_plan_id":"cebpf4jnsgd1na2vs0mg"},{"bike_id":"f02b51c1-7fb3-4725-9f9f-cd35572fe48b","system_id":"levelo_inurba_marseille","lat":43.298013,"lon":5.380928,"is_reserved":false,"is_disabled":false,"rental_uris":{"android":"levelo://app?vid=f02b51c1-7fb3-4725-9f9f-cd35572fe48b","ios":"levelo://app?vid=f02b51c1-7fb3-4725-9f9f-cd35572fe48b"},"vehicle_type_id":"4","last_reported":1767456738,"current_range_meters":8000,"station_id":"","pricing_plan_id":"cebpf4jnsgd1na2vs0mg"},{"bike_id":"5f5ed7b5-474d-41b2-89cd-47b99b1d326f","system_id":"levelo_inurba_marseille","lat":43.32094,"lon":5.3679,"is_reserved":false,"is_disabled":false,"rental_uris":{"android":"levelo://app?vid=5f5ed7b5-474d-41b2-89cd-47b99b1d326f","ios":"levelo://app?vid=5f5ed7b5-474d-41b2-89cd-47b99b1d326f"},"vehicle_type_id":"4","last_reported":1767456738,"current_range_meters":8000,"station_id":"ce4bhrh2rcd13ifvqhug","pricing_plan_id":"cebpf4jnsgd1na2vs0mg"},{"bike_id":"5252e4c3-9741-4888-8fa2-97525ca81144","system_id":"levelo_inurba_marseille","lat":43.24072,"lon":5.37757,"is_reserved":false,"is_disabled":false,"rental_uris":{"android":"levelo://app?vid=5252e4c3-9741-4888-8fa2-97525ca81144","ios":"levelo://app?vid=5252e4c3-9741-4888-8fa2-97525ca81144"},"vehicle_type_id":"4","last_reported":1767456738,"current_range_meters":8000,"station_id":"ce4bhnp2rcd13ifvqgvg","pricing_plan_id":"cebpf4jnsgd1na2vs0mg"},{"bike_id":"bbd145e1-db8d-40b0-b146-2b7542d40bf1","system_id":"levelo_inurba_marseille","lat":43.26799,"lon":5.40261,"is_reserved":false,"is_disabled":false,"rental_uris":{"android":"levelo://app?vid=bbd145e1-db8d-40b0-b146-2b7542d40bf1","ios":"levelo://app?vid=bbd145e1-db8d-40b0-b146-2b7542d40bf1"},"vehicle_type_id":"4","last_reported":1767456738,"current_range_meters":8000,"station_id":"ce501612rcd8frsf0b60","pricing_plan_id":"cebpf4jnsgd1na2vs0mg"},{"bike_id":"faae1c22-eb69-4a6a-9fdd-05bf4896a93c","system_id":"levelo_inurba_marseille","lat":43.28482,"lon":5.48392,"is_reserved":false,"is_disabled":false,"rental_uris":{"android":"levelo://app?vid=faae1c22-eb69-4a6a-9fdd-05bf4896a93c","ios":"levelo://app?vid=faae1c22-eb69-4a6a-9fdd-05bf4896a93c"},"vehicle_type_id":"4","last_reported":1767456738,"current_range_meters":8000,"station_id":"","pricing_plan_id":"cebpf4jnsgd1na2vs0mg"},{"bike_id":"27612265-e008-433b-95e2-19d796db8b2b","system_id":"levelo_inurba_marseille","lat":43.28859,"lon":5.42522,"is_reserved":false,"is_disabled":false,"rental_uris":{"android":"levelo://app?vid=27612265-e008-433b-95e2-19d796db8b2b","ios":"levelo://app?vid=27612265-e008-433b-95e2-19d796db8b2b"},"vehicle_type_id":"4","last_reported":1767456738,"current_range_meters":8000,"station_id":"st_d3b462108ojc7389ooeg","pricing_plan_id":"cebpf4jnsgd1na2vs0mg"},{"bike_id":"61de8b69-7704-4d24-bebb-39e846fd4b45","system_id":"levelo_inurba_marseille","lat":43.30091,"lon":5.37798,"is_reserved":false,"is_disabled":false,"rental_uris":{"android":"levelo://app?vid=61de8b69-7704-4d24-bebb-39e846fd4b45","ios":"levelo://app?vid=61de8b69-7704-4d24-bebb-39e846fd4b45"},"vehicle_type_id":"4","last_reported":1767456738,"current_range_meters":8000,"station_id":"","pricing_plan_id":"cebpf4jnsgd1na2vs0mg"},{"bike_id":"9a67c4b7-b002-47fb-91b0-cf920a32496e","system_id":"levelo_inurba_marseille","lat":43.26563,"lon":5.4032,"is_reserved":false,"is_disabled":false,"rental_uris":{"android":"levelo://app?vid=9a67c4b7-b002-47fb-91b0-cf920a32496e","ios":"levelo://app?vid=9a67c4b7-b002-47fb-91b0-cf920a32496e"},"vehicle_type_id":"4","last_reported":1767456738,"current_range_meters":8000,"station_id":"ce4bhmp2rcd13ifvqgng","pricing_plan_id":"cebpf4jnsgd1na2vs0mg"},{"bike_id":"7ee1c09d-a306-4e72-a256-6549ce7578c9","system_id":"levelo_inurba_marseille","lat":43.29163,"lon":5.37299,"is_reserved":false,"is_disabled":false,"rental_uris":{"android":"levelo://app?vid=7ee1c09d-a306-4e72-a256-6549ce7578c9","ios":"levelo://app?vid=7ee1c09d-a306-4e72-a256-6549ce7578c9"},"vehicle_type_id":"4","last_reported":1767456738,"current_range_meters":8000,"station_id":"","pricing_plan_id":"cebpf4jnsgd1na2vs0mg"},{"bike_id":"cdb95399-40ba-4ee9-9e4b-631cf7ca51d9","system_id":"levelo_inurba_marseille","lat":43.282725,"lon":5.350643,"is_reserved":false,"is_disabled":false,"rental_uris":{"android":"levelo://app?vid=cdb95399-40ba-4ee9-9e4b-631cf7ca51d9","ios":"levelo://app?vid=cdb95399-40ba-4ee9-9e4b-631cf7ca51d9"},"vehicle_type_id":"4","last_reported":1767456738,"current_range_meters":8000,"station_id":"ce4bhbp2rcd13ifvqerg","pricing_plan_id":"cebpf4jnsgd1na2vs0mg"},{"bike_id":"e12e40c2-bd4b-4944-ae3a-364b1bf04ed9","system_id":"levelo_inurba_marseille","lat":43.27048,"lon":5.40261,"is_reserved":false,"is_disabled":false,"rental_uris":{"android":"levelo://app?vid=e12e40c2-bd4b-4944-ae3a-364b1bf04ed9","ios":"levelo://app?vid=e12e40c2-bd4b-4944-ae3a-364b1bf04ed9"},"vehicle_type_id":"4","last_reported":1767456738,"current_range_meters":8000,"station_id":"ce4bhk92rcd13ifvqgc0","pricing_plan_id":"cebpf4jnsgd1na2vs0mg"},{"bike_id":"5e634db4-5ac1-4a49-b429-84cae1f53f47","system_id":"levelo_inurba_marseille","lat":43.26782,"lon":5.39408,"is_reserved":false,"is_disabled":false,"rental_uris":{"android":"levelo://app?vid=5e634db4-5ac1-4a49-b429-84cae1f53f47","ios":"levelo://app?vid=5e634db4-5ac1-4a49-b429-84cae1f53f47"},"vehicle_type_id":"4","last_reported":1767456738,"current_range_meters":8000,"station_id":"ce4bhh12rcd13ifvqfg0","pricing_plan_id":"cebpf4jnsgd1na2vs0mg"},{"bike_id":"03395ae2-aecb-4dc7-941a-44274a6d702f","system_id":"levelo_inurba_marseille","lat":43.2811,"lon":5.37846,"is_reserved":false,"is_disabled":false,"rental_uris":{"android":"levelo://app?vid=03395ae2-aecb-4dc7-941a-44274a6d702f","ios":"levelo://app?vid=03395ae2-aecb-4dc7-941a-44274a6d702f"},"vehicle_type_id":"4","last_reported":1767456738,"current_range_meters":8000,"station_id":"ce4bha12rcd13ifvqee0","pricing_plan_id":"cebpf4jnsgd1na2vs0mg"},{"bike_id":"1543eb88-e233-43c6-b08e-54d2a1b645db","system_id":"levelo_inurba_marseille","lat":43.33548,"lon":5.37464,"is_reserved":false,"is_disabled":false,"rental_uris":{"android":"levelo://app?vid=1543eb88-e233-43c6-b08e-54d2a1b645db","ios":"levelo://app?vid=1543eb88-e233-43c6-b08e-54d2a1b645db"},"vehicle_type_id":"4","last_reported":1767456738,"current_range_meters":8000,"station_id":"st_d46tts09ee8s73dlu43g","pricing_plan_id":"cebpf4jnsgd1na2vs0mg"},{"bike_id":"604986d5-d3dd-4f4e-92ae-738d711821fd","system_id":"levelo_inurba_marseille","lat":43.29274,"lon":5.40099,"is_reserved":false,"is_disabled":false,"rental_uris":{"android":"levelo://app?vid=604986d5-d3dd-4f4e-92ae-738d711821fd","ios":"levelo://app?vid=604986d5-d3dd-4f4e-92ae-738d711821fd"},"vehicle_type_id":"4","last_reported":1767456738,"current_range_meters":8000,"station_id":"ce4bh312rcd13ifvqdk0","pricing_plan_id":"cebpf4jnsgd1na2vs0mg"},{"bike_id":"4e1ba644-3743-4637-9554-6285bc281b0e","system_id":"levelo_inurba_marseille","lat":43.29275,"lon":5.37608,"is_reserved":false,"is_disabled":false,"rental_uris":{"android":"levelo://app?vid=4e1ba644-3743-4637-9554-6285bc281b0e","ios":"levelo://app?vid=4e1ba644-3743-4637-9554-6285bc281b0e"},"vehicle_type_id":"4","last_reported":1767456738,"current_range_meters":8000,"station_id":"ce4bgi12rcd13ifvqb80","pricing_plan_id":"cebpf4jnsgd1na2vs0mg"},{"bike_id":"cf1dde7c-2421-4aa1-aa32-84342583dd5b","system_id":"levelo_inurba_marseille","lat":43.24081,"lon":5.37749,"is_reserved":false,"is_disabled":false,"rental_uris":{"android":"levelo://app?vid=cf1dde7c-2421-4aa1-aa32-84342583dd5b","ios":"levelo://app?vid=cf1dde7c-2421-4aa1-aa32-84342583dd5b"},"vehicle_type_id":"4","last_reported":1767456738,"current_range_meters":8000,"station_id":"ce4bhnp2rcd13ifvqgvg","pricing_plan_id":"cebpf4jnsgd1na2vs0mg"},{"bike_id":"89bf8d0b-0109-4d46-bf26-285da566958b","system_id":"levelo_inurba_marseille","lat":43.31492,"lon":5.37301,"is_reserved":false,"is_disabled":true,"rental_uris":{"android":"levelo://app?vid=89bf8d0b-0109-4d46-bf26-285da566958b","ios":"levelo://app?vid=89bf8d0b-0109-4d46-bf26-285da566958b"},"vehicle_type_id":"4","last_reported":1767456738,"current_range_meters":8000,"station_id":"ce4bgt12rcd13ifvqcd0","pricing_plan_id":"cebpf4jnsgd1na2vs0mg"},{"bike_id":"91458b19-cb25-4f18-83db-4ba9d96005a9","system_id":"levelo_inurba_marseille","lat":43.28606,"lon":5.39916,"is_reserved":false,"is_disabled":false,"rental_uris":{"android":"levelo://app?vid=91458b19-cb25-4f18-83db-4ba9d96005a9","ios":"levelo://app?vid=91458b19-cb25-4f18-83db-4ba9d96005a9"},"vehicle_type_id":"4","last_reported":1767456738,"current_range_meters":8000,"station_id":"ce4bho92rcd13ifvqh3g","pricing_plan_id":"cebpf4jnsgd1na2vs0mg"},{"bike_id":"333793e4-a418-4ee9-91ca-09c13eeb73ec","system_id":"levelo_inurba_marseille","lat":43.25584,"lon":5.38221,"is_reserved":false,"is_disabled":false,"rental_uris":{"android":"levelo://app?vid=333793e4-a418-4ee9-91ca-09c13eeb73ec","ios":"levelo://app?vid=333793e4-a418-4ee9-91ca-09c13eeb73ec"},"vehicle_type_id":"4","last_reported":1767456738,"current_range_meters":8000,"station_id":"ce4bhih2rcd13ifvqfs0","pricing_plan_id":"cebpf4jnsgd1na2vs0mg"},{"bike_id":"32088daf-19b4-43c2-bb3d-ac36d2b03bd3","system_id":"levelo_inurba_marseille","lat":43.24399,"lon":5.37069,"is_reserved":false,"is_disabled":false,"rental_uris":{"android":"levelo://app?vid=32088daf-19b4-43c2-bb3d-ac36d2b03bd3","ios":"levelo://app?vid=32088daf-19b4-43c2-bb3d-ac36d2b03bd3"},"vehicle_type_id":"4","last_reported":1767456738,"current_range_meters":8000,"station_id":"ce4bhhh2rcd13ifvqfk0","pricing_plan_id":"cebpf4jnsgd1na2vs0mg"},{"bike_id":"a3be4a7c-7544-49a9-8048-28fcde31ea3d","system_id":"levelo_inurba_marseille","lat":43.29273,"lon":5.37327,"is_reserved":false,"is_disabled":false,"rental_uris":{"android":"levelo://app?vid=a3be4a7c-7544-49a9-8048-28fcde31ea3d","ios":"levelo://app?vid=a3be4a7c-7544-49a9-8048-28fcde31ea3d"},"vehicle_type_id":"4","last_reported":1767456738,"current_range_meters":8000,"station_id":"","pricing_plan_id":"cebpf4jnsgd1na2vs0mg"},{"bike_id":"b357b06c-84a1-42eb-85bc-16a2d56a5e8b","system_id":"levelo_inurba_marseille","lat":43.30004,"lon":5.37337,"is_reserved":false,"is_disabled":false,"rental_uris":{"android":"levelo://app?vid=b357b06c-84a1-42eb-85bc-16a2d56a5e8b","ios":"levelo://app?vid=b357b06c-84a1-42eb-85bc-16a2d56a5e8b"},"vehicle_type_id":"4","last_reported":1767456738,"current_range_meters":8000,"station_id":"","pricing_plan_id":"cebpf4jnsgd1na2vs0mg"},{"bike_id":"df8cd3ba-6efb-4997-8f45-66c5df017b9d","system_id":"levelo_inurba_marseille","lat":43.30072,"lon":5.36436,"is_reserved":false,"is_disabled":false,"rental_uris":{"android":"levelo://app?vid=df8cd3ba-6efb-4997-8f45-66c5df017b9d","ios":"levelo://app?vid=df8cd3ba-6efb-4997-8f45-66c5df017b9d"},"vehicle_type_id":"4","last_reported":1767456738,"current_range_meters":8000,"station_id":"","pricing_plan_id":"cebpf4jnsgd1na2vs0mg"},{"bike_id":"a939b807-df4d-4473-b61a-46a9cd5ac744","system_id":"levelo_inurba_marseille","lat":43.33155,"lon":5.37688,"is_reserved":false,"is_disabled":false,"rental_uris":{"android":"levelo://app?vid=a939b807-df4d-4473-b61a-46a9cd5ac744","ios":"levelo://app?vid=a939b807-df4d-4473-b61a-46a9cd5ac744"},"vehicle_type_id":"4","last_reported":1767456738,"current_range_meters":8000,"station_id":"st_d46cu089ee8s73dldbu0","pricing_plan_id":"cebpf4jnsgd1na2vs0mg"},{"bike_id":"596f9f2e-754a-4bff-95d7-fb2758b09a2e","system_id":"levelo_inurba_marseille","lat":43.323648,"lon":5.367499,"is_reserved":false,"is_disabled":false,"rental_uris":{"android":"levelo://app?vid=596f9f2e-754a-4bff-95d7-fb2758b09a2e","ios":"levelo://app?vid=596f9f2e-754a-4bff-95d7-fb2758b09a2e"},"vehicle_type_id":"4","last_reported":1767456738,"current_range_meters":8000,"station_id":"ce4bhsh2rcd13ifvqi2g","pricing_plan_id":"cebpf4jnsgd1na2vs0mg"},{"bike_id":"c9d548ba-2a02-4b82-91f9-b5968320bd23","system_id":"levelo_inurba_marseille","lat":43.23196,"lon":5.35553,"is_reserved":false,"is_disabled":false,"rental_uris":{"android":"levelo://app?vid=c9d548ba-2a02-4b82-91f9-b5968320bd23","ios":"levelo://app?vid=c9d548ba-2a02-4b82-91f9-b5968320bd23"},"vehicle_type_id":"4","last_reported":1767456738,"current_range_meters":8000,"station_id":"ce4bhu92rcd13ifvqi70","pricing_plan_id":"cebpf4jnsgd1na2vs0mg"},{"bike_id":"557fcc01-1a31-4734-96a9-4bc57201480a","system_id":"levelo_inurba_marseille","lat":43.31583,"lon":5.37198,"is_reserved":false,"is_disabled":false,"rental_uris":{"android":"levelo://app?vid=557fcc01-1a31-4734-96a9-4bc57201480a","ios":"levelo://app?vid=557fcc01-1a31-4734-96a9-4bc57201480a"},"vehicle_type_id":"4","last_reported":1767456738,"current_range_meters":8000,"station_id":"","pricing_plan_id":"cebpf4jnsgd1na2vs0mg"},{"bike_id":"efd33062-2cef-445f-af98-648f578e9c2a","system_id":"levelo_inurba_marseille","lat":43.32645,"lon":5.41937,"is_reserved":false,"is_disabled":false,"rental_uris":{"android":"levelo://app?vid=efd33062-2cef-445f-af98-648f578e9c2a","ios":"levelo://app?vid=efd33062-2cef-445f-af98-648f578e9c2a"},"vehicle_type_id":"4","last_reported":1767456738,"current_range_meters":8400,"station_id":"","pricing_plan_id":"cebpf4jnsgd1na2vs0mg"},{"bike_id":"e987523a-ef8b-4c5d-94b4-e53d7fa7dfe0","system_id":"levelo_inurba_marseille","lat":43.248646,"lon":5.385579,"is_reserved":false,"is_disabled":false,"rental_uris":{"android":"levelo://app?vid=e987523a-ef8b-4c5d-94b4-e53d7fa7dfe0","ios":"levelo://app?vid=e987523a-ef8b-4c5d-94b4-e53d7fa7dfe0"},"vehicle_type_id":"4","last_reported":1767456738,"current_range_meters":8400,"station_id":"","pricing_plan_id":"cebpf4jnsgd1na2vs0mg"},{"bike_id":"c18e9c2e-2088-4f3c-bbf9-e06943f60f93","system_id":"levelo_inurba_marseille","lat":43.29598,"lon":5.38106,"is_reserved":false,"is_disabled":false,"rental_uris":{"android":"levelo://app?vid=c18e9c2e-2088-4f3c-bbf9-e06943f60f93","ios":"levelo://app?vid=c18e9c2e-2088-4f3c-bbf9-e06943f60f93"},"vehicle_type_id":"4","last_reported":1767456738,"current_range_meters":8400,"station_id":"ce4bgl12rcd13ifvqbo0","pricing_plan_id":"cebpf4jnsgd1na2vs0mg"},{"bike_id":"bfe47bf6-799b-4ef6-b357-3d67dfdabb79","system_id":"levelo_inurba_marseille","lat":43.3354,"lon":5.37471,"is_reserved":false,"is_disabled":false,"rental_uris":{"android":"levelo://app?vid=bfe47bf6-799b-4ef6-b357-3d67dfdabb79","ios":"levelo://app?vid=bfe47bf6-799b-4ef6-b357-3d67dfdabb79"},"vehicle_type_id":"4","last_reported":1767456738,"current_range_meters":8400,"station_id":"st_d46tts09ee8s73dlu43g","pricing_plan_id":"cebpf4jnsgd1na2vs0mg"},{"bike_id":"394b2473-e75b-4508-a6de-dc82472511d3","system_id":"levelo_inurba_marseille","lat":43.26377,"lon":5.41105,"is_reserved":false,"is_disabled":true,"rental_uris":{"android":"levelo://app?vid=394b2473-e75b-4508-a6de-dc82472511d3","ios":"levelo://app?vid=394b2473-e75b-4508-a6de-dc82472511d3"},"vehicle_type_id":"4","last_reported":1767456738,"current_range_meters":8400,"station_id":"","pricing_plan_id":"cebpf4jnsgd1na2vs0mg"},{"bike_id":"ef519fd0-9994-4a2c-8009-8dc16cb9e38e","system_id":"levelo_inurba_marseille","lat":43.32111,"lon":5.36769,"is_reserved":false,"is_disabled":false,"rental_uris":{"android":"levelo://app?vid=ef519fd0-9994-4a2c-8009-8dc16cb9e38e","ios":"levelo://app?vid=ef519fd0-9994-4a2c-8009-8dc16cb9e38e"},"vehicle_type_id":"4","last_reported":1767456738,"current_range_meters":8400,"station_id":"ce4bhrh2rcd13ifvqhug","pricing_plan_id":"cebpf4jnsgd1na2vs0mg"},{"bike_id":"c51d6830-6676-4ba5-9b70-fc6c18825f29","system_id":"levelo_inurba_marseille","lat":43.29613,"lon":5.37721,"is_reserved":false,"is_disabled":false,"rental_uris":{"android":"levelo://app?vid=c51d6830-6676-4ba5-9b70-fc6c18825f29","ios":"levelo://app?vid=c51d6830-6676-4ba5-9b70-fc6c18825f29"},"vehicle_type_id":"4","last_reported":1767456738,"current_range_meters":8400,"station_id":"ce4bgi92rcd13ifvqb90","pricing_plan_id":"cebpf4jnsgd1na2vs0mg"},{"bike_id":"d67904e3-d432-4bb6-9c59-13ac7cead46a","system_id":"levelo_inurba_marseille","lat":43.32352,"lon":5.3675,"is_reserved":false,"is_disabled":false,"rental_uris":{"android":"levelo://app?vid=d67904e3-d432-4bb6-9c59-13ac7cead46a","ios":"levelo://app?vid=d67904e3-d432-4bb6-9c59-13ac7cead46a"},"vehicle_type_id":"4","last_reported":1767456738,"current_range_meters":8400,"station_id":"ce4bhsh2rcd13ifvqi2g","pricing_plan_id":"cebpf4jnsgd1na2vs0mg"},{"bike_id":"343efb2b-e673-4839-9bb1-298996236577","system_id":"levelo_inurba_marseille","lat":43.306545,"lon":5.400909,"is_reserved":false,"is_disabled":false,"rental_uris":{"android":"levelo://app?vid=343efb2b-e673-4839-9bb1-298996236577","ios":"levelo://app?vid=343efb2b-e673-4839-9bb1-298996236577"},"vehicle_type_id":"4","last_reported":1767456738,"current_range_meters":8400,"station_id":"ce4bh112rcd13ifvqda0","pricing_plan_id":"cebpf4jnsgd1na2vs0mg"},{"bike_id":"7a113635-54d4-43d3-b6a1-1a3eaf81875f","system_id":"levelo_inurba_marseille","lat":43.270764,"lon":5.422834,"is_reserved":false,"is_disabled":false,"rental_uris":{"android":"levelo://app?vid=7a113635-54d4-43d3-b6a1-1a3eaf81875f","ios":"levelo://app?vid=7a113635-54d4-43d3-b6a1-1a3eaf81875f"},"vehicle_type_id":"4","last_reported":1767456738,"current_range_meters":8400,"station_id":"ce4bhk92rcd13ifvqgb0","pricing_plan_id":"cebpf4jnsgd1na2vs0mg"},{"bike_id":"200a1e29-e6fa-470b-8d31-d026583a607e","system_id":"levelo_inurba_marseille","lat":43.25344,"lon":5.421447,"is_reserved":false,"is_disabled":false,"rental_uris":{"android":"levelo://app?vid=200a1e29-e6fa-470b-8d31-d026583a607e","ios":"levelo://app?vid=200a1e29-e6fa-470b-8d31-d026583a607e"},"vehicle_type_id":"4","last_reported":1767456738,"current_range_meters":8400,"station_id":"st_d2m65c5bi1j21697t3ng","pricing_plan_id":"cebpf4jnsgd1na2vs0mg"},{"bike_id":"fd0ae897-fb87-40eb-b51f-e45d1659fcf3","system_id":"levelo_inurba_marseille","lat":43.30636,"lon":5.40092,"is_reserved":false,"is_disabled":false,"rental_uris":{"android":"levelo://app?vid=fd0ae897-fb87-40eb-b51f-e45d1659fcf3","ios":"levelo://app?vid=fd0ae897-fb87-40eb-b51f-e45d1659fcf3"},"vehicle_type_id":"4","last_reported":1767456738,"current_range_meters":8400,"station_id":"ce4bh112rcd13ifvqda0","pricing_plan_id":"cebpf4jnsgd1na2vs0mg"},{"bike_id":"7d88ce0c-ae9b-49e1-a08d-95a335fd71ed","system_id":"levelo_inurba_marseille","lat":43.28529,"lon":5.44111,"is_reserved":false,"is_disabled":false,"rental_uris":{"android":"levelo://app?vid=7d88ce0c-ae9b-49e1-a08d-95a335fd71ed","ios":"levelo://app?vid=7d88ce0c-ae9b-49e1-a08d-95a335fd71ed"},"vehicle_type_id":"4","last_reported":1767456738,"current_range_meters":8400,"station_id":"st_d3j3df2ikq2c7380ej80","pricing_plan_id":"cebpf4jnsgd1na2vs0mg"},{"bike_id":"8e3b45c6-7fdf-429f-9c1e-6729d3aac358","system_id":"levelo_inurba_marseille","lat":43.31063,"lon":5.37175,"is_reserved":false,"is_disabled":false,"rental_uris":{"android":"levelo://app?vid=8e3b45c6-7fdf-429f-9c1e-6729d3aac358","ios":"levelo://app?vid=8e3b45c6-7fdf-429f-9c1e-6729d3aac358"},"vehicle_type_id":"4","last_reported":1767456738,"current_range_meters":8400,"station_id":"st_d4kl2rp97mjs73e7tdfg","pricing_plan_id":"cebpf4jnsgd1na2vs0mg"},{"bike_id":"f8440ba9-7aeb-4439-95a0-ff23a92184c2","system_id":"levelo_inurba_marseille","lat":43.29282,"lon":5.38438,"is_reserved":false,"is_disabled":false,"rental_uris":{"android":"levelo://app?vid=f8440ba9-7aeb-4439-95a0-ff23a92184c2","ios":"levelo://app?vid=f8440ba9-7aeb-4439-95a0-ff23a92184c2"},"vehicle_type_id":"4","last_reported":1767456738,"current_range_meters":8800,"station_id":"ce4bh692rcd13ifvqea0","pricing_plan_id":"cebpf4jnsgd1na2vs0mg"},{"bike_id":"958174ed-e67c-4260-9f30-7b344d6cd04b","system_id":"levelo_inurba_marseille","lat":43.29095,"lon":5.38152,"is_reserved":false,"is_disabled":false,"rental_uris":{"android":"levelo://app?vid=958174ed-e67c-4260-9f30-7b344d6cd04b","ios":"levelo://app?vid=958174ed-e67c-4260-9f30-7b344d6cd04b"},"vehicle_type_id":"4","last_reported":1767456738,"current_range_meters":8800,"station_id":"ce4bh512rcd13ifvqe2g","pricing_plan_id":"cebpf4jnsgd1na2vs0mg"},{"bike_id":"ac0c123e-ed59-4a7e-a27e-86326b93124d","system_id":"levelo_inurba_marseille","lat":43.28469,"lon":5.38412,"is_reserved":false,"is_disabled":false,"rental_uris":{"android":"levelo://app?vid=ac0c123e-ed59-4a7e-a27e-86326b93124d","ios":"levelo://app?vid=ac0c123e-ed59-4a7e-a27e-86326b93124d"},"vehicle_type_id":"4","last_reported":1767456738,"current_range_meters":8800,"station_id":"ce4bh512rcd13ifvqe3g","pricing_plan_id":"cebpf4jnsgd1na2vs0mg"},{"bike_id":"2e732333-6eaa-4b39-9b41-8e7d911e2698","system_id":"levelo_inurba_marseille","lat":43.293049,"lon":5.374606,"is_reserved":false,"is_disabled":false,"rental_uris":{"android":"levelo://app?vid=2e732333-6eaa-4b39-9b41-8e7d911e2698","ios":"levelo://app?vid=2e732333-6eaa-4b39-9b41-8e7d911e2698"},"vehicle_type_id":"4","last_reported":1767456738,"current_range_meters":8800,"station_id":"ce4bgi12rcd13ifvqb70","pricing_plan_id":"cebpf4jnsgd1na2vs0mg"},{"bike_id":"2bcf6ae4-322c-43d0-9880-65aeda24ed67","system_id":"levelo_inurba_marseille","lat":43.32416,"lon":5.36886,"is_reserved":false,"is_disabled":false,"rental_uris":{"android":"levelo://app?vid=2bcf6ae4-322c-43d0-9880-65aeda24ed67","ios":"levelo://app?vid=2bcf6ae4-322c-43d0-9880-65aeda24ed67"},"vehicle_type_id":"4","last_reported":1767456738,"current_range_meters":8800,"station_id":"","pricing_plan_id":"cebpf4jnsgd1na2vs0mg"},{"bike_id":"eb0d03a5-29f9-4e64-806c-30686126a3bd","system_id":"levelo_inurba_marseille","lat":43.290432,"lon":5.359237,"is_reserved":false,"is_disabled":false,"rental_uris":{"android":"levelo://app?vid=eb0d03a5-29f9-4e64-806c-30686126a3bd","ios":"levelo://app?vid=eb0d03a5-29f9-4e64-806c-30686126a3bd"},"vehicle_type_id":"4","last_reported":1767456738,"current_range_meters":8800,"station_id":"ce4bha92rcd13ifvqeg0","pricing_plan_id":"cebpf4jnsgd1na2vs0mg"},{"bike_id":"ed0899c0-be91-4332-a2f6-2e78acb199e0","system_id":"levelo_inurba_marseille","lat":43.284171,"lon":5.349668,"is_reserved":false,"is_disabled":false,"rental_uris":{"android":"levelo://app?vid=ed0899c0-be91-4332-a2f6-2e78acb199e0","ios":"levelo://app?vid=ed0899c0-be91-4332-a2f6-2e78acb199e0"},"vehicle_type_id":"4","last_reported":1767456738,"current_range_meters":8800,"station_id":"ce4bhbh2rcd13ifvqepg","pricing_plan_id":"cebpf4jnsgd1na2vs0mg"},{"bike_id":"bc24ad87-e39b-4719-ba5b-24f618b4c5f7","system_id":"levelo_inurba_marseille","lat":43.28418,"lon":5.34985,"is_reserved":false,"is_disabled":false,"rental_uris":{"android":"levelo://app?vid=bc24ad87-e39b-4719-ba5b-24f618b4c5f7","ios":"levelo://app?vid=bc24ad87-e39b-4719-ba5b-24f618b4c5f7"},"vehicle_type_id":"4","last_reported":1767456738,"current_range_meters":8800,"station_id":"ce4bhbh2rcd13ifvqepg","pricing_plan_id":"cebpf4jnsgd1na2vs0mg"},{"bike_id":"4f9276e2-ba43-4c1d-afca-9c0080feecdf","system_id":"levelo_inurba_marseille","lat":43.32349,"lon":5.36728,"is_reserved":false,"is_disabled":false,"rental_uris":{"android":"levelo://app?vid=4f9276e2-ba43-4c1d-afca-9c0080feecdf","ios":"levelo://app?vid=4f9276e2-ba43-4c1d-afca-9c0080feecdf"},"vehicle_type_id":"4","last_reported":1767456738,"current_range_meters":8800,"station_id":"ce4bhsh2rcd13ifvqi2g","pricing_plan_id":"cebpf4jnsgd1na2vs0mg"},{"bike_id":"0cc8f38b-2aab-4edc-80d1-8d77bb645f60","system_id":"levelo_inurba_marseille","lat":43.25519,"lon":5.3765,"is_reserved":false,"is_disabled":true,"rental_uris":{"android":"levelo://app?vid=0cc8f38b-2aab-4edc-80d1-8d77bb645f60","ios":"levelo://app?vid=0cc8f38b-2aab-4edc-80d1-8d77bb645f60"},"vehicle_type_id":"4","last_reported":1767456738,"current_range_meters":8800,"station_id":"ce4bhh12rcd13ifvqff0","pricing_plan_id":"cebpf4jnsgd1na2vs0mg"},{"bike_id":"123a045e-a835-4faa-a9ab-9850b2b53c38","system_id":"levelo_inurba_marseille","lat":43.29301,"lon":5.37199,"is_reserved":false,"is_disabled":true,"rental_uris":{"android":"levelo://app?vid=123a045e-a835-4faa-a9ab-9850b2b53c38","ios":"levelo://app?vid=123a045e-a835-4faa-a9ab-9850b2b53c38"},"vehicle_type_id":"4","last_reported":1767456738,"current_range_meters":8800,"station_id":"ce4bgh92rcd13ifvqb40","pricing_plan_id":"cebpf4jnsgd1na2vs0mg"},{"bike_id":"6bfea481-b122-4080-8047-f8cb1577dc07","system_id":"levelo_inurba_marseille","lat":43.29003,"lon":5.356,"is_reserved":false,"is_disabled":false,"rental_uris":{"android":"levelo://app?vid=6bfea481-b122-4080-8047-f8cb1577dc07","ios":"levelo://app?vid=6bfea481-b122-4080-8047-f8cb1577dc07"},"vehicle_type_id":"4","last_reported":1767456738,"current_range_meters":8800,"station_id":"ce4bhb92rcd13ifvqen0","pricing_plan_id":"cebpf4jnsgd1na2vs0mg"},{"bike_id":"9c8fc021-abb9-4e14-8315-4de673d098a9","system_id":"levelo_inurba_marseille","lat":43.2317,"lon":5.437,"is_reserved":false,"is_disabled":false,"rental_uris":{"android":"levelo://app?vid=9c8fc021-abb9-4e14-8315-4de673d098a9","ios":"levelo://app?vid=9c8fc021-abb9-4e14-8315-4de673d098a9"},"vehicle_type_id":"4","last_reported":1767456738,"current_range_meters":8800,"station_id":"ce4bhmp2rcd13ifvqgog","pricing_plan_id":"cebpf4jnsgd1na2vs0mg"},{"bike_id":"d49d55fc-f15f-4a66-a00d-73bd545b8ffd","system_id":"levelo_inurba_marseille","lat":43.29046,"lon":5.39959,"is_reserved":false,"is_disabled":false,"rental_uris":{"android":"levelo://app?vid=d49d55fc-f15f-4a66-a00d-73bd545b8ffd","ios":"levelo://app?vid=d49d55fc-f15f-4a66-a00d-73bd545b8ffd"},"vehicle_type_id":"4","last_reported":1767456738,"current_range_meters":8800,"station_id":"ce4bh392rcd13ifvqdm0","pricing_plan_id":"cebpf4jnsgd1na2vs0mg"},{"bike_id":"cb035583-71ec-465e-ae20-89a3af35ac5e","system_id":"levelo_inurba_marseille","lat":43.24554,"lon":5.41326,"is_reserved":false,"is_disabled":false,"rental_uris":{"android":"levelo://app?vid=cb035583-71ec-465e-ae20-89a3af35ac5e","ios":"levelo://app?vid=cb035583-71ec-465e-ae20-89a3af35ac5e"},"vehicle_type_id":"4","last_reported":1767456738,"current_range_meters":8800,"station_id":"","pricing_plan_id":"cebpf4jnsgd1na2vs0mg"},{"bike_id":"8ba5a220-f8dd-44a3-85e7-756c834b0466","system_id":"levelo_inurba_marseille","lat":43.26499,"lon":5.39545,"is_reserved":false,"is_disabled":false,"rental_uris":{"android":"levelo://app?vid=8ba5a220-f8dd-44a3-85e7-756c834b0466","ios":"levelo://app?vid=8ba5a220-f8dd-44a3-85e7-756c834b0466"},"vehicle_type_id":"4","last_reported":1767456738,"current_range_meters":8800,"station_id":"ce4bhi12rcd13ifvqfq0","pricing_plan_id":"cebpf4jnsgd1na2vs0mg"},{"bike_id":"6e7957d0-639e-41a7-bf82-10829831a67f","system_id":"levelo_inurba_marseille","lat":43.32346,"lon":5.36754,"is_reserved":false,"is_disabled":false,"rental_uris":{"android":"levelo://app?vid=6e7957d0-639e-41a7-bf82-10829831a67f","ios":"levelo://app?vid=6e7957d0-639e-41a7-bf82-10829831a67f"},"vehicle_type_id":"4","last_reported":1767456738,"current_range_meters":8800,"station_id":"ce4bhsh2rcd13ifvqi2g","pricing_plan_id":"cebpf4jnsgd1na2vs0mg"},{"bike_id":"e8cb542a-c910-418d-8827-3aecad0225e3","system_id":"levelo_inurba_marseille","lat":43.2843,"lon":5.34996,"is_reserved":false,"is_disabled":false,"rental_uris":{"android":"levelo://app?vid=e8cb542a-c910-418d-8827-3aecad0225e3","ios":"levelo://app?vid=e8cb542a-c910-418d-8827-3aecad0225e3"},"vehicle_type_id":"4","last_reported":1767456738,"current_range_meters":8800,"station_id":"ce4bhbh2rcd13ifvqepg","pricing_plan_id":"cebpf4jnsgd1na2vs0mg"},{"bike_id":"1208a47f-a2c6-40ea-b465-1dd1ebe0866e","system_id":"levelo_inurba_marseille","lat":43.232021,"lon":5.35534,"is_reserved":false,"is_disabled":false,"rental_uris":{"android":"levelo://app?vid=1208a47f-a2c6-40ea-b465-1dd1ebe0866e","ios":"levelo://app?vid=1208a47f-a2c6-40ea-b465-1dd1ebe0866e"},"vehicle_type_id":"4","last_reported":1767456738,"current_range_meters":8800,"station_id":"ce4bhu92rcd13ifvqi70","pricing_plan_id":"cebpf4jnsgd1na2vs0mg"},{"bike_id":"5768f084-0add-48a0-99d0-2b9670f09769","system_id":"levelo_inurba_marseille","lat":43.28529,"lon":5.44096,"is_reserved":false,"is_disabled":false,"rental_uris":{"android":"levelo://app?vid=5768f084-0add-48a0-99d0-2b9670f09769","ios":"levelo://app?vid=5768f084-0add-48a0-99d0-2b9670f09769"},"vehicle_type_id":"4","last_reported":1767456738,"current_range_meters":9200,"station_id":"st_d3j3df2ikq2c7380ej80","pricing_plan_id":"cebpf4jnsgd1na2vs0mg"},{"bike_id":"a414d67b-9afa-4a87-9fac-f67cdff12698","system_id":"levelo_inurba_marseille","lat":43.2949,"lon":5.38025,"is_reserved":false,"is_disabled":false,"rental_uris":{"android":"levelo://app?vid=a414d67b-9afa-4a87-9fac-f67cdff12698","ios":"levelo://app?vid=a414d67b-9afa-4a87-9fac-f67cdff12698"},"vehicle_type_id":"4","last_reported":1767456738,"current_range_meters":9200,"station_id":"","pricing_plan_id":"cebpf4jnsgd1na2vs0mg"},{"bike_id":"c3f97c6b-2dc7-4135-9316-e5d0c425f8a0","system_id":"levelo_inurba_marseille","lat":43.26953,"lon":5.38628,"is_reserved":false,"is_disabled":false,"rental_uris":{"android":"levelo://app?vid=c3f97c6b-2dc7-4135-9316-e5d0c425f8a0","ios":"levelo://app?vid=c3f97c6b-2dc7-4135-9316-e5d0c425f8a0"},"vehicle_type_id":"4","last_reported":1767456738,"current_range_meters":9200,"station_id":"ce4bhh92rcd13ifvqfh0","pricing_plan_id":"cebpf4jnsgd1na2vs0mg"},{"bike_id":"2d78d04f-3c3b-4c68-b06d-a38be4a7154f","system_id":"levelo_inurba_marseille","lat":43.29299,"lon":5.37437,"is_reserved":false,"is_disabled":false,"rental_uris":{"android":"levelo://app?vid=2d78d04f-3c3b-4c68-b06d-a38be4a7154f","ios":"levelo://app?vid=2d78d04f-3c3b-4c68-b06d-a38be4a7154f"},"vehicle_type_id":"4","last_reported":1767456738,"current_range_meters":9200,"station_id":"ce4bgi12rcd13ifvqb70","pricing_plan_id":"cebpf4jnsgd1na2vs0mg"},{"bike_id":"c33eb5f0-499c-46b8-b706-b5add847dbd3","system_id":"levelo_inurba_marseille","lat":43.33172,"lon":5.37665,"is_reserved":false,"is_disabled":false,"rental_uris":{"android":"levelo://app?vid=c33eb5f0-499c-46b8-b706-b5add847dbd3","ios":"levelo://app?vid=c33eb5f0-499c-46b8-b706-b5add847dbd3"},"vehicle_type_id":"4","last_reported":1767456738,"current_range_meters":9200,"station_id":"st_d46cu089ee8s73dldbu0","pricing_plan_id":"cebpf4jnsgd1na2vs0mg"},{"bike_id":"5f1afbd3-991d-4a84-a7de-47f7d4a3f946","system_id":"levelo_inurba_marseille","lat":43.29549,"lon":5.42273,"is_reserved":false,"is_disabled":false,"rental_uris":{"android":"levelo://app?vid=5f1afbd3-991d-4a84-a7de-47f7d4a3f946","ios":"levelo://app?vid=5f1afbd3-991d-4a84-a7de-47f7d4a3f946"},"vehicle_type_id":"4","last_reported":1767456738,"current_range_meters":9200,"station_id":"ce4bhph2rcd13ifvqhdg","pricing_plan_id":"cebpf4jnsgd1na2vs0mg"},{"bike_id":"9f76342a-9caa-49c8-a5a4-4ac2e1abd64a","system_id":"levelo_inurba_marseille","lat":43.34136,"lon":5.40911,"is_reserved":false,"is_disabled":false,"rental_uris":{"android":"levelo://app?vid=9f76342a-9caa-49c8-a5a4-4ac2e1abd64a","ios":"levelo://app?vid=9f76342a-9caa-49c8-a5a4-4ac2e1abd64a"},"vehicle_type_id":"4","last_reported":1767456738,"current_range_meters":9200,"station_id":"ce4bhqh2rcd13ifvqhlg","pricing_plan_id":"cebpf4jnsgd1na2vs0mg"},{"bike_id":"56d1a833-3647-4a7c-8f88-c87b87a0de74","system_id":"levelo_inurba_marseille","lat":43.26589,"lon":5.38995,"is_reserved":false,"is_disabled":false,"rental_uris":{"android":"levelo://app?vid=56d1a833-3647-4a7c-8f88-c87b87a0de74","ios":"levelo://app?vid=56d1a833-3647-4a7c-8f88-c87b87a0de74"},"vehicle_type_id":"4","last_reported":1767456738,"current_range_meters":9200,"station_id":"ce4bhe12rcd13ifvqf30","pricing_plan_id":"cebpf4jnsgd1na2vs0mg"},{"bike_id":"ca48d4ad-26ca-4dea-a200-be3e43176f3f","system_id":"levelo_inurba_marseille","lat":43.33219,"lon":5.41282,"is_reserved":false,"is_disabled":false,"rental_uris":{"android":"levelo://app?vid=ca48d4ad-26ca-4dea-a200-be3e43176f3f","ios":"levelo://app?vid=ca48d4ad-26ca-4dea-a200-be3e43176f3f"},