{"last_updated":1774438428,"ttl":60,"version":"2.2","data":{"bikes":[{"bike_id":"a23beeb7-4535-4545-8182-5f81da8c7fdf","system_id":"levelo_inurba_marseille","lat":43.29262,"lon":5.36848,"is_reserved":false,"is_disabled":false,"rental_uris":{"android":"levelo://app?vid=a23beeb7-4535-4545-8182-5f81da8c7fdf","ios":"levelo://app?vid=a23beeb7-4535-4545-8182-5f81da8c7fdf"},"vehicle_type_id":"4","last_reported":1774438428,"current_range_meters":400,"station_id":"ce4bhbp2rcd13ifvqesg","pricing_plan_id":"cebpf4jnsgd1na2vs0mg"},{"bike_id":"d13b5268-f949-4166-9f9c-ca891ad7fe98","system_id":"levelo_inurba_marseille","lat":43.23894,"lon":5.37442,"is_reserved":false,"is_disabled":false,"rental_uris":{"android":"levelo://app?vid=d13b5268-f949-4166-9f9c-ca891ad7fe98","ios":"levelo://app?vid=d13b5268-f949-4166-9f9c-ca891ad7fe98"},"vehicle_type_id":"4","last_reported":1774438428,"current_range_meters":2800,"station_id":"st_d6sm7csbq4hs73f8fpjg","pricing_plan_id":"cebpf4jnsgd1na2vs0mg"},{"bike_id":"0b786319-6d9f-4d1c-890a-5150198e272a","system_id":"levelo_inurba_marseille","lat":43.28473,"lon":5.48388,"is_reserved":false,"is_disabled":false,"rental_uris":{"android":"levelo://app?vid=0b786319-6d9f-4d1c-890a-5150198e272a","ios":"levelo://app?vid=0b786319-6d9f-4d1c-890a-5150198e272a"},"vehicle_type_id":"4","last_reported":1774438428,"current_range_meters":2800,"station_id":"st_d3svhcjqgbts73a3dn0g","pricing_plan_id":"cebpf4jnsgd1na2vs0mg"},{"bike_id":"c7c0d1a3-c2c3-4962-a7cc-3f65dbd082a8","system_id":"levelo_inurba_marseille","lat":43.26679,"lon":5.38275,"is_reserved":false,"is_disabled":false,"rental_uris":{"android":"levelo://app?vid=c7c0d1a3-c2c3-4962-a7cc-3f65dbd082a8","ios":"levelo://app?vid=c7c0d1a3-c2c3-4962-a7cc-3f65dbd082a8"},"vehicle_type_id":"4","last_reported":1774438428,"current_range_meters":2800,"station_id":"ce4bhg92rcd13ifvqf90","pricing_plan_id":"cebpf4jnsgd1na2vs0mg"},{"bike_id":"31d0e8d1-41ca-49bc-b101-6f54248861c2","system_id":"levelo_inurba_marseille","lat":43.21192,"lon":5.35075,"is_reserved":false,"is_disabled":false,"rental_uris":{"android":"levelo://app?vid=31d0e8d1-41ca-49bc-b101-6f54248861c2","ios":"levelo://app?vid=31d0e8d1-41ca-49bc-b101-6f54248861c2"},"vehicle_type_id":"4","last_reported":1774438428,"current_range_meters":2800,"station_id":"st_cvj6sg6p6f1abm77japg","pricing_plan_id":"cebpf4jnsgd1na2vs0mg"},{"bike_id":"ed3b5f1c-f438-440a-99e1-2adbfadf1ab9","system_id":"levelo_inurba_marseille","lat":43.27059,"lon":5.40262,"is_reserved":false,"is_disabled":false,"rental_uris":{"android":"levelo://app?vid=ed3b5f1c-f438-440a-99e1-2adbfadf1ab9","ios":"levelo://app?vid=ed3b5f1c-f438-440a-99e1-2adbfadf1ab9"},"vehicle_type_id":"4","last_reported":1774438428,"current_range_meters":2800,"station_id":"ce4bhk92rcd13ifvqgc0","pricing_plan_id":"cebpf4jnsgd1na2vs0mg"},{"bike_id":"e9b07658-a8f0-465c-b976-645cd41e5970","system_id":"levelo_inurba_marseille","lat":43.27157,"lon":5.41016,"is_reserved":false,"is_disabled":false,"rental_uris":{"android":"levelo://app?vid=e9b07658-a8f0-465c-b976-645cd41e5970","ios":"levelo://app?vid=e9b07658-a8f0-465c-b976-645cd41e5970"},"vehicle_type_id":"4","last_reported":1774438428,"current_range_meters":2800,"station_id":"ce4bhl12rcd13ifvqgf0","pricing_plan_id":"cebpf4jnsgd1na2vs0mg"},{"bike_id":"aeeed65a-8238-48ff-abba-94078d3b830e","system_id":"levelo_inurba_marseille","lat":43.3139,"lon":5.40381,"is_reserved":false,"is_disabled":false,"rental_uris":{"android":"levelo://app?vid=aeeed65a-8238-48ff-abba-94078d3b830e","ios":"levelo://app?vid=aeeed65a-8238-48ff-abba-94078d3b830e"},"vehicle_type_id":"4","last_reported":1774438428,"current_range_meters":2800,"station_id":"","pricing_plan_id":"cebpf4jnsgd1na2vs0mg"},{"bike_id":"1d8f446c-f1af-4a84-857e-6d472cf0b4a6","system_id":"levelo_inurba_marseille","lat":43.3209,"lon":5.41512,"is_reserved":false,"is_disabled":false,"rental_uris":{"android":"levelo://app?vid=1d8f446c-f1af-4a84-857e-6d472cf0b4a6","ios":"levelo://app?vid=1d8f446c-f1af-4a84-857e-6d472cf0b4a6"},"vehicle_type_id":"4","last_reported":1774438428,"current_range_meters":2800,"station_id":"","pricing_plan_id":"cebpf4jnsgd1na2vs0mg"},{"bike_id":"285db872-787a-4613-a1fe-da7e0b0c9ea6","system_id":"levelo_inurba_marseille","lat":43.26646,"lon":5.38301,"is_reserved":false,"is_disabled":false,"rental_uris":{"android":"levelo://app?vid=285db872-787a-4613-a1fe-da7e0b0c9ea6","ios":"levelo://app?vid=285db872-787a-4613-a1fe-da7e0b0c9ea6"},"vehicle_type_id":"4","last_reported":1774438428,"current_range_meters":2800,"station_id":"ce4bhg92rcd13ifvqf90","pricing_plan_id":"cebpf4jnsgd1na2vs0mg"},{"bike_id":"75161d83-ba86-49c2-8971-d29c29fcdbc3","system_id":"levelo_inurba_marseille","lat":43.266687,"lon":5.382806,"is_reserved":false,"is_disabled":false,"rental_uris":{"android":"levelo://app?vid=75161d83-ba86-49c2-8971-d29c29fcdbc3","ios":"levelo://app?vid=75161d83-ba86-49c2-8971-d29c29fcdbc3"},"vehicle_type_id":"4","last_reported":1774438428,"current_range_meters":2800,"station_id":"ce4bhg92rcd13ifvqf90","pricing_plan_id":"cebpf4jnsgd1na2vs0mg"},{"bike_id":"51a9cb16-8dd8-4e8d-9618-237dcd69d497","system_id":"levelo_inurba_marseille","lat":43.24953,"lon":5.40493,"is_reserved":false,"is_disabled":false,"rental_uris":{"android":"levelo://app?vid=51a9cb16-8dd8-4e8d-9618-237dcd69d497","ios":"levelo://app?vid=51a9cb16-8dd8-4e8d-9618-237dcd69d497"},"vehicle_type_id":"4","last_reported":1774438428,"current_range_meters":2800,"station_id":"st_d2ngiaodas8pm72gd1h0","pricing_plan_id":"cebpf4jnsgd1na2vs0mg"},{"bike_id":"0e2f4137-e82a-401c-945f-6a1c7c098239","system_id":"levelo_inurba_marseille","lat":43.29618,"lon":5.37142,"is_reserved":false,"is_disabled":true,"rental_uris":{"android":"levelo://app?vid=0e2f4137-e82a-401c-945f-6a1c7c098239","ios":"levelo://app?vid=0e2f4137-e82a-401c-945f-6a1c7c098239"},"vehicle_type_id":"4","last_reported":1774438428,"current_range_meters":3200,"station_id":"ce4bgnh2rcd13ifvqc0g","pricing_plan_id":"cebpf4jnsgd1na2vs0mg"},{"bike_id":"b75036ac-d81d-4bfd-a9c8-a051a6ff39fe","system_id":"levelo_inurba_marseille","lat":43.28529,"lon":5.44126,"is_reserved":false,"is_disabled":false,"rental_uris":{"android":"levelo://app?vid=b75036ac-d81d-4bfd-a9c8-a051a6ff39fe","ios":"levelo://app?vid=b75036ac-d81d-4bfd-a9c8-a051a6ff39fe"},"vehicle_type_id":"4","last_reported":1774438428,"current_range_meters":3200,"station_id":"st_d3j3df2ikq2c7380ej80","pricing_plan_id":"cebpf4jnsgd1na2vs0mg"},{"bike_id":"f910acab-e234-4475-91c9-ec3fea6d1bf3","system_id":"levelo_inurba_marseille","lat":43.29907,"lon":5.43663,"is_reserved":false,"is_disabled":false,"rental_uris":{"android":"levelo://app?vid=f910acab-e234-4475-91c9-ec3fea6d1bf3","ios":"levelo://app?vid=f910acab-e234-4475-91c9-ec3fea6d1bf3"},"vehicle_type_id":"4","last_reported":1774438428,"current_range_meters":3200,"station_id":"ce4bhpp2rcd13ifvqhfg","pricing_plan_id":"cebpf4jnsgd1na2vs0mg"},{"bike_id":"8e331d09-f777-47e4-a327-164db2e188a9","system_id":"levelo_inurba_marseille","lat":43.26565,"lon":5.40329,"is_reserved":false,"is_disabled":true,"rental_uris":{"android":"levelo://app?vid=8e331d09-f777-47e4-a327-164db2e188a9","ios":"levelo://app?vid=8e331d09-f777-47e4-a327-164db2e188a9"},"vehicle_type_id":"4","last_reported":1774438428,"current_range_meters":3200,"station_id":"ce4bhmp2rcd13ifvqgng","pricing_plan_id":"cebpf4jnsgd1na2vs0mg"},{"bike_id":"264112b1-1c1f-4bb6-81b8-b2a3a3e92a0f","system_id":"levelo_inurba_marseille","lat":43.28613,"lon":5.35109,"is_reserved":false,"is_disabled":false,"rental_uris":{"android":"levelo://app?vid=264112b1-1c1f-4bb6-81b8-b2a3a3e92a0f","ios":"levelo://app?vid=264112b1-1c1f-4bb6-81b8-b2a3a3e92a0f"},"vehicle_type_id":"4","last_reported":1774438428,"current_range_meters":3200,"station_id":"ce4bhch2rcd13ifvqeug","pricing_plan_id":"cebpf4jnsgd1na2vs0mg"},{"bike_id":"60616a78-2d12-4ec8-9734-73af6ceea59e","system_id":"levelo_inurba_marseille","lat":43.2679,"lon":5.39404,"is_reserved":false,"is_disabled":false,"rental_uris":{"android":"levelo://app?vid=60616a78-2d12-4ec8-9734-73af6ceea59e","ios":"levelo://app?vid=60616a78-2d12-4ec8-9734-73af6ceea59e"},"vehicle_type_id":"4","last_reported":1774438428,"current_range_meters":3200,"station_id":"ce4bhh12rcd13ifvqfg0","pricing_plan_id":"cebpf4jnsgd1na2vs0mg"},{"bike_id":"f35a9644-f102-427c-8b00-579a35988db3","system_id":"levelo_inurba_marseille","lat":43.21228,"lon":5.35056,"is_reserved":false,"is_disabled":false,"rental_uris":{"android":"levelo://app?vid=f35a9644-f102-427c-8b00-579a35988db3","ios":"levelo://app?vid=f35a9644-f102-427c-8b00-579a35988db3"},"vehicle_type_id":"4","last_reported":1774438428,"current_range_meters":3200,"station_id":"st_cvj6sg6p6f1abm77japg","pricing_plan_id":"cebpf4jnsgd1na2vs0mg"},{"bike_id":"334cf4a3-3321-469f-be1d-c4ea4e4ae8bc","system_id":"levelo_inurba_marseille","lat":43.28736,"lon":5.36067,"is_reserved":false,"is_disabled":false,"rental_uris":{"android":"levelo://app?vid=334cf4a3-3321-469f-be1d-c4ea4e4ae8bc","ios":"levelo://app?vid=334cf4a3-3321-469f-be1d-c4ea4e4ae8bc"},"vehicle_type_id":"4","last_reported":1774438428,"current_range_meters":3200,"station_id":"cki0cbj6b192h4jlfktg","pricing_plan_id":"cebpf4jnsgd1na2vs0mg"},{"bike_id":"67d07552-e968-4044-af2d-8240e4fd07cb","system_id":"levelo_inurba_marseille","lat":43.24467,"lon":5.42534,"is_reserved":false,"is_disabled":false,"rental_uris":{"android":"levelo://app?vid=67d07552-e968-4044-af2d-8240e4fd07cb","ios":"levelo://app?vid=67d07552-e968-4044-af2d-8240e4fd07cb"},"vehicle_type_id":"4","last_reported":1774438428,"current_range_meters":3200,"station_id":"st_d4a3vfp97mjs738cd8kg","pricing_plan_id":"cebpf4jnsgd1na2vs0mg"},{"bike_id":"7e03e45c-d69c-4371-8267-aa26cde43729","system_id":"levelo_inurba_marseille","lat":43.25569,"lon":5.38244,"is_reserved":false,"is_disabled":false,"rental_uris":{"android":"levelo://app?vid=7e03e45c-d69c-4371-8267-aa26cde43729","ios":"levelo://app?vid=7e03e45c-d69c-4371-8267-aa26cde43729"},"vehicle_type_id":"4","last_reported":1774438428,"current_range_meters":3200,"station_id":"ce4bhih2rcd13ifvqfs0","pricing_plan_id":"cebpf4jnsgd1na2vs0mg"},{"bike_id":"85685a12-bbdb-42e0-8235-69b932d60f11","system_id":"levelo_inurba_marseille","lat":43.30882,"lon":5.39656,"is_reserved":false,"is_disabled":false,"rental_uris":{"android":"levelo://app?vid=85685a12-bbdb-42e0-8235-69b932d60f11","ios":"levelo://app?vid=85685a12-bbdb-42e0-8235-69b932d60f11"},"vehicle_type_id":"4","last_reported":1774438428,"current_range_meters":3200,"station_id":"ce4bh012rcd13ifvqcv0","pricing_plan_id":"cebpf4jnsgd1na2vs0mg"},{"bike_id":"8e2f53de-fee1-479d-845c-1dbcc88b6b93","system_id":"levelo_inurba_marseille","lat":43.27422,"lon":5.39422,"is_reserved":false,"is_disabled":false,"rental_uris":{"android":"levelo://app?vid=8e2f53de-fee1-479d-845c-1dbcc88b6b93","ios":"levelo://app?vid=8e2f53de-fee1-479d-845c-1dbcc88b6b93"},"vehicle_type_id":"4","last_reported":1774438428,"current_range_meters":3200,"station_id":"ce4bhdp2rcd13ifvqf20","pricing_plan_id":"cebpf4jnsgd1na2vs0mg"},{"bike_id":"b1ceaa1d-f7d5-4f1b-b74b-3e9a13f9efeb","system_id":"levelo_inurba_marseille","lat":43.23955,"lon":5.36635,"is_reserved":false,"is_disabled":false,"rental_uris":{"android":"levelo://app?vid=b1ceaa1d-f7d5-4f1b-b74b-3e9a13f9efeb","ios":"levelo://app?vid=b1ceaa1d-f7d5-4f1b-b74b-3e9a13f9efeb"},"vehicle_type_id":"4","last_reported":1774438428,"current_range_meters":3200,"station_id":"ce4bhi12rcd13ifvqfp0","pricing_plan_id":"cebpf4jnsgd1na2vs0mg"},{"bike_id":"8f3165ca-8806-4892-8bb2-03d94441531c","system_id":"levelo_inurba_marseille","lat":43.23911,"lon":5.37438,"is_reserved":false,"is_disabled":false,"rental_uris":{"android":"levelo://app?vid=8f3165ca-8806-4892-8bb2-03d94441531c","ios":"levelo://app?vid=8f3165ca-8806-4892-8bb2-03d94441531c"},"vehicle_type_id":"4","last_reported":1774438428,"current_range_meters":3600,"station_id":"st_d6sm7csbq4hs73f8fpjg","pricing_plan_id":"cebpf4jnsgd1na2vs0mg"},{"bike_id":"061a5d43-ecea-46ba-9197-7338feb5cdb4","system_id":"levelo_inurba_marseille","lat":43.28945,"lon":5.36636,"is_reserved":false,"is_disabled":false,"rental_uris":{"android":"levelo://app?vid=061a5d43-ecea-46ba-9197-7338feb5cdb4","ios":"levelo://app?vid=061a5d43-ecea-46ba-9197-7338feb5cdb4"},"vehicle_type_id":"4","last_reported":1774438428,"current_range_meters":3600,"station_id":"ce4bhap2rcd13ifvqek0","pricing_plan_id":"cebpf4jnsgd1na2vs0mg"},{"bike_id":"9f0b1bc2-7aeb-4898-94e0-08016eea2725","system_id":"levelo_inurba_marseille","lat":43.30246,"lon":5.40023,"is_reserved":false,"is_disabled":true,"rental_uris":{"android":"levelo://app?vid=9f0b1bc2-7aeb-4898-94e0-08016eea2725","ios":"levelo://app?vid=9f0b1bc2-7aeb-4898-94e0-08016eea2725"},"vehicle_type_id":"4","last_reported":1774438428,"current_range_meters":4000,"station_id":"","pricing_plan_id":"cebpf4jnsgd1na2vs0mg"},{"bike_id":"f9b342b4-4c2a-4788-ad68-460691136287","system_id":"levelo_inurba_marseille","lat":43.3054,"lon":5.38427,"is_reserved":false,"is_disabled":false,"rental_uris":{"android":"levelo://app?vid=f9b342b4-4c2a-4788-ad68-460691136287","ios":"levelo://app?vid=f9b342b4-4c2a-4788-ad68-460691136287"},"vehicle_type_id":"4","last_reported":1774438428,"current_range_meters":4000,"station_id":"ce4bgg92rcd13ifvqb30","pricing_plan_id":"cebpf4jnsgd1na2vs0mg"},{"bike_id":"fe332a28-7761-474f-ad2d-b84cd0257740","system_id":"levelo_inurba_marseille","lat":43.23781,"lon":5.36646,"is_reserved":false,"is_disabled":false,"rental_uris":{"android":"levelo://app?vid=fe332a28-7761-474f-ad2d-b84cd0257740","ios":"levelo://app?vid=fe332a28-7761-474f-ad2d-b84cd0257740"},"vehicle_type_id":"4","last_reported":1774438428,"current_range_meters":4000,"station_id":"st_d3nk18o9ro0c73en2l3g","pricing_plan_id":"cebpf4jnsgd1na2vs0mg"},{"bike_id":"066cfe81-714d-4a28-ba8d-e13baf5bbb1b","system_id":"levelo_inurba_marseille","lat":43.27266,"lon":5.41147,"is_reserved":false,"is_disabled":false,"rental_uris":{"android":"levelo://app?vid=066cfe81-714d-4a28-ba8d-e13baf5bbb1b","ios":"levelo://app?vid=066cfe81-714d-4a28-ba8d-e13baf5bbb1b"},"vehicle_type_id":"4","last_reported":1774438428,"current_range_meters":4000,"station_id":"","pricing_plan_id":"cebpf4jnsgd1na2vs0mg"},{"bike_id":"e51f3b8f-2277-4636-88c7-d4fed1c89dba","system_id":"levelo_inurba_marseille","lat":43.29857,"lon":5.40935,"is_reserved":false,"is_disabled":false,"rental_uris":{"android":"levelo://app?vid=e51f3b8f-2277-4636-88c7-d4fed1c89dba","ios":"levelo://app?vid=e51f3b8f-2277-4636-88c7-d4fed1c89dba"},"vehicle_type_id":"4","last_reported":1774438428,"current_range_meters":4000,"station_id":"","pricing_plan_id":"cebpf4jnsgd1na2vs0mg"},{"bike_id":"0536964b-02dc-4960-badb-e4fe0611e68e","system_id":"levelo_inurba_marseille","lat":43.29635,"lon":5.38049,"is_reserved":false,"is_disabled":false,"rental_uris":{"android":"levelo://app?vid=0536964b-02dc-4960-badb-e4fe0611e68e","ios":"levelo://app?vid=0536964b-02dc-4960-badb-e4fe0611e68e"},"vehicle_type_id":"4","last_reported":1774438428,"current_range_meters":4000,"station_id":"","pricing_plan_id":"cebpf4jnsgd1na2vs0mg"},{"bike_id":"097ca7c5-a8a8-4ab5-8beb-e98c021eabd2","system_id":"levelo_inurba_marseille","lat":43.34177,"lon":5.40886,"is_reserved":false,"is_disabled":false,"rental_uris":{"android":"levelo://app?vid=097ca7c5-a8a8-4ab5-8beb-e98c021eabd2","ios":"levelo://app?vid=097ca7c5-a8a8-4ab5-8beb-e98c021eabd2"},"vehicle_type_id":"4","last_reported":1774438428,"current_range_meters":4000,"station_id":"ce4bhqh2rcd13ifvqhlg","pricing_plan_id":"cebpf4jnsgd1na2vs0mg"},{"bike_id":"2a772c19-d7d7-411b-97b5-2da7b5dc6a66","system_id":"levelo_inurba_marseille","lat":43.30161,"lon":5.38082,"is_reserved":false,"is_disabled":false,"rental_uris":{"android":"levelo://app?vid=2a772c19-d7d7-411b-97b5-2da7b5dc6a66","ios":"levelo://app?vid=2a772c19-d7d7-411b-97b5-2da7b5dc6a66"},"vehicle_type_id":"4","last_reported":1774438428,"current_range_meters":4000,"station_id":"ce4bgjp2rcd13ifvqbh0","pricing_plan_id":"cebpf4jnsgd1na2vs0mg"},{"bike_id":"e94d83da-a52c-4009-83db-8b37093608a6","system_id":"levelo_inurba_marseille","lat":43.22564,"lon":5.41619,"is_reserved":false,"is_disabled":false,"rental_uris":{"android":"levelo://app?vid=e94d83da-a52c-4009-83db-8b37093608a6","ios":"levelo://app?vid=e94d83da-a52c-4009-83db-8b37093608a6"},"vehicle_type_id":"4","last_reported":1774438428,"current_range_meters":4000,"station_id":"st_d2o4gvlbi1j2169b742g","pricing_plan_id":"cebpf4jnsgd1na2vs0mg"},{"bike_id":"9ca4b1da-0df4-426d-b237-eed2d4351450","system_id":"levelo_inurba_marseille","lat":43.23191,"lon":5.39985,"is_reserved":false,"is_disabled":false,"rental_uris":{"android":"levelo://app?vid=9ca4b1da-0df4-426d-b237-eed2d4351450","ios":"levelo://app?vid=9ca4b1da-0df4-426d-b237-eed2d4351450"},"vehicle_type_id":"4","last_reported":1774438428,"current_range_meters":4000,"station_id":"ce4bhn12rcd13ifvqgqg","pricing_plan_id":"cebpf4jnsgd1na2vs0mg"},{"bike_id":"dcc2c9db-79ba-4341-8d0e-f6ca29cae3f3","system_id":"levelo_inurba_marseille","lat":43.28271,"lon":5.35065,"is_reserved":false,"is_disabled":false,"rental_uris":{"android":"levelo://app?vid=dcc2c9db-79ba-4341-8d0e-f6ca29cae3f3","ios":"levelo://app?vid=dcc2c9db-79ba-4341-8d0e-f6ca29cae3f3"},"vehicle_type_id":"4","last_reported":1774438428,"current_range_meters":4400,"station_id":"ce4bhbp2rcd13ifvqerg","pricing_plan_id":"cebpf4jnsgd1na2vs0mg"},{"bike_id":"7b429af2-7ee0-4042-9728-d92f722627cd","system_id":"levelo_inurba_marseille","lat":43.26554,"lon":5.37288,"is_reserved":false,"is_disabled":false,"rental_uris":{"android":"levelo://app?vid=7b429af2-7ee0-4042-9728-d92f722627cd","ios":"levelo://app?vid=7b429af2-7ee0-4042-9728-d92f722627cd"},"vehicle_type_id":"4","last_reported":1774438428,"current_range_meters":4400,"station_id":"ce4bhg12rcd13ifvqf70","pricing_plan_id":"cebpf4jnsgd1na2vs0mg"},{"bike_id":"5436ae21-40b7-42d7-b176-db2ddf8cc4ab","system_id":"levelo_inurba_marseille","lat":43.23156,"lon":5.437,"is_reserved":false,"is_disabled":false,"rental_uris":{"android":"levelo://app?vid=5436ae21-40b7-42d7-b176-db2ddf8cc4ab","ios":"levelo://app?vid=5436ae21-40b7-42d7-b176-db2ddf8cc4ab"},"vehicle_type_id":"4","last_reported":1774438428,"current_range_meters":4400,"station_id":"ce4bhmp2rcd13ifvqgog","pricing_plan_id":"cebpf4jnsgd1na2vs0mg"},{"bike_id":"32855c63-6565-4db5-a8e6-ff047196a78d","system_id":"levelo_inurba_marseille","lat":43.28686,"lon":5.38671,"is_reserved":false,"is_disabled":false,"rental_uris":{"android":"levelo://app?vid=32855c63-6565-4db5-a8e6-ff047196a78d","ios":"levelo://app?vid=32855c63-6565-4db5-a8e6-ff047196a78d"},"vehicle_type_id":"4","last_reported":1774438428,"current_range_meters":4400,"station_id":"ce4bh492rcd13ifvqdug","pricing_plan_id":"cebpf4jnsgd1na2vs0mg"},{"bike_id":"6711ca2b-9a4e-46b1-892e-1007cc2a656e","system_id":"levelo_inurba_marseille","lat":43.28545,"lon":5.44123,"is_reserved":false,"is_disabled":false,"rental_uris":{"android":"levelo://app?vid=6711ca2b-9a4e-46b1-892e-1007cc2a656e","ios":"levelo://app?vid=6711ca2b-9a4e-46b1-892e-1007cc2a656e"},"vehicle_type_id":"4","last_reported":1774438428,"current_range_meters":4400,"station_id":"st_d3j3df2ikq2c7380ej80","pricing_plan_id":"cebpf4jnsgd1na2vs0mg"},{"bike_id":"70214f46-b448-478a-8e3a-0a5578a95784","system_id":"levelo_inurba_marseille","lat":43.31648,"lon":5.39338,"is_reserved":false,"is_disabled":false,"rental_uris":{"android":"levelo://app?vid=70214f46-b448-478a-8e3a-0a5578a95784","ios":"levelo://app?vid=70214f46-b448-478a-8e3a-0a5578a95784"},"vehicle_type_id":"4","last_reported":1774438428,"current_range_meters":4400,"station_id":"","pricing_plan_id":"cebpf4jnsgd1na2vs0mg"},{"bike_id":"ba1e580e-2080-4d73-a63b-c42fbb3f0b26","system_id":"levelo_inurba_marseille","lat":43.23178,"lon":5.4367,"is_reserved":false,"is_disabled":false,"rental_uris":{"android":"levelo://app?vid=ba1e580e-2080-4d73-a63b-c42fbb3f0b26","ios":"levelo://app?vid=ba1e580e-2080-4d73-a63b-c42fbb3f0b26"},"vehicle_type_id":"4","last_reported":1774438428,"current_range_meters":4400,"station_id":"ce4bhmp2rcd13ifvqgog","pricing_plan_id":"cebpf4jnsgd1na2vs0mg"},{"bike_id":"0c905920-39a3-4df9-a2cd-efad93fa0b7e","system_id":"levelo_inurba_marseille","lat":43.28717,"lon":5.4667,"is_reserved":false,"is_disabled":false,"rental_uris":{"android":"levelo://app?vid=0c905920-39a3-4df9-a2cd-efad93fa0b7e","ios":"levelo://app?vid=0c905920-39a3-4df9-a2cd-efad93fa0b7e"},"vehicle_type_id":"4","last_reported":1774438428,"current_range_meters":4400,"station_id":"st_d6tc3vkotcvc738tfjhg","pricing_plan_id":"cebpf4jnsgd1na2vs0mg"},{"bike_id":"f2522a16-8fa2-4104-b60c-00156d54dbd6","system_id":"levelo_inurba_marseille","lat":43.2378,"lon":5.36619,"is_reserved":false,"is_disabled":false,"rental_uris":{"android":"levelo://app?vid=f2522a16-8fa2-4104-b60c-00156d54dbd6","ios":"levelo://app?vid=f2522a16-8fa2-4104-b60c-00156d54dbd6"},"vehicle_type_id":"4","last_reported":1774438428,"current_range_meters":4800,"station_id":"st_d3nk18o9ro0c73en2l3g","pricing_plan_id":"cebpf4jnsgd1na2vs0mg"},{"bike_id":"f7e664bc-8cfe-465d-9dbe-128ca982aa9c","system_id":"levelo_inurba_marseille","lat":43.25007,"lon":5.38949,"is_reserved":false,"is_disabled":false,"rental_uris":{"android":"levelo://app?vid=f7e664bc-8cfe-465d-9dbe-128ca982aa9c","ios":"levelo://app?vid=f7e664bc-8cfe-465d-9dbe-128ca982aa9c"},"vehicle_type_id":"4","last_reported":1774438428,"current_range_meters":4800,"station_id":"ce4bhgp2rcd13ifvqfd0","pricing_plan_id":"cebpf4jnsgd1na2vs0mg"},{"bike_id":"445a363e-6635-4c6f-9d9b-6ed1d223c4e8","system_id":"levelo_inurba_marseille","lat":43.29558,"lon":5.43887,"is_reserved":false,"is_disabled":false,"rental_uris":{"android":"levelo://app?vid=445a363e-6635-4c6f-9d9b-6ed1d223c4e8","ios":"levelo://app?vid=445a363e-6635-4c6f-9d9b-6ed1d223c4e8"},"vehicle_type_id":"4","last_reported":1774438428,"current_range_meters":4800,"station_id":"","pricing_plan_id":"cebpf4jnsgd1na2vs0mg"},{"bike_id":"376d68ac-dfe2-457e-a926-5f3c33dd297d","system_id":"levelo_inurba_marseille","lat":43.24806,"lon":5.37456,"is_reserved":false,"is_disabled":false,"rental_uris":{"android":"levelo://app?vid=376d68ac-dfe2-457e-a926-5f3c33dd297d","ios":"levelo://app?vid=376d68ac-dfe2-457e-a926-5f3c33dd297d"},"vehicle_type_id":"4","last_reported":1774438428,"current_range_meters":4800,"station_id":"ce4bhgh2rcd13ifvqfb0","pricing_plan_id":"cebpf4jnsgd1na2vs0mg"},{"bike_id":"a21ce08b-748e-41eb-aca5-e1a217e075d0","system_id":"levelo_inurba_marseille","lat":43.23162,"lon":5.43708,"is_reserved":false,"is_disabled":false,"rental_uris":{"android":"levelo://app?vid=a21ce08b-748e-41eb-aca5-e1a217e075d0","ios":"levelo://app?vid=a21ce08b-748e-41eb-aca5-e1a217e075d0"},"vehicle_type_id":"4","last_reported":1774438428,"current_range_meters":4800,"station_id":"ce4bhmp2rcd13ifvqgog","pricing_plan_id":"cebpf4jnsgd1na2vs0mg"},{"bike_id":"3f067e37-527d-4bc5-a17e-87906664b337","system_id":"levelo_inurba_marseille","lat":43.29059,"lon":5.35919,"is_reserved":false,"is_disabled":false,"rental_uris":{"android":"levelo://app?vid=3f067e37-527d-4bc5-a17e-87906664b337","ios":"levelo://app?vid=3f067e37-527d-4bc5-a17e-87906664b337"},"vehicle_type_id":"4","last_reported":1774438428,"current_range_meters":4800,"station_id":"ce4bha92rcd13ifvqeg0","pricing_plan_id":"cebpf4jnsgd1na2vs0mg"},{"bike_id":"95390a68-6e0a-4cf2-a02f-4502c178b944","system_id":"levelo_inurba_marseille","lat":43.2511,"lon":5.40325,"is_reserved":false,"is_disabled":false,"rental_uris":{"android":"levelo://app?vid=95390a68-6e0a-4cf2-a02f-4502c178b944","ios":"levelo://app?vid=95390a68-6e0a-4cf2-a02f-4502c178b944"},"vehicle_type_id":"4","last_reported":1774438428,"current_range_meters":4800,"station_id":"ce4bhlh2rcd13ifvqgig","pricing_plan_id":"cebpf4jnsgd1na2vs0mg"},{"bike_id":"5f75fc59-ca0f-4412-acdb-852e0b310194","system_id":"levelo_inurba_marseille","lat":43.23153,"lon":5.43713,"is_reserved":false,"is_disabled":false,"rental_uris":{"android":"levelo://app?vid=5f75fc59-ca0f-4412-acdb-852e0b310194","ios":"levelo://app?vid=5f75fc59-ca0f-4412-acdb-852e0b310194"},"vehicle_type_id":"4","last_reported":1774438428,"current_range_meters":4800,"station_id":"ce4bhmp2rcd13ifvqgog","pricing_plan_id":"cebpf4jnsgd1na2vs0mg"},{"bike_id":"cbe143e8-3e8d-46c8-8239-3389a4661d28","system_id":"levelo_inurba_marseille","lat":43.30308,"lon":5.36936,"is_reserved":false,"is_disabled":false,"rental_uris":{"android":"levelo://app?vid=cbe143e8-3e8d-46c8-8239-3389a4661d28","ios":"levelo://app?vid=cbe143e8-3e8d-46c8-8239-3389a4661d28"},"vehicle_type_id":"4","last_reported":1774438428,"current_range_meters":4800,"station_id":"ce4bgqh2rcd13ifvqc5g","pricing_plan_id":"cebpf4jnsgd1na2vs0mg"},{"bike_id":"1bfe3958-2503-48b6-bc3f-6b6785e2e225","system_id":"levelo_inurba_marseille","lat":43.296454,"lon":5.375145,"is_reserved":false,"is_disabled":true,"rental_uris":{"android":"levelo://app?vid=1bfe3958-2503-48b6-bc3f-6b6785e2e225","ios":"levelo://app?vid=1bfe3958-2503-48b6-bc3f-6b6785e2e225"},"vehicle_type_id":"4","last_reported":1774438428,"current_range_meters":4800,"station_id":"ce4bhap2rcd13ifvqek0","pricing_plan_id":"cebpf4jnsgd1na2vs0mg"},{"bike_id":"13639e07-2b1d-4da9-8f46-07bec979ccd4","system_id":"levelo_inurba_marseille","lat":43.25335,"lon":5.4216,"is_reserved":false,"is_disabled":false,"rental_uris":{"android":"levelo://app?vid=13639e07-2b1d-4da9-8f46-07bec979ccd4","ios":"levelo://app?vid=13639e07-2b1d-4da9-8f46-07bec979ccd4"},"vehicle_type_id":"4","last_reported":1774438428,"current_range_meters":4800,"station_id":"st_d2m65c5bi1j21697t3ng","pricing_plan_id":"cebpf4jnsgd1na2vs0mg"},{"bike_id":"de1bdd91-8f66-4675-b85b-0bb21f92c43f","system_id":"levelo_inurba_marseille","lat":43.31165,"lon":5.3872,"is_reserved":false,"is_disabled":false,"rental_uris":{"android":"levelo://app?vid=de1bdd91-8f66-4675-b85b-0bb21f92c43f","ios":"levelo://app?vid=de1bdd91-8f66-4675-b85b-0bb21f92c43f"},"vehicle_type_id":"4","last_reported":1774438428,"current_range_meters":4800,"station_id":"ce4bgv12rcd13ifvqcp0","pricing_plan_id":"cebpf4jnsgd1na2vs0mg"},{"bike_id":"69c7dedb-e831-42c1-9502-923d17edb3d6","system_id":"levelo_inurba_marseille","lat":43.31035,"lon":5.37131,"is_reserved":false,"is_disabled":false,"rental_uris":{"android":"levelo://app?vid=69c7dedb-e831-42c1-9502-923d17edb3d6","ios":"levelo://app?vid=69c7dedb-e831-42c1-9502-923d17edb3d6"},"vehicle_type_id":"4","last_reported":1774438428,"current_range_meters":5600,"station_id":"st_d4kl2rp97mjs73e7tdfg","pricing_plan_id":"cebpf4jnsgd1na2vs0mg"},{"bike_id":"76d67dcd-ff47-49e9-b2cd-6c2e7176615e","system_id":"levelo_inurba_marseille","lat":43.26024,"lon":5.37554,"is_reserved":false,"is_disabled":false,"rental_uris":{"android":"levelo://app?vid=76d67dcd-ff47-49e9-b2cd-6c2e7176615e","ios":"levelo://app?vid=76d67dcd-ff47-49e9-b2cd-6c2e7176615e"},"vehicle_type_id":"4","last_reported":1774438428,"current_range_meters":5600,"station_id":"ce4bhgh2rcd13ifvqfa0","pricing_plan_id":"cebpf4jnsgd1na2vs0mg"},{"bike_id":"83732a6c-ebed-473c-9b13-eb7d63194259","system_id":"levelo_inurba_marseille","lat":43.21194,"lon":5.35053,"is_reserved":false,"is_disabled":false,"rental_uris":{"android":"levelo://app?vid=83732a6c-ebed-473c-9b13-eb7d63194259","ios":"levelo://app?vid=83732a6c-ebed-473c-9b13-eb7d63194259"},"vehicle_type_id":"4","last_reported":1774438428,"current_range_meters":5600,"station_id":"st_cvj6sg6p6f1abm77japg","pricing_plan_id":"cebpf4jnsgd1na2vs0mg"},{"bike_id":"3d0236ca-aef4-4966-9dcb-08a2cba2f7d7","system_id":"levelo_inurba_marseille","lat":43.28407,"lon":5.34995,"is_reserved":false,"is_disabled":false,"rental_uris":{"android":"levelo://app?vid=3d0236ca-aef4-4966-9dcb-08a2cba2f7d7","ios":"levelo://app?vid=3d0236ca-aef4-4966-9dcb-08a2cba2f7d7"},"vehicle_type_id":"4","last_reported":1774438428,"current_range_meters":5600,"station_id":"ce4bhbh2rcd13ifvqepg","pricing_plan_id":"cebpf4jnsgd1na2vs0mg"},{"bike_id":"c0b689e5-350b-4835-a209-95a8604ec264","system_id":"levelo_inurba_marseille","lat":43.27415,"lon":5.39416,"is_reserved":false,"is_disabled":true,"rental_uris":{"android":"levelo://app?vid=c0b689e5-350b-4835-a209-95a8604ec264","ios":"levelo://app?vid=c0b689e5-350b-4835-a209-95a8604ec264"},"vehicle_type_id":"4","last_reported":1774438428,"current_range_meters":5600,"station_id":"ce4bhdp2rcd13ifvqf20","pricing_plan_id":"cebpf4jnsgd1na2vs0mg"},{"bike_id":"34d17ae1-9016-4873-89d8-39e8193d5893","system_id":"levelo_inurba_marseille","lat":43.28434,"lon":5.39197,"is_reserved":false,"is_disabled":true,"rental_uris":{"android":"levelo://app?vid=34d17ae1-9016-4873-89d8-39e8193d5893","ios":"levelo://app?vid=34d17ae1-9016-4873-89d8-39e8193d5893"},"vehicle_type_id":"4","last_reported":1774438428,"current_range_meters":5600,"station_id":"ce4bhoh2rcd13ifvqh5g","pricing_plan_id":"cebpf4jnsgd1na2vs0mg"},{"bike_id":"8ba21890-7d18-4d86-9267-31e7661dcb9b","system_id":"levelo_inurba_marseille","lat":43.27079,"lon":5.42256,"is_reserved":false,"is_disabled":false,"rental_uris":{"android":"levelo://app?vid=8ba21890-7d18-4d86-9267-31e7661dcb9b","ios":"levelo://app?vid=8ba21890-7d18-4d86-9267-31e7661dcb9b"},"vehicle_type_id":"4","last_reported":1774438428,"current_range_meters":5600,"station_id":"ce4bhk92rcd13ifvqgb0","pricing_plan_id":"cebpf4jnsgd1na2vs0mg"},{"bike_id":"f9035f2c-b99c-4b0b-ae04-564b48f5f1b1","system_id":"levelo_inurba_marseille","lat":43.21192,"lon":5.3507,"is_reserved":false,"is_disabled":false,"rental_uris":{"android":"levelo://app?vid=f9035f2c-b99c-4b0b-ae04-564b48f5f1b1","ios":"levelo://app?vid=f9035f2c-b99c-4b0b-ae04-564b48f5f1b1"},"vehicle_type_id":"4","last_reported":1774438428,"current_range_meters":5600,"station_id":"st_cvj6sg6p6f1abm77japg","pricing_plan_id":"cebpf4jnsgd1na2vs0mg"},{"bike_id":"28979af1-3b43-4dcb-8701-c2287ea2694e","system_id":"levelo_inurba_marseille","lat":43.29537,"lon":5.39005,"is_reserved":false,"is_disabled":false,"rental_uris":{"android":"levelo://app?vid=28979af1-3b43-4dcb-8701-c2287ea2694e","ios":"levelo://app?vid=28979af1-3b43-4dcb-8701-c2287ea2694e"},"vehicle_type_id":"4","last_reported":1774438428,"current_range_meters":5600,"station_id":"ce4bh3p2rcd13ifvqdp0","pricing_plan_id":"cebpf4jnsgd1na2vs0mg"},{"bike_id":"43ae41ff-509f-477c-87aa-a6f2333b7925","system_id":"levelo_inurba_marseille","lat":43.29936,"lon":5.37441,"is_reserved":false,"is_disabled":true,"rental_uris":{"android":"levelo://app?vid=43ae41ff-509f-477c-87aa-a6f2333b7925","ios":"levelo://app?vid=43ae41ff-509f-477c-87aa-a6f2333b7925"},"vehicle_type_id":"4","last_reported":1774438428,"current_range_meters":6000,"station_id":"ce4bgjh2rcd13ifvqbg0","pricing_plan_id":"cebpf4jnsgd1na2vs0mg"},{"bike_id":"22a24422-8367-44e3-afc2-fd1672c2c7f5","system_id":"levelo_inurba_marseille","lat":43.28478,"lon":5.48386,"is_reserved":false,"is_disabled":false,"rental_uris":{"android":"levelo://app?vid=22a24422-8367-44e3-afc2-fd1672c2c7f5","ios":"levelo://app?vid=22a24422-8367-44e3-afc2-fd1672c2c7f5"},"vehicle_type_id":"4","last_reported":1774438428,"current_range_meters":6000,"station_id":"","pricing_plan_id":"cebpf4jnsgd1na2vs0mg"},{"bike_id":"1b0c10b7-7118-4e14-9bf0-e99231530584","system_id":"levelo_inurba_marseille","lat":43.29262,"lon":5.40887,"is_reserved":false,"is_disabled":false,"rental_uris":{"android":"levelo://app?vid=1b0c10b7-7118-4e14-9bf0-e99231530584","ios":"levelo://app?vid=1b0c10b7-7118-4e14-9bf0-e99231530584"},"vehicle_type_id":"4","last_reported":1774438428,"current_range_meters":6000,"station_id":"ce4bh192rcd13ifvqdc0","pricing_plan_id":"cebpf4jnsgd1na2vs0mg"},{"bike_id":"d6cedfd7-f851-4154-be58-5e7ef2f2c136","system_id":"levelo_inurba_marseille","lat":43.24941,"lon":5.40499,"is_reserved":false,"is_disabled":false,"rental_uris":{"android":"levelo://app?vid=d6cedfd7-f851-4154-be58-5e7ef2f2c136","ios":"levelo://app?vid=d6cedfd7-f851-4154-be58-5e7ef2f2c136"},"vehicle_type_id":"4","last_reported":1774438428,"current_range_meters":6000,"station_id":"st_d2ngiaodas8pm72gd1h0","pricing_plan_id":"cebpf4jnsgd1na2vs0mg"},{"bike_id":"f3f42c9a-bad9-48f4-b4dd-2acac751de67","system_id":"levelo_inurba_marseille","lat":43.29302,"lon":5.3718,"is_reserved":false,"is_disabled":false,"rental_uris":{"android":"levelo://app?vid=f3f42c9a-bad9-48f4-b4dd-2acac751de67","ios":"levelo://app?vid=f3f42c9a-bad9-48f4-b4dd-2acac751de67"},"vehicle_type_id":"4","last_reported":1774438428,"current_range_meters":6000,"station_id":"ce4bgh92rcd13ifvqb40","pricing_plan_id":"cebpf4jnsgd1na2vs0mg"},{"bike_id":"fb70ab8c-8410-4e25-833b-afc440104614","system_id":"levelo_inurba_marseille","lat":43.27339,"lon":5.39082,"is_reserved":false,"is_disabled":false,"rental_uris":{"android":"levelo://app?vid=fb70ab8c-8410-4e25-833b-afc440104614","ios":"levelo://app?vid=fb70ab8c-8410-4e25-833b-afc440104614"},"vehicle_type_id":"4","last_reported":1774438428,"current_range_meters":6000,"station_id":"ce4bhgp2rcd13ifvqfe0","pricing_plan_id":"cebpf4jnsgd1na2vs0mg"},{"bike_id":"87cea808-f671-40aa-b0db-76169ecb0162","system_id":"levelo_inurba_marseille","lat":43.27327,"lon":5.39074,"is_reserved":false,"is_disabled":false,"rental_uris":{"android":"levelo://app?vid=87cea808-f671-40aa-b0db-76169ecb0162","ios":"levelo://app?vid=87cea808-f671-40aa-b0db-76169ecb0162"},"vehicle_type_id":"4","last_reported":1774438428,"current_range_meters":6000,"station_id":"ce4bhgp2rcd13ifvqfe0","pricing_plan_id":"cebpf4jnsgd1na2vs0mg"},{"bike_id":"9410a0a8-dc51-4603-97cc-954a6674c66f","system_id":"levelo_inurba_marseille","lat":43.27174,"lon":5.4098,"is_reserved":false,"is_disabled":false,"rental_uris":{"android":"levelo://app?vid=9410a0a8-dc51-4603-97cc-954a6674c66f","ios":"levelo://app?vid=9410a0a8-dc51-4603-97cc-954a6674c66f"},"vehicle_type_id":"4","last_reported":1774438428,"current_range_meters":6000,"station_id":"ce4bhl12rcd13ifvqgf0","pricing_plan_id":"cebpf4jnsgd1na2vs0mg"},{"bike_id":"f4e12de3-12ee-449c-bb7b-82b4b799a0fa","system_id":"levelo_inurba_marseille","lat":43.246511,"lon":5.388933,"is_reserved":false,"is_disabled":true,"rental_uris":{"android":"levelo://app?vid=f4e12de3-12ee-449c-bb7b-82b4b799a0fa","ios":"levelo://app?vid=f4e12de3-12ee-449c-bb7b-82b4b799a0fa"},"vehicle_type_id":"4","last_reported":1774438428,"current_range_meters":6400,"station_id":"ce4bgg92rcd13ifvqb30","pricing_plan_id":"cebpf4jnsgd1na2vs0mg"},{"bike_id":"a925be4f-af4d-4c6c-804d-cf6aef5dd66c","system_id":"levelo_inurba_marseille","lat":43.31122,"lon":5.37768,"is_reserved":false,"is_disabled":false,"rental_uris":{"android":"levelo://app?vid=a925be4f-af4d-4c6c-804d-cf6aef5dd66c","ios":"levelo://app?vid=a925be4f-af4d-4c6c-804d-cf6aef5dd66c"},"vehicle_type_id":"4","last_reported":1774438428,"current_range_meters":6400,"station_id":"ce4bgt92rcd13ifvqcg0","pricing_plan_id":"cebpf4jnsgd1na2vs0mg"},{"bike_id":"eb066547-bfa0-411c-a0d2-e4752b8d93d2","system_id":"levelo_inurba_marseille","lat":43.23155,"lon":5.43716,"is_reserved":false,"is_disabled":false,"rental_uris":{"android":"levelo://app?vid=eb066547-bfa0-411c-a0d2-e4752b8d93d2","ios":"levelo://app?vid=eb066547-bfa0-411c-a0d2-e4752b8d93d2"},"vehicle_type_id":"4","last_reported":1774438428,"current_range_meters":6400,"station_id":"ce4bhmp2rcd13ifvqgog","pricing_plan_id":"cebpf4jnsgd1na2vs0mg"},{"bike_id":"fbe5bfea-dbdd-42c2-908b-8c935a9fcf5e","system_id":"levelo_inurba_marseille","lat":43.22588,"lon":5.41601,"is_reserved":false,"is_disabled":false,"rental_uris":{"android":"levelo://app?vid=fbe5bfea-dbdd-42c2-908b-8c935a9fcf5e","ios":"levelo://app?vid=fbe5bfea-dbdd-42c2-908b-8c935a9fcf5e"},"vehicle_type_id":"4","last_reported":1774438428,"current_range_meters":6400,"station_id":"st_d2o4gvlbi1j2169b742g","pricing_plan_id":"cebpf4jnsgd1na2vs0mg"},{"bike_id":"21a45244-c1c4-423b-9d37-4deb92a4a9b7","system_id":"levelo_inurba_marseille","lat":43.31081,"lon":5.37203,"is_reserved":false,"is_disabled":false,"rental_uris":{"android":"levelo://app?vid=21a45244-c1c4-423b-9d37-4deb92a4a9b7","ios":"levelo://app?vid=21a45244-c1c4-423b-9d37-4deb92a4a9b7"},"vehicle_type_id":"4","last_reported":1774438428,"current_range_meters":6400,"station_id":"st_d4kl2rp97mjs73e7tdfg","pricing_plan_id":"cebpf4jnsgd1na2vs0mg"},{"bike_id":"0054f337-d193-45e8-a395-56845f1fff96","system_id":"levelo_inurba_marseille","lat":43.23781,"lon":5.36615,"is_reserved":false,"is_disabled":false,"rental_uris":{"android":"levelo://app?vid=0054f337-d193-45e8-a395-56845f1fff96","ios":"levelo://app?vid=0054f337-d193-45e8-a395-56845f1fff96"},"vehicle_type_id":"4","last_reported":1774438428,"current_range_meters":6400,"station_id":"st_d3nk18o9ro0c73en2l3g","pricing_plan_id":"cebpf4jnsgd1na2vs0mg"},{"bike_id":"43619f6c-b072-4296-a792-e80fc1044f91","system_id":"levelo_inurba_marseille","lat":43.26555,"lon":5.37287,"is_reserved":false,"is_disabled":false,"rental_uris":{"android":"levelo://app?vid=43619f6c-b072-4296-a792-e80fc1044f91","ios":"levelo://app?vid=43619f6c-b072-4296-a792-e80fc1044f91"},"vehicle_type_id":"4","last_reported":1774438428,"current_range_meters":6400,"station_id":"ce4bhg12rcd13ifvqf70","pricing_plan_id":"cebpf4jnsgd1na2vs0mg"},{"bike_id":"737821d4-3f1b-4098-b4e6-4e47e71ef484","system_id":"levelo_inurba_marseille","lat":43.308957,"lon":5.371936,"is_reserved":false,"is_disabled":false,"rental_uris":{"android":"levelo://app?vid=737821d4-3f1b-4098-b4e6-4e47e71ef484","ios":"levelo://app?vid=737821d4-3f1b-4098-b4e6-4e47e71ef484"},"vehicle_type_id":"4","last_reported":1774438428,"current_range_meters":6400,"station_id":"ce4bguh2rcd13ifvqckg","pricing_plan_id":"cebpf4jnsgd1na2vs0mg"},{"bike_id":"41765925-c912-4b9e-8534-d733626e14d3","system_id":"levelo_inurba_marseille","lat":43.29307,"lon":5.38042,"is_reserved":false,"is_disabled":false,"rental_uris":{"android":"levelo://app?vid=41765925-c912-4b9e-8534-d733626e14d3","ios":"levelo://app?vid=41765925-c912-4b9e-8534-d733626e14d3"},"vehicle_type_id":"4","last_reported":1774438428,"current_range_meters":6400,"station_id":"","pricing_plan_id":"cebpf4jnsgd1na2vs0mg"},{"bike_id":"715aaeb5-0d16-47e0-ba84-f56328a24f5b","system_id":"levelo_inurba_marseille","lat":43.29888,"lon":5.4366,"is_reserved":false,"is_disabled":false,"rental_uris":{"android":"levelo://app?vid=715aaeb5-0d16-47e0-ba84-f56328a24f5b","ios":"levelo://app?vid=715aaeb5-0d16-47e0-ba84-f56328a24f5b"},"vehicle_type_id":"4","last_reported":1774438428,"current_range_meters":6800,"station_id":"ce4bhpp2rcd13ifvqhfg","pricing_plan_id":"cebpf4jnsgd1na2vs0mg"},{"bike_id":"79d2f434-1997-4d2c-bac7-a4f18888924f","system_id":"levelo_inurba_marseille","lat":43.27944,"lon":5.38713,"is_reserved":false,"is_disabled":false,"rental_uris":{"android":"levelo://app?vid=79d2f434-1997-4d2c-bac7-a4f18888924f","ios":"levelo://app?vid=79d2f434-1997-4d2c-bac7-a4f18888924f"},"vehicle_type_id":"4","last_reported":1774438428,"current_range_meters":6800,"station_id":"ce4bhg12rcd13ifvqf80","pricing_plan_id":"cebpf4jnsgd1na2vs0mg"},{"bike_id":"13f9f031-67ea-407a-a66e-c4b749576cd4","system_id":"levelo_inurba_marseille","lat":43.23947,"lon":5.36631,"is_reserved":false,"is_disabled":false,"rental_uris":{"android":"levelo://app?vid=13f9f031-67ea-407a-a66e-c4b749576cd4","ios":"levelo://app?vid=13f9f031-67ea-407a-a66e-c4b749576cd4"},"vehicle_type_id":"4","last_reported":1774438428,"current_range_meters":6800,"station_id":"ce4bhi12rcd13ifvqfp0","pricing_plan_id":"cebpf4jnsgd1na2vs0mg"},{"bike_id":"eb7f051c-07f1-41d2-9450-33cd5a984ca1","system_id":"levelo_inurba_marseille","lat":43.23061,"lon":5.35469,"is_reserved":false,"is_disabled":false,"rental_uris":{"android":"levelo://app?vid=eb7f051c-07f1-41d2-9450-33cd5a984ca1","ios":"levelo://app?vid=eb7f051c-07f1-41d2-9450-33cd5a984ca1"},"vehicle_type_id":"4","last_reported":1774438428,"current_range_meters":6800,"station_id":"cpo3342slgdg3j2ifvpg","pricing_plan_id":"cebpf4jnsgd1na2vs0mg"},{"bike_id":"7212c6ba-6dfd-4545-9588-72b468573d82","system_id":"levelo_inurba_marseille","lat":43.24958,"lon":5.40482,"is_reserved":false,"is_disabled":false,"rental_uris":{"android":"levelo://app?vid=7212c6ba-6dfd-4545-9588-72b468573d82","ios":"levelo://app?vid=7212c6ba-6dfd-4545-9588-72b468573d82"},"vehicle_type_id":"4","last_reported":1774438428,"current_range_meters":6800,"station_id":"st_d2ngiaodas8pm72gd1h0","pricing_plan_id":"cebpf4jnsgd1na2vs0mg"},{"bike_id":"c26e2a49-390a-4852-aeea-993ad1a06398","system_id":"levelo_inurba_marseille","lat":43.31892,"lon":5.36805,"is_reserved":false,"is_disabled":false,"rental_uris":{"android":"levelo://app?vid=c26e2a49-390a-4852-aeea-993ad1a06398","ios":"levelo://app?vid=c26e2a49-390a-4852-aeea-993ad1a06398"},"vehicle_type_id":"4","last_reported":1774438428,"current_range_meters":6800,"station_id":"st_d6o2h0d0559c73evc1b0","pricing_plan_id":"cebpf4jnsgd1na2vs0mg"},{"bike_id":"8be91747-7bce-4905-9954-b4846ec53de8","system_id":"levelo_inurba_marseille","lat":43.29731,"lon":5.36613,"is_reserved":false,"is_disabled":false,"rental_uris":{"android":"levelo://app?vid=8be91747-7bce-4905-9954-b4846ec53de8","ios":"levelo://app?vid=8be91747-7bce-4905-9954-b4846ec53de8"},"vehicle_type_id":"4","last_reported":1774438428,"current_range_meters":6800,"station_id":"ce4bgn12rcd13ifvqbt0","pricing_plan_id":"cebpf4jnsgd1na2vs0mg"},{"bike_id":"5487f2c1-c4a8-4daf-8490-88d7b84744cf","system_id":"levelo_inurba_marseille","lat":43.30302,"lon":5.36914,"is_reserved":false,"is_disabled":false,"rental_uris":{"android":"levelo://app?vid=5487f2c1-c4a8-4daf-8490-88d7b84744cf","ios":"levelo://app?vid=5487f2c1-c4a8-4daf-8490-88d7b84744cf"},"vehicle_type_id":"4","last_reported":1774438428,"current_range_meters":6800,"station_id":"ce4bgqh2rcd13ifvqc5g","pricing_plan_id":"cebpf4jnsgd1na2vs0mg"},{"bike_id":"5be5c06e-17ed-4c05-88a6-6a397d7320dd","system_id":"levelo_inurba_marseille","lat":43.25332,"lon":5.4217,"is_reserved":false,"is_disabled":false,"rental_uris":{"android":"levelo://app?vid=5be5c06e-17ed-4c05-88a6-6a397d7320dd","ios":"levelo://app?vid=5be5c06e-17ed-4c05-88a6-6a397d7320dd"},"vehicle_type_id":"4","last_reported":1774438428,"current_range_meters":6800,"station_id":"st_d2m65c5bi1j21697t3ng","pricing_plan_id":"cebpf4jnsgd1na2vs0mg"},{"bike_id":"9eb13b29-26ca-4ace-bd86-56165038af78","system_id":"levelo_inurba_marseille","lat":43.28463,"lon":5.3588,"is_reserved":false,"is_disabled":false,"rental_uris":{"android":"levelo://app?vid=9eb13b29-26ca-4ace-bd86-56165038af78","ios":"levelo://app?vid=9eb13b29-26ca-4ace-bd86-56165038af78"},"vehicle_type_id":"4","last_reported":1774438428,"current_range_meters":6800,"station_id":"ce4bhah2rcd13ifvqei0","pricing_plan_id":"cebpf4jnsgd1na2vs0mg"},{"bike_id":"adaf8e00-ca2c-49b5-9b35-6749da32aa87","system_id":"levelo_inurba_marseille","lat":43.33547,"lon":5.37456,"is_reserved":false,"is_disabled":false,"rental_uris":{"android":"levelo://app?vid=adaf8e00-ca2c-49b5-9b35-6749da32aa87","ios":"levelo://app?vid=adaf8e00-ca2c-49b5-9b35-6749da32aa87"},"vehicle_type_id":"4","last_reported":1774438428,"current_range_meters":6800,"station_id":"st_d46tts09ee8s73dlu43g","pricing_plan_id":"cebpf4jnsgd1na2vs0mg"},{"bike_id":"d7ed10fb-253a-44b0-a7ea-35dffda4d2a0","system_id":"levelo_inurba_marseille","lat":43.24793,"lon":5.37469,"is_reserved":false,"is_disabled":false,"rental_uris":{"android":"levelo://app?vid=d7ed10fb-253a-44b0-a7ea-35dffda4d2a0","ios":"levelo://app?vid=d7ed10fb-253a-44b0-a7ea-35dffda4d2a0"},"vehicle_type_id":"4","last_reported":1774438428,"current_range_meters":6800,"station_id":"ce4bhgh2rcd13ifvqfb0","pricing_plan_id":"cebpf4jnsgd1na2vs0mg"},{"bike_id":"aae792bd-1c8a-454d-ba57-45007311d229","system_id":"levelo_inurba_marseille","lat":43.2257,"lon":5.41576,"is_reserved":false,"is_disabled":false,"rental_uris":{"android":"levelo://app?vid=aae792bd-1c8a-454d-ba57-45007311d229","ios":"levelo://app?vid=aae792bd-1c8a-454d-ba57-45007311d229"},"vehicle_type_id":"4","last_reported":1774438428,"current_range_meters":6800,"station_id":"st_d2o4gvlbi1j2169b742g","pricing_plan_id":"cebpf4jnsgd1na2vs0mg"},{"bike_id":"21212254-e5a0-4af6-a45f-ed4c631ca773","system_id":"levelo_inurba_marseille","lat":43.25544,"lon":5.37636,"is_reserved":false,"is_disabled":false,"rental_uris":{"android":"levelo://app?vid=21212254-e5a0-4af6-a45f-ed4c631ca773","ios":"levelo://app?vid=21212254-e5a0-4af6-a45f-ed4c631ca773"},"vehicle_type_id":"4","last_reported":1774438428,"current_range_meters":7200,"station_id":"","pricing_plan_id":"cebpf4jnsgd1na2vs0mg"},{"bike_id":"390642d5-ebc3-4bda-abf8-55b0c8070dc5","system_id":"levelo_inurba_marseille","lat":43.26681,"lon":5.382733,"is_reserved":false,"is_disabled":true,"rental_uris":{"android":"levelo://app?vid=390642d5-ebc3-4bda-abf8-55b0c8070dc5","ios":"levelo://app?vid=390642d5-ebc3-4bda-abf8-55b0c8070dc5"},"vehicle_type_id":"4","last_reported":1774438428,"current_range_meters":7200,"station_id":"ce4bhg92rcd13ifvqf90","pricing_plan_id":"cebpf4jnsgd1na2vs0mg"},{"bike_id":"8e77315d-88e4-4eb1-8071-0e263b7fc688","system_id":"levelo_inurba_marseille","lat":43.23917,"lon":5.37441,"is_reserved":false,"is_disabled":false,"rental_uris":{"android":"levelo://app?vid=8e77315d-88e4-4eb1-8071-0e263b7fc688","ios":"levelo://app?vid=8e77315d-88e4-4eb1-8071-0e263b7fc688"},"vehicle_type_id":"4","last_reported":1774438428,"current_range_meters":7200,"station_id":"st_d6sm7csbq4hs73f8fpjg","pricing_plan_id":"cebpf4jnsgd1na2vs0mg"},{"bike_id":"61d5109e-e9d2-457a-bf42-8fd667b83cd3","system_id":"levelo_inurba_marseille","lat":43.30372,"lon":5.42486,"is_reserved":false,"is_disabled":false,"rental_uris":{"android":"levelo://app?vid=61d5109e-e9d2-457a-bf42-8fd667b83cd3","ios":"levelo://app?vid=61d5109e-e9d2-457a-bf42-8fd667b83cd3"},"vehicle_type_id":"4","last_reported":1774438428,"current_range_meters":7200,"station_id":"ce4bhoh2rcd13ifvqh6g","pricing_plan_id":"cebpf4jnsgd1na2vs0mg"},{"bike_id":"e8ba5069-6ba5-4607-ba76-37a602e090e0","system_id":"levelo_inurba_marseille","lat":43.26375,"lon":5.41074,"is_reserved":false,"is_disabled":false,"rental_uris":{"android":"levelo://app?vid=e8ba5069-6ba5-4607-ba76-37a602e090e0","ios":"levelo://app?vid=e8ba5069-6ba5-4607-ba76-37a602e090e0"},"vehicle_type_id":"4","last_reported":1774438428,"current_range_meters":7200,"station_id":"st_d4e5ca6na9uc73bfl5fg","pricing_plan_id":"cebpf4jnsgd1na2vs0mg"},{"bike_id":"55f38c8e-1f2a-4c56-a950-839284d0263b","system_id":"levelo_inurba_marseille","lat":43.26681,"lon":5.38265,"is_reserved":false,"is_disabled":false,"rental_uris":{"android":"levelo://app?vid=55f38c8e-1f2a-4c56-a950-839284d0263b","ios":"levelo://app?vid=55f38c8e-1f2a-4c56-a950-839284d0263b"},"vehicle_type_id":"4","last_reported":1774438428,"current_range_meters":7200,"station_id":"ce4bhhp2rcd13ifvqfm0","pricing_plan_id":"cebpf4jnsgd1na2vs0mg"},{"bike_id":"05f2e3f0-a4b3-4470-817a-2790bf76d4b0","system_id":"levelo_inurba_marseille","lat":43.241485,"lon":5.363936,"is_reserved":false,"is_disabled":false,"rental_uris":{"android":"levelo://app?vid=05f2e3f0-a4b3-4470-817a-2790bf76d4b0","ios":"levelo://app?vid=05f2e3f0-a4b3-4470-817a-2790bf76d4b0"},"vehicle_type_id":"4","last_reported":1774438428,"current_range_meters":7200,"station_id":"cpo36qri1sfpv3e86is0","pricing_plan_id":"cebpf4jnsgd1na2vs0mg"},{"bike_id":"5c39f7cf-c7f7-4747-b217-e778a50c0011","system_id":"levelo_inurba_marseille","lat":43.29949,"lon":5.37617,"is_reserved":false,"is_disabled":false,"rental_uris":{"android":"levelo://app?vid=5c39f7cf-c7f7-4747-b217-e778a50c0011","ios":"levelo://app?vid=5c39f7cf-c7f7-4747-b217-e778a50c0011"},"vehicle_type_id":"4","last_reported":1774438428,"current_range_meters":7200,"station_id":"","pricing_plan_id":"cebpf4jnsgd1na2vs0mg"},{"bike_id":"c1e92c70-aede-452c-8e8c-6914c0324e0c","system_id":"levelo_inurba_marseille","lat":43.29035,"lon":5.35901,"is_reserved":false,"is_disabled":false,"rental_uris":{"android":"levelo://app?vid=c1e92c70-aede-452c-8e8c-6914c0324e0c","ios":"levelo://app?vid=c1e92c70-aede-452c-8e8c-6914c0324e0c"},"vehicle_type_id":"4","last_reported":1774438428,"current_range_meters":7200,"station_id":"ce4bha92rcd13ifvqeg0","pricing_plan_id":"cebpf4jnsgd1na2vs0mg"},{"bike_id":"5ece89f7-1d14-49b1-bf0b-557411e0fe9a","system_id":"levelo_inurba_marseille","lat":43.31071,"lon":5.37121,"is_reserved":false,"is_disabled":false,"rental_uris":{"android":"levelo://app?vid=5ece89f7-1d14-49b1-bf0b-557411e0fe9a","ios":"levelo://app?vid=5ece89f7-1d14-49b1-bf0b-557411e0fe9a"},"vehicle_type_id":"4","last_reported":1774438428,"current_range_meters":7200,"station_id":"st_d4kl2rp97mjs73e7tdfg","pricing_plan_id":"cebpf4jnsgd1na2vs0mg"},{"bike_id":"785b0aab-4bf0-4a95-afa1-cc4ca163b889","system_id":"levelo_inurba_marseille","lat":43.301994,"lon":5.381739,"is_reserved":false,"is_disabled":false,"rental_uris":{"android":"levelo://app?vid=785b0aab-4bf0-4a95-afa1-cc4ca163b889","ios":"levelo://app?vid=785b0aab-4bf0-4a95-afa1-cc4ca163b889"},"vehicle_type_id":"4","last_reported":1774438428,"current_range_meters":7200,"station_id":"ce4bgjp2rcd13ifvqbh0","pricing_plan_id":"cebpf4jnsgd1na2vs0mg"},{"bike_id":"2be22a51-ba76-4485-8507-d4eb52140ffc","system_id":"levelo_inurba_marseille","lat":43.30953,"lon":5.39035,"is_reserved":false,"is_disabled":false,"rental_uris":{"android":"levelo://app?vid=2be22a51-ba76-4485-8507-d4eb52140ffc","ios":"levelo://app?vid=2be22a51-ba76-4485-8507-d4eb52140ffc"},"vehicle_type_id":"4","last_reported":1774438428,"current_range_meters":7200,"station_id":"ce4bgup2rcd13ifvqco0","pricing_plan_id":"cebpf4jnsgd1na2vs0mg"},{"bike_id":"d594e935-ec7a-4a10-af1c-e7aeb3a4a3cc","system_id":"levelo_inurba_marseille","lat":43.25372,"lon":5.4216,"is_reserved":false,"is_disabled":false,"rental_uris":{"android":"levelo://app?vid=d594e935-ec7a-4a10-af1c-e7aeb3a4a3cc","ios":"levelo://app?vid=d594e935-ec7a-4a10-af1c-e7aeb3a4a3cc"},"vehicle_type_id":"4","last_reported":1774438428,"current_range_meters":7200,"station_id":"st_d2m65c5bi1j21697t3ng","pricing_plan_id":"cebpf4jnsgd1na2vs0mg"},{"bike_id":"89673b48-b93e-49b1-91bc-4a5460ed425e","system_id":"levelo_inurba_marseille","lat":43.29897,"lon":5.43661,"is_reserved":false,"is_disabled":false,"rental_uris":{"android":"levelo://app?vid=89673b48-b93e-49b1-91bc-4a5460ed425e","ios":"levelo://app?vid=89673b48-b93e-49b1-91bc-4a5460ed425e"},"vehicle_type_id":"4","last_reported":1774438428,"current_range_meters":8000,"station_id":"ce4bhpp2rcd13ifvqhfg","pricing_plan_id":"cebpf4jnsgd1na2vs0mg"},{"bike_id":"aa929685-e4dd-4a31-a1c6-979463fa81a3","system_id":"levelo_inurba_marseille","lat":43.28481,"lon":5.48358,"is_reserved":false,"is_disabled":false,"rental_uris":{"android":"levelo://app?vid=aa929685-e4dd-4a31-a1c6-979463fa81a3","ios":"levelo://app?vid=aa929685-e4dd-4a31-a1c6-979463fa81a3"},"vehicle_type_id":"4","last_reported":1774438428,"current_range_meters":8000,"station_id":"st_d3svhcjqgbts73a3dn0g","pricing_plan_id":"cebpf4jnsgd1na2vs0mg"},{"bike_id":"484f2abe-81d9-4c3a-92bb-99d4e164fc66","system_id":"levelo_inurba_marseille","lat":43.27517,"lon":5.41576,"is_reserved":false,"is_disabled":false,"rental_uris":{"android":"levelo://app?vid=484f2abe-81d9-4c3a-92bb-99d4e164fc66","ios":"levelo://app?vid=484f2abe-81d9-4c3a-92bb-99d4e164fc66"},"vehicle_type_id":"4","last_reported":1774438428,"current_range_meters":8000,"station_id":"st_d6im8g6chgec73a5pndg","pricing_plan_id":"cebpf4jnsgd1na2vs0mg"},{"bike_id":"76874935-a550-4b44-90a3-28eb485c749a","system_id":"levelo_inurba_marseille","lat":43.29635,"lon":5.37148,"is_reserved":false,"is_disabled":true,"rental_uris":{"android":"levelo://app?vid=76874935-a550-4b44-90a3-28eb485c749a","ios":"levelo://app?vid=76874935-a550-4b44-90a3-28eb485c749a"},"vehicle_type_id":"4","last_reported":1774438428,"current_range_meters":8000,"station_id":"ce4bgnh2rcd13ifvqc0g","pricing_plan_id":"cebpf4jnsgd1na2vs0mg"},{"bike_id":"bac3d23a-ec72-4891-8dbf-a53526dcdaef","system_id":"levelo_inurba_marseille","lat":43.27434,"lon":5.39408,"is_reserved":false,"is_disabled":false,"rental_uris":{"android":"levelo://app?vid=bac3d23a-ec72-4891-8dbf-a53526dcdaef","ios":"levelo://app?vid=bac3d23a-ec72-4891-8dbf-a53526dcdaef"},"vehicle_type_id":"4","last_reported":1774438428,"current_range_meters":8000,"station_id":"ce4bhdp2rcd13ifvqf20","pricing_plan_id":"cebpf4jnsgd1na2vs0mg"},{"bike_id":"11286924-4320-469f-b71e-51af456e8de4","system_id":"levelo_inurba_marseille","lat":43.28701,"lon":5.39978,"is_reserved":false,"is_disabled":false,"rental_uris":{"android":"levelo://app?vid=11286924-4320-469f-b71e-51af456e8de4","ios":"levelo://app?vid=11286924-4320-469f-b71e-51af456e8de4"},"vehicle_type_id":"4","last_reported":1774438428,"current_range_meters":8000,"station_id":"ce4bho92rcd13ifvqh3g","pricing_plan_id":"cebpf4jnsgd1na2vs0mg"},{"bike_id":"39945977-9066-43d3-a185-a18f02027ae1","system_id":"levelo_inurba_marseille","lat":43.29819,"lon":5.38134,"is_reserved":false,"is_disabled":false,"rental_uris":{"android":"levelo://app?vid=39945977-9066-43d3-a185-a18f02027ae1","ios":"levelo://app?vid=39945977-9066-43d3-a185-a18f02027ae1"},"vehicle_type_id":"4","last_reported":1774438428,"current_range_meters":8000,"station_id":"ce4bgip2rcd13ifvqbb0","pricing_plan_id":"cebpf4jnsgd1na2vs0mg"},{"bike_id":"7bb6d3d4-6709-449c-be6c-54c5e239dad9","system_id":"levelo_inurba_marseille","lat":43.29812,"lon":5.381056,"is_reserved":false,"is_disabled":false,"rental_uris":{"android":"levelo://app?vid=7bb6d3d4-6709-449c-be6c-54c5e239dad9","ios":"levelo://app?vid=7bb6d3d4-6709-449c-be6c-54c5e239dad9"},"vehicle_type_id":"4","last_reported":1774438428,"current_range_meters":8000,"station_id":"ce4bgip2rcd13ifvqbb0","pricing_plan_id":"cebpf4jnsgd1na2vs0mg"},{"bike_id":"4d0f13ff-9e4f-4588-8dac-238cbd3df610","system_id":"levelo_inurba_marseille","lat":43.3019,"lon":5.36609,"is_reserved":false,"is_disabled":false,"rental_uris":{"android":"levelo://app?vid=4d0f13ff-9e4f-4588-8dac-238cbd3df610","ios":"levelo://app?vid=4d0f13ff-9e4f-4588-8dac-238cbd3df610"},"vehicle_type_id":"4","last_reported":1774438428,"current_range_meters":8000,"station_id":"ce4bgrh2rcd13ifvqc8g","pricing_plan_id":"cebpf4jnsgd1na2vs0mg"},{"bike_id":"caf99c90-512b-4068-ace7-e50485e87cdf","system_id":"levelo_inurba_marseille","lat":43.2928,"lon":5.36844,"is_reserved":false,"is_disabled":false,"rental_uris":{"android":"levelo://app?vid=caf99c90-512b-4068-ace7-e50485e87cdf","ios":"levelo://app?vid=caf99c90-512b-4068-ace7-e50485e87cdf"},"vehicle_type_id":"4","last_reported":1774438428,"current_range_meters":8000,"station_id":"ce4bhbp2rcd13ifvqesg","pricing_plan_id":"cebpf4jnsgd1na2vs0mg"},{"bike_id":"18adfd8d-4070-4d1a-8a22-a62bbb566b9b","system_id":"levelo_inurba_marseille","lat":43.30944,"lon":5.39031,"is_reserved":false,"is_disabled":false,"rental_uris":{"android":"levelo://app?vid=18adfd8d-4070-4d1a-8a22-a62bbb566b9b","ios":"levelo://app?vid=18adfd8d-4070-4d1a-8a22-a62bbb566b9b"},"vehicle_type_id":"4","last_reported":1774438428,"current_range_meters":8000,"station_id":"ce4bgup2rcd13ifvqco0","pricing_plan_id":"cebpf4jnsgd1na2vs0mg"},{"bike_id":"e73aa5c4-587d-43ed-8ac6-1108384813a2","system_id":"levelo_inurba_marseille","lat":43.27935,"lon":5.39581,"is_reserved":false,"is_disabled":true,"rental_uris":{"android":"levelo://app?vid=e73aa5c4-587d-43ed-8ac6-1108384813a2","ios":"levelo://app?vid=e73aa5c4-587d-43ed-8ac6-1108384813a2"},"vehicle_type_id":"4","last_reported":1774438428,"current_range_meters":8000,"station_id":"ce4bhf92rcd13ifvqf40","pricing_plan_id":"cebpf4jnsgd1na2vs0mg"},{"bike_id":"7304ae5a-0589-4c83-a07f-dc821a35d7a1","system_id":"levelo_inurba_marseille","lat":43.30155,"lon":5.38116,"is_reserved":false,"is_disabled":true,"rental_uris":{"android":"levelo://app?vid=7304ae5a-0589-4c83-a07f-dc821a35d7a1","ios":"levelo://app?vid=7304ae5a-0589-4c83-a07f-dc821a35d7a1"},"vehicle_type_id":"4","last_reported":1774438428,"current_range_meters":8000,"station_id":"","pricing_plan_id":"cebpf4jnsgd1na2vs0mg"},{"bike_id":"81afbade-9b61-4865-965d-d9c81a599521","system_id":"levelo_inurba_marseille","lat":43.23772,"lon":5.36667,"is_reserved":false,"is_disabled":false,"rental_uris":{"android":"levelo://app?vid=81afbade-9b61-4865-965d-d9c81a599521","ios":"levelo://app?vid=81afbade-9b61-4865-965d-d9c81a599521"},"vehicle_type_id":"4","last_reported":1774438428,"current_range_meters":8000,"station_id":"st_d3nk18o9ro0c73en2l3g","pricing_plan_id":"cebpf4jnsgd1na2vs0mg"},{"bike_id":"a262f43d-85a2-4a30-93dd-8651921757f5","system_id":"levelo_inurba_marseille","lat":43.23073,"lon":5.4375,"is_reserved":false,"is_disabled":false,"rental_uris":{"android":"levelo://app?vid=a262f43d-85a2-4a30-93dd-8651921757f5","ios":"levelo://app?vid=a262f43d-85a2-4a30-93dd-8651921757f5"},"vehicle_type_id":"4","last_reported":1774438428,"current_range_meters":8000,"station_id":"ce4bhmp2rcd13ifvqgog","pricing_plan_id":"cebpf4jnsgd1na2vs0mg"},{"bike_id":"b236ba0f-68b9-4f75-96e1-de33848f6431","system_id":"levelo_inurba_marseille","lat":43.30901,"lon":5.36849,"is_reserved":false,"is_disabled":false,"rental_uris":{"android":"levelo://app?vid=b236ba0f-68b9-4f75-96e1-de33848f6431","ios":"levelo://app?vid=b236ba0f-68b9-4f75-96e1-de33848f6431"},"vehicle_type_id":"4","last_reported":1774438428,"current_range_meters":8000,"station_id":"ce4bgn92rcd13ifvqbvg","pricing_plan_id":"cebpf4jnsgd1na2vs0mg"},{"bike_id":"2f430c62-15bb-430c-969c-56b5339d66a3","system_id":"levelo_inurba_marseille","lat":43.28546,"lon":5.44081,"is_reserved":false,"is_disabled":false,"rental_uris":{"android":"levelo://app?vid=2f430c62-15bb-430c-969c-56b5339d66a3","ios":"levelo://app?vid=2f430c62-15bb-430c-969c-56b5339d66a3"},"vehicle_type_id":"4","last_reported":1774438428,"current_range_meters":8000,"station_id":"st_d3j3df2ikq2c7380ej80","pricing_plan_id":"cebpf4jnsgd1na2vs0mg"},{"bike_id":"0df6d16f-36d4-42c1-8335-b8a697e6bb13","system_id":"levelo_inurba_marseille","lat":43.29563,"lon":5.3753,"is_reserved":false,"is_disabled":false,"rental_uris":{"android":"levelo://app?vid=0df6d16f-36d4-42c1-8335-b8a697e6bb13","ios":"levelo://app?vid=0df6d16f-36d4-42c1-8335-b8a697e6bb13"},"vehicle_type_id":"4","last_reported":1774438428,"current_range_meters":8400,"station_id":"ce4bgh92rcd13ifvqb50","pricing_plan_id":"cebpf4jnsgd1na2vs0mg"},{"bike_id":"7bd56366-368c-4244-8c16-7c2a34fab141","system_id":"levelo_inurba_marseille","lat":43.26206,"lon":5.37458,"is_reserved":false,"is_disabled":false,"rental_uris":{"android":"levelo://app?vid=7bd56366-368c-4244-8c16-7c2a34fab141","ios":"levelo://app?vid=7bd56366-368c-4244-8c16-7c2a34fab141"},"vehicle_type_id":"4","last_reported":1774438428,"current_range_meters":8400,"station_id":"ce4bhgp2rcd13ifvqfc0","pricing_plan_id":"cebpf4jnsgd1na2vs0mg"},{"bike_id":"d64c94f3-e268-41de-bac3-5a218887d9b5","system_id":"levelo_inurba_marseille","lat":43.28478,"lon":5.48398,"is_reserved":false,"is_disabled":false,"rental_uris":{"android":"levelo://app?vid=d64c94f3-e268-41de-bac3-5a218887d9b5","ios":"levelo://app?vid=d64c94f3-e268-41de-bac3-5a218887d9b5"},"vehicle_type_id":"4","last_reported":1774438428,"current_range_meters":8400,"station_id":"","pricing_plan_id":"cebpf4jnsgd1na2vs0mg"},{"bike_id":"db8e1c36-1d9c-44d2-bc2d-f91041c6fca2","system_id":"levelo_inurba_marseille","lat":43.28442,"lon":5.45783,"is_reserved":false,"is_disabled":false,"rental_uris":{"android":"levelo://app?vid=db8e1c36-1d9c-44d2-bc2d-f91041c6fca2","ios":"levelo://app?vid=db8e1c36-1d9c-44d2-bc2d-f91041c6fca2"},"vehicle_type_id":"4","last_reported":1774438428,"current_range_meters":8400,"station_id":"","pricing_plan_id":"cebpf4jnsgd1na2vs0mg"},{"bike_id":"b9a275c9-d51f-4f11-a776-e728aae18c62","system_id":"levelo_inurba_marseille","lat":43.2532,"lon":5.42194,"is_reserved":false,"is_disabled":false,"rental_uris":{"android":"levelo://app?vid=b9a275c9-d51f-4f11-a776-e728aae18c62","ios":"levelo://app?vid=b9a275c9-d51f-4f11-a776-e728aae18c62"},"vehicle_type_id":"4","last_reported":1774438428,"current_range_meters":8400,"station_id":"st_d2m65c5bi1j21697t3ng","pricing_plan_id":"cebpf4jnsgd1na2vs0mg"},{"bike_id":"7d696d83-90f4-4587-9db0-36234620c7a4","system_id":"levelo_inurba_marseille","lat":43.29314,"lon":5.37174,"is_reserved":false,"is_disabled":false,"rental_uris":{"android":"levelo://app?vid=7d696d83-90f4-4587-9db0-36234620c7a4","ios":"levelo://app?vid=7d696d83-90f4-4587-9db0-36234620c7a4"},"vehicle_type_id":"4","last_reported":1774438428,"current_range_meters":8400,"station_id":"ce4bgh92rcd13ifvqb40","pricing_plan_id":"cebpf4jnsgd1na2vs0mg"},{"bike_id":"165a6e23-b51b-494f-8311-42921e9991e2","system_id":"levelo_inurba_marseille","lat":43.24808,"lon":5.37447,"is_reserved":false,"is_disabled":false,"rental_uris":{"android":"levelo://app?vid=165a6e23-b51b-494f-8311-42921e9991e2","ios":"levelo://app?vid=165a6e23-b51b-494f-8311-42921e9991e2"},"vehicle_type_id":"4","last_reported":1774438428,"current_range_meters":8400,"station_id":"ce4bhgh2rcd13ifvqfb0","pricing_plan_id":"cebpf4jnsgd1na2vs0mg"},{"bike_id":"451e822b-d17c-41b3-aa86-e9da4e66ded2","system_id":"levelo_inurba_marseille","lat":43.23973,"lon":5.36619,"is_reserved":false,"is_disabled":false,"rental_uris":{"android":"levelo://app?vid=451e822b-d17c-41b3-aa86-e9da4e66ded2","ios":"levelo://app?vid=451e822b-d17c-41b3-aa86-e9da4e66ded2"},"vehicle_type_id":"4","last_reported":1774438428,"current_range_meters":8400,"station_id":"ce4bhi12rcd13ifvqfp0","pricing_plan_id":"cebpf4jnsgd1na2vs0mg"},{"bike_id":"bf1be33d-35b3-4c19-bb73-2745f785f1d5","system_id":"levelo_inurba_marseille","lat":43.29296,"lon":5.37451,"is_reserved":false,"is_disabled":false,"rental_uris":{"android":"levelo://app?vid=bf1be33d-35b3-4c19-bb73-2745f785f1d5","ios":"levelo://app?vid=bf1be33d-35b3-4c19-bb73-2745f785f1d5"},"vehicle_type_id":"4","last_reported":1774438428,"current_range_meters":8400,"station_id":"ce4bgi12rcd13ifvqb70","pricing_plan_id":"cebpf4jnsgd1na2vs0mg"},{"bike_id":"8ec4dad8-6468-4a79-836f-e910aa05c835","system_id":"levelo_inurba_marseille","lat":43.24155,"lon":5.39686,"is_reserved":false,"is_disabled":false,"rental_uris":{"android":"levelo://app?vid=8ec4dad8-6468-4a79-836f-e910aa05c835","ios":"levelo://app?vid=8ec4dad8-6468-4a79-836f-e910aa05c835"},"vehicle_type_id":"4","last_reported":1774438428,"current_range_meters":8400,"station_id":"ce4bhn12rcd13ifvqgpg","pricing_plan_id":"cebpf4jnsgd1na2vs0mg"},{"bike_id":"f244068a-97ac-4865-b07d-50ca501f7033","system_id":"levelo_inurba_marseille","lat":43.22929,"lon":5.35389,"is_reserved":false,"is_disabled":false,"rental_uris":{"android":"levelo://app?vid=f244068a-97ac-4865-b07d-50ca501f7033","ios":"levelo://app?vid=f244068a-97ac-4865-b07d-50ca501f7033"},"vehicle_type_id":"4","last_reported":1774438428,"current_range_meters":8400,"station_id":"cpo3532slgdg3j2ikp40","pricing_plan_id":"cebpf4jnsgd1na2vs0mg"},{"bike_id":"2b02fbcd-a7a2-4915-83b1-e920498ea9c9","system_id":"levelo_inurba_marseille","lat":43.27209,"lon":5.39175,"is_reserved":false,"is_disabled":false,"rental_uris":{"android":"levelo://app?vid=2b02fbcd-a7a2-4915-83b1-e920498ea9c9","ios":"levelo://app?vid=2b02fbcd-a7a2-4915-83b1-e920498ea9c9"},"vehicle_type_id":"4","last_reported":1774438428,"current_range_meters":8400,"station_id":"ce4bhhp2rcd13ifvqfm0","pricing_plan_id":"cebpf4jnsgd1na2vs0mg"},{"bike_id":"03b19331-36bc-44f5-a415-732e42b858c6","system_id":"levelo_inurba_marseille","lat":43.24965,"lon":5.40464,"is_reserved":false,"is_disabled":false,"rental_uris":{"android":"levelo://app?vid=03b19331-36bc-44f5-a415-732e42b858c6","ios":"levelo://app?vid=03b19331-36bc-44f5-a415-732e42b858c6"},"vehicle_type_id":"4","last_reported":1774438428,"current_range_meters":8400,"station_id":"st_d2ngiaodas8pm72gd1h0","pricing_plan_id":"cebpf4jnsgd1na2vs0mg"},{"bike_id":"5ec79b4e-9893-4c40-8854-29e1fdef2ce2","system_id":"levelo_inurba_marseille","lat":43.31902,"lon":5.36805,"is_reserved":false,"is_disabled":false,"rental_uris":{"android":"levelo://app?vid=5ec79b4e-9893-4c40-8854-29e1fdef2ce2","ios":"levelo://app?vid=5ec79b4e-9893-4c40-8854-29e1fdef2ce2"},"vehicle_type_id":"4","last_reported":1774438428,"current_range_meters":8800,"station_id":"st_d6o2h0d0559c73evc1b0","pricing_plan_id":"cebpf4jnsgd1na2vs0mg"},{"bike_id":"c2a54272-216d-4259-8d27-ca5ae4efadfd","system_id":"levelo_inurba_marseille","lat":43.275701,"lon":5.384344,"is_reserved":false,"is_disabled":false,"rental_uris":{"android":"levelo://app?vid=c2a54272-216d-4259-8d27-ca5ae4efadfd","ios":"levelo://app?vid=c2a54272-216d-4259-8d27-ca5ae4efadfd"},"vehicle_type_id":"4","last_reported":1774438428,"current_range_meters":8800,"station_id":"ce4bhh92rcd13ifvqfi0","pricing_plan_id":"cebpf4jnsgd1na2vs0mg"},{"bike_id":"2238f30d-c2e0-4d80-a7e7-ce4f2dc94228","system_id":"levelo_inurba_marseille","lat":43.23145,"lon":5.437,"is_reserved":false,"is_disabled":false,"rental_uris":{"android":"levelo://app?vid=2238f30d-c2e0-4d80-a7e7-ce4f2dc94228","ios":"levelo://app?vid=2238f30d-c2e0-4d80-a7e7-ce4f2dc94228"},"vehicle_type_id":"4","last_reported":1774438428,"current_range_meters":8800,"station_id":"ce4bhmp2rcd13ifvqgog","pricing_plan_id":"cebpf4jnsgd1na2vs0mg"},{"bike_id":"218342cb-e0a0-46c2-9c63-087d0ffa9744","system_id":"levelo_inurba_marseille","lat":43.26396,"lon":5.41056,"is_reserved":false,"is_disabled":false,"rental_uris":{"android":"levelo://app?vid=218342cb-e0a0-46c2-9c63-087d0ffa9744","ios":"levelo://app?vid=218342cb-e0a0-46c2-9c63-087d0ffa9744"},"vehicle_type_id":"4","last_reported":1774438428,"current_range_meters":8800,"station_id":"st_d4e5ca6na9uc73bfl5fg","pricing_plan_id":"cebpf4jnsgd1na2vs0mg"},{"bike_id":"da6972b3-b161-480b-8ef0-1ff556fc7299","system_id":"levelo_inurba_marseille","lat":43.23798,"lon":5.36614,"is_reserved":false,"is_disabled":false,"rental_uris":{"android":"levelo://app?vid=da6972b3-b161-480b-8ef0-1ff556fc7299","ios":"levelo://app?vid=da6972b3-b161-480b-8ef0-1ff556fc7299"},"vehicle_type_id":"4","last_reported":1774438428,"current_range_meters":8800,"station_id":"st_d3nk18o9ro0c73en2l3g","pricing_plan_id":"cebpf4jnsgd1na2vs0mg"},{"bike_id":"a20bca81-a392-424e-a85c-bf79f4eb1a7b","system_id":"levelo_inurba_marseille","lat":43.23809,"lon":5.36613,"is_reserved":false,"is_disabled":false,"rental_uris":{"android":"levelo://app?vid=a20bca81-a392-424e-a85c-bf79f4eb1a7b","ios":"levelo://app?vid=a20bca81-a392-424e-a85c-bf79f4eb1a7b"},"vehicle_type_id":"4","last_reported":1774438428,"current_range_meters":8800,"station_id":"st_d3nk18o9ro0c73en2l3g","pricing_plan_id":"cebpf4jnsgd1na2vs0mg"},{"bike_id":"5fea4591-9536-478c-9dd1-1abddc74092a","system_id":"levelo_inurba_marseille","lat":43.284071,"lon":5.375206,"is_reserved":false,"is_disabled":false,"rental_uris":{"android":"levelo://app?vid=5fea4591-9536-478c-9dd1-1abddc74092a","ios":"levelo://app?vid=5fea4591-9536-478c-9dd1-1abddc74092a"},"vehicle_type_id":"4","last_reported":1774438428,"current_range_meters":8800,"station_id":"ce4bh412rcd13ifvqds0","pricing_plan_id":"cebpf4jnsgd1na2vs0mg"},{"bike_id":"fdd8bf84-b2fe-4508-9572-06ea662fa5ac","system_id":"levelo_inurba_marseille","lat":43.28475,"lon":5.48393,"is_reserved":false,"is_disabled":false,"rental_uris":{"android":"levelo://app?vid=fdd8bf84-b2fe-4508-9572-06ea662fa5ac","ios":"levelo://app?vid=fdd8bf84-b2fe-4508-9572-06ea662fa5ac"},"vehicle_type_id":"4","last_reported":1774438428,"current_range_meters":8800,"station_id":"","pricing_plan_id":"cebpf4jnsgd1na2vs0mg"},{"bike_id":"9b8ef9d9-2b69-4832-b2af-dff113d7bac1","system_id":"levelo_inurba_marseille","lat":43.27319,"lon":5.39114,"is_reserved":false,"is_disabled":true,"rental_uris":{"android":"levelo://app?vid=9b8ef9d9-2b69-4832-b2af-dff113d7bac1","ios":"levelo://app?vid=9b8ef9d9-2b69-4832-b2af-dff113d7bac1"},"vehicle_type_id":"4","last_reported":1774438428,"current_range_meters":8800,"station_id":"ce4bhgp2rcd13ifvqfe0","pricing_plan_id":"cebpf4jnsgd1na2vs0mg"},{"bike_id":"872c2a3e-f902-4424-975b-d797696b281b","system_id":"levelo_inurba_marseille","lat":43.26793,"lon":5.39438,"is_reserved":false,"is_disabled":false,"rental_uris":{"android":"levelo://app?vid=872c2a3e-f902-4424-975b-d797696b281b","ios":"levelo://app?vid=872c2a3e-f902-4424-975b-d797696b281b"},"vehicle_type_id":"4","last_reported":1774438428,"current_range_meters":8800,"station_id":"ce4bhh12rcd13ifvqfg0","pricing_plan_id":"cebpf4jnsgd1na2vs0mg"},{"bike_id":"942ff02c-31c2-4c51-8842-9c7d3c411c98","system_id":"levelo_inurba_marseille","lat":43.2656,"lon":5.37276,"is_reserved":false,"is_disabled":true,"rental_uris":{"android":"levelo://app?vid=942ff02c-31c2-4c51-8842-9c7d3c411c98","ios":"levelo://app?vid=942ff02c-31c2-4c51-8842-9c7d3c411c98"},"vehicle_type_id":"4","last_reported":1774438428,"current_range_meters":8800,"station_id":"ce4bhg12rcd13ifvqf70","pricing_plan_id":"cebpf4jnsgd1na2vs0mg"},{"bike_id":"e58da262-73bb-476d-a3cd-348095f82af6","system_id":"levelo_inurba_marseille","lat":43.28292,"lon":5.35055,"is_reserved":false,"is_disabled":false,"rental_uris":{"android":"levelo://app?vid=e58da262-73bb-476d-a3cd-348095f82af6","ios":"levelo://app?vid=e58da262-73bb-476d-a3cd-348095f82af6"},"vehicle_type_id":"4","last_reported":1774438428,"current_range_meters":8800,"station_id":"ce4bhbp2rcd13ifvqerg","pricing_plan_id":"cebpf4jnsgd1na2vs0mg"},{"bike_id":"2726efb4-ce06-4f2f-8065-e4ac3aedc676","system_id":"levelo_inurba_marseille","lat":43.29681,"lon":5.38148,"is_reserved":false,"is_disabled":false,"rental_uris":{"android":"levelo://app?vid=2726efb4-ce06-4f2f-8065-e4ac3aedc676","ios":"levelo://app?vid=2726efb4-ce06-4f2f-8065-e4ac3aedc676"},"vehicle_type_id":"4","last_reported":1774438428,"current_range_meters":8800,"station_id":"","pricing_plan_id":"cebpf4jnsgd1na2vs0mg"},{"bike_id":"3a2d7079-a53a-4207-8597-4b5271971c69","system_id":"levelo_inurba_marseille","lat":43.25953,"lon":5.40898,"is_reserved":false,"is_disabled":false,"rental_uris":{"android":"levelo://app?vid=3a2d7079-a53a-4207-8597-4b5271971c69","ios":"levelo://app?vid=3a2d7079-a53a-4207-8597-4b5271971c69"},"vehicle_type_id":"4","last_reported":1774438428,"current_range_meters":8800,"station_id":"ce4bhm92rcd13ifvqglg","pricing_plan_id":"cebpf4jnsgd1na2vs0mg"},{"bike_id":"46120e68-7222-4af8-b27a-b3a0722d09c6","system_id":"levelo_inurba_marseille","lat":43.28663,"lon":5.36356,"is_reserved":false,"is_disabled":true,"rental_uris":{"android":"levelo://app?vid=46120e68-7222-4af8-b27a-b3a0722d09c6","ios":"levelo://app?vid=46120e68-7222-4af8-b27a-b3a0722d09c6"},"vehicle_type_id":"4","last_reported":1774438428,"current_range_meters":8800,"station_id":"ce4bhah2rcd13ifvqej0","pricing_plan_id":"cebpf4jnsgd1na2vs0mg"},{"bike_id":"744ac80e-ec0d-46e9-a55d-c1ceb1a581e0","system_id":"levelo_inurba_marseille","lat":43.269483,"lon":5.386359,"is_reserved":false,"is_disabled":false,"rental_uris":{"android":"levelo://app?vid=744ac80e-ec0d-46e9-a55d-c1ceb1a581e0","ios":"levelo://app?vid=744ac80e-ec0d-46e9-a55d-c1ceb1a581e0"},"vehicle_type_id":"4","last_reported":1774438428,"current_range_meters":8800,"station_id":"ce4bhh92rcd13ifvqfh0","pricing_plan_id":"cebpf4jnsgd1na2vs0mg"},{"bike_id":"b8e36708-9a62-495f-bdb5-2e0d4509c806","system_id":"levelo_inurba_marseille","lat":43.30183,"lon":5.36602,"is_reserved":false,"is_disabled":false,"rental_uris":{"android":"levelo://app?vid=b8e36708-9a62-495f-bdb5-2e0d4509c806","ios":"levelo://app?vid=b8e36708-9a62-495f-bdb5-2e0d4509c806"},"vehicle_type_id":"4","last_reported":1774438428,"current_range_meters":8800,"station_id":"ce4bgrh2rcd13ifvqc8g","pricing_plan_id":"cebpf4jnsgd1na2vs0mg"},{"bike_id":"5840b2c5-76c6-4609-b272-f4b1c1663b3b","system_id":"levelo_inurba_marseille","lat":43.29939,"lon":5.38828,"is_reserved":false,"is_disabled":false,"rental_uris":{"android":"levelo://app?vid=5840b2c5-76c6-4609-b272-f4b1c1663b3b","ios":"levelo://app?vid=5840b2c5-76c6-4609-b272-f4b1c1663b3b"},"vehicle_type_id":"4","last_reported":1774438428,"current_range_meters":8800,"station_id":"","pricing_plan_id":"cebpf4jnsgd1na2vs0mg"},{"bike_id":"aff6bbc8-daba-4ee9-aa97-b4b7406e8650","system_id":"levelo_inurba_marseille","lat":43.28444,"lon":5.39206,"is_reserved":false,"is_disabled":false,"rental_uris":{"android":"levelo://app?vid=aff6bbc8-daba-4ee9-aa97-b4b7406e8650","ios":"levelo://app?vid=aff6bbc8-daba-4ee9-aa97-b4b7406e8650"},"vehicle_type_id":"4","last_reported":1774438428,"current_range_meters":8800,"station_id":"ce4bhoh2rcd13ifvqh5g","pricing_plan_id":"cebpf4jnsgd1na2vs0mg"},{"bike_id":"50fdac31-5e33-4366-8748-02cde82901e6","system_id":"levelo_inurba_marseille","lat":43.23168,"lon":5.43684,"is_reserved":false,"is_disabled":false,"rental_uris":{"android":"levelo://app?vid=50fdac31-5e33-4366-8748-02cde82901e6","ios":"levelo://app?vid=50fdac31-5e33-4366-8748-02cde82901e6"},"vehicle_type_id":"4","last_reported":1774438428,"current_range_meters":8800,"station_id":"ce4bhmp2rcd13ifvqgog","pricing_plan_id":"cebpf4jnsgd1na2vs0mg"},{"bike_id":"035bfdde-84b8-49bb-9c00-1425216a6fee","system_id":"levelo_inurba_marseille","lat":43.23184,"lon":5.39956,"is_reserved":false,"is_disabled":false,"rental_uris":{"android":"levelo://app?vid=035bfdde-84b8-49bb-9c00-1425216a6fee","ios":"levelo://app?vid=035bfdde-84b8-49bb-9c00-1425216a6fee"},"vehicle_type_id":"4","last_reported":1774438428,"current_range_meters":8800,"station_id":"ce4bhn12rcd13ifvqgqg","pricing_plan_id":"cebpf4jnsgd1na2vs0mg"},{"bike_id":"8ffb8e57-3409-4179-ad85-429baaf2974d","system_id":"levelo_inurba_marseille","lat":43.26368,"lon":5.41084,"is_reserved":false,"is_disabled":false,"rental_uris":{"android":"levelo://app?vid=8ffb8e57-3409-4179-ad85-429baaf2974d","ios":"levelo://app?vid=8ffb8e57-3409-4179-ad85-429baaf2974d"},"vehicle_type_id":"4","last_reported":1774438428,"current_range_meters":8800,"station_id":"st_d4e5ca6na9uc73bfl5fg","pricing_plan_id":"cebpf4jnsgd1na2vs0mg"},{"bike_id":"93898619-ec06-4199-91fd-e195b738998f","system_id":"levelo_inurba_marseille","lat":43.24176,"lon":5.36395,"is_reserved":false,"is_disabled":false,"rental_uris":{"android":"levelo://app?vid=93898619-ec06-4199-91fd-e195b738998f","ios":"levelo://app?vid=93898619-ec06-4199-91fd-e195b738998f"},"vehicle_type_id":"4","last_reported":1774438428,"current_range_meters":8800,"station_id":"cpo36qri1sfpv3e86is0","pricing_plan_id":"cebpf4jnsgd1na2vs0mg"},{"bike_id":"2aa00120-26f0-468d-8fc9-3481a3ad36ee","system_id":"levelo_inurba_marseille","lat":43.23155,"lon":5.43705,"is_reserved":false,"is_disabled":false,"rental_uris":{"android":"levelo://app?vid=2aa00120-26f0-468d-8fc9-3481a3ad36ee","ios":"levelo://app?vid=2aa00120-26f0-468d-8fc9-3481a3ad36ee"},"vehicle_type_id":"4","last_reported":1774438428,"current_range_meters":8800,"station_id":"ce4bhmp2rcd13ifvqgog","pricing_plan_id":"cebpf4jnsgd1na2vs0mg"},{"bike_id":"b9d157e4-adb0-4d64-b93d-349f42c39fcf","system_id":"levelo_inurba_marseille","lat":43.31886,"lon":5.36803,"is_reserved":false,"is_disabled":true,"rental_uris":{"android":"levelo://app?vid=b9d157e4-adb0-4d64-b93d-349f42c39fcf","ios":"levelo://app?vid=b9d157e4-adb0-4d64-b93d-349f42c39fcf"},"vehicle_type_id":"4","last_reported":1774438428,"current_range_meters":8800,"station_id":"st_d6o2h0d0559c73evc1b0","pricing_plan_id":"cebpf4jnsgd1na2vs0mg"},{"bike_id":"42aedab7-5bb6-45b1-b0ba-9a9484483756","system_id":"levelo_inurba_marseille","lat":43.30952,"lon":5.39022,"is_reserved":false,"is_disabled":false,"rental_uris":{"android":"levelo://app?vid=42aedab7-5bb6-45b1-b0ba-9a9484483756","ios":"levelo://app?vid=42aedab7-5bb6-45b1-b0ba-9a9484483756"},"vehicle_type_id":"4","last_reported":1774438428,"current_range_meters":9200,"station_id":"ce4bgup2rcd13ifvqco0","pricing_plan_id":"cebpf4jnsgd1na2vs0mg"},{"bike_id":"5044b12e-abd8-466e-bce3-42e7e294b421","system_id":"levelo_inurba_marseille","lat":43.27336,"lon":5.39111,"is_reserved":false,"is_disabled":false,"rental_uris":{"android":"levelo://app?vid=5044b12e-abd8-466e-bce3-42e7e294b421","ios":"levelo://app?vid=5044b12e-abd8-466e-bce3-42e7e294b421"},"vehicle_type_id":"4","last_reported":1774438428,"current_range_meters":9200,"station_id":"ce4bhgp2rcd13ifvqfe0","pricing_plan_id":"cebpf4jnsgd1na2vs0mg"},{"bike_id":"9a8960b3-d25e-4551-8e28-b39f62740562","system_id":"levelo_inurba_marseille","lat":43.33549,"lon":5.37434,"is_reserved":false,"is_disabled":false,"rental_uris":{"android":"levelo://app?vid=9a8960b3-d25e-4551-8e28-b39f62740562","ios":"levelo://app?vid=9a8960b3-d25e-4551-8e28-b39f62740562"},"vehicle_type_id":"4","last_reported":1774438428,"current_range_meters":9200,"station_id":"st_d46tts09ee8s73dlu43g","pricing_plan_id":"cebpf4jnsgd1na2vs0mg"},{"bike_id":"317d0fae-7d4a-4bfc-a3ad-9d347e3e5200","system_id":"levelo_inurba_marseille","lat":43.27377,"lon":5.36244,"is_reserved":false,"is_disabled":false,"rental_uris":{"android":"levelo://app?vid=317d0fae-7d4a-4bfc-a3ad-9d347e3e5200","ios":"levelo://app?vid=317d0fae-7d4a-4bfc-a3ad-9d347e3e5200"},"vehicle_type_id":"4","last_reported":1774438428,"current_range_meters":9200,"station_id":"ce4bhbh2rcd13ifvqeo0","pricing_plan_id":"cebpf4jnsgd1na2vs0mg"},{"bike_id":"47dd47d3-069b-44b7-9b23-4d51871ff836","system_id":"levelo_inurba_marseille","lat":43.25528,"lon":5.37651,"is_reserved":false,"is_disabled":false,"rental_uris":{"android":"levelo://app?vid=47dd47d3-069b-44b7-9b23-4d51871ff836","ios":"levelo://app?vid=47dd47d3-069b-44b7-9b23-4d51871ff836"},"vehicle_type_id":"4","last_reported":1774438428,"current_range_meters":9200,"station_id":"ce4bhh12rcd13ifvqff0","pricing_plan_id":"cebpf4jnsgd1na2vs0mg"},{"bike_id":"265c1a7e-ea64-47f3-959e-c623f30cf0fd","system_id":"levelo_inurba_marseille","lat":43.211932,"lon":5.350764,"is_reserved":false,"is_disabled":false,"rental_uris":{"android":"levelo://app?vid=265c1a7e-ea64-47f3-959e-c623f30cf0fd","ios":"levelo://app?vid=265c1a7e-ea64-47f3-959e-c623f30cf0fd"},"vehicle_type_id":"4","last_reported":1774438428,"current_range_meters":9200,"station_id":"st_cvj6sg6p6f1abm77japg","pricing_plan_id":"cebpf4jnsgd1na2vs0mg"},{"bike_id":"fd364f60-6dcb-44cb-b607-c9a4062219ee","system_id":"levelo_inurba_marseille","lat":43.29006,"lon":5.38131,"is_reserved":false,"is_disabled":false,"rental_uris":{"android":"levelo://app?vid=fd364f60-6dcb-44cb-b607-c9a4062219ee","ios":"levelo://app?vid=fd364f60-6dcb-44cb-b607-c9a4062219ee"},"vehicle_type_id":"4","last_reported":1774438428,"current_range_meters":9200,"station_id":"ce4bh4p2rcd13ifvqe1g","pricing_plan_id":"cebpf4jnsgd1na2vs0mg"},{"bike_id":"1b627dd7-d071-4a06-8f09-aadb194ffd03","system_id":"levelo_inurba_marseille","lat":43.30215,"lon":5.38045,"is_reserved":false,"is_disabled":false,"rental_uris":{"android":"levelo://app?vid=1b627dd7-d071-4a06-8f09-aadb194ffd03","ios":"levelo://app?vid=1b627dd7-d071-4a06-8f09-aadb194ffd03"},"vehicle_type_id":"4","last_reported":1774438428,"current_range_meters":9200,"station_id":"","pricing_plan_id":"cebpf4jnsgd1na2vs0mg"},{"bike_id":"03a91464-7c37-4bfe-a5b1-0ae1789a67b5","system_id":"levelo_inurba_marseille","lat":43.32664,"lon":5.40992,"is_reserved":false,"is_disabled":false,"rental_uris":{"android":"levelo://app?vid=03a91464-7c37-4bfe-a5b1-0ae1789a67b5","ios":"levelo://app?vid=03a91464-7c37-4bfe-a5b1-0ae1789a67b5"},"vehicle_type_id":"4","last_reported":1774438428,"current_range_meters":9200,"station_id":"ce4bhpp2rcd13ifvqhgg","pricing_plan_id":"cebpf4jnsgd1na2vs0mg"},{"bike_id":"944ccb07-d804-4fc6-a8e4-922126b7215b","system_id":"levelo_inurba_marseille","lat":43.2992,"lon":5.37196,"is_reserved":false,"is_disabled":false,"rental_uris":{"android":"levelo://app?vid=944ccb07-d804-4fc6-a8e4-922126b7215b","ios":"levelo://app?vid=944ccb07-d804-4fc6-a8e4-922126b7215b"},"vehicle_type_id":"4","last_reported":1774438428,"current_range_meters":9200,"station_id":"","pricing_plan_id":"cebpf4jnsgd1na2vs0mg"},{"bike_id":"0d1752c9-3429-40ed-a487-bb9cb7d22fbc","system_id":"levelo_inurba_marseille","lat":43.21211,"lon":5.35054,"is_reserved":false,"is_disabled":false,"rental_uris":{"android":"levelo://app?vid=0d1752c9-3429-40ed-a487-bb9cb7d22fbc","ios":"levelo://app?vid=0d1752c9-3429-40ed-a487-bb9cb7d22fbc"},"vehicle_type_id":"4","last_reported":1774438428,"current_range_meters":9200,"station_id":"","pricing_plan_id":"cebpf4jnsgd1na2vs0mg"},{"bike_id":"84aa80cd-58bb-494c-ae1e-b9b2f2564c94","system_id":"levelo_inurba_marseille","lat":43.21222,"lon":5.35041,"is_reserved":false,"is_disabled":false,"rental_uris":{"android":"levelo://app?vid=84aa80cd-58bb-494c-ae1e-b9b2f2564c94","ios":"levelo://app?vid=84aa80cd-58bb-494c-ae1e-b9b2f2564c94"},"vehicle_type_id":"4","last_reported":1774438428,"current_range_meters":9200,"station_id":"","pricing_plan_id":"cebpf4jnsgd1na2vs0mg"},{"bike_id":"3c7f240f-984e-43cd-9d7b-f2c2ade2c0a9","system_id":"levelo_inurba_marseille","lat":43.29616,"lon":5.37189,"is_reserved":false,"is_disabled":false,"rental_uris":{"android":"levelo://app?vid=3c7f240f-984e-43cd-9d7b-f2c2ade2c0a9","ios":"levelo://app?vid=3c7f240f-984e-43cd-9d7b-f2c2ade2c0a9"},"vehicle_type_id":"4","last_reported":1774438428,"current_range_meters":9200,"station_id":"ce4bgnh2rcd13ifvqc0g","pricing_plan_id":"cebpf4jnsgd1na2vs0mg"},{"bike_id":"68574f64-abe4-4afb-a280-27fa21ebd0d5","system_id":"levelo_inurba_marseille","lat":43.25917,"lon":5.40892,"is_reserved":false,"is_disabled":false,"rental_uris":{"android":"levelo://app?vid=68574f64-abe4-4afb-a280-27fa21ebd0d5","ios":"levelo://app?vid=68574f64-abe4-4afb-a280-27fa21ebd0d5"},"vehicle_type_id":"4","last_reported":1774438428,"current_range_meters":9600,"station_id":"ce4bhm92rcd13ifvqglg","pricing_plan_id":"cebpf4jnsgd1na2vs0mg"},{"bike_id":"742ca053-a063-4e48-baca-0cee52277e18","system_id":"levelo_inurba_marseille","lat":43.27076,"lon":5.38291,"is_reserved":false,"is_disabled":true,"rental_uris":{"android":"levelo://app?vid=742ca053-a063-4e48-baca-0cee52277e18","ios":"levelo://app?vid=742ca053-a063-4e48-baca-0cee52277e18"},"vehicle_type_id":"4","last_reported":1774438428,"current_range_meters":9600,"station_id":"st_d3n2fo6cfp8s73cte1j0","pricing_plan_id":"cebpf4jnsgd1na2vs0mg"},{"bike_id":"8da4c177-2bb5-4f4d-ab4e-4d0e548e74fb","system_id":"levelo_inurba_marseille","lat":43.29778,"lon":5.4276,"is_reserved":false,"is_disabled":false,"rental_uris":{"android":"levelo://app?vid=8da4c177-2bb5-4f4d-ab4e-4d0e548e74fb","ios":"levelo://app?vid=8da4c177-2bb5-4f4d-ab4e-4d0e548e74fb"},"vehicle_type_id":"4","last_reported":1774438428,"current_range_meters":9600,"station_id":"st_d3md5207bmas73dh9klg","pricing_plan_id":"cebpf4jnsgd1na2vs0mg"},{"bike_id":"65da9330-c19a-498b-9f24-e99ba36e921a","system_id":"levelo_inurba_marseille","lat":43.3054,"lon":5.36504,"is_reserved":false,"is_disabled":false,"rental_uris":{"android":"levelo://app?vid=65da9330-c19a-498b-9f24-e99ba36e921a","ios":"levelo://app?vid=65da9330-c19a-498b-9f24-e99ba36e921a"},"vehicle_type_id":"4","last_reported":1774438428,"current_range_meters":9600,"station_id":"","pricing_plan_id":"cebpf4jnsgd1na2vs0mg"},{"bike_id":"e1353c27-9dbc-409c-b44a-76842076b63d","system_id":"levelo_inurba_marseille","lat":43.28861,"lon":5.42549,"is_reserved":false,"is_disabled":false,"rental_uris":{"android":"levelo://app?vid=e1353c27-9dbc-409c-b44a-76842076b63d","ios":"levelo://app?vid=e1353c27-9dbc-409c-b44a-76842076b63d"},"vehicle_type_id":"4","last_reported":1774438428,"current_range_meters":9600,"station_id":"","pricing_plan_id":"cebpf4jnsgd1na2vs0mg"},{"bike_id":"be0d328d-5560-4744-9601-5542473973cf","system_id":"levelo_inurba_marseille","lat":43.24668,"lon":5.3887,"is_reserved":false,"is_disabled":false,"rental_uris":{"android":"levelo://app?vid=be0d328d-5560-4744-9601-5542473973cf","ios":"levelo://app?vid=be0d328d-5560-4744-9601-5542473973cf"},"vehicle_type_id":"4","last_reported":1774438428,"current_range_meters":9600,"station_id":"ce4bhg12rcd13ifvqf60","pricing_plan_id":"cebpf4jnsgd1na2vs0mg"},{"bike_id":"796b0008-ae49-4671-9cb1-d23b19dfa14b","system_id":"levelo_inurba_marseille","lat":43.29216,"lon":5.3606,"is_reserved":false,"is_disabled":false,"rental_uris":{"android":"levelo://app?vid=796b0008-ae49-4671-9cb1-d23b19dfa14b","ios":"levelo://app?vid=796b0008-ae49-4671-9cb1-d23b19dfa14b"},"vehicle_type_id":"4","last_reported":1774438428,"current_range_meters":9600,"station_id":"ce4bhbh2rcd13ifvqeqg","pricing_plan_id":"cebpf4jnsgd1na2vs0mg"},{"bike_id":"9923600c-01c8-45d7-8256-7aa1c8b8617b","system_id":"levelo_inurba_marseille","lat":43.24803,"lon":5.37454,"is_reserved":false,"is_disabled":false,"rental_uris":{"android":"levelo://app?vid=9923600c-01c8-45d7-8256-7aa1c8b8617b","ios":"levelo://app?vid=9923600c-01c8-45d7-8256-7aa1c8b8617b"},"vehicle_type_id":"4","last_reported":1774438428,"current_range_meters":9600,"station_id":"ce4bhgh2rcd13ifvqfb0","pricing_plan_id":"cebpf4jnsgd1na2vs0mg"},{"bike_id":"fd975923-728b-4101-bcf5-92876a596c82","system_id":"levelo_inurba_marseille","lat":43.29801,"lon":5.37111,"is_reserved":false,"is_disabled":false,"rental_uris":{"android":"levelo://app?vid=fd975923-728b-4101-bcf5-92876a596c82","ios":"levelo://app?vid=fd975923-728b-4101-bcf5-92876a596c82"},"vehicle_type_id":"4","last_reported":1774438428,"current_range_meters":9600,"station_id":"ce4bgop2rcd13ifvqc1g","pricing_plan_id":"cebpf4jnsgd1na2vs0mg"},{"bike_id":"78899ca1-1a54-47b4-a3ef-2d481c8e412e","system_id":"levelo_inurba_marseille","lat":43.2974,"lon":5.3768,"is_reserved":false,"is_disabled":false,"rental_uris":{"android":"levelo://app?vid=78899ca1-1a54-47b4-a3ef-2d481c8e412e","ios":"levelo://app?vid=78899ca1-1a54-47b4-a3ef-2d481c8e412e"},"vehicle_type_id":"4","last_reported":1774438428,"current_range_meters":9600,"station_id":"ce4bgkh2rcd13ifvqbl0","pricing_plan_id":"cebpf4jnsgd1na2vs0mg"},{"bike_id":"37c18034-df17-4cf3-8d6c-427e4eca00fe","system_id":"levelo_inurba_marseille","lat":43.30249,"lon":5.37727,"is_reserved":false,"is_disabled":false,"rental_uris":{"android":"levelo://app?vid=37c18034-df17-4cf3-8d6c-427e4eca00fe","ios":"levelo://app?vid=37c18034-df17-4cf3-8d6c-427e4eca00fe"},"vehicle_type_id":"4","last_reported":1774438428,"current_range_meters":9600,"station_id":"ce4bguh2rcd13ifvqcj0","pricing_plan_id":"cebpf4jnsgd1na2vs0mg"},{"bike_id":"7c16f493-e129-4963-9bd0-bb90c5a2bc3b","system_id":"levelo_inurba_marseille","lat":43.28868,"lon":5.42504,"is_reserved":false,"is_disabled":false,"rental_uris":{"android":"levelo://app?vid=7c16f493-e129-4963-9bd0-bb90c5a2bc3b","ios":"levelo://app?vid=7c16f493-e129-4963-9bd0-bb90c5a2bc3b"},"vehicle_type_id":"4","last_reported":1774438428,"current_range_meters":9600,"station_id":"ce4bha92rcd13ifvqeg0","pricing_plan_id":"cebpf4jnsgd1na2vs0mg"},{"bike_id":"09bc98ac-8cbe-4908-a1a1-2cfeb58733c1","system_id":"levelo_inurba_marseille","lat":43.245449,"lon":5.395248,"is_reserved":false,"is_disabled":false,"rental_uris":{"android":"levelo://app?vid=09bc98ac-8cbe-4908-a1a1-2cfeb58733c1","ios":"levelo://app?vid=09bc98ac-8cbe-4908-a1a1-2cfeb58733c1"},"vehicle_type_id":"4","last_reported":1774438428,"current_range_meters":9600,"station_id":"ce4bhlp2rcd13ifvqgjg","pricing_plan_id":"cebpf4jnsgd1na2vs0mg"},{"bike_id":"65261562-c6a5-4288-aa35-e806f5df9197","system_id":"levelo_inurba_marseille","lat":43.301464,"lon":5.380783,"is_reserved":false,"is_disabled":false,"rental_uris":{"android":"levelo://app?vid=65261562-c6a5-4288-aa35-e806f5df9197","ios":"levelo://app?vid=65261562-c6a5-4288-aa35-e806f5df9197"},"vehicle_type_id":"4","last_reported":1774438428,"current_range_meters":9600,"station_id":"ce4bgjp2rcd13ifvqbh0","pricing_plan_id":"cebpf4jnsgd1na2vs0mg"},{"bike_id":"effad8c5-355c-47e4-befd-14c78f79379a","system_id":"levelo_inurba_marseille","lat":43.31239,"lon":5.3682,"is_reserved":false,"is_disabled":false,"rental_uris":{"android":"levelo://app?vid=effad8c5-355c-47e4-befd-14c78f79379a","ios":"levelo://app?vid=effad8c5-355c-47e4-befd-14c78f79379a"},"vehicle_type_id":"4","last_reported":1774438428,"current_range_meters":9600,"station_id":"ce4bgl92rcd13ifvqbq0","pricing_plan_id":"cebpf4jnsgd1na2vs0mg"},{"bike_id":"6f1933b6-62e3-4fe3-a71b-d8b1f30812ee","system_id":"levelo_inurba_marseille","lat":43.23149,"lon":5.43718,"is_reserved":false,"is_disabled":false,"rental_uris":{"android":"levelo://app?vid=6f1933b6-62e3-4fe3-a71b-d8b1f30812ee","ios":"levelo://app?vid=6f1933b6-62e3-4fe3-a71b-d8b1f30812ee"},"vehicle_type_id":"4","last_reported":1774438428,"current_range_meters":9600,"station_id":"ce4bhmp2rcd13ifvqgog","pricing_plan_id":"cebpf4jnsgd1na2vs0mg"},{"bike_id":"3c506157-f1c2-47cf-891f-e540401fcf63","system_id":"levelo_inurba_marseille","lat":43.3354,"lon":5.37452,"is_reserved":false,"is_disabled":false,"rental_uris":{"android":"levelo://app?vid=3c506157-f1c2-47cf-891f-e540401fcf63","ios":"levelo://app?vid=3c506157-f1c2-47cf-891f-e540401fcf63"},"vehicle_type_id":"4","last_reported":1774438428,"current_range_meters":10000,"station_id":"st_d46tts09ee8s73dlu43g","pricing_plan_id":"cebpf4jnsgd1na2vs0mg"},{"bike_id":"b7be6b4a-b0f7-4cde-be7c-9acdd1327021","system_id":"levelo_inurba_marseille","lat":43.258236,"lon":5.394396,"is_reserved":false,"is_disabled":false,"rental_uris":{"android":"levelo://app?vid=b7be6b4a-b0f7-4cde-be7c-9acdd1327021","ios":"levelo://app?vid=b7be6b4a-b0f7-4cde-be7c-9acdd1327021"},"vehicle_type_id":"4","last_reported":1774438428,"current_range_meters":10000,"station_id":"ce4bhip2rcd13ifvqft0","pricing_plan_id":"cebpf4jnsgd1na2vs0mg"},{"bike_id":"33a8bfd1-905b-442f-b4a3-c09834460501","system_id":"levelo_inurba_marseille","lat":43.25114,"lon":5.40309,"is_reserved":false,"is_disabled":false,"rental_uris":{"android":"levelo://app?vid=33a8bfd1-905b-442f-b4a3-c09834460501","ios":"levelo://app?vid=33a8bfd1-905b-442f-b4a3-c09834460501"},"vehicle_type_id":"4","last_reported":1774438428,"current_range_meters":10000,"station_id":"ce4bhlh2rcd13ifvqgig","pricing_plan_id":"cebpf4jnsgd1na2vs0mg"},{"bike_id":"5e272289-d23c-4ff3-a518-40e1e5881d2f","system_id":"levelo_inurba_marseille","lat":43.25573,"lon":5.38247,"is_reserved":false,"is_disabled":false,"rental_uris":{"android":"levelo://app?vid=5e272289-d23c-4ff3-a518-40e1e5881d2f","ios":"levelo://app?vid=5e272289-d23c-4ff3-a518-40e1e5881d2f"},"vehicle_type_id":"4","last_reported":1774438428,"current_range_meters":10000,"station_id":"ce4bhih2rcd13ifvqfs0","pricing_plan_id":"cebpf4jnsgd1na2vs0mg"},{"bike_id":"fefd0d48-9428-49dc-9d8f-841a78a64428","system_id":"levelo_inurba_marseille","lat":43.309507,"lon":5.390282,"is_reserved":false,"is_disabled":false,"rental_uris":{"android":"levelo://app?vid=fefd0d48-9428-49dc-9d8f-841a78a64428","ios":"levelo://app?vid=fefd0d48-9428-49dc-9d8f-841a78a64428"},"vehicle_type_id":"4","last_reported":1774438428,"current_range_meters":10000,"station_id":"","pricing_plan_id":"cebpf4jnsgd1na2vs0mg"},{"bike_id":"a9ed9ea7-fea0-45aa-9529-734693a98cf2","system_id":"levelo_inurba_marseille","lat":43.23795,"lon":5.36635,"is_reserved":false,"is_disabled":false,"rental_uris":{"android":"levelo://app?vid=a9ed9ea7-fea0-45aa-9529-734693a98cf2","ios":"levelo://app?vid=a9ed9ea7-fea0-45aa-9529-734693a98cf2"},"vehicle_type_id":"4","last_reported":1774438428,"current_range_meters":10000,"station_id":"st_d3nk18o9ro0c73en2l3g","pricing_plan_id":"cebpf4jnsgd1na2vs0mg"},{"bike_id":"5ff9dc00-a792-4bdf-9aad-51b76b22be00","system_id":"levelo_inurba_marseille","lat":43.22565,"lon":5.41622,"is_reserved":false,"is_disabled":false,"rental_uris":{"android":"levelo://app?vid=5ff9dc00-a792-4bdf-9aad-51b76b22be00","ios":"levelo://app?vid=5ff9dc00-a792-4bdf-9aad-51b76b22be00"},"vehicle_type_id":"4","last_reported":1774438428,"current_range_meters":10000,"station_id":"st_d2o4gvlbi1j2169b742g","pricing_plan_id":"cebpf4jnsgd1na2vs0mg"},{"bike_id":"44cc2c8d-76ca-44f4-a82f-aefe90c07d8b","system_id":"levelo_inurba_marseille","lat":43.33598,"lon":5.41031,"is_reserved":false,"is_disabled":false,"rental_uris":{"android":"levelo://app?vid=44cc2c8d-76ca-44f4-a82f-aefe90c07d8b","ios":"levelo://app?vid=44cc2c8d-76ca-44f4-a82f-aefe90c07d8b"},"vehicle_type_id":"4","last_reported":1774438428,"current_range_meters":10000,"station_id":"ce4bhqh2rcd13ifvqhmg","pricing_plan_id":"cebpf4jnsgd1na2vs0mg"},{"bike_id":"9a1b7562-5c14-4853-ad31-a4b1e826c8d0","system_id":"levelo_inurba_marseille","lat":43.22581,"lon":5.41656,"is_reserved":false,"is_disabled":false,"rental_uris":{"android":"levelo://app?vid=9a1b7562-5c14-4853-ad31-a4b1e826c8d0","ios":"levelo://app?vid=9a1b7562-5c14-4853-ad31-a4b1e826c8d0"},"vehicle_type_id":"4","last_reported":1774438428,"current_range_meters":10000,"station_id":"st_d2o4gvlbi1j2169b742g","pricing_plan_id":"cebpf4jnsgd1na2vs0mg"},{"bike_id":"40424783-1c7e-48f9-a72b-49017c8063b7","system_id":"levelo_inurba_marseille","lat":43.23158,"lon":5.43708,"is_reserved":false,"is_disabled":false,"rental_uris":{"android":"levelo://app?vid=40424783-1c7e-48f9-a72b-49017c8063b7","ios":"levelo://app?vid=40424783-1c7e-48f9-a72b-49017c8063b7"},"vehicle_type_id":"4","last_reported":1774438428,"current_range_meters":10000,"station_id":"ce4bhmp2rcd13ifvqgog","pricing_plan_id":"cebpf4jnsgd1na2vs0mg"},{"bike_id":"893083c8-795a-4d53-8350-ebdb23c35509","system_id":"levelo_inurba_marseille","lat":43.27555,"lon":5.38426,"is_reserved":false,"is_disabled":false,"rental_uris":{"android":"levelo://app?vid=893083c8-795a-4d53-8350-ebdb23c35509","ios":"levelo://app?vid=893083c8-795a-4d53-8350-ebdb23c35509"},"vehicle_type_id":"4","last_reported":1774438428,"current_range_meters":10000,"station_id":"ce4bhh92rcd13ifvqfi0","pricing_plan_id":"cebpf4jnsgd1na2vs0mg"},{"bike_id":"2d5697f2-ff0e-4fa1-b776-35f39d6cf023","system_id":"levelo_inurba_marseille","lat":43.26204,"lon":5.37933,"is_reserved":false,"is_disabled":false,"rental_uris":{"android":"levelo://app?vid=2d5697f2-ff0e-4fa1-b776-35f39d6cf023","ios":"levelo://app?vid=2d5697f2-ff0e-4fa1-b776-35f39d6cf023"},"vehicle_type_id":"4","last_reported":1774438428,"current_range_meters":10000,"station_id":"ce4bhjp2rcd13ifvqg90","pricing_plan_id":"cebpf4jnsgd1na2vs0mg"},{"bike_id":"8cc83fff-6641-4b28-9444-fc572f4dd3c3","system_id":"levelo_inurba_marseille","lat":43.28479,"lon":5.4837,"is_reserved":false,"is_disabled":false,"rental_uris":{"android":"levelo://app?vid=8cc83fff-6641-4b28-9444-fc572f4dd3c3","ios":"levelo://app?vid=8cc83fff-6641-4b28-9444-fc572f4dd3c3"},"vehicle_type_id":"4","last_reported":1774438428,"current_range_meters":10000,"station_id":"","pricing_plan_id":"cebpf4jnsgd1na2vs0mg"},{"bike_id":"4e53ea06-8aad-4d90-8974-d1a9ab4f53b3","system_id":"levelo_inurba_marseille","lat":43.27209,"lon":5.39196,"is_reserved":false,"is_disabled":false,"rental_uris":{"android":"levelo://app?vid=4e53ea06-8aad-4d90-8974-d1a9ab4f53b3","ios":"levelo://app?vid=4e53ea06-8aad-4d90-8974-d1a9ab4f53b3"},"vehicle_type_id":"4","last_reported":1774438428,"current_range_meters":10000,"station_id":"ce4bhhp2rcd13ifvqfm0","pricing_plan_id":"cebpf4jnsgd1na2vs0mg"},{"bike_id":"2dff1b50-0ad4-4bf0-b506-0d0736c3c696","system_id":"levelo_inurba_marseille","lat":43.3065,"lon":5.37683,"is_reserved":false,"is_disabled":false,"rental_uris":{"android":"levelo://app?vid=2dff1b50-0ad4-4bf0-b506-0d0736c3c696","ios":"levelo://app?vid=2dff1b50-0ad4-4bf0-b506-0d0736c3c696"},"vehicle_type_id":"4","last_reported":1774438428,"current_range_meters":10000,"station_id":"","pricing_plan_id":"cebpf4jnsgd1na2vs0mg"},{"bike_id":"52a2b77d-b5b1-4c9d-8945-8dc44e6464ba","system_id":"levelo_inurba_marseille","lat":43.25352,"lon":5.42565,"is_reserved":false,"is_disabled":false,"rental_uris":{"android":"levelo://app?vid=52a2b77d-b5b1-4c9d-8945-8dc44e6464ba","ios":"levelo://app?vid=52a2b77d-b5b1-4c9d-8945-8dc44e6464ba"},"vehicle_type_id":"4","last_reported":1774438428,"current_range_meters":10000,"station_id":"","pricing_plan_id":"cebpf4jnsgd1na2vs0mg"},{"bike_id":"b492a63d-4a67-405d-9305-0d8d7bf8a5e5","system_id":"levelo_inurba_marseille","lat":43.21192,"lon":5.35066,"is_reserved":false,"is_disabled":false,"rental_uris":{"android":"levelo://app?vid=b492a63d-4a67-405d-9305-0d8d7bf8a5e5","ios":"levelo://app?vid=b492a63d-4a67-405d-9305-0d8d7bf8a5e5"},"vehicle_type_id":"4","last_reported":1774438428,"current_range_meters":10000,"station_id":"st_cvj6sg6p6f1abm77japg","pricing_plan_id":"cebpf4jnsgd1na2vs0mg"},{"bike_id":"ad1b03be-4d9f-4a36-8287-b69625fc84fe","system_id":"levelo_inurba_marseille","lat":43.25361,"lon":5.42134,"is_reserved":false,"is_disabled":false,"rental_uris":{"android":"levelo://app?vid=ad1b03be-4d9f-4a36-8287-b69625fc84fe","ios":"levelo://app?vid=ad1b03be-4d9f-4a36-8287-b69625fc84fe"},"vehicle_type_id":"4","last_reported":1774438428,"current_range_meters":10800,"station_id":"st_d2m65c5bi1j21697t3ng","pricing_plan_id":"cebpf4jnsgd1na2vs0mg"},{"bike_id":"f5482640-f0e8-4788-b049-15ff903f9080","system_id":"levelo_inurba_marseille","lat":43.30562,"lon":5.36503,"is_reserved":false,"is_disabled":false,"rental_uris":{"android":"levelo://app?vid=f5482640-f0e8-4788-b049-15ff903f9080","ios":"levelo://app?vid=f5482640-f0e8-4788-b049-15ff903f9080"},"vehicle_type_id":"4","last_reported":1774438428,"current_range_meters":10800,"station_id":"ce4bgs12rcd13ifvqcag","pricing_plan_id":"cebpf4jnsgd1na2vs0mg"},{"bike_id":"64fc4e06-dee7-49f1-9ee6-efd7036cb864","system_id":"levelo_inurba_marseille","lat":43.29267,"lon":5.37631,"is_reserved":false,"is_disabled":false,"rental_uris":{"android":"levelo://app?vid=64fc4e06-dee7-49f1-9ee6-efd7036cb864","ios":"levelo://app?vid=64fc4e06-dee7-49f1-9ee6-efd7036cb864"},"vehicle_type_id":"4","last_reported":1774438428,"current_range_meters":10800,"station_id":"ce4bgi12rcd13ifvqb80","pricing_plan_id":"cebpf4jnsgd1na2vs0mg"},{"bike_id":"7bfc0704-ccf9-4349-a368-567455b3ecfc","system_id":"levelo_inurba_marseille","lat":43.25511,"lon":5.37652,"is_reserved":false,"is_disabled":false,"rental_uris":{"android":"levelo://app?vid=7bfc0704-ccf9-4349-a368-567455b3ecfc","ios":"levelo://app?vid=7bfc0704-ccf9-4349-a368-567455b3ecfc"},"vehicle_type_id":"4","last_reported":1774438428,"current_range_meters":10800,"station_id":"ce4bhh12rcd13ifvqff0","pricing_plan_id":"cebpf4jnsgd1na2vs0mg"},{"bike_id":"7805a735-91c3-4b23-bc3f-ddace1e01c50","system_id":"levelo_inurba_marseille","lat":43.2549,"lon":5.3765,"is_reserved":false,"is_disabled":false,"rental_uris":{"android":"levelo://app?vid=7805a735-91c3-4b23-bc3f-ddace1e01c50","ios":"levelo://app?vid=7805a735-91c3-4b23-bc3f-ddace1e01c50"},"vehicle_type_id":"4","last_reported":1774438428,"current_range_meters":10800,"station_id":"ce4bhh12rcd13ifvqff0","pricing_plan_id":"cebpf4jnsgd1na2vs0mg"},{"bike_id":"a99716b7-1611-453a-b855-322e6a5a0ea3","system_id":"levelo_inurba_marseille","lat":43.2397,"lon":5.36625,"is_reserved":false,"is_disabled":false,"rental_uris":{"android":"levelo://app?vid=a99716b7-1611-453a-b855-322e6a5a0ea3","ios":"levelo://app?vid=a99716b7-1611-453a-b855-322e6a5a0ea3"},"vehicle_type_id":"4","last_reported":1774438428,"current_range_meters":10800,"station_id":"ce4bhi12rcd13ifvqfp0","pricing_plan_id":"cebpf4jnsgd1na2vs0mg"},{"bike_id":"fd14c4cc-fd20-4465-9b78-114c2fa3cf56","system_id":"levelo_inurba_marseille","lat":43.28674,"lon":5.38654,"is_reserved":false,"is_disabled":false,"rental_uris":{"android":"levelo://app?vid=fd14c4cc-fd20-4465-9b78-114c2fa3cf56","ios":"levelo://app?vid=fd14c4cc-fd20-4465-9b78-114c2fa3cf56"},"vehicle_type_id":"4","last_reported":1774438428,"current_range_meters":10800,"station_id":"ce4bh492rcd13ifvqdug","pricing_plan_id":"cebpf4jnsgd1na2vs0mg"},{"bike_id":"672e481d-f408-4f31-837c-d9b7afe7a739","system_id":"levelo_inurba_marseille","lat":43.293,"lon":5.3682,"is_reserved":false,"is_disabled":false,"rental_uris":{"android":"levelo://app?vid=672e481d-f408-4f31-837c-d9b7afe7a739","ios":"levelo://app?vid=672e481d-f408-4f31-837c-d9b7afe7a739"},"vehicle_type_id":"4","last_reported":1774438428,"current_range_meters":10800,"station_id":"ce4bhbp2rcd13ifvqesg","pricing_plan_id":"cebpf4jnsgd1na2vs0mg"},{"bike_id":"114e1492-fe67-448b-aa73-9fd2f0e14baf","system_id":"levelo_inurba_marseille","lat":43.27568,"lon":5.38435,"is_reserved":false,"is_disabled":false,"rental_uris":{"android":"levelo://app?vid=114e1492-fe67-448b-aa73-9fd2f0e14baf","ios":"levelo://app?vid=114e1492-fe67-448b-aa73-9fd2f0e14baf"},"vehicle_type_id":"4","last_reported":1774438428,"current_range_meters":10800,"station_id":"ce4bhh92rcd13ifvqfi0","pricing_plan_id":"cebpf4jnsgd1na2vs0mg"},{"bike_id":"1cd425c9-4ce7-4e25-bc91-785c4ee12196","system_id":"levelo_inurba_marseille","lat":43.26572,"lon":5.38994,"is_reserved":false,"is_disabled":true,"rental_uris":{"android":"levelo://app?vid=1cd425c9-4ce7-4e25-bc91-785c4ee12196","ios":"levelo://app?vid=1cd425c9-4ce7-4e25-bc91-785c4ee12196"},"vehicle_type_id":"4","last_reported":1774438428,"current_range_meters":10800,"station_id":"ce4bhe12rcd13ifvqf30","pricing_plan_id":"cebpf4jnsgd1na2vs0mg"},