{"last_updated":1707289594,"ttl":30,"version":"2.2","data":{"bikes":[{"bike_id":"aaee5705-e063-4ce9-83b1-84161b3b104b","system_id":"levelo_inurba_marseille","lat":43.313391,"lon":5.36706,"is_reserved":false,"is_disabled":false,"rental_uris":{"android":"levelo://app?vid=aaee5705-e063-4ce9-83b1-84161b3b104b","ios":"levelo://app?vid=aaee5705-e063-4ce9-83b1-84161b3b104b"},"vehicle_type_id":"4","last_reported":1707289594,"current_range_meters":6000,"station_id":"ce4bgr92rcd13ifvqc6g","pricing_plan_id":"free"},{"bike_id":"35ea007f-93fb-4dd8-a37f-14f55cc107ce","system_id":"levelo_inurba_marseille","lat":43.313391,"lon":5.36706,"is_reserved":false,"is_disabled":false,"rental_uris":{"android":"levelo://app?vid=35ea007f-93fb-4dd8-a37f-14f55cc107ce","ios":"levelo://app?vid=35ea007f-93fb-4dd8-a37f-14f55cc107ce"},"vehicle_type_id":"4","last_reported":1707289594,"current_range_meters":21200,"station_id":"ce4bgr92rcd13ifvqc6g","pricing_plan_id":"free"},{"bike_id":"22cea53d-705f-4b26-9379-c155b7662497","system_id":"levelo_inurba_marseille","lat":43.31341,"lon":5.367098,"is_reserved":false,"is_disabled":false,"rental_uris":{"android":"levelo://app?vid=22cea53d-705f-4b26-9379-c155b7662497","ios":"levelo://app?vid=22cea53d-705f-4b26-9379-c155b7662497"},"vehicle_type_id":"4","last_reported":1707289594,"current_range_meters":18800,"station_id":"ce4bgr92rcd13ifvqc6g","pricing_plan_id":"free"},{"bike_id":"6e352e38-a46c-4418-8c65-c0d8369e974f","system_id":"levelo_inurba_marseille","lat":43.312239,"lon":5.368562,"is_reserved":false,"is_disabled":false,"rental_uris":{"android":"levelo://app?vid=6e352e38-a46c-4418-8c65-c0d8369e974f","ios":"levelo://app?vid=6e352e38-a46c-4418-8c65-c0d8369e974f"},"vehicle_type_id":"4","last_reported":1707289594,"current_range_meters":26000,"station_id":"ce4bgl92rcd13ifvqbq0","pricing_plan_id":"free"},{"bike_id":"00bc6b6b-0cc0-4924-9ac2-d7ccd1a94665","system_id":"levelo_inurba_marseille","lat":43.312239,"lon":5.368562,"is_reserved":false,"is_disabled":false,"rental_uris":{"android":"levelo://app?vid=00bc6b6b-0cc0-4924-9ac2-d7ccd1a94665","ios":"levelo://app?vid=00bc6b6b-0cc0-4924-9ac2-d7ccd1a94665"},"vehicle_type_id":"4","last_reported":1707289594,"current_range_meters":27600,"station_id":"ce4bgl92rcd13ifvqbq0","pricing_plan_id":"free"},{"bike_id":"6b7c9dbf-29bd-4c95-baac-de9fc294aa6c","system_id":"levelo_inurba_marseille","lat":43.312239,"lon":5.368562,"is_reserved":false,"is_disabled":false,"rental_uris":{"android":"levelo://app?vid=6b7c9dbf-29bd-4c95-baac-de9fc294aa6c","ios":"levelo://app?vid=6b7c9dbf-29bd-4c95-baac-de9fc294aa6c"},"vehicle_type_id":"4","last_reported":1707289594,"current_range_meters":4000,"station_id":"ce4bgl92rcd13ifvqbq0","pricing_plan_id":"free"},{"bike_id":"7582464c-eee5-4e01-bad3-5c488feb6330","system_id":"levelo_inurba_marseille","lat":43.315486,"lon":5.369054,"is_reserved":false,"is_disabled":false,"rental_uris":{"android":"levelo://app?vid=7582464c-eee5-4e01-bad3-5c488feb6330","ios":"levelo://app?vid=7582464c-eee5-4e01-bad3-5c488feb6330"},"vehicle_type_id":"4","last_reported":1707289594,"current_range_meters":14400,"station_id":"","pricing_plan_id":"free"},{"bike_id":"93b08347-e6ef-4fe1-90ee-1e16032ac269","system_id":"levelo_inurba_marseille","lat":43.309076,"lon":5.368465,"is_reserved":false,"is_disabled":false,"rental_uris":{"android":"levelo://app?vid=93b08347-e6ef-4fe1-90ee-1e16032ac269","ios":"levelo://app?vid=93b08347-e6ef-4fe1-90ee-1e16032ac269"},"vehicle_type_id":"4","last_reported":1707289594,"current_range_meters":19600,"station_id":"ce4bgn92rcd13ifvqbvg","pricing_plan_id":"free"},{"bike_id":"1d04333c-b63a-4771-ae70-d85f45173f1b","system_id":"levelo_inurba_marseille","lat":43.309076,"lon":5.368465,"is_reserved":false,"is_disabled":false,"rental_uris":{"android":"levelo://app?vid=1d04333c-b63a-4771-ae70-d85f45173f1b","ios":"levelo://app?vid=1d04333c-b63a-4771-ae70-d85f45173f1b"},"vehicle_type_id":"4","last_reported":1707289594,"current_range_meters":20400,"station_id":"ce4bgn92rcd13ifvqbvg","pricing_plan_id":"free"},{"bike_id":"ee1e0fa5-df6e-4571-8434-eee704d11492","system_id":"levelo_inurba_marseille","lat":43.309076,"lon":5.368465,"is_reserved":false,"is_disabled":false,"rental_uris":{"android":"levelo://app?vid=ee1e0fa5-df6e-4571-8434-eee704d11492","ios":"levelo://app?vid=ee1e0fa5-df6e-4571-8434-eee704d11492"},"vehicle_type_id":"4","last_reported":1707289594,"current_range_meters":30800,"station_id":"ce4bgn92rcd13ifvqbvg","pricing_plan_id":"free"},{"bike_id":"9570bc3e-a620-43d6-ac62-f8872bbf962c","system_id":"levelo_inurba_marseille","lat":43.309076,"lon":5.368465,"is_reserved":false,"is_disabled":false,"rental_uris":{"android":"levelo://app?vid=9570bc3e-a620-43d6-ac62-f8872bbf962c","ios":"levelo://app?vid=9570bc3e-a620-43d6-ac62-f8872bbf962c"},"vehicle_type_id":"4","last_reported":1707289594,"current_range_meters":24400,"station_id":"ce4bgn92rcd13ifvqbvg","pricing_plan_id":"free"},{"bike_id":"b5fb8a72-f57f-4ca1-b1fd-28f2be128d30","system_id":"levelo_inurba_marseille","lat":43.309076,"lon":5.368465,"is_reserved":false,"is_disabled":false,"rental_uris":{"android":"levelo://app?vid=b5fb8a72-f57f-4ca1-b1fd-28f2be128d30","ios":"levelo://app?vid=b5fb8a72-f57f-4ca1-b1fd-28f2be128d30"},"vehicle_type_id":"4","last_reported":1707289594,"current_range_meters":22400,"station_id":"ce4bgn92rcd13ifvqbvg","pricing_plan_id":"free"},{"bike_id":"360c5823-0e09-47f3-9834-4d2db0ae822f","system_id":"levelo_inurba_marseille","lat":43.309076,"lon":5.368465,"is_reserved":false,"is_disabled":false,"rental_uris":{"android":"levelo://app?vid=360c5823-0e09-47f3-9834-4d2db0ae822f","ios":"levelo://app?vid=360c5823-0e09-47f3-9834-4d2db0ae822f"},"vehicle_type_id":"4","last_reported":1707289594,"current_range_meters":2400,"station_id":"ce4bgn92rcd13ifvqbvg","pricing_plan_id":"free"},{"bike_id":"6ff729ae-7775-4ab7-a73b-bfc39cc4fc29","system_id":"levelo_inurba_marseille","lat":43.314811,"lon":5.373103,"is_reserved":false,"is_disabled":false,"rental_uris":{"android":"levelo://app?vid=6ff729ae-7775-4ab7-a73b-bfc39cc4fc29","ios":"levelo://app?vid=6ff729ae-7775-4ab7-a73b-bfc39cc4fc29"},"vehicle_type_id":"4","last_reported":1707289594,"current_range_meters":30000,"station_id":"ce4bgt12rcd13ifvqcd0","pricing_plan_id":"free"},{"bike_id":"301d6924-64f1-494e-aeec-2c1126c0b01e","system_id":"levelo_inurba_marseille","lat":43.314811,"lon":5.373103,"is_reserved":false,"is_disabled":false,"rental_uris":{"android":"levelo://app?vid=301d6924-64f1-494e-aeec-2c1126c0b01e","ios":"levelo://app?vid=301d6924-64f1-494e-aeec-2c1126c0b01e"},"vehicle_type_id":"4","last_reported":1707289594,"current_range_meters":11600,"station_id":"ce4bgt12rcd13ifvqcd0","pricing_plan_id":"free"},{"bike_id":"b8654060-9a7d-4fc9-a496-75c04ce8a098","system_id":"levelo_inurba_marseille","lat":43.314811,"lon":5.373104,"is_reserved":false,"is_disabled":false,"rental_uris":{"android":"levelo://app?vid=b8654060-9a7d-4fc9-a496-75c04ce8a098","ios":"levelo://app?vid=b8654060-9a7d-4fc9-a496-75c04ce8a098"},"vehicle_type_id":"4","last_reported":1707289594,"current_range_meters":31200,"station_id":"ce4bgt12rcd13ifvqcd0","pricing_plan_id":"free"},{"bike_id":"6312983f-aaad-4c9e-b194-5c79c5319333","system_id":"levelo_inurba_marseille","lat":43.31496,"lon":5.37307,"is_reserved":false,"is_disabled":false,"rental_uris":{"android":"levelo://app?vid=6312983f-aaad-4c9e-b194-5c79c5319333","ios":"levelo://app?vid=6312983f-aaad-4c9e-b194-5c79c5319333"},"vehicle_type_id":"4","last_reported":1707289594,"current_range_meters":16400,"station_id":"ce4bgt12rcd13ifvqcd0","pricing_plan_id":"free"},{"bike_id":"77806576-e2ed-492f-9a90-ca8e55903a2f","system_id":"levelo_inurba_marseille","lat":43.309039,"lon":5.371797,"is_reserved":false,"is_disabled":false,"rental_uris":{"android":"levelo://app?vid=77806576-e2ed-492f-9a90-ca8e55903a2f","ios":"levelo://app?vid=77806576-e2ed-492f-9a90-ca8e55903a2f"},"vehicle_type_id":"4","last_reported":1707289594,"current_range_meters":8000,"station_id":"ce4bguh2rcd13ifvqckg","pricing_plan_id":"free"},{"bike_id":"774db6fa-9e7d-40a7-ba4c-6cade0f12009","system_id":"levelo_inurba_marseille","lat":43.309039,"lon":5.371797,"is_reserved":false,"is_disabled":false,"rental_uris":{"android":"levelo://app?vid=774db6fa-9e7d-40a7-ba4c-6cade0f12009","ios":"levelo://app?vid=774db6fa-9e7d-40a7-ba4c-6cade0f12009"},"vehicle_type_id":"4","last_reported":1707289594,"current_range_meters":20000,"station_id":"ce4bguh2rcd13ifvqckg","pricing_plan_id":"free"},{"bike_id":"fc5857f6-49be-435d-9e6a-d44c17099fe7","system_id":"levelo_inurba_marseille","lat":43.309034,"lon":5.371783,"is_reserved":false,"is_disabled":false,"rental_uris":{"android":"levelo://app?vid=fc5857f6-49be-435d-9e6a-d44c17099fe7","ios":"levelo://app?vid=fc5857f6-49be-435d-9e6a-d44c17099fe7"},"vehicle_type_id":"4","last_reported":1707289594,"current_range_meters":20000,"station_id":"ce4bguh2rcd13ifvqckg","pricing_plan_id":"free"},{"bike_id":"78092a34-3f33-4855-82c5-135910adb450","system_id":"levelo_inurba_marseille","lat":43.305712,"lon":5.365641,"is_reserved":false,"is_disabled":false,"rental_uris":{"android":"levelo://app?vid=78092a34-3f33-4855-82c5-135910adb450","ios":"levelo://app?vid=78092a34-3f33-4855-82c5-135910adb450"},"vehicle_type_id":"4","last_reported":1707289594,"current_range_meters":10400,"station_id":"ce4bgs12rcd13ifvqcag","pricing_plan_id":"free"},{"bike_id":"85d356c3-04c2-4f0f-938e-d7111e86a674","system_id":"levelo_inurba_marseille","lat":43.305368,"lon":5.367343,"is_reserved":false,"is_disabled":false,"rental_uris":{"android":"levelo://app?vid=85d356c3-04c2-4f0f-938e-d7111e86a674","ios":"levelo://app?vid=85d356c3-04c2-4f0f-938e-d7111e86a674"},"vehicle_type_id":"4","last_reported":1707289594,"current_range_meters":16800,"station_id":"ce4bgrp2rcd13ifvqc9g","pricing_plan_id":"free"},{"bike_id":"8ed308cd-bdd4-4046-86a8-67493a7fef29","system_id":"levelo_inurba_marseille","lat":43.305706,"lon":5.365654,"is_reserved":false,"is_disabled":false,"rental_uris":{"android":"levelo://app?vid=8ed308cd-bdd4-4046-86a8-67493a7fef29","ios":"levelo://app?vid=8ed308cd-bdd4-4046-86a8-67493a7fef29"},"vehicle_type_id":"4","last_reported":1707289594,"current_range_meters":5200,"station_id":"ce4bgs12rcd13ifvqcag","pricing_plan_id":"free"},{"bike_id":"628dded0-ebd8-414f-81bf-839b9421c068","system_id":"levelo_inurba_marseille","lat":43.30537,"lon":5.367345,"is_reserved":false,"is_disabled":false,"rental_uris":{"android":"levelo://app?vid=628dded0-ebd8-414f-81bf-839b9421c068","ios":"levelo://app?vid=628dded0-ebd8-414f-81bf-839b9421c068"},"vehicle_type_id":"4","last_reported":1707289594,"current_range_meters":23600,"station_id":"ce4bgrp2rcd13ifvqc9g","pricing_plan_id":"free"},{"bike_id":"4f8bf05c-23e3-4073-99a5-76ce29dedff2","system_id":"levelo_inurba_marseille","lat":43.305706,"lon":5.365654,"is_reserved":false,"is_disabled":false,"rental_uris":{"android":"levelo://app?vid=4f8bf05c-23e3-4073-99a5-76ce29dedff2","ios":"levelo://app?vid=4f8bf05c-23e3-4073-99a5-76ce29dedff2"},"vehicle_type_id":"4","last_reported":1707289594,"current_range_meters":24800,"station_id":"ce4bgs12rcd13ifvqcag","pricing_plan_id":"free"},{"bike_id":"d9124fe5-a0cf-43cb-b468-22e620265a2e","system_id":"levelo_inurba_marseille","lat":43.305706,"lon":5.365654,"is_reserved":false,"is_disabled":false,"rental_uris":{"android":"levelo://app?vid=d9124fe5-a0cf-43cb-b468-22e620265a2e","ios":"levelo://app?vid=d9124fe5-a0cf-43cb-b468-22e620265a2e"},"vehicle_type_id":"4","last_reported":1707289594,"current_range_meters":19200,"station_id":"ce4bgs12rcd13ifvqcag","pricing_plan_id":"free"},{"bike_id":"ebb1c9a3-64a0-4a6b-ac67-2e8de24a1248","system_id":"levelo_inurba_marseille","lat":43.30537,"lon":5.367345,"is_reserved":false,"is_disabled":false,"rental_uris":{"android":"levelo://app?vid=ebb1c9a3-64a0-4a6b-ac67-2e8de24a1248","ios":"levelo://app?vid=ebb1c9a3-64a0-4a6b-ac67-2e8de24a1248"},"vehicle_type_id":"4","last_reported":1707289594,"current_range_meters":8000,"station_id":"ce4bgrp2rcd13ifvqc9g","pricing_plan_id":"free"},{"bike_id":"23da4c18-0b35-4a2d-9441-2dfcef8ebc76","system_id":"levelo_inurba_marseille","lat":43.307945,"lon":5.376487,"is_reserved":false,"is_disabled":false,"rental_uris":{"android":"levelo://app?vid=23da4c18-0b35-4a2d-9441-2dfcef8ebc76","ios":"levelo://app?vid=23da4c18-0b35-4a2d-9441-2dfcef8ebc76"},"vehicle_type_id":"4","last_reported":1707289594,"current_range_meters":24800,"station_id":"ce4bgv92rcd13ifvqcq0","pricing_plan_id":"free"},{"bike_id":"0c466ccc-d747-4327-be86-c3896d0bbba3","system_id":"levelo_inurba_marseille","lat":43.317075,"lon":5.377367,"is_reserved":false,"is_disabled":false,"rental_uris":{"android":"levelo://app?vid=0c466ccc-d747-4327-be86-c3896d0bbba3","ios":"levelo://app?vid=0c466ccc-d747-4327-be86-c3896d0bbba3"},"vehicle_type_id":"4","last_reported":1707289594,"current_range_meters":31200,"station_id":"ce4bgth2rcd13ifvqch0","pricing_plan_id":"free"},{"bike_id":"44d074c1-d2db-47c6-8e3d-855ef42b92aa","system_id":"levelo_inurba_marseille","lat":43.315293,"lon":5.380349,"is_reserved":false,"is_disabled":false,"rental_uris":{"android":"levelo://app?vid=44d074c1-d2db-47c6-8e3d-855ef42b92aa","ios":"levelo://app?vid=44d074c1-d2db-47c6-8e3d-855ef42b92aa"},"vehicle_type_id":"4","last_reported":1707289594,"current_range_meters":31200,"station_id":"ce4bhsp2rcd13ifvqi50","pricing_plan_id":"free"},{"bike_id":"c3eb0486-c9f1-4610-978a-c48f7af8fd75","system_id":"levelo_inurba_marseille","lat":43.315293,"lon":5.380349,"is_reserved":false,"is_disabled":false,"rental_uris":{"android":"levelo://app?vid=c3eb0486-c9f1-4610-978a-c48f7af8fd75","ios":"levelo://app?vid=c3eb0486-c9f1-4610-978a-c48f7af8fd75"},"vehicle_type_id":"4","last_reported":1707289594,"current_range_meters":9600,"station_id":"ce4bhsp2rcd13ifvqi50","pricing_plan_id":"free"},{"bike_id":"c01ff359-a497-4bb3-a22f-1e55553cda7c","system_id":"levelo_inurba_marseille","lat":43.308012,"lon":5.381511,"is_reserved":false,"is_disabled":false,"rental_uris":{"android":"levelo://app?vid=c01ff359-a497-4bb3-a22f-1e55553cda7c","ios":"levelo://app?vid=c01ff359-a497-4bb3-a22f-1e55553cda7c"},"vehicle_type_id":"4","last_reported":1707289594,"current_range_meters":26800,"station_id":"ce4bgt12rcd13ifvqce0","pricing_plan_id":"free"},{"bike_id":"291d09fb-a797-4f92-a1f4-72fc409ffede","system_id":"levelo_inurba_marseille","lat":43.301939,"lon":5.366286,"is_reserved":false,"is_disabled":false,"rental_uris":{"android":"levelo://app?vid=291d09fb-a797-4f92-a1f4-72fc409ffede","ios":"levelo://app?vid=291d09fb-a797-4f92-a1f4-72fc409ffede"},"vehicle_type_id":"4","last_reported":1707289594,"current_range_meters":25200,"station_id":"ce4bgrh2rcd13ifvqc8g","pricing_plan_id":"free"},{"bike_id":"ae7f3ccf-c42b-4761-84dc-fc19dda7b38e","system_id":"levelo_inurba_marseille","lat":43.304606,"lon":5.379026,"is_reserved":false,"is_disabled":false,"rental_uris":{"android":"levelo://app?vid=ae7f3ccf-c42b-4761-84dc-fc19dda7b38e","ios":"levelo://app?vid=ae7f3ccf-c42b-4761-84dc-fc19dda7b38e"},"vehicle_type_id":"4","last_reported":1707289594,"current_range_meters":21600,"station_id":"ce4bgup2rcd13ifvqcn0","pricing_plan_id":"free"},{"bike_id":"dec2d3c9-6c90-44ac-96d6-86d42c1b8e00","system_id":"levelo_inurba_marseille","lat":43.304606,"lon":5.379026,"is_reserved":false,"is_disabled":false,"rental_uris":{"android":"levelo://app?vid=dec2d3c9-6c90-44ac-96d6-86d42c1b8e00","ios":"levelo://app?vid=dec2d3c9-6c90-44ac-96d6-86d42c1b8e00"},"vehicle_type_id":"4","last_reported":1707289594,"current_range_meters":27200,"station_id":"ce4bgup2rcd13ifvqcn0","pricing_plan_id":"free"},{"bike_id":"7da4ef4e-60b4-4610-beb7-874107e8d544","system_id":"levelo_inurba_marseille","lat":43.30465,"lon":5.37901,"is_reserved":false,"is_disabled":false,"rental_uris":{"android":"levelo://app?vid=7da4ef4e-60b4-4610-beb7-874107e8d544","ios":"levelo://app?vid=7da4ef4e-60b4-4610-beb7-874107e8d544"},"vehicle_type_id":"4","last_reported":1707289594,"current_range_meters":23200,"station_id":"ce4bgup2rcd13ifvqcn0","pricing_plan_id":"free"},{"bike_id":"05b66696-a3db-4937-a468-207cce5f37f9","system_id":"levelo_inurba_marseille","lat":43.304606,"lon":5.379026,"is_reserved":false,"is_disabled":false,"rental_uris":{"android":"levelo://app?vid=05b66696-a3db-4937-a468-207cce5f37f9","ios":"levelo://app?vid=05b66696-a3db-4937-a468-207cce5f37f9"},"vehicle_type_id":"4","last_reported":1707289594,"current_range_meters":27200,"station_id":"ce4bgup2rcd13ifvqcn0","pricing_plan_id":"free"},{"bike_id":"50e7bf74-d237-46a0-81c0-33fca01fd415","system_id":"levelo_inurba_marseille","lat":43.304606,"lon":5.379026,"is_reserved":false,"is_disabled":false,"rental_uris":{"android":"levelo://app?vid=50e7bf74-d237-46a0-81c0-33fca01fd415","ios":"levelo://app?vid=50e7bf74-d237-46a0-81c0-33fca01fd415"},"vehicle_type_id":"4","last_reported":1707289594,"current_range_meters":20400,"station_id":"ce4bgup2rcd13ifvqcn0","pricing_plan_id":"free"},{"bike_id":"547b314d-a738-414e-b329-e6aa1631d7e4","system_id":"levelo_inurba_marseille","lat":43.304606,"lon":5.379026,"is_reserved":false,"is_disabled":false,"rental_uris":{"android":"levelo://app?vid=547b314d-a738-414e-b329-e6aa1631d7e4","ios":"levelo://app?vid=547b314d-a738-414e-b329-e6aa1631d7e4"},"vehicle_type_id":"4","last_reported":1707289594,"current_range_meters":31200,"station_id":"ce4bgup2rcd13ifvqcn0","pricing_plan_id":"free"},{"bike_id":"237c0a1b-577c-4a21-b95d-f056e3886313","system_id":"levelo_inurba_marseille","lat":43.304606,"lon":5.379026,"is_reserved":false,"is_disabled":false,"rental_uris":{"android":"levelo://app?vid=237c0a1b-577c-4a21-b95d-f056e3886313","ios":"levelo://app?vid=237c0a1b-577c-4a21-b95d-f056e3886313"},"vehicle_type_id":"4","last_reported":1707289594,"current_range_meters":24800,"station_id":"ce4bgup2rcd13ifvqcn0","pricing_plan_id":"free"},{"bike_id":"505789c3-ba00-43e2-a279-c8cda3d886be","system_id":"levelo_inurba_marseille","lat":43.30462,"lon":5.37902,"is_reserved":false,"is_disabled":false,"rental_uris":{"android":"levelo://app?vid=505789c3-ba00-43e2-a279-c8cda3d886be","ios":"levelo://app?vid=505789c3-ba00-43e2-a279-c8cda3d886be"},"vehicle_type_id":"4","last_reported":1707289594,"current_range_meters":0,"station_id":"ce4bgup2rcd13ifvqcn0","pricing_plan_id":"free"},{"bike_id":"d86b2e93-0635-45e4-86d4-0ae778f5abf3","system_id":"levelo_inurba_marseille","lat":43.304606,"lon":5.379026,"is_reserved":false,"is_disabled":false,"rental_uris":{"android":"levelo://app?vid=d86b2e93-0635-45e4-86d4-0ae778f5abf3","ios":"levelo://app?vid=d86b2e93-0635-45e4-86d4-0ae778f5abf3"},"vehicle_type_id":"4","last_reported":1707289594,"current_range_meters":30800,"station_id":"ce4bgup2rcd13ifvqcn0","pricing_plan_id":"free"},{"bike_id":"9fa72c90-1619-4bbe-a0d0-52c83bcdfbc0","system_id":"levelo_inurba_marseille","lat":43.304606,"lon":5.379026,"is_reserved":false,"is_disabled":false,"rental_uris":{"android":"levelo://app?vid=9fa72c90-1619-4bbe-a0d0-52c83bcdfbc0","ios":"levelo://app?vid=9fa72c90-1619-4bbe-a0d0-52c83bcdfbc0"},"vehicle_type_id":"4","last_reported":1707289594,"current_range_meters":27600,"station_id":"ce4bgup2rcd13ifvqcn0","pricing_plan_id":"free"},{"bike_id":"355aea79-6b35-434f-8af1-3e2a000e365c","system_id":"levelo_inurba_marseille","lat":43.30465,"lon":5.37912,"is_reserved":false,"is_disabled":false,"rental_uris":{"android":"levelo://app?vid=355aea79-6b35-434f-8af1-3e2a000e365c","ios":"levelo://app?vid=355aea79-6b35-434f-8af1-3e2a000e365c"},"vehicle_type_id":"4","last_reported":1707289594,"current_range_meters":20400,"station_id":"ce4bgup2rcd13ifvqcn0","pricing_plan_id":"free"},{"bike_id":"eb66fd9c-bbe0-4afc-8446-e691051fa117","system_id":"levelo_inurba_marseille","lat":43.304606,"lon":5.379026,"is_reserved":false,"is_disabled":false,"rental_uris":{"android":"levelo://app?vid=eb66fd9c-bbe0-4afc-8446-e691051fa117","ios":"levelo://app?vid=eb66fd9c-bbe0-4afc-8446-e691051fa117"},"vehicle_type_id":"4","last_reported":1707289594,"current_range_meters":24000,"station_id":"ce4bgup2rcd13ifvqcn0","pricing_plan_id":"free"},{"bike_id":"97f71f75-d414-4d74-9636-20377fab8590","system_id":"levelo_inurba_marseille","lat":43.324771,"lon":5.36557,"is_reserved":false,"is_disabled":false,"rental_uris":{"android":"levelo://app?vid=97f71f75-d414-4d74-9636-20377fab8590","ios":"levelo://app?vid=97f71f75-d414-4d74-9636-20377fab8590"},"vehicle_type_id":"4","last_reported":1707289594,"current_range_meters":29200,"station_id":"ce4bhs12rcd13ifvqhvg","pricing_plan_id":"free"},{"bike_id":"254d9d89-df1a-4be5-bc1d-27c1e807ef45","system_id":"levelo_inurba_marseille","lat":43.304606,"lon":5.379026,"is_reserved":false,"is_disabled":false,"rental_uris":{"android":"levelo://app?vid=254d9d89-df1a-4be5-bc1d-27c1e807ef45","ios":"levelo://app?vid=254d9d89-df1a-4be5-bc1d-27c1e807ef45"},"vehicle_type_id":"4","last_reported":1707289594,"current_range_meters":22800,"station_id":"ce4bgup2rcd13ifvqcn0","pricing_plan_id":"free"},{"bike_id":"504ab20a-82ba-4251-9315-2f1f3064d57c","system_id":"levelo_inurba_marseille","lat":43.304606,"lon":5.379026,"is_reserved":false,"is_disabled":false,"rental_uris":{"android":"levelo://app?vid=504ab20a-82ba-4251-9315-2f1f3064d57c","ios":"levelo://app?vid=504ab20a-82ba-4251-9315-2f1f3064d57c"},"vehicle_type_id":"4","last_reported":1707289594,"current_range_meters":12400,"station_id":"ce4bgup2rcd13ifvqcn0","pricing_plan_id":"free"},{"bike_id":"fdf81572-d440-4945-99be-b902e60ab830","system_id":"levelo_inurba_marseille","lat":43.30462,"lon":5.37915,"is_reserved":false,"is_disabled":false,"rental_uris":{"android":"levelo://app?vid=fdf81572-d440-4945-99be-b902e60ab830","ios":"levelo://app?vid=fdf81572-d440-4945-99be-b902e60ab830"},"vehicle_type_id":"4","last_reported":1707289594,"current_range_meters":24000,"station_id":"ce4bgup2rcd13ifvqcn0","pricing_plan_id":"free"},{"bike_id":"887d730c-e7df-4407-bcda-4a5f5af2f3a0","system_id":"levelo_inurba_marseille","lat":43.304606,"lon":5.379026,"is_reserved":false,"is_disabled":false,"rental_uris":{"android":"levelo://app?vid=887d730c-e7df-4407-bcda-4a5f5af2f3a0","ios":"levelo://app?vid=887d730c-e7df-4407-bcda-4a5f5af2f3a0"},"vehicle_type_id":"4","last_reported":1707289594,"current_range_meters":31200,"station_id":"ce4bgup2rcd13ifvqcn0","pricing_plan_id":"free"},{"bike_id":"38cd9f06-2496-4cc3-975c-dabe34e3b5eb","system_id":"levelo_inurba_marseille","lat":43.324771,"lon":5.36557,"is_reserved":false,"is_disabled":false,"rental_uris":{"android":"levelo://app?vid=38cd9f06-2496-4cc3-975c-dabe34e3b5eb","ios":"levelo://app?vid=38cd9f06-2496-4cc3-975c-dabe34e3b5eb"},"vehicle_type_id":"4","last_reported":1707289594,"current_range_meters":0,"station_id":"ce4bhs12rcd13ifvqhvg","pricing_plan_id":"free"},{"bike_id":"5e3f4117-bf71-4295-8fac-b33a9c44e6b6","system_id":"levelo_inurba_marseille","lat":43.324771,"lon":5.36557,"is_reserved":false,"is_disabled":false,"rental_uris":{"android":"levelo://app?vid=5e3f4117-bf71-4295-8fac-b33a9c44e6b6","ios":"levelo://app?vid=5e3f4117-bf71-4295-8fac-b33a9c44e6b6"},"vehicle_type_id":"4","last_reported":1707289594,"current_range_meters":21600,"station_id":"ce4bhs12rcd13ifvqhvg","pricing_plan_id":"free"},{"bike_id":"0dca58e8-155d-41f5-bd61-3b6589a0faef","system_id":"levelo_inurba_marseille","lat":43.304606,"lon":5.379026,"is_reserved":false,"is_disabled":false,"rental_uris":{"android":"levelo://app?vid=0dca58e8-155d-41f5-bd61-3b6589a0faef","ios":"levelo://app?vid=0dca58e8-155d-41f5-bd61-3b6589a0faef"},"vehicle_type_id":"4","last_reported":1707289594,"current_range_meters":16000,"station_id":"ce4bgup2rcd13ifvqcn0","pricing_plan_id":"free"},{"bike_id":"edf45dfe-91d7-407a-b7d3-81c40bcf1454","system_id":"levelo_inurba_marseille","lat":43.310723,"lon":5.383491,"is_reserved":false,"is_disabled":false,"rental_uris":{"android":"levelo://app?vid=edf45dfe-91d7-407a-b7d3-81c40bcf1454","ios":"levelo://app?vid=edf45dfe-91d7-407a-b7d3-81c40bcf1454"},"vehicle_type_id":"4","last_reported":1707289594,"current_range_meters":23600,"station_id":"ce4bgv92rcd13ifvqcr0","pricing_plan_id":"free"},{"bike_id":"7c20e289-a25a-40af-994e-4d7947cbd0b5","system_id":"levelo_inurba_marseille","lat":43.310751,"lon":5.383542,"is_reserved":false,"is_disabled":false,"rental_uris":{"android":"levelo://app?vid=7c20e289-a25a-40af-994e-4d7947cbd0b5","ios":"levelo://app?vid=7c20e289-a25a-40af-994e-4d7947cbd0b5"},"vehicle_type_id":"4","last_reported":1707289594,"current_range_meters":0,"station_id":"ce4bgv92rcd13ifvqcr0","pricing_plan_id":"free"},{"bike_id":"a83acabe-e60d-4b7b-b7f9-af5324fd0fd1","system_id":"levelo_inurba_marseille","lat":43.31072,"lon":5.383547,"is_reserved":false,"is_disabled":false,"rental_uris":{"android":"levelo://app?vid=a83acabe-e60d-4b7b-b7f9-af5324fd0fd1","ios":"levelo://app?vid=a83acabe-e60d-4b7b-b7f9-af5324fd0fd1"},"vehicle_type_id":"4","last_reported":1707289594,"current_range_meters":13200,"station_id":"ce4bgv92rcd13ifvqcr0","pricing_plan_id":"free"},{"bike_id":"f1babe8c-1686-4dd8-9610-d83438fadc7f","system_id":"levelo_inurba_marseille","lat":43.302784,"lon":5.377158,"is_reserved":false,"is_disabled":false,"rental_uris":{"android":"levelo://app?vid=f1babe8c-1686-4dd8-9610-d83438fadc7f","ios":"levelo://app?vid=f1babe8c-1686-4dd8-9610-d83438fadc7f"},"vehicle_type_id":"4","last_reported":1707289594,"current_range_meters":4800,"station_id":"ce4bguh2rcd13ifvqcj0","pricing_plan_id":"free"},{"bike_id":"8089bc2b-5fdd-4b90-9d4f-12db4741c317","system_id":"levelo_inurba_marseille","lat":43.302784,"lon":5.377158,"is_reserved":false,"is_disabled":false,"rental_uris":{"android":"levelo://app?vid=8089bc2b-5fdd-4b90-9d4f-12db4741c317","ios":"levelo://app?vid=8089bc2b-5fdd-4b90-9d4f-12db4741c317"},"vehicle_type_id":"4","last_reported":1707289594,"current_range_meters":22000,"station_id":"ce4bguh2rcd13ifvqcj0","pricing_plan_id":"free"},{"bike_id":"865a35c8-2198-4db9-a276-e68a3c05438a","system_id":"levelo_inurba_marseille","lat":43.301429,"lon":5.37413,"is_reserved":false,"is_disabled":false,"rental_uris":{"android":"levelo://app?vid=865a35c8-2198-4db9-a276-e68a3c05438a","ios":"levelo://app?vid=865a35c8-2198-4db9-a276-e68a3c05438a"},"vehicle_type_id":"4","last_reported":1707289594,"current_range_meters":28400,"station_id":"ce4bgs92rcd13ifvqcc0","pricing_plan_id":"free"},{"bike_id":"8a1cea21-deb8-45a2-86b1-4039f73a830c","system_id":"levelo_inurba_marseille","lat":43.301429,"lon":5.37413,"is_reserved":false,"is_disabled":false,"rental_uris":{"android":"levelo://app?vid=8a1cea21-deb8-45a2-86b1-4039f73a830c","ios":"levelo://app?vid=8a1cea21-deb8-45a2-86b1-4039f73a830c"},"vehicle_type_id":"4","last_reported":1707289594,"current_range_meters":31200,"station_id":"ce4bgs92rcd13ifvqcc0","pricing_plan_id":"free"},{"bike_id":"dd421e6f-be21-48ed-b86d-c555be9a8ad7","system_id":"levelo_inurba_marseille","lat":43.301429,"lon":5.37413,"is_reserved":false,"is_disabled":false,"rental_uris":{"android":"levelo://app?vid=dd421e6f-be21-48ed-b86d-c555be9a8ad7","ios":"levelo://app?vid=dd421e6f-be21-48ed-b86d-c555be9a8ad7"},"vehicle_type_id":"4","last_reported":1707289594,"current_range_meters":20400,"station_id":"ce4bgs92rcd13ifvqcc0","pricing_plan_id":"free"},{"bike_id":"0cb3acb3-cfe2-4f0a-b15e-388f38d786f4","system_id":"levelo_inurba_marseille","lat":43.30137,"lon":5.374099,"is_reserved":false,"is_disabled":false,"rental_uris":{"android":"levelo://app?vid=0cb3acb3-cfe2-4f0a-b15e-388f38d786f4","ios":"levelo://app?vid=0cb3acb3-cfe2-4f0a-b15e-388f38d786f4"},"vehicle_type_id":"4","last_reported":1707289594,"current_range_meters":31200,"station_id":"ce4bgs92rcd13ifvqcc0","pricing_plan_id":"free"},{"bike_id":"3106843b-1650-4531-b7ce-61f0153e2d4c","system_id":"levelo_inurba_marseille","lat":43.301429,"lon":5.37413,"is_reserved":false,"is_disabled":false,"rental_uris":{"android":"levelo://app?vid=3106843b-1650-4531-b7ce-61f0153e2d4c","ios":"levelo://app?vid=3106843b-1650-4531-b7ce-61f0153e2d4c"},"vehicle_type_id":"4","last_reported":1707289594,"current_range_meters":30400,"station_id":"ce4bgs92rcd13ifvqcc0","pricing_plan_id":"free"},{"bike_id":"5283c74b-358f-4802-9fb8-0203d5d3767e","system_id":"levelo_inurba_marseille","lat":43.30138,"lon":5.37423,"is_reserved":false,"is_disabled":false,"rental_uris":{"android":"levelo://app?vid=5283c74b-358f-4802-9fb8-0203d5d3767e","ios":"levelo://app?vid=5283c74b-358f-4802-9fb8-0203d5d3767e"},"vehicle_type_id":"4","last_reported":1707289594,"current_range_meters":31200,"station_id":"ce4bgs92rcd13ifvqcc0","pricing_plan_id":"free"},{"bike_id":"2cd7b4a2-f279-4b57-ab17-4d8c41a9951e","system_id":"levelo_inurba_marseille","lat":43.30136,"lon":5.3742,"is_reserved":false,"is_disabled":false,"rental_uris":{"android":"levelo://app?vid=2cd7b4a2-f279-4b57-ab17-4d8c41a9951e","ios":"levelo://app?vid=2cd7b4a2-f279-4b57-ab17-4d8c41a9951e"},"vehicle_type_id":"4","last_reported":1707289594,"current_range_meters":29200,"station_id":"ce4bgs92rcd13ifvqcc0","pricing_plan_id":"free"},{"bike_id":"4505dd3b-e70e-4db9-b95e-a6d146ab3434","system_id":"levelo_inurba_marseille","lat":43.31997,"lon":5.38145,"is_reserved":false,"is_disabled":false,"rental_uris":{"android":"levelo://app?vid=4505dd3b-e70e-4db9-b95e-a6d146ab3434","ios":"levelo://app?vid=4505dd3b-e70e-4db9-b95e-a6d146ab3434"},"vehicle_type_id":"4","last_reported":1707289594,"current_range_meters":12000,"station_id":"ce4bhr12rcd13ifvqhpg","pricing_plan_id":"free"},{"bike_id":"0abbaad6-12a6-4f04-8257-739b9ff8f24b","system_id":"levelo_inurba_marseille","lat":43.31995,"lon":5.3815,"is_reserved":false,"is_disabled":false,"rental_uris":{"android":"levelo://app?vid=0abbaad6-12a6-4f04-8257-739b9ff8f24b","ios":"levelo://app?vid=0abbaad6-12a6-4f04-8257-739b9ff8f24b"},"vehicle_type_id":"4","last_reported":1707289594,"current_range_meters":6800,"station_id":"ce4bhr12rcd13ifvqhpg","pricing_plan_id":"free"},{"bike_id":"12ce1b51-e513-48d4-8826-d38689553faa","system_id":"levelo_inurba_marseille","lat":43.31998,"lon":5.38149,"is_reserved":false,"is_disabled":false,"rental_uris":{"android":"levelo://app?vid=12ce1b51-e513-48d4-8826-d38689553faa","ios":"levelo://app?vid=12ce1b51-e513-48d4-8826-d38689553faa"},"vehicle_type_id":"4","last_reported":1707289594,"current_range_meters":24000,"station_id":"ce4bhr12rcd13ifvqhpg","pricing_plan_id":"free"},{"bike_id":"ccf2a241-3d64-4fde-891f-1d3d7e7db1c1","system_id":"levelo_inurba_marseille","lat":43.32001,"lon":5.38149,"is_reserved":false,"is_disabled":false,"rental_uris":{"android":"levelo://app?vid=ccf2a241-3d64-4fde-891f-1d3d7e7db1c1","ios":"levelo://app?vid=ccf2a241-3d64-4fde-891f-1d3d7e7db1c1"},"vehicle_type_id":"4","last_reported":1707289594,"current_range_meters":24400,"station_id":"ce4bhr12rcd13ifvqhpg","pricing_plan_id":"free"},{"bike_id":"cd1697dc-c996-412f-9980-2785b058e155","system_id":"levelo_inurba_marseille","lat":43.319964,"lon":5.381542,"is_reserved":false,"is_disabled":false,"rental_uris":{"android":"levelo://app?vid=cd1697dc-c996-412f-9980-2785b058e155","ios":"levelo://app?vid=cd1697dc-c996-412f-9980-2785b058e155"},"vehicle_type_id":"4","last_reported":1707289594,"current_range_meters":15200,"station_id":"ce4bhr12rcd13ifvqhpg","pricing_plan_id":"free"},{"bike_id":"1c25a4cd-9cf0-4c3b-88f3-a47ab8939f20","system_id":"levelo_inurba_marseille","lat":43.319938,"lon":5.381614,"is_reserved":false,"is_disabled":false,"rental_uris":{"android":"levelo://app?vid=1c25a4cd-9cf0-4c3b-88f3-a47ab8939f20","ios":"levelo://app?vid=1c25a4cd-9cf0-4c3b-88f3-a47ab8939f20"},"vehicle_type_id":"4","last_reported":1707289594,"current_range_meters":12400,"station_id":"ce4bhr12rcd13ifvqhpg","pricing_plan_id":"free"},{"bike_id":"cd930c75-f2d0-49f4-a962-1ba9d506628f","system_id":"levelo_inurba_marseille","lat":43.32001,"lon":5.38156,"is_reserved":false,"is_disabled":false,"rental_uris":{"android":"levelo://app?vid=cd930c75-f2d0-49f4-a962-1ba9d506628f","ios":"levelo://app?vid=cd930c75-f2d0-49f4-a962-1ba9d506628f"},"vehicle_type_id":"4","last_reported":1707289594,"current_range_meters":15600,"station_id":"ce4bhr12rcd13ifvqhpg","pricing_plan_id":"free"},{"bike_id":"efc61b0c-df87-4e70-8118-edca778d83e8","system_id":"levelo_inurba_marseille","lat":43.313571,"lon":5.384829,"is_reserved":false,"is_disabled":false,"rental_uris":{"android":"levelo://app?vid=efc61b0c-df87-4e70-8118-edca778d83e8","ios":"levelo://app?vid=efc61b0c-df87-4e70-8118-edca778d83e8"},"vehicle_type_id":"4","last_reported":1707289594,"current_range_meters":1600,"station_id":"ce4bgt92rcd13ifvqcf0","pricing_plan_id":"free"},{"bike_id":"c296969d-2eb2-46f0-8d1c-d054b0c44ad2","system_id":"levelo_inurba_marseille","lat":43.313571,"lon":5.384829,"is_reserved":false,"is_disabled":false,"rental_uris":{"android":"levelo://app?vid=c296969d-2eb2-46f0-8d1c-d054b0c44ad2","ios":"levelo://app?vid=c296969d-2eb2-46f0-8d1c-d054b0c44ad2"},"vehicle_type_id":"4","last_reported":1707289594,"current_range_meters":8400,"station_id":"ce4bgt92rcd13ifvqcf0","pricing_plan_id":"free"},{"bike_id":"a0fdb0de-f985-4692-8e62-3b9211ee337b","system_id":"levelo_inurba_marseille","lat":43.313571,"lon":5.384829,"is_reserved":false,"is_disabled":false,"rental_uris":{"android":"levelo://app?vid=a0fdb0de-f985-4692-8e62-3b9211ee337b","ios":"levelo://app?vid=a0fdb0de-f985-4692-8e62-3b9211ee337b"},"vehicle_type_id":"4","last_reported":1707289594,"current_range_meters":31200,"station_id":"ce4bgt92rcd13ifvqcf0","pricing_plan_id":"free"},{"bike_id":"c6cebe79-bdd7-4b95-882d-e5554788d970","system_id":"levelo_inurba_marseille","lat":43.299222,"lon":5.365554,"is_reserved":false,"is_disabled":false,"rental_uris":{"android":"levelo://app?vid=c6cebe79-bdd7-4b95-882d-e5554788d970","ios":"levelo://app?vid=c6cebe79-bdd7-4b95-882d-e5554788d970"},"vehicle_type_id":"4","last_reported":1707289594,"current_range_meters":20000,"station_id":"ce4bgm92rcd13ifvqbr0","pricing_plan_id":"free"},{"bike_id":"4ddb25f3-8062-42a5-8e22-f0dfea812c57","system_id":"levelo_inurba_marseille","lat":43.299209,"lon":5.365547,"is_reserved":false,"is_disabled":false,"rental_uris":{"android":"levelo://app?vid=4ddb25f3-8062-42a5-8e22-f0dfea812c57","ios":"levelo://app?vid=4ddb25f3-8062-42a5-8e22-f0dfea812c57"},"vehicle_type_id":"4","last_reported":1707289594,"current_range_meters":25200,"station_id":"ce4bgm92rcd13ifvqbr0","pricing_plan_id":"free"},{"bike_id":"d73908e2-2bfd-489b-804e-d4e95fac72d2","system_id":"levelo_inurba_marseille","lat":43.326525,"lon":5.36078,"is_reserved":false,"is_disabled":false,"rental_uris":{"android":"levelo://app?vid=d73908e2-2bfd-489b-804e-d4e95fac72d2","ios":"levelo://app?vid=d73908e2-2bfd-489b-804e-d4e95fac72d2"},"vehicle_type_id":"4","last_reported":1707289594,"current_range_meters":11600,"station_id":"","pricing_plan_id":"free"},{"bike_id":"821c419a-c2e6-42b8-9c75-829332e7bae9","system_id":"levelo_inurba_marseille","lat":43.311815,"lon":5.387085,"is_reserved":false,"is_disabled":false,"rental_uris":{"android":"levelo://app?vid=821c419a-c2e6-42b8-9c75-829332e7bae9","ios":"levelo://app?vid=821c419a-c2e6-42b8-9c75-829332e7bae9"},"vehicle_type_id":"4","last_reported":1707289594,"current_range_meters":2400,"station_id":"ce4bgv12rcd13ifvqcp0","pricing_plan_id":"free"},{"bike_id":"b5a0678b-dc13-4910-9ca4-adfe7b57ae48","system_id":"levelo_inurba_marseille","lat":43.29915,"lon":5.3749,"is_reserved":false,"is_disabled":false,"rental_uris":{"android":"levelo://app?vid=b5a0678b-dc13-4910-9ca4-adfe7b57ae48","ios":"levelo://app?vid=b5a0678b-dc13-4910-9ca4-adfe7b57ae48"},"vehicle_type_id":"4","last_reported":1707289594,"current_range_meters":0,"station_id":"ce4bgjh2rcd13ifvqbg0","pricing_plan_id":"free"},{"bike_id":"068825c3-0e30-4039-9991-0f25d2c61d15","system_id":"levelo_inurba_marseille","lat":43.3278,"lon":5.36688,"is_reserved":false,"is_disabled":false,"rental_uris":{"android":"levelo://app?vid=068825c3-0e30-4039-9991-0f25d2c61d15","ios":"levelo://app?vid=068825c3-0e30-4039-9991-0f25d2c61d15"},"vehicle_type_id":"4","last_reported":1707289594,"current_range_meters":12800,"station_id":"","pricing_plan_id":"free"},{"bike_id":"2e7d1277-a3ec-4c37-831b-c0b641935959","system_id":"levelo_inurba_marseille","lat":43.32815,"lon":5.36685,"is_reserved":false,"is_disabled":false,"rental_uris":{"android":"levelo://app?vid=2e7d1277-a3ec-4c37-831b-c0b641935959","ios":"levelo://app?vid=2e7d1277-a3ec-4c37-831b-c0b641935959"},"vehicle_type_id":"4","last_reported":1707289594,"current_range_meters":8800,"station_id":"ce4bhs92rcd13ifvqi0g","pricing_plan_id":"free"},{"bike_id":"1900e2ea-9239-49b1-933e-57903fa99707","system_id":"levelo_inurba_marseille","lat":43.32826,"lon":5.36695,"is_reserved":false,"is_disabled":false,"rental_uris":{"android":"levelo://app?vid=1900e2ea-9239-49b1-933e-57903fa99707","ios":"levelo://app?vid=1900e2ea-9239-49b1-933e-57903fa99707"},"vehicle_type_id":"4","last_reported":1707289594,"current_range_meters":400,"station_id":"ce4bhs92rcd13ifvqi0g","pricing_plan_id":"free"},{"bike_id":"36243836-0b62-45d5-b00e-078a5c9e3add","system_id":"levelo_inurba_marseille","lat":43.32828,"lon":5.36669,"is_reserved":false,"is_disabled":false,"rental_uris":{"android":"levelo://app?vid=36243836-0b62-45d5-b00e-078a5c9e3add","ios":"levelo://app?vid=36243836-0b62-45d5-b00e-078a5c9e3add"},"vehicle_type_id":"4","last_reported":1707289594,"current_range_meters":3200,"station_id":"ce4bhs92rcd13ifvqi0g","pricing_plan_id":"free"},{"bike_id":"a7f79efb-1544-4a9c-90b1-63c97e52bce2","system_id":"levelo_inurba_marseille","lat":43.32829,"lon":5.366709,"is_reserved":false,"is_disabled":false,"rental_uris":{"android":"levelo://app?vid=a7f79efb-1544-4a9c-90b1-63c97e52bce2","ios":"levelo://app?vid=a7f79efb-1544-4a9c-90b1-63c97e52bce2"},"vehicle_type_id":"4","last_reported":1707289594,"current_range_meters":8000,"station_id":"ce4bhs92rcd13ifvqi0g","pricing_plan_id":"free"},{"bike_id":"6cd6b889-8d57-4573-b2a2-aa0a2c9636a8","system_id":"levelo_inurba_marseille","lat":43.328296,"lon":5.366731,"is_reserved":false,"is_disabled":false,"rental_uris":{"android":"levelo://app?vid=6cd6b889-8d57-4573-b2a2-aa0a2c9636a8","ios":"levelo://app?vid=6cd6b889-8d57-4573-b2a2-aa0a2c9636a8"},"vehicle_type_id":"4","last_reported":1707289594,"current_range_meters":0,"station_id":"ce4bhs92rcd13ifvqi0g","pricing_plan_id":"free"},{"bike_id":"46ffd311-8d24-4a9c-a424-d0bccfd813b8","system_id":"levelo_inurba_marseille","lat":43.328311,"lon":5.366814,"is_reserved":false,"is_disabled":false,"rental_uris":{"android":"levelo://app?vid=46ffd311-8d24-4a9c-a424-d0bccfd813b8","ios":"levelo://app?vid=46ffd311-8d24-4a9c-a424-d0bccfd813b8"},"vehicle_type_id":"4","last_reported":1707289594,"current_range_meters":2000,"station_id":"ce4bhs92rcd13ifvqi0g","pricing_plan_id":"free"},{"bike_id":"e9931e11-7f7d-405e-b611-f5c0a6974b86","system_id":"levelo_inurba_marseille","lat":43.328315,"lon":5.366725,"is_reserved":false,"is_disabled":false,"rental_uris":{"android":"levelo://app?vid=e9931e11-7f7d-405e-b611-f5c0a6974b86","ios":"levelo://app?vid=e9931e11-7f7d-405e-b611-f5c0a6974b86"},"vehicle_type_id":"4","last_reported":1707289594,"current_range_meters":10000,"station_id":"ce4bhs92rcd13ifvqi0g","pricing_plan_id":"free"},{"bike_id":"6a5b4a9f-7323-472e-b759-8dae709cba6c","system_id":"levelo_inurba_marseille","lat":43.328319,"lon":5.366778,"is_reserved":false,"is_disabled":false,"rental_uris":{"android":"levelo://app?vid=6a5b4a9f-7323-472e-b759-8dae709cba6c","ios":"levelo://app?vid=6a5b4a9f-7323-472e-b759-8dae709cba6c"},"vehicle_type_id":"4","last_reported":1707289594,"current_range_meters":12000,"station_id":"ce4bhs92rcd13ifvqi0g","pricing_plan_id":"free"},{"bike_id":"655782ea-adc5-4c9e-a8c7-608dca9d4db8","system_id":"levelo_inurba_marseille","lat":43.328371,"lon":5.366912,"is_reserved":false,"is_disabled":false,"rental_uris":{"android":"levelo://app?vid=655782ea-adc5-4c9e-a8c7-608dca9d4db8","ios":"levelo://app?vid=655782ea-adc5-4c9e-a8c7-608dca9d4db8"},"vehicle_type_id":"4","last_reported":1707289594,"current_range_meters":19200,"station_id":"ce4bhs92rcd13ifvqi0g","pricing_plan_id":"free"},{"bike_id":"d54c75f7-90c6-44af-b362-ceee2738a462","system_id":"levelo_inurba_marseille","lat":43.297163,"lon":5.365866,"is_reserved":false,"is_disabled":false,"rental_uris":{"android":"levelo://app?vid=d54c75f7-90c6-44af-b362-ceee2738a462","ios":"levelo://app?vid=d54c75f7-90c6-44af-b362-ceee2738a462"},"vehicle_type_id":"4","last_reported":1707289594,"current_range_meters":23600,"station_id":"ce4bgn12rcd13ifvqbt0","pricing_plan_id":"free"},{"bike_id":"a8db74d5-3094-4c83-8da1-5310a3370219","system_id":"levelo_inurba_marseille","lat":43.305364,"lon":5.384119,"is_reserved":false,"is_disabled":false,"rental_uris":{"android":"levelo://app?vid=a8db74d5-3094-4c83-8da1-5310a3370219","ios":"levelo://app?vid=a8db74d5-3094-4c83-8da1-5310a3370219"},"vehicle_type_id":"4","last_reported":1707289594,"current_range_meters":24800,"station_id":"ce4bgg92rcd13ifvqb30","pricing_plan_id":"free"},{"bike_id":"299a444c-10bf-4fb8-ba8b-6ec7135ecd00","system_id":"levelo_inurba_marseille","lat":43.31516,"lon":5.389257,"is_reserved":false,"is_disabled":false,"rental_uris":{"android":"levelo://app?vid=299a444c-10bf-4fb8-ba8b-6ec7135ecd00","ios":"levelo://app?vid=299a444c-10bf-4fb8-ba8b-6ec7135ecd00"},"vehicle_type_id":"4","last_reported":1707289594,"current_range_meters":22800,"station_id":"","pricing_plan_id":"free"},{"bike_id":"86af9a0d-8a5b-4b3c-9927-1dddd89eda14","system_id":"levelo_inurba_marseille","lat":43.299028,"lon":5.381509,"is_reserved":false,"is_disabled":false,"rental_uris":{"android":"levelo://app?vid=86af9a0d-8a5b-4b3c-9927-1dddd89eda14","ios":"levelo://app?vid=86af9a0d-8a5b-4b3c-9927-1dddd89eda14"},"vehicle_type_id":"4","last_reported":1707289594,"current_range_meters":29600,"station_id":"ce4bgj12rcd13ifvqbc0","pricing_plan_id":"free"},{"bike_id":"dd3b0d09-0e4d-4a11-8747-f81a92f72dc3","system_id":"levelo_inurba_marseille","lat":43.299028,"lon":5.381509,"is_reserved":false,"is_disabled":false,"rental_uris":{"android":"levelo://app?vid=dd3b0d09-0e4d-4a11-8747-f81a92f72dc3","ios":"levelo://app?vid=dd3b0d09-0e4d-4a11-8747-f81a92f72dc3"},"vehicle_type_id":"4","last_reported":1707289594,"current_range_meters":7200,"station_id":"ce4bgj12rcd13ifvqbc0","pricing_plan_id":"free"},{"bike_id":"b393e380-9b9a-4239-8934-e30e3f7bac4e","system_id":"levelo_inurba_marseille","lat":43.317386,"lon":5.390004,"is_reserved":false,"is_disabled":false,"rental_uris":{"android":"levelo://app?vid=b393e380-9b9a-4239-8934-e30e3f7bac4e","ios":"levelo://app?vid=b393e380-9b9a-4239-8934-e30e3f7bac4e"},"vehicle_type_id":"4","last_reported":1707289594,"current_range_meters":13200,"station_id":"ce4bhqp2rcd13ifvqhng","pricing_plan_id":"free"},{"bike_id":"89d43b67-1bed-4d68-8778-f52300ccef79","system_id":"levelo_inurba_marseille","lat":43.284787,"lon":5.384116,"is_reserved":false,"is_disabled":false,"rental_uris":{"android":"levelo://app?vid=89d43b67-1bed-4d68-8778-f52300ccef79","ios":"levelo://app?vid=89d43b67-1bed-4d68-8778-f52300ccef79"},"vehicle_type_id":"4","last_reported":1707289594,"current_range_meters":15200,"station_id":"ce4bh512rcd13ifvqe3g","pricing_plan_id":"free"},{"bike_id":"3c453d5b-83dd-4499-9d12-a38d59d5c115","system_id":"levelo_inurba_marseille","lat":43.31758,"lon":5.39008,"is_reserved":false,"is_disabled":false,"rental_uris":{"android":"levelo://app?vid=3c453d5b-83dd-4499-9d12-a38d59d5c115","ios":"levelo://app?vid=3c453d5b-83dd-4499-9d12-a38d59d5c115"},"vehicle_type_id":"4","last_reported":1707289594,"current_range_meters":19200,"station_id":"ce4bhqp2rcd13ifvqhng","pricing_plan_id":"free"},{"bike_id":"40066d5b-8d2b-43d3-9439-e98e9734ba36","system_id":"levelo_inurba_marseille","lat":43.317557,"lon":5.390173,"is_reserved":false,"is_disabled":false,"rental_uris":{"android":"levelo://app?vid=40066d5b-8d2b-43d3-9439-e98e9734ba36","ios":"levelo://app?vid=40066d5b-8d2b-43d3-9439-e98e9734ba36"},"vehicle_type_id":"4","last_reported":1707289594,"current_range_meters":30000,"station_id":"ce4bhqp2rcd13ifvqhng","pricing_plan_id":"free"},{"bike_id":"8236458b-34ca-49b5-ab60-c4f12ac61945","system_id":"levelo_inurba_marseille","lat":43.31763,"lon":5.39008,"is_reserved":false,"is_disabled":false,"rental_uris":{"android":"levelo://app?vid=8236458b-34ca-49b5-ab60-c4f12ac61945","ios":"levelo://app?vid=8236458b-34ca-49b5-ab60-c4f12ac61945"},"vehicle_type_id":"4","last_reported":1707289594,"current_range_meters":13600,"station_id":"ce4bhqp2rcd13ifvqhng","pricing_plan_id":"free"},{"bike_id":"a65680f1-b3cf-4a61-b0ee-2a9e0277a0af","system_id":"levelo_inurba_marseille","lat":43.31751,"lon":5.39014,"is_reserved":false,"is_disabled":false,"rental_uris":{"android":"levelo://app?vid=a65680f1-b3cf-4a61-b0ee-2a9e0277a0af","ios":"levelo://app?vid=a65680f1-b3cf-4a61-b0ee-2a9e0277a0af"},"vehicle_type_id":"4","last_reported":1707289594,"current_range_meters":14400,"station_id":"ce4bhqp2rcd13ifvqhng","pricing_plan_id":"free"},{"bike_id":"3ccd3931-8811-4b7f-a846-c32a0a6915a2","system_id":"levelo_inurba_marseille","lat":43.317557,"lon":5.390173,"is_reserved":false,"is_disabled":false,"rental_uris":{"android":"levelo://app?vid=3ccd3931-8811-4b7f-a846-c32a0a6915a2","ios":"levelo://app?vid=3ccd3931-8811-4b7f-a846-c32a0a6915a2"},"vehicle_type_id":"4","last_reported":1707289594,"current_range_meters":26000,"station_id":"ce4bhqp2rcd13ifvqhng","pricing_plan_id":"free"},{"bike_id":"f9e71f25-83c3-4ad2-95f8-b63267492ced","system_id":"levelo_inurba_marseille","lat":43.317557,"lon":5.390173,"is_reserved":false,"is_disabled":false,"rental_uris":{"android":"levelo://app?vid=f9e71f25-83c3-4ad2-95f8-b63267492ced","ios":"levelo://app?vid=f9e71f25-83c3-4ad2-95f8-b63267492ced"},"vehicle_type_id":"4","last_reported":1707289594,"current_range_meters":26000,"station_id":"ce4bhqp2rcd13ifvqhng","pricing_plan_id":"free"},{"bike_id":"acfb1a76-9d92-4e60-b5a5-bb928051e624","system_id":"levelo_inurba_marseille","lat":43.317557,"lon":5.390173,"is_reserved":false,"is_disabled":false,"rental_uris":{"android":"levelo://app?vid=acfb1a76-9d92-4e60-b5a5-bb928051e624","ios":"levelo://app?vid=acfb1a76-9d92-4e60-b5a5-bb928051e624"},"vehicle_type_id":"4","last_reported":1707289594,"current_range_meters":28800,"station_id":"ce4bhqp2rcd13ifvqhng","pricing_plan_id":"free"},{"bike_id":"99732f8c-06ce-4fb2-bd24-fd1ceb6083fa","system_id":"levelo_inurba_marseille","lat":43.317557,"lon":5.390173,"is_reserved":false,"is_disabled":false,"rental_uris":{"android":"levelo://app?vid=99732f8c-06ce-4fb2-bd24-fd1ceb6083fa","ios":"levelo://app?vid=99732f8c-06ce-4fb2-bd24-fd1ceb6083fa"},"vehicle_type_id":"4","last_reported":1707289594,"current_range_meters":2400,"station_id":"ce4bhqp2rcd13ifvqhng","pricing_plan_id":"free"},{"bike_id":"211f186d-35fc-4407-a75f-a4e75d95c601","system_id":"levelo_inurba_marseille","lat":43.317583,"lon":5.390189,"is_reserved":false,"is_disabled":false,"rental_uris":{"android":"levelo://app?vid=211f186d-35fc-4407-a75f-a4e75d95c601","ios":"levelo://app?vid=211f186d-35fc-4407-a75f-a4e75d95c601"},"vehicle_type_id":"4","last_reported":1707289594,"current_range_meters":0,"station_id":"ce4bhqp2rcd13ifvqhng","pricing_plan_id":"free"},{"bike_id":"558f608b-26a3-464e-b1a0-c794e4be9398","system_id":"levelo_inurba_marseille","lat":43.317557,"lon":5.390173,"is_reserved":false,"is_disabled":false,"rental_uris":{"android":"levelo://app?vid=558f608b-26a3-464e-b1a0-c794e4be9398","ios":"levelo://app?vid=558f608b-26a3-464e-b1a0-c794e4be9398"},"vehicle_type_id":"4","last_reported":1707289594,"current_range_meters":800,"station_id":"ce4bhqp2rcd13ifvqhng","pricing_plan_id":"free"},{"bike_id":"f4bfaf4d-c467-4041-bcbf-a4010308102c","system_id":"levelo_inurba_marseille","lat":43.298037,"lon":5.381066,"is_reserved":false,"is_disabled":false,"rental_uris":{"android":"levelo://app?vid=f4bfaf4d-c467-4041-bcbf-a4010308102c","ios":"levelo://app?vid=f4bfaf4d-c467-4041-bcbf-a4010308102c"},"vehicle_type_id":"4","last_reported":1707289594,"current_range_meters":27200,"station_id":"ce4bgip2rcd13ifvqbb0","pricing_plan_id":"free"},{"bike_id":"16a3713b-42de-4526-9d00-d1feefe59b24","system_id":"levelo_inurba_marseille","lat":43.298037,"lon":5.381066,"is_reserved":false,"is_disabled":false,"rental_uris":{"android":"levelo://app?vid=16a3713b-42de-4526-9d00-d1feefe59b24","ios":"levelo://app?vid=16a3713b-42de-4526-9d00-d1feefe59b24"},"vehicle_type_id":"4","last_reported":1707289594,"current_range_meters":29600,"station_id":"ce4bgip2rcd13ifvqbb0","pricing_plan_id":"free"},{"bike_id":"866eead2-26bf-4993-8412-3d40cd9cb3b2","system_id":"levelo_inurba_marseille","lat":43.298037,"lon":5.381066,"is_reserved":false,"is_disabled":false,"rental_uris":{"android":"levelo://app?vid=866eead2-26bf-4993-8412-3d40cd9cb3b2","ios":"levelo://app?vid=866eead2-26bf-4993-8412-3d40cd9cb3b2"},"vehicle_type_id":"4","last_reported":1707289594,"current_range_meters":27200,"station_id":"ce4bgip2rcd13ifvqbb0","pricing_plan_id":"free"},{"bike_id":"2d90b5c7-f2eb-4b35-bdbb-4f928c1514f0","system_id":"levelo_inurba_marseille","lat":43.298037,"lon":5.381066,"is_reserved":false,"is_disabled":false,"rental_uris":{"android":"levelo://app?vid=2d90b5c7-f2eb-4b35-bdbb-4f928c1514f0","ios":"levelo://app?vid=2d90b5c7-f2eb-4b35-bdbb-4f928c1514f0"},"vehicle_type_id":"4","last_reported":1707289594,"current_range_meters":0,"station_id":"ce4bgip2rcd13ifvqbb0","pricing_plan_id":"free"},{"bike_id":"91ab19cd-e9a4-4f7c-a284-601f1d4c03b7","system_id":"levelo_inurba_marseille","lat":43.295748,"lon":5.37522,"is_reserved":false,"is_disabled":false,"rental_uris":{"android":"levelo://app?vid=91ab19cd-e9a4-4f7c-a284-601f1d4c03b7","ios":"levelo://app?vid=91ab19cd-e9a4-4f7c-a284-601f1d4c03b7"},"vehicle_type_id":"4","last_reported":1707289594,"current_range_meters":21600,"station_id":"ce4bgh92rcd13ifvqb50","pricing_plan_id":"free"},{"bike_id":"4ce41b01-b270-4cee-8b20-c52d0a42c399","system_id":"levelo_inurba_marseille","lat":43.295748,"lon":5.37522,"is_reserved":false,"is_disabled":false,"rental_uris":{"android":"levelo://app?vid=4ce41b01-b270-4cee-8b20-c52d0a42c399","ios":"levelo://app?vid=4ce41b01-b270-4cee-8b20-c52d0a42c399"},"vehicle_type_id":"4","last_reported":1707289594,"current_range_meters":3200,"station_id":"ce4bgh92rcd13ifvqb50","pricing_plan_id":"free"},{"bike_id":"4d1a2cb3-8e01-483f-8e5e-9f3aaa76a794","system_id":"levelo_inurba_marseille","lat":43.298037,"lon":5.381066,"is_reserved":false,"is_disabled":false,"rental_uris":{"android":"levelo://app?vid=4d1a2cb3-8e01-483f-8e5e-9f3aaa76a794","ios":"levelo://app?vid=4d1a2cb3-8e01-483f-8e5e-9f3aaa76a794"},"vehicle_type_id":"4","last_reported":1707289594,"current_range_meters":31200,"station_id":"ce4bgip2rcd13ifvqbb0","pricing_plan_id":"free"},{"bike_id":"643bc226-c246-4fa7-a500-b416842ab755","system_id":"levelo_inurba_marseille","lat":43.298037,"lon":5.381066,"is_reserved":false,"is_disabled":false,"rental_uris":{"android":"levelo://app?vid=643bc226-c246-4fa7-a500-b416842ab755","ios":"levelo://app?vid=643bc226-c246-4fa7-a500-b416842ab755"},"vehicle_type_id":"4","last_reported":1707289594,"current_range_meters":31200,"station_id":"ce4bgip2rcd13ifvqbb0","pricing_plan_id":"free"},{"bike_id":"55bfb0dc-58d5-49a2-9f76-7b11db25d463","system_id":"levelo_inurba_marseille","lat":43.298037,"lon":5.381066,"is_reserved":false,"is_disabled":false,"rental_uris":{"android":"levelo://app?vid=55bfb0dc-58d5-49a2-9f76-7b11db25d463","ios":"levelo://app?vid=55bfb0dc-58d5-49a2-9f76-7b11db25d463"},"vehicle_type_id":"4","last_reported":1707289594,"current_range_meters":20800,"station_id":"ce4bgip2rcd13ifvqbb0","pricing_plan_id":"free"},{"bike_id":"ef7f06dd-19ed-4b26-b780-efc2c2ab08ee","system_id":"levelo_inurba_marseille","lat":43.304274,"lon":5.388873,"is_reserved":false,"is_disabled":false,"rental_uris":{"android":"levelo://app?vid=ef7f06dd-19ed-4b26-b780-efc2c2ab08ee","ios":"levelo://app?vid=ef7f06dd-19ed-4b26-b780-efc2c2ab08ee"},"vehicle_type_id":"4","last_reported":1707289594,"current_range_meters":26000,"station_id":"ce4bgk12rcd13ifvqbi0","pricing_plan_id":"free"},{"bike_id":"a73c2f04-1142-42f5-9623-ffd5eefd42ef","system_id":"levelo_inurba_marseille","lat":43.30424,"lon":5.3889,"is_reserved":false,"is_disabled":false,"rental_uris":{"android":"levelo://app?vid=a73c2f04-1142-42f5-9623-ffd5eefd42ef","ios":"levelo://app?vid=a73c2f04-1142-42f5-9623-ffd5eefd42ef"},"vehicle_type_id":"4","last_reported":1707289594,"current_range_meters":0,"station_id":"ce4bgk12rcd13ifvqbi0","pricing_plan_id":"free"},{"bike_id":"419f3ff3-8121-4c91-8299-f54866e616a4","system_id":"levelo_inurba_marseille","lat":43.304278,"lon":5.388868,"is_reserved":false,"is_disabled":false,"rental_uris":{"android":"levelo://app?vid=419f3ff3-8121-4c91-8299-f54866e616a4","ios":"levelo://app?vid=419f3ff3-8121-4c91-8299-f54866e616a4"},"vehicle_type_id":"4","last_reported":1707289594,"current_range_meters":16800,"station_id":"ce4bgk12rcd13ifvqbi0","pricing_plan_id":"free"},{"bike_id":"392d0d67-bd07-4b57-8038-5c870476ddee","system_id":"levelo_inurba_marseille","lat":43.304278,"lon":5.388868,"is_reserved":false,"is_disabled":false,"rental_uris":{"android":"levelo://app?vid=392d0d67-bd07-4b57-8038-5c870476ddee","ios":"levelo://app?vid=392d0d67-bd07-4b57-8038-5c870476ddee"},"vehicle_type_id":"4","last_reported":1707289594,"current_range_meters":7200,"station_id":"ce4bgk12rcd13ifvqbi0","pricing_plan_id":"free"},{"bike_id":"3632b16b-a6d1-45a6-8dd1-45ef0aa62ddc","system_id":"levelo_inurba_marseille","lat":43.295748,"lon":5.37522,"is_reserved":false,"is_disabled":false,"rental_uris":{"android":"levelo://app?vid=3632b16b-a6d1-45a6-8dd1-45ef0aa62ddc","ios":"levelo://app?vid=3632b16b-a6d1-45a6-8dd1-45ef0aa62ddc"},"vehicle_type_id":"4","last_reported":1707289594,"current_range_meters":27200,"station_id":"ce4bgh92rcd13ifvqb50","pricing_plan_id":"free"},{"bike_id":"d9aec260-305e-4687-8d85-4c9073dee283","system_id":"levelo_inurba_marseille","lat":43.296263,"lon":5.377094,"is_reserved":false,"is_disabled":false,"rental_uris":{"android":"levelo://app?vid=d9aec260-305e-4687-8d85-4c9073dee283","ios":"levelo://app?vid=d9aec260-305e-4687-8d85-4c9073dee283"},"vehicle_type_id":"4","last_reported":1707289594,"current_range_meters":14800,"station_id":"ce4bgi92rcd13ifvqb90","pricing_plan_id":"free"},{"bike_id":"c0e571c7-3c12-408c-a77c-25dd67827e5a","system_id":"levelo_inurba_marseille","lat":43.295279,"lon":5.375048,"is_reserved":false,"is_disabled":false,"rental_uris":{"android":"levelo://app?vid=c0e571c7-3c12-408c-a77c-25dd67827e5a","ios":"levelo://app?vid=c0e571c7-3c12-408c-a77c-25dd67827e5a"},"vehicle_type_id":"4","last_reported":1707289594,"current_range_meters":4800,"station_id":"ce4bgkp2rcd13ifvqbmg","pricing_plan_id":"free"},{"bike_id":"2699b29a-e584-4936-892c-96f311fc0314","system_id":"levelo_inurba_marseille","lat":43.32362,"lon":5.38877,"is_reserved":false,"is_disabled":false,"rental_uris":{"android":"levelo://app?vid=2699b29a-e584-4936-892c-96f311fc0314","ios":"levelo://app?vid=2699b29a-e584-4936-892c-96f311fc0314"},"vehicle_type_id":"4","last_reported":1707289594,"current_range_meters":5200,"station_id":"ce4bhqp2rcd13ifvqhog","pricing_plan_id":"free"},{"bike_id":"ed5d3f68-f6ae-4628-a68b-31e6c4c8b97c","system_id":"levelo_inurba_marseille","lat":43.32361,"lon":5.38883,"is_reserved":false,"is_disabled":false,"rental_uris":{"android":"levelo://app?vid=ed5d3f68-f6ae-4628-a68b-31e6c4c8b97c","ios":"levelo://app?vid=ed5d3f68-f6ae-4628-a68b-31e6c4c8b97c"},"vehicle_type_id":"4","last_reported":1707289594,"current_range_meters":0,"station_id":"ce4bhqp2rcd13ifvqhog","pricing_plan_id":"free"},{"bike_id":"ff7066c7-aa1b-4d2c-a675-1a72e0d147ce","system_id":"levelo_inurba_marseille","lat":43.32358,"lon":5.38886,"is_reserved":false,"is_disabled":false,"rental_uris":{"android":"levelo://app?vid=ff7066c7-aa1b-4d2c-a675-1a72e0d147ce","ios":"levelo://app?vid=ff7066c7-aa1b-4d2c-a675-1a72e0d147ce"},"vehicle_type_id":"4","last_reported":1707289594,"current_range_meters":6000,"station_id":"ce4bhqp2rcd13ifvqhog","pricing_plan_id":"free"},{"bike_id":"27e7d923-81e0-4c18-9a4b-aeb5de43f55c","system_id":"levelo_inurba_marseille","lat":43.323641,"lon":5.388809,"is_reserved":false,"is_disabled":false,"rental_uris":{"android":"levelo://app?vid=27e7d923-81e0-4c18-9a4b-aeb5de43f55c","ios":"levelo://app?vid=27e7d923-81e0-4c18-9a4b-aeb5de43f55c"},"vehicle_type_id":"4","last_reported":1707289594,"current_range_meters":16800,"station_id":"ce4bhqp2rcd13ifvqhog","pricing_plan_id":"free"},{"bike_id":"e46e8ff3-6efb-422c-88bb-36c5e9ce66e4","system_id":"levelo_inurba_marseille","lat":43.323702,"lon":5.388753,"is_reserved":false,"is_disabled":false,"rental_uris":{"android":"levelo://app?vid=e46e8ff3-6efb-422c-88bb-36c5e9ce66e4","ios":"levelo://app?vid=e46e8ff3-6efb-422c-88bb-36c5e9ce66e4"},"vehicle_type_id":"4","last_reported":1707289594,"current_range_meters":10000,"station_id":"ce4bhqp2rcd13ifvqhog","pricing_plan_id":"free"},{"bike_id":"b2180001-e57d-42eb-b057-d6791a6c5f13","system_id":"levelo_inurba_marseille","lat":43.32366,"lon":5.38882,"is_reserved":false,"is_disabled":false,"rental_uris":{"android":"levelo://app?vid=b2180001-e57d-42eb-b057-d6791a6c5f13","ios":"levelo://app?vid=b2180001-e57d-42eb-b057-d6791a6c5f13"},"vehicle_type_id":"4","last_reported":1707289594,"current_range_meters":8000,"station_id":"ce4bhqp2rcd13ifvqhog","pricing_plan_id":"free"},{"bike_id":"606777c4-4d1f-4822-a9c7-ca190e9d7ac9","system_id":"levelo_inurba_marseille","lat":43.323709,"lon":5.388798,"is_reserved":false,"is_disabled":false,"rental_uris":{"android":"levelo://app?vid=606777c4-4d1f-4822-a9c7-ca190e9d7ac9","ios":"levelo://app?vid=606777c4-4d1f-4822-a9c7-ca190e9d7ac9"},"vehicle_type_id":"4","last_reported":1707289594,"current_range_meters":1200,"station_id":"ce4bhqp2rcd13ifvqhog","pricing_plan_id":"free"},{"bike_id":"593326ed-2cc1-41f5-9d97-b4674f983682","system_id":"levelo_inurba_marseille","lat":43.32367,"lon":5.388836,"is_reserved":false,"is_disabled":false,"rental_uris":{"android":"levelo://app?vid=593326ed-2cc1-41f5-9d97-b4674f983682","ios":"levelo://app?vid=593326ed-2cc1-41f5-9d97-b4674f983682"},"vehicle_type_id":"4","last_reported":1707289594,"current_range_meters":6800,"station_id":"ce4bhqp2rcd13ifvqhog","pricing_plan_id":"free"},{"bike_id":"8a8ada76-bf19-4145-91ec-7c7daaaa628c","system_id":"levelo_inurba_marseille","lat":43.294725,"lon":5.377135,"is_reserved":false,"is_disabled":false,"rental_uris":{"android":"levelo://app?vid=8a8ada76-bf19-4145-91ec-7c7daaaa628c","ios":"levelo://app?vid=8a8ada76-bf19-4145-91ec-7c7daaaa628c"},"vehicle_type_id":"4","last_reported":1707289594,"current_range_meters":25200,"station_id":"ce4bgkp2rcd13ifvqbmg","pricing_plan_id":"free"},{"bike_id":"a6658e41-fece-4693-b39a-54f468dda687","system_id":"levelo_inurba_marseille","lat":43.29601,"lon":5.381084,"is_reserved":false,"is_disabled":false,"rental_uris":{"android":"levelo://app?vid=a6658e41-fece-4693-b39a-54f468dda687","ios":"levelo://app?vid=a6658e41-fece-4693-b39a-54f468dda687"},"vehicle_type_id":"4","last_reported":1707289594,"current_range_meters":21600,"station_id":"ce4bgl12rcd13ifvqbo0","pricing_plan_id":"free"},{"bike_id":"085c9ebf-0baf-4d6b-a676-643b98ad71d4","system_id":"levelo_inurba_marseille","lat":43.29602,"lon":5.381084,"is_reserved":false,"is_disabled":false,"rental_uris":{"android":"levelo://app?vid=085c9ebf-0baf-4d6b-a676-643b98ad71d4","ios":"levelo://app?vid=085c9ebf-0baf-4d6b-a676-643b98ad71d4"},"vehicle_type_id":"4","last_reported":1707289594,"current_range_meters":25200,"station_id":"ce4bgl12rcd13ifvqbo0","pricing_plan_id":"free"},{"bike_id":"a4581b49-a902-4bc1-96b0-2425e9bdd696","system_id":"levelo_inurba_marseille","lat":43.29598,"lon":5.38097,"is_reserved":false,"is_disabled":false,"rental_uris":{"android":"levelo://app?vid=a4581b49-a902-4bc1-96b0-2425e9bdd696","ios":"levelo://app?vid=a4581b49-a902-4bc1-96b0-2425e9bdd696"},"vehicle_type_id":"4","last_reported":1707289594,"current_range_meters":2400,"station_id":"ce4bgl12rcd13ifvqbo0","pricing_plan_id":"free"},{"bike_id":"017ceed5-b6e7-4f3a-8c07-d24c5924ccea","system_id":"levelo_inurba_marseille","lat":43.29601,"lon":5.381084,"is_reserved":false,"is_disabled":false,"rental_uris":{"android":"levelo://app?vid=017ceed5-b6e7-4f3a-8c07-d24c5924ccea","ios":"levelo://app?vid=017ceed5-b6e7-4f3a-8c07-d24c5924ccea"},"vehicle_type_id":"4","last_reported":1707289594,"current_range_meters":21600,"station_id":"ce4bgl12rcd13ifvqbo0","pricing_plan_id":"free"},{"bike_id":"b1113efe-7d4c-466d-a380-317aa332cda3","system_id":"levelo_inurba_marseille","lat":43.29601,"lon":5.381084,"is_reserved":false,"is_disabled":false,"rental_uris":{"android":"levelo://app?vid=b1113efe-7d4c-466d-a380-317aa332cda3","ios":"levelo://app?vid=b1113efe-7d4c-466d-a380-317aa332cda3"},"vehicle_type_id":"4","last_reported":1707289594,"current_range_meters":16400,"station_id":"ce4bgl12rcd13ifvqbo0","pricing_plan_id":"free"},{"bike_id":"a41ab17a-51ac-49cc-8925-4362f536f237","system_id":"levelo_inurba_marseille","lat":43.295948,"lon":5.380955,"is_reserved":false,"is_disabled":false,"rental_uris":{"android":"levelo://app?vid=a41ab17a-51ac-49cc-8925-4362f536f237","ios":"levelo://app?vid=a41ab17a-51ac-49cc-8925-4362f536f237"},"vehicle_type_id":"4","last_reported":1707289594,"current_range_meters":31200,"station_id":"ce4bgl12rcd13ifvqbo0","pricing_plan_id":"free"},{"bike_id":"143169b7-d263-42e6-bf7c-09a0e7662988","system_id":"levelo_inurba_marseille","lat":43.29319,"lon":5.37059,"is_reserved":false,"is_disabled":false,"rental_uris":{"android":"levelo://app?vid=143169b7-d263-42e6-bf7c-09a0e7662988","ios":"levelo://app?vid=143169b7-d263-42e6-bf7c-09a0e7662988"},"vehicle_type_id":"4","last_reported":1707289594,"current_range_meters":23200,"station_id":"","pricing_plan_id":"free"},{"bike_id":"423c56de-52d6-4ed6-bdc2-12bd4fff2948","system_id":"levelo_inurba_marseille","lat":43.292749,"lon":5.368402,"is_reserved":false,"is_disabled":false,"rental_uris":{"android":"levelo://app?vid=423c56de-52d6-4ed6-bdc2-12bd4fff2948","ios":"levelo://app?vid=423c56de-52d6-4ed6-bdc2-12bd4fff2948"},"vehicle_type_id":"4","last_reported":1707289594,"current_range_meters":0,"station_id":"ce4bhbp2rcd13ifvqesg","pricing_plan_id":"free"},{"bike_id":"5ff8616f-f451-4f46-88fa-65fa10ca58d9","system_id":"levelo_inurba_marseille","lat":43.305994,"lon":5.393687,"is_reserved":false,"is_disabled":false,"rental_uris":{"android":"levelo://app?vid=5ff8616f-f451-4f46-88fa-65fa10ca58d9","ios":"levelo://app?vid=5ff8616f-f451-4f46-88fa-65fa10ca58d9"},"vehicle_type_id":"4","last_reported":1707289594,"current_range_meters":20800,"station_id":"ce4bh0p2rcd13ifvqd80","pricing_plan_id":"free"},{"bike_id":"58ce6322-a791-48f0-8bcc-95a1314180fc","system_id":"levelo_inurba_marseille","lat":43.29543,"lon":5.38168,"is_reserved":false,"is_disabled":false,"rental_uris":{"android":"levelo://app?vid=58ce6322-a791-48f0-8bcc-95a1314180fc","ios":"levelo://app?vid=58ce6322-a791-48f0-8bcc-95a1314180fc"},"vehicle_type_id":"4","last_reported":1707289594,"current_range_meters":3200,"station_id":"","pricing_plan_id":"free"},{"bike_id":"d3f7a873-98c5-47d3-b647-2de9c31c5edc","system_id":"levelo_inurba_marseille","lat":43.305994,"lon":5.393687,"is_reserved":false,"is_disabled":false,"rental_uris":{"android":"levelo://app?vid=d3f7a873-98c5-47d3-b647-2de9c31c5edc","ios":"levelo://app?vid=d3f7a873-98c5-47d3-b647-2de9c31c5edc"},"vehicle_type_id":"4","last_reported":1707289594,"current_range_meters":16800,"station_id":"ce4bh0p2rcd13ifvqd80","pricing_plan_id":"free"},{"bike_id":"ce4be45e-9f51-48d3-b1c5-46100ab391cc","system_id":"levelo_inurba_marseille","lat":43.30583,"lon":5.3935,"is_reserved":false,"is_disabled":false,"rental_uris":{"android":"levelo://app?vid=ce4be45e-9f51-48d3-b1c5-46100ab391cc","ios":"levelo://app?vid=ce4be45e-9f51-48d3-b1c5-46100ab391cc"},"vehicle_type_id":"4","last_reported":1707289594,"current_range_meters":26000,"station_id":"ce4bh0p2rcd13ifvqd80","pricing_plan_id":"free"},{"bike_id":"7bedd63f-ef06-4ffc-9284-0ecd00840e0a","system_id":"levelo_inurba_marseille","lat":43.305994,"lon":5.393687,"is_reserved":false,"is_disabled":false,"rental_uris":{"android":"levelo://app?vid=7bedd63f-ef06-4ffc-9284-0ecd00840e0a","ios":"levelo://app?vid=7bedd63f-ef06-4ffc-9284-0ecd00840e0a"},"vehicle_type_id":"4","last_reported":1707289594,"current_range_meters":26000,"station_id":"ce4bh0p2rcd13ifvqd80","pricing_plan_id":"free"},{"bike_id":"e07625ee-5153-4fdb-b72d-ae5f89545508","system_id":"levelo_inurba_marseille","lat":43.305994,"lon":5.393687,"is_reserved":false,"is_disabled":false,"rental_uris":{"android":"levelo://app?vid=e07625ee-5153-4fdb-b72d-ae5f89545508","ios":"levelo://app?vid=e07625ee-5153-4fdb-b72d-ae5f89545508"},"vehicle_type_id":"4","last_reported":1707289594,"current_range_meters":19200,"station_id":"ce4bh0p2rcd13ifvqd80","pricing_plan_id":"free"},{"bike_id":"8be38586-2fef-4b76-8e31-3e39e6e7a9c7","system_id":"levelo_inurba_marseille","lat":43.30592,"lon":5.39356,"is_reserved":false,"is_disabled":false,"rental_uris":{"android":"levelo://app?vid=8be38586-2fef-4b76-8e31-3e39e6e7a9c7","ios":"levelo://app?vid=8be38586-2fef-4b76-8e31-3e39e6e7a9c7"},"vehicle_type_id":"4","last_reported":1707289594,"current_range_meters":15200,"station_id":"ce4bh0p2rcd13ifvqd80","pricing_plan_id":"free"},{"bike_id":"b53edbd5-1a01-4296-8167-8c6334eb9d31","system_id":"levelo_inurba_marseille","lat":43.305994,"lon":5.393687,"is_reserved":false,"is_disabled":false,"rental_uris":{"android":"levelo://app?vid=b53edbd5-1a01-4296-8167-8c6334eb9d31","ios":"levelo://app?vid=b53edbd5-1a01-4296-8167-8c6334eb9d31"},"vehicle_type_id":"4","last_reported":1707289594,"current_range_meters":17600,"station_id":"ce4bh0p2rcd13ifvqd80","pricing_plan_id":"free"},{"bike_id":"eb0dae4f-2070-45aa-b98e-4f74345aa2ad","system_id":"levelo_inurba_marseille","lat":43.30595,"lon":5.39358,"is_reserved":false,"is_disabled":false,"rental_uris":{"android":"levelo://app?vid=eb0dae4f-2070-45aa-b98e-4f74345aa2ad","ios":"levelo://app?vid=eb0dae4f-2070-45aa-b98e-4f74345aa2ad"},"vehicle_type_id":"4","last_reported":1707289594,"current_range_meters":27200,"station_id":"ce4bh0p2rcd13ifvqd80","pricing_plan_id":"free"},{"bike_id":"e9c83967-06a2-480e-b539-8d42ad79dd74","system_id":"levelo_inurba_marseille","lat":43.3059,"lon":5.39356,"is_reserved":false,"is_disabled":false,"rental_uris":{"android":"levelo://app?vid=e9c83967-06a2-480e-b539-8d42ad79dd74","ios":"levelo://app?vid=e9c83967-06a2-480e-b539-8d42ad79dd74"},"vehicle_type_id":"4","last_reported":1707289594,"current_range_meters":22400,"station_id":"ce4bh0p2rcd13ifvqd80","pricing_plan_id":"free"},{"bike_id":"7801f1d4-3beb-416b-af02-9c92dbe2a0b6","system_id":"levelo_inurba_marseille","lat":43.30598,"lon":5.3936,"is_reserved":false,"is_disabled":false,"rental_uris":{"android":"levelo://app?vid=7801f1d4-3beb-416b-af02-9c92dbe2a0b6","ios":"levelo://app?vid=7801f1d4-3beb-416b-af02-9c92dbe2a0b6"},"vehicle_type_id":"4","last_reported":1707289594,"current_range_meters":7600,"station_id":"ce4bh0p2rcd13ifvqd80","pricing_plan_id":"free"},{"bike_id":"6c6c379f-ea57-4f77-9061-c612c1ec7fe3","system_id":"levelo_inurba_marseille","lat":43.305994,"lon":5.393687,"is_reserved":false,"is_disabled":false,"rental_uris":{"android":"levelo://app?vid=6c6c379f-ea57-4f77-9061-c612c1ec7fe3","ios":"levelo://app?vid=6c6c379f-ea57-4f77-9061-c612c1ec7fe3"},"vehicle_type_id":"4","last_reported":1707289594,"current_range_meters":24000,"station_id":"ce4bh0p2rcd13ifvqd80","pricing_plan_id":"free"},{"bike_id":"c15a8e90-1cad-4e83-9afb-1b23ad54d5ab","system_id":"levelo_inurba_marseille","lat":43.30595,"lon":5.3936,"is_reserved":false,"is_disabled":false,"rental_uris":{"android":"levelo://app?vid=c15a8e90-1cad-4e83-9afb-1b23ad54d5ab","ios":"levelo://app?vid=c15a8e90-1cad-4e83-9afb-1b23ad54d5ab"},"vehicle_type_id":"4","last_reported":1707289594,"current_range_meters":19600,"station_id":"ce4bh0p2rcd13ifvqd80","pricing_plan_id":"free"},{"bike_id":"56be77b8-c14f-4fdf-b953-2f062c906178","system_id":"levelo_inurba_marseille","lat":43.305994,"lon":5.393687,"is_reserved":false,"is_disabled":false,"rental_uris":{"android":"levelo://app?vid=56be77b8-c14f-4fdf-b953-2f062c906178","ios":"levelo://app?vid=56be77b8-c14f-4fdf-b953-2f062c906178"},"vehicle_type_id":"4","last_reported":1707289594,"current_range_meters":4000,"station_id":"ce4bh0p2rcd13ifvqd80","pricing_plan_id":"free"},{"bike_id":"8b1493e8-e197-433b-a8dd-641d58e740a5","system_id":"levelo_inurba_marseille","lat":43.305994,"lon":5.393687,"is_reserved":false,"is_disabled":false,"rental_uris":{"android":"levelo://app?vid=8b1493e8-e197-433b-a8dd-641d58e740a5","ios":"levelo://app?vid=8b1493e8-e197-433b-a8dd-641d58e740a5"},"vehicle_type_id":"4","last_reported":1707289594,"current_range_meters":30400,"station_id":"ce4bh0p2rcd13ifvqd80","pricing_plan_id":"free"},{"bike_id":"cb0cd39a-17e1-4df2-a671-1c0ead057580","system_id":"levelo_inurba_marseille","lat":43.305994,"lon":5.393687,"is_reserved":false,"is_disabled":false,"rental_uris":{"android":"levelo://app?vid=cb0cd39a-17e1-4df2-a671-1c0ead057580","ios":"levelo://app?vid=cb0cd39a-17e1-4df2-a671-1c0ead057580"},"vehicle_type_id":"4","last_reported":1707289594,"current_range_meters":2400,"station_id":"ce4bh0p2rcd13ifvqd80","pricing_plan_id":"free"},{"bike_id":"d46c6089-2e6e-48a9-83d3-88a0160bfae0","system_id":"levelo_inurba_marseille","lat":43.305994,"lon":5.393687,"is_reserved":false,"is_disabled":false,"rental_uris":{"android":"levelo://app?vid=d46c6089-2e6e-48a9-83d3-88a0160bfae0","ios":"levelo://app?vid=d46c6089-2e6e-48a9-83d3-88a0160bfae0"},"vehicle_type_id":"4","last_reported":1707289594,"current_range_meters":24400,"station_id":"ce4bh0p2rcd13ifvqd80","pricing_plan_id":"free"},{"bike_id":"d45bde75-f259-4ebe-8257-c6086a00e361","system_id":"levelo_inurba_marseille","lat":43.30596,"lon":5.39366,"is_reserved":false,"is_disabled":false,"rental_uris":{"android":"levelo://app?vid=d45bde75-f259-4ebe-8257-c6086a00e361","ios":"levelo://app?vid=d45bde75-f259-4ebe-8257-c6086a00e361"},"vehicle_type_id":"4","last_reported":1707289594,"current_range_meters":31200,"station_id":"ce4bh0p2rcd13ifvqd80","pricing_plan_id":"free"},{"bike_id":"a8548765-a137-4f7d-8a7b-48e07d69a881","system_id":"levelo_inurba_marseille","lat":43.305994,"lon":5.393687,"is_reserved":false,"is_disabled":false,"rental_uris":{"android":"levelo://app?vid=a8548765-a137-4f7d-8a7b-48e07d69a881","ios":"levelo://app?vid=a8548765-a137-4f7d-8a7b-48e07d69a881"},"vehicle_type_id":"4","last_reported":1707289594,"current_range_meters":10000,"station_id":"ce4bh0p2rcd13ifvqd80","pricing_plan_id":"free"},{"bike_id":"8a3b00ec-c369-42c0-8367-affcc5194985","system_id":"levelo_inurba_marseille","lat":43.302992,"lon":5.392136,"is_reserved":false,"is_disabled":false,"rental_uris":{"android":"levelo://app?vid=8a3b00ec-c369-42c0-8367-affcc5194985","ios":"levelo://app?vid=8a3b00ec-c369-42c0-8367-affcc5194985"},"vehicle_type_id":"4","last_reported":1707289594,"current_range_meters":4800,"station_id":"ce4bgkh2rcd13ifvqbk0","pricing_plan_id":"free"},{"bike_id":"5b08f849-ad6d-481e-8168-8f7391220200","system_id":"levelo_inurba_marseille","lat":43.2936,"lon":5.37835,"is_reserved":false,"is_disabled":false,"rental_uris":{"android":"levelo://app?vid=5b08f849-ad6d-481e-8168-8f7391220200","ios":"levelo://app?vid=5b08f849-ad6d-481e-8168-8f7391220200"},"vehicle_type_id":"4","last_reported":1707289594,"current_range_meters":10800,"station_id":"ce4bgjh2rcd13ifvqbf0","pricing_plan_id":"free"},{"bike_id":"4aaa2a19-5636-4d91-b4ca-22e034135509","system_id":"levelo_inurba_marseille","lat":43.292196,"lon":5.360501,"is_reserved":false,"is_disabled":false,"rental_uris":{"android":"levelo://app?vid=4aaa2a19-5636-4d91-b4ca-22e034135509","ios":"levelo://app?vid=4aaa2a19-5636-4d91-b4ca-22e034135509"},"vehicle_type_id":"4","last_reported":1707289594,"current_range_meters":24800,"station_id":"ce4bhbh2rcd13ifvqeqg","pricing_plan_id":"free"},{"bike_id":"7ee8959b-25d4-4306-bd83-a311f298170f","system_id":"levelo_inurba_marseille","lat":43.32271,"lon":5.39245,"is_reserved":false,"is_disabled":false,"rental_uris":{"android":"levelo://app?vid=7ee8959b-25d4-4306-bd83-a311f298170f","ios":"levelo://app?vid=7ee8959b-25d4-4306-bd83-a311f298170f"},"vehicle_type_id":"4","last_reported":1707289594,"current_range_meters":4400,"station_id":"","pricing_plan_id":"free"},{"bike_id":"434cdfb3-80b6-45df-9407-eedaf786974c","system_id":"levelo_inurba_marseille","lat":43.298764,"lon":5.388973,"is_reserved":false,"is_disabled":false,"rental_uris":{"android":"levelo://app?vid=434cdfb3-80b6-45df-9407-eedaf786974c","ios":"levelo://app?vid=434cdfb3-80b6-45df-9407-eedaf786974c"},"vehicle_type_id":"4","last_reported":1707289594,"current_range_meters":22000,"station_id":"ce4bh392rcd13ifvqdl0","pricing_plan_id":"free"},{"bike_id":"3847bc35-f142-4006-9643-e0d08c021d84","system_id":"levelo_inurba_marseille","lat":43.298764,"lon":5.388973,"is_reserved":false,"is_disabled":false,"rental_uris":{"android":"levelo://app?vid=3847bc35-f142-4006-9643-e0d08c021d84","ios":"levelo://app?vid=3847bc35-f142-4006-9643-e0d08c021d84"},"vehicle_type_id":"4","last_reported":1707289594,"current_range_meters":15600,"station_id":"ce4bh392rcd13ifvqdl0","pricing_plan_id":"free"},{"bike_id":"746c8eed-e264-476d-816a-6d7b20547925","system_id":"levelo_inurba_marseille","lat":43.298764,"lon":5.388973,"is_reserved":false,"is_disabled":false,"rental_uris":{"android":"levelo://app?vid=746c8eed-e264-476d-816a-6d7b20547925","ios":"levelo://app?vid=746c8eed-e264-476d-816a-6d7b20547925"},"vehicle_type_id":"4","last_reported":1707289594,"current_range_meters":21200,"station_id":"ce4bh392rcd13ifvqdl0","pricing_plan_id":"free"},{"bike_id":"4b9c3788-97d7-4b6c-8457-21aa016e72f5","system_id":"levelo_inurba_marseille","lat":43.308852,"lon":5.396282,"is_reserved":false,"is_disabled":false,"rental_uris":{"android":"levelo://app?vid=4b9c3788-97d7-4b6c-8457-21aa016e72f5","ios":"levelo://app?vid=4b9c3788-97d7-4b6c-8457-21aa016e72f5"},"vehicle_type_id":"4","last_reported":1707289594,"current_range_meters":13600,"station_id":"ce4bh012rcd13ifvqcv0","pricing_plan_id":"free"},{"bike_id":"91b69dc2-bbb3-4223-8ebc-6db2b0f37085","system_id":"levelo_inurba_marseille","lat":43.305994,"lon":5.393687,"is_reserved":false,"is_disabled":false,"rental_uris":{"android":"levelo://app?vid=91b69dc2-bbb3-4223-8ebc-6db2b0f37085","ios":"levelo://app?vid=91b69dc2-bbb3-4223-8ebc-6db2b0f37085"},"vehicle_type_id":"4","last_reported":1707289594,"current_range_meters":16000,"station_id":"ce4bh0p2rcd13ifvqd80","pricing_plan_id":"free"},{"bike_id":"37861716-6d5c-4ec8-be0a-fdf775ed8bb1","system_id":"levelo_inurba_marseille","lat":43.313291,"lon":5.396838,"is_reserved":false,"is_disabled":false,"rental_uris":{"android":"levelo://app?vid=37861716-6d5c-4ec8-be0a-fdf775ed8bb1","ios":"levelo://app?vid=37861716-6d5c-4ec8-be0a-fdf775ed8bb1"},"vehicle_type_id":"4","last_reported":1707289594,"current_range_meters":31200,"station_id":"ce4bgvp2rcd13ifvqcu0","pricing_plan_id":"free"},{"bike_id":"a6509c96-19a6-4859-af4b-1a5ab9e55e3d","system_id":"levelo_inurba_marseille","lat":43.313291,"lon":5.396838,"is_reserved":false,"is_disabled":false,"rental_uris":{"android":"levelo://app?vid=a6509c96-19a6-4859-af4b-1a5ab9e55e3d","ios":"levelo://app?vid=a6509c96-19a6-4859-af4b-1a5ab9e55e3d"},"vehicle_type_id":"4","last_reported":1707289594,"current_range_meters":30400,"station_id":"ce4bgvp2rcd13ifvqcu0","pricing_plan_id":"free"},{"bike_id":"9d19a7ae-12a1-49d4-b937-d34a13d5d50d","system_id":"levelo_inurba_marseille","lat":43.291994,"lon":5.357886,"is_reserved":false,"is_disabled":false,"rental_uris":{"android":"levelo://app?vid=9d19a7ae-12a1-49d4-b937-d34a13d5d50d","ios":"levelo://app?vid=9d19a7ae-12a1-49d4-b937-d34a13d5d50d"},"vehicle_type_id":"4","last_reported":1707289594,"current_range_meters":16800,"station_id":"ce4bhb12rcd13ifvqel0","pricing_plan_id":"free"},{"bike_id":"d35e5a1f-caa2-40a6-acc0-a0667c5b74de","system_id":"levelo_inurba_marseille","lat":43.313291,"lon":5.396838,"is_reserved":false,"is_disabled":false,"rental_uris":{"android":"levelo://app?vid=d35e5a1f-caa2-40a6-acc0-a0667c5b74de","ios":"levelo://app?vid=d35e5a1f-caa2-40a6-acc0-a0667c5b74de"},"vehicle_type_id":"4","last_reported":1707289594,"current_range_meters":25200,"station_id":"ce4bgvp2rcd13ifvqcu0","pricing_plan_id":"free"},{"bike_id":"c0f3e4d9-3ac1-48a0-8f12-6fe148c7f075","system_id":"levelo_inurba_marseille","lat":43.31329,"lon":5.39691,"is_reserved":false,"is_disabled":false,"rental_uris":{"android":"levelo://app?vid=c0f3e4d9-3ac1-48a0-8f12-6fe148c7f075","ios":"levelo://app?vid=c0f3e4d9-3ac1-48a0-8f12-6fe148c7f075"},"vehicle_type_id":"4","last_reported":1707289594,"current_range_meters":18000,"station_id":"ce4bgvp2rcd13ifvqcu0","pricing_plan_id":"free"},{"bike_id":"5595d1f6-720f-4471-9e3d-e0255729bbee","system_id":"levelo_inurba_marseille","lat":43.313291,"lon":5.396838,"is_reserved":false,"is_disabled":false,"rental_uris":{"android":"levelo://app?vid=5595d1f6-720f-4471-9e3d-e0255729bbee","ios":"levelo://app?vid=5595d1f6-720f-4471-9e3d-e0255729bbee"},"vehicle_type_id":"4","last_reported":1707289594,"current_range_meters":29200,"station_id":"ce4bgvp2rcd13ifvqcu0","pricing_plan_id":"free"},{"bike_id":"2b593266-fa57-48e1-abe3-84e731e5edd5","system_id":"levelo_inurba_marseille","lat":43.31329,"lon":5.39696,"is_reserved":false,"is_disabled":false,"rental_uris":{"android":"levelo://app?vid=2b593266-fa57-48e1-abe3-84e731e5edd5","ios":"levelo://app?vid=2b593266-fa57-48e1-abe3-84e731e5edd5"},"vehicle_type_id":"4","last_reported":1707289594,"current_range_meters":24400,"station_id":"ce4bgvp2rcd13ifvqcu0","pricing_plan_id":"free"},{"bike_id":"0c7b6894-87eb-443c-9da3-dc9be332ca2d","system_id":"levelo_inurba_marseille","lat":43.313291,"lon":5.396838,"is_reserved":false,"is_disabled":false,"rental_uris":{"android":"levelo://app?vid=0c7b6894-87eb-443c-9da3-dc9be332ca2d","ios":"levelo://app?vid=0c7b6894-87eb-443c-9da3-dc9be332ca2d"},"vehicle_type_id":"4","last_reported":1707289594,"current_range_meters":31200,"station_id":"ce4bgvp2rcd13ifvqcu0","pricing_plan_id":"free"},{"bike_id":"6ff4414e-1536-41bd-926d-71c79dfc563e","system_id":"levelo_inurba_marseille","lat":43.31321,"lon":5.397,"is_reserved":false,"is_disabled":false,"rental_uris":{"android":"levelo://app?vid=6ff4414e-1536-41bd-926d-71c79dfc563e","ios":"levelo://app?vid=6ff4414e-1536-41bd-926d-71c79dfc563e"},"vehicle_type_id":"4","last_reported":1707289594,"current_range_meters":29600,"station_id":"ce4bgvp2rcd13ifvqcu0","pricing_plan_id":"free"},{"bike_id":"dd4e51ae-0ea8-45d6-be65-e15a1cfd609e","system_id":"levelo_inurba_marseille","lat":43.29529,"lon":5.385581,"is_reserved":false,"is_disabled":false,"rental_uris":{"android":"levelo://app?vid=dd4e51ae-0ea8-45d6-be65-e15a1cfd609e","ios":"levelo://app?vid=dd4e51ae-0ea8-45d6-be65-e15a1cfd609e"},"vehicle_type_id":"4","last_reported":1707289594,"current_range_meters":28000,"station_id":"ce4bgih2rcd13ifvqba0","pricing_plan_id":"free"},{"bike_id":"5b15b6e2-fd47-44a3-bd71-9c0ed274f0e1","system_id":"levelo_inurba_marseille","lat":43.29527,"lon":5.38541,"is_reserved":false,"is_disabled":false,"rental_uris":{"android":"levelo://app?vid=5b15b6e2-fd47-44a3-bd71-9c0ed274f0e1","ios":"levelo://app?vid=5b15b6e2-fd47-44a3-bd71-9c0ed274f0e1"},"vehicle_type_id":"4","last_reported":1707289594,"current_range_meters":19600,"station_id":"ce4bgih2rcd13ifvqba0","pricing_plan_id":"free"},{"bike_id":"b215159a-8dea-4c97-9bfd-5b6b4932e6f0","system_id":"levelo_inurba_marseille","lat":43.30204,"lon":5.39459,"is_reserved":false,"is_disabled":false,"rental_uris":{"android":"levelo://app?vid=b215159a-8dea-4c97-9bfd-5b6b4932e6f0","ios":"levelo://app?vid=b215159a-8dea-4c97-9bfd-5b6b4932e6f0"},"vehicle_type_id":"4","last_reported":1707289594,"current_range_meters":1200,"station_id":"ce4bh0p2rcd13ifvqd70","pricing_plan_id":"free"},{"bike_id":"7ad4826d-9117-40b3-bb67-2f7e620eb166","system_id":"levelo_inurba_marseille","lat":43.302008,"lon":5.394694,"is_reserved":false,"is_disabled":false,"rental_uris":{"android":"levelo://app?vid=7ad4826d-9117-40b3-bb67-2f7e620eb166","ios":"levelo://app?vid=7ad4826d-9117-40b3-bb67-2f7e620eb166"},"vehicle_type_id":"4","last_reported":1707289594,"current_range_meters":19200,"station_id":"ce4bh0p2rcd13ifvqd70","pricing_plan_id":"free"},{"bike_id":"c07e4c0b-9a99-47f1-af10-75d1fccc23c3","system_id":"levelo_inurba_marseille","lat":43.302008,"lon":5.394694,"is_reserved":false,"is_disabled":false,"rental_uris":{"android":"levelo://app?vid=c07e4c0b-9a99-47f1-af10-75d1fccc23c3","ios":"levelo://app?vid=c07e4c0b-9a99-47f1-af10-75d1fccc23c3"},"vehicle_type_id":"4","last_reported":1707289594,"current_range_meters":6400,"station_id":"ce4bh0p2rcd13ifvqd70","pricing_plan_id":"free"},{"bike_id":"bb3a79bc-b08e-4830-9fbd-63679faa9f2a","system_id":"levelo_inurba_marseille","lat":43.302008,"lon":5.394694,"is_reserved":false,"is_disabled":false,"rental_uris":{"android":"levelo://app?vid=bb3a79bc-b08e-4830-9fbd-63679faa9f2a","ios":"levelo://app?vid=bb3a79bc-b08e-4830-9fbd-63679faa9f2a"},"vehicle_type_id":"4","last_reported":1707289594,"current_range_meters":4000,"station_id":"ce4bh0p2rcd13ifvqd70","pricing_plan_id":"free"},{"bike_id":"21ef83fe-d8b1-4868-9515-ce4b20211f8e","system_id":"levelo_inurba_marseille","lat":43.302008,"lon":5.394694,"is_reserved":false,"is_disabled":false,"rental_uris":{"android":"levelo://app?vid=21ef83fe-d8b1-4868-9515-ce4b20211f8e","ios":"levelo://app?vid=21ef83fe-d8b1-4868-9515-ce4b20211f8e"},"vehicle_type_id":"4","last_reported":1707289594,"current_range_meters":20800,"station_id":"ce4bh0p2rcd13ifvqd70","pricing_plan_id":"free"},{"bike_id":"605410ab-6f09-44e0-a6ff-2a56c9056456","system_id":"levelo_inurba_marseille","lat":43.302008,"lon":5.394694,"is_reserved":false,"is_disabled":false,"rental_uris":{"android":"levelo://app?vid=605410ab-6f09-44e0-a6ff-2a56c9056456","ios":"levelo://app?vid=605410ab-6f09-44e0-a6ff-2a56c9056456"},"vehicle_type_id":"4","last_reported":1707289594,"current_range_meters":0,"station_id":"ce4bh0p2rcd13ifvqd70","pricing_plan_id":"free"},{"bike_id":"54835d88-4e63-4512-bb4d-5345b4bc7cc1","system_id":"levelo_inurba_marseille","lat":43.302008,"lon":5.394694,"is_reserved":false,"is_disabled":false,"rental_uris":{"android":"levelo://app?vid=54835d88-4e63-4512-bb4d-5345b4bc7cc1","ios":"levelo://app?vid=54835d88-4e63-4512-bb4d-5345b4bc7cc1"},"vehicle_type_id":"4","last_reported":1707289594,"current_range_meters":21200,"station_id":"ce4bh0p2rcd13ifvqd70","pricing_plan_id":"free"},{"bike_id":"5df12e7f-0e4e-416f-8a8a-457d67375289","system_id":"levelo_inurba_marseille","lat":43.29073,"lon":5.3754,"is_reserved":false,"is_disabled":false,"rental_uris":{"android":"levelo://app?vid=5df12e7f-0e4e-416f-8a8a-457d67375289","ios":"levelo://app?vid=5df12e7f-0e4e-416f-8a8a-457d67375289"},"vehicle_type_id":"4","last_reported":1707289594,"current_range_meters":19600,"station_id":"","pricing_plan_id":"free"},{"bike_id":"dfd4303d-4a75-4878-9199-05ee35cec87e","system_id":"levelo_inurba_marseille","lat":43.289184,"lon":5.366408,"is_reserved":false,"is_disabled":false,"rental_uris":{"android":"levelo://app?vid=dfd4303d-4a75-4878-9199-05ee35cec87e","ios":"levelo://app?vid=dfd4303d-4a75-4878-9199-05ee35cec87e"},"vehicle_type_id":"4","last_reported":1707289594,"current_range_meters":12000,"station_id":"ce4bhap2rcd13ifvqek0","pricing_plan_id":"free"},{"bike_id":"45e75ccb-5157-4401-ab51-7c2391597f0c","system_id":"levelo_inurba_marseille","lat":43.289468,"lon":5.363719,"is_reserved":false,"is_disabled":false,"rental_uris":{"android":"levelo://app?vid=45e75ccb-5157-4401-ab51-7c2391597f0c","ios":"levelo://app?vid=45e75ccb-5157-4401-ab51-7c2391597f0c"},"vehicle_type_id":"4","last_reported":1707289594,"current_range_meters":22000,"station_id":"ce4bhc92rcd13ifvqetg","pricing_plan_id":"free"},{"bike_id":"cdddf817-3a7a-4519-9e08-14e6a660def7","system_id":"levelo_inurba_marseille","lat":43.289184,"lon":5.366408,"is_reserved":false,"is_disabled":false,"rental_uris":{"android":"levelo://app?vid=cdddf817-3a7a-4519-9e08-14e6a660def7","ios":"levelo://app?vid=cdddf817-3a7a-4519-9e08-14e6a660def7"},"vehicle_type_id":"4","last_reported":1707289594,"current_range_meters":19600,"station_id":"ce4bhap2rcd13ifvqek0","pricing_plan_id":"free"},{"bike_id":"a64df828-4635-4065-9244-8ab575bacf00","system_id":"levelo_inurba_marseille","lat":43.289414,"lon":5.363931,"is_reserved":false,"is_disabled":false,"rental_uris":{"android":"levelo://app?vid=a64df828-4635-4065-9244-8ab575bacf00","ios":"levelo://app?vid=a64df828-4635-4065-9244-8ab575bacf00"},"vehicle_type_id":"4","last_reported":1707289594,"current_range_meters":18400,"station_id":"ce4bhc92rcd13ifvqetg","pricing_plan_id":"free"},{"bike_id":"664bd840-2464-467a-952a-872b346c6767","system_id":"levelo_inurba_marseille","lat":43.289468,"lon":5.363719,"is_reserved":false,"is_disabled":false,"rental_uris":{"android":"levelo://app?vid=664bd840-2464-467a-952a-872b346c6767","ios":"levelo://app?vid=664bd840-2464-467a-952a-872b346c6767"},"vehicle_type_id":"4","last_reported":1707289594,"current_range_meters":26800,"station_id":"ce4bhc92rcd13ifvqetg","pricing_plan_id":"free"},{"bike_id":"a378bd6a-c751-496f-8f99-9ac19812923f","system_id":"levelo_inurba_marseille","lat":43.289184,"lon":5.366408,"is_reserved":false,"is_disabled":false,"rental_uris":{"android":"levelo://app?vid=a378bd6a-c751-496f-8f99-9ac19812923f","ios":"levelo://app?vid=a378bd6a-c751-496f-8f99-9ac19812923f"},"vehicle_type_id":"4","last_reported":1707289594,"current_range_meters":2000,"station_id":"ce4bhap2rcd13ifvqek0","pricing_plan_id":"free"},{"bike_id":"63a927a1-ddfa-4193-8ff4-a8d4900208d2","system_id":"levelo_inurba_marseille","lat":43.289468,"lon":5.363719,"is_reserved":false,"is_disabled":false,"rental_uris":{"android":"levelo://app?vid=63a927a1-ddfa-4193-8ff4-a8d4900208d2","ios":"levelo://app?vid=63a927a1-ddfa-4193-8ff4-a8d4900208d2"},"vehicle_type_id":"4","last_reported":1707289594,"current_range_meters":16400,"station_id":"ce4bhc92rcd13ifvqetg","pricing_plan_id":"free"},{"bike_id":"91c9cf7c-7ce9-4579-8dfb-c9938702c617","system_id":"levelo_inurba_marseille","lat":43.289468,"lon":5.363719,"is_reserved":false,"is_disabled":false,"rental_uris":{"android":"levelo://app?vid=91c9cf7c-7ce9-4579-8dfb-c9938702c617","ios":"levelo://app?vid=91c9cf7c-7ce9-4579-8dfb-c9938702c617"},"vehicle_type_id":"4","last_reported":1707289594,"current_range_meters":6000,"station_id":"ce4bhc92rcd13ifvqetg","pricing_plan_id":"free"},{"bike_id":"151d4aa2-4d00-47fb-bfe2-6d86815ea7c0","system_id":"levelo_inurba_marseille","lat":43.292644,"lon":5.384257,"is_reserved":false,"is_disabled":false,"rental_uris":{"android":"levelo://app?vid=151d4aa2-4d00-47fb-bfe2-6d86815ea7c0","ios":"levelo://app?vid=151d4aa2-4d00-47fb-bfe2-6d86815ea7c0"},"vehicle_type_id":"4","last_reported":1707289594,"current_range_meters":14800,"station_id":"ce4bh692rcd13ifvqea0","pricing_plan_id":"free"},{"bike_id":"8590e79b-d01f-4fe8-9273-5d0a7f952e28","system_id":"levelo_inurba_marseille","lat":43.302759,"lon":5.400793,"is_reserved":false,"is_disabled":false,"rental_uris":{"android":"levelo://app?vid=8590e79b-d01f-4fe8-9273-5d0a7f952e28","ios":"levelo://app?vid=8590e79b-d01f-4fe8-9273-5d0a7f952e28"},"vehicle_type_id":"4","last_reported":1707289594,"current_range_meters":0,"station_id":"ce4bgvh2rcd13ifvqcs0","pricing_plan_id":"free"},{"bike_id":"e2b992f2-aacb-4395-803c-1a75ae8daff3","system_id":"levelo_inurba_marseille","lat":43.292644,"lon":5.384257,"is_reserved":false,"is_disabled":false,"rental_uris":{"android":"levelo://app?vid=e2b992f2-aacb-4395-803c-1a75ae8daff3","ios":"levelo://app?vid=e2b992f2-aacb-4395-803c-1a75ae8daff3"},"vehicle_type_id":"4","last_reported":1707289594,"current_range_meters":16400,"station_id":"ce4bh692rcd13ifvqea0","pricing_plan_id":"free"},{"bike_id":"955e0d8b-3026-45b9-b77c-08ebe8fb1770","system_id":"levelo_inurba_marseille","lat":43.292642,"lon":5.384254,"is_reserved":false,"is_disabled":false,"rental_uris":{"android":"levelo://app?vid=955e0d8b-3026-45b9-b77c-08ebe8fb1770","ios":"levelo://app?vid=955e0d8b-3026-45b9-b77c-08ebe8fb1770"},"vehicle_type_id":"4","last_reported":1707289594,"current_range_meters":5600,"station_id":"ce4bh692rcd13ifvqea0","pricing_plan_id":"free"},{"bike_id":"b19edd4e-c4d7-404a-962f-7e55bab06181","system_id":"levelo_inurba_marseille","lat":43.290103,"lon":5.356114,"is_reserved":false,"is_disabled":false,"rental_uris":{"android":"levelo://app?vid=b19edd4e-c4d7-404a-962f-7e55bab06181","ios":"levelo://app?vid=b19edd4e-c4d7-404a-962f-7e55bab06181"},"vehicle_type_id":"4","last_reported":1707289594,"current_range_meters":31600,"station_id":"ce4bhb92rcd13ifvqen0","pricing_plan_id":"free"},{"bike_id":"0a5b5de9-a118-459e-a39b-9ec121008213","system_id":"levelo_inurba_marseille","lat":43.290103,"lon":5.356114,"is_reserved":false,"is_disabled":false,"rental_uris":{"android":"levelo://app?vid=0a5b5de9-a118-459e-a39b-9ec121008213","ios":"levelo://app?vid=0a5b5de9-a118-459e-a39b-9ec121008213"},"vehicle_type_id":"4","last_reported":1707289594,"current_range_meters":29200,"station_id":"ce4bhb92rcd13ifvqen0","pricing_plan_id":"free"},{"bike_id":"cfc0251a-cfda-4276-8430-919a93bb7917","system_id":"levelo_inurba_marseille","lat":43.290104,"lon":5.356111,"is_reserved":false,"is_disabled":false,"rental_uris":{"android":"levelo://app?vid=cfc0251a-cfda-4276-8430-919a93bb7917","ios":"levelo://app?vid=cfc0251a-cfda-4276-8430-919a93bb7917"},"vehicle_type_id":"4","last_reported":1707289594,"current_range_meters":26400,"station_id":"ce4bhb92rcd13ifvqen0","pricing_plan_id":"free"},{"bike_id":"06eff9e9-2bca-42db-ada3-dbd7835d6ef6","system_id":"levelo_inurba_marseille","lat":43.290103,"lon":5.356114,"is_reserved":false,"is_disabled":false,"rental_uris":{"android":"levelo://app?vid=06eff9e9-2bca-42db-ada3-dbd7835d6ef6","ios":"levelo://app?vid=06eff9e9-2bca-42db-ada3-dbd7835d6ef6"},"vehicle_type_id":"4","last_reported":1707289594,"current_range_meters":23200,"station_id":"ce4bhb92rcd13ifvqen0","pricing_plan_id":"free"},{"bike_id":"80c4867a-42ce-4ea9-ae33-29bddb538f25","system_id":"levelo_inurba_marseille","lat":43.283998,"lon":5.375062,"is_reserved":false,"is_disabled":false,"rental_uris":{"android":"levelo://app?vid=80c4867a-42ce-4ea9-ae33-29bddb538f25","ios":"levelo://app?vid=80c4867a-42ce-4ea9-ae33-29bddb538f25"},"vehicle_type_id":"4","last_reported":1707289594,"current_range_meters":9200,"station_id":"ce4bh412rcd13ifvqds0","pricing_plan_id":"free"},{"bike_id":"eb5f0ed5-5ee4-42db-b289-7581f751da9b","system_id":"levelo_inurba_marseille","lat":43.289741,"lon":5.378306,"is_reserved":false,"is_disabled":false,"rental_uris":{"android":"levelo://app?vid=eb5f0ed5-5ee4-42db-b289-7581f751da9b","ios":"levelo://app?vid=eb5f0ed5-5ee4-42db-b289-7581f751da9b"},"vehicle_type_id":"4","last_reported":1707289594,"current_range_meters":3600,"station_id":"ce4bh9p2rcd13ifvqed0","pricing_plan_id":"free"},{"bike_id":"3f7bfea6-8d52-4eda-a0b9-8d029c1d6a19","system_id":"levelo_inurba_marseille","lat":43.289743,"lon":5.378304,"is_reserved":false,"is_disabled":false,"rental_uris":{"android":"levelo://app?vid=3f7bfea6-8d52-4eda-a0b9-8d029c1d6a19","ios":"levelo://app?vid=3f7bfea6-8d52-4eda-a0b9-8d029c1d6a19"},"vehicle_type_id":"4","last_reported":1707289594,"current_range_meters":24000,"station_id":"ce4bh9p2rcd13ifvqed0","pricing_plan_id":"free"},{"bike_id":"e3cdd8db-1a8c-42b0-8a1d-74e27724a81e","system_id":"levelo_inurba_marseille","lat":43.330214,"lon":5.390383,"is_reserved":false,"is_disabled":false,"rental_uris":{"android":"levelo://app?vid=e3cdd8db-1a8c-42b0-8a1d-74e27724a81e","ios":"levelo://app?vid=e3cdd8db-1a8c-42b0-8a1d-74e27724a81e"},"vehicle_type_id":"4","last_reported":1707289594,"current_range_meters":27200,"station_id":"ce4bhr92rcd13ifvqhrg","pricing_plan_id":"free"},{"bike_id":"8ca3da1e-5def-4150-85c1-93059ad4ca52","system_id":"levelo_inurba_marseille","lat":43.33019,"lon":5.39042,"is_reserved":false,"is_disabled":false,"rental_uris":{"android":"levelo://app?vid=8ca3da1e-5def-4150-85c1-93059ad4ca52","ios":"levelo://app?vid=8ca3da1e-5def-4150-85c1-93059ad4ca52"},"vehicle_type_id":"4","last_reported":1707289594,"current_range_meters":27600,"station_id":"ce4bhr92rcd13ifvqhrg","pricing_plan_id":"free"},{"bike_id":"e25e145e-090e-4f10-a187-27c88c3cf8bb","system_id":"levelo_inurba_marseille","lat":43.29783,"lon":5.39352,"is_reserved":false,"is_disabled":false,"rental_uris":{"android":"levelo://app?vid=e25e145e-090e-4f10-a187-27c88c3cf8bb","ios":"levelo://app?vid=e25e145e-090e-4f10-a187-27c88c3cf8bb"},"vehicle_type_id":"4","last_reported":1707289594,"current_range_meters":0,"station_id":"chh1huq6cuj3fo74tm60","pricing_plan_id":"free"},{"bike_id":"9f74ab4e-9d60-4afa-867a-49240bd6e097","system_id":"levelo_inurba_marseille","lat":43.330175,"lon":5.39045,"is_reserved":false,"is_disabled":false,"rental_uris":{"android":"levelo://app?vid=9f74ab4e-9d60-4afa-867a-49240bd6e097","ios":"levelo://app?vid=9f74ab4e-9d60-4afa-867a-49240bd6e097"},"vehicle_type_id":"4","last_reported":1707289594,"current_range_meters":16000,"station_id":"ce4bhr92rcd13ifvqhrg","pricing_plan_id":"free"},{"bike_id":"6fe6979c-ae92-4072-9e45-067cfe0f274d","system_id":"levelo_inurba_marseille","lat":43.289743,"lon":5.378304,"is_reserved":false,"is_disabled":false,"rental_uris":{"android":"levelo://app?vid=6fe6979c-ae92-4072-9e45-067cfe0f274d","ios":"levelo://app?vid=6fe6979c-ae92-4072-9e45-067cfe0f274d"},"vehicle_type_id":"4","last_reported":1707289594,"current_range_meters":6400,"station_id":"ce4bh9p2rcd13ifvqed0","pricing_plan_id":"free"},{"bike_id":"52fa28aa-5f26-4798-afb1-a68498837b38","system_id":"levelo_inurba_marseille","lat":43.289743,"lon":5.378304,"is_reserved":false,"is_disabled":false,"rental_uris":{"android":"levelo://app?vid=52fa28aa-5f26-4798-afb1-a68498837b38","ios":"levelo://app?vid=52fa28aa-5f26-4798-afb1-a68498837b38"},"vehicle_type_id":"4","last_reported":1707289594,"current_range_meters":22000,"station_id":"ce4bh9p2rcd13ifvqed0","pricing_plan_id":"free"},{"bike_id":"191e5a48-25eb-42b2-aa0f-b63755aec4fc","system_id":"levelo_inurba_marseille","lat":43.33019,"lon":5.39044,"is_reserved":false,"is_disabled":false,"rental_uris":{"android":"levelo://app?vid=191e5a48-25eb-42b2-aa0f-b63755aec4fc","ios":"levelo://app?vid=191e5a48-25eb-42b2-aa0f-b63755aec4fc"},"vehicle_type_id":"4","last_reported":1707289594,"current_range_meters":13600,"station_id":"ce4bhr92rcd13ifvqhrg","pricing_plan_id":"free"},{"bike_id":"397db575-5859-4e88-b680-c446f72b852d","system_id":"levelo_inurba_marseille","lat":43.330442,"lon":5.389148,"is_reserved":false,"is_disabled":false,"rental_uris":{"android":"levelo://app?vid=397db575-5859-4e88-b680-c446f72b852d","ios":"levelo://app?vid=397db575-5859-4e88-b680-c446f72b852d"},"vehicle_type_id":"4","last_reported":1707289594,"current_range_meters":1200,"station_id":"ce4bhr92rcd13ifvqhrg","pricing_plan_id":"free"},{"bike_id":"62ca35d7-f049-4885-9fd9-beb6af1eb797","system_id":"levelo_inurba_marseille","lat":43.330246,"lon":5.390367,"is_reserved":false,"is_disabled":false,"rental_uris":{"android":"levelo://app?vid=62ca35d7-f049-4885-9fd9-beb6af1eb797","ios":"levelo://app?vid=62ca35d7-f049-4885-9fd9-beb6af1eb797"},"vehicle_type_id":"4","last_reported":1707289594,"current_range_meters":10000,"station_id":"ce4bhr92rcd13ifvqhrg","pricing_plan_id":"free"},{"bike_id":"2f7c7f0f-96bd-443b-be60-7c1e594eb29b","system_id":"levelo_inurba_marseille","lat":43.297815,"lon":5.393548,"is_reserved":false,"is_disabled":false,"rental_uris":{"android":"levelo://app?vid=2f7c7f0f-96bd-443b-be60-7c1e594eb29b","ios":"levelo://app?vid=2f7c7f0f-96bd-443b-be60-7c1e594eb29b"},"vehicle_type_id":"4","last_reported":1707289594,"current_range_meters":10000,"station_id":"chh1huq6cuj3fo74tm60","pricing_plan_id":"free"},{"bike_id":"ba7895df-fdf0-43d4-b40a-e7e64d29137d","system_id":"levelo_inurba_marseille","lat":43.330442,"lon":5.389148,"is_reserved":false,"is_disabled":false,"rental_uris":{"android":"levelo://app?vid=ba7895df-fdf0-43d4-b40a-e7e64d29137d","ios":"levelo://app?vid=ba7895df-fdf0-43d4-b40a-e7e64d29137d"},"vehicle_type_id":"4","last_reported":1707289594,"current_range_meters":21600,"station_id":"ce4bhr92rcd13ifvqhrg","pricing_plan_id":"free"},{"bike_id":"9be19af2-00eb-4adf-afc6-6b25dc013c2f","system_id":"levelo_inurba_marseille","lat":43.330222,"lon":5.390428,"is_reserved":false,"is_disabled":false,"rental_uris":{"android":"levelo://app?vid=9be19af2-00eb-4adf-afc6-6b25dc013c2f","ios":"levelo://app?vid=9be19af2-00eb-4adf-afc6-6b25dc013c2f"},"vehicle_type_id":"4","last_reported":1707289594,"current_range_meters":2000,"station_id":"ce4bhr92rcd13ifvqhrg","pricing_plan_id":"free"},{"bike_id":"4517b6d6-a0c0-4b42-a1a6-d355de911d8f","system_id":"levelo_inurba_marseille","lat":43.289743,"lon":5.378304,"is_reserved":false,"is_disabled":false,"rental_uris":{"android":"levelo://app?vid=4517b6d6-a0c0-4b42-a1a6-d355de911d8f","ios":"levelo://app?vid=4517b6d6-a0c0-4b42-a1a6-d355de911d8f"},"vehicle_type_id":"4","last_reported":1707289594,"current_range_meters":30400,"station_id":"ce4bh9p2rcd13ifvqed0","pricing_plan_id":"free"},{"bike_id":"0875b510-22af-4806-b372-e1327f15c790","system_id":"levelo_inurba_marseille","lat":43.289741,"lon":5.378306,"is_reserved":false,"is_disabled":false,"rental_uris":{"android":"levelo://app?vid=0875b510-22af-4806-b372-e1327f15c790","ios":"levelo://app?vid=0875b510-22af-4806-b372-e1327f15c790"},"vehicle_type_id":"4","last_reported":1707289594,"current_range_meters":19600,"station_id":"ce4bh9p2rcd13ifvqed0","pricing_plan_id":"free"},{"bike_id":"18c163b6-e532-4bfb-b58a-572778cf1b8a","system_id":"levelo_inurba_marseille","lat":43.295147,"lon":5.39036,"is_reserved":false,"is_disabled":false,"rental_uris":{"android":"levelo://app?vid=18c163b6-e532-4bfb-b58a-572778cf1b8a","ios":"levelo://app?vid=18c163b6-e532-4bfb-b58a-572778cf1b8a"},"vehicle_type_id":"4","last_reported":1707289594,"current_range_meters":20800,"station_id":"ce4bh3p2rcd13ifvqdp0","pricing_plan_id":"free"},{"bike_id":"23b30265-da96-4a64-9688-b50efba754ae","system_id":"levelo_inurba_marseille","lat":43.286961,"lon":5.373785,"is_reserved":false,"is_disabled":false,"rental_uris":{"android":"levelo://app?vid=23b30265-da96-4a64-9688-b50efba754ae","ios":"levelo://app?vid=23b30265-da96-4a64-9688-b50efba754ae"},"vehicle_type_id":"4","last_reported":1707289594,"current_range_meters":14800,"station_id":"ce4bh3p2rcd13ifvqdq0","pricing_plan_id":"free"},{"bike_id":"5cf52488-0a4f-45ea-867d-bde7992eca16","system_id":"levelo_inurba_marseille","lat":43.288554,"lon":5.358572,"is_reserved":false,"is_disabled":false,"rental_uris":{"android":"levelo://app?vid=5cf52488-0a4f-45ea-867d-bde7992eca16","ios":"levelo://app?vid=5cf52488-0a4f-45ea-867d-bde7992eca16"},"vehicle_type_id":"4","last_reported":1707289594,"current_range_meters":800,"station_id":"ce4bhb12rcd13ifvqem0","pricing_plan_id":"free"},{"bike_id":"79ca3137-f699-4f5d-88a1-02c4a51117b5","system_id":"levelo_inurba_marseille","lat":43.28856,"lon":5.358371,"is_reserved":false,"is_disabled":false,"rental_uris":{"android":"levelo://app?vid=79ca3137-f699-4f5d-88a1-02c4a51117b5","ios":"levelo://app?vid=79ca3137-f699-4f5d-88a1-02c4a51117b5"},"vehicle_type_id":"4","last_reported":1707289594,"current_range_meters":15200,"station_id":"ce4bhb12rcd13ifvqem0","pricing_plan_id":"free"},{"bike_id":"5aea5c0b-6c60-4bd1-ba81-193e83f97619","system_id":"levelo_inurba_marseille","lat":43.288531,"lon":5.358545,"is_reserved":false,"is_disabled":false,"rental_uris":{"android":"levelo://app?vid=5aea5c0b-6c60-4bd1-ba81-193e83f97619","ios":"levelo://app?vid=5aea5c0b-6c60-4bd1-ba81-193e83f97619"},"vehicle_type_id":"4","last_reported":1707289594,"current_range_meters":25200,"station_id":"ce4bhb12rcd13ifvqem0","pricing_plan_id":"free"},{"bike_id":"46cccd01-deeb-42ea-bed8-44e0859906a8","system_id":"levelo_inurba_marseille","lat":43.288518,"lon":5.358542,"is_reserved":false,"is_disabled":false,"rental_uris":{"android":"levelo://app?vid=46cccd01-deeb-42ea-bed8-44e0859906a8","ios":"levelo://app?vid=46cccd01-deeb-42ea-bed8-44e0859906a8"},"vehicle_type_id":"4","last_reported":1707289594,"current_range_meters":0,"station_id":"ce4bhb12rcd13ifvqem0","pricing_plan_id":"free"},