{"last_updated":1700410062,"ttl":30,"version":"2.2","data":{"bikes":[{"bike_id":"a8968991-eed7-459f-a9c5-d70b50994edc","system_id":"levelo_inurba_marseille","lat":43.312239,"lon":5.368562,"is_reserved":false,"is_disabled":false,"rental_uris":{"android":"levelo://app?vid=a8968991-eed7-459f-a9c5-d70b50994edc","ios":"levelo://app?vid=a8968991-eed7-459f-a9c5-d70b50994edc"},"vehicle_type_id":"4","last_reported":1700410063,"current_range_meters":23200,"station_id":"ce4bgl92rcd13ifvqbq0","pricing_plan_id":"free"},{"bike_id":"3f0db877-f819-4c9d-a707-5ceb6e01e906","system_id":"levelo_inurba_marseille","lat":43.314849,"lon":5.374049,"is_reserved":false,"is_disabled":false,"rental_uris":{"android":"levelo://app?vid=3f0db877-f819-4c9d-a707-5ceb6e01e906","ios":"levelo://app?vid=3f0db877-f819-4c9d-a707-5ceb6e01e906"},"vehicle_type_id":"4","last_reported":1700410063,"current_range_meters":0,"station_id":"","pricing_plan_id":"free"},{"bike_id":"3475d204-43b6-43d9-b615-ca1d0d58200e","system_id":"levelo_inurba_marseille","lat":43.30679,"lon":5.3679,"is_reserved":false,"is_disabled":false,"rental_uris":{"android":"levelo://app?vid=3475d204-43b6-43d9-b615-ca1d0d58200e","ios":"levelo://app?vid=3475d204-43b6-43d9-b615-ca1d0d58200e"},"vehicle_type_id":"4","last_reported":1700410063,"current_range_meters":10400,"station_id":"","pricing_plan_id":"free"},{"bike_id":"09ccbac6-0f01-4cfb-8bb8-da5484277d5c","system_id":"levelo_inurba_marseille","lat":43.31955,"lon":5.37108,"is_reserved":false,"is_disabled":false,"rental_uris":{"android":"levelo://app?vid=09ccbac6-0f01-4cfb-8bb8-da5484277d5c","ios":"levelo://app?vid=09ccbac6-0f01-4cfb-8bb8-da5484277d5c"},"vehicle_type_id":"4","last_reported":1700410063,"current_range_meters":0,"station_id":"","pricing_plan_id":"free"},{"bike_id":"12776f7b-ea80-4b89-80db-3564c1efafa1","system_id":"levelo_inurba_marseille","lat":43.30601,"lon":5.37228,"is_reserved":false,"is_disabled":false,"rental_uris":{"android":"levelo://app?vid=12776f7b-ea80-4b89-80db-3564c1efafa1","ios":"levelo://app?vid=12776f7b-ea80-4b89-80db-3564c1efafa1"},"vehicle_type_id":"4","last_reported":1700410063,"current_range_meters":800,"station_id":"ce4bgqh2rcd13ifvqc4g","pricing_plan_id":"free"},{"bike_id":"ac051533-dd73-4293-a1ef-f8de1262df19","system_id":"levelo_inurba_marseille","lat":43.305989,"lon":5.37225,"is_reserved":false,"is_disabled":false,"rental_uris":{"android":"levelo://app?vid=ac051533-dd73-4293-a1ef-f8de1262df19","ios":"levelo://app?vid=ac051533-dd73-4293-a1ef-f8de1262df19"},"vehicle_type_id":"4","last_reported":1700410063,"current_range_meters":13200,"station_id":"ce4bgqh2rcd13ifvqc4g","pricing_plan_id":"free"},{"bike_id":"dcbf9c93-0758-41cf-8699-4ede01d69428","system_id":"levelo_inurba_marseille","lat":43.308198,"lon":5.376561,"is_reserved":false,"is_disabled":false,"rental_uris":{"android":"levelo://app?vid=dcbf9c93-0758-41cf-8699-4ede01d69428","ios":"levelo://app?vid=dcbf9c93-0758-41cf-8699-4ede01d69428"},"vehicle_type_id":"4","last_reported":1700410063,"current_range_meters":10800,"station_id":"ce4bgv92rcd13ifvqcq0","pricing_plan_id":"free"},{"bike_id":"8b3677d2-ba45-46d5-8680-59b39c3c55a8","system_id":"levelo_inurba_marseille","lat":43.31032,"lon":5.3792,"is_reserved":false,"is_disabled":false,"rental_uris":{"android":"levelo://app?vid=8b3677d2-ba45-46d5-8680-59b39c3c55a8","ios":"levelo://app?vid=8b3677d2-ba45-46d5-8680-59b39c3c55a8"},"vehicle_type_id":"4","last_reported":1700410063,"current_range_meters":13600,"station_id":"","pricing_plan_id":"free"},{"bike_id":"bdf040b9-2bf0-4139-a445-4a809d6a0555","system_id":"levelo_inurba_marseille","lat":43.303046,"lon":5.368981,"is_reserved":false,"is_disabled":false,"rental_uris":{"android":"levelo://app?vid=bdf040b9-2bf0-4139-a445-4a809d6a0555","ios":"levelo://app?vid=bdf040b9-2bf0-4139-a445-4a809d6a0555"},"vehicle_type_id":"4","last_reported":1700410063,"current_range_meters":0,"station_id":"ce4bgqh2rcd13ifvqc5g","pricing_plan_id":"free"},{"bike_id":"c1b6f7bd-7ece-4b07-acb1-5c9f9e2474c0","system_id":"levelo_inurba_marseille","lat":43.321814,"lon":5.375074,"is_reserved":false,"is_disabled":false,"rental_uris":{"android":"levelo://app?vid=c1b6f7bd-7ece-4b07-acb1-5c9f9e2474c0","ios":"levelo://app?vid=c1b6f7bd-7ece-4b07-acb1-5c9f9e2474c0"},"vehicle_type_id":"4","last_reported":1700410063,"current_range_meters":27600,"station_id":"","pricing_plan_id":"free"},{"bike_id":"3a722b20-8d9a-4ed7-bed2-82edca53ad10","system_id":"levelo_inurba_marseille","lat":43.324771,"lon":5.36557,"is_reserved":false,"is_disabled":false,"rental_uris":{"android":"levelo://app?vid=3a722b20-8d9a-4ed7-bed2-82edca53ad10","ios":"levelo://app?vid=3a722b20-8d9a-4ed7-bed2-82edca53ad10"},"vehicle_type_id":"4","last_reported":1700410063,"current_range_meters":14400,"station_id":"ce4bhs12rcd13ifvqhvg","pricing_plan_id":"free"},{"bike_id":"8c6b9948-2f23-41f5-967e-cd18cc963390","system_id":"levelo_inurba_marseille","lat":43.324771,"lon":5.36557,"is_reserved":false,"is_disabled":false,"rental_uris":{"android":"levelo://app?vid=8c6b9948-2f23-41f5-967e-cd18cc963390","ios":"levelo://app?vid=8c6b9948-2f23-41f5-967e-cd18cc963390"},"vehicle_type_id":"4","last_reported":1700410063,"current_range_meters":14800,"station_id":"ce4bhs12rcd13ifvqhvg","pricing_plan_id":"free"},{"bike_id":"25c09586-e4b2-47c5-bc22-d6f41b5966a0","system_id":"levelo_inurba_marseille","lat":43.311722,"lon":5.387247,"is_reserved":false,"is_disabled":false,"rental_uris":{"android":"levelo://app?vid=25c09586-e4b2-47c5-bc22-d6f41b5966a0","ios":"levelo://app?vid=25c09586-e4b2-47c5-bc22-d6f41b5966a0"},"vehicle_type_id":"4","last_reported":1700410063,"current_range_meters":7600,"station_id":"ce4bgv12rcd13ifvqcp0","pricing_plan_id":"free"},{"bike_id":"5da9dea2-bd9f-4746-b637-56e44ea9e587","system_id":"levelo_inurba_marseille","lat":43.298489,"lon":5.362942,"is_reserved":false,"is_disabled":false,"rental_uris":{"android":"levelo://app?vid=5da9dea2-bd9f-4746-b637-56e44ea9e587","ios":"levelo://app?vid=5da9dea2-bd9f-4746-b637-56e44ea9e587"},"vehicle_type_id":"4","last_reported":1700410063,"current_range_meters":0,"station_id":"","pricing_plan_id":"free"},{"bike_id":"03bfbe2e-1468-4982-ac04-5af2252e6155","system_id":"levelo_inurba_marseille","lat":43.305364,"lon":5.384119,"is_reserved":false,"is_disabled":false,"rental_uris":{"android":"levelo://app?vid=03bfbe2e-1468-4982-ac04-5af2252e6155","ios":"levelo://app?vid=03bfbe2e-1468-4982-ac04-5af2252e6155"},"vehicle_type_id":"4","last_reported":1700410063,"current_range_meters":29600,"station_id":"ce4bgg92rcd13ifvqb30","pricing_plan_id":"free"},{"bike_id":"6c5d7580-0af2-4711-aac6-b10b4ab61119","system_id":"levelo_inurba_marseille","lat":43.297847,"lon":5.372297,"is_reserved":false,"is_disabled":false,"rental_uris":{"android":"levelo://app?vid=6c5d7580-0af2-4711-aac6-b10b4ab61119","ios":"levelo://app?vid=6c5d7580-0af2-4711-aac6-b10b4ab61119"},"vehicle_type_id":"4","last_reported":1700410063,"current_range_meters":0,"station_id":"","pricing_plan_id":"free"},{"bike_id":"2a07802c-16d5-4104-9ab3-93ca6dd62601","system_id":"levelo_inurba_marseille","lat":43.29601,"lon":5.368027,"is_reserved":false,"is_disabled":false,"rental_uris":{"android":"levelo://app?vid=2a07802c-16d5-4104-9ab3-93ca6dd62601","ios":"levelo://app?vid=2a07802c-16d5-4104-9ab3-93ca6dd62601"},"vehicle_type_id":"4","last_reported":1700410063,"current_range_meters":26000,"station_id":"","pricing_plan_id":"free"},{"bike_id":"67ffd28a-0325-489b-a10f-d90500122751","system_id":"levelo_inurba_marseille","lat":43.295748,"lon":5.37522,"is_reserved":false,"is_disabled":false,"rental_uris":{"android":"levelo://app?vid=67ffd28a-0325-489b-a10f-d90500122751","ios":"levelo://app?vid=67ffd28a-0325-489b-a10f-d90500122751"},"vehicle_type_id":"4","last_reported":1700410063,"current_range_meters":30000,"station_id":"ce4bgh92rcd13ifvqb50","pricing_plan_id":"free"},{"bike_id":"3e3e92fe-39b7-4933-99ff-3747b28b5d69","system_id":"levelo_inurba_marseille","lat":43.328154,"lon":5.380034,"is_reserved":false,"is_disabled":false,"rental_uris":{"android":"levelo://app?vid=3e3e92fe-39b7-4933-99ff-3747b28b5d69","ios":"levelo://app?vid=3e3e92fe-39b7-4933-99ff-3747b28b5d69"},"vehicle_type_id":"4","last_reported":1700410063,"current_range_meters":5600,"station_id":"","pricing_plan_id":"free"},{"bike_id":"e145a3f7-00ac-4f8f-bfe5-435bc38ccaf7","system_id":"levelo_inurba_marseille","lat":43.293801,"lon":5.363066,"is_reserved":false,"is_disabled":false,"rental_uris":{"android":"levelo://app?vid=e145a3f7-00ac-4f8f-bfe5-435bc38ccaf7","ios":"levelo://app?vid=e145a3f7-00ac-4f8f-bfe5-435bc38ccaf7"},"vehicle_type_id":"4","last_reported":1700410063,"current_range_meters":23200,"station_id":"","pricing_plan_id":"free"},{"bike_id":"4eef38cc-64cf-4f4d-8d5b-99bd9d3b1b37","system_id":"levelo_inurba_marseille","lat":43.293206,"lon":5.37113,"is_reserved":false,"is_disabled":false,"rental_uris":{"android":"levelo://app?vid=4eef38cc-64cf-4f4d-8d5b-99bd9d3b1b37","ios":"levelo://app?vid=4eef38cc-64cf-4f4d-8d5b-99bd9d3b1b37"},"vehicle_type_id":"4","last_reported":1700410063,"current_range_meters":24000,"station_id":"ce4bgh92rcd13ifvqb40","pricing_plan_id":"free"},{"bike_id":"e5eea8bd-4f5c-4e11-962f-3e5fbae83215","system_id":"levelo_inurba_marseille","lat":43.29276,"lon":5.36844,"is_reserved":false,"is_disabled":false,"rental_uris":{"android":"levelo://app?vid=e5eea8bd-4f5c-4e11-962f-3e5fbae83215","ios":"levelo://app?vid=e5eea8bd-4f5c-4e11-962f-3e5fbae83215"},"vehicle_type_id":"4","last_reported":1700410063,"current_range_meters":0,"station_id":"ce4bhbp2rcd13ifvqesg","pricing_plan_id":"free"},{"bike_id":"c972b933-80bc-4c7a-be17-06cde0a81d00","system_id":"levelo_inurba_marseille","lat":43.292749,"lon":5.368402,"is_reserved":false,"is_disabled":false,"rental_uris":{"android":"levelo://app?vid=c972b933-80bc-4c7a-be17-06cde0a81d00","ios":"levelo://app?vid=c972b933-80bc-4c7a-be17-06cde0a81d00"},"vehicle_type_id":"4","last_reported":1700410063,"current_range_meters":12400,"station_id":"ce4bhbp2rcd13ifvqesg","pricing_plan_id":"free"},{"bike_id":"895eb908-dda5-49ce-9f3a-03fe685b14e3","system_id":"levelo_inurba_marseille","lat":43.303002,"lon":5.392142,"is_reserved":false,"is_disabled":false,"rental_uris":{"android":"levelo://app?vid=895eb908-dda5-49ce-9f3a-03fe685b14e3","ios":"levelo://app?vid=895eb908-dda5-49ce-9f3a-03fe685b14e3"},"vehicle_type_id":"4","last_reported":1700410063,"current_range_meters":0,"station_id":"ce4bgkh2rcd13ifvqbk0","pricing_plan_id":"free"},{"bike_id":"34dbe19c-0778-4cf6-b687-2ac8e197b4b7","system_id":"levelo_inurba_marseille","lat":43.2936,"lon":5.37835,"is_reserved":false,"is_disabled":false,"rental_uris":{"android":"levelo://app?vid=34dbe19c-0778-4cf6-b687-2ac8e197b4b7","ios":"levelo://app?vid=34dbe19c-0778-4cf6-b687-2ac8e197b4b7"},"vehicle_type_id":"4","last_reported":1700410063,"current_range_meters":30400,"station_id":"ce4bgjh2rcd13ifvqbf0","pricing_plan_id":"free"},{"bike_id":"ca0bcbb3-181b-4bad-b05d-7f2fcb032e4f","system_id":"levelo_inurba_marseille","lat":43.29529,"lon":5.385581,"is_reserved":false,"is_disabled":false,"rental_uris":{"android":"levelo://app?vid=ca0bcbb3-181b-4bad-b05d-7f2fcb032e4f","ios":"levelo://app?vid=ca0bcbb3-181b-4bad-b05d-7f2fcb032e4f"},"vehicle_type_id":"4","last_reported":1700410063,"current_range_meters":0,"station_id":"ce4bgih2rcd13ifvqba0","pricing_plan_id":"free"},{"bike_id":"7bba56c1-1033-4328-b31c-d99cfd4287de","system_id":"levelo_inurba_marseille","lat":43.29529,"lon":5.385581,"is_reserved":false,"is_disabled":false,"rental_uris":{"android":"levelo://app?vid=7bba56c1-1033-4328-b31c-d99cfd4287de","ios":"levelo://app?vid=7bba56c1-1033-4328-b31c-d99cfd4287de"},"vehicle_type_id":"4","last_reported":1700410063,"current_range_meters":8800,"station_id":"ce4bgih2rcd13ifvqba0","pricing_plan_id":"free"},{"bike_id":"31c1f940-a471-4205-aa77-b266604cf106","system_id":"levelo_inurba_marseille","lat":43.30213,"lon":5.39465,"is_reserved":false,"is_disabled":false,"rental_uris":{"android":"levelo://app?vid=31c1f940-a471-4205-aa77-b266604cf106","ios":"levelo://app?vid=31c1f940-a471-4205-aa77-b266604cf106"},"vehicle_type_id":"4","last_reported":1700410063,"current_range_meters":1600,"station_id":"ce4bh0p2rcd13ifvqd70","pricing_plan_id":"free"},{"bike_id":"c2c28a7c-b28e-4054-ae5a-62ea94c0c464","system_id":"levelo_inurba_marseille","lat":43.29036,"lon":5.35926,"is_reserved":false,"is_disabled":false,"rental_uris":{"android":"levelo://app?vid=c2c28a7c-b28e-4054-ae5a-62ea94c0c464","ios":"levelo://app?vid=c2c28a7c-b28e-4054-ae5a-62ea94c0c464"},"vehicle_type_id":"4","last_reported":1700410063,"current_range_meters":0,"station_id":"ce4bha92rcd13ifvqeg0","pricing_plan_id":"free"},{"bike_id":"882b419a-a544-4500-8aca-ab1a35a44b30","system_id":"levelo_inurba_marseille","lat":43.2901,"lon":5.381269,"is_reserved":false,"is_disabled":false,"rental_uris":{"android":"levelo://app?vid=882b419a-a544-4500-8aca-ab1a35a44b30","ios":"levelo://app?vid=882b419a-a544-4500-8aca-ab1a35a44b30"},"vehicle_type_id":"4","last_reported":1700410063,"current_range_meters":400,"station_id":"ce4bh4p2rcd13ifvqe1g","pricing_plan_id":"free"},{"bike_id":"98e369b4-e9c5-4a72-a4be-dd8817d4563d","system_id":"levelo_inurba_marseille","lat":43.28856,"lon":5.358371,"is_reserved":false,"is_disabled":false,"rental_uris":{"android":"levelo://app?vid=98e369b4-e9c5-4a72-a4be-dd8817d4563d","ios":"levelo://app?vid=98e369b4-e9c5-4a72-a4be-dd8817d4563d"},"vehicle_type_id":"4","last_reported":1700410063,"current_range_meters":24000,"station_id":"ce4bhb12rcd13ifvqem0","pricing_plan_id":"free"},{"bike_id":"07202f70-50d7-46f0-a5bd-59712659d6a0","system_id":"levelo_inurba_marseille","lat":43.31251,"lon":5.40162,"is_reserved":false,"is_disabled":false,"rental_uris":{"android":"levelo://app?vid=07202f70-50d7-46f0-a5bd-59712659d6a0","ios":"levelo://app?vid=07202f70-50d7-46f0-a5bd-59712659d6a0"},"vehicle_type_id":"4","last_reported":1700410063,"current_range_meters":10400,"station_id":"","pricing_plan_id":"free"},{"bike_id":"35dd36bb-1653-44e1-a609-26a1a240d27d","system_id":"levelo_inurba_marseille","lat":43.33744,"lon":5.37472,"is_reserved":false,"is_disabled":false,"rental_uris":{"android":"levelo://app?vid=35dd36bb-1653-44e1-a609-26a1a240d27d","ios":"levelo://app?vid=35dd36bb-1653-44e1-a609-26a1a240d27d"},"vehicle_type_id":"4","last_reported":1700410063,"current_range_meters":22800,"station_id":"","pricing_plan_id":"free"},{"bike_id":"473d2011-ae75-4743-87c2-eb53e5b85a28","system_id":"levelo_inurba_marseille","lat":43.337613,"lon":5.37434,"is_reserved":false,"is_disabled":false,"rental_uris":{"android":"levelo://app?vid=473d2011-ae75-4743-87c2-eb53e5b85a28","ios":"levelo://app?vid=473d2011-ae75-4743-87c2-eb53e5b85a28"},"vehicle_type_id":"4","last_reported":1700410063,"current_range_meters":20800,"station_id":"","pricing_plan_id":"free"},{"bike_id":"46509513-12f0-4bae-91ab-3b5bb7ed22cf","system_id":"levelo_inurba_marseille","lat":43.337728,"lon":5.374286,"is_reserved":false,"is_disabled":false,"rental_uris":{"android":"levelo://app?vid=46509513-12f0-4bae-91ab-3b5bb7ed22cf","ios":"levelo://app?vid=46509513-12f0-4bae-91ab-3b5bb7ed22cf"},"vehicle_type_id":"4","last_reported":1700410063,"current_range_meters":18400,"station_id":"","pricing_plan_id":"free"},{"bike_id":"8688ee9b-da3a-4f30-ab54-9a36e4e9997b","system_id":"levelo_inurba_marseille","lat":43.287,"lon":5.37403,"is_reserved":false,"is_disabled":false,"rental_uris":{"android":"levelo://app?vid=8688ee9b-da3a-4f30-ab54-9a36e4e9997b","ios":"levelo://app?vid=8688ee9b-da3a-4f30-ab54-9a36e4e9997b"},"vehicle_type_id":"4","last_reported":1700410063,"current_range_meters":0,"station_id":"ce4bh3p2rcd13ifvqdq0","pricing_plan_id":"free"},{"bike_id":"dbd913e4-4867-4904-adb9-4e6e6fd601ff","system_id":"levelo_inurba_marseille","lat":43.28694,"lon":5.37398,"is_reserved":false,"is_disabled":false,"rental_uris":{"android":"levelo://app?vid=dbd913e4-4867-4904-adb9-4e6e6fd601ff","ios":"levelo://app?vid=dbd913e4-4867-4904-adb9-4e6e6fd601ff"},"vehicle_type_id":"4","last_reported":1700410063,"current_range_meters":0,"station_id":"ce4bh3p2rcd13ifvqdq0","pricing_plan_id":"free"},{"bike_id":"cc8e7b9a-fe0d-4eac-bb48-eb4ab6ae18c9","system_id":"levelo_inurba_marseille","lat":43.291994,"lon":5.392907,"is_reserved":false,"is_disabled":false,"rental_uris":{"android":"levelo://app?vid=cc8e7b9a-fe0d-4eac-bb48-eb4ab6ae18c9","ios":"levelo://app?vid=cc8e7b9a-fe0d-4eac-bb48-eb4ab6ae18c9"},"vehicle_type_id":"4","last_reported":1700410063,"current_range_meters":28400,"station_id":"ce4bh192rcd13ifvqdd0","pricing_plan_id":"free"},{"bike_id":"6a79d13f-f212-496d-a142-39d7c7855c27","system_id":"levelo_inurba_marseille","lat":43.284534,"lon":5.358662,"is_reserved":false,"is_disabled":false,"rental_uris":{"android":"levelo://app?vid=6a79d13f-f212-496d-a142-39d7c7855c27","ios":"levelo://app?vid=6a79d13f-f212-496d-a142-39d7c7855c27"},"vehicle_type_id":"4","last_reported":1700410063,"current_range_meters":22800,"station_id":"ce4bhah2rcd13ifvqei0","pricing_plan_id":"free"},{"bike_id":"544ac874-a092-4fd8-a3db-98d746f4bc32","system_id":"levelo_inurba_marseille","lat":43.28616,"lon":5.35103,"is_reserved":false,"is_disabled":false,"rental_uris":{"android":"levelo://app?vid=544ac874-a092-4fd8-a3db-98d746f4bc32","ios":"levelo://app?vid=544ac874-a092-4fd8-a3db-98d746f4bc32"},"vehicle_type_id":"4","last_reported":1700410063,"current_range_meters":0,"station_id":"ce4bhch2rcd13ifvqeug","pricing_plan_id":"free"},{"bike_id":"09504ef7-35f8-42e7-9f5a-f3de8e712838","system_id":"levelo_inurba_marseille","lat":43.286115,"lon":5.35108,"is_reserved":false,"is_disabled":false,"rental_uris":{"android":"levelo://app?vid=09504ef7-35f8-42e7-9f5a-f3de8e712838","ios":"levelo://app?vid=09504ef7-35f8-42e7-9f5a-f3de8e712838"},"vehicle_type_id":"4","last_reported":1700410063,"current_range_meters":0,"station_id":"ce4bhch2rcd13ifvqeug","pricing_plan_id":"free"},{"bike_id":"5974ad3b-da81-42ca-a08b-1b3632a47afa","system_id":"levelo_inurba_marseille","lat":43.33237,"lon":5.3985,"is_reserved":false,"is_disabled":false,"rental_uris":{"android":"levelo://app?vid=5974ad3b-da81-42ca-a08b-1b3632a47afa","ios":"levelo://app?vid=5974ad3b-da81-42ca-a08b-1b3632a47afa"},"vehicle_type_id":"4","last_reported":1700410063,"current_range_meters":800,"station_id":"","pricing_plan_id":"free"},{"bike_id":"ef410f72-860e-4b77-9184-1c6ac50b3705","system_id":"levelo_inurba_marseille","lat":43.297946,"lon":5.404063,"is_reserved":false,"is_disabled":false,"rental_uris":{"android":"levelo://app?vid=ef410f72-860e-4b77-9184-1c6ac50b3705","ios":"levelo://app?vid=ef410f72-860e-4b77-9184-1c6ac50b3705"},"vehicle_type_id":"4","last_reported":1700410063,"current_range_meters":6800,"station_id":"ce4bh112rcd13ifvqd90","pricing_plan_id":"free"},{"bike_id":"904d213a-6d0d-44e4-abb2-688cc7b1823e","system_id":"levelo_inurba_marseille","lat":43.284793,"lon":5.384113,"is_reserved":false,"is_disabled":false,"rental_uris":{"android":"levelo://app?vid=904d213a-6d0d-44e4-abb2-688cc7b1823e","ios":"levelo://app?vid=904d213a-6d0d-44e4-abb2-688cc7b1823e"},"vehicle_type_id":"4","last_reported":1700410063,"current_range_meters":29600,"station_id":"ce4bh512rcd13ifvqe3g","pricing_plan_id":"free"},{"bike_id":"5db61c45-2db9-47e1-b643-bbe6e2623771","system_id":"levelo_inurba_marseille","lat":43.283494,"lon":5.380945,"is_reserved":false,"is_disabled":false,"rental_uris":{"android":"levelo://app?vid=5db61c45-2db9-47e1-b643-bbe6e2623771","ios":"levelo://app?vid=5db61c45-2db9-47e1-b643-bbe6e2623771"},"vehicle_type_id":"4","last_reported":1700410063,"current_range_meters":19200,"station_id":"ce4bh412rcd13ifvqdr0","pricing_plan_id":"free"},{"bike_id":"a2e14eb4-0e9f-461e-bd1b-943a585900ba","system_id":"levelo_inurba_marseille","lat":43.281044,"lon":5.378308,"is_reserved":false,"is_disabled":false,"rental_uris":{"android":"levelo://app?vid=a2e14eb4-0e9f-461e-bd1b-943a585900ba","ios":"levelo://app?vid=a2e14eb4-0e9f-461e-bd1b-943a585900ba"},"vehicle_type_id":"4","last_reported":1700410063,"current_range_meters":29600,"station_id":"ce4bha12rcd13ifvqee0","pricing_plan_id":"free"},{"bike_id":"a969d12e-0f3b-46e9-a6c6-c94172f20711","system_id":"levelo_inurba_marseille","lat":43.28278,"lon":5.35067,"is_reserved":false,"is_disabled":false,"rental_uris":{"android":"levelo://app?vid=a969d12e-0f3b-46e9-a6c6-c94172f20711","ios":"levelo://app?vid=a969d12e-0f3b-46e9-a6c6-c94172f20711"},"vehicle_type_id":"4","last_reported":1700410063,"current_range_meters":0,"station_id":"ce4bhbp2rcd13ifvqerg","pricing_plan_id":"free"},{"bike_id":"775b1691-aee8-47b6-b573-7ae9e37a8286","system_id":"levelo_inurba_marseille","lat":43.283502,"lon":5.386471,"is_reserved":false,"is_disabled":false,"rental_uris":{"android":"levelo://app?vid=775b1691-aee8-47b6-b573-7ae9e37a8286","ios":"levelo://app?vid=775b1691-aee8-47b6-b573-7ae9e37a8286"},"vehicle_type_id":"4","last_reported":1700410063,"current_range_meters":0,"station_id":"ce4bh492rcd13ifvqdvg","pricing_plan_id":"free"},{"bike_id":"4e5f5958-58a5-4b56-8e6e-15eb42178726","system_id":"levelo_inurba_marseille","lat":43.281044,"lon":5.378308,"is_reserved":false,"is_disabled":false,"rental_uris":{"android":"levelo://app?vid=4e5f5958-58a5-4b56-8e6e-15eb42178726","ios":"levelo://app?vid=4e5f5958-58a5-4b56-8e6e-15eb42178726"},"vehicle_type_id":"4","last_reported":1700410063,"current_range_meters":29200,"station_id":"ce4bha12rcd13ifvqee0","pricing_plan_id":"free"},{"bike_id":"f6304fe6-e030-4142-990d-ff497c06b6df","system_id":"levelo_inurba_marseille","lat":43.281044,"lon":5.378308,"is_reserved":false,"is_disabled":false,"rental_uris":{"android":"levelo://app?vid=f6304fe6-e030-4142-990d-ff497c06b6df","ios":"levelo://app?vid=f6304fe6-e030-4142-990d-ff497c06b6df"},"vehicle_type_id":"4","last_reported":1700410063,"current_range_meters":26000,"station_id":"ce4bha12rcd13ifvqee0","pricing_plan_id":"free"},{"bike_id":"ac6ebf28-4159-4b5e-a7dd-ffcfff1eaaa9","system_id":"levelo_inurba_marseille","lat":43.28121,"lon":5.35161,"is_reserved":false,"is_disabled":false,"rental_uris":{"android":"levelo://app?vid=ac6ebf28-4159-4b5e-a7dd-ffcfff1eaaa9","ios":"levelo://app?vid=ac6ebf28-4159-4b5e-a7dd-ffcfff1eaaa9"},"vehicle_type_id":"4","last_reported":1700410063,"current_range_meters":0,"station_id":"","pricing_plan_id":"free"},{"bike_id":"ccf9b17e-2fb6-47d5-b5cb-73ea08fcb6e5","system_id":"levelo_inurba_marseille","lat":43.28575,"lon":5.39498,"is_reserved":false,"is_disabled":false,"rental_uris":{"android":"levelo://app?vid=ccf9b17e-2fb6-47d5-b5cb-73ea08fcb6e5","ios":"levelo://app?vid=ccf9b17e-2fb6-47d5-b5cb-73ea08fcb6e5"},"vehicle_type_id":"4","last_reported":1700410063,"current_range_meters":0,"station_id":"ce4bh292rcd13ifvqdg0","pricing_plan_id":"free"},{"bike_id":"a73e4f69-14a5-4eea-833c-0b5ca431ae90","system_id":"levelo_inurba_marseille","lat":43.304188,"lon":5.412904,"is_reserved":false,"is_disabled":false,"rental_uris":{"android":"levelo://app?vid=a73e4f69-14a5-4eea-833c-0b5ca431ae90","ios":"levelo://app?vid=a73e4f69-14a5-4eea-833c-0b5ca431ae90"},"vehicle_type_id":"4","last_reported":1700410063,"current_range_meters":0,"station_id":"ce4bhop2rcd13ifvqh8g","pricing_plan_id":"free"},{"bike_id":"604790ce-a3cc-4483-951a-7979758ec70f","system_id":"levelo_inurba_marseille","lat":43.27618,"lon":5.361009,"is_reserved":false,"is_disabled":false,"rental_uris":{"android":"levelo://app?vid=604790ce-a3cc-4483-951a-7979758ec70f","ios":"levelo://app?vid=604790ce-a3cc-4483-951a-7979758ec70f"},"vehicle_type_id":"4","last_reported":1700410063,"current_range_meters":0,"station_id":"ce4bgj92rcd13ifvqbe0","pricing_plan_id":"free"},{"bike_id":"5b121fc4-7279-41dc-9e3a-275c1896221a","system_id":"levelo_inurba_marseille","lat":43.2761,"lon":5.36117,"is_reserved":false,"is_disabled":false,"rental_uris":{"android":"levelo://app?vid=5b121fc4-7279-41dc-9e3a-275c1896221a","ios":"levelo://app?vid=5b121fc4-7279-41dc-9e3a-275c1896221a"},"vehicle_type_id":"4","last_reported":1700410063,"current_range_meters":0,"station_id":"ce4bgj92rcd13ifvqbe0","pricing_plan_id":"free"},{"bike_id":"f8f5677d-f8b2-4ddb-837f-25c547c244b9","system_id":"levelo_inurba_marseille","lat":43.280784,"lon":5.396622,"is_reserved":false,"is_disabled":false,"rental_uris":{"android":"levelo://app?vid=f8f5677d-f8b2-4ddb-837f-25c547c244b9","ios":"levelo://app?vid=f8f5677d-f8b2-4ddb-837f-25c547c244b9"},"vehicle_type_id":"4","last_reported":1700410063,"current_range_meters":27600,"station_id":"ce4bho12rcd13ifvqh2g","pricing_plan_id":"free"},{"bike_id":"1e53dbbd-1e88-43e5-9d7e-57589c373fd3","system_id":"levelo_inurba_marseille","lat":43.273613,"lon":5.362705,"is_reserved":false,"is_disabled":false,"rental_uris":{"android":"levelo://app?vid=1e53dbbd-1e88-43e5-9d7e-57589c373fd3","ios":"levelo://app?vid=1e53dbbd-1e88-43e5-9d7e-57589c373fd3"},"vehicle_type_id":"4","last_reported":1700410063,"current_range_meters":0,"station_id":"ce4bhbh2rcd13ifvqeo0","pricing_plan_id":"free"},{"bike_id":"34ae19a3-6b1f-4572-8675-330061843b3c","system_id":"levelo_inurba_marseille","lat":43.273613,"lon":5.362705,"is_reserved":false,"is_disabled":false,"rental_uris":{"android":"levelo://app?vid=34ae19a3-6b1f-4572-8675-330061843b3c","ios":"levelo://app?vid=34ae19a3-6b1f-4572-8675-330061843b3c"},"vehicle_type_id":"4","last_reported":1700410063,"current_range_meters":0,"station_id":"ce4bhbh2rcd13ifvqeo0","pricing_plan_id":"free"},{"bike_id":"2cca6cd3-21c9-4c0c-9998-c98e192b3025","system_id":"levelo_inurba_marseille","lat":43.27371,"lon":5.36255,"is_reserved":false,"is_disabled":false,"rental_uris":{"android":"levelo://app?vid=2cca6cd3-21c9-4c0c-9998-c98e192b3025","ios":"levelo://app?vid=2cca6cd3-21c9-4c0c-9998-c98e192b3025"},"vehicle_type_id":"4","last_reported":1700410063,"current_range_meters":0,"station_id":"ce4bhbh2rcd13ifvqeo0","pricing_plan_id":"free"},{"bike_id":"155989dd-420a-46ec-9fd3-aac15e19bc34","system_id":"levelo_inurba_marseille","lat":43.276771,"lon":5.388799,"is_reserved":false,"is_disabled":false,"rental_uris":{"android":"levelo://app?vid=155989dd-420a-46ec-9fd3-aac15e19bc34","ios":"levelo://app?vid=155989dd-420a-46ec-9fd3-aac15e19bc34"},"vehicle_type_id":"4","last_reported":1700410063,"current_range_meters":21600,"station_id":"ce4bhi12rcd13ifvqfo0","pricing_plan_id":"free"},{"bike_id":"26e38500-cf06-412c-84c9-f57ade123ddf","system_id":"levelo_inurba_marseille","lat":43.27998,"lon":5.40006,"is_reserved":false,"is_disabled":false,"rental_uris":{"android":"levelo://app?vid=26e38500-cf06-412c-84c9-f57ade123ddf","ios":"levelo://app?vid=26e38500-cf06-412c-84c9-f57ade123ddf"},"vehicle_type_id":"4","last_reported":1700410063,"current_range_meters":28000,"station_id":"ce4bho92rcd13ifvqh4g","pricing_plan_id":"free"},{"bike_id":"5b576cc4-4596-4dca-9de9-0dcf3da99fc3","system_id":"levelo_inurba_marseille","lat":43.31081,"lon":5.42431,"is_reserved":false,"is_disabled":false,"rental_uris":{"android":"levelo://app?vid=5b576cc4-4596-4dca-9de9-0dcf3da99fc3","ios":"levelo://app?vid=5b576cc4-4596-4dca-9de9-0dcf3da99fc3"},"vehicle_type_id":"4","last_reported":1700410063,"current_range_meters":18800,"station_id":"ce4bhp92rcd13ifvqhag","pricing_plan_id":"free"},{"bike_id":"5d5cd13d-413c-444b-aa5e-fefb4b5b2bae","system_id":"levelo_inurba_marseille","lat":43.31083,"lon":5.42433,"is_reserved":false,"is_disabled":false,"rental_uris":{"android":"levelo://app?vid=5d5cd13d-413c-444b-aa5e-fefb4b5b2bae","ios":"levelo://app?vid=5d5cd13d-413c-444b-aa5e-fefb4b5b2bae"},"vehicle_type_id":"4","last_reported":1700410063,"current_range_meters":11200,"station_id":"ce4bhp92rcd13ifvqhag","pricing_plan_id":"free"},{"bike_id":"f8f5619a-a183-461d-b100-453fb972fcd4","system_id":"levelo_inurba_marseille","lat":43.272118,"lon":5.391758,"is_reserved":false,"is_disabled":false,"rental_uris":{"android":"levelo://app?vid=f8f5619a-a183-461d-b100-453fb972fcd4","ios":"levelo://app?vid=f8f5619a-a183-461d-b100-453fb972fcd4"},"vehicle_type_id":"4","last_reported":1700410063,"current_range_meters":19600,"station_id":"ce4bhhp2rcd13ifvqfm0","pricing_plan_id":"free"},{"bike_id":"139753b1-0b83-4c3a-80f1-5052bac15461","system_id":"levelo_inurba_marseille","lat":43.27214,"lon":5.392656,"is_reserved":false,"is_disabled":false,"rental_uris":{"android":"levelo://app?vid=139753b1-0b83-4c3a-80f1-5052bac15461","ios":"levelo://app?vid=139753b1-0b83-4c3a-80f1-5052bac15461"},"vehicle_type_id":"4","last_reported":1700410063,"current_range_meters":7600,"station_id":"","pricing_plan_id":"free"},{"bike_id":"fe139271-7817-4645-9ec4-f7eee743e805","system_id":"levelo_inurba_marseille","lat":43.271896,"lon":5.392307,"is_reserved":false,"is_disabled":false,"rental_uris":{"android":"levelo://app?vid=fe139271-7817-4645-9ec4-f7eee743e805","ios":"levelo://app?vid=fe139271-7817-4645-9ec4-f7eee743e805"},"vehicle_type_id":"4","last_reported":1700410063,"current_range_meters":0,"station_id":"","pricing_plan_id":"free"},{"bike_id":"f0ed4531-078e-42fb-a007-3ed80505eb54","system_id":"levelo_inurba_marseille","lat":43.271891,"lon":5.392412,"is_reserved":false,"is_disabled":false,"rental_uris":{"android":"levelo://app?vid=f0ed4531-078e-42fb-a007-3ed80505eb54","ios":"levelo://app?vid=f0ed4531-078e-42fb-a007-3ed80505eb54"},"vehicle_type_id":"4","last_reported":1700410063,"current_range_meters":2800,"station_id":"","pricing_plan_id":"free"},{"bike_id":"5996c80c-b614-4130-acc9-18d0e22fe6fb","system_id":"levelo_inurba_marseille","lat":43.26547,"lon":5.37288,"is_reserved":false,"is_disabled":false,"rental_uris":{"android":"levelo://app?vid=5996c80c-b614-4130-acc9-18d0e22fe6fb","ios":"levelo://app?vid=5996c80c-b614-4130-acc9-18d0e22fe6fb"},"vehicle_type_id":"4","last_reported":1700410063,"current_range_meters":31600,"station_id":"ce4bhg12rcd13ifvqf70","pricing_plan_id":"free"},{"bike_id":"c7758cb2-2a45-4f89-aa5c-0e391d845c76","system_id":"levelo_inurba_marseille","lat":43.326053,"lon":5.429943,"is_reserved":false,"is_disabled":false,"rental_uris":{"android":"levelo://app?vid=c7758cb2-2a45-4f89-aa5c-0e391d845c76","ios":"levelo://app?vid=c7758cb2-2a45-4f89-aa5c-0e391d845c76"},"vehicle_type_id":"4","last_reported":1700410063,"current_range_meters":0,"station_id":"","pricing_plan_id":"free"},{"bike_id":"42871d3b-8c03-490f-baf1-f4b57c44a331","system_id":"levelo_inurba_marseille","lat":43.326584,"lon":5.430213,"is_reserved":false,"is_disabled":false,"rental_uris":{"android":"levelo://app?vid=42871d3b-8c03-490f-baf1-f4b57c44a331","ios":"levelo://app?vid=42871d3b-8c03-490f-baf1-f4b57c44a331"},"vehicle_type_id":"4","last_reported":1700410063,"current_range_meters":17600,"station_id":"","pricing_plan_id":"free"},{"bike_id":"87be04d4-b68d-4ca4-bc75-5865077b920f","system_id":"levelo_inurba_marseille","lat":43.28854,"lon":5.426347,"is_reserved":false,"is_disabled":false,"rental_uris":{"android":"levelo://app?vid=87be04d4-b68d-4ca4-bc75-5865077b920f","ios":"levelo://app?vid=87be04d4-b68d-4ca4-bc75-5865077b920f"},"vehicle_type_id":"4","last_reported":1700410063,"current_range_meters":2400,"station_id":"","pricing_plan_id":"free"},{"bike_id":"f7fbcf96-85d5-481b-bec9-968b3ef5bdaf","system_id":"levelo_inurba_marseille","lat":43.307994,"lon":5.435263,"is_reserved":false,"is_disabled":false,"rental_uris":{"android":"levelo://app?vid=f7fbcf96-85d5-481b-bec9-968b3ef5bdaf","ios":"levelo://app?vid=f7fbcf96-85d5-481b-bec9-968b3ef5bdaf"},"vehicle_type_id":"4","last_reported":1700410063,"current_range_meters":0,"station_id":"ce4bhph2rcd13ifvqheg","pricing_plan_id":"free"},{"bike_id":"f1652e3f-c477-413b-a9b7-b30d047c7518","system_id":"levelo_inurba_marseille","lat":43.26186,"lon":5.37443,"is_reserved":false,"is_disabled":false,"rental_uris":{"android":"levelo://app?vid=f1652e3f-c477-413b-a9b7-b30d047c7518","ios":"levelo://app?vid=f1652e3f-c477-413b-a9b7-b30d047c7518"},"vehicle_type_id":"4","last_reported":1700410063,"current_range_meters":0,"station_id":"ce4bhgp2rcd13ifvqfc0","pricing_plan_id":"free"},{"bike_id":"d940e9b7-35a3-4c88-855e-38f9be4ec5cd","system_id":"levelo_inurba_marseille","lat":43.271368,"lon":5.40928,"is_reserved":false,"is_disabled":false,"rental_uris":{"android":"levelo://app?vid=d940e9b7-35a3-4c88-855e-38f9be4ec5cd","ios":"levelo://app?vid=d940e9b7-35a3-4c88-855e-38f9be4ec5cd"},"vehicle_type_id":"4","last_reported":1700410063,"current_range_meters":2000,"station_id":"ce4bhl12rcd13ifvqgf0","pricing_plan_id":"free"},{"bike_id":"1cc30e50-b449-4923-a454-badc286e2d15","system_id":"levelo_inurba_marseille","lat":43.27174,"lon":5.40993,"is_reserved":false,"is_disabled":false,"rental_uris":{"android":"levelo://app?vid=1cc30e50-b449-4923-a454-badc286e2d15","ios":"levelo://app?vid=1cc30e50-b449-4923-a454-badc286e2d15"},"vehicle_type_id":"4","last_reported":1700410063,"current_range_meters":8400,"station_id":"ce4bhl12rcd13ifvqgf0","pricing_plan_id":"free"},{"bike_id":"74ce853b-0d8b-42c9-81c8-17a7564a4b34","system_id":"levelo_inurba_marseille","lat":43.31725,"lon":5.43786,"is_reserved":false,"is_disabled":false,"rental_uris":{"android":"levelo://app?vid=74ce853b-0d8b-42c9-81c8-17a7564a4b34","ios":"levelo://app?vid=74ce853b-0d8b-42c9-81c8-17a7564a4b34"},"vehicle_type_id":"4","last_reported":1700410063,"current_range_meters":14000,"station_id":"","pricing_plan_id":"free"},{"bike_id":"f43fc7aa-7568-47b3-ac4a-3db04418a732","system_id":"levelo_inurba_marseille","lat":43.298768,"lon":5.43643,"is_reserved":false,"is_disabled":false,"rental_uris":{"android":"levelo://app?vid=f43fc7aa-7568-47b3-ac4a-3db04418a732","ios":"levelo://app?vid=f43fc7aa-7568-47b3-ac4a-3db04418a732"},"vehicle_type_id":"4","last_reported":1700410063,"current_range_meters":15600,"station_id":"ce4bhpp2rcd13ifvqhfg","pricing_plan_id":"free"},{"bike_id":"5f153f02-c4c9-456b-aa48-aeca587f3139","system_id":"levelo_inurba_marseille","lat":43.25943,"lon":5.38816,"is_reserved":false,"is_disabled":false,"rental_uris":{"android":"levelo://app?vid=5f153f02-c4c9-456b-aa48-aeca587f3139","ios":"levelo://app?vid=5f153f02-c4c9-456b-aa48-aeca587f3139"},"vehicle_type_id":"4","last_reported":1700410063,"current_range_meters":16000,"station_id":"","pricing_plan_id":"free"},{"bike_id":"0db002b5-dbbf-453b-8ea4-13f11976d873","system_id":"levelo_inurba_marseille","lat":43.272116,"lon":5.391747,"is_reserved":false,"is_disabled":false,"rental_uris":{"android":"levelo://app?vid=0db002b5-dbbf-453b-8ea4-13f11976d873","ios":"levelo://app?vid=0db002b5-dbbf-453b-8ea4-13f11976d873"},"vehicle_type_id":"4","last_reported":1700410063,"current_range_meters":7600,"station_id":"ce4bhhp2rcd13ifvqfm0","pricing_plan_id":"free"},{"bike_id":"136f26ff-90d9-441a-9f7d-ca400cf602be","system_id":"levelo_inurba_marseille","lat":43.26095,"lon":5.39757,"is_reserved":false,"is_disabled":false,"rental_uris":{"android":"levelo://app?vid=136f26ff-90d9-441a-9f7d-ca400cf602be","ios":"levelo://app?vid=136f26ff-90d9-441a-9f7d-ca400cf602be"},"vehicle_type_id":"4","last_reported":1700410063,"current_range_meters":0,"station_id":"ce4bhi12rcd13ifvqfq0","pricing_plan_id":"free"},{"bike_id":"5190adc9-0faf-4c46-b818-7588bc51f05c","system_id":"levelo_inurba_marseille","lat":43.258224,"lon":5.394369,"is_reserved":false,"is_disabled":false,"rental_uris":{"android":"levelo://app?vid=5190adc9-0faf-4c46-b818-7588bc51f05c","ios":"levelo://app?vid=5190adc9-0faf-4c46-b818-7588bc51f05c"},"vehicle_type_id":"4","last_reported":1700410063,"current_range_meters":29200,"station_id":"ce4bhip2rcd13ifvqft0","pricing_plan_id":"free"},{"bike_id":"25db3fb1-f15b-46d4-a4b7-1ca81a22293e","system_id":"levelo_inurba_marseille","lat":43.254945,"lon":5.376454,"is_reserved":false,"is_disabled":false,"rental_uris":{"android":"levelo://app?vid=25db3fb1-f15b-46d4-a4b7-1ca81a22293e","ios":"levelo://app?vid=25db3fb1-f15b-46d4-a4b7-1ca81a22293e"},"vehicle_type_id":"4","last_reported":1700410063,"current_range_meters":0,"station_id":"ce4bhh12rcd13ifvqff0","pricing_plan_id":"free"},{"bike_id":"e6a64922-48a2-4ff4-975e-38d6ef86d233","system_id":"levelo_inurba_marseille","lat":43.254947,"lon":5.376454,"is_reserved":false,"is_disabled":false,"rental_uris":{"android":"levelo://app?vid=e6a64922-48a2-4ff4-975e-38d6ef86d233","ios":"levelo://app?vid=e6a64922-48a2-4ff4-975e-38d6ef86d233"},"vehicle_type_id":"4","last_reported":1700410063,"current_range_meters":4400,"station_id":"ce4bhh12rcd13ifvqff0","pricing_plan_id":"free"},{"bike_id":"6cc75450-4245-4f03-bf52-47f80554abb9","system_id":"levelo_inurba_marseille","lat":43.27067,"lon":5.4227,"is_reserved":false,"is_disabled":false,"rental_uris":{"android":"levelo://app?vid=6cc75450-4245-4f03-bf52-47f80554abb9","ios":"levelo://app?vid=6cc75450-4245-4f03-bf52-47f80554abb9"},"vehicle_type_id":"4","last_reported":1700410063,"current_range_meters":0,"station_id":"ce4bhk92rcd13ifvqgb0","pricing_plan_id":"free"},{"bike_id":"8c033876-6d32-4f46-87df-9c151f5561f4","system_id":"levelo_inurba_marseille","lat":43.270721,"lon":5.422764,"is_reserved":false,"is_disabled":false,"rental_uris":{"android":"levelo://app?vid=8c033876-6d32-4f46-87df-9c151f5561f4","ios":"levelo://app?vid=8c033876-6d32-4f46-87df-9c151f5561f4"},"vehicle_type_id":"4","last_reported":1700410063,"current_range_meters":16000,"station_id":"ce4bhk92rcd13ifvqgb0","pricing_plan_id":"free"},{"bike_id":"b48256fa-b87a-4f2d-8ad7-86d2cadf67a2","system_id":"levelo_inurba_marseille","lat":43.258658,"lon":5.398935,"is_reserved":false,"is_disabled":false,"rental_uris":{"android":"levelo://app?vid=b48256fa-b87a-4f2d-8ad7-86d2cadf67a2","ios":"levelo://app?vid=b48256fa-b87a-4f2d-8ad7-86d2cadf67a2"},"vehicle_type_id":"4","last_reported":1700410063,"current_range_meters":12800,"station_id":"ce4bhl92rcd13ifvqghg","pricing_plan_id":"free"},{"bike_id":"653a93dc-fdc8-45b7-9661-c0469e70ba2a","system_id":"levelo_inurba_marseille","lat":43.25941,"lon":5.4091,"is_reserved":false,"is_disabled":false,"rental_uris":{"android":"levelo://app?vid=653a93dc-fdc8-45b7-9661-c0469e70ba2a","ios":"levelo://app?vid=653a93dc-fdc8-45b7-9661-c0469e70ba2a"},"vehicle_type_id":"4","last_reported":1700410063,"current_range_meters":0,"station_id":"ce4bhm92rcd13ifvqglg","pricing_plan_id":"free"},{"bike_id":"5a32fc91-4767-4428-887a-72bf22c47925","system_id":"levelo_inurba_marseille","lat":43.25009,"lon":5.38917,"is_reserved":false,"is_disabled":false,"rental_uris":{"android":"levelo://app?vid=5a32fc91-4767-4428-887a-72bf22c47925","ios":"levelo://app?vid=5a32fc91-4767-4428-887a-72bf22c47925"},"vehicle_type_id":"4","last_reported":1700410063,"current_range_meters":3600,"station_id":"ce4bhgp2rcd13ifvqfd0","pricing_plan_id":"free"},{"bike_id":"d5343b08-d016-4c51-9a90-1c47b2445fcd","system_id":"levelo_inurba_marseille","lat":43.250009,"lon":5.389195,"is_reserved":false,"is_disabled":false,"rental_uris":{"android":"levelo://app?vid=d5343b08-d016-4c51-9a90-1c47b2445fcd","ios":"levelo://app?vid=d5343b08-d016-4c51-9a90-1c47b2445fcd"},"vehicle_type_id":"4","last_reported":1700410063,"current_range_meters":16000,"station_id":"ce4bhgp2rcd13ifvqfd0","pricing_plan_id":"free"},{"bike_id":"325fac9f-5e6c-472e-a8e5-b2ad59f407e8","system_id":"levelo_inurba_marseille","lat":43.250009,"lon":5.389195,"is_reserved":false,"is_disabled":false,"rental_uris":{"android":"levelo://app?vid=325fac9f-5e6c-472e-a8e5-b2ad59f407e8","ios":"levelo://app?vid=325fac9f-5e6c-472e-a8e5-b2ad59f407e8"},"vehicle_type_id":"4","last_reported":1700410063,"current_range_meters":13600,"station_id":"ce4bhgp2rcd13ifvqfd0","pricing_plan_id":"free"},{"bike_id":"ff1c9d95-79c0-4407-b9f3-2c91eab26a74","system_id":"levelo_inurba_marseille","lat":43.25102,"lon":5.403214,"is_reserved":false,"is_disabled":false,"rental_uris":{"android":"levelo://app?vid=ff1c9d95-79c0-4407-b9f3-2c91eab26a74","ios":"levelo://app?vid=ff1c9d95-79c0-4407-b9f3-2c91eab26a74"},"vehicle_type_id":"4","last_reported":1700410063,"current_range_meters":25200,"station_id":"ce4bhlh2rcd13ifvqgig","pricing_plan_id":"free"},{"bike_id":"5e7b718a-b00c-4184-9733-a80380657737","system_id":"levelo_inurba_marseille","lat":43.246467,"lon":5.388984,"is_reserved":false,"is_disabled":false,"rental_uris":{"android":"levelo://app?vid=5e7b718a-b00c-4184-9733-a80380657737","ios":"levelo://app?vid=5e7b718a-b00c-4184-9733-a80380657737"},"vehicle_type_id":"4","last_reported":1700410063,"current_range_meters":26400,"station_id":"ce4bhg12rcd13ifvqf60","pricing_plan_id":"free"},{"bike_id":"9684a20a-e661-4c93-be4a-19402a2793a3","system_id":"levelo_inurba_marseille","lat":43.240623,"lon":5.377642,"is_reserved":false,"is_disabled":false,"rental_uris":{"android":"levelo://app?vid=9684a20a-e661-4c93-be4a-19402a2793a3","ios":"levelo://app?vid=9684a20a-e661-4c93-be4a-19402a2793a3"},"vehicle_type_id":"4","last_reported":1700410063,"current_range_meters":7200,"station_id":"ce4bhnp2rcd13ifvqgvg","pricing_plan_id":"free"},{"bike_id":"95885e73-feac-4a98-9a67-b8819e224d27","system_id":"levelo_inurba_marseille","lat":43.239588,"lon":5.366238,"is_reserved":false,"is_disabled":false,"rental_uris":{"android":"levelo://app?vid=95885e73-feac-4a98-9a67-b8819e224d27","ios":"levelo://app?vid=95885e73-feac-4a98-9a67-b8819e224d27"},"vehicle_type_id":"4","last_reported":1700410063,"current_range_meters":0,"station_id":"ce4bhi12rcd13ifvqfp0","pricing_plan_id":"free"},{"bike_id":"f3d010bb-5375-452a-98eb-5889a28dac4d","system_id":"levelo_inurba_marseille","lat":43.23961,"lon":5.36634,"is_reserved":false,"is_disabled":false,"rental_uris":{"android":"levelo://app?vid=f3d010bb-5375-452a-98eb-5889a28dac4d","ios":"levelo://app?vid=f3d010bb-5375-452a-98eb-5889a28dac4d"},"vehicle_type_id":"4","last_reported":1700410063,"current_range_meters":0,"station_id":"ce4bhi12rcd13ifvqfp0","pricing_plan_id":"free"},{"bike_id":"bd96c6cd-2962-4f7f-89b7-bb4fea6ff9d9","system_id":"levelo_inurba_marseille","lat":43.2396,"lon":5.36631,"is_reserved":false,"is_disabled":false,"rental_uris":{"android":"levelo://app?vid=bd96c6cd-2962-4f7f-89b7-bb4fea6ff9d9","ios":"levelo://app?vid=bd96c6cd-2962-4f7f-89b7-bb4fea6ff9d9"},"vehicle_type_id":"4","last_reported":1700410063,"current_range_meters":0,"station_id":"ce4bhi12rcd13ifvqfp0","pricing_plan_id":"free"},{"bike_id":"4370869b-0c59-4e1b-b4c7-59bf3a7bc50e","system_id":"levelo_inurba_marseille","lat":43.241782,"lon":5.397264,"is_reserved":false,"is_disabled":false,"rental_uris":{"android":"levelo://app?vid=4370869b-0c59-4e1b-b4c7-59bf3a7bc50e","ios":"levelo://app?vid=4370869b-0c59-4e1b-b4c7-59bf3a7bc50e"},"vehicle_type_id":"4","last_reported":1700410063,"current_range_meters":12800,"station_id":"ce4bhn12rcd13ifvqgpg","pricing_plan_id":"free"},{"bike_id":"8417b742-2f88-4601-abc6-b65a8a65e8f2","system_id":"levelo_inurba_marseille","lat":43.24179,"lon":5.39727,"is_reserved":false,"is_disabled":false,"rental_uris":{"android":"levelo://app?vid=8417b742-2f88-4601-abc6-b65a8a65e8f2","ios":"levelo://app?vid=8417b742-2f88-4601-abc6-b65a8a65e8f2"},"vehicle_type_id":"4","last_reported":1700410063,"current_range_meters":19200,"station_id":"ce4bhn12rcd13ifvqgpg","pricing_plan_id":"free"},{"bike_id":"1b43606a-72e2-476d-b636-ae1a0a2c83c1","system_id":"levelo_inurba_marseille","lat":43.24178,"lon":5.39723,"is_reserved":false,"is_disabled":false,"rental_uris":{"android":"levelo://app?vid=1b43606a-72e2-476d-b636-ae1a0a2c83c1","ios":"levelo://app?vid=1b43606a-72e2-476d-b636-ae1a0a2c83c1"},"vehicle_type_id":"4","last_reported":1700410063,"current_range_meters":12800,"station_id":"ce4bhn12rcd13ifvqgpg","pricing_plan_id":"free"},{"bike_id":"1916ba89-348a-46de-862f-002e26a606b7","system_id":"levelo_inurba_marseille","lat":43.241759,"lon":5.397234,"is_reserved":false,"is_disabled":false,"rental_uris":{"android":"levelo://app?vid=1916ba89-348a-46de-862f-002e26a606b7","ios":"levelo://app?vid=1916ba89-348a-46de-862f-002e26a606b7"},"vehicle_type_id":"4","last_reported":1700410063,"current_range_meters":7200,"station_id":"ce4bhn12rcd13ifvqgpg","pricing_plan_id":"free"},{"bike_id":"662f058d-46b1-4787-b52a-d29e98a28779","system_id":"levelo_inurba_marseille","lat":43.231919,"lon":5.355532,"is_reserved":false,"is_disabled":false,"rental_uris":{"android":"levelo://app?vid=662f058d-46b1-4787-b52a-d29e98a28779","ios":"levelo://app?vid=662f058d-46b1-4787-b52a-d29e98a28779"},"vehicle_type_id":"4","last_reported":1700410063,"current_range_meters":31600,"station_id":"ce4bhu92rcd13ifvqi70","pricing_plan_id":"free"},{"bike_id":"fde866f3-6c9f-4f69-b32c-c4f485189e86","system_id":"levelo_inurba_marseille","lat":43.231923,"lon":5.355545,"is_reserved":false,"is_disabled":false,"rental_uris":{"android":"levelo://app?vid=fde866f3-6c9f-4f69-b32c-c4f485189e86","ios":"levelo://app?vid=fde866f3-6c9f-4f69-b32c-c4f485189e86"},"vehicle_type_id":"4","last_reported":1700410063,"current_range_meters":800,"station_id":"ce4bhu92rcd13ifvqi70","pricing_plan_id":"free"},{"bike_id":"efe9f44b-467d-42d3-8df0-08df4fdbb017","system_id":"levelo_inurba_marseille","lat":43.231923,"lon":5.355545,"is_reserved":false,"is_disabled":false,"rental_uris":{"android":"levelo://app?vid=efe9f44b-467d-42d3-8df0-08df4fdbb017","ios":"levelo://app?vid=efe9f44b-467d-42d3-8df0-08df4fdbb017"},"vehicle_type_id":"4","last_reported":1700410063,"current_range_meters":23600,"station_id":"ce4bhu92rcd13ifvqi70","pricing_plan_id":"free"},{"bike_id":"8fe04714-104f-4348-b012-905fab24e301","system_id":"levelo_inurba_marseille","lat":43.2319,"lon":5.35559,"is_reserved":false,"is_disabled":false,"rental_uris":{"android":"levelo://app?vid=8fe04714-104f-4348-b012-905fab24e301","ios":"levelo://app?vid=8fe04714-104f-4348-b012-905fab24e301"},"vehicle_type_id":"4","last_reported":1700410063,"current_range_meters":31200,"station_id":"ce4bhu92rcd13ifvqi70","pricing_plan_id":"free"},{"bike_id":"37416442-308e-4dea-bd51-2ca12166bbc7","system_id":"levelo_inurba_marseille","lat":43.231923,"lon":5.355545,"is_reserved":false,"is_disabled":false,"rental_uris":{"android":"levelo://app?vid=37416442-308e-4dea-bd51-2ca12166bbc7","ios":"levelo://app?vid=37416442-308e-4dea-bd51-2ca12166bbc7"},"vehicle_type_id":"4","last_reported":1700410063,"current_range_meters":24000,"station_id":"ce4bhu92rcd13ifvqi70","pricing_plan_id":"free"},{"bike_id":"8a62ccf4-93c4-408c-8efe-bc9afcdd6a80","system_id":"levelo_inurba_marseille","lat":43.231923,"lon":5.355545,"is_reserved":false,"is_disabled":false,"rental_uris":{"android":"levelo://app?vid=8a62ccf4-93c4-408c-8efe-bc9afcdd6a80","ios":"levelo://app?vid=8a62ccf4-93c4-408c-8efe-bc9afcdd6a80"},"vehicle_type_id":"4","last_reported":1700410063,"current_range_meters":24400,"station_id":"ce4bhu92rcd13ifvqi70","pricing_plan_id":"free"},{"bike_id":"d9fd4f8d-322c-45fe-b651-4a9394dd3741","system_id":"levelo_inurba_marseille","lat":43.231923,"lon":5.355545,"is_reserved":false,"is_disabled":false,"rental_uris":{"android":"levelo://app?vid=d9fd4f8d-322c-45fe-b651-4a9394dd3741","ios":"levelo://app?vid=d9fd4f8d-322c-45fe-b651-4a9394dd3741"},"vehicle_type_id":"4","last_reported":1700410063,"current_range_meters":30800,"station_id":"ce4bhu92rcd13ifvqi70","pricing_plan_id":"free"},{"bike_id":"73825668-897d-4ba7-8138-a1757218e46a","system_id":"levelo_inurba_marseille","lat":43.231923,"lon":5.355545,"is_reserved":false,"is_disabled":false,"rental_uris":{"android":"levelo://app?vid=73825668-897d-4ba7-8138-a1757218e46a","ios":"levelo://app?vid=73825668-897d-4ba7-8138-a1757218e46a"},"vehicle_type_id":"4","last_reported":1700410063,"current_range_meters":20400,"station_id":"ce4bhu92rcd13ifvqi70","pricing_plan_id":"free"},{"bike_id":"e90e6dbe-4103-4584-a33a-a878da9cf267","system_id":"levelo_inurba_marseille","lat":43.231923,"lon":5.355545,"is_reserved":false,"is_disabled":false,"rental_uris":{"android":"levelo://app?vid=e90e6dbe-4103-4584-a33a-a878da9cf267","ios":"levelo://app?vid=e90e6dbe-4103-4584-a33a-a878da9cf267"},"vehicle_type_id":"4","last_reported":1700410063,"current_range_meters":22400,"station_id":"ce4bhu92rcd13ifvqi70","pricing_plan_id":"free"},{"bike_id":"18a2742a-f4bf-49a9-9e2a-88eea5110e55","system_id":"levelo_inurba_marseille","lat":43.231923,"lon":5.355545,"is_reserved":false,"is_disabled":false,"rental_uris":{"android":"levelo://app?vid=18a2742a-f4bf-49a9-9e2a-88eea5110e55","ios":"levelo://app?vid=18a2742a-f4bf-49a9-9e2a-88eea5110e55"},"vehicle_type_id":"4","last_reported":1700410063,"current_range_meters":27600,"station_id":"ce4bhu92rcd13ifvqi70","pricing_plan_id":"free"},{"bike_id":"adac1971-5e73-41e6-9ade-b5ded0f026e7","system_id":"levelo_inurba_marseille","lat":43.231793,"lon":5.400044,"is_reserved":false,"is_disabled":false,"rental_uris":{"android":"levelo://app?vid=adac1971-5e73-41e6-9ade-b5ded0f026e7","ios":"levelo://app?vid=adac1971-5e73-41e6-9ade-b5ded0f026e7"},"vehicle_type_id":"4","last_reported":1700410063,"current_range_meters":30800,"station_id":"ce4bhn12rcd13ifvqgqg","pricing_plan_id":"free"},{"bike_id":"90412b6e-d2ab-4621-a7b2-7f26e3b04a26","system_id":"levelo_inurba_marseille","lat":43.231562,"lon":5.436933,"is_reserved":false,"is_disabled":false,"rental_uris":{"android":"levelo://app?vid=90412b6e-d2ab-4621-a7b2-7f26e3b04a26","ios":"levelo://app?vid=90412b6e-d2ab-4621-a7b2-7f26e3b04a26"},"vehicle_type_id":"4","last_reported":1700410063,"current_range_meters":2800,"station_id":"ce4bhmp2rcd13ifvqgog","pricing_plan_id":"free"}]}}