{"last_updated":1741298915,"ttl":60,"version":"2.2","data":{"bikes":[{"bike_id":"23a74ba7-944b-47c5-899c-c5932fd50b50","system_id":"levelo_inurba_marseille","lat":43.292999,"lon":5.369114,"is_reserved":false,"is_disabled":true,"rental_uris":{"android":"levelo://app?vid=23a74ba7-944b-47c5-899c-c5932fd50b50","ios":"levelo://app?vid=23a74ba7-944b-47c5-899c-c5932fd50b50"},"vehicle_type_id":"4","last_reported":1741298915,"current_range_meters":0,"station_id":"","pricing_plan_id":"cebpf4jnsgd1na2vs0mg"},{"bike_id":"ee1d2ad1-36ca-49dd-a328-f2a9a9994ecb","system_id":"levelo_inurba_marseille","lat":43.31081,"lon":5.381216,"is_reserved":false,"is_disabled":true,"rental_uris":{"android":"levelo://app?vid=ee1d2ad1-36ca-49dd-a328-f2a9a9994ecb","ios":"levelo://app?vid=ee1d2ad1-36ca-49dd-a328-f2a9a9994ecb"},"vehicle_type_id":"4","last_reported":1741298915,"current_range_meters":0,"station_id":"","pricing_plan_id":"cebpf4jnsgd1na2vs0mg"},{"bike_id":"f06f53d3-05d3-4654-b19d-104f82345199","system_id":"levelo_inurba_marseille","lat":43.31484,"lon":5.36862,"is_reserved":false,"is_disabled":true,"rental_uris":{"android":"levelo://app?vid=f06f53d3-05d3-4654-b19d-104f82345199","ios":"levelo://app?vid=f06f53d3-05d3-4654-b19d-104f82345199"},"vehicle_type_id":"4","last_reported":1741298915,"current_range_meters":0,"station_id":"","pricing_plan_id":"cebpf4jnsgd1na2vs0mg"},{"bike_id":"e9afb1b1-c04a-4b2b-88bf-e7afbf67d34c","system_id":"levelo_inurba_marseille","lat":43.23188,"lon":5.39988,"is_reserved":false,"is_disabled":true,"rental_uris":{"android":"levelo://app?vid=e9afb1b1-c04a-4b2b-88bf-e7afbf67d34c","ios":"levelo://app?vid=e9afb1b1-c04a-4b2b-88bf-e7afbf67d34c"},"vehicle_type_id":"4","last_reported":1741298915,"current_range_meters":0,"station_id":"ce4bhn12rcd13ifvqgqg","pricing_plan_id":"cebpf4jnsgd1na2vs0mg"},{"bike_id":"c0960ae1-e608-49f3-af84-f1e0418783d9","system_id":"levelo_inurba_marseille","lat":43.28441,"lon":5.39205,"is_reserved":false,"is_disabled":true,"rental_uris":{"android":"levelo://app?vid=c0960ae1-e608-49f3-af84-f1e0418783d9","ios":"levelo://app?vid=c0960ae1-e608-49f3-af84-f1e0418783d9"},"vehicle_type_id":"4","last_reported":1741298915,"current_range_meters":0,"station_id":"ce4bhoh2rcd13ifvqh5g","pricing_plan_id":"cebpf4jnsgd1na2vs0mg"},{"bike_id":"ba3130e7-75a9-4a7e-b87c-88b0149ba329","system_id":"levelo_inurba_marseille","lat":43.31995,"lon":5.38134,"is_reserved":false,"is_disabled":true,"rental_uris":{"android":"levelo://app?vid=ba3130e7-75a9-4a7e-b87c-88b0149ba329","ios":"levelo://app?vid=ba3130e7-75a9-4a7e-b87c-88b0149ba329"},"vehicle_type_id":"4","last_reported":1741298915,"current_range_meters":0,"station_id":"ce4bhr12rcd13ifvqhpg","pricing_plan_id":"cebpf4jnsgd1na2vs0mg"},{"bike_id":"a014c85b-e46f-45ab-a8fe-830afd691234","system_id":"levelo_inurba_marseille","lat":43.33021,"lon":5.39052,"is_reserved":false,"is_disabled":true,"rental_uris":{"android":"levelo://app?vid=a014c85b-e46f-45ab-a8fe-830afd691234","ios":"levelo://app?vid=a014c85b-e46f-45ab-a8fe-830afd691234"},"vehicle_type_id":"4","last_reported":1741298915,"current_range_meters":0,"station_id":"ce4bhr92rcd13ifvqhrg","pricing_plan_id":"cebpf4jnsgd1na2vs0mg"},{"bike_id":"f80809ce-2a47-4316-864a-85190e1c86f1","system_id":"levelo_inurba_marseille","lat":43.29711,"lon":5.36613,"is_reserved":false,"is_disabled":true,"rental_uris":{"android":"levelo://app?vid=f80809ce-2a47-4316-864a-85190e1c86f1","ios":"levelo://app?vid=f80809ce-2a47-4316-864a-85190e1c86f1"},"vehicle_type_id":"4","last_reported":1741298915,"current_range_meters":400,"station_id":"ce4bgn12rcd13ifvqbt0","pricing_plan_id":"cebpf4jnsgd1na2vs0mg"},{"bike_id":"6314cab2-0793-4e2b-bbf3-cba910af8b5a","system_id":"levelo_inurba_marseille","lat":43.3301,"lon":5.3901,"is_reserved":false,"is_disabled":false,"rental_uris":{"android":"levelo://app?vid=6314cab2-0793-4e2b-bbf3-cba910af8b5a","ios":"levelo://app?vid=6314cab2-0793-4e2b-bbf3-cba910af8b5a"},"vehicle_type_id":"4","last_reported":1741298915,"current_range_meters":400,"station_id":"ce4bhr92rcd13ifvqhrg","pricing_plan_id":"cebpf4jnsgd1na2vs0mg"},{"bike_id":"81d93e49-5224-47ef-840a-f52b16d9e960","system_id":"levelo_inurba_marseille","lat":43.27666,"lon":5.38838,"is_reserved":false,"is_disabled":true,"rental_uris":{"android":"levelo://app?vid=81d93e49-5224-47ef-840a-f52b16d9e960","ios":"levelo://app?vid=81d93e49-5224-47ef-840a-f52b16d9e960"},"vehicle_type_id":"4","last_reported":1741298915,"current_range_meters":800,"station_id":"ce4bhi12rcd13ifvqfo0","pricing_plan_id":"cebpf4jnsgd1na2vs0mg"},{"bike_id":"2c643458-9a65-44cf-b2fa-b789b6213ac2","system_id":"levelo_inurba_marseille","lat":43.30638,"lon":5.4007,"is_reserved":false,"is_disabled":true,"rental_uris":{"android":"levelo://app?vid=2c643458-9a65-44cf-b2fa-b789b6213ac2","ios":"levelo://app?vid=2c643458-9a65-44cf-b2fa-b789b6213ac2"},"vehicle_type_id":"4","last_reported":1741298915,"current_range_meters":1200,"station_id":"ce4bh112rcd13ifvqda0","pricing_plan_id":"cebpf4jnsgd1na2vs0mg"},{"bike_id":"81ef2014-b2a7-4089-807d-39a80d988311","system_id":"levelo_inurba_marseille","lat":43.33029,"lon":5.39035,"is_reserved":false,"is_disabled":true,"rental_uris":{"android":"levelo://app?vid=81ef2014-b2a7-4089-807d-39a80d988311","ios":"levelo://app?vid=81ef2014-b2a7-4089-807d-39a80d988311"},"vehicle_type_id":"4","last_reported":1741298915,"current_range_meters":1200,"station_id":"ce4bhr92rcd13ifvqhrg","pricing_plan_id":"cebpf4jnsgd1na2vs0mg"},{"bike_id":"18d9b203-c4c9-4b4d-b89a-266ee22d0435","system_id":"levelo_inurba_marseille","lat":43.28676,"lon":5.38653,"is_reserved":false,"is_disabled":true,"rental_uris":{"android":"levelo://app?vid=18d9b203-c4c9-4b4d-b89a-266ee22d0435","ios":"levelo://app?vid=18d9b203-c4c9-4b4d-b89a-266ee22d0435"},"vehicle_type_id":"4","last_reported":1741298915,"current_range_meters":1600,"station_id":"ce4bh492rcd13ifvqdug","pricing_plan_id":"cebpf4jnsgd1na2vs0mg"},{"bike_id":"b0e48206-13e6-47b6-b472-b4968d3669be","system_id":"levelo_inurba_marseille","lat":43.26583,"lon":5.37291,"is_reserved":false,"is_disabled":true,"rental_uris":{"android":"levelo://app?vid=b0e48206-13e6-47b6-b472-b4968d3669be","ios":"levelo://app?vid=b0e48206-13e6-47b6-b472-b4968d3669be"},"vehicle_type_id":"4","last_reported":1741298915,"current_range_meters":1600,"station_id":"ce4bhg12rcd13ifvqf70","pricing_plan_id":"cebpf4jnsgd1na2vs0mg"},{"bike_id":"24aa3ca9-801a-4278-89ef-50a70975fc02","system_id":"levelo_inurba_marseille","lat":43.29546,"lon":5.42297,"is_reserved":false,"is_disabled":true,"rental_uris":{"android":"levelo://app?vid=24aa3ca9-801a-4278-89ef-50a70975fc02","ios":"levelo://app?vid=24aa3ca9-801a-4278-89ef-50a70975fc02"},"vehicle_type_id":"4","last_reported":1741298915,"current_range_meters":1600,"station_id":"ce4bhph2rcd13ifvqhdg","pricing_plan_id":"cebpf4jnsgd1na2vs0mg"},{"bike_id":"9413c010-0cd1-41b8-bfec-86f00033f12c","system_id":"levelo_inurba_marseille","lat":43.31229,"lon":5.41678,"is_reserved":false,"is_disabled":true,"rental_uris":{"android":"levelo://app?vid=9413c010-0cd1-41b8-bfec-86f00033f12c","ios":"levelo://app?vid=9413c010-0cd1-41b8-bfec-86f00033f12c"},"vehicle_type_id":"4","last_reported":1741298915,"current_range_meters":2000,"station_id":"","pricing_plan_id":"cebpf4jnsgd1na2vs0mg"},{"bike_id":"be8f2f0b-bfa2-4b7d-b9be-c3ab89c4dae0","system_id":"levelo_inurba_marseille","lat":43.29897,"lon":5.43651,"is_reserved":false,"is_disabled":true,"rental_uris":{"android":"levelo://app?vid=be8f2f0b-bfa2-4b7d-b9be-c3ab89c4dae0","ios":"levelo://app?vid=be8f2f0b-bfa2-4b7d-b9be-c3ab89c4dae0"},"vehicle_type_id":"4","last_reported":1741298915,"current_range_meters":2000,"station_id":"ce4bhpp2rcd13ifvqhfg","pricing_plan_id":"cebpf4jnsgd1na2vs0mg"},{"bike_id":"6d963bf5-438a-4f1b-877b-794bfc4bb2bc","system_id":"levelo_inurba_marseille","lat":43.27899,"lon":5.3542,"is_reserved":false,"is_disabled":false,"rental_uris":{"android":"levelo://app?vid=6d963bf5-438a-4f1b-877b-794bfc4bb2bc","ios":"levelo://app?vid=6d963bf5-438a-4f1b-877b-794bfc4bb2bc"},"vehicle_type_id":"4","last_reported":1741298915,"current_range_meters":2800,"station_id":"","pricing_plan_id":"cebpf4jnsgd1na2vs0mg"},{"bike_id":"a7d1500a-e807-4b3f-a9b9-836914d673c3","system_id":"levelo_inurba_marseille","lat":43.24083,"lon":5.37744,"is_reserved":false,"is_disabled":false,"rental_uris":{"android":"levelo://app?vid=a7d1500a-e807-4b3f-a9b9-836914d673c3","ios":"levelo://app?vid=a7d1500a-e807-4b3f-a9b9-836914d673c3"},"vehicle_type_id":"4","last_reported":1741298915,"current_range_meters":2800,"station_id":"ce4bhnp2rcd13ifvqgvg","pricing_plan_id":"cebpf4jnsgd1na2vs0mg"},{"bike_id":"ebf8161a-cab7-4028-b35f-3388767cbc46","system_id":"levelo_inurba_marseille","lat":43.23062,"lon":5.35494,"is_reserved":false,"is_disabled":false,"rental_uris":{"android":"levelo://app?vid=ebf8161a-cab7-4028-b35f-3388767cbc46","ios":"levelo://app?vid=ebf8161a-cab7-4028-b35f-3388767cbc46"},"vehicle_type_id":"4","last_reported":1741298915,"current_range_meters":2800,"station_id":"cpo3342slgdg3j2ifvpg","pricing_plan_id":"cebpf4jnsgd1na2vs0mg"},{"bike_id":"41caadfd-71f1-4c9f-b5ef-e4383d71cf2a","system_id":"levelo_inurba_marseille","lat":43.27814,"lon":5.39206,"is_reserved":false,"is_disabled":false,"rental_uris":{"android":"levelo://app?vid=41caadfd-71f1-4c9f-b5ef-e4383d71cf2a","ios":"levelo://app?vid=41caadfd-71f1-4c9f-b5ef-e4383d71cf2a"},"vehicle_type_id":"4","last_reported":1741298915,"current_range_meters":3200,"station_id":"ce4bhjp2rcd13ifvqga0","pricing_plan_id":"cebpf4jnsgd1na2vs0mg"},{"bike_id":"5335ccc2-c2fe-4324-aa16-1eec29e362db","system_id":"levelo_inurba_marseille","lat":43.29369,"lon":5.3821,"is_reserved":false,"is_disabled":false,"rental_uris":{"android":"levelo://app?vid=5335ccc2-c2fe-4324-aa16-1eec29e362db","ios":"levelo://app?vid=5335ccc2-c2fe-4324-aa16-1eec29e362db"},"vehicle_type_id":"4","last_reported":1741298915,"current_range_meters":3600,"station_id":"","pricing_plan_id":"cebpf4jnsgd1na2vs0mg"},{"bike_id":"030085c6-037d-4de4-b06f-79952f3babe0","system_id":"levelo_inurba_marseille","lat":43.2795,"lon":5.41039,"is_reserved":false,"is_disabled":false,"rental_uris":{"android":"levelo://app?vid=030085c6-037d-4de4-b06f-79952f3babe0","ios":"levelo://app?vid=030085c6-037d-4de4-b06f-79952f3babe0"},"vehicle_type_id":"4","last_reported":1741298915,"current_range_meters":3600,"station_id":"ce4bhnp2rcd13ifvqh0g","pricing_plan_id":"cebpf4jnsgd1na2vs0mg"},{"bike_id":"f732301c-5814-4217-889c-43168a540117","system_id":"levelo_inurba_marseille","lat":43.25575,"lon":5.38254,"is_reserved":false,"is_disabled":false,"rental_uris":{"android":"levelo://app?vid=f732301c-5814-4217-889c-43168a540117","ios":"levelo://app?vid=f732301c-5814-4217-889c-43168a540117"},"vehicle_type_id":"4","last_reported":1741298915,"current_range_meters":4800,"station_id":"ce4bhih2rcd13ifvqfs0","pricing_plan_id":"cebpf4jnsgd1na2vs0mg"},{"bike_id":"b54317ef-a5b5-450f-88ad-57d8c17e4013","system_id":"levelo_inurba_marseille","lat":43.24078,"lon":5.37766,"is_reserved":false,"is_disabled":false,"rental_uris":{"android":"levelo://app?vid=b54317ef-a5b5-450f-88ad-57d8c17e4013","ios":"levelo://app?vid=b54317ef-a5b5-450f-88ad-57d8c17e4013"},"vehicle_type_id":"4","last_reported":1741298915,"current_range_meters":4800,"station_id":"ce4bhnp2rcd13ifvqgvg","pricing_plan_id":"cebpf4jnsgd1na2vs0mg"},{"bike_id":"740df627-5ddd-4847-9d55-a8f5b4da2f4e","system_id":"levelo_inurba_marseille","lat":43.31596,"lon":5.40556,"is_reserved":false,"is_disabled":false,"rental_uris":{"android":"levelo://app?vid=740df627-5ddd-4847-9d55-a8f5b4da2f4e","ios":"levelo://app?vid=740df627-5ddd-4847-9d55-a8f5b4da2f4e"},"vehicle_type_id":"4","last_reported":1741298915,"current_range_meters":6000,"station_id":"","pricing_plan_id":"cebpf4jnsgd1na2vs0mg"},{"bike_id":"12a0f8a0-f887-4da5-868b-03d02ec00711","system_id":"levelo_inurba_marseille","lat":43.31359,"lon":5.385,"is_reserved":false,"is_disabled":false,"rental_uris":{"android":"levelo://app?vid=12a0f8a0-f887-4da5-868b-03d02ec00711","ios":"levelo://app?vid=12a0f8a0-f887-4da5-868b-03d02ec00711"},"vehicle_type_id":"4","last_reported":1741298915,"current_range_meters":6400,"station_id":"ce4bgt92rcd13ifvqcf0","pricing_plan_id":"cebpf4jnsgd1na2vs0mg"},{"bike_id":"3fffc9cd-f418-41de-9fba-0cc23722d684","system_id":"levelo_inurba_marseille","lat":43.23055,"lon":5.35499,"is_reserved":false,"is_disabled":false,"rental_uris":{"android":"levelo://app?vid=3fffc9cd-f418-41de-9fba-0cc23722d684","ios":"levelo://app?vid=3fffc9cd-f418-41de-9fba-0cc23722d684"},"vehicle_type_id":"4","last_reported":1741298915,"current_range_meters":6400,"station_id":"cpo3342slgdg3j2ifvpg","pricing_plan_id":"cebpf4jnsgd1na2vs0mg"},{"bike_id":"bd012427-fc8f-4fad-a296-ffd84f9acf1e","system_id":"levelo_inurba_marseille","lat":43.31083,"lon":5.38356,"is_reserved":false,"is_disabled":false,"rental_uris":{"android":"levelo://app?vid=bd012427-fc8f-4fad-a296-ffd84f9acf1e","ios":"levelo://app?vid=bd012427-fc8f-4fad-a296-ffd84f9acf1e"},"vehicle_type_id":"4","last_reported":1741298915,"current_range_meters":6800,"station_id":"ce4bgv92rcd13ifvqcr0","pricing_plan_id":"cebpf4jnsgd1na2vs0mg"},{"bike_id":"6189731a-6ad3-4dd8-81b0-37923a566591","system_id":"levelo_inurba_marseille","lat":43.26069,"lon":5.39364,"is_reserved":false,"is_disabled":false,"rental_uris":{"android":"levelo://app?vid=6189731a-6ad3-4dd8-81b0-37923a566591","ios":"levelo://app?vid=6189731a-6ad3-4dd8-81b0-37923a566591"},"vehicle_type_id":"4","last_reported":1741298915,"current_range_meters":6800,"station_id":"ce4bhh92rcd13ifvqfj0","pricing_plan_id":"cebpf4jnsgd1na2vs0mg"},{"bike_id":"75ffd1a1-34ea-4830-9f64-1e682b9c9a97","system_id":"levelo_inurba_marseille","lat":43.26495,"lon":5.39537,"is_reserved":false,"is_disabled":false,"rental_uris":{"android":"levelo://app?vid=75ffd1a1-34ea-4830-9f64-1e682b9c9a97","ios":"levelo://app?vid=75ffd1a1-34ea-4830-9f64-1e682b9c9a97"},"vehicle_type_id":"4","last_reported":1741298915,"current_range_meters":6800,"station_id":"ce4bhi12rcd13ifvqfq0","pricing_plan_id":"cebpf4jnsgd1na2vs0mg"},{"bike_id":"50ef45ed-3c4c-476d-bdb8-f0f24a94b687","system_id":"levelo_inurba_marseille","lat":43.24666,"lon":5.38168,"is_reserved":false,"is_disabled":false,"rental_uris":{"android":"levelo://app?vid=50ef45ed-3c4c-476d-bdb8-f0f24a94b687","ios":"levelo://app?vid=50ef45ed-3c4c-476d-bdb8-f0f24a94b687"},"vehicle_type_id":"4","last_reported":1741298915,"current_range_meters":6800,"station_id":"ce4bhih2rcd13ifvqfr0","pricing_plan_id":"cebpf4jnsgd1na2vs0mg"},{"bike_id":"d2fd960f-0af3-4bf9-bd6a-b0c4aa4544af","system_id":"levelo_inurba_marseille","lat":43.232,"lon":5.39984,"is_reserved":false,"is_disabled":false,"rental_uris":{"android":"levelo://app?vid=d2fd960f-0af3-4bf9-bd6a-b0c4aa4544af","ios":"levelo://app?vid=d2fd960f-0af3-4bf9-bd6a-b0c4aa4544af"},"vehicle_type_id":"4","last_reported":1741298915,"current_range_meters":7200,"station_id":"ce4bhn12rcd13ifvqgqg","pricing_plan_id":"cebpf4jnsgd1na2vs0mg"},{"bike_id":"b128a848-1fbe-452d-aa99-802041786fec","system_id":"levelo_inurba_marseille","lat":43.29554,"lon":5.42291,"is_reserved":false,"is_disabled":false,"rental_uris":{"android":"levelo://app?vid=b128a848-1fbe-452d-aa99-802041786fec","ios":"levelo://app?vid=b128a848-1fbe-452d-aa99-802041786fec"},"vehicle_type_id":"4","last_reported":1741298915,"current_range_meters":7200,"station_id":"ce4bhph2rcd13ifvqhdg","pricing_plan_id":"cebpf4jnsgd1na2vs0mg"},{"bike_id":"7bdf6528-cded-4e31-bdcd-05e5503236cb","system_id":"levelo_inurba_marseille","lat":43.30797,"lon":5.4353,"is_reserved":false,"is_disabled":false,"rental_uris":{"android":"levelo://app?vid=7bdf6528-cded-4e31-bdcd-05e5503236cb","ios":"levelo://app?vid=7bdf6528-cded-4e31-bdcd-05e5503236cb"},"vehicle_type_id":"4","last_reported":1741298915,"current_range_meters":7200,"station_id":"ce4bhph2rcd13ifvqheg","pricing_plan_id":"cebpf4jnsgd1na2vs0mg"},{"bike_id":"b0c50bd3-91e3-421a-b21b-813b3034663a","system_id":"levelo_inurba_marseille","lat":43.30511,"lon":5.37159,"is_reserved":false,"is_disabled":false,"rental_uris":{"android":"levelo://app?vid=b0c50bd3-91e3-421a-b21b-813b3034663a","ios":"levelo://app?vid=b0c50bd3-91e3-421a-b21b-813b3034663a"},"vehicle_type_id":"4","last_reported":1741298915,"current_range_meters":8000,"station_id":"","pricing_plan_id":"cebpf4jnsgd1na2vs0mg"},{"bike_id":"b9485011-2907-4548-96e1-3a5903b22091","system_id":"levelo_inurba_marseille","lat":43.28701,"lon":5.37389,"is_reserved":false,"is_disabled":false,"rental_uris":{"android":"levelo://app?vid=b9485011-2907-4548-96e1-3a5903b22091","ios":"levelo://app?vid=b9485011-2907-4548-96e1-3a5903b22091"},"vehicle_type_id":"4","last_reported":1741298915,"current_range_meters":8000,"station_id":"ce4bh3p2rcd13ifvqdq0","pricing_plan_id":"cebpf4jnsgd1na2vs0mg"},{"bike_id":"bf342717-63c0-499a-a753-35e922ba7de5","system_id":"levelo_inurba_marseille","lat":43.25008,"lon":5.38925,"is_reserved":false,"is_disabled":false,"rental_uris":{"android":"levelo://app?vid=bf342717-63c0-499a-a753-35e922ba7de5","ios":"levelo://app?vid=bf342717-63c0-499a-a753-35e922ba7de5"},"vehicle_type_id":"4","last_reported":1741298915,"current_range_meters":8000,"station_id":"ce4bhgp2rcd13ifvqfd0","pricing_plan_id":"cebpf4jnsgd1na2vs0mg"},{"bike_id":"fdde8103-1f2a-4455-bcfa-e1d74ecb0194","system_id":"levelo_inurba_marseille","lat":43.27826,"lon":5.40707,"is_reserved":false,"is_disabled":false,"rental_uris":{"android":"levelo://app?vid=fdde8103-1f2a-4455-bcfa-e1d74ecb0194","ios":"levelo://app?vid=fdde8103-1f2a-4455-bcfa-e1d74ecb0194"},"vehicle_type_id":"4","last_reported":1741298915,"current_range_meters":8000,"station_id":"ce4bhnh2rcd13ifvqgtg","pricing_plan_id":"cebpf4jnsgd1na2vs0mg"},{"bike_id":"e0c0bec3-454a-410d-a60f-3aed516ec149","system_id":"levelo_inurba_marseille","lat":43.23202,"lon":5.35533,"is_reserved":false,"is_disabled":false,"rental_uris":{"android":"levelo://app?vid=e0c0bec3-454a-410d-a60f-3aed516ec149","ios":"levelo://app?vid=e0c0bec3-454a-410d-a60f-3aed516ec149"},"vehicle_type_id":"4","last_reported":1741298915,"current_range_meters":8000,"station_id":"ce4bhu92rcd13ifvqi70","pricing_plan_id":"cebpf4jnsgd1na2vs0mg"},{"bike_id":"ef97e956-481c-4cc7-9a35-76bd87314731","system_id":"levelo_inurba_marseille","lat":43.31076,"lon":5.38352,"is_reserved":false,"is_disabled":false,"rental_uris":{"android":"levelo://app?vid=ef97e956-481c-4cc7-9a35-76bd87314731","ios":"levelo://app?vid=ef97e956-481c-4cc7-9a35-76bd87314731"},"vehicle_type_id":"4","last_reported":1741298915,"current_range_meters":8400,"station_id":"ce4bgv92rcd13ifvqcr0","pricing_plan_id":"cebpf4jnsgd1na2vs0mg"},{"bike_id":"5175302d-6b4a-4bd7-b559-41881226159c","system_id":"levelo_inurba_marseille","lat":43.27373,"lon":5.36244,"is_reserved":false,"is_disabled":false,"rental_uris":{"android":"levelo://app?vid=5175302d-6b4a-4bd7-b559-41881226159c","ios":"levelo://app?vid=5175302d-6b4a-4bd7-b559-41881226159c"},"vehicle_type_id":"4","last_reported":1741298915,"current_range_meters":8400,"station_id":"ce4bhbh2rcd13ifvqeo0","pricing_plan_id":"cebpf4jnsgd1na2vs0mg"},{"bike_id":"e32e5309-5cf3-4586-ab57-38cd5f2cf148","system_id":"levelo_inurba_marseille","lat":43.244,"lon":5.37053,"is_reserved":false,"is_disabled":false,"rental_uris":{"android":"levelo://app?vid=e32e5309-5cf3-4586-ab57-38cd5f2cf148","ios":"levelo://app?vid=e32e5309-5cf3-4586-ab57-38cd5f2cf148"},"vehicle_type_id":"4","last_reported":1741298915,"current_range_meters":8400,"station_id":"ce4bhhh2rcd13ifvqfk0","pricing_plan_id":"cebpf4jnsgd1na2vs0mg"},{"bike_id":"4cd2ed9c-f121-4bbd-85a4-47d0684e71f9","system_id":"levelo_inurba_marseille","lat":43.27177,"lon":5.40988,"is_reserved":false,"is_disabled":false,"rental_uris":{"android":"levelo://app?vid=4cd2ed9c-f121-4bbd-85a4-47d0684e71f9","ios":"levelo://app?vid=4cd2ed9c-f121-4bbd-85a4-47d0684e71f9"},"vehicle_type_id":"4","last_reported":1741298915,"current_range_meters":8400,"station_id":"ce4bhl12rcd13ifvqgf0","pricing_plan_id":"cebpf4jnsgd1na2vs0mg"},{"bike_id":"fd58e227-be2e-4eff-a5f3-1890c8f37b75","system_id":"levelo_inurba_marseille","lat":43.2511,"lon":5.40323,"is_reserved":false,"is_disabled":false,"rental_uris":{"android":"levelo://app?vid=fd58e227-be2e-4eff-a5f3-1890c8f37b75","ios":"levelo://app?vid=fd58e227-be2e-4eff-a5f3-1890c8f37b75"},"vehicle_type_id":"4","last_reported":1741298915,"current_range_meters":8400,"station_id":"ce4bhlh2rcd13ifvqgig","pricing_plan_id":"cebpf4jnsgd1na2vs0mg"},{"bike_id":"fd570e3e-777b-4122-9306-c335bf003eb6","system_id":"levelo_inurba_marseille","lat":43.23188,"lon":5.39982,"is_reserved":false,"is_disabled":false,"rental_uris":{"android":"levelo://app?vid=fd570e3e-777b-4122-9306-c335bf003eb6","ios":"levelo://app?vid=fd570e3e-777b-4122-9306-c335bf003eb6"},"vehicle_type_id":"4","last_reported":1741298915,"current_range_meters":8400,"station_id":"ce4bhn12rcd13ifvqgqg","pricing_plan_id":"cebpf4jnsgd1na2vs0mg"},{"bike_id":"6152b505-bdaa-4154-9904-8e28b1c35e0b","system_id":"levelo_inurba_marseille","lat":43.27807,"lon":5.40772,"is_reserved":false,"is_disabled":false,"rental_uris":{"android":"levelo://app?vid=6152b505-bdaa-4154-9904-8e28b1c35e0b","ios":"levelo://app?vid=6152b505-bdaa-4154-9904-8e28b1c35e0b"},"vehicle_type_id":"4","last_reported":1741298915,"current_range_meters":8400,"station_id":"ce4bhnh2rcd13ifvqgtg","pricing_plan_id":"cebpf4jnsgd1na2vs0mg"},{"bike_id":"f2b6d3da-7378-45c5-9a38-ba6eefa96bac","system_id":"levelo_inurba_marseille","lat":43.32452,"lon":5.41589,"is_reserved":false,"is_disabled":false,"rental_uris":{"android":"levelo://app?vid=f2b6d3da-7378-45c5-9a38-ba6eefa96bac","ios":"levelo://app?vid=f2b6d3da-7378-45c5-9a38-ba6eefa96bac"},"vehicle_type_id":"4","last_reported":1741298915,"current_range_meters":8800,"station_id":"","pricing_plan_id":"cebpf4jnsgd1na2vs0mg"},{"bike_id":"091cbb18-5206-4eca-a04d-f23ba133a5cd","system_id":"levelo_inurba_marseille","lat":43.28102,"lon":5.39864,"is_reserved":false,"is_disabled":false,"rental_uris":{"android":"levelo://app?vid=091cbb18-5206-4eca-a04d-f23ba133a5cd","ios":"levelo://app?vid=091cbb18-5206-4eca-a04d-f23ba133a5cd"},"vehicle_type_id":"4","last_reported":1741298915,"current_range_meters":8800,"station_id":"","pricing_plan_id":"cebpf4jnsgd1na2vs0mg"},{"bike_id":"81220ab9-fb8e-4638-a084-692a6595df85","system_id":"levelo_inurba_marseille","lat":43.261879,"lon":5.420719,"is_reserved":false,"is_disabled":false,"rental_uris":{"android":"levelo://app?vid=81220ab9-fb8e-4638-a084-692a6595df85","ios":"levelo://app?vid=81220ab9-fb8e-4638-a084-692a6595df85"},"vehicle_type_id":"4","last_reported":1741298915,"current_range_meters":8800,"station_id":"","pricing_plan_id":"cebpf4jnsgd1na2vs0mg"},{"bike_id":"c0072bab-b222-4e9f-accd-57256ae4969a","system_id":"levelo_inurba_marseille","lat":43.3095,"lon":5.39031,"is_reserved":false,"is_disabled":false,"rental_uris":{"android":"levelo://app?vid=c0072bab-b222-4e9f-accd-57256ae4969a","ios":"levelo://app?vid=c0072bab-b222-4e9f-accd-57256ae4969a"},"vehicle_type_id":"4","last_reported":1741298915,"current_range_meters":8800,"station_id":"ce4bgup2rcd13ifvqco0","pricing_plan_id":"cebpf4jnsgd1na2vs0mg"},{"bike_id":"2886e8ce-8295-457e-aa05-530bbdb6c747","system_id":"levelo_inurba_marseille","lat":43.3117,"lon":5.38727,"is_reserved":false,"is_disabled":false,"rental_uris":{"android":"levelo://app?vid=2886e8ce-8295-457e-aa05-530bbdb6c747","ios":"levelo://app?vid=2886e8ce-8295-457e-aa05-530bbdb6c747"},"vehicle_type_id":"4","last_reported":1741298915,"current_range_meters":8800,"station_id":"ce4bgv12rcd13ifvqcp0","pricing_plan_id":"cebpf4jnsgd1na2vs0mg"},{"bike_id":"3c5e0350-07a6-4d3d-b526-00ffb41b6d3e","system_id":"levelo_inurba_marseille","lat":43.27948,"lon":5.41042,"is_reserved":false,"is_disabled":false,"rental_uris":{"android":"levelo://app?vid=3c5e0350-07a6-4d3d-b526-00ffb41b6d3e","ios":"levelo://app?vid=3c5e0350-07a6-4d3d-b526-00ffb41b6d3e"},"vehicle_type_id":"4","last_reported":1741298915,"current_range_meters":8800,"station_id":"ce4bhnp2rcd13ifvqh0g","pricing_plan_id":"cebpf4jnsgd1na2vs0mg"},{"bike_id":"32d1f900-0344-4b56-aaa5-564d19ec802c","system_id":"levelo_inurba_marseille","lat":43.27945,"lon":5.41037,"is_reserved":false,"is_disabled":false,"rental_uris":{"android":"levelo://app?vid=32d1f900-0344-4b56-aaa5-564d19ec802c","ios":"levelo://app?vid=32d1f900-0344-4b56-aaa5-564d19ec802c"},"vehicle_type_id":"4","last_reported":1741298915,"current_range_meters":8800,"station_id":"ce4bhnp2rcd13ifvqh0g","pricing_plan_id":"cebpf4jnsgd1na2vs0mg"},{"bike_id":"12c6fc39-9ff9-460f-95fd-76f0d4d1091c","system_id":"levelo_inurba_marseille","lat":43.299,"lon":5.43646,"is_reserved":false,"is_disabled":false,"rental_uris":{"android":"levelo://app?vid=12c6fc39-9ff9-460f-95fd-76f0d4d1091c","ios":"levelo://app?vid=12c6fc39-9ff9-460f-95fd-76f0d4d1091c"},"vehicle_type_id":"4","last_reported":1741298915,"current_range_meters":8800,"station_id":"ce4bhpp2rcd13ifvqhfg","pricing_plan_id":"cebpf4jnsgd1na2vs0mg"},{"bike_id":"7f1905bf-da4d-4f13-af14-c5d46804e585","system_id":"levelo_inurba_marseille","lat":43.23183,"lon":5.35561,"is_reserved":false,"is_disabled":false,"rental_uris":{"android":"levelo://app?vid=7f1905bf-da4d-4f13-af14-c5d46804e585","ios":"levelo://app?vid=7f1905bf-da4d-4f13-af14-c5d46804e585"},"vehicle_type_id":"4","last_reported":1741298915,"current_range_meters":8800,"station_id":"ce4bhu92rcd13ifvqi70","pricing_plan_id":"cebpf4jnsgd1na2vs0mg"},{"bike_id":"c5d9a748-fb84-4751-9008-dc4467d9ed9a","system_id":"levelo_inurba_marseille","lat":43.23198,"lon":5.3555,"is_reserved":false,"is_disabled":false,"rental_uris":{"android":"levelo://app?vid=c5d9a748-fb84-4751-9008-dc4467d9ed9a","ios":"levelo://app?vid=c5d9a748-fb84-4751-9008-dc4467d9ed9a"},"vehicle_type_id":"4","last_reported":1741298915,"current_range_meters":8800,"station_id":"ce4bhu92rcd13ifvqi70","pricing_plan_id":"cebpf4jnsgd1na2vs0mg"},{"bike_id":"26d2696b-f894-454f-9934-59cabb72aea4","system_id":"levelo_inurba_marseille","lat":43.27373,"lon":5.36255,"is_reserved":false,"is_disabled":false,"rental_uris":{"android":"levelo://app?vid=26d2696b-f894-454f-9934-59cabb72aea4","ios":"levelo://app?vid=26d2696b-f894-454f-9934-59cabb72aea4"},"vehicle_type_id":"4","last_reported":1741298915,"current_range_meters":9200,"station_id":"ce4bhbh2rcd13ifvqeo0","pricing_plan_id":"cebpf4jnsgd1na2vs0mg"},{"bike_id":"c262f8cf-6400-4efd-af91-c8aabadab203","system_id":"levelo_inurba_marseille","lat":43.23213,"lon":5.39977,"is_reserved":false,"is_disabled":false,"rental_uris":{"android":"levelo://app?vid=c262f8cf-6400-4efd-af91-c8aabadab203","ios":"levelo://app?vid=c262f8cf-6400-4efd-af91-c8aabadab203"},"vehicle_type_id":"4","last_reported":1741298915,"current_range_meters":9200,"station_id":"ce4bhn12rcd13ifvqgqg","pricing_plan_id":"cebpf4jnsgd1na2vs0mg"},{"bike_id":"a6a152b5-8aab-4c82-b82d-e07034bbdf6f","system_id":"levelo_inurba_marseille","lat":43.29902,"lon":5.43655,"is_reserved":false,"is_disabled":false,"rental_uris":{"android":"levelo://app?vid=a6a152b5-8aab-4c82-b82d-e07034bbdf6f","ios":"levelo://app?vid=a6a152b5-8aab-4c82-b82d-e07034bbdf6f"},"vehicle_type_id":"4","last_reported":1741298915,"current_range_meters":9200,"station_id":"ce4bhpp2rcd13ifvqhfg","pricing_plan_id":"cebpf4jnsgd1na2vs0mg"},{"bike_id":"1b34c58c-f011-43f3-baac-47c6cf7523c0","system_id":"levelo_inurba_marseille","lat":43.29914,"lon":5.43624,"is_reserved":false,"is_disabled":false,"rental_uris":{"android":"levelo://app?vid=1b34c58c-f011-43f3-baac-47c6cf7523c0","ios":"levelo://app?vid=1b34c58c-f011-43f3-baac-47c6cf7523c0"},"vehicle_type_id":"4","last_reported":1741298915,"current_range_meters":9200,"station_id":"ce4bhpp2rcd13ifvqhfg","pricing_plan_id":"cebpf4jnsgd1na2vs0mg"},{"bike_id":"4a98e95e-8dd5-40fe-8abe-d72b10badfae","system_id":"levelo_inurba_marseille","lat":43.31359,"lon":5.38491,"is_reserved":false,"is_disabled":false,"rental_uris":{"android":"levelo://app?vid=4a98e95e-8dd5-40fe-8abe-d72b10badfae","ios":"levelo://app?vid=4a98e95e-8dd5-40fe-8abe-d72b10badfae"},"vehicle_type_id":"4","last_reported":1741298915,"current_range_meters":9600,"station_id":"ce4bgt92rcd13ifvqcf0","pricing_plan_id":"cebpf4jnsgd1na2vs0mg"},{"bike_id":"6016bdb3-4e9f-416b-88df-1ab71f5d0176","system_id":"levelo_inurba_marseille","lat":43.31312,"lon":5.39734,"is_reserved":false,"is_disabled":false,"rental_uris":{"android":"levelo://app?vid=6016bdb3-4e9f-416b-88df-1ab71f5d0176","ios":"levelo://app?vid=6016bdb3-4e9f-416b-88df-1ab71f5d0176"},"vehicle_type_id":"4","last_reported":1741298915,"current_range_meters":9600,"station_id":"ce4bgvp2rcd13ifvqcu0","pricing_plan_id":"cebpf4jnsgd1na2vs0mg"},{"bike_id":"c02718d2-20cf-4c51-b231-08ba621c84d3","system_id":"levelo_inurba_marseille","lat":43.27828,"lon":5.40697,"is_reserved":false,"is_disabled":false,"rental_uris":{"android":"levelo://app?vid=c02718d2-20cf-4c51-b231-08ba621c84d3","ios":"levelo://app?vid=c02718d2-20cf-4c51-b231-08ba621c84d3"},"vehicle_type_id":"4","last_reported":1741298915,"current_range_meters":9600,"station_id":"ce4bhnh2rcd13ifvqgtg","pricing_plan_id":"cebpf4jnsgd1na2vs0mg"},{"bike_id":"d9b4e821-0c42-42c8-b88c-ec7f1d7ab942","system_id":"levelo_inurba_marseille","lat":43.24087,"lon":5.37752,"is_reserved":false,"is_disabled":false,"rental_uris":{"android":"levelo://app?vid=d9b4e821-0c42-42c8-b88c-ec7f1d7ab942","ios":"levelo://app?vid=d9b4e821-0c42-42c8-b88c-ec7f1d7ab942"},"vehicle_type_id":"4","last_reported":1741298915,"current_range_meters":9600,"station_id":"ce4bhnp2rcd13ifvqgvg","pricing_plan_id":"cebpf4jnsgd1na2vs0mg"},{"bike_id":"f927a9c8-5d84-472f-b8fd-88f2fc3bc3e6","system_id":"levelo_inurba_marseille","lat":43.299023,"lon":5.436644,"is_reserved":false,"is_disabled":false,"rental_uris":{"android":"levelo://app?vid=f927a9c8-5d84-472f-b8fd-88f2fc3bc3e6","ios":"levelo://app?vid=f927a9c8-5d84-472f-b8fd-88f2fc3bc3e6"},"vehicle_type_id":"4","last_reported":1741298915,"current_range_meters":9600,"station_id":"ce4bhpp2rcd13ifvqhfg","pricing_plan_id":"cebpf4jnsgd1na2vs0mg"},{"bike_id":"7687dc95-b3d7-47a4-af9c-02eb3d244c2f","system_id":"levelo_inurba_marseille","lat":43.32338,"lon":5.40621,"is_reserved":false,"is_disabled":false,"rental_uris":{"android":"levelo://app?vid=7687dc95-b3d7-47a4-af9c-02eb3d244c2f","ios":"levelo://app?vid=7687dc95-b3d7-47a4-af9c-02eb3d244c2f"},"vehicle_type_id":"4","last_reported":1741298915,"current_range_meters":9600,"station_id":"ce4bhq92rcd13ifvqhjg","pricing_plan_id":"cebpf4jnsgd1na2vs0mg"},{"bike_id":"db630754-fd4e-4326-b7b5-61471a5b29a8","system_id":"levelo_inurba_marseille","lat":43.35548,"lon":5.35737,"is_reserved":false,"is_disabled":false,"rental_uris":{"android":"levelo://app?vid=db630754-fd4e-4326-b7b5-61471a5b29a8","ios":"levelo://app?vid=db630754-fd4e-4326-b7b5-61471a5b29a8"},"vehicle_type_id":"4","last_reported":1741298915,"current_range_meters":10000,"station_id":"","pricing_plan_id":"cebpf4jnsgd1na2vs0mg"},{"bike_id":"23fd01b3-a5b9-4def-8318-003ef97cf778","system_id":"levelo_inurba_marseille","lat":43.312877,"lon":5.37758,"is_reserved":false,"is_disabled":false,"rental_uris":{"android":"levelo://app?vid=23fd01b3-a5b9-4def-8318-003ef97cf778","ios":"levelo://app?vid=23fd01b3-a5b9-4def-8318-003ef97cf778"},"vehicle_type_id":"4","last_reported":1741298915,"current_range_meters":10000,"station_id":"","pricing_plan_id":"cebpf4jnsgd1na2vs0mg"},{"bike_id":"8e4cfc41-ff93-4b6b-91cf-7554d886150a","system_id":"levelo_inurba_marseille","lat":43.308068,"lon":5.381453,"is_reserved":false,"is_disabled":false,"rental_uris":{"android":"levelo://app?vid=8e4cfc41-ff93-4b6b-91cf-7554d886150a","ios":"levelo://app?vid=8e4cfc41-ff93-4b6b-91cf-7554d886150a"},"vehicle_type_id":"4","last_reported":1741298915,"current_range_meters":10000,"station_id":"ce4bgt12rcd13ifvqce0","pricing_plan_id":"cebpf4jnsgd1na2vs0mg"},{"bike_id":"3dd20953-9997-480b-bece-8aaecefc5109","system_id":"levelo_inurba_marseille","lat":43.26686,"lon":5.38271,"is_reserved":false,"is_disabled":false,"rental_uris":{"android":"levelo://app?vid=3dd20953-9997-480b-bece-8aaecefc5109","ios":"levelo://app?vid=3dd20953-9997-480b-bece-8aaecefc5109"},"vehicle_type_id":"4","last_reported":1741298915,"current_range_meters":10000,"station_id":"ce4bhg92rcd13ifvqf90","pricing_plan_id":"cebpf4jnsgd1na2vs0mg"},{"bike_id":"4e71c0f9-d48c-46c2-82e0-124f3e2a9638","system_id":"levelo_inurba_marseille","lat":43.24679,"lon":5.38141,"is_reserved":false,"is_disabled":false,"rental_uris":{"android":"levelo://app?vid=4e71c0f9-d48c-46c2-82e0-124f3e2a9638","ios":"levelo://app?vid=4e71c0f9-d48c-46c2-82e0-124f3e2a9638"},"vehicle_type_id":"4","last_reported":1741298915,"current_range_meters":10000,"station_id":"ce4bhih2rcd13ifvqfr0","pricing_plan_id":"cebpf4jnsgd1na2vs0mg"},{"bike_id":"b2c94af5-bdff-4efc-819d-12cc6aa4c843","system_id":"levelo_inurba_marseille","lat":43.24076,"lon":5.37754,"is_reserved":false,"is_disabled":false,"rental_uris":{"android":"levelo://app?vid=b2c94af5-bdff-4efc-819d-12cc6aa4c843","ios":"levelo://app?vid=b2c94af5-bdff-4efc-819d-12cc6aa4c843"},"vehicle_type_id":"4","last_reported":1741298915,"current_range_meters":10000,"station_id":"ce4bhnp2rcd13ifvqgvg","pricing_plan_id":"cebpf4jnsgd1na2vs0mg"},{"bike_id":"cad74eb9-7c68-4ac1-939e-6bfa8649e028","system_id":"levelo_inurba_marseille","lat":43.2799,"lon":5.4001,"is_reserved":false,"is_disabled":false,"rental_uris":{"android":"levelo://app?vid=cad74eb9-7c68-4ac1-939e-6bfa8649e028","ios":"levelo://app?vid=cad74eb9-7c68-4ac1-939e-6bfa8649e028"},"vehicle_type_id":"4","last_reported":1741298915,"current_range_meters":10000,"station_id":"ce4bho92rcd13ifvqh4g","pricing_plan_id":"cebpf4jnsgd1na2vs0mg"},{"bike_id":"357f6b0d-7429-4870-b5b1-c540923d954d","system_id":"levelo_inurba_marseille","lat":43.230702,"lon":5.354889,"is_reserved":false,"is_disabled":false,"rental_uris":{"android":"levelo://app?vid=357f6b0d-7429-4870-b5b1-c540923d954d","ios":"levelo://app?vid=357f6b0d-7429-4870-b5b1-c540923d954d"},"vehicle_type_id":"4","last_reported":1741298915,"current_range_meters":10000,"station_id":"cpo3342slgdg3j2ifvpg","pricing_plan_id":"cebpf4jnsgd1na2vs0mg"},{"bike_id":"159ab203-8ab4-41aa-9237-39341a831ed1","system_id":"levelo_inurba_marseille","lat":43.31106,"lon":5.37771,"is_reserved":false,"is_disabled":false,"rental_uris":{"android":"levelo://app?vid=159ab203-8ab4-41aa-9237-39341a831ed1","ios":"levelo://app?vid=159ab203-8ab4-41aa-9237-39341a831ed1"},"vehicle_type_id":"4","last_reported":1741298915,"current_range_meters":10800,"station_id":"ce4bgt92rcd13ifvqcg0","pricing_plan_id":"cebpf4jnsgd1na2vs0mg"},{"bike_id":"64a3002c-ffb2-41dd-b4e4-ca5461991731","system_id":"levelo_inurba_marseille","lat":43.28942,"lon":5.3963,"is_reserved":false,"is_disabled":false,"rental_uris":{"android":"levelo://app?vid=64a3002c-ffb2-41dd-b4e4-ca5461991731","ios":"levelo://app?vid=64a3002c-ffb2-41dd-b4e4-ca5461991731"},"vehicle_type_id":"4","last_reported":1741298915,"current_range_meters":10800,"station_id":"ce4bh3h2rcd13ifvqdn0","pricing_plan_id":"cebpf4jnsgd1na2vs0mg"},{"bike_id":"ff7bf805-56be-4b38-8b82-9ba57a872519","system_id":"levelo_inurba_marseille","lat":43.28157,"lon":5.42648,"is_reserved":false,"is_disabled":false,"rental_uris":{"android":"levelo://app?vid=ff7bf805-56be-4b38-8b82-9ba57a872519","ios":"levelo://app?vid=ff7bf805-56be-4b38-8b82-9ba57a872519"},"vehicle_type_id":"4","last_reported":1741298915,"current_range_meters":10800,"station_id":"ce4bhnh2rcd13ifvqgug","pricing_plan_id":"cebpf4jnsgd1na2vs0mg"},{"bike_id":"93bf5a61-b8a8-49cd-8b33-574a28d9bdf3","system_id":"levelo_inurba_marseille","lat":43.24063,"lon":5.37756,"is_reserved":false,"is_disabled":false,"rental_uris":{"android":"levelo://app?vid=93bf5a61-b8a8-49cd-8b33-574a28d9bdf3","ios":"levelo://app?vid=93bf5a61-b8a8-49cd-8b33-574a28d9bdf3"},"vehicle_type_id":"4","last_reported":1741298915,"current_range_meters":10800,"station_id":"ce4bhnp2rcd13ifvqgvg","pricing_plan_id":"cebpf4jnsgd1na2vs0mg"},{"bike_id":"b18626e6-817b-48d6-b0c4-0b9f64a34555","system_id":"levelo_inurba_marseille","lat":43.32659,"lon":5.40996,"is_reserved":false,"is_disabled":false,"rental_uris":{"android":"levelo://app?vid=b18626e6-817b-48d6-b0c4-0b9f64a34555","ios":"levelo://app?vid=b18626e6-817b-48d6-b0c4-0b9f64a34555"},"vehicle_type_id":"4","last_reported":1741298915,"current_range_meters":10800,"station_id":"ce4bhpp2rcd13ifvqhgg","pricing_plan_id":"cebpf4jnsgd1na2vs0mg"},{"bike_id":"ca12585f-73af-4492-8c7b-b40081c4d639","system_id":"levelo_inurba_marseille","lat":43.30589,"lon":5.37135,"is_reserved":false,"is_disabled":false,"rental_uris":{"android":"levelo://app?vid=ca12585f-73af-4492-8c7b-b40081c4d639","ios":"levelo://app?vid=ca12585f-73af-4492-8c7b-b40081c4d639"},"vehicle_type_id":"4","last_reported":1741298915,"current_range_meters":11200,"station_id":"","pricing_plan_id":"cebpf4jnsgd1na2vs0mg"},{"bike_id":"549f0e20-712f-455b-8868-0f3f9588d3f7","system_id":"levelo_inurba_marseille","lat":43.23184,"lon":5.39984,"is_reserved":false,"is_disabled":false,"rental_uris":{"android":"levelo://app?vid=549f0e20-712f-455b-8868-0f3f9588d3f7","ios":"levelo://app?vid=549f0e20-712f-455b-8868-0f3f9588d3f7"},"vehicle_type_id":"4","last_reported":1741298915,"current_range_meters":11200,"station_id":"ce4bhn12rcd13ifvqgqg","pricing_plan_id":"cebpf4jnsgd1na2vs0mg"},{"bike_id":"d015e1e7-8b4f-4898-a841-104d62c0d9ad","system_id":"levelo_inurba_marseille","lat":43.23183,"lon":5.39986,"is_reserved":false,"is_disabled":false,"rental_uris":{"android":"levelo://app?vid=d015e1e7-8b4f-4898-a841-104d62c0d9ad","ios":"levelo://app?vid=d015e1e7-8b4f-4898-a841-104d62c0d9ad"},"vehicle_type_id":"4","last_reported":1741298915,"current_range_meters":11200,"station_id":"ce4bhn12rcd13ifvqgqg","pricing_plan_id":"cebpf4jnsgd1na2vs0mg"},{"bike_id":"2d340159-37c8-41dc-a62f-ca06729e55bc","system_id":"levelo_inurba_marseille","lat":43.32366,"lon":5.36789,"is_reserved":false,"is_disabled":false,"rental_uris":{"android":"levelo://app?vid=2d340159-37c8-41dc-a62f-ca06729e55bc","ios":"levelo://app?vid=2d340159-37c8-41dc-a62f-ca06729e55bc"},"vehicle_type_id":"4","last_reported":1741298915,"current_range_meters":11200,"station_id":"ce4bhsh2rcd13ifvqi2g","pricing_plan_id":"cebpf4jnsgd1na2vs0mg"},{"bike_id":"47b1c164-33c7-4340-b460-373aba354cd3","system_id":"levelo_inurba_marseille","lat":43.31067,"lon":5.38363,"is_reserved":false,"is_disabled":false,"rental_uris":{"android":"levelo://app?vid=47b1c164-33c7-4340-b460-373aba354cd3","ios":"levelo://app?vid=47b1c164-33c7-4340-b460-373aba354cd3"},"vehicle_type_id":"4","last_reported":1741298915,"current_range_meters":11600,"station_id":"ce4bgv92rcd13ifvqcr0","pricing_plan_id":"cebpf4jnsgd1na2vs0mg"},{"bike_id":"c16ccb51-1ff7-4b93-8e4d-d5c1c6809677","system_id":"levelo_inurba_marseille","lat":43.30416,"lon":5.41277,"is_reserved":false,"is_disabled":false,"rental_uris":{"android":"levelo://app?vid=c16ccb51-1ff7-4b93-8e4d-d5c1c6809677","ios":"levelo://app?vid=c16ccb51-1ff7-4b93-8e4d-d5c1c6809677"},"vehicle_type_id":"4","last_reported":1741298915,"current_range_meters":11600,"station_id":"ce4bhop2rcd13ifvqh8g","pricing_plan_id":"cebpf4jnsgd1na2vs0mg"},{"bike_id":"faff12f7-871d-4329-bcf6-070ee96b2582","system_id":"levelo_inurba_marseille","lat":43.32045,"lon":5.41562,"is_reserved":false,"is_disabled":false,"rental_uris":{"android":"levelo://app?vid=faff12f7-871d-4329-bcf6-070ee96b2582","ios":"levelo://app?vid=faff12f7-871d-4329-bcf6-070ee96b2582"},"vehicle_type_id":"4","last_reported":1741298915,"current_range_meters":11600,"station_id":"ce4bhq92rcd13ifvqhkg","pricing_plan_id":"cebpf4jnsgd1na2vs0mg"},{"bike_id":"9f0f0224-b72b-4ee3-a38d-b5ba80204629","system_id":"levelo_inurba_marseille","lat":43.23188,"lon":5.35556,"is_reserved":false,"is_disabled":false,"rental_uris":{"android":"levelo://app?vid=9f0f0224-b72b-4ee3-a38d-b5ba80204629","ios":"levelo://app?vid=9f0f0224-b72b-4ee3-a38d-b5ba80204629"},"vehicle_type_id":"4","last_reported":1741298915,"current_range_meters":11600,"station_id":"ce4bhu92rcd13ifvqi70","pricing_plan_id":"cebpf4jnsgd1na2vs0mg"},{"bike_id":"5257c241-b88d-44c6-af8c-d7ff6694faf5","system_id":"levelo_inurba_marseille","lat":43.31289,"lon":5.40163,"is_reserved":false,"is_disabled":false,"rental_uris":{"android":"levelo://app?vid=5257c241-b88d-44c6-af8c-d7ff6694faf5","ios":"levelo://app?vid=5257c241-b88d-44c6-af8c-d7ff6694faf5"},"vehicle_type_id":"4","last_reported":1741298915,"current_range_meters":12000,"station_id":"ce4bh092rcd13ifvqd30","pricing_plan_id":"cebpf4jnsgd1na2vs0mg"},{"bike_id":"be9b83a6-6264-4fb1-973d-988ca67efbc5","system_id":"levelo_inurba_marseille","lat":43.28937,"lon":5.36641,"is_reserved":false,"is_disabled":false,"rental_uris":{"android":"levelo://app?vid=be9b83a6-6264-4fb1-973d-988ca67efbc5","ios":"levelo://app?vid=be9b83a6-6264-4fb1-973d-988ca67efbc5"},"vehicle_type_id":"4","last_reported":1741298915,"current_range_meters":12000,"station_id":"ce4bhap2rcd13ifvqek0","pricing_plan_id":"cebpf4jnsgd1na2vs0mg"},{"bike_id":"34aa14cc-09e2-478d-a4d8-f2c0b44526ae","system_id":"levelo_inurba_marseille","lat":43.26225,"lon":5.40452,"is_reserved":false,"is_disabled":false,"rental_uris":{"android":"levelo://app?vid=34aa14cc-09e2-478d-a4d8-f2c0b44526ae","ios":"levelo://app?vid=34aa14cc-09e2-478d-a4d8-f2c0b44526ae"},"vehicle_type_id":"4","last_reported":1741298915,"current_range_meters":12000,"station_id":"ce4bhmh2rcd13ifvqgmg","pricing_plan_id":"cebpf4jnsgd1na2vs0mg"},{"bike_id":"72b2c94b-f07a-43ce-9b67-7b7b6c9a789a","system_id":"levelo_inurba_marseille","lat":43.30794,"lon":5.43525,"is_reserved":false,"is_disabled":false,"rental_uris":{"android":"levelo://app?vid=72b2c94b-f07a-43ce-9b67-7b7b6c9a789a","ios":"levelo://app?vid=72b2c94b-f07a-43ce-9b67-7b7b6c9a789a"},"vehicle_type_id":"4","last_reported":1741298915,"current_range_meters":12000,"station_id":"ce4bhph2rcd13ifvqheg","pricing_plan_id":"cebpf4jnsgd1na2vs0mg"},{"bike_id":"03b2a53b-cd6d-4353-957f-2760b29c52f8","system_id":"levelo_inurba_marseille","lat":43.28422,"lon":5.34989,"is_reserved":false,"is_disabled":false,"rental_uris":{"android":"levelo://app?vid=03b2a53b-cd6d-4353-957f-2760b29c52f8","ios":"levelo://app?vid=03b2a53b-cd6d-4353-957f-2760b29c52f8"},"vehicle_type_id":"4","last_reported":1741298915,"current_range_meters":12400,"station_id":"ce4bhbh2rcd13ifvqepg","pricing_plan_id":"cebpf4jnsgd1na2vs0mg"},{"bike_id":"2b1de8ba-6297-479a-97e0-c4ffcb43060b","system_id":"levelo_inurba_marseille","lat":43.23191,"lon":5.39967,"is_reserved":false,"is_disabled":false,"rental_uris":{"android":"levelo://app?vid=2b1de8ba-6297-479a-97e0-c4ffcb43060b","ios":"levelo://app?vid=2b1de8ba-6297-479a-97e0-c4ffcb43060b"},"vehicle_type_id":"4","last_reported":1741298915,"current_range_meters":12400,"station_id":"ce4bhn12rcd13ifvqgqg","pricing_plan_id":"cebpf4jnsgd1na2vs0mg"},{"bike_id":"a9704b72-ff8c-435a-a67a-378330d43990","system_id":"levelo_inurba_marseille","lat":43.23182,"lon":5.39987,"is_reserved":false,"is_disabled":false,"rental_uris":{"android":"levelo://app?vid=a9704b72-ff8c-435a-a67a-378330d43990","ios":"levelo://app?vid=a9704b72-ff8c-435a-a67a-378330d43990"},"vehicle_type_id":"4","last_reported":1741298915,"current_range_meters":12400,"station_id":"ce4bhn12rcd13ifvqgqg","pricing_plan_id":"cebpf4jnsgd1na2vs0mg"},{"bike_id":"764f3258-213a-4186-b4ff-850e4e5fe869","system_id":"levelo_inurba_marseille","lat":43.30419,"lon":5.41272,"is_reserved":false,"is_disabled":false,"rental_uris":{"android":"levelo://app?vid=764f3258-213a-4186-b4ff-850e4e5fe869","ios":"levelo://app?vid=764f3258-213a-4186-b4ff-850e4e5fe869"},"vehicle_type_id":"4","last_reported":1741298915,"current_range_meters":12400,"station_id":"ce4bhop2rcd13ifvqh8g","pricing_plan_id":"cebpf4jnsgd1na2vs0mg"},{"bike_id":"42323b44-4776-4993-88db-08c90d643018","system_id":"levelo_inurba_marseille","lat":43.3008,"lon":5.37658,"is_reserved":false,"is_disabled":false,"rental_uris":{"android":"levelo://app?vid=42323b44-4776-4993-88db-08c90d643018","ios":"levelo://app?vid=42323b44-4776-4993-88db-08c90d643018"},"vehicle_type_id":"4","last_reported":1741298915,"current_range_meters":12800,"station_id":"","pricing_plan_id":"cebpf4jnsgd1na2vs0mg"},{"bike_id":"42c1b3b8-545a-4d22-b277-0800ee97f090","system_id":"levelo_inurba_marseille","lat":43.28552,"lon":5.39501,"is_reserved":false,"is_disabled":false,"rental_uris":{"android":"levelo://app?vid=42c1b3b8-545a-4d22-b277-0800ee97f090","ios":"levelo://app?vid=42c1b3b8-545a-4d22-b277-0800ee97f090"},"vehicle_type_id":"4","last_reported":1741298915,"current_range_meters":12800,"station_id":"ce4bh292rcd13ifvqdg0","pricing_plan_id":"cebpf4jnsgd1na2vs0mg"},{"bike_id":"03341ac4-86bb-44de-bc88-ab4a56fc83d3","system_id":"levelo_inurba_marseille","lat":43.2802,"lon":5.36935,"is_reserved":false,"is_disabled":false,"rental_uris":{"android":"levelo://app?vid=03341ac4-86bb-44de-bc88-ab4a56fc83d3","ios":"levelo://app?vid=03341ac4-86bb-44de-bc88-ab4a56fc83d3"},"vehicle_type_id":"4","last_reported":1741298915,"current_range_meters":12800,"station_id":"ce4bha12rcd13ifvqef0","pricing_plan_id":"cebpf4jnsgd1na2vs0mg"},{"bike_id":"46cc9b13-e53d-45c3-b03a-e66964b78e31","system_id":"levelo_inurba_marseille","lat":43.28619,"lon":5.35091,"is_reserved":false,"is_disabled":false,"rental_uris":{"android":"levelo://app?vid=46cc9b13-e53d-45c3-b03a-e66964b78e31","ios":"levelo://app?vid=46cc9b13-e53d-45c3-b03a-e66964b78e31"},"vehicle_type_id":"4","last_reported":1741298915,"current_range_meters":12800,"station_id":"ce4bhch2rcd13ifvqeug","pricing_plan_id":"cebpf4jnsgd1na2vs0mg"},{"bike_id":"5b049774-a098-4505-b8f3-7db38e5a9ff0","system_id":"levelo_inurba_marseille","lat":43.2998,"lon":5.38488,"is_reserved":false,"is_disabled":false,"rental_uris":{"android":"levelo://app?vid=5b049774-a098-4505-b8f3-7db38e5a9ff0","ios":"levelo://app?vid=5b049774-a098-4505-b8f3-7db38e5a9ff0"},"vehicle_type_id":"4","last_reported":1741298915,"current_range_meters":13600,"station_id":"ce4bgj92rcd13ifvqbd0","pricing_plan_id":"cebpf4jnsgd1na2vs0mg"},{"bike_id":"b42c696f-44fc-4a95-b986-2a34fc3990e5","system_id":"levelo_inurba_marseille","lat":43.31078,"lon":5.38349,"is_reserved":false,"is_disabled":false,"rental_uris":{"android":"levelo://app?vid=b42c696f-44fc-4a95-b986-2a34fc3990e5","ios":"levelo://app?vid=b42c696f-44fc-4a95-b986-2a34fc3990e5"},"vehicle_type_id":"4","last_reported":1741298915,"current_range_meters":13600,"station_id":"ce4bgv92rcd13ifvqcr0","pricing_plan_id":"cebpf4jnsgd1na2vs0mg"},{"bike_id":"8bd4b128-b85d-4e21-ad3f-ceffde0e548c","system_id":"levelo_inurba_marseille","lat":43.31331,"lon":5.39705,"is_reserved":false,"is_disabled":false,"rental_uris":{"android":"levelo://app?vid=8bd4b128-b85d-4e21-ad3f-ceffde0e548c","ios":"levelo://app?vid=8bd4b128-b85d-4e21-ad3f-ceffde0e548c"},"vehicle_type_id":"4","last_reported":1741298915,"current_range_meters":13600,"station_id":"ce4bgvp2rcd13ifvqcu0","pricing_plan_id":"cebpf4jnsgd1na2vs0mg"},{"bike_id":"436be741-d4f3-4d02-b014-7fb9168d5010","system_id":"levelo_inurba_marseille","lat":43.28706,"lon":5.37384,"is_reserved":false,"is_disabled":false,"rental_uris":{"android":"levelo://app?vid=436be741-d4f3-4d02-b014-7fb9168d5010","ios":"levelo://app?vid=436be741-d4f3-4d02-b014-7fb9168d5010"},"vehicle_type_id":"4","last_reported":1741298915,"current_range_meters":13600,"station_id":"ce4bh3p2rcd13ifvqdq0","pricing_plan_id":"cebpf4jnsgd1na2vs0mg"},{"bike_id":"985324b2-53ea-4df0-8c32-5d6941d2d733","system_id":"levelo_inurba_marseille","lat":43.25579,"lon":5.38222,"is_reserved":false,"is_disabled":false,"rental_uris":{"android":"levelo://app?vid=985324b2-53ea-4df0-8c32-5d6941d2d733","ios":"levelo://app?vid=985324b2-53ea-4df0-8c32-5d6941d2d733"},"vehicle_type_id":"4","last_reported":1741298915,"current_range_meters":13600,"station_id":"ce4bhih2rcd13ifvqfs0","pricing_plan_id":"cebpf4jnsgd1na2vs0mg"},{"bike_id":"388c97e9-2b47-4f58-9864-08b9dfc87f72","system_id":"levelo_inurba_marseille","lat":43.27068,"lon":5.42278,"is_reserved":false,"is_disabled":false,"rental_uris":{"android":"levelo://app?vid=388c97e9-2b47-4f58-9864-08b9dfc87f72","ios":"levelo://app?vid=388c97e9-2b47-4f58-9864-08b9dfc87f72"},"vehicle_type_id":"4","last_reported":1741298915,"current_range_meters":13600,"station_id":"ce4bhk92rcd13ifvqgb0","pricing_plan_id":"cebpf4jnsgd1na2vs0mg"},{"bike_id":"2bf9485e-de87-466c-a213-313681c6760e","system_id":"levelo_inurba_marseille","lat":43.2818,"lon":5.42616,"is_reserved":false,"is_disabled":false,"rental_uris":{"android":"levelo://app?vid=2bf9485e-de87-466c-a213-313681c6760e","ios":"levelo://app?vid=2bf9485e-de87-466c-a213-313681c6760e"},"vehicle_type_id":"4","last_reported":1741298915,"current_range_meters":13600,"station_id":"ce4bhnh2rcd13ifvqgug","pricing_plan_id":"cebpf4jnsgd1na2vs0mg"},{"bike_id":"6ea729a2-3067-45cf-8c3c-0c87ac7b42ca","system_id":"levelo_inurba_marseille","lat":43.24075,"lon":5.37764,"is_reserved":false,"is_disabled":false,"rental_uris":{"android":"levelo://app?vid=6ea729a2-3067-45cf-8c3c-0c87ac7b42ca","ios":"levelo://app?vid=6ea729a2-3067-45cf-8c3c-0c87ac7b42ca"},"vehicle_type_id":"4","last_reported":1741298915,"current_range_meters":13600,"station_id":"ce4bhnp2rcd13ifvqgvg","pricing_plan_id":"cebpf4jnsgd1na2vs0mg"},{"bike_id":"dd1656d4-1155-44af-98eb-e63022b2f728","system_id":"levelo_inurba_marseille","lat":43.31309,"lon":5.39725,"is_reserved":false,"is_disabled":false,"rental_uris":{"android":"levelo://app?vid=dd1656d4-1155-44af-98eb-e63022b2f728","ios":"levelo://app?vid=dd1656d4-1155-44af-98eb-e63022b2f728"},"vehicle_type_id":"4","last_reported":1741298915,"current_range_meters":14000,"station_id":"ce4bgvp2rcd13ifvqcu0","pricing_plan_id":"cebpf4jnsgd1na2vs0mg"},{"bike_id":"2d31bd33-7bbc-485d-a4dd-59c0e816926e","system_id":"levelo_inurba_marseille","lat":43.25819,"lon":5.39438,"is_reserved":false,"is_disabled":false,"rental_uris":{"android":"levelo://app?vid=2d31bd33-7bbc-485d-a4dd-59c0e816926e","ios":"levelo://app?vid=2d31bd33-7bbc-485d-a4dd-59c0e816926e"},"vehicle_type_id":"4","last_reported":1741298915,"current_range_meters":14000,"station_id":"ce4bhip2rcd13ifvqft0","pricing_plan_id":"cebpf4jnsgd1na2vs0mg"},{"bike_id":"a46451b2-1e2b-4408-8955-b1e18ae25868","system_id":"levelo_inurba_marseille","lat":43.25101,"lon":5.40326,"is_reserved":false,"is_disabled":false,"rental_uris":{"android":"levelo://app?vid=a46451b2-1e2b-4408-8955-b1e18ae25868","ios":"levelo://app?vid=a46451b2-1e2b-4408-8955-b1e18ae25868"},"vehicle_type_id":"4","last_reported":1741298915,"current_range_meters":14000,"station_id":"ce4bhlh2rcd13ifvqgig","pricing_plan_id":"cebpf4jnsgd1na2vs0mg"},{"bike_id":"816ec87c-26ba-415b-b02d-d75b22feb9ab","system_id":"levelo_inurba_marseille","lat":43.28626,"lon":5.35085,"is_reserved":false,"is_disabled":false,"rental_uris":{"android":"levelo://app?vid=816ec87c-26ba-415b-b02d-d75b22feb9ab","ios":"levelo://app?vid=816ec87c-26ba-415b-b02d-d75b22feb9ab"},"vehicle_type_id":"4","last_reported":1741298915,"current_range_meters":14400,"station_id":"ce4bhch2rcd13ifvqeug","pricing_plan_id":"cebpf4jnsgd1na2vs0mg"},{"bike_id":"becf5e38-2c56-4fce-862d-4abc9e5b3435","system_id":"levelo_inurba_marseille","lat":43.25109,"lon":5.40319,"is_reserved":false,"is_disabled":false,"rental_uris":{"android":"levelo://app?vid=becf5e38-2c56-4fce-862d-4abc9e5b3435","ios":"levelo://app?vid=becf5e38-2c56-4fce-862d-4abc9e5b3435"},"vehicle_type_id":"4","last_reported":1741298915,"current_range_meters":14400,"station_id":"ce4bhlh2rcd13ifvqgig","pricing_plan_id":"cebpf4jnsgd1na2vs0mg"},{"bike_id":"a37aa460-4797-4802-885f-6053c820f844","system_id":"levelo_inurba_marseille","lat":43.24074,"lon":5.37745,"is_reserved":false,"is_disabled":false,"rental_uris":{"android":"levelo://app?vid=a37aa460-4797-4802-885f-6053c820f844","ios":"levelo://app?vid=a37aa460-4797-4802-885f-6053c820f844"},"vehicle_type_id":"4","last_reported":1741298915,"current_range_meters":14400,"station_id":"ce4bhnp2rcd13ifvqgvg","pricing_plan_id":"cebpf4jnsgd1na2vs0mg"},{"bike_id":"6a1366c1-41ed-4dda-b62f-b12cda709bc4","system_id":"levelo_inurba_marseille","lat":43.32351,"lon":5.38884,"is_reserved":false,"is_disabled":false,"rental_uris":{"android":"levelo://app?vid=6a1366c1-41ed-4dda-b62f-b12cda709bc4","ios":"levelo://app?vid=6a1366c1-41ed-4dda-b62f-b12cda709bc4"},"vehicle_type_id":"4","last_reported":1741298915,"current_range_meters":14400,"station_id":"ce4bhqp2rcd13ifvqhog","pricing_plan_id":"cebpf4jnsgd1na2vs0mg"},{"bike_id":"daa48c53-c5de-46aa-94fc-655cbd710c8c","system_id":"levelo_inurba_marseille","lat":43.2295,"lon":5.35363,"is_reserved":false,"is_disabled":false,"rental_uris":{"android":"levelo://app?vid=daa48c53-c5de-46aa-94fc-655cbd710c8c","ios":"levelo://app?vid=daa48c53-c5de-46aa-94fc-655cbd710c8c"},"vehicle_type_id":"4","last_reported":1741298915,"current_range_meters":14400,"station_id":"cpo3532slgdg3j2ikp40","pricing_plan_id":"cebpf4jnsgd1na2vs0mg"},{"bike_id":"9a656207-3804-4054-b94b-21501dfd088e","system_id":"levelo_inurba_marseille","lat":43.29197,"lon":5.3933,"is_reserved":false,"is_disabled":false,"rental_uris":{"android":"levelo://app?vid=9a656207-3804-4054-b94b-21501dfd088e","ios":"levelo://app?vid=9a656207-3804-4054-b94b-21501dfd088e"},"vehicle_type_id":"4","last_reported":1741298915,"current_range_meters":14800,"station_id":"ce4bh192rcd13ifvqdd0","pricing_plan_id":"cebpf4jnsgd1na2vs0mg"},{"bike_id":"7ba6f475-e14e-4ca9-b7bb-104d3f4d83e4","system_id":"levelo_inurba_marseille","lat":43.26206,"lon":5.37447,"is_reserved":false,"is_disabled":false,"rental_uris":{"android":"levelo://app?vid=7ba6f475-e14e-4ca9-b7bb-104d3f4d83e4","ios":"levelo://app?vid=7ba6f475-e14e-4ca9-b7bb-104d3f4d83e4"},"vehicle_type_id":"4","last_reported":1741298915,"current_range_meters":14800,"station_id":"ce4bhgp2rcd13ifvqfc0","pricing_plan_id":"cebpf4jnsgd1na2vs0mg"},{"bike_id":"29a7ef0a-f85c-4141-8cf0-12947b343d5f","system_id":"levelo_inurba_marseille","lat":43.269916,"lon":5.390993,"is_reserved":false,"is_disabled":false,"rental_uris":{"android":"levelo://app?vid=29a7ef0a-f85c-4141-8cf0-12947b343d5f","ios":"levelo://app?vid=29a7ef0a-f85c-4141-8cf0-12947b343d5f"},"vehicle_type_id":"4","last_reported":1741298915,"current_range_meters":14800,"station_id":"ce4bhih2rcd13ifvqfs0","pricing_plan_id":"cebpf4jnsgd1na2vs0mg"},{"bike_id":"d0a9e0b6-7460-48af-b167-fa241d6b44c3","system_id":"levelo_inurba_marseille","lat":43.32113,"lon":5.36762,"is_reserved":false,"is_disabled":false,"rental_uris":{"android":"levelo://app?vid=d0a9e0b6-7460-48af-b167-fa241d6b44c3","ios":"levelo://app?vid=d0a9e0b6-7460-48af-b167-fa241d6b44c3"},"vehicle_type_id":"4","last_reported":1741298915,"current_range_meters":14800,"station_id":"ce4bhrh2rcd13ifvqhug","pricing_plan_id":"cebpf4jnsgd1na2vs0mg"},{"bike_id":"4a5e2f32-cd6b-487b-b519-313f7281a6fe","system_id":"levelo_inurba_marseille","lat":43.30406,"lon":5.38757,"is_reserved":false,"is_disabled":false,"rental_uris":{"android":"levelo://app?vid=4a5e2f32-cd6b-487b-b519-313f7281a6fe","ios":"levelo://app?vid=4a5e2f32-cd6b-487b-b519-313f7281a6fe"},"vehicle_type_id":"4","last_reported":1741298915,"current_range_meters":15200,"station_id":"ce4bgk12rcd13ifvqbi0","pricing_plan_id":"cebpf4jnsgd1na2vs0mg"},{"bike_id":"c05e10c0-ab92-4e55-b3d6-0f34ded537e1","system_id":"levelo_inurba_marseille","lat":43.2465,"lon":5.38891,"is_reserved":false,"is_disabled":false,"rental_uris":{"android":"levelo://app?vid=c05e10c0-ab92-4e55-b3d6-0f34ded537e1","ios":"levelo://app?vid=c05e10c0-ab92-4e55-b3d6-0f34ded537e1"},"vehicle_type_id":"4","last_reported":1741298915,"current_range_meters":15200,"station_id":"ce4bhg12rcd13ifvqf60","pricing_plan_id":"cebpf4jnsgd1na2vs0mg"},{"bike_id":"7bf9f0d9-82fb-4615-bb34-caa577f0183c","system_id":"levelo_inurba_marseille","lat":43.295258,"lon":5.385738,"is_reserved":false,"is_disabled":false,"rental_uris":{"android":"levelo://app?vid=7bf9f0d9-82fb-4615-bb34-caa577f0183c","ios":"levelo://app?vid=7bf9f0d9-82fb-4615-bb34-caa577f0183c"},"vehicle_type_id":"4","last_reported":1741298915,"current_range_meters":15200,"station_id":"ce4bho12rcd13ifvqh1g","pricing_plan_id":"cebpf4jnsgd1na2vs0mg"},{"bike_id":"6d7e0450-89ad-4e81-9f4f-61db2e3e009a","system_id":"levelo_inurba_marseille","lat":43.29898,"lon":5.43667,"is_reserved":false,"is_disabled":false,"rental_uris":{"android":"levelo://app?vid=6d7e0450-89ad-4e81-9f4f-61db2e3e009a","ios":"levelo://app?vid=6d7e0450-89ad-4e81-9f4f-61db2e3e009a"},"vehicle_type_id":"4","last_reported":1741298915,"current_range_meters":15200,"station_id":"ce4bhpp2rcd13ifvqhfg","pricing_plan_id":"cebpf4jnsgd1na2vs0mg"},{"bike_id":"cc669f9b-4f4c-45ed-8061-f9c3d4fad60c","system_id":"levelo_inurba_marseille","lat":43.311746,"lon":5.386942,"is_reserved":false,"is_disabled":false,"rental_uris":{"android":"levelo://app?vid=cc669f9b-4f4c-45ed-8061-f9c3d4fad60c","ios":"levelo://app?vid=cc669f9b-4f4c-45ed-8061-f9c3d4fad60c"},"vehicle_type_id":"4","last_reported":1741298915,"current_range_meters":16000,"station_id":"ce4bgv12rcd13ifvqcp0","pricing_plan_id":"cebpf4jnsgd1na2vs0mg"},{"bike_id":"5427557a-9453-4bf8-80a7-81bdb6d79db1","system_id":"levelo_inurba_marseille","lat":43.30787,"lon":5.37644,"is_reserved":false,"is_disabled":false,"rental_uris":{"android":"levelo://app?vid=5427557a-9453-4bf8-80a7-81bdb6d79db1","ios":"levelo://app?vid=5427557a-9453-4bf8-80a7-81bdb6d79db1"},"vehicle_type_id":"4","last_reported":1741298915,"current_range_meters":16000,"station_id":"ce4bgv92rcd13ifvqcq0","pricing_plan_id":"cebpf4jnsgd1na2vs0mg"},{"bike_id":"f0c58a90-a891-4197-bd90-e9c3b886076b","system_id":"levelo_inurba_marseille","lat":43.31076,"lon":5.38348,"is_reserved":false,"is_disabled":false,"rental_uris":{"android":"levelo://app?vid=f0c58a90-a891-4197-bd90-e9c3b886076b","ios":"levelo://app?vid=f0c58a90-a891-4197-bd90-e9c3b886076b"},"vehicle_type_id":"4","last_reported":1741298915,"current_range_meters":16000,"station_id":"ce4bgv92rcd13ifvqcr0","pricing_plan_id":"cebpf4jnsgd1na2vs0mg"},{"bike_id":"6b5389d5-1bcb-485a-9d96-982deb097bcd","system_id":"levelo_inurba_marseille","lat":43.30637,"lon":5.40076,"is_reserved":false,"is_disabled":false,"rental_uris":{"android":"levelo://app?vid=6b5389d5-1bcb-485a-9d96-982deb097bcd","ios":"levelo://app?vid=6b5389d5-1bcb-485a-9d96-982deb097bcd"},"vehicle_type_id":"4","last_reported":1741298915,"current_range_meters":16000,"station_id":"ce4bh112rcd13ifvqda0","pricing_plan_id":"cebpf4jnsgd1na2vs0mg"},{"bike_id":"99ff4a4d-52c2-4dda-9b47-0d1d11158607","system_id":"levelo_inurba_marseille","lat":43.28403,"lon":5.37524,"is_reserved":false,"is_disabled":false,"rental_uris":{"android":"levelo://app?vid=99ff4a4d-52c2-4dda-9b47-0d1d11158607","ios":"levelo://app?vid=99ff4a4d-52c2-4dda-9b47-0d1d11158607"},"vehicle_type_id":"4","last_reported":1741298915,"current_range_meters":16000,"station_id":"ce4bh412rcd13ifvqds0","pricing_plan_id":"cebpf4jnsgd1na2vs0mg"},{"bike_id":"2c861e0b-d0b8-4f92-8091-d6b0c2859052","system_id":"levelo_inurba_marseille","lat":43.28474,"lon":5.35858,"is_reserved":false,"is_disabled":false,"rental_uris":{"android":"levelo://app?vid=2c861e0b-d0b8-4f92-8091-d6b0c2859052","ios":"levelo://app?vid=2c861e0b-d0b8-4f92-8091-d6b0c2859052"},"vehicle_type_id":"4","last_reported":1741298915,"current_range_meters":16000,"station_id":"ce4bhah2rcd13ifvqei0","pricing_plan_id":"cebpf4jnsgd1na2vs0mg"},{"bike_id":"8757e7e7-19ce-4dd4-9891-18e53b43f3ca","system_id":"levelo_inurba_marseille","lat":43.29004,"lon":5.35613,"is_reserved":false,"is_disabled":false,"rental_uris":{"android":"levelo://app?vid=8757e7e7-19ce-4dd4-9891-18e53b43f3ca","ios":"levelo://app?vid=8757e7e7-19ce-4dd4-9891-18e53b43f3ca"},"vehicle_type_id":"4","last_reported":1741298915,"current_range_meters":16000,"station_id":"ce4bhb92rcd13ifvqen0","pricing_plan_id":"cebpf4jnsgd1na2vs0mg"},{"bike_id":"563c9629-05cf-49ef-8ac6-4e5ef18e4f1d","system_id":"levelo_inurba_marseille","lat":43.2509,"lon":5.39519,"is_reserved":false,"is_disabled":false,"rental_uris":{"android":"levelo://app?vid=563c9629-05cf-49ef-8ac6-4e5ef18e4f1d","ios":"levelo://app?vid=563c9629-05cf-49ef-8ac6-4e5ef18e4f1d"},"vehicle_type_id":"4","last_reported":1741298915,"current_range_meters":16000,"station_id":"ce4bhm12rcd13ifvqgkg","pricing_plan_id":"cebpf4jnsgd1na2vs0mg"},{"bike_id":"675b3dc9-9abe-4d06-a8ab-9ce8f149dc5a","system_id":"levelo_inurba_marseille","lat":43.23144,"lon":5.43721,"is_reserved":false,"is_disabled":false,"rental_uris":{"android":"levelo://app?vid=675b3dc9-9abe-4d06-a8ab-9ce8f149dc5a","ios":"levelo://app?vid=675b3dc9-9abe-4d06-a8ab-9ce8f149dc5a"},"vehicle_type_id":"4","last_reported":1741298915,"current_range_meters":16000,"station_id":"ce4bhmp2rcd13ifvqgog","pricing_plan_id":"cebpf4jnsgd1na2vs0mg"},{"bike_id":"e2c9a10f-d165-47fa-bcc3-3b72ae9367ad","system_id":"levelo_inurba_marseille","lat":43.23184,"lon":5.3998,"is_reserved":false,"is_disabled":false,"rental_uris":{"android":"levelo://app?vid=e2c9a10f-d165-47fa-bcc3-3b72ae9367ad","ios":"levelo://app?vid=e2c9a10f-d165-47fa-bcc3-3b72ae9367ad"},"vehicle_type_id":"4","last_reported":1741298915,"current_range_meters":16000,"station_id":"ce4bhn12rcd13ifvqgqg","pricing_plan_id":"cebpf4jnsgd1na2vs0mg"},{"bike_id":"9efbff90-6380-4e58-8359-a0c4a1eca8c5","system_id":"levelo_inurba_marseille","lat":43.32372,"lon":5.388948,"is_reserved":false,"is_disabled":false,"rental_uris":{"android":"levelo://app?vid=9efbff90-6380-4e58-8359-a0c4a1eca8c5","ios":"levelo://app?vid=9efbff90-6380-4e58-8359-a0c4a1eca8c5"},"vehicle_type_id":"4","last_reported":1741298915,"current_range_meters":16000,"station_id":"ce4bhqp2rcd13ifvqhog","pricing_plan_id":"cebpf4jnsgd1na2vs0mg"},{"bike_id":"8495ea94-8913-4fd4-93bf-d7ec0a8cbe57","system_id":"levelo_inurba_marseille","lat":43.31079,"lon":5.38347,"is_reserved":false,"is_disabled":false,"rental_uris":{"android":"levelo://app?vid=8495ea94-8913-4fd4-93bf-d7ec0a8cbe57","ios":"levelo://app?vid=8495ea94-8913-4fd4-93bf-d7ec0a8cbe57"},"vehicle_type_id":"4","last_reported":1741298915,"current_range_meters":16400,"station_id":"ce4bgv92rcd13ifvqcr0","pricing_plan_id":"cebpf4jnsgd1na2vs0mg"},{"bike_id":"adf7f1ec-95dc-418e-9686-1323ae4e33f9","system_id":"levelo_inurba_marseille","lat":43.30605,"lon":5.39351,"is_reserved":false,"is_disabled":false,"rental_uris":{"android":"levelo://app?vid=adf7f1ec-95dc-418e-9686-1323ae4e33f9","ios":"levelo://app?vid=adf7f1ec-95dc-418e-9686-1323ae4e33f9"},"vehicle_type_id":"4","last_reported":1741298915,"current_range_meters":16400,"station_id":"ce4bh0p2rcd13ifvqd80","pricing_plan_id":"cebpf4jnsgd1na2vs0mg"},{"bike_id":"95a4ee13-4d54-429d-b678-25bfffe660bf","system_id":"levelo_inurba_marseille","lat":43.28929,"lon":5.36397,"is_reserved":false,"is_disabled":false,"rental_uris":{"android":"levelo://app?vid=95a4ee13-4d54-429d-b678-25bfffe660bf","ios":"levelo://app?vid=95a4ee13-4d54-429d-b678-25bfffe660bf"},"vehicle_type_id":"4","last_reported":1741298915,"current_range_meters":16400,"station_id":"ce4bhc92rcd13ifvqetg","pricing_plan_id":"cebpf4jnsgd1na2vs0mg"},{"bike_id":"07803b89-56e8-449f-8324-d35c1acff8c9","system_id":"levelo_inurba_marseille","lat":43.27842,"lon":5.39197,"is_reserved":false,"is_disabled":false,"rental_uris":{"android":"levelo://app?vid=07803b89-56e8-449f-8324-d35c1acff8c9","ios":"levelo://app?vid=07803b89-56e8-449f-8324-d35c1acff8c9"},"vehicle_type_id":"4","last_reported":1741298915,"current_range_meters":16400,"station_id":"ce4bhjp2rcd13ifvqga0","pricing_plan_id":"cebpf4jnsgd1na2vs0mg"},{"bike_id":"8d203f57-3343-4bc0-8a9c-79d1c1be1625","system_id":"levelo_inurba_marseille","lat":43.26814,"lon":5.40236,"is_reserved":false,"is_disabled":false,"rental_uris":{"android":"levelo://app?vid=8d203f57-3343-4bc0-8a9c-79d1c1be1625","ios":"levelo://app?vid=8d203f57-3343-4bc0-8a9c-79d1c1be1625"},"vehicle_type_id":"4","last_reported":1741298915,"current_range_meters":16400,"station_id":"ce501612rcd8frsf0b60","pricing_plan_id":"cebpf4jnsgd1na2vs0mg"},{"bike_id":"b6f36978-39d4-4b7f-9cb4-d3c235f51993","system_id":"levelo_inurba_marseille","lat":43.22929,"lon":5.35381,"is_reserved":false,"is_disabled":false,"rental_uris":{"android":"levelo://app?vid=b6f36978-39d4-4b7f-9cb4-d3c235f51993","ios":"levelo://app?vid=b6f36978-39d4-4b7f-9cb4-d3c235f51993"},"vehicle_type_id":"4","last_reported":1741298915,"current_range_meters":16400,"station_id":"cpo3532slgdg3j2ikp40","pricing_plan_id":"cebpf4jnsgd1na2vs0mg"},{"bike_id":"34688b44-97e8-4ade-aad9-fb00f0944501","system_id":"levelo_inurba_marseille","lat":43.27462,"lon":5.43514,"is_reserved":false,"is_disabled":false,"rental_uris":{"android":"levelo://app?vid=34688b44-97e8-4ade-aad9-fb00f0944501","ios":"levelo://app?vid=34688b44-97e8-4ade-aad9-fb00f0944501"},"vehicle_type_id":"4","last_reported":1741298915,"current_range_meters":16800,"station_id":"","pricing_plan_id":"cebpf4jnsgd1na2vs0mg"},{"bike_id":"068aad30-8343-49b3-85dc-1c9329acd3ed","system_id":"levelo_inurba_marseille","lat":43.28944,"lon":5.36389,"is_reserved":false,"is_disabled":false,"rental_uris":{"android":"levelo://app?vid=068aad30-8343-49b3-85dc-1c9329acd3ed","ios":"levelo://app?vid=068aad30-8343-49b3-85dc-1c9329acd3ed"},"vehicle_type_id":"4","last_reported":1741298915,"current_range_meters":16800,"station_id":"ce4bhc92rcd13ifvqetg","pricing_plan_id":"cebpf4jnsgd1na2vs0mg"},{"bike_id":"6ae77951-a909-4dfa-a933-35324bca41b7","system_id":"levelo_inurba_marseille","lat":43.24997,"lon":5.38937,"is_reserved":false,"is_disabled":false,"rental_uris":{"android":"levelo://app?vid=6ae77951-a909-4dfa-a933-35324bca41b7","ios":"levelo://app?vid=6ae77951-a909-4dfa-a933-35324bca41b7"},"vehicle_type_id":"4","last_reported":1741298915,"current_range_meters":16800,"station_id":"ce4bhgp2rcd13ifvqfd0","pricing_plan_id":"cebpf4jnsgd1na2vs0mg"},{"bike_id":"0c93b654-fa53-4416-bf24-88fa6b15d03a","system_id":"levelo_inurba_marseille","lat":43.25727,"lon":5.41105,"is_reserved":false,"is_disabled":false,"rental_uris":{"android":"levelo://app?vid=0c93b654-fa53-4416-bf24-88fa6b15d03a","ios":"levelo://app?vid=0c93b654-fa53-4416-bf24-88fa6b15d03a"},"vehicle_type_id":"4","last_reported":1741298915,"current_range_meters":16800,"station_id":"ce4bhkp2rcd13ifvqgd0","pricing_plan_id":"cebpf4jnsgd1na2vs0mg"},{"bike_id":"0526cfc7-294a-4c9b-9466-442f591045bc","system_id":"levelo_inurba_marseille","lat":43.23207,"lon":5.39975,"is_reserved":false,"is_disabled":false,"rental_uris":{"android":"levelo://app?vid=0526cfc7-294a-4c9b-9466-442f591045bc","ios":"levelo://app?vid=0526cfc7-294a-4c9b-9466-442f591045bc"},"vehicle_type_id":"4","last_reported":1741298915,"current_range_meters":16800,"station_id":"ce4bhn12rcd13ifvqgqg","pricing_plan_id":"cebpf4jnsgd1na2vs0mg"},{"bike_id":"e3936ecd-bc2f-4535-ae1e-23167a131007","system_id":"levelo_inurba_marseille","lat":43.33405,"lon":5.40087,"is_reserved":false,"is_disabled":false,"rental_uris":{"android":"levelo://app?vid=e3936ecd-bc2f-4535-ae1e-23167a131007","ios":"levelo://app?vid=e3936ecd-bc2f-4535-ae1e-23167a131007"},"vehicle_type_id":"4","last_reported":1741298915,"current_range_meters":17200,"station_id":"","pricing_plan_id":"cebpf4jnsgd1na2vs0mg"},{"bike_id":"44ee1544-9660-4a4d-99ce-6f1c15362a9c","system_id":"levelo_inurba_marseille","lat":43.30428,"lon":5.39746,"is_reserved":false,"is_disabled":false,"rental_uris":{"android":"levelo://app?vid=44ee1544-9660-4a4d-99ce-6f1c15362a9c","ios":"levelo://app?vid=44ee1544-9660-4a4d-99ce-6f1c15362a9c"},"vehicle_type_id":"4","last_reported":1741298915,"current_range_meters":17200,"station_id":"ce4bh092rcd13ifvqd20","pricing_plan_id":"cebpf4jnsgd1na2vs0mg"},{"bike_id":"f6abee7f-7a67-4f64-a8b7-a46ee68e5921","system_id":"levelo_inurba_marseille","lat":43.31076,"lon":5.383487,"is_reserved":false,"is_disabled":false,"rental_uris":{"android":"levelo://app?vid=f6abee7f-7a67-4f64-a8b7-a46ee68e5921","ios":"levelo://app?vid=f6abee7f-7a67-4f64-a8b7-a46ee68e5921"},"vehicle_type_id":"4","last_reported":1741298915,"current_range_meters":17200,"station_id":"ce4bh2h2rcd13ifvqdh0","pricing_plan_id":"cebpf4jnsgd1na2vs0mg"},{"bike_id":"0464b775-72ec-4bdd-92cb-9dcc39786da9","system_id":"levelo_inurba_marseille","lat":43.28692,"lon":5.37402,"is_reserved":false,"is_disabled":false,"rental_uris":{"android":"levelo://app?vid=0464b775-72ec-4bdd-92cb-9dcc39786da9","ios":"levelo://app?vid=0464b775-72ec-4bdd-92cb-9dcc39786da9"},"vehicle_type_id":"4","last_reported":1741298915,"current_range_meters":17200,"station_id":"ce4bh3p2rcd13ifvqdq0","pricing_plan_id":"cebpf4jnsgd1na2vs0mg"},{"bike_id":"04b8010c-1d8e-4bbc-a882-fcda2e9bfe6b","system_id":"levelo_inurba_marseille","lat":43.28404,"lon":5.37519,"is_reserved":false,"is_disabled":false,"rental_uris":{"android":"levelo://app?vid=04b8010c-1d8e-4bbc-a882-fcda2e9bfe6b","ios":"levelo://app?vid=04b8010c-1d8e-4bbc-a882-fcda2e9bfe6b"},"vehicle_type_id":"4","last_reported":1741298915,"current_range_meters":17200,"station_id":"ce4bh412rcd13ifvqds0","pricing_plan_id":"cebpf4jnsgd1na2vs0mg"},{"bike_id":"41477e58-1f93-4f93-b7af-8f27b82cb7a9","system_id":"levelo_inurba_marseille","lat":43.2792,"lon":5.39578,"is_reserved":false,"is_disabled":false,"rental_uris":{"android":"levelo://app?vid=41477e58-1f93-4f93-b7af-8f27b82cb7a9","ios":"levelo://app?vid=41477e58-1f93-4f93-b7af-8f27b82cb7a9"},"vehicle_type_id":"4","last_reported":1741298915,"current_range_meters":17200,"station_id":"ce4bhf92rcd13ifvqf40","pricing_plan_id":"cebpf4jnsgd1na2vs0mg"},{"bike_id":"60dbdfe4-0290-459f-80b1-32d771207de8","system_id":"levelo_inurba_marseille","lat":43.25016,"lon":5.38921,"is_reserved":false,"is_disabled":false,"rental_uris":{"android":"levelo://app?vid=60dbdfe4-0290-459f-80b1-32d771207de8","ios":"levelo://app?vid=60dbdfe4-0290-459f-80b1-32d771207de8"},"vehicle_type_id":"4","last_reported":1741298915,"current_range_meters":17200,"station_id":"ce4bhgp2rcd13ifvqfd0","pricing_plan_id":"cebpf4jnsgd1na2vs0mg"},{"bike_id":"2f80fa14-45f3-40fd-8835-a76e0d67388f","system_id":"levelo_inurba_marseille","lat":43.29568,"lon":5.42266,"is_reserved":false,"is_disabled":false,"rental_uris":{"android":"levelo://app?vid=2f80fa14-45f3-40fd-8835-a76e0d67388f","ios":"levelo://app?vid=2f80fa14-45f3-40fd-8835-a76e0d67388f"},"vehicle_type_id":"4","last_reported":1741298915,"current_range_meters":17200,"station_id":"ce4bhph2rcd13ifvqhdg","pricing_plan_id":"cebpf4jnsgd1na2vs0mg"},{"bike_id":"c46e731c-43c9-42f7-b0e2-2a75bf008757","system_id":"levelo_inurba_marseille","lat":43.31324,"lon":5.39705,"is_reserved":false,"is_disabled":false,"rental_uris":{"android":"levelo://app?vid=c46e731c-43c9-42f7-b0e2-2a75bf008757","ios":"levelo://app?vid=c46e731c-43c9-42f7-b0e2-2a75bf008757"},"vehicle_type_id":"4","last_reported":1741298915,"current_range_meters":17600,"station_id":"ce4bgvp2rcd13ifvqcu0","pricing_plan_id":"cebpf4jnsgd1na2vs0mg"},{"bike_id":"64aee591-3971-4972-97c5-3fe3d3278826","system_id":"levelo_inurba_marseille","lat":43.30879,"lon":5.39674,"is_reserved":false,"is_disabled":false,"rental_uris":{"android":"levelo://app?vid=64aee591-3971-4972-97c5-3fe3d3278826","ios":"levelo://app?vid=64aee591-3971-4972-97c5-3fe3d3278826"},"vehicle_type_id":"4","last_reported":1741298915,"current_range_meters":17600,"station_id":"ce4bh012rcd13ifvqcv0","pricing_plan_id":"cebpf4jnsgd1na2vs0mg"},{"bike_id":"87b331b5-b6a1-4a33-be76-2da35ac03a1a","system_id":"levelo_inurba_marseille","lat":43.29456,"lon":5.39741,"is_reserved":false,"is_disabled":false,"rental_uris":{"android":"levelo://app?vid=87b331b5-b6a1-4a33-be76-2da35ac03a1a","ios":"levelo://app?vid=87b331b5-b6a1-4a33-be76-2da35ac03a1a"},"vehicle_type_id":"4","last_reported":1741298915,"current_range_meters":17600,"station_id":"ce4bh3h2rcd13ifvqdo0","pricing_plan_id":"cebpf4jnsgd1na2vs0mg"},{"bike_id":"ad9a8406-e1b8-4c43-83e7-6ca47ad1435f","system_id":"levelo_inurba_marseille","lat":43.24998,"lon":5.38937,"is_reserved":false,"is_disabled":false,"rental_uris":{"android":"levelo://app?vid=ad9a8406-e1b8-4c43-83e7-6ca47ad1435f","ios":"levelo://app?vid=ad9a8406-e1b8-4c43-83e7-6ca47ad1435f"},"vehicle_type_id":"4","last_reported":1741298915,"current_range_meters":17600,"station_id":"ce4bhgp2rcd13ifvqfd0","pricing_plan_id":"cebpf4jnsgd1na2vs0mg"},{"bike_id":"a0927b8a-2b4f-4559-9a29-b7863a22957b","system_id":"levelo_inurba_marseille","lat":43.270723,"lon":5.42273,"is_reserved":false,"is_disabled":false,"rental_uris":{"android":"levelo://app?vid=a0927b8a-2b4f-4559-9a29-b7863a22957b","ios":"levelo://app?vid=a0927b8a-2b4f-4559-9a29-b7863a22957b"},"vehicle_type_id":"4","last_reported":1741298915,"current_range_meters":17600,"station_id":"ce4bhk92rcd13ifvqgb0","pricing_plan_id":"cebpf4jnsgd1na2vs0mg"},{"bike_id":"33667961-93ec-4e9b-86e4-ef8e26358669","system_id":"levelo_inurba_marseille","lat":43.27992,"lon":5.40022,"is_reserved":false,"is_disabled":false,"rental_uris":{"android":"levelo://app?vid=33667961-93ec-4e9b-86e4-ef8e26358669","ios":"levelo://app?vid=33667961-93ec-4e9b-86e4-ef8e26358669"},"vehicle_type_id":"4","last_reported":1741298915,"current_range_meters":17600,"station_id":"ce4bho92rcd13ifvqh4g","pricing_plan_id":"cebpf4jnsgd1na2vs0mg"},{"bike_id":"aadaa07e-0b05-425f-a930-f27bd7b4fe4f","system_id":"levelo_inurba_marseille","lat":43.2846,"lon":5.3914,"is_reserved":false,"is_disabled":false,"rental_uris":{"android":"levelo://app?vid=aadaa07e-0b05-425f-a930-f27bd7b4fe4f","ios":"levelo://app?vid=aadaa07e-0b05-425f-a930-f27bd7b4fe4f"},"vehicle_type_id":"4","last_reported":1741298915,"current_range_meters":17600,"station_id":"ce4bhoh2rcd13ifvqh5g","pricing_plan_id":"cebpf4jnsgd1na2vs0mg"},{"bike_id":"e524bcef-a391-41b2-bad2-673eae53ea51","system_id":"levelo_inurba_marseille","lat":43.31706,"lon":5.43704,"is_reserved":false,"is_disabled":false,"rental_uris":{"android":"levelo://app?vid=e524bcef-a391-41b2-bad2-673eae53ea51","ios":"levelo://app?vid=e524bcef-a391-41b2-bad2-673eae53ea51"},"vehicle_type_id":"4","last_reported":1741298915,"current_range_meters":17600,"station_id":"ce4bhp92rcd13ifvqhcg","pricing_plan_id":"cebpf4jnsgd1na2vs0mg"},{"bike_id":"d44d1f0d-089b-4712-acec-6159946190a1","system_id":"levelo_inurba_marseille","lat":43.24161,"lon":5.36398,"is_reserved":false,"is_disabled":false,"rental_uris":{"android":"levelo://app?vid=d44d1f0d-089b-4712-acec-6159946190a1","ios":"levelo://app?vid=d44d1f0d-089b-4712-acec-6159946190a1"},"vehicle_type_id":"4","last_reported":1741298915,"current_range_meters":17600,"station_id":"cpo36qri1sfpv3e86is0","pricing_plan_id":"cebpf4jnsgd1na2vs0mg"},{"bike_id":"db1c7047-7b9f-4b56-96ef-3b289cb537df","system_id":"levelo_inurba_marseille","lat":43.30833,"lon":5.37413,"is_reserved":false,"is_disabled":false,"rental_uris":{"android":"levelo://app?vid=db1c7047-7b9f-4b56-96ef-3b289cb537df","ios":"levelo://app?vid=db1c7047-7b9f-4b56-96ef-3b289cb537df"},"vehicle_type_id":"4","last_reported":1741298915,"current_range_meters":18000,"station_id":"","pricing_plan_id":"cebpf4jnsgd1na2vs0mg"},{"bike_id":"9e9a17a4-5918-4e28-aed9-2ae02ffb0f1d","system_id":"levelo_inurba_marseille","lat":43.31178,"lon":5.38725,"is_reserved":false,"is_disabled":false,"rental_uris":{"android":"levelo://app?vid=9e9a17a4-5918-4e28-aed9-2ae02ffb0f1d","ios":"levelo://app?vid=9e9a17a4-5918-4e28-aed9-2ae02ffb0f1d"},"vehicle_type_id":"4","last_reported":1741298915,"current_range_meters":18000,"station_id":"ce4bgv12rcd13ifvqcp0","pricing_plan_id":"cebpf4jnsgd1na2vs0mg"},{"bike_id":"4f21920f-301d-4d8b-9fc1-6556988e828f","system_id":"levelo_inurba_marseille","lat":43.29514,"lon":5.39403,"is_reserved":false,"is_disabled":false,"rental_uris":{"android":"levelo://app?vid=4f21920f-301d-4d8b-9fc1-6556988e828f","ios":"levelo://app?vid=4f21920f-301d-4d8b-9fc1-6556988e828f"},"vehicle_type_id":"4","last_reported":1741298915,"current_range_meters":18000,"station_id":"ce4bh292rcd13ifvqdf0","pricing_plan_id":"cebpf4jnsgd1na2vs0mg"},{"bike_id":"7346a75e-1116-4293-a968-89450b7306a3","system_id":"levelo_inurba_marseille","lat":43.28353,"lon":5.3811,"is_reserved":false,"is_disabled":false,"rental_uris":{"android":"levelo://app?vid=7346a75e-1116-4293-a968-89450b7306a3","ios":"levelo://app?vid=7346a75e-1116-4293-a968-89450b7306a3"},"vehicle_type_id":"4","last_reported":1741298915,"current_range_meters":18000,"station_id":"ce4bh412rcd13ifvqdr0","pricing_plan_id":"cebpf4jnsgd1na2vs0mg"},{"bike_id":"a20ecd9b-c412-4953-9cc5-0ca9354c3bf7","system_id":"levelo_inurba_marseille","lat":43.27916,"lon":5.39585,"is_reserved":false,"is_disabled":false,"rental_uris":{"android":"levelo://app?vid=a20ecd9b-c412-4953-9cc5-0ca9354c3bf7","ios":"levelo://app?vid=a20ecd9b-c412-4953-9cc5-0ca9354c3bf7"},"vehicle_type_id":"4","last_reported":1741298915,"current_range_meters":18000,"station_id":"ce4bhf92rcd13ifvqf40","pricing_plan_id":"cebpf4jnsgd1na2vs0mg"},{"bike_id":"2ede08b9-0b2b-4772-aa5d-3c795aee5d59","system_id":"levelo_inurba_marseille","lat":43.260695,"lon":5.393905,"is_reserved":false,"is_disabled":false,"rental_uris":{"android":"levelo://app?vid=2ede08b9-0b2b-4772-aa5d-3c795aee5d59","ios":"levelo://app?vid=2ede08b9-0b2b-4772-aa5d-3c795aee5d59"},"vehicle_type_id":"4","last_reported":1741298915,"current_range_meters":18000,"station_id":"ce4bhh92rcd13ifvqfj0","pricing_plan_id":"cebpf4jnsgd1na2vs0mg"},{"bike_id":"975fa86d-1215-4f11-9def-f80adfd3d7ee","system_id":"levelo_inurba_marseille","lat":43.25571,"lon":5.38245,"is_reserved":false,"is_disabled":false,"rental_uris":{"android":"levelo://app?vid=975fa86d-1215-4f11-9def-f80adfd3d7ee","ios":"levelo://app?vid=975fa86d-1215-4f11-9def-f80adfd3d7ee"},"vehicle_type_id":"4","last_reported":1741298915,"current_range_meters":18000,"station_id":"ce4bhih2rcd13ifvqfs0","pricing_plan_id":"cebpf4jnsgd1na2vs0mg"},{"bike_id":"612d9b12-89b0-4be7-a0ea-f8e38309b006","system_id":"levelo_inurba_marseille","lat":43.27073,"lon":5.42279,"is_reserved":false,"is_disabled":false,"rental_uris":{"android":"levelo://app?vid=612d9b12-89b0-4be7-a0ea-f8e38309b006","ios":"levelo://app?vid=612d9b12-89b0-4be7-a0ea-f8e38309b006"},"vehicle_type_id":"4","last_reported":1741298915,"current_range_meters":18000,"station_id":"ce4bhk92rcd13ifvqgb0","pricing_plan_id":"cebpf4jnsgd1na2vs0mg"},{"bike_id":"f57f3f69-b9c6-4495-8b25-ff020cd0c112","system_id":"levelo_inurba_marseille","lat":43.27074,"lon":5.42277,"is_reserved":false,"is_disabled":false,"rental_uris":{"android":"levelo://app?vid=f57f3f69-b9c6-4495-8b25-ff020cd0c112","ios":"levelo://app?vid=f57f3f69-b9c6-4495-8b25-ff020cd0c112"},"vehicle_type_id":"4","last_reported":1741298915,"current_range_meters":18000,"station_id":"ce4bhk92rcd13ifvqgb0","pricing_plan_id":"cebpf4jnsgd1na2vs0mg"},{"bike_id":"e85b1483-1add-4305-b11d-6d307d52ba8c","system_id":"levelo_inurba_marseille","lat":43.32333,"lon":5.4062,"is_reserved":false,"is_disabled":false,"rental_uris":{"android":"levelo://app?vid=e85b1483-1add-4305-b11d-6d307d52ba8c","ios":"levelo://app?vid=e85b1483-1add-4305-b11d-6d307d52ba8c"},"vehicle_type_id":"4","last_reported":1741298915,"current_range_meters":18000,"station_id":"ce4bhq92rcd13ifvqhjg","pricing_plan_id":"cebpf4jnsgd1na2vs0mg"},{"bike_id":"b1d03295-5a4c-4b8b-ad8e-3dbefaa793f2","system_id":"levelo_inurba_marseille","lat":43.23193,"lon":5.35578,"is_reserved":false,"is_disabled":false,"rental_uris":{"android":"levelo://app?vid=b1d03295-5a4c-4b8b-ad8e-3dbefaa793f2","ios":"levelo://app?vid=b1d03295-5a4c-4b8b-ad8e-3dbefaa793f2"},"vehicle_type_id":"4","last_reported":1741298915,"current_range_meters":18000,"station_id":"ce4bhu92rcd13ifvqi70","pricing_plan_id":"cebpf4jnsgd1na2vs0mg"},{"bike_id":"cd05325e-0268-495e-8a07-58124158f18e","system_id":"levelo_inurba_marseille","lat":43.28735,"lon":5.36073,"is_reserved":false,"is_disabled":false,"rental_uris":{"android":"levelo://app?vid=cd05325e-0268-495e-8a07-58124158f18e","ios":"levelo://app?vid=cd05325e-0268-495e-8a07-58124158f18e"},"vehicle_type_id":"4","last_reported":1741298915,"current_range_meters":18000,"station_id":"cki0cbj6b192h4jlfktg","pricing_plan_id":"cebpf4jnsgd1na2vs0mg"},{"bike_id":"94bb4b42-765a-4dcc-84e5-1e56175a727a","system_id":"levelo_inurba_marseille","lat":43.33766,"lon":5.37422,"is_reserved":false,"is_disabled":false,"rental_uris":{"android":"levelo://app?vid=94bb4b42-765a-4dcc-84e5-1e56175a727a","ios":"levelo://app?vid=94bb4b42-765a-4dcc-84e5-1e56175a727a"},"vehicle_type_id":"4","last_reported":1741298915,"current_range_meters":18800,"station_id":"","pricing_plan_id":"cebpf4jnsgd1na2vs0mg"},{"bike_id":"2fc76869-68df-4e9f-a632-2abc26828a37","system_id":"levelo_inurba_marseille","lat":43.30169,"lon":5.38069,"is_reserved":false,"is_disabled":false,"rental_uris":{"android":"levelo://app?vid=2fc76869-68df-4e9f-a632-2abc26828a37","ios":"levelo://app?vid=2fc76869-68df-4e9f-a632-2abc26828a37"},"vehicle_type_id":"4","last_reported":1741298915,"current_range_meters":18800,"station_id":"ce4bgjp2rcd13ifvqbh0","pricing_plan_id":"cebpf4jnsgd1na2vs0mg"},{"bike_id":"db60a8bb-1e99-47f4-9060-0c18d772edd9","system_id":"levelo_inurba_marseille","lat":43.29936,"lon":5.36558,"is_reserved":false,"is_disabled":false,"rental_uris":{"android":"levelo://app?vid=db60a8bb-1e99-47f4-9060-0c18d772edd9","ios":"levelo://app?vid=db60a8bb-1e99-47f4-9060-0c18d772edd9"},"vehicle_type_id":"4","last_reported":1741298915,"current_range_meters":18800,"station_id":"ce4bgm92rcd13ifvqbr0","pricing_plan_id":"cebpf4jnsgd1na2vs0mg"},{"bike_id":"9f2bb1f2-e121-4a2a-b7f3-951325add88a","system_id":"levelo_inurba_marseille","lat":43.30093,"lon":5.39076,"is_reserved":false,"is_disabled":false,"rental_uris":{"android":"levelo://app?vid=9f2bb1f2-e121-4a2a-b7f3-951325add88a","ios":"levelo://app?vid=9f2bb1f2-e121-4a2a-b7f3-951325add88a"},"vehicle_type_id":"4","last_reported":1741298915,"current_range_meters":18800,"station_id":"ce4bh192rcd13ifvqdb0","pricing_plan_id":"cebpf4jnsgd1na2vs0mg"},{"bike_id":"d8cc96c1-c1e2-4a86-bb47-f72a628806c6","system_id":"levelo_inurba_marseille","lat":43.28705,"lon":5.3739,"is_reserved":false,"is_disabled":false,"rental_uris":{"android":"levelo://app?vid=d8cc96c1-c1e2-4a86-bb47-f72a628806c6","ios":"levelo://app?vid=d8cc96c1-c1e2-4a86-bb47-f72a628806c6"},"vehicle_type_id":"4","last_reported":1741298915,"current_range_meters":18800,"station_id":"ce4bh3p2rcd13ifvqdq0","pricing_plan_id":"cebpf4jnsgd1na2vs0mg"},{"bike_id":"9d5c1636-cced-49ce-85d8-185ca567a8d4","system_id":"levelo_inurba_marseille","lat":43.28102,"lon":5.37858,"is_reserved":false,"is_disabled":false,"rental_uris":{"android":"levelo://app?vid=9d5c1636-cced-49ce-85d8-185ca567a8d4","ios":"levelo://app?vid=9d5c1636-cced-49ce-85d8-185ca567a8d4"},"vehicle_type_id":"4","last_reported":1741298915,"current_range_meters":18800,"station_id":"ce4bha12rcd13ifvqee0","pricing_plan_id":"cebpf4jnsgd1na2vs0mg"},{"bike_id":"656c025a-e60c-4f90-9a2d-16685c462fe8","system_id":"levelo_inurba_marseille","lat":43.25503,"lon":5.37653,"is_reserved":false,"is_disabled":false,"rental_uris":{"android":"levelo://app?vid=656c025a-e60c-4f90-9a2d-16685c462fe8","ios":"levelo://app?vid=656c025a-e60c-4f90-9a2d-16685c462fe8"},"vehicle_type_id":"4","last_reported":1741298915,"current_range_meters":18800,"station_id":"ce4bhh12rcd13ifvqff0","pricing_plan_id":"cebpf4jnsgd1na2vs0mg"},{"bike_id":"fd6296bd-f750-4893-b30b-28489933da7e","system_id":"levelo_inurba_marseille","lat":43.24071,"lon":5.37761,"is_reserved":false,"is_disabled":false,"rental_uris":{"android":"levelo://app?vid=fd6296bd-f750-4893-b30b-28489933da7e","ios":"levelo://app?vid=fd6296bd-f750-4893-b30b-28489933da7e"},"vehicle_type_id":"4","last_reported":1741298915,"current_range_meters":18800,"station_id":"ce4bhnp2rcd13ifvqgvg","pricing_plan_id":"cebpf4jnsgd1na2vs0mg"},{"bike_id":"34fca5e7-8353-4d68-89e6-b1d671353da7","system_id":"levelo_inurba_marseille","lat":43.32365,"lon":5.38878,"is_reserved":false,"is_disabled":false,"rental_uris":{"android":"levelo://app?vid=34fca5e7-8353-4d68-89e6-b1d671353da7","ios":"levelo://app?vid=34fca5e7-8353-4d68-89e6-b1d671353da7"},"vehicle_type_id":"4","last_reported":1741298915,"current_range_meters":18800,"station_id":"ce4bhqp2rcd13ifvqhog","pricing_plan_id":"cebpf4jnsgd1na2vs0mg"},{"bike_id":"4d88faaa-6717-4537-86fb-934d4272e02f","system_id":"levelo_inurba_marseille","lat":43.28451,"lon":5.35884,"is_reserved":false,"is_disabled":false,"rental_uris":{"android":"levelo://app?vid=4d88faaa-6717-4537-86fb-934d4272e02f","ios":"levelo://app?vid=4d88faaa-6717-4537-86fb-934d4272e02f"},"vehicle_type_id":"4","last_reported":1741298915,"current_range_meters":19200,"station_id":"ce4bhah2rcd13ifvqei0","pricing_plan_id":"cebpf4jnsgd1na2vs0mg"},{"bike_id":"20aceef4-e0f6-43d7-a7f9-f6fd25b5798d","system_id":"levelo_inurba_marseille","lat":43.27945,"lon":5.41045,"is_reserved":false,"is_disabled":false,"rental_uris":{"android":"levelo://app?vid=20aceef4-e0f6-43d7-a7f9-f6fd25b5798d","ios":"levelo://app?vid=20aceef4-e0f6-43d7-a7f9-f6fd25b5798d"},"vehicle_type_id":"4","last_reported":1741298915,"current_range_meters":19200,"station_id":"ce4bhnp2rcd13ifvqh0g","pricing_plan_id":"cebpf4jnsgd1na2vs0mg"},{"bike_id":"c4c723cb-a07b-4be7-9352-175d996d4f95","system_id":"levelo_inurba_marseille","lat":43.27939,"lon":5.41047,"is_reserved":false,"is_disabled":false,"rental_uris":{"android":"levelo://app?vid=c4c723cb-a07b-4be7-9352-175d996d4f95","ios":"levelo://app?vid=c4c723cb-a07b-4be7-9352-175d996d4f95"},"vehicle_type_id":"4","last_reported":1741298915,"current_range_meters":19200,"station_id":"ce4bhnp2rcd13ifvqh0g","pricing_plan_id":"cebpf4jnsgd1na2vs0mg"},{"bike_id":"be1fff80-5535-42a9-93b1-08b9714f1172","system_id":"levelo_inurba_marseille","lat":43.28715,"lon":5.39961,"is_reserved":false,"is_disabled":false,"rental_uris":{"android":"levelo://app?vid=be1fff80-5535-42a9-93b1-08b9714f1172","ios":"levelo://app?vid=be1fff80-5535-42a9-93b1-08b9714f1172"},"vehicle_type_id":"4","last_reported":1741298915,"current_range_meters":19200,"station_id":"ce4bho92rcd13ifvqh3g","pricing_plan_id":"cebpf4jnsgd1na2vs0mg"},{"bike_id":"3c28a72f-782e-488d-97d6-904d649b8f74","system_id":"levelo_inurba_marseille","lat":43.30803,"lon":5.43519,"is_reserved":false,"is_disabled":false,"rental_uris":{"android":"levelo://app?vid=3c28a72f-782e-488d-97d6-904d649b8f74","ios":"levelo://app?vid=3c28a72f-782e-488d-97d6-904d649b8f74"},"vehicle_type_id":"4","last_reported":1741298915,"current_range_meters":19200,"station_id":"ce4bhph2rcd13ifvqheg","pricing_plan_id":"cebpf4jnsgd1na2vs0mg"},{"bike_id":"be003000-15bb-4f30-a7a7-fb69c15ae2bf","system_id":"levelo_inurba_marseille","lat":43.30885,"lon":5.37194,"is_reserved":false,"is_disabled":false,"rental_uris":{"android":"levelo://app?vid=be003000-15bb-4f30-a7a7-fb69c15ae2bf","ios":"levelo://app?vid=be003000-15bb-4f30-a7a7-fb69c15ae2bf"},"vehicle_type_id":"4","last_reported":1741298915,"current_range_meters":19600,"station_id":"ce4bguh2rcd13ifvqckg","pricing_plan_id":"cebpf4jnsgd1na2vs0mg"},{"bike_id":"28ca0cfb-2e46-4039-908f-0b9174dec5fc","system_id":"levelo_inurba_marseille","lat":43.31275,"lon":5.40166,"is_reserved":false,"is_disabled":false,"rental_uris":{"android":"levelo://app?vid=28ca0cfb-2e46-4039-908f-0b9174dec5fc","ios":"levelo://app?vid=28ca0cfb-2e46-4039-908f-0b9174dec5fc"},"vehicle_type_id":"4","last_reported":1741298915,"current_range_meters":19600,"station_id":"ce4bh092rcd13ifvqd30","pricing_plan_id":"cebpf4jnsgd1na2vs0mg"},{"bike_id":"bc21bc40-de3c-4430-b408-aa657f224289","system_id":"levelo_inurba_marseille","lat":43.27574,"lon":5.38441,"is_reserved":false,"is_disabled":false,"rental_uris":{"android":"levelo://app?vid=bc21bc40-de3c-4430-b408-aa657f224289","ios":"levelo://app?vid=bc21bc40-de3c-4430-b408-aa657f224289"},"vehicle_type_id":"4","last_reported":1741298915,"current_range_meters":19600,"station_id":"ce4bhh92rcd13ifvqfi0","pricing_plan_id":"cebpf4jnsgd1na2vs0mg"},{"bike_id":"9a062110-a8d9-4262-8540-007c07fd1a3b","system_id":"levelo_inurba_marseille","lat":43.23205,"lon":5.39999,"is_reserved":false,"is_disabled":false,"rental_uris":{"android":"levelo://app?vid=9a062110-a8d9-4262-8540-007c07fd1a3b","ios":"levelo://app?vid=9a062110-a8d9-4262-8540-007c07fd1a3b"},"vehicle_type_id":"4","last_reported":1741298915,"current_range_meters":19600,"station_id":"ce4bhn12rcd13ifvqgqg","pricing_plan_id":"cebpf4jnsgd1na2vs0mg"},{"bike_id":"1bbe8092-4af2-4296-abd9-82e59483da51","system_id":"levelo_inurba_marseille","lat":43.31896,"lon":5.40742,"is_reserved":false,"is_disabled":false,"rental_uris":{"android":"levelo://app?vid=1bbe8092-4af2-4296-abd9-82e59483da51","ios":"levelo://app?vid=1bbe8092-4af2-4296-abd9-82e59483da51"},"vehicle_type_id":"4","last_reported":1741298915,"current_range_meters":19600,"station_id":"ce4bhq12rcd13ifvqhig","pricing_plan_id":"cebpf4jnsgd1na2vs0mg"},{"bike_id":"b2c2514d-58df-4080-9acc-0a3325c87525","system_id":"levelo_inurba_marseille","lat":43.32364,"lon":5.36761,"is_reserved":false,"is_disabled":false,"rental_uris":{"android":"levelo://app?vid=b2c2514d-58df-4080-9acc-0a3325c87525","ios":"levelo://app?vid=b2c2514d-58df-4080-9acc-0a3325c87525"},"vehicle_type_id":"4","last_reported":1741298915,"current_range_meters":19600,"station_id":"ce4bhsh2rcd13ifvqi2g","pricing_plan_id":"cebpf4jnsgd1na2vs0mg"},{"bike_id":"c897bf56-11f9-44f1-98ae-4eb4ef15adf5","system_id":"levelo_inurba_marseille","lat":43.30135,"lon":5.38788,"is_reserved":false,"is_disabled":false,"rental_uris":{"android":"levelo://app?vid=c897bf56-11f9-44f1-98ae-4eb4ef15adf5","ios":"levelo://app?vid=c897bf56-11f9-44f1-98ae-4eb4ef15adf5"},"vehicle_type_id":"4","last_reported":1741298915,"current_range_meters":20000,"station_id":"ce4bghh2rcd13ifvqb60","pricing_plan_id":"cebpf4jnsgd1na2vs0mg"},{"bike_id":"227f812f-10c8-47ca-b2c3-3eaa752b9a2d","system_id":"levelo_inurba_marseille","lat":43.30883,"lon":5.39628,"is_reserved":false,"is_disabled":false,"rental_uris":{"android":"levelo://app?vid=227f812f-10c8-47ca-b2c3-3eaa752b9a2d","ios":"levelo://app?vid=227f812f-10c8-47ca-b2c3-3eaa752b9a2d"},"vehicle_type_id":"4","last_reported":1741298915,"current_range_meters":20000,"station_id":"ce4bh012rcd13ifvqcv0","pricing_plan_id":"cebpf4jnsgd1na2vs0mg"},{"bike_id":"95b542f3-c569-4c6a-917a-09559b8d5d92","system_id":"levelo_inurba_marseille","lat":43.28241,"lon":5.35071,"is_reserved":false,"is_disabled":false,"rental_uris":{"android":"levelo://app?vid=95b542f3-c569-4c6a-917a-09559b8d5d92","ios":"levelo://app?vid=95b542f3-c569-4c6a-917a-09559b8d5d92"},"vehicle_type_id":"4","last_reported":1741298915,"current_range_meters":20000,"station_id":"ce4bhbp2rcd13ifvqerg","pricing_plan_id":"cebpf4jnsgd1na2vs0mg"},{"bike_id":"24a29a9c-80fb-485d-8ea0-e20c6e98aa86","system_id":"levelo_inurba_marseille","lat":43.2621,"lon":5.37444,"is_reserved":false,"is_disabled":false,"rental_uris":{"android":"levelo://app?vid=24a29a9c-80fb-485d-8ea0-e20c6e98aa86","ios":"levelo://app?vid=24a29a9c-80fb-485d-8ea0-e20c6e98aa86"},"vehicle_type_id":"4","last_reported":1741298915,"current_range_meters":20000,"station_id":"ce4bhgp2rcd13ifvqfc0","pricing_plan_id":"cebpf4jnsgd1na2vs0mg"},{"bike_id":"e97e6011-3f56-424b-964e-844507561af6","system_id":"levelo_inurba_marseille","lat":43.25006,"lon":5.38927,"is_reserved":false,"is_disabled":false,"rental_uris":{"android":"levelo://app?vid=e97e6011-3f56-424b-964e-844507561af6","ios":"levelo://app?vid=e97e6011-3f56-424b-964e-844507561af6"},"vehicle_type_id":"4","last_reported":1741298915,"current_range_meters":20000,"station_id":"ce4bhgp2rcd13ifvqfd0","pricing_plan_id":"cebpf4jnsgd1na2vs0mg"},{"bike_id":"2f214610-8c86-4c13-b4a2-71c69a8ac509","system_id":"levelo_inurba_marseille","lat":43.2319,"lon":5.39985,"is_reserved":false,"is_disabled":false,"rental_uris":{"android":"levelo://app?vid=2f214610-8c86-4c13-b4a2-71c69a8ac509","ios":"levelo://app?vid=2f214610-8c86-4c13-b4a2-71c69a8ac509"},"vehicle_type_id":"4","last_reported":1741298915,"current_range_meters":20000,"station_id":"ce4bhn12rcd13ifvqgqg","pricing_plan_id":"cebpf4jnsgd1na2vs0mg"},{"bike_id":"b074c098-105a-483f-9325-0896897af1e3","system_id":"levelo_inurba_marseille","lat":43.2319,"lon":5.40005,"is_reserved":false,"is_disabled":false,"rental_uris":{"android":"levelo://app?vid=b074c098-105a-483f-9325-0896897af1e3","ios":"levelo://app?vid=b074c098-105a-483f-9325-0896897af1e3"},"vehicle_type_id":"4","last_reported":1741298915,"current_range_meters":20000,"station_id":"ce4bhn12rcd13ifvqgqg","pricing_plan_id":"cebpf4jnsgd1na2vs0mg"},{"bike_id":"7c40ff79-ec1d-427c-ac15-3d2a20956007","system_id":"levelo_inurba_marseille","lat":43.28019,"lon":5.41658,"is_reserved":false,"is_disabled":false,"rental_uris":{"android":"levelo://app?vid=7c40ff79-ec1d-427c-ac15-3d2a20956007","ios":"levelo://app?vid=7c40ff79-ec1d-427c-ac15-3d2a20956007"},"vehicle_type_id":"4","last_reported":1741298915,"current_range_meters":20000,"station_id":"ce4bho12rcd13ifvqh1g","pricing_plan_id":"cebpf4jnsgd1na2vs0mg"},{"bike_id":"ec636c87-b1f3-44c3-9b27-d7330b5f98f8","system_id":"levelo_inurba_marseille","lat":43.28432,"lon":5.39198,"is_reserved":false,"is_disabled":false,"rental_uris":{"android":"levelo://app?vid=ec636c87-b1f3-44c3-9b27-d7330b5f98f8","ios":"levelo://app?vid=ec636c87-b1f3-44c3-9b27-d7330b5f98f8"},"vehicle_type_id":"4","last_reported":1741298915,"current_range_meters":20000,"station_id":"ce4bhoh2rcd13ifvqh5g","pricing_plan_id":"cebpf4jnsgd1na2vs0mg"},{"bike_id":"1ff664cb-f378-4a6c-b3c1-b47ee25a2174","system_id":"levelo_inurba_marseille","lat":43.32362,"lon":5.38871,"is_reserved":false,"is_disabled":false,"rental_uris":{"android":"levelo://app?vid=1ff664cb-f378-4a6c-b3c1-b47ee25a2174","ios":"levelo://app?vid=1ff664cb-f378-4a6c-b3c1-b47ee25a2174"},"vehicle_type_id":"4","last_reported":1741298915,"current_range_meters":20000,"station_id":"ce4bhqp2rcd13ifvqhog","pricing_plan_id":"cebpf4jnsgd1na2vs0mg"},{"bike_id":"d9e8bb89-101b-4d08-95e0-c8fa58019a2c","system_id":"levelo_inurba_marseille","lat":43.29783,"lon":5.39338,"is_reserved":false,"is_disabled":false,"rental_uris":{"android":"levelo://app?vid=d9e8bb89-101b-4d08-95e0-c8fa58019a2c","ios":"levelo://app?vid=d9e8bb89-101b-4d08-95e0-c8fa58019a2c"},"vehicle_type_id":"4","last_reported":1741298915,"current_range_meters":20000,"station_id":"chh1huq6cuj3fo74tm60","pricing_plan_id":"cebpf4jnsgd1na2vs0mg"},{"bike_id":"b9f8c978-8781-47f3-9964-41dd36ce7c94","system_id":"levelo_inurba_marseille","lat":43.284578,"lon":5.35883,"is_reserved":false,"is_disabled":false,"rental_uris":{"android":"levelo://app?vid=b9f8c978-8781-47f3-9964-41dd36ce7c94","ios":"levelo://app?vid=b9f8c978-8781-47f3-9964-41dd36ce7c94"},"vehicle_type_id":"4","last_reported":1741298915,"current_range_meters":20400,"station_id":"ce4bhah2rcd13ifvqei0","pricing_plan_id":"cebpf4jnsgd1na2vs0mg"},{"bike_id":"81c4dfed-3360-4ceb-96ba-20c3578dd3cf","system_id":"levelo_inurba_marseille","lat":43.26033,"lon":5.3941,"is_reserved":false,"is_disabled":false,"rental_uris":{"android":"levelo://app?vid=81c4dfed-3360-4ceb-96ba-20c3578dd3cf","ios":"levelo://app?vid=81c4dfed-3360-4ceb-96ba-20c3578dd3cf"},"vehicle_type_id":"4","last_reported":1741298915,"current_range_meters":20400,"station_id":"ce4bhh92rcd13ifvqfj0","pricing_plan_id":"cebpf4jnsgd1na2vs0mg"},{"bike_id":"eabe4c11-3180-4bfb-84de-4d6955e72442","system_id":"levelo_inurba_marseille","lat":43.26228,"lon":5.40434,"is_reserved":false,"is_disabled":false,"rental_uris":{"android":"levelo://app?vid=eabe4c11-3180-4bfb-84de-4d6955e72442","ios":"levelo://app?vid=eabe4c11-3180-4bfb-84de-4d6955e72442"},"vehicle_type_id":"4","last_reported":1741298915,"current_range_meters":20400,"station_id":"ce4bhmh2rcd13ifvqgmg","pricing_plan_id":"cebpf4jnsgd1na2vs0mg"},{"bike_id":"5155280c-b661-41e2-b45b-4d5997756ac4","system_id":"levelo_inurba_marseille","lat":43.24068,"lon":5.37764,"is_reserved":false,"is_disabled":false,"rental_uris":{"android":"levelo://app?vid=5155280c-b661-41e2-b45b-4d5997756ac4","ios":"levelo://app?vid=5155280c-b661-41e2-b45b-4d5997756ac4"},"vehicle_type_id":"4","last_reported":1741298915,"current_range_meters":20400,"station_id":"ce4bhnp2rcd13ifvqgvg","pricing_plan_id":"cebpf4jnsgd1na2vs0mg"},{"bike_id":"d3c8f304-490f-406a-bd1e-8a039529a8d4","system_id":"levelo_inurba_marseille","lat":43.32109,"lon":5.36775,"is_reserved":false,"is_disabled":false,"rental_uris":{"android":"levelo://app?vid=d3c8f304-490f-406a-bd1e-8a039529a8d4","ios":"levelo://app?vid=d3c8f304-490f-406a-bd1e-8a039529a8d4"},"vehicle_type_id":"4","last_reported":1741298915,"current_range_meters":20400,"station_id":"ce4bhrh2rcd13ifvqhug","pricing_plan_id":"cebpf4jnsgd1na2vs0mg"},{"bike_id":"c1c412b3-ae23-45ab-894a-fe5b494cc9e6","system_id":"levelo_inurba_marseille","lat":43.23199,"lon":5.35571,"is_reserved":false,"is_disabled":false,"rental_uris":{"android":"levelo://app?vid=c1c412b3-ae23-45ab-894a-fe5b494cc9e6","ios":"levelo://app?vid=c1c412b3-ae23-45ab-894a-fe5b494cc9e6"},"vehicle_type_id":"4","last_reported":1741298915,"current_range_meters":20400,"station_id":"ce4bhu92rcd13ifvqi70","pricing_plan_id":"cebpf4jnsgd1na2vs0mg"},{"bike_id":"31c4e018-3e94-4cf3-8342-d9ef200f1a4e","system_id":"levelo_inurba_marseille","lat":43.29633,"lon":5.40597,"is_reserved":false,"is_disabled":false,"rental_uris":{"android":"levelo://app?vid=31c4e018-3e94-4cf3-8342-d9ef200f1a4e","ios":"levelo://app?vid=31c4e018-3e94-4cf3-8342-d9ef200f1a4e"},"vehicle_type_id":"4","last_reported":1741298915,"current_range_meters":20800,"station_id":"ce4bh0h2rcd13ifvqd60","pricing_plan_id":"cebpf4jnsgd1na2vs0mg"},{"bike_id":"d32f0791-d9d7-4d50-9769-72aad0301a33","system_id":"levelo_inurba_marseille","lat":43.25499,"lon":5.37648,"is_reserved":false,"is_disabled":false,"rental_uris":{"android":"levelo://app?vid=d32f0791-d9d7-4d50-9769-72aad0301a33","ios":"levelo://app?vid=d32f0791-d9d7-4d50-9769-72aad0301a33"},"vehicle_type_id":"4","last_reported":1741298915,"current_range_meters":20800,"station_id":"ce4bhh12rcd13ifvqff0","pricing_plan_id":"cebpf4jnsgd1na2vs0mg"},{"bike_id":"42f39da3-2d91-4cd3-bf2c-fe13da9002ad","system_id":"levelo_inurba_marseille","lat":43.25581,"lon":5.38225,"is_reserved":false,"is_disabled":false,"rental_uris":{"android":"levelo://app?vid=42f39da3-2d91-4cd3-bf2c-fe13da9002ad","ios":"levelo://app?vid=42f39da3-2d91-4cd3-bf2c-fe13da9002ad"},"vehicle_type_id":"4","last_reported":1741298915,"current_range_meters":20800,"station_id":"ce4bhih2rcd13ifvqfs0","pricing_plan_id":"cebpf4jnsgd1na2vs0mg"},{"bike_id":"ff2b1ff6-dd52-4aea-9a72-78d61c45e432","system_id":"levelo_inurba_marseille","lat":43.29526,"lon":5.39055,"is_reserved":false,"is_disabled":false,"rental_uris":{"android":"levelo://app?vid=ff2b1ff6-dd52-4aea-9a72-78d61c45e432","ios":"levelo://app?vid=ff2b1ff6-dd52-4aea-9a72-78d61c45e432"},"vehicle_type_id":"4","last_reported":1741298915,"current_range_meters":21600,"station_id":"ce4bh3p2rcd13ifvqdp0","pricing_plan_id":"cebpf4jnsgd1na2vs0mg"},{"bike_id":"779dc82b-c908-4862-8cac-be4abbbfce08","system_id":"levelo_inurba_marseille","lat":43.28614,"lon":5.35094,"is_reserved":false,"is_disabled":false,"rental_uris":{"android":"levelo://app?vid=779dc82b-c908-4862-8cac-be4abbbfce08","ios":"levelo://app?vid=779dc82b-c908-4862-8cac-be4abbbfce08"},"vehicle_type_id":"4","last_reported":1741298915,"current_range_meters":21600,"station_id":"ce4bhch2rcd13ifvqeug","pricing_plan_id":"cebpf4jnsgd1na2vs0mg"},{"bike_id":"45c114ec-d2a8-4f42-8343-e22f09a2f9b2","system_id":"levelo_inurba_marseille","lat":43.26553,"lon":5.37288,"is_reserved":false,"is_disabled":false,"rental_uris":{"android":"levelo://app?vid=45c114ec-d2a8-4f42-8343-e22f09a2f9b2","ios":"levelo://app?vid=45c114ec-d2a8-4f42-8343-e22f09a2f9b2"},"vehicle_type_id":"4","last_reported":1741298915,"current_range_meters":21600,"station_id":"ce4bhg12rcd13ifvqf70","pricing_plan_id":"cebpf4jnsgd1na2vs0mg"},{"bike_id":"6ad871c6-0428-4830-93ff-cc26536f3088","system_id":"levelo_inurba_marseille","lat":43.25584,"lon":5.38227,"is_reserved":false,"is_disabled":false,"rental_uris":{"android":"levelo://app?vid=6ad871c6-0428-4830-93ff-cc26536f3088","ios":"levelo://app?vid=6ad871c6-0428-4830-93ff-cc26536f3088"},"vehicle_type_id":"4","last_reported":1741298915,"current_range_meters":21600,"station_id":"ce4bhih2rcd13ifvqfs0","pricing_plan_id":"cebpf4jnsgd1na2vs0mg"},{"bike_id":"d40f7f1b-3dcc-4734-9c86-67254fc3ce7e","system_id":"levelo_inurba_marseille","lat":43.23146,"lon":5.437,"is_reserved":false,"is_disabled":false,"rental_uris":{"android":"levelo://app?vid=d40f7f1b-3dcc-4734-9c86-67254fc3ce7e","ios":"levelo://app?vid=d40f7f1b-3dcc-4734-9c86-67254fc3ce7e"},