{"last_updated":1729750453,"ttl":60,"version":"2.2","data":{"bikes":[{"bike_id":"93fd7287-b7ec-4c38-ac80-5c37f66999b7","system_id":"levelo_inurba_marseille","lat":43.24392,"lon":5.37047,"is_reserved":false,"is_disabled":false,"rental_uris":{"android":"levelo://app?vid=93fd7287-b7ec-4c38-ac80-5c37f66999b7","ios":"levelo://app?vid=93fd7287-b7ec-4c38-ac80-5c37f66999b7"},"vehicle_type_id":"4","last_reported":1729750454,"current_range_meters":38400,"station_id":"ce4bhhh2rcd13ifvqfk0","pricing_plan_id":"cebpf4jnsgd1na2vs0mg"},{"bike_id":"5f4c504f-64d7-447b-9c63-fa627168ec7b","system_id":"levelo_inurba_marseille","lat":43.2846,"lon":5.35885,"is_reserved":false,"is_disabled":false,"rental_uris":{"android":"levelo://app?vid=5f4c504f-64d7-447b-9c63-fa627168ec7b","ios":"levelo://app?vid=5f4c504f-64d7-447b-9c63-fa627168ec7b"},"vehicle_type_id":"4","last_reported":1729750454,"current_range_meters":38800,"station_id":"ce4bhah2rcd13ifvqei0","pricing_plan_id":"cebpf4jnsgd1na2vs0mg"},{"bike_id":"6e7189c8-6d34-4945-8fbf-b2a1a37960a8","system_id":"levelo_inurba_marseille","lat":43.31708,"lon":5.37756,"is_reserved":false,"is_disabled":false,"rental_uris":{"android":"levelo://app?vid=6e7189c8-6d34-4945-8fbf-b2a1a37960a8","ios":"levelo://app?vid=6e7189c8-6d34-4945-8fbf-b2a1a37960a8"},"vehicle_type_id":"4","last_reported":1729750454,"current_range_meters":24400,"station_id":"ce4bgth2rcd13ifvqch0","pricing_plan_id":"cebpf4jnsgd1na2vs0mg"},{"bike_id":"684d650b-d1e1-47e4-8a18-a7ba9af19d7e","system_id":"levelo_inurba_marseille","lat":43.24171,"lon":5.39735,"is_reserved":false,"is_disabled":false,"rental_uris":{"android":"levelo://app?vid=684d650b-d1e1-47e4-8a18-a7ba9af19d7e","ios":"levelo://app?vid=684d650b-d1e1-47e4-8a18-a7ba9af19d7e"},"vehicle_type_id":"4","last_reported":1729750454,"current_range_meters":38000,"station_id":"ce4bhn12rcd13ifvqgpg","pricing_plan_id":"cebpf4jnsgd1na2vs0mg"},{"bike_id":"4e718520-217c-4986-8e4a-4dbcae9b7210","system_id":"levelo_inurba_marseille","lat":43.279922,"lon":5.41656,"is_reserved":false,"is_disabled":false,"rental_uris":{"android":"levelo://app?vid=4e718520-217c-4986-8e4a-4dbcae9b7210","ios":"levelo://app?vid=4e718520-217c-4986-8e4a-4dbcae9b7210"},"vehicle_type_id":"4","last_reported":1729750454,"current_range_meters":10000,"station_id":"ce4bho12rcd13ifvqh1g","pricing_plan_id":"cebpf4jnsgd1na2vs0mg"},{"bike_id":"ab6deddc-46ee-4625-95e6-9d433b6d0dda","system_id":"levelo_inurba_marseille","lat":43.28458,"lon":5.35881,"is_reserved":false,"is_disabled":false,"rental_uris":{"android":"levelo://app?vid=ab6deddc-46ee-4625-95e6-9d433b6d0dda","ios":"levelo://app?vid=ab6deddc-46ee-4625-95e6-9d433b6d0dda"},"vehicle_type_id":"4","last_reported":1729750454,"current_range_meters":24400,"station_id":"ce4bhah2rcd13ifvqei0","pricing_plan_id":"cebpf4jnsgd1na2vs0mg"},{"bike_id":"cf00bfcd-9f87-4011-81c6-4541ee31d8cd","system_id":"levelo_inurba_marseille","lat":43.3136,"lon":5.36698,"is_reserved":false,"is_disabled":false,"rental_uris":{"android":"levelo://app?vid=cf00bfcd-9f87-4011-81c6-4541ee31d8cd","ios":"levelo://app?vid=cf00bfcd-9f87-4011-81c6-4541ee31d8cd"},"vehicle_type_id":"4","last_reported":1729750454,"current_range_meters":36000,"station_id":"ce4bgr92rcd13ifvqc6g","pricing_plan_id":"cebpf4jnsgd1na2vs0mg"},{"bike_id":"497fc25b-f171-4786-80a0-e1e124b8028f","system_id":"levelo_inurba_marseille","lat":43.30799,"lon":5.381592,"is_reserved":false,"is_disabled":false,"rental_uris":{"android":"levelo://app?vid=497fc25b-f171-4786-80a0-e1e124b8028f","ios":"levelo://app?vid=497fc25b-f171-4786-80a0-e1e124b8028f"},"vehicle_type_id":"4","last_reported":1729750454,"current_range_meters":24000,"station_id":"ce4bgt12rcd13ifvqce0","pricing_plan_id":"cebpf4jnsgd1na2vs0mg"},{"bike_id":"21c7101c-ca4b-4c55-b4b1-4130a4e6a9f4","system_id":"levelo_inurba_marseille","lat":43.30543,"lon":5.36715,"is_reserved":false,"is_disabled":false,"rental_uris":{"android":"levelo://app?vid=21c7101c-ca4b-4c55-b4b1-4130a4e6a9f4","ios":"levelo://app?vid=21c7101c-ca4b-4c55-b4b1-4130a4e6a9f4"},"vehicle_type_id":"4","last_reported":1729750454,"current_range_meters":38800,"station_id":"ce4bgrp2rcd13ifvqc9g","pricing_plan_id":"cebpf4jnsgd1na2vs0mg"},{"bike_id":"b39cc9b2-716c-4c9d-849c-dae16c7c9a04","system_id":"levelo_inurba_marseille","lat":43.2781,"lon":5.4071,"is_reserved":false,"is_disabled":false,"rental_uris":{"android":"levelo://app?vid=b39cc9b2-716c-4c9d-849c-dae16c7c9a04","ios":"levelo://app?vid=b39cc9b2-716c-4c9d-849c-dae16c7c9a04"},"vehicle_type_id":"4","last_reported":1729750454,"current_range_meters":33200,"station_id":"ce4bhnh2rcd13ifvqgtg","pricing_plan_id":"cebpf4jnsgd1na2vs0mg"},{"bike_id":"9f074ccd-7b5d-4615-a0de-1df1963b28b4","system_id":"levelo_inurba_marseille","lat":43.31495,"lon":5.37305,"is_reserved":false,"is_disabled":false,"rental_uris":{"android":"levelo://app?vid=9f074ccd-7b5d-4615-a0de-1df1963b28b4","ios":"levelo://app?vid=9f074ccd-7b5d-4615-a0de-1df1963b28b4"},"vehicle_type_id":"4","last_reported":1729750454,"current_range_meters":6400,"station_id":"ce4bgt12rcd13ifvqcd0","pricing_plan_id":"cebpf4jnsgd1na2vs0mg"},{"bike_id":"c39695b1-cee1-48ed-b86d-6df039d5292c","system_id":"levelo_inurba_marseille","lat":43.30531,"lon":5.36712,"is_reserved":false,"is_disabled":false,"rental_uris":{"android":"levelo://app?vid=c39695b1-cee1-48ed-b86d-6df039d5292c","ios":"levelo://app?vid=c39695b1-cee1-48ed-b86d-6df039d5292c"},"vehicle_type_id":"4","last_reported":1729750454,"current_range_meters":37600,"station_id":"ce4bgrp2rcd13ifvqc9g","pricing_plan_id":"cebpf4jnsgd1na2vs0mg"},{"bike_id":"a93517ff-5a1d-4565-bd61-fa3438f9dc6e","system_id":"levelo_inurba_marseille","lat":43.30882,"lon":5.39642,"is_reserved":false,"is_disabled":false,"rental_uris":{"android":"levelo://app?vid=a93517ff-5a1d-4565-bd61-fa3438f9dc6e","ios":"levelo://app?vid=a93517ff-5a1d-4565-bd61-fa3438f9dc6e"},"vehicle_type_id":"4","last_reported":1729750454,"current_range_meters":4400,"station_id":"ce4bh012rcd13ifvqcv0","pricing_plan_id":"cebpf4jnsgd1na2vs0mg"},{"bike_id":"694679e3-89bc-474b-88d4-72f2607e9aa9","system_id":"levelo_inurba_marseille","lat":43.27829,"lon":5.40716,"is_reserved":false,"is_disabled":false,"rental_uris":{"android":"levelo://app?vid=694679e3-89bc-474b-88d4-72f2607e9aa9","ios":"levelo://app?vid=694679e3-89bc-474b-88d4-72f2607e9aa9"},"vehicle_type_id":"4","last_reported":1729750454,"current_range_meters":6800,"station_id":"ce4bhnh2rcd13ifvqgtg","pricing_plan_id":"cebpf4jnsgd1na2vs0mg"},{"bike_id":"cc99ca6d-33d2-4a11-b5ce-f76b4cb06056","system_id":"levelo_inurba_marseille","lat":43.243918,"lon":5.370475,"is_reserved":false,"is_disabled":false,"rental_uris":{"android":"levelo://app?vid=cc99ca6d-33d2-4a11-b5ce-f76b4cb06056","ios":"levelo://app?vid=cc99ca6d-33d2-4a11-b5ce-f76b4cb06056"},"vehicle_type_id":"4","last_reported":1729750454,"current_range_meters":24400,"station_id":"ce4bhhh2rcd13ifvqfk0","pricing_plan_id":"cebpf4jnsgd1na2vs0mg"},{"bike_id":"0a1b479d-52cc-43be-b555-b0ec65cfda36","system_id":"levelo_inurba_marseille","lat":43.24069,"lon":5.3776,"is_reserved":false,"is_disabled":false,"rental_uris":{"android":"levelo://app?vid=0a1b479d-52cc-43be-b555-b0ec65cfda36","ios":"levelo://app?vid=0a1b479d-52cc-43be-b555-b0ec65cfda36"},"vehicle_type_id":"4","last_reported":1729750454,"current_range_meters":38000,"station_id":"ce4bhnp2rcd13ifvqgvg","pricing_plan_id":"cebpf4jnsgd1na2vs0mg"},{"bike_id":"29022cab-0aa3-4fff-9ddc-958bddb55705","system_id":"levelo_inurba_marseille","lat":43.3016,"lon":5.3808,"is_reserved":false,"is_disabled":false,"rental_uris":{"android":"levelo://app?vid=29022cab-0aa3-4fff-9ddc-958bddb55705","ios":"levelo://app?vid=29022cab-0aa3-4fff-9ddc-958bddb55705"},"vehicle_type_id":"4","last_reported":1729750454,"current_range_meters":24400,"station_id":"ce4bgjp2rcd13ifvqbh0","pricing_plan_id":"cebpf4jnsgd1na2vs0mg"},{"bike_id":"2e131b58-2054-4e77-b451-bf31396efab3","system_id":"levelo_inurba_marseille","lat":43.3089,"lon":5.37198,"is_reserved":false,"is_disabled":false,"rental_uris":{"android":"levelo://app?vid=2e131b58-2054-4e77-b451-bf31396efab3","ios":"levelo://app?vid=2e131b58-2054-4e77-b451-bf31396efab3"},"vehicle_type_id":"4","last_reported":1729750454,"current_range_meters":32400,"station_id":"ce4bguh2rcd13ifvqckg","pricing_plan_id":"cebpf4jnsgd1na2vs0mg"},{"bike_id":"c80861ab-e94d-4e79-91dd-39988fbd0a6a","system_id":"levelo_inurba_marseille","lat":43.30952,"lon":5.39042,"is_reserved":false,"is_disabled":false,"rental_uris":{"android":"levelo://app?vid=c80861ab-e94d-4e79-91dd-39988fbd0a6a","ios":"levelo://app?vid=c80861ab-e94d-4e79-91dd-39988fbd0a6a"},"vehicle_type_id":"4","last_reported":1729750454,"current_range_meters":40000,"station_id":"ce4bgup2rcd13ifvqco0","pricing_plan_id":"cebpf4jnsgd1na2vs0mg"},{"bike_id":"6abf3a03-af67-4859-8e11-a67b93278e15","system_id":"levelo_inurba_marseille","lat":43.31992,"lon":5.38141,"is_reserved":false,"is_disabled":false,"rental_uris":{"android":"levelo://app?vid=6abf3a03-af67-4859-8e11-a67b93278e15","ios":"levelo://app?vid=6abf3a03-af67-4859-8e11-a67b93278e15"},"vehicle_type_id":"4","last_reported":1729750454,"current_range_meters":8000,"station_id":"ce4bhr12rcd13ifvqhpg","pricing_plan_id":"cebpf4jnsgd1na2vs0mg"},{"bike_id":"03dd22fb-5c79-41d9-9a45-aa97b9b6fd1f","system_id":"levelo_inurba_marseille","lat":43.2847,"lon":5.35892,"is_reserved":false,"is_disabled":false,"rental_uris":{"android":"levelo://app?vid=03dd22fb-5c79-41d9-9a45-aa97b9b6fd1f","ios":"levelo://app?vid=03dd22fb-5c79-41d9-9a45-aa97b9b6fd1f"},"vehicle_type_id":"4","last_reported":1729750454,"current_range_meters":38800,"station_id":"ce4bhah2rcd13ifvqei0","pricing_plan_id":"cebpf4jnsgd1na2vs0mg"},{"bike_id":"18773a67-aaf4-4d0c-9bc3-2a029c8809da","system_id":"levelo_inurba_marseille","lat":43.33605,"lon":5.41027,"is_reserved":false,"is_disabled":false,"rental_uris":{"android":"levelo://app?vid=18773a67-aaf4-4d0c-9bc3-2a029c8809da","ios":"levelo://app?vid=18773a67-aaf4-4d0c-9bc3-2a029c8809da"},"vehicle_type_id":"4","last_reported":1729750454,"current_range_meters":5600,"station_id":"ce4bhqh2rcd13ifvqhmg","pricing_plan_id":"cebpf4jnsgd1na2vs0mg"},{"bike_id":"49290cad-a773-41f6-9a9d-3962f6f9c0d9","system_id":"levelo_inurba_marseille","lat":43.31708,"lon":5.37757,"is_reserved":false,"is_disabled":false,"rental_uris":{"android":"levelo://app?vid=49290cad-a773-41f6-9a9d-3962f6f9c0d9","ios":"levelo://app?vid=49290cad-a773-41f6-9a9d-3962f6f9c0d9"},"vehicle_type_id":"4","last_reported":1729750454,"current_range_meters":30000,"station_id":"ce4bgth2rcd13ifvqch0","pricing_plan_id":"cebpf4jnsgd1na2vs0mg"},{"bike_id":"36ec8878-8122-4313-9a7f-14a8878dc458","system_id":"levelo_inurba_marseille","lat":43.33737,"lon":5.37458,"is_reserved":false,"is_disabled":false,"rental_uris":{"android":"levelo://app?vid=36ec8878-8122-4313-9a7f-14a8878dc458","ios":"levelo://app?vid=36ec8878-8122-4313-9a7f-14a8878dc458"},"vehicle_type_id":"4","last_reported":1729750454,"current_range_meters":26000,"station_id":"","pricing_plan_id":"cebpf4jnsgd1na2vs0mg"},{"bike_id":"ebb2ba92-cd48-49c1-9ee2-134baa8f6dd4","system_id":"levelo_inurba_marseille","lat":43.23182,"lon":5.39975,"is_reserved":false,"is_disabled":false,"rental_uris":{"android":"levelo://app?vid=ebb2ba92-cd48-49c1-9ee2-134baa8f6dd4","ios":"levelo://app?vid=ebb2ba92-cd48-49c1-9ee2-134baa8f6dd4"},"vehicle_type_id":"4","last_reported":1729750454,"current_range_meters":16800,"station_id":"ce4bhn12rcd13ifvqgqg","pricing_plan_id":"cebpf4jnsgd1na2vs0mg"},{"bike_id":"3e6dacef-7721-4fd6-908f-05fbf9bc0354","system_id":"levelo_inurba_marseille","lat":43.23194,"lon":5.35557,"is_reserved":false,"is_disabled":false,"rental_uris":{"android":"levelo://app?vid=3e6dacef-7721-4fd6-908f-05fbf9bc0354","ios":"levelo://app?vid=3e6dacef-7721-4fd6-908f-05fbf9bc0354"},"vehicle_type_id":"4","last_reported":1729750454,"current_range_meters":38000,"station_id":"ce4bhu92rcd13ifvqi70","pricing_plan_id":"cebpf4jnsgd1na2vs0mg"},{"bike_id":"3314ee57-70b2-4a02-be6d-9e5257e35257","system_id":"levelo_inurba_marseille","lat":43.28153,"lon":5.42645,"is_reserved":false,"is_disabled":false,"rental_uris":{"android":"levelo://app?vid=3314ee57-70b2-4a02-be6d-9e5257e35257","ios":"levelo://app?vid=3314ee57-70b2-4a02-be6d-9e5257e35257"},"vehicle_type_id":"4","last_reported":1729750454,"current_range_meters":37600,"station_id":"ce4bhnh2rcd13ifvqgug","pricing_plan_id":"cebpf4jnsgd1na2vs0mg"},{"bike_id":"2e1e6313-596d-4bc2-9ce6-3bb4d2c6d1ef","system_id":"levelo_inurba_marseille","lat":43.28371,"lon":5.38634,"is_reserved":false,"is_disabled":false,"rental_uris":{"android":"levelo://app?vid=2e1e6313-596d-4bc2-9ce6-3bb4d2c6d1ef","ios":"levelo://app?vid=2e1e6313-596d-4bc2-9ce6-3bb4d2c6d1ef"},"vehicle_type_id":"4","last_reported":1729750454,"current_range_meters":38800,"station_id":"ce4bh492rcd13ifvqdvg","pricing_plan_id":"cebpf4jnsgd1na2vs0mg"},{"bike_id":"c6376113-7a27-485a-ba93-1ff2a4ce0fc8","system_id":"levelo_inurba_marseille","lat":43.28494,"lon":5.38576,"is_reserved":false,"is_disabled":false,"rental_uris":{"android":"levelo://app?vid=c6376113-7a27-485a-ba93-1ff2a4ce0fc8","ios":"levelo://app?vid=c6376113-7a27-485a-ba93-1ff2a4ce0fc8"},"vehicle_type_id":"4","last_reported":1729750454,"current_range_meters":36000,"station_id":"ce4bh8p2rcd13ifvqeb0","pricing_plan_id":"cebpf4jnsgd1na2vs0mg"},{"bike_id":"b8c9a954-8a45-4a7c-9122-e43683fb8fcc","system_id":"levelo_inurba_marseille","lat":43.246471,"lon":5.388987,"is_reserved":false,"is_disabled":false,"rental_uris":{"android":"levelo://app?vid=b8c9a954-8a45-4a7c-9122-e43683fb8fcc","ios":"levelo://app?vid=b8c9a954-8a45-4a7c-9122-e43683fb8fcc"},"vehicle_type_id":"4","last_reported":1729750454,"current_range_meters":38000,"station_id":"ce4bhg12rcd13ifvqf60","pricing_plan_id":"cebpf4jnsgd1na2vs0mg"},{"bike_id":"97ce6431-cdfe-4c86-8575-534875aed7f5","system_id":"levelo_inurba_marseille","lat":43.3053,"lon":5.36659,"is_reserved":false,"is_disabled":false,"rental_uris":{"android":"levelo://app?vid=97ce6431-cdfe-4c86-8575-534875aed7f5","ios":"levelo://app?vid=97ce6431-cdfe-4c86-8575-534875aed7f5"},"vehicle_type_id":"4","last_reported":1729750454,"current_range_meters":8400,"station_id":"","pricing_plan_id":"cebpf4jnsgd1na2vs0mg"},{"bike_id":"bc8c5f05-14d5-4aff-bd18-3ffa8d394552","system_id":"levelo_inurba_marseille","lat":43.30598,"lon":5.37239,"is_reserved":false,"is_disabled":false,"rental_uris":{"android":"levelo://app?vid=bc8c5f05-14d5-4aff-bd18-3ffa8d394552","ios":"levelo://app?vid=bc8c5f05-14d5-4aff-bd18-3ffa8d394552"},"vehicle_type_id":"4","last_reported":1729750454,"current_range_meters":26000,"station_id":"ce4bgqh2rcd13ifvqc4g","pricing_plan_id":"cebpf4jnsgd1na2vs0mg"},{"bike_id":"bc4efb73-4734-4293-a1eb-82c722d0ec12","system_id":"levelo_inurba_marseille","lat":43.25503,"lon":5.37649,"is_reserved":false,"is_disabled":false,"rental_uris":{"android":"levelo://app?vid=bc4efb73-4734-4293-a1eb-82c722d0ec12","ios":"levelo://app?vid=bc4efb73-4734-4293-a1eb-82c722d0ec12"},"vehicle_type_id":"4","last_reported":1729750454,"current_range_meters":38000,"station_id":"ce4bhh12rcd13ifvqff0","pricing_plan_id":"cebpf4jnsgd1na2vs0mg"},{"bike_id":"b69d0c64-0724-4563-ab4e-cdb5166b1cd5","system_id":"levelo_inurba_marseille","lat":43.331,"lon":5.38201,"is_reserved":false,"is_disabled":false,"rental_uris":{"android":"levelo://app?vid=b69d0c64-0724-4563-ab4e-cdb5166b1cd5","ios":"levelo://app?vid=b69d0c64-0724-4563-ab4e-cdb5166b1cd5"},"vehicle_type_id":"4","last_reported":1729750454,"current_range_meters":22400,"station_id":"","pricing_plan_id":"cebpf4jnsgd1na2vs0mg"},{"bike_id":"87c652f1-9909-4dc3-afe3-1f22c557134a","system_id":"levelo_inurba_marseille","lat":43.27053,"lon":5.40271,"is_reserved":false,"is_disabled":false,"rental_uris":{"android":"levelo://app?vid=87c652f1-9909-4dc3-afe3-1f22c557134a","ios":"levelo://app?vid=87c652f1-9909-4dc3-afe3-1f22c557134a"},"vehicle_type_id":"4","last_reported":1729750454,"current_range_meters":30800,"station_id":"ce4bhk92rcd13ifvqgc0","pricing_plan_id":"cebpf4jnsgd1na2vs0mg"},{"bike_id":"2d57b868-f196-481a-9202-209646935105","system_id":"levelo_inurba_marseille","lat":43.33608,"lon":5.41031,"is_reserved":false,"is_disabled":false,"rental_uris":{"android":"levelo://app?vid=2d57b868-f196-481a-9202-209646935105","ios":"levelo://app?vid=2d57b868-f196-481a-9202-209646935105"},"vehicle_type_id":"4","last_reported":1729750454,"current_range_meters":6800,"station_id":"ce4bhqh2rcd13ifvqhmg","pricing_plan_id":"cebpf4jnsgd1na2vs0mg"},{"bike_id":"039d9520-5588-49ee-bfb9-14e6aff89ebf","system_id":"levelo_inurba_marseille","lat":43.30466,"lon":5.37902,"is_reserved":false,"is_disabled":false,"rental_uris":{"android":"levelo://app?vid=039d9520-5588-49ee-bfb9-14e6aff89ebf","ios":"levelo://app?vid=039d9520-5588-49ee-bfb9-14e6aff89ebf"},"vehicle_type_id":"4","last_reported":1729750454,"current_range_meters":27200,"station_id":"ce4bgup2rcd13ifvqcn0","pricing_plan_id":"cebpf4jnsgd1na2vs0mg"},{"bike_id":"72842b8b-205d-4ae8-8cbe-c9b1e3c069ad","system_id":"levelo_inurba_marseille","lat":43.30463,"lon":5.37903,"is_reserved":false,"is_disabled":false,"rental_uris":{"android":"levelo://app?vid=72842b8b-205d-4ae8-8cbe-c9b1e3c069ad","ios":"levelo://app?vid=72842b8b-205d-4ae8-8cbe-c9b1e3c069ad"},"vehicle_type_id":"4","last_reported":1729750454,"current_range_meters":32800,"station_id":"ce4bgup2rcd13ifvqcn0","pricing_plan_id":"cebpf4jnsgd1na2vs0mg"},{"bike_id":"b2e8841f-cada-4d7e-8f03-fdf5b304fbb3","system_id":"levelo_inurba_marseille","lat":43.27462,"lon":5.38465,"is_reserved":false,"is_disabled":false,"rental_uris":{"android":"levelo://app?vid=b2e8841f-cada-4d7e-8f03-fdf5b304fbb3","ios":"levelo://app?vid=b2e8841f-cada-4d7e-8f03-fdf5b304fbb3"},"vehicle_type_id":"4","last_reported":1729750454,"current_range_meters":31200,"station_id":"ce4bhh92rcd13ifvqfi0","pricing_plan_id":"cebpf4jnsgd1na2vs0mg"},{"bike_id":"3a70a89e-a4aa-46b4-9124-d37608af9c5d","system_id":"levelo_inurba_marseille","lat":43.28087,"lon":5.40676,"is_reserved":false,"is_disabled":false,"rental_uris":{"android":"levelo://app?vid=3a70a89e-a4aa-46b4-9124-d37608af9c5d","ios":"levelo://app?vid=3a70a89e-a4aa-46b4-9124-d37608af9c5d"},"vehicle_type_id":"4","last_reported":1729750454,"current_range_meters":38800,"station_id":"","pricing_plan_id":"cebpf4jnsgd1na2vs0mg"},{"bike_id":"6863b408-ebee-4eb0-9912-40ac449db1d5","system_id":"levelo_inurba_marseille","lat":43.286041,"lon":5.385303,"is_reserved":false,"is_disabled":false,"rental_uris":{"android":"levelo://app?vid=6863b408-ebee-4eb0-9912-40ac449db1d5","ios":"levelo://app?vid=6863b408-ebee-4eb0-9912-40ac449db1d5"},"vehicle_type_id":"4","last_reported":1729750454,"current_range_meters":29600,"station_id":"ce4bh492rcd13ifvqdug","pricing_plan_id":"cebpf4jnsgd1na2vs0mg"},{"bike_id":"d559dc1b-ba63-4390-a50c-92e4adeb1a9d","system_id":"levelo_inurba_marseille","lat":43.25939,"lon":5.40904,"is_reserved":false,"is_disabled":false,"rental_uris":{"android":"levelo://app?vid=d559dc1b-ba63-4390-a50c-92e4adeb1a9d","ios":"levelo://app?vid=d559dc1b-ba63-4390-a50c-92e4adeb1a9d"},"vehicle_type_id":"4","last_reported":1729750454,"current_range_meters":3600,"station_id":"ce4bhm92rcd13ifvqglg","pricing_plan_id":"cebpf4jnsgd1na2vs0mg"},{"bike_id":"aa4f0503-c068-45d3-8f93-3c32e61598e4","system_id":"levelo_inurba_marseille","lat":43.304685,"lon":5.379115,"is_reserved":false,"is_disabled":false,"rental_uris":{"android":"levelo://app?vid=aa4f0503-c068-45d3-8f93-3c32e61598e4","ios":"levelo://app?vid=aa4f0503-c068-45d3-8f93-3c32e61598e4"},"vehicle_type_id":"4","last_reported":1729750454,"current_range_meters":14800,"station_id":"ce4bgup2rcd13ifvqcn0","pricing_plan_id":"cebpf4jnsgd1na2vs0mg"},{"bike_id":"4ab33ede-4577-46fa-8a63-3e6792660afb","system_id":"levelo_inurba_marseille","lat":43.28104,"lon":5.37852,"is_reserved":false,"is_disabled":false,"rental_uris":{"android":"levelo://app?vid=4ab33ede-4577-46fa-8a63-3e6792660afb","ios":"levelo://app?vid=4ab33ede-4577-46fa-8a63-3e6792660afb"},"vehicle_type_id":"4","last_reported":1729750454,"current_range_meters":38400,"station_id":"ce4bha12rcd13ifvqee0","pricing_plan_id":"cebpf4jnsgd1na2vs0mg"},{"bike_id":"aa99f811-363e-46a8-aef9-b5e22fccd73b","system_id":"levelo_inurba_marseille","lat":43.279,"lon":5.38012,"is_reserved":false,"is_disabled":false,"rental_uris":{"android":"levelo://app?vid=aa99f811-363e-46a8-aef9-b5e22fccd73b","ios":"levelo://app?vid=aa99f811-363e-46a8-aef9-b5e22fccd73b"},"vehicle_type_id":"4","last_reported":1729750454,"current_range_meters":38800,"station_id":"ce4bhf92rcd13ifvqf50","pricing_plan_id":"cebpf4jnsgd1na2vs0mg"},{"bike_id":"e2296e9b-eed6-4fd1-ac02-4223589e07f6","system_id":"levelo_inurba_marseille","lat":43.30595,"lon":5.37231,"is_reserved":false,"is_disabled":false,"rental_uris":{"android":"levelo://app?vid=e2296e9b-eed6-4fd1-ac02-4223589e07f6","ios":"levelo://app?vid=e2296e9b-eed6-4fd1-ac02-4223589e07f6"},"vehicle_type_id":"4","last_reported":1729750454,"current_range_meters":19200,"station_id":"ce4bgqh2rcd13ifvqc4g","pricing_plan_id":"cebpf4jnsgd1na2vs0mg"},{"bike_id":"787a043b-4421-4306-8bcb-bb4dc495eaa9","system_id":"levelo_inurba_marseille","lat":43.2847,"lon":5.38412,"is_reserved":false,"is_disabled":false,"rental_uris":{"android":"levelo://app?vid=787a043b-4421-4306-8bcb-bb4dc495eaa9","ios":"levelo://app?vid=787a043b-4421-4306-8bcb-bb4dc495eaa9"},"vehicle_type_id":"4","last_reported":1729750454,"current_range_meters":28400,"station_id":"ce4bh512rcd13ifvqe3g","pricing_plan_id":"cebpf4jnsgd1na2vs0mg"},{"bike_id":"d7515cbf-5aa1-41fd-b258-49d42fd5997e","system_id":"levelo_inurba_marseille","lat":43.30467,"lon":5.37902,"is_reserved":false,"is_disabled":false,"rental_uris":{"android":"levelo://app?vid=d7515cbf-5aa1-41fd-b258-49d42fd5997e","ios":"levelo://app?vid=d7515cbf-5aa1-41fd-b258-49d42fd5997e"},"vehicle_type_id":"4","last_reported":1729750454,"current_range_meters":10000,"station_id":"ce4bgup2rcd13ifvqcn0","pricing_plan_id":"cebpf4jnsgd1na2vs0mg"},{"bike_id":"2763fb51-5aeb-45c6-9c3a-23eb0832edec","system_id":"levelo_inurba_marseille","lat":43.29251,"lon":5.40903,"is_reserved":false,"is_disabled":false,"rental_uris":{"android":"levelo://app?vid=2763fb51-5aeb-45c6-9c3a-23eb0832edec","ios":"levelo://app?vid=2763fb51-5aeb-45c6-9c3a-23eb0832edec"},"vehicle_type_id":"4","last_reported":1729750454,"current_range_meters":37600,"station_id":"ce4bh192rcd13ifvqdc0","pricing_plan_id":"cebpf4jnsgd1na2vs0mg"},{"bike_id":"38482edd-0631-46af-9334-ca5dbcf750e6","system_id":"levelo_inurba_marseille","lat":43.30892,"lon":5.37182,"is_reserved":false,"is_disabled":false,"rental_uris":{"android":"levelo://app?vid=38482edd-0631-46af-9334-ca5dbcf750e6","ios":"levelo://app?vid=38482edd-0631-46af-9334-ca5dbcf750e6"},"vehicle_type_id":"4","last_reported":1729750454,"current_range_meters":27200,"station_id":"ce4bguh2rcd13ifvqckg","pricing_plan_id":"cebpf4jnsgd1na2vs0mg"},{"bike_id":"8f40f5a1-dff7-42c7-90d7-c956ea526b89","system_id":"levelo_inurba_marseille","lat":43.30143,"lon":5.37415,"is_reserved":false,"is_disabled":false,"rental_uris":{"android":"levelo://app?vid=8f40f5a1-dff7-42c7-90d7-c956ea526b89","ios":"levelo://app?vid=8f40f5a1-dff7-42c7-90d7-c956ea526b89"},"vehicle_type_id":"4","last_reported":1729750454,"current_range_meters":35200,"station_id":"ce4bgs92rcd13ifvqcc0","pricing_plan_id":"cebpf4jnsgd1na2vs0mg"},{"bike_id":"380cebd2-629c-405c-b64b-401aabe3bd03","system_id":"levelo_inurba_marseille","lat":43.28852,"lon":5.35863,"is_reserved":false,"is_disabled":false,"rental_uris":{"android":"levelo://app?vid=380cebd2-629c-405c-b64b-401aabe3bd03","ios":"levelo://app?vid=380cebd2-629c-405c-b64b-401aabe3bd03"},"vehicle_type_id":"4","last_reported":1729750454,"current_range_meters":36400,"station_id":"ce4bhb12rcd13ifvqem0","pricing_plan_id":"cebpf4jnsgd1na2vs0mg"},{"bike_id":"5e347b29-85c9-4926-993a-059ad0e4e49a","system_id":"levelo_inurba_marseille","lat":43.3015,"lon":5.38071,"is_reserved":false,"is_disabled":false,"rental_uris":{"android":"levelo://app?vid=5e347b29-85c9-4926-993a-059ad0e4e49a","ios":"levelo://app?vid=5e347b29-85c9-4926-993a-059ad0e4e49a"},"vehicle_type_id":"4","last_reported":1729750454,"current_range_meters":16400,"station_id":"ce4bgjp2rcd13ifvqbh0","pricing_plan_id":"cebpf4jnsgd1na2vs0mg"},{"bike_id":"fc98b86f-6f66-4864-96d0-5dffffb9adc6","system_id":"levelo_inurba_marseille","lat":43.33751,"lon":5.37433,"is_reserved":false,"is_disabled":false,"rental_uris":{"android":"levelo://app?vid=fc98b86f-6f66-4864-96d0-5dffffb9adc6","ios":"levelo://app?vid=fc98b86f-6f66-4864-96d0-5dffffb9adc6"},"vehicle_type_id":"4","last_reported":1729750454,"current_range_meters":26800,"station_id":"","pricing_plan_id":"cebpf4jnsgd1na2vs0mg"},{"bike_id":"46445d39-6561-461f-a75a-fb12db25a8f7","system_id":"levelo_inurba_marseille","lat":43.25936,"lon":5.40904,"is_reserved":false,"is_disabled":false,"rental_uris":{"android":"levelo://app?vid=46445d39-6561-461f-a75a-fb12db25a8f7","ios":"levelo://app?vid=46445d39-6561-461f-a75a-fb12db25a8f7"},"vehicle_type_id":"4","last_reported":1729750454,"current_range_meters":25600,"station_id":"ce4bhm92rcd13ifvqglg","pricing_plan_id":"cebpf4jnsgd1na2vs0mg"},{"bike_id":"53261b68-ab28-4ee0-911a-d149ade6ec8e","system_id":"levelo_inurba_marseille","lat":43.2465,"lon":5.38889,"is_reserved":false,"is_disabled":false,"rental_uris":{"android":"levelo://app?vid=53261b68-ab28-4ee0-911a-d149ade6ec8e","ios":"levelo://app?vid=53261b68-ab28-4ee0-911a-d149ade6ec8e"},"vehicle_type_id":"4","last_reported":1729750454,"current_range_meters":37600,"station_id":"ce4bhg12rcd13ifvqf60","pricing_plan_id":"cebpf4jnsgd1na2vs0mg"},{"bike_id":"190ab3f4-0dd0-4288-849a-ab444ee4de87","system_id":"levelo_inurba_marseille","lat":43.28567,"lon":5.39506,"is_reserved":false,"is_disabled":false,"rental_uris":{"android":"levelo://app?vid=190ab3f4-0dd0-4288-849a-ab444ee4de87","ios":"levelo://app?vid=190ab3f4-0dd0-4288-849a-ab444ee4de87"},"vehicle_type_id":"4","last_reported":1729750454,"current_range_meters":38800,"station_id":"ce4bh292rcd13ifvqdg0","pricing_plan_id":"cebpf4jnsgd1na2vs0mg"},{"bike_id":"efa42ff0-fcbb-4391-98d4-4b32fd7b9000","system_id":"levelo_inurba_marseille","lat":43.3047,"lon":5.37897,"is_reserved":false,"is_disabled":false,"rental_uris":{"android":"levelo://app?vid=efa42ff0-fcbb-4391-98d4-4b32fd7b9000","ios":"levelo://app?vid=efa42ff0-fcbb-4391-98d4-4b32fd7b9000"},"vehicle_type_id":"4","last_reported":1729750454,"current_range_meters":35600,"station_id":"ce4bgup2rcd13ifvqcn0","pricing_plan_id":"cebpf4jnsgd1na2vs0mg"},{"bike_id":"7aa910a1-32e6-41bf-bc9d-1ee459afbc77","system_id":"levelo_inurba_marseille","lat":43.284075,"lon":5.375123,"is_reserved":false,"is_disabled":false,"rental_uris":{"android":"levelo://app?vid=7aa910a1-32e6-41bf-bc9d-1ee459afbc77","ios":"levelo://app?vid=7aa910a1-32e6-41bf-bc9d-1ee459afbc77"},"vehicle_type_id":"4","last_reported":1729750454,"current_range_meters":17600,"station_id":"ce4bh412rcd13ifvqds0","pricing_plan_id":"cebpf4jnsgd1na2vs0mg"},{"bike_id":"15bf3f86-f551-45cf-aa6e-89d9451c8125","system_id":"levelo_inurba_marseille","lat":43.28461,"lon":5.35902,"is_reserved":false,"is_disabled":false,"rental_uris":{"android":"levelo://app?vid=15bf3f86-f551-45cf-aa6e-89d9451c8125","ios":"levelo://app?vid=15bf3f86-f551-45cf-aa6e-89d9451c8125"},"vehicle_type_id":"4","last_reported":1729750454,"current_range_meters":38800,"station_id":"ce4bhah2rcd13ifvqei0","pricing_plan_id":"cebpf4jnsgd1na2vs0mg"},{"bike_id":"87b6995d-9c77-4c54-bef7-5ea2d7376b5f","system_id":"levelo_inurba_marseille","lat":43.30276,"lon":5.37708,"is_reserved":false,"is_disabled":false,"rental_uris":{"android":"levelo://app?vid=87b6995d-9c77-4c54-bef7-5ea2d7376b5f","ios":"levelo://app?vid=87b6995d-9c77-4c54-bef7-5ea2d7376b5f"},"vehicle_type_id":"4","last_reported":1729750454,"current_range_meters":6400,"station_id":"ce4bguh2rcd13ifvqcj0","pricing_plan_id":"cebpf4jnsgd1na2vs0mg"},{"bike_id":"5933de8d-7245-4fc6-9cfe-72a4f51f3340","system_id":"levelo_inurba_marseille","lat":43.31331,"lon":5.39691,"is_reserved":false,"is_disabled":false,"rental_uris":{"android":"levelo://app?vid=5933de8d-7245-4fc6-9cfe-72a4f51f3340","ios":"levelo://app?vid=5933de8d-7245-4fc6-9cfe-72a4f51f3340"},"vehicle_type_id":"4","last_reported":1729750454,"current_range_meters":38800,"station_id":"ce4bgvp2rcd13ifvqcu0","pricing_plan_id":"cebpf4jnsgd1na2vs0mg"},{"bike_id":"08a41d86-bf74-42d1-b350-4800246eef64","system_id":"levelo_inurba_marseille","lat":43.24185,"lon":5.38802,"is_reserved":false,"is_disabled":false,"rental_uris":{"android":"levelo://app?vid=08a41d86-bf74-42d1-b350-4800246eef64","ios":"levelo://app?vid=08a41d86-bf74-42d1-b350-4800246eef64"},"vehicle_type_id":"4","last_reported":1729750454,"current_range_meters":32000,"station_id":"","pricing_plan_id":"cebpf4jnsgd1na2vs0mg"},{"bike_id":"db69ea4c-1c7d-43a0-b7f1-e0da5b76f2ea","system_id":"levelo_inurba_marseille","lat":43.28422,"lon":5.4596,"is_reserved":false,"is_disabled":false,"rental_uris":{"android":"levelo://app?vid=db69ea4c-1c7d-43a0-b7f1-e0da5b76f2ea","ios":"levelo://app?vid=db69ea4c-1c7d-43a0-b7f1-e0da5b76f2ea"},"vehicle_type_id":"4","last_reported":1729750454,"current_range_meters":10000,"station_id":"","pricing_plan_id":"cebpf4jnsgd1na2vs0mg"},{"bike_id":"1cd8084c-ce68-4d27-914c-ee4521a0ba66","system_id":"levelo_inurba_marseille","lat":43.28405,"lon":5.3752,"is_reserved":false,"is_disabled":false,"rental_uris":{"android":"levelo://app?vid=1cd8084c-ce68-4d27-914c-ee4521a0ba66","ios":"levelo://app?vid=1cd8084c-ce68-4d27-914c-ee4521a0ba66"},"vehicle_type_id":"4","last_reported":1729750454,"current_range_meters":3600,"station_id":"ce4bh412rcd13ifvqds0","pricing_plan_id":"cebpf4jnsgd1na2vs0mg"},{"bike_id":"0ae1663c-5bb3-40eb-aebe-2e4d249f3588","system_id":"levelo_inurba_marseille","lat":43.31331,"lon":5.39698,"is_reserved":false,"is_disabled":false,"rental_uris":{"android":"levelo://app?vid=0ae1663c-5bb3-40eb-aebe-2e4d249f3588","ios":"levelo://app?vid=0ae1663c-5bb3-40eb-aebe-2e4d249f3588"},"vehicle_type_id":"4","last_reported":1729750454,"current_range_meters":32800,"station_id":"ce4bgvp2rcd13ifvqcu0","pricing_plan_id":"cebpf4jnsgd1na2vs0mg"},{"bike_id":"86869bbe-711e-4293-b1ec-b076c7845480","system_id":"levelo_inurba_marseille","lat":43.23191,"lon":5.399846,"is_reserved":false,"is_disabled":false,"rental_uris":{"android":"levelo://app?vid=86869bbe-711e-4293-b1ec-b076c7845480","ios":"levelo://app?vid=86869bbe-711e-4293-b1ec-b076c7845480"},"vehicle_type_id":"4","last_reported":1729750454,"current_range_meters":38800,"station_id":"ce4bhn12rcd13ifvqgqg","pricing_plan_id":"cebpf4jnsgd1na2vs0mg"},{"bike_id":"1a8a522f-8c9f-4ee6-bfba-536ceb11403e","system_id":"levelo_inurba_marseille","lat":43.28152,"lon":5.42643,"is_reserved":false,"is_disabled":false,"rental_uris":{"android":"levelo://app?vid=1a8a522f-8c9f-4ee6-bfba-536ceb11403e","ios":"levelo://app?vid=1a8a522f-8c9f-4ee6-bfba-536ceb11403e"},"vehicle_type_id":"4","last_reported":1729750454,"current_range_meters":4400,"station_id":"ce4bhnh2rcd13ifvqgug","pricing_plan_id":"cebpf4jnsgd1na2vs0mg"},{"bike_id":"b995583f-b1c8-4b22-98b9-9d5eb39de5d2","system_id":"levelo_inurba_marseille","lat":43.30152,"lon":5.38074,"is_reserved":false,"is_disabled":false,"rental_uris":{"android":"levelo://app?vid=b995583f-b1c8-4b22-98b9-9d5eb39de5d2","ios":"levelo://app?vid=b995583f-b1c8-4b22-98b9-9d5eb39de5d2"},"vehicle_type_id":"4","last_reported":1729750454,"current_range_meters":28000,"station_id":"ce4bgjp2rcd13ifvqbh0","pricing_plan_id":"cebpf4jnsgd1na2vs0mg"},{"bike_id":"15e2b628-5bec-4ece-888c-4c4ee54b8344","system_id":"levelo_inurba_marseille","lat":43.29035,"lon":5.37562,"is_reserved":false,"is_disabled":false,"rental_uris":{"android":"levelo://app?vid=15e2b628-5bec-4ece-888c-4c4ee54b8344","ios":"levelo://app?vid=15e2b628-5bec-4ece-888c-4c4ee54b8344"},"vehicle_type_id":"4","last_reported":1729750454,"current_range_meters":3600,"station_id":"ce4bh692rcd13ifvqe90","pricing_plan_id":"cebpf4jnsgd1na2vs0mg"},{"bike_id":"f1263351-9f0f-41ba-b8f6-38db19b22437","system_id":"levelo_inurba_marseille","lat":43.30481,"lon":5.37911,"is_reserved":false,"is_disabled":false,"rental_uris":{"android":"levelo://app?vid=f1263351-9f0f-41ba-b8f6-38db19b22437","ios":"levelo://app?vid=f1263351-9f0f-41ba-b8f6-38db19b22437"},"vehicle_type_id":"4","last_reported":1729750454,"current_range_meters":28400,"station_id":"ce4bgup2rcd13ifvqcn0","pricing_plan_id":"cebpf4jnsgd1na2vs0mg"},{"bike_id":"0994d49a-7eed-4d8a-bcc8-9e28c022f3c4","system_id":"levelo_inurba_marseille","lat":43.30537,"lon":5.36555,"is_reserved":false,"is_disabled":false,"rental_uris":{"android":"levelo://app?vid=0994d49a-7eed-4d8a-bcc8-9e28c022f3c4","ios":"levelo://app?vid=0994d49a-7eed-4d8a-bcc8-9e28c022f3c4"},"vehicle_type_id":"4","last_reported":1729750454,"current_range_meters":28000,"station_id":"ce4bgs12rcd13ifvqcag","pricing_plan_id":"cebpf4jnsgd1na2vs0mg"},{"bike_id":"158bcdbf-dd61-4bdb-af54-9e4b45931736","system_id":"levelo_inurba_marseille","lat":43.28037,"lon":5.36942,"is_reserved":false,"is_disabled":false,"rental_uris":{"android":"levelo://app?vid=158bcdbf-dd61-4bdb-af54-9e4b45931736","ios":"levelo://app?vid=158bcdbf-dd61-4bdb-af54-9e4b45931736"},"vehicle_type_id":"4","last_reported":1729750454,"current_range_meters":38000,"station_id":"ce4bha12rcd13ifvqef0","pricing_plan_id":"cebpf4jnsgd1na2vs0mg"},{"bike_id":"f990f0f4-bf4b-41b4-a95e-0260b16863b6","system_id":"levelo_inurba_marseille","lat":43.3031,"lon":5.36897,"is_reserved":false,"is_disabled":false,"rental_uris":{"android":"levelo://app?vid=f990f0f4-bf4b-41b4-a95e-0260b16863b6","ios":"levelo://app?vid=f990f0f4-bf4b-41b4-a95e-0260b16863b6"},"vehicle_type_id":"4","last_reported":1729750454,"current_range_meters":35200,"station_id":"ce4bgqh2rcd13ifvqc5g","pricing_plan_id":"cebpf4jnsgd1na2vs0mg"},{"bike_id":"32090a56-d013-4d5c-8379-d81e2e46055b","system_id":"levelo_inurba_marseille","lat":43.24659,"lon":5.38171,"is_reserved":false,"is_disabled":false,"rental_uris":{"android":"levelo://app?vid=32090a56-d013-4d5c-8379-d81e2e46055b","ios":"levelo://app?vid=32090a56-d013-4d5c-8379-d81e2e46055b"},"vehicle_type_id":"4","last_reported":1729750454,"current_range_meters":7200,"station_id":"ce4bhih2rcd13ifvqfr0","pricing_plan_id":"cebpf4jnsgd1na2vs0mg"},{"bike_id":"ee56864d-0289-4ab0-b1d9-4e118a6c50f5","system_id":"levelo_inurba_marseille","lat":43.34142,"lon":5.40895,"is_reserved":false,"is_disabled":false,"rental_uris":{"android":"levelo://app?vid=ee56864d-0289-4ab0-b1d9-4e118a6c50f5","ios":"levelo://app?vid=ee56864d-0289-4ab0-b1d9-4e118a6c50f5"},"vehicle_type_id":"4","last_reported":1729750454,"current_range_meters":38800,"station_id":"ce4bhqh2rcd13ifvqhlg","pricing_plan_id":"cebpf4jnsgd1na2vs0mg"},{"bike_id":"03817e17-e2e3-401b-ace0-554729b932d7","system_id":"levelo_inurba_marseille","lat":43.308,"lon":5.38161,"is_reserved":false,"is_disabled":false,"rental_uris":{"android":"levelo://app?vid=03817e17-e2e3-401b-ace0-554729b932d7","ios":"levelo://app?vid=03817e17-e2e3-401b-ace0-554729b932d7"},"vehicle_type_id":"4","last_reported":1729750454,"current_range_meters":9200,"station_id":"ce4bgt12rcd13ifvqce0","pricing_plan_id":"cebpf4jnsgd1na2vs0mg"},{"bike_id":"5ac8d596-222b-4aae-ad81-9a11a227b544","system_id":"levelo_inurba_marseille","lat":43.28938,"lon":5.39631,"is_reserved":false,"is_disabled":false,"rental_uris":{"android":"levelo://app?vid=5ac8d596-222b-4aae-ad81-9a11a227b544","ios":"levelo://app?vid=5ac8d596-222b-4aae-ad81-9a11a227b544"},"vehicle_type_id":"4","last_reported":1729750454,"current_range_meters":20800,"station_id":"ce4bh3h2rcd13ifvqdn0","pricing_plan_id":"cebpf4jnsgd1na2vs0mg"},{"bike_id":"7485068c-a88f-4a63-93f1-c517b3ac24fe","system_id":"levelo_inurba_marseille","lat":43.28568,"lon":5.39504,"is_reserved":false,"is_disabled":false,"rental_uris":{"android":"levelo://app?vid=7485068c-a88f-4a63-93f1-c517b3ac24fe","ios":"levelo://app?vid=7485068c-a88f-4a63-93f1-c517b3ac24fe"},"vehicle_type_id":"4","last_reported":1729750454,"current_range_meters":9200,"station_id":"ce4bh292rcd13ifvqdg0","pricing_plan_id":"cebpf4jnsgd1na2vs0mg"},{"bike_id":"3a14a8b6-bb6d-49ce-a05e-f2620ff49d64","system_id":"levelo_inurba_marseille","lat":43.25579,"lon":5.38233,"is_reserved":false,"is_disabled":false,"rental_uris":{"android":"levelo://app?vid=3a14a8b6-bb6d-49ce-a05e-f2620ff49d64","ios":"levelo://app?vid=3a14a8b6-bb6d-49ce-a05e-f2620ff49d64"},"vehicle_type_id":"4","last_reported":1729750454,"current_range_meters":39200,"station_id":"ce4bhih2rcd13ifvqfs0","pricing_plan_id":"cebpf4jnsgd1na2vs0mg"},{"bike_id":"8851e641-2a34-4df4-9c62-4bc8ce7ebb4a","system_id":"levelo_inurba_marseille","lat":43.28698,"lon":5.37385,"is_reserved":false,"is_disabled":false,"rental_uris":{"android":"levelo://app?vid=8851e641-2a34-4df4-9c62-4bc8ce7ebb4a","ios":"levelo://app?vid=8851e641-2a34-4df4-9c62-4bc8ce7ebb4a"},"vehicle_type_id":"4","last_reported":1729750454,"current_range_meters":37600,"station_id":"ce4bh3p2rcd13ifvqdq0","pricing_plan_id":"cebpf4jnsgd1na2vs0mg"},{"bike_id":"cfdeee23-3f3a-4dfe-bc7d-e274f6f00dbe","system_id":"levelo_inurba_marseille","lat":43.23154,"lon":5.43709,"is_reserved":false,"is_disabled":false,"rental_uris":{"android":"levelo://app?vid=cfdeee23-3f3a-4dfe-bc7d-e274f6f00dbe","ios":"levelo://app?vid=cfdeee23-3f3a-4dfe-bc7d-e274f6f00dbe"},"vehicle_type_id":"4","last_reported":1729750454,"current_range_meters":27200,"station_id":"ce4bhmp2rcd13ifvqgog","pricing_plan_id":"cebpf4jnsgd1na2vs0mg"},{"bike_id":"26cfe9cb-6ebb-445a-b80f-7d390593be68","system_id":"levelo_inurba_marseille","lat":43.30943,"lon":5.39032,"is_reserved":false,"is_disabled":false,"rental_uris":{"android":"levelo://app?vid=26cfe9cb-6ebb-445a-b80f-7d390593be68","ios":"levelo://app?vid=26cfe9cb-6ebb-445a-b80f-7d390593be68"},"vehicle_type_id":"4","last_reported":1729750454,"current_range_meters":19200,"station_id":"ce4bgup2rcd13ifvqco0","pricing_plan_id":"cebpf4jnsgd1na2vs0mg"},{"bike_id":"3a904881-c49f-42f3-ab29-bca1bed304a9","system_id":"levelo_inurba_marseille","lat":43.25938,"lon":5.40899,"is_reserved":false,"is_disabled":false,"rental_uris":{"android":"levelo://app?vid=3a904881-c49f-42f3-ab29-bca1bed304a9","ios":"levelo://app?vid=3a904881-c49f-42f3-ab29-bca1bed304a9"},"vehicle_type_id":"4","last_reported":1729750454,"current_range_meters":32400,"station_id":"ce4bhm92rcd13ifvqglg","pricing_plan_id":"cebpf4jnsgd1na2vs0mg"},{"bike_id":"53100c54-a4e3-45a7-9427-b292d95b6c16","system_id":"levelo_inurba_marseille","lat":43.30884,"lon":5.37199,"is_reserved":false,"is_disabled":false,"rental_uris":{"android":"levelo://app?vid=53100c54-a4e3-45a7-9427-b292d95b6c16","ios":"levelo://app?vid=53100c54-a4e3-45a7-9427-b292d95b6c16"},"vehicle_type_id":"4","last_reported":1729750454,"current_range_meters":38800,"station_id":"ce4bguh2rcd13ifvqckg","pricing_plan_id":"cebpf4jnsgd1na2vs0mg"},{"bike_id":"293a0eda-a37d-4172-bb6f-d028643c9783","system_id":"levelo_inurba_marseille","lat":43.23151,"lon":5.43714,"is_reserved":false,"is_disabled":false,"rental_uris":{"android":"levelo://app?vid=293a0eda-a37d-4172-bb6f-d028643c9783","ios":"levelo://app?vid=293a0eda-a37d-4172-bb6f-d028643c9783"},"vehicle_type_id":"4","last_reported":1729750454,"current_range_meters":32000,"station_id":"ce4bhmp2rcd13ifvqgog","pricing_plan_id":"cebpf4jnsgd1na2vs0mg"},{"bike_id":"ee8aca3a-e9b8-4db2-b237-7fbf12308fde","system_id":"levelo_inurba_marseille","lat":43.30885,"lon":5.39644,"is_reserved":false,"is_disabled":false,"rental_uris":{"android":"levelo://app?vid=ee8aca3a-e9b8-4db2-b237-7fbf12308fde","ios":"levelo://app?vid=ee8aca3a-e9b8-4db2-b237-7fbf12308fde"},"vehicle_type_id":"4","last_reported":1729750454,"current_range_meters":38000,"station_id":"ce4bh012rcd13ifvqcv0","pricing_plan_id":"cebpf4jnsgd1na2vs0mg"},{"bike_id":"60b5ad38-328b-49d2-ab74-b91edfe19bd7","system_id":"levelo_inurba_marseille","lat":43.30887,"lon":5.39632,"is_reserved":false,"is_disabled":false,"rental_uris":{"android":"levelo://app?vid=60b5ad38-328b-49d2-ab74-b91edfe19bd7","ios":"levelo://app?vid=60b5ad38-328b-49d2-ab74-b91edfe19bd7"},"vehicle_type_id":"4","last_reported":1729750454,"current_range_meters":25200,"station_id":"ce4bh012rcd13ifvqcv0","pricing_plan_id":"cebpf4jnsgd1na2vs0mg"},{"bike_id":"399a9b33-7aba-4d13-9ed9-b18fa087368d","system_id":"levelo_inurba_marseille","lat":43.28727,"lon":5.36093,"is_reserved":false,"is_disabled":false,"rental_uris":{"android":"levelo://app?vid=399a9b33-7aba-4d13-9ed9-b18fa087368d","ios":"levelo://app?vid=399a9b33-7aba-4d13-9ed9-b18fa087368d"},"vehicle_type_id":"4","last_reported":1729750454,"current_range_meters":24800,"station_id":"cki0cbj6b192h4jlfktg","pricing_plan_id":"cebpf4jnsgd1na2vs0mg"},{"bike_id":"92a6c0a9-673b-4b80-acf9-a133e3259aea","system_id":"levelo_inurba_marseille","lat":43.31215,"lon":5.36856,"is_reserved":false,"is_disabled":false,"rental_uris":{"android":"levelo://app?vid=92a6c0a9-673b-4b80-acf9-a133e3259aea","ios":"levelo://app?vid=92a6c0a9-673b-4b80-acf9-a133e3259aea"},"vehicle_type_id":"4","last_reported":1729750454,"current_range_meters":24800,"station_id":"ce4bgl92rcd13ifvqbq0","pricing_plan_id":"cebpf4jnsgd1na2vs0mg"},{"bike_id":"835c24e0-80ee-4321-97dc-0c2a526a960c","system_id":"levelo_inurba_marseille","lat":43.30477,"lon":5.37903,"is_reserved":false,"is_disabled":false,"rental_uris":{"android":"levelo://app?vid=835c24e0-80ee-4321-97dc-0c2a526a960c","ios":"levelo://app?vid=835c24e0-80ee-4321-97dc-0c2a526a960c"},"vehicle_type_id":"4","last_reported":1729750454,"current_range_meters":22400,"station_id":"ce4bgup2rcd13ifvqcn0","pricing_plan_id":"cebpf4jnsgd1na2vs0mg"},{"bike_id":"901c8390-57d3-4c3a-a1aa-a6bc59812b3a","system_id":"levelo_inurba_marseille","lat":43.26947,"lon":5.40244,"is_reserved":false,"is_disabled":false,"rental_uris":{"android":"levelo://app?vid=901c8390-57d3-4c3a-a1aa-a6bc59812b3a","ios":"levelo://app?vid=901c8390-57d3-4c3a-a1aa-a6bc59812b3a"},"vehicle_type_id":"4","last_reported":1729750454,"current_range_meters":37600,"station_id":"cjm6bp8fraef2m0cb0m0","pricing_plan_id":"cebpf4jnsgd1na2vs0mg"},{"bike_id":"12965f57-3a1d-4768-83c5-e018ff17ce98","system_id":"levelo_inurba_marseille","lat":43.24172,"lon":5.39734,"is_reserved":false,"is_disabled":false,"rental_uris":{"android":"levelo://app?vid=12965f57-3a1d-4768-83c5-e018ff17ce98","ios":"levelo://app?vid=12965f57-3a1d-4768-83c5-e018ff17ce98"},"vehicle_type_id":"4","last_reported":1729750454,"current_range_meters":38800,"station_id":"ce4bhn12rcd13ifvqgpg","pricing_plan_id":"cebpf4jnsgd1na2vs0mg"},{"bike_id":"5f108f86-5f70-43d2-9e2a-05149af5ed71","system_id":"levelo_inurba_marseille","lat":43.30276,"lon":5.37706,"is_reserved":false,"is_disabled":false,"rental_uris":{"android":"levelo://app?vid=5f108f86-5f70-43d2-9e2a-05149af5ed71","ios":"levelo://app?vid=5f108f86-5f70-43d2-9e2a-05149af5ed71"},"vehicle_type_id":"4","last_reported":1729750454,"current_range_meters":12000,"station_id":"ce4bguh2rcd13ifvqcj0","pricing_plan_id":"cebpf4jnsgd1na2vs0mg"},{"bike_id":"0300ae8c-d89e-4fc9-94c4-e4571dd93d5f","system_id":"levelo_inurba_marseille","lat":43.24643,"lon":5.4247,"is_reserved":false,"is_disabled":false,"rental_uris":{"android":"levelo://app?vid=0300ae8c-d89e-4fc9-94c4-e4571dd93d5f","ios":"levelo://app?vid=0300ae8c-d89e-4fc9-94c4-e4571dd93d5f"},"vehicle_type_id":"4","last_reported":1729750454,"current_range_meters":30800,"station_id":"","pricing_plan_id":"cebpf4jnsgd1na2vs0mg"},{"bike_id":"8b368eb4-d88f-4e27-9a59-f48c296d2a4c","system_id":"levelo_inurba_marseille","lat":43.27994,"lon":5.41661,"is_reserved":false,"is_disabled":false,"rental_uris":{"android":"levelo://app?vid=8b368eb4-d88f-4e27-9a59-f48c296d2a4c","ios":"levelo://app?vid=8b368eb4-d88f-4e27-9a59-f48c296d2a4c"},"vehicle_type_id":"4","last_reported":1729750454,"current_range_meters":24000,"station_id":"ce4bho12rcd13ifvqh1g","pricing_plan_id":"cebpf4jnsgd1na2vs0mg"},{"bike_id":"a159004c-6b0d-4cda-b6c0-b8546774c9f5","system_id":"levelo_inurba_marseille","lat":43.24551,"lon":5.39523,"is_reserved":false,"is_disabled":false,"rental_uris":{"android":"levelo://app?vid=a159004c-6b0d-4cda-b6c0-b8546774c9f5","ios":"levelo://app?vid=a159004c-6b0d-4cda-b6c0-b8546774c9f5"},"vehicle_type_id":"4","last_reported":1729750454,"current_range_meters":4800,"station_id":"ce4bhlp2rcd13ifvqgjg","pricing_plan_id":"cebpf4jnsgd1na2vs0mg"},{"bike_id":"fd9701c6-ca47-4ddc-b523-a4a888532baa","system_id":"levelo_inurba_marseille","lat":43.30473,"lon":5.37897,"is_reserved":false,"is_disabled":false,"rental_uris":{"android":"levelo://app?vid=fd9701c6-ca47-4ddc-b523-a4a888532baa","ios":"levelo://app?vid=fd9701c6-ca47-4ddc-b523-a4a888532baa"},"vehicle_type_id":"4","last_reported":1729750454,"current_range_meters":26000,"station_id":"ce4bgup2rcd13ifvqcn0","pricing_plan_id":"cebpf4jnsgd1na2vs0mg"},{"bike_id":"513e9df3-7590-42dd-a419-2e9e62f66b47","system_id":"levelo_inurba_marseille","lat":43.3133,"lon":5.39689,"is_reserved":false,"is_disabled":false,"rental_uris":{"android":"levelo://app?vid=513e9df3-7590-42dd-a419-2e9e62f66b47","ios":"levelo://app?vid=513e9df3-7590-42dd-a419-2e9e62f66b47"},"vehicle_type_id":"4","last_reported":1729750454,"current_range_meters":8400,"station_id":"ce4bgvp2rcd13ifvqcu0","pricing_plan_id":"cebpf4jnsgd1na2vs0mg"},{"bike_id":"9c980766-3696-42be-8e1a-d22fb6edb5c5","system_id":"levelo_inurba_marseille","lat":43.30657,"lon":5.38217,"is_reserved":false,"is_disabled":false,"rental_uris":{"android":"levelo://app?vid=9c980766-3696-42be-8e1a-d22fb6edb5c5","ios":"levelo://app?vid=9c980766-3696-42be-8e1a-d22fb6edb5c5"},"vehicle_type_id":"4","last_reported":1729750454,"current_range_meters":29600,"station_id":"","pricing_plan_id":"cebpf4jnsgd1na2vs0mg"},{"bike_id":"750ca232-d097-4aa9-a726-ceb5724008cb","system_id":"levelo_inurba_marseille","lat":43.28938,"lon":5.39626,"is_reserved":false,"is_disabled":false,"rental_uris":{"android":"levelo://app?vid=750ca232-d097-4aa9-a726-ceb5724008cb","ios":"levelo://app?vid=750ca232-d097-4aa9-a726-ceb5724008cb"},"vehicle_type_id":"4","last_reported":1729750454,"current_range_meters":39200,"station_id":"ce4bh3h2rcd13ifvqdn0","pricing_plan_id":"cebpf4jnsgd1na2vs0mg"},{"bike_id":"8d5b743c-ab08-408d-9aa9-a0f9f3f7ae93","system_id":"levelo_inurba_marseille","lat":43.30794,"lon":5.38145,"is_reserved":false,"is_disabled":false,"rental_uris":{"android":"levelo://app?vid=8d5b743c-ab08-408d-9aa9-a0f9f3f7ae93","ios":"levelo://app?vid=8d5b743c-ab08-408d-9aa9-a0f9f3f7ae93"},"vehicle_type_id":"4","last_reported":1729750454,"current_range_meters":22000,"station_id":"ce4bgt12rcd13ifvqce0","pricing_plan_id":"cebpf4jnsgd1na2vs0mg"},{"bike_id":"fbf97ef8-bd1b-4c04-9a9d-32289ab679c9","system_id":"levelo_inurba_marseille","lat":43.31705,"lon":5.37755,"is_reserved":false,"is_disabled":false,"rental_uris":{"android":"levelo://app?vid=fbf97ef8-bd1b-4c04-9a9d-32289ab679c9","ios":"levelo://app?vid=fbf97ef8-bd1b-4c04-9a9d-32289ab679c9"},"vehicle_type_id":"4","last_reported":1729750454,"current_range_meters":38800,"station_id":"ce4bgth2rcd13ifvqch0","pricing_plan_id":"cebpf4jnsgd1na2vs0mg"},{"bike_id":"133bb554-a4ed-4109-8f5b-9f0a1bf1c329","system_id":"levelo_inurba_marseille","lat":43.299713,"lon":5.371795,"is_reserved":false,"is_disabled":false,"rental_uris":{"android":"levelo://app?vid=133bb554-a4ed-4109-8f5b-9f0a1bf1c329","ios":"levelo://app?vid=133bb554-a4ed-4109-8f5b-9f0a1bf1c329"},"vehicle_type_id":"4","last_reported":1729750454,"current_range_meters":18800,"station_id":"ce4bhq12rcd13ifvqhhg","pricing_plan_id":"cebpf4jnsgd1na2vs0mg"},{"bike_id":"46e0f558-f26f-4dfa-b1bf-e83f5a82a466","system_id":"levelo_inurba_marseille","lat":43.29027,"lon":5.39966,"is_reserved":false,"is_disabled":false,"rental_uris":{"android":"levelo://app?vid=46e0f558-f26f-4dfa-b1bf-e83f5a82a466","ios":"levelo://app?vid=46e0f558-f26f-4dfa-b1bf-e83f5a82a466"},"vehicle_type_id":"4","last_reported":1729750454,"current_range_meters":36800,"station_id":"ce4bh392rcd13ifvqdm0","pricing_plan_id":"cebpf4jnsgd1na2vs0mg"},{"bike_id":"283ec9a7-aced-49c8-8bc7-345345ce0771","system_id":"levelo_inurba_marseille","lat":43.30212,"lon":5.376,"is_reserved":false,"is_disabled":false,"rental_uris":{"android":"levelo://app?vid=283ec9a7-aced-49c8-8bc7-345345ce0771","ios":"levelo://app?vid=283ec9a7-aced-49c8-8bc7-345345ce0771"},"vehicle_type_id":"4","last_reported":1729750454,"current_range_meters":36800,"station_id":"ce4bguh2rcd13ifvqcj0","pricing_plan_id":"cebpf4jnsgd1na2vs0mg"},{"bike_id":"df18893b-652a-4978-8f09-21082eee1738","system_id":"levelo_inurba_marseille","lat":43.31077,"lon":5.38362,"is_reserved":false,"is_disabled":false,"rental_uris":{"android":"levelo://app?vid=df18893b-652a-4978-8f09-21082eee1738","ios":"levelo://app?vid=df18893b-652a-4978-8f09-21082eee1738"},"vehicle_type_id":"4","last_reported":1729750454,"current_range_meters":22000,"station_id":"ce4bgv92rcd13ifvqcr0","pricing_plan_id":"cebpf4jnsgd1na2vs0mg"},{"bike_id":"8d3a665e-b607-4c6b-bfa9-0539dee50c40","system_id":"levelo_inurba_marseille","lat":43.3047,"lon":5.37891,"is_reserved":false,"is_disabled":false,"rental_uris":{"android":"levelo://app?vid=8d3a665e-b607-4c6b-bfa9-0539dee50c40","ios":"levelo://app?vid=8d3a665e-b607-4c6b-bfa9-0539dee50c40"},"vehicle_type_id":"4","last_reported":1729750454,"current_range_meters":28400,"station_id":"ce4bgup2rcd13ifvqcn0","pricing_plan_id":"cebpf4jnsgd1na2vs0mg"},{"bike_id":"f2d61d8e-b330-4f19-85fc-278ebd52f014","system_id":"levelo_inurba_marseille","lat":43.29552,"lon":5.4229,"is_reserved":false,"is_disabled":false,"rental_uris":{"android":"levelo://app?vid=f2d61d8e-b330-4f19-85fc-278ebd52f014","ios":"levelo://app?vid=f2d61d8e-b330-4f19-85fc-278ebd52f014"},"vehicle_type_id":"4","last_reported":1729750454,"current_range_meters":37600,"station_id":"ce4bhph2rcd13ifvqhdg","pricing_plan_id":"cebpf4jnsgd1na2vs0mg"},{"bike_id":"90c3a3ae-e1f9-49f9-8230-c82dc265a457","system_id":"levelo_inurba_marseille","lat":43.31988,"lon":5.3814,"is_reserved":false,"is_disabled":false,"rental_uris":{"android":"levelo://app?vid=90c3a3ae-e1f9-49f9-8230-c82dc265a457","ios":"levelo://app?vid=90c3a3ae-e1f9-49f9-8230-c82dc265a457"},"vehicle_type_id":"4","last_reported":1729750454,"current_range_meters":8000,"station_id":"ce4bhr12rcd13ifvqhpg","pricing_plan_id":"cebpf4jnsgd1na2vs0mg"},{"bike_id":"d43610d4-6ab3-4063-97de-1a3507b8b43a","system_id":"levelo_inurba_marseille","lat":43.26801,"lon":5.40259,"is_reserved":false,"is_disabled":false,"rental_uris":{"android":"levelo://app?vid=d43610d4-6ab3-4063-97de-1a3507b8b43a","ios":"levelo://app?vid=d43610d4-6ab3-4063-97de-1a3507b8b43a"},"vehicle_type_id":"4","last_reported":1729750454,"current_range_meters":28800,"station_id":"ce501612rcd8frsf0b60","pricing_plan_id":"cebpf4jnsgd1na2vs0mg"},{"bike_id":"e6b310af-d763-4708-a97e-f6f2e27c7b8b","system_id":"levelo_inurba_marseille","lat":43.271711,"lon":5.409837,"is_reserved":false,"is_disabled":false,"rental_uris":{"android":"levelo://app?vid=e6b310af-d763-4708-a97e-f6f2e27c7b8b","ios":"levelo://app?vid=e6b310af-d763-4708-a97e-f6f2e27c7b8b"},"vehicle_type_id":"4","last_reported":1729750454,"current_range_meters":8800,"station_id":"ce4bhl12rcd13ifvqgf0","pricing_plan_id":"cebpf4jnsgd1na2vs0mg"},{"bike_id":"395470f6-2aa8-436c-b185-c3bfea3cdd91","system_id":"levelo_inurba_marseille","lat":43.28999,"lon":5.39968,"is_reserved":false,"is_disabled":false,"rental_uris":{"android":"levelo://app?vid=395470f6-2aa8-436c-b185-c3bfea3cdd91","ios":"levelo://app?vid=395470f6-2aa8-436c-b185-c3bfea3cdd91"},"vehicle_type_id":"4","last_reported":1729750454,"current_range_meters":33600,"station_id":"ce4bh392rcd13ifvqdm0","pricing_plan_id":"cebpf4jnsgd1na2vs0mg"},{"bike_id":"f36ff287-1568-4c08-93bf-292e61a3a499","system_id":"levelo_inurba_marseille","lat":43.30476,"lon":5.37902,"is_reserved":false,"is_disabled":false,"rental_uris":{"android":"levelo://app?vid=f36ff287-1568-4c08-93bf-292e61a3a499","ios":"levelo://app?vid=f36ff287-1568-4c08-93bf-292e61a3a499"},"vehicle_type_id":"4","last_reported":1729750454,"current_range_meters":39200,"station_id":"ce4bgup2rcd13ifvqcn0","pricing_plan_id":"cebpf4jnsgd1na2vs0mg"},{"bike_id":"57dfa82b-35a5-4e19-9a9a-cd2e56a43c86","system_id":"levelo_inurba_marseille","lat":43.30467,"lon":5.37898,"is_reserved":false,"is_disabled":false,"rental_uris":{"android":"levelo://app?vid=57dfa82b-35a5-4e19-9a9a-cd2e56a43c86","ios":"levelo://app?vid=57dfa82b-35a5-4e19-9a9a-cd2e56a43c86"},"vehicle_type_id":"4","last_reported":1729750454,"current_range_meters":38800,"station_id":"ce4bgup2rcd13ifvqcn0","pricing_plan_id":"cebpf4jnsgd1na2vs0mg"},{"bike_id":"87b14e22-9ad1-4d7e-b481-3b435b60c5b6","system_id":"levelo_inurba_marseille","lat":43.26803,"lon":5.4025,"is_reserved":false,"is_disabled":false,"rental_uris":{"android":"levelo://app?vid=87b14e22-9ad1-4d7e-b481-3b435b60c5b6","ios":"levelo://app?vid=87b14e22-9ad1-4d7e-b481-3b435b60c5b6"},"vehicle_type_id":"4","last_reported":1729750454,"current_range_meters":16800,"station_id":"ce501612rcd8frsf0b60","pricing_plan_id":"cebpf4jnsgd1na2vs0mg"},{"bike_id":"61ce41c0-c830-4f5f-b326-d71c02bdc8f9","system_id":"levelo_inurba_marseille","lat":43.33729,"lon":5.39176,"is_reserved":false,"is_disabled":false,"rental_uris":{"android":"levelo://app?vid=61ce41c0-c830-4f5f-b326-d71c02bdc8f9","ios":"levelo://app?vid=61ce41c0-c830-4f5f-b326-d71c02bdc8f9"},"vehicle_type_id":"4","last_reported":1729750454,"current_range_meters":32400,"station_id":"ce4bhr92rcd13ifvqhsg","pricing_plan_id":"cebpf4jnsgd1na2vs0mg"},{"bike_id":"53643c73-ebff-4438-9bbc-d1455671aa2b","system_id":"levelo_inurba_marseille","lat":43.319961,"lon":5.381409,"is_reserved":false,"is_disabled":false,"rental_uris":{"android":"levelo://app?vid=53643c73-ebff-4438-9bbc-d1455671aa2b","ios":"levelo://app?vid=53643c73-ebff-4438-9bbc-d1455671aa2b"},"vehicle_type_id":"4","last_reported":1729750454,"current_range_meters":30400,"station_id":"ce4bhr12rcd13ifvqhpg","pricing_plan_id":"cebpf4jnsgd1na2vs0mg"},{"bike_id":"b88bed07-aa41-4e48-8a3a-39b278e9fd91","system_id":"levelo_inurba_marseille","lat":43.26023,"lon":5.3755,"is_reserved":false,"is_disabled":false,"rental_uris":{"android":"levelo://app?vid=b88bed07-aa41-4e48-8a3a-39b278e9fd91","ios":"levelo://app?vid=b88bed07-aa41-4e48-8a3a-39b278e9fd91"},"vehicle_type_id":"4","last_reported":1729750454,"current_range_meters":35600,"station_id":"ce4bhgh2rcd13ifvqfa0","pricing_plan_id":"cebpf4jnsgd1na2vs0mg"},{"bike_id":"00a8bd9d-eef3-42e3-9e17-61a6e620d1f8","system_id":"levelo_inurba_marseille","lat":43.33021,"lon":5.39041,"is_reserved":false,"is_disabled":false,"rental_uris":{"android":"levelo://app?vid=00a8bd9d-eef3-42e3-9e17-61a6e620d1f8","ios":"levelo://app?vid=00a8bd9d-eef3-42e3-9e17-61a6e620d1f8"},"vehicle_type_id":"4","last_reported":1729750454,"current_range_meters":38800,"station_id":"ce4bhr92rcd13ifvqhrg","pricing_plan_id":"cebpf4jnsgd1na2vs0mg"},{"bike_id":"94438ccf-d97a-4943-9b44-a4586082c88b","system_id":"levelo_inurba_marseille","lat":43.28155,"lon":5.42654,"is_reserved":false,"is_disabled":false,"rental_uris":{"android":"levelo://app?vid=94438ccf-d97a-4943-9b44-a4586082c88b","ios":"levelo://app?vid=94438ccf-d97a-4943-9b44-a4586082c88b"},"vehicle_type_id":"4","last_reported":1729750454,"current_range_meters":37600,"station_id":"ce4bhnh2rcd13ifvqgug","pricing_plan_id":"cebpf4jnsgd1na2vs0mg"},{"bike_id":"40d7d049-8518-4ec4-b0e7-a82d69869ad0","system_id":"levelo_inurba_marseille","lat":43.30265,"lon":5.37693,"is_reserved":false,"is_disabled":false,"rental_uris":{"android":"levelo://app?vid=40d7d049-8518-4ec4-b0e7-a82d69869ad0","ios":"levelo://app?vid=40d7d049-8518-4ec4-b0e7-a82d69869ad0"},"vehicle_type_id":"4","last_reported":1729750454,"current_range_meters":38800,"station_id":"ce4bguh2rcd13ifvqcj0","pricing_plan_id":"cebpf4jnsgd1na2vs0mg"},{"bike_id":"5c2a0495-5bb1-472c-9ad5-2c6fadcaa05f","system_id":"levelo_inurba_marseille","lat":43.28034,"lon":5.36941,"is_reserved":false,"is_disabled":false,"rental_uris":{"android":"levelo://app?vid=5c2a0495-5bb1-472c-9ad5-2c6fadcaa05f","ios":"levelo://app?vid=5c2a0495-5bb1-472c-9ad5-2c6fadcaa05f"},"vehicle_type_id":"4","last_reported":1729750454,"current_range_meters":36000,"station_id":"ce4bha12rcd13ifvqef0","pricing_plan_id":"cebpf4jnsgd1na2vs0mg"},{"bike_id":"f2207757-a29d-4fd1-bdb5-e855e257b6ad","system_id":"levelo_inurba_marseille","lat":43.28365,"lon":5.38631,"is_reserved":false,"is_disabled":false,"rental_uris":{"android":"levelo://app?vid=f2207757-a29d-4fd1-bdb5-e855e257b6ad","ios":"levelo://app?vid=f2207757-a29d-4fd1-bdb5-e855e257b6ad"},"vehicle_type_id":"4","last_reported":1729750454,"current_range_meters":20400,"station_id":"ce4bh492rcd13ifvqdvg","pricing_plan_id":"cebpf4jnsgd1na2vs0mg"},{"bike_id":"292ae588-7da8-4e37-83a8-3c80924cbc10","system_id":"levelo_inurba_marseille","lat":43.30311,"lon":5.36899,"is_reserved":false,"is_disabled":false,"rental_uris":{"android":"levelo://app?vid=292ae588-7da8-4e37-83a8-3c80924cbc10","ios":"levelo://app?vid=292ae588-7da8-4e37-83a8-3c80924cbc10"},"vehicle_type_id":"4","last_reported":1729750454,"current_range_meters":10800,"station_id":"ce4bgqh2rcd13ifvqc5g","pricing_plan_id":"cebpf4jnsgd1na2vs0mg"},{"bike_id":"b066b1a5-980d-4784-9ff9-58422b081bc1","system_id":"levelo_inurba_marseille","lat":43.30279,"lon":5.37715,"is_reserved":false,"is_disabled":false,"rental_uris":{"android":"levelo://app?vid=b066b1a5-980d-4784-9ff9-58422b081bc1","ios":"levelo://app?vid=b066b1a5-980d-4784-9ff9-58422b081bc1"},"vehicle_type_id":"4","last_reported":1729750454,"current_range_meters":28800,"station_id":"ce4bguh2rcd13ifvqcj0","pricing_plan_id":"cebpf4jnsgd1na2vs0mg"},{"bike_id":"67bde647-e4e4-4030-ac7e-8060243dadcf","system_id":"levelo_inurba_marseille","lat":43.27424,"lon":5.39417,"is_reserved":false,"is_disabled":false,"rental_uris":{"android":"levelo://app?vid=67bde647-e4e4-4030-ac7e-8060243dadcf","ios":"levelo://app?vid=67bde647-e4e4-4030-ac7e-8060243dadcf"},"vehicle_type_id":"4","last_reported":1729750454,"current_range_meters":19200,"station_id":"ce4bhdp2rcd13ifvqf20","pricing_plan_id":"cebpf4jnsgd1na2vs0mg"},{"bike_id":"4b6769f0-9d52-4427-92eb-85214df0463d","system_id":"levelo_inurba_marseille","lat":43.23192,"lon":5.35552,"is_reserved":false,"is_disabled":false,"rental_uris":{"android":"levelo://app?vid=4b6769f0-9d52-4427-92eb-85214df0463d","ios":"levelo://app?vid=4b6769f0-9d52-4427-92eb-85214df0463d"},"vehicle_type_id":"4","last_reported":1729750454,"current_range_meters":14400,"station_id":"ce4bhu92rcd13ifvqi70","pricing_plan_id":"cebpf4jnsgd1na2vs0mg"},{"bike_id":"4ec25af9-2c50-4187-b3b7-1dc66bf6c68a","system_id":"levelo_inurba_marseille","lat":43.28306,"lon":5.40847,"is_reserved":false,"is_disabled":false,"rental_uris":{"android":"levelo://app?vid=4ec25af9-2c50-4187-b3b7-1dc66bf6c68a","ios":"levelo://app?vid=4ec25af9-2c50-4187-b3b7-1dc66bf6c68a"},"vehicle_type_id":"4","last_reported":1729750454,"current_range_meters":8800,"station_id":"","pricing_plan_id":"cebpf4jnsgd1na2vs0mg"},{"bike_id":"5dbd4211-c16c-474b-8fdf-1e167fef2b06","system_id":"levelo_inurba_marseille","lat":43.267581,"lon":5.39419,"is_reserved":false,"is_disabled":false,"rental_uris":{"android":"levelo://app?vid=5dbd4211-c16c-474b-8fdf-1e167fef2b06","ios":"levelo://app?vid=5dbd4211-c16c-474b-8fdf-1e167fef2b06"},"vehicle_type_id":"4","last_reported":1729750454,"current_range_meters":20000,"station_id":"ce4bhh12rcd13ifvqfg0","pricing_plan_id":"cebpf4jnsgd1na2vs0mg"},{"bike_id":"91989275-0d1f-4cd9-8078-425599e100f1","system_id":"levelo_inurba_marseille","lat":43.30465,"lon":5.37902,"is_reserved":false,"is_disabled":false,"rental_uris":{"android":"levelo://app?vid=91989275-0d1f-4cd9-8078-425599e100f1","ios":"levelo://app?vid=91989275-0d1f-4cd9-8078-425599e100f1"},"vehicle_type_id":"4","last_reported":1729750454,"current_range_meters":19600,"station_id":"ce4bgup2rcd13ifvqcn0","pricing_plan_id":"cebpf4jnsgd1na2vs0mg"},{"bike_id":"11f4da9f-54d4-4fc3-bb64-30048373bf8c","system_id":"levelo_inurba_marseille","lat":43.2315,"lon":5.43717,"is_reserved":false,"is_disabled":false,"rental_uris":{"android":"levelo://app?vid=11f4da9f-54d4-4fc3-bb64-30048373bf8c","ios":"levelo://app?vid=11f4da9f-54d4-4fc3-bb64-30048373bf8c"},"vehicle_type_id":"4","last_reported":1729750454,"current_range_meters":18800,"station_id":"ce4bhmp2rcd13ifvqgog","pricing_plan_id":"cebpf4jnsgd1na2vs0mg"},{"bike_id":"103ed008-6f4b-4142-8ae0-e6b210d9a427","system_id":"levelo_inurba_marseille","lat":43.22928,"lon":5.35374,"is_reserved":false,"is_disabled":false,"rental_uris":{"android":"levelo://app?vid=103ed008-6f4b-4142-8ae0-e6b210d9a427","ios":"levelo://app?vid=103ed008-6f4b-4142-8ae0-e6b210d9a427"},"vehicle_type_id":"4","last_reported":1729750454,"current_range_meters":12000,"station_id":"cpo3532slgdg3j2ikp40","pricing_plan_id":"cebpf4jnsgd1na2vs0mg"},{"bike_id":"503f7d31-6546-4f3c-93f9-187ede06bd9f","system_id":"levelo_inurba_marseille","lat":43.28403,"lon":5.37521,"is_reserved":false,"is_disabled":false,"rental_uris":{"android":"levelo://app?vid=503f7d31-6546-4f3c-93f9-187ede06bd9f","ios":"levelo://app?vid=503f7d31-6546-4f3c-93f9-187ede06bd9f"},"vehicle_type_id":"4","last_reported":1729750454,"current_range_meters":32800,"station_id":"ce4bh412rcd13ifvqds0","pricing_plan_id":"cebpf4jnsgd1na2vs0mg"},{"bike_id":"fa8da294-671e-4e9a-ad17-e5263743ae7c","system_id":"levelo_inurba_marseille","lat":43.24543,"lon":5.39526,"is_reserved":false,"is_disabled":false,"rental_uris":{"android":"levelo://app?vid=fa8da294-671e-4e9a-ad17-e5263743ae7c","ios":"levelo://app?vid=fa8da294-671e-4e9a-ad17-e5263743ae7c"},"vehicle_type_id":"4","last_reported":1729750454,"current_range_meters":23200,"station_id":"ce4bhlp2rcd13ifvqgjg","pricing_plan_id":"cebpf4jnsgd1na2vs0mg"},{"bike_id":"c453b705-fc51-4d33-b1f4-39dbc59ac5f6","system_id":"levelo_inurba_marseille","lat":43.29918,"lon":5.3748,"is_reserved":false,"is_disabled":false,"rental_uris":{"android":"levelo://app?vid=c453b705-fc51-4d33-b1f4-39dbc59ac5f6","ios":"levelo://app?vid=c453b705-fc51-4d33-b1f4-39dbc59ac5f6"},"vehicle_type_id":"4","last_reported":1729750454,"current_range_meters":35600,"station_id":"ce4bgjh2rcd13ifvqbg0","pricing_plan_id":"cebpf4jnsgd1na2vs0mg"},{"bike_id":"e93d0849-6889-4c3b-b756-5d2c77aee686","system_id":"levelo_inurba_marseille","lat":43.279924,"lon":5.416642,"is_reserved":false,"is_disabled":false,"rental_uris":{"android":"levelo://app?vid=e93d0849-6889-4c3b-b756-5d2c77aee686","ios":"levelo://app?vid=e93d0849-6889-4c3b-b756-5d2c77aee686"},"vehicle_type_id":"4","last_reported":1729750454,"current_range_meters":38800,"station_id":"ce4bho12rcd13ifvqh1g","pricing_plan_id":"cebpf4jnsgd1na2vs0mg"},{"bike_id":"4bc28b2e-91ce-46c0-a62e-4e8f6b42bc8c","system_id":"levelo_inurba_marseille","lat":43.27807,"lon":5.40705,"is_reserved":false,"is_disabled":false,"rental_uris":{"android":"levelo://app?vid=4bc28b2e-91ce-46c0-a62e-4e8f6b42bc8c","ios":"levelo://app?vid=4bc28b2e-91ce-46c0-a62e-4e8f6b42bc8c"},"vehicle_type_id":"4","last_reported":1729750454,"current_range_meters":31200,"station_id":"ce4bhnh2rcd13ifvqgtg","pricing_plan_id":"cebpf4jnsgd1na2vs0mg"},{"bike_id":"4ac9d45a-2295-48ba-a146-33490267b370","system_id":"levelo_inurba_marseille","lat":43.2695,"lon":5.38632,"is_reserved":false,"is_disabled":false,"rental_uris":{"android":"levelo://app?vid=4ac9d45a-2295-48ba-a146-33490267b370","ios":"levelo://app?vid=4ac9d45a-2295-48ba-a146-33490267b370"},"vehicle_type_id":"4","last_reported":1729750454,"current_range_meters":38400,"station_id":"ce4bhh92rcd13ifvqfh0","pricing_plan_id":"cebpf4jnsgd1na2vs0mg"},{"bike_id":"9a0af0d7-bb17-4d5c-aa62-31f0b495007a","system_id":"levelo_inurba_marseille","lat":43.24391,"lon":5.37049,"is_reserved":false,"is_disabled":false,"rental_uris":{"android":"levelo://app?vid=9a0af0d7-bb17-4d5c-aa62-31f0b495007a","ios":"levelo://app?vid=9a0af0d7-bb17-4d5c-aa62-31f0b495007a"},"vehicle_type_id":"4","last_reported":1729750454,"current_range_meters":26800,"station_id":"ce4bhhh2rcd13ifvqfk0","pricing_plan_id":"cebpf4jnsgd1na2vs0mg"},{"bike_id":"86661cc4-ae13-4ef8-929e-e580a0049ea9","system_id":"levelo_inurba_marseille","lat":43.29221,"lon":5.36075,"is_reserved":false,"is_disabled":false,"rental_uris":{"android":"levelo://app?vid=86661cc4-ae13-4ef8-929e-e580a0049ea9","ios":"levelo://app?vid=86661cc4-ae13-4ef8-929e-e580a0049ea9"},"vehicle_type_id":"4","last_reported":1729750454,"current_range_meters":35200,"station_id":"ce4bhbh2rcd13ifvqeqg","pricing_plan_id":"cebpf4jnsgd1na2vs0mg"},{"bike_id":"0bc90dc2-cf8c-457e-a6aa-9b91de95f992","system_id":"levelo_inurba_marseille","lat":43.2278,"lon":5.41569,"is_reserved":false,"is_disabled":false,"rental_uris":{"android":"levelo://app?vid=0bc90dc2-cf8c-457e-a6aa-9b91de95f992","ios":"levelo://app?vid=0bc90dc2-cf8c-457e-a6aa-9b91de95f992"},"vehicle_type_id":"4","last_reported":1729750454,"current_range_meters":34000,"station_id":"","pricing_plan_id":"cebpf4jnsgd1na2vs0mg"},{"bike_id":"f3631442-88e4-4b99-802a-caff4044a5fa","system_id":"levelo_inurba_marseille","lat":43.255812,"lon":5.382306,"is_reserved":false,"is_disabled":false,"rental_uris":{"android":"levelo://app?vid=f3631442-88e4-4b99-802a-caff4044a5fa","ios":"levelo://app?vid=f3631442-88e4-4b99-802a-caff4044a5fa"},"vehicle_type_id":"4","last_reported":1729750454,"current_range_meters":10800,"station_id":"ce4bhih2rcd13ifvqfs0","pricing_plan_id":"cebpf4jnsgd1na2vs0mg"},{"bike_id":"67bf2a4e-b0b8-45b5-8898-2db548cfe92d","system_id":"levelo_inurba_marseille","lat":43.31333,"lon":5.39698,"is_reserved":false,"is_disabled":false,"rental_uris":{"android":"levelo://app?vid=67bf2a4e-b0b8-45b5-8898-2db548cfe92d","ios":"levelo://app?vid=67bf2a4e-b0b8-45b5-8898-2db548cfe92d"},"vehicle_type_id":"4","last_reported":1729750454,"current_range_meters":33600,"station_id":"ce4bgvp2rcd13ifvqcu0","pricing_plan_id":"cebpf4jnsgd1na2vs0mg"},{"bike_id":"adb692e3-757f-448e-88e2-08bb58fbf765","system_id":"levelo_inurba_marseille","lat":43.304749,"lon":5.37889,"is_reserved":false,"is_disabled":false,"rental_uris":{"android":"levelo://app?vid=adb692e3-757f-448e-88e2-08bb58fbf765","ios":"levelo://app?vid=adb692e3-757f-448e-88e2-08bb58fbf765"},"vehicle_type_id":"4","last_reported":1729750454,"current_range_meters":17200,"station_id":"ce4bgup2rcd13ifvqcn0","pricing_plan_id":"cebpf4jnsgd1na2vs0mg"},{"bike_id":"77f4b066-aec9-4c35-96ec-732b3f9a5964","system_id":"levelo_inurba_marseille","lat":43.27906,"lon":5.38011,"is_reserved":false,"is_disabled":false,"rental_uris":{"android":"levelo://app?vid=77f4b066-aec9-4c35-96ec-732b3f9a5964","ios":"levelo://app?vid=77f4b066-aec9-4c35-96ec-732b3f9a5964"},"vehicle_type_id":"4","last_reported":1729750454,"current_range_meters":34000,"station_id":"ce4bhf92rcd13ifvqf50","pricing_plan_id":"cebpf4jnsgd1na2vs0mg"},{"bike_id":"bb2a666e-d4fd-434c-9930-bd52d9e92c1d","system_id":"levelo_inurba_marseille","lat":43.26106,"lon":5.40599,"is_reserved":false,"is_disabled":false,"rental_uris":{"android":"levelo://app?vid=bb2a666e-d4fd-434c-9930-bd52d9e92c1d","ios":"levelo://app?vid=bb2a666e-d4fd-434c-9930-bd52d9e92c1d"},"vehicle_type_id":"4","last_reported":1729750454,"current_range_meters":35200,"station_id":"","pricing_plan_id":"cebpf4jnsgd1na2vs0mg"},{"bike_id":"f3030980-51eb-4925-98a0-b30670297260","system_id":"levelo_inurba_marseille","lat":43.33607,"lon":5.41031,"is_reserved":false,"is_disabled":false,"rental_uris":{"android":"levelo://app?vid=f3030980-51eb-4925-98a0-b30670297260","ios":"levelo://app?vid=f3030980-51eb-4925-98a0-b30670297260"},"vehicle_type_id":"4","last_reported":1729750454,"current_range_meters":6000,"station_id":"ce4bhqh2rcd13ifvqhmg","pricing_plan_id":"cebpf4jnsgd1na2vs0mg"},{"bike_id":"579fa838-f30e-4923-a3fa-563ea99fcfd8","system_id":"levelo_inurba_marseille","lat":43.307007,"lon":5.395197,"is_reserved":false,"is_disabled":false,"rental_uris":{"android":"levelo://app?vid=579fa838-f30e-4923-a3fa-563ea99fcfd8","ios":"levelo://app?vid=579fa838-f30e-4923-a3fa-563ea99fcfd8"},"vehicle_type_id":"4","last_reported":1729750454,"current_range_meters":20000,"station_id":"ce4bgjh2rcd13ifvqbg0","pricing_plan_id":"cebpf4jnsgd1na2vs0mg"},{"bike_id":"a0bfcec4-1019-4422-bc30-2e46cb48cb4e","system_id":"levelo_inurba_marseille","lat":43.33755,"lon":5.37441,"is_reserved":false,"is_disabled":false,"rental_uris":{"android":"levelo://app?vid=a0bfcec4-1019-4422-bc30-2e46cb48cb4e","ios":"levelo://app?vid=a0bfcec4-1019-4422-bc30-2e46cb48cb4e"},"vehicle_type_id":"4","last_reported":1729750454,"current_range_meters":24000,"station_id":"","pricing_plan_id":"cebpf4jnsgd1na2vs0mg"},{"bike_id":"07d2ed46-26ce-4f0c-bf39-f566569c9a98","system_id":"levelo_inurba_marseille","lat":43.27834,"lon":5.39214,"is_reserved":false,"is_disabled":false,"rental_uris":{"android":"levelo://app?vid=07d2ed46-26ce-4f0c-bf39-f566569c9a98","ios":"levelo://app?vid=07d2ed46-26ce-4f0c-bf39-f566569c9a98"},"vehicle_type_id":"4","last_reported":1729750454,"current_range_meters":38800,"station_id":"ce4bhjp2rcd13ifvqga0","pricing_plan_id":"cebpf4jnsgd1na2vs0mg"},{"bike_id":"178565c8-00cd-4ad6-b5d9-88108c13e2fe","system_id":"levelo_inurba_marseille","lat":43.28411,"lon":5.37514,"is_reserved":false,"is_disabled":false,"rental_uris":{"android":"levelo://app?vid=178565c8-00cd-4ad6-b5d9-88108c13e2fe","ios":"levelo://app?vid=178565c8-00cd-4ad6-b5d9-88108c13e2fe"},"vehicle_type_id":"4","last_reported":1729750454,"current_range_meters":38800,"station_id":"ce4bh412rcd13ifvqds0","pricing_plan_id":"cebpf4jnsgd1na2vs0mg"},{"bike_id":"af860a9e-cf32-446b-acb1-d20c9a569468","system_id":"levelo_inurba_marseille","lat":43.25728,"lon":5.41107,"is_reserved":false,"is_disabled":false,"rental_uris":{"android":"levelo://app?vid=af860a9e-cf32-446b-acb1-d20c9a569468","ios":"levelo://app?vid=af860a9e-cf32-446b-acb1-d20c9a569468"},"vehicle_type_id":"4","last_reported":1729750454,"current_range_meters":36800,"station_id":"ce4bhkp2rcd13ifvqgd0","pricing_plan_id":"cebpf4jnsgd1na2vs0mg"},{"bike_id":"9cc86360-5eab-45ae-a458-952e8a91e43e","system_id":"levelo_inurba_marseille","lat":43.22933,"lon":5.35379,"is_reserved":false,"is_disabled":false,"rental_uris":{"android":"levelo://app?vid=9cc86360-5eab-45ae-a458-952e8a91e43e","ios":"levelo://app?vid=9cc86360-5eab-45ae-a458-952e8a91e43e"},"vehicle_type_id":"4","last_reported":1729750454,"current_range_meters":18000,"station_id":"cpo3532slgdg3j2ikp40","pricing_plan_id":"cebpf4jnsgd1na2vs0mg"},{"bike_id":"e58254e7-ba4e-4d9d-8fff-364ee51af42e","system_id":"levelo_inurba_marseille","lat":43.23151,"lon":5.43711,"is_reserved":false,"is_disabled":false,"rental_uris":{"android":"levelo://app?vid=e58254e7-ba4e-4d9d-8fff-364ee51af42e","ios":"levelo://app?vid=e58254e7-ba4e-4d9d-8fff-364ee51af42e"},"vehicle_type_id":"4","last_reported":1729750454,"current_range_meters":5600,"station_id":"ce4bhmp2rcd13ifvqgog","pricing_plan_id":"cebpf4jnsgd1na2vs0mg"},{"bike_id":"05083cda-b9cc-4bdd-bc7c-5ea0c6b0fa98","system_id":"levelo_inurba_marseille","lat":43.29894,"lon":5.385,"is_reserved":false,"is_disabled":false,"rental_uris":{"android":"levelo://app?vid=05083cda-b9cc-4bdd-bc7c-5ea0c6b0fa98","ios":"levelo://app?vid=05083cda-b9cc-4bdd-bc7c-5ea0c6b0fa98"},"vehicle_type_id":"4","last_reported":1729750454,"current_range_meters":6800,"station_id":"","pricing_plan_id":"cebpf4jnsgd1na2vs0mg"},{"bike_id":"334339a2-7b68-46ab-84f8-5314e58f57b5","system_id":"levelo_inurba_marseille","lat":43.3081,"lon":5.381617,"is_reserved":false,"is_disabled":false,"rental_uris":{"android":"levelo://app?vid=334339a2-7b68-46ab-84f8-5314e58f57b5","ios":"levelo://app?vid=334339a2-7b68-46ab-84f8-5314e58f57b5"},"vehicle_type_id":"4","last_reported":1729750454,"current_range_meters":37600,"station_id":"ce4bgt12rcd13ifvqce0","pricing_plan_id":"cebpf4jnsgd1na2vs0mg"},{"bike_id":"2791bec2-772a-458f-a57f-284af3c571b9","system_id":"levelo_inurba_marseille","lat":43.27614,"lon":5.3611,"is_reserved":false,"is_disabled":false,"rental_uris":{"android":"levelo://app?vid=2791bec2-772a-458f-a57f-284af3c571b9","ios":"levelo://app?vid=2791bec2-772a-458f-a57f-284af3c571b9"},"vehicle_type_id":"4","last_reported":1729750454,"current_range_meters":38400,"station_id":"ce4bgj92rcd13ifvqbe0","pricing_plan_id":"cebpf4jnsgd1na2vs0mg"},{"bike_id":"b1ab6be1-8229-4192-89dd-f6f9e1845561","system_id":"levelo_inurba_marseille","lat":43.308911,"lon":5.3966,"is_reserved":false,"is_disabled":false,"rental_uris":{"android":"levelo://app?vid=b1ab6be1-8229-4192-89dd-f6f9e1845561","ios":"levelo://app?vid=b1ab6be1-8229-4192-89dd-f6f9e1845561"},"vehicle_type_id":"4","last_reported":1729750454,"current_range_meters":16800,"station_id":"ce4bgvp2rcd13ifvqct0","pricing_plan_id":"cebpf4jnsgd1na2vs0mg"},{"bike_id":"be230514-183a-4179-859d-7351e13f49e9","system_id":"levelo_inurba_marseille","lat":43.28041,"lon":5.36951,"is_reserved":false,"is_disabled":false,"rental_uris":{"android":"levelo://app?vid=be230514-183a-4179-859d-7351e13f49e9","ios":"levelo://app?vid=be230514-183a-4179-859d-7351e13f49e9"},"vehicle_type_id":"4","last_reported":1729750454,"current_range_meters":33600,"station_id":"ce4bha12rcd13ifvqef0","pricing_plan_id":"cebpf4jnsgd1na2vs0mg"},{"bike_id":"bbb4600c-9366-419c-8bcb-c3c1c4bc5806","system_id":"levelo_inurba_marseille","lat":43.27497,"lon":5.42446,"is_reserved":false,"is_disabled":false,"rental_uris":{"android":"levelo://app?vid=bbb4600c-9366-419c-8bcb-c3c1c4bc5806","ios":"levelo://app?vid=bbb4600c-9366-419c-8bcb-c3c1c4bc5806"},"vehicle_type_id":"4","last_reported":1729750454,"current_range_meters":38800,"station_id":"ce4bhn92rcd13ifvqgrg","pricing_plan_id":"cebpf4jnsgd1na2vs0mg"},{"bike_id":"5fbfa25f-18f4-4163-b216-2ccea5d0ec25","system_id":"levelo_inurba_marseille","lat":43.26561,"lon":5.37284,"is_reserved":false,"is_disabled":false,"rental_uris":{"android":"levelo://app?vid=5fbfa25f-18f4-4163-b216-2ccea5d0ec25","ios":"levelo://app?vid=5fbfa25f-18f4-4163-b216-2ccea5d0ec25"},"vehicle_type_id":"4","last_reported":1729750454,"current_range_meters":6400,"station_id":"ce4bhg12rcd13ifvqf70","pricing_plan_id":"cebpf4jnsgd1na2vs0mg"},{"bike_id":"e8d0ac63-9341-4151-adb7-1e0c24619ff3","system_id":"levelo_inurba_marseille","lat":43.33609,"lon":5.41033,"is_reserved":false,"is_disabled":false,"rental_uris":{"android":"levelo://app?vid=e8d0ac63-9341-4151-adb7-1e0c24619ff3","ios":"levelo://app?vid=e8d0ac63-9341-4151-adb7-1e0c24619ff3"},"vehicle_type_id":"4","last_reported":1729750454,"current_range_meters":28800,"station_id":"ce4bhqh2rcd13ifvqhmg","pricing_plan_id":"cebpf4jnsgd1na2vs0mg"},{"bike_id":"cfcebfa7-3f59-4d32-a8f1-45e59f6e2f26","system_id":"levelo_inurba_marseille","lat":43.22932,"lon":5.35378,"is_reserved":false,"is_disabled":false,"rental_uris":{"android":"levelo://app?vid=cfcebfa7-3f59-4d32-a8f1-45e59f6e2f26","ios":"levelo://app?vid=cfcebfa7-3f59-4d32-a8f1-45e59f6e2f26"},"vehicle_type_id":"4","last_reported":1729750454,"current_range_meters":32800,"station_id":"cpo3532slgdg3j2ikp40","pricing_plan_id":"cebpf4jnsgd1na2vs0mg"},{"bike_id":"3e381e9b-65a4-436a-a571-b4ba1ee13663","system_id":"levelo_inurba_marseille","lat":43.32483,"lon":5.36559,"is_reserved":false,"is_disabled":false,"rental_uris":{"android":"levelo://app?vid=3e381e9b-65a4-436a-a571-b4ba1ee13663","ios":"levelo://app?vid=3e381e9b-65a4-436a-a571-b4ba1ee13663"},"vehicle_type_id":"4","last_reported":1729750454,"current_range_meters":16800,"station_id":"ce4bhs12rcd13ifvqhvg","pricing_plan_id":"cebpf4jnsgd1na2vs0mg"},{"bike_id":"a3dcf7ee-59f1-4f53-936b-77f32b59962d","system_id":"levelo_inurba_marseille","lat":43.27496,"lon":5.42449,"is_reserved":false,"is_disabled":false,"rental_uris":{"android":"levelo://app?vid=a3dcf7ee-59f1-4f53-936b-77f32b59962d","ios":"levelo://app?vid=a3dcf7ee-59f1-4f53-936b-77f32b59962d"},"vehicle_type_id":"4","last_reported":1729750454,"current_range_meters":38800,"station_id":"ce4bhn92rcd13ifvqgrg","pricing_plan_id":"cebpf4jnsgd1na2vs0mg"},{"bike_id":"3a526fc6-5f14-429c-8829-287dc38ef285","system_id":"levelo_inurba_marseille","lat":43.22931,"lon":5.35374,"is_reserved":false,"is_disabled":false,"rental_uris":{"android":"levelo://app?vid=3a526fc6-5f14-429c-8829-287dc38ef285","ios":"levelo://app?vid=3a526fc6-5f14-429c-8829-287dc38ef285"},"vehicle_type_id":"4","last_reported":1729750454,"current_range_meters":32800,"station_id":"cpo3532slgdg3j2ikp40","pricing_plan_id":"cebpf4jnsgd1na2vs0mg"},{"bike_id":"50d120a1-10db-46f7-af46-f5262df90342","system_id":"levelo_inurba_marseille","lat":43.24176,"lon":5.39729,"is_reserved":false,"is_disabled":false,"rental_uris":{"android":"levelo://app?vid=50d120a1-10db-46f7-af46-f5262df90342","ios":"levelo://app?vid=50d120a1-10db-46f7-af46-f5262df90342"},"vehicle_type_id":"4","last_reported":1729750454,"current_range_meters":30800,"station_id":"ce4bhn12rcd13ifvqgpg","pricing_plan_id":"cebpf4jnsgd1na2vs0mg"},{"bike_id":"d57a072d-6550-4bc1-b290-ca5af4ceaa49","system_id":"levelo_inurba_marseille","lat":43.26193,"lon":5.37448,"is_reserved":false,"is_disabled":false,"rental_uris":{"android":"levelo://app?vid=d57a072d-6550-4bc1-b290-ca5af4ceaa49","ios":"levelo://app?vid=d57a072d-6550-4bc1-b290-ca5af4ceaa49"},"vehicle_type_id":"4","last_reported":1729750454,"current_range_meters":32400,"station_id":"ce4bhgp2rcd13ifvqfc0","pricing_plan_id":"cebpf4jnsgd1na2vs0mg"},{"bike_id":"27cd006e-aeab-405b-a10b-9b345408717e","system_id":"levelo_inurba_marseille","lat":43.30799,"lon":5.38164,"is_reserved":false,"is_disabled":false,"rental_uris":{"android":"levelo://app?vid=27cd006e-aeab-405b-a10b-9b345408717e","ios":"levelo://app?vid=27cd006e-aeab-405b-a10b-9b345408717e"},"vehicle_type_id":"4","last_reported":1729750454,"current_range_meters":35200,"station_id":"ce4bgt12rcd13ifvqce0","pricing_plan_id":"cebpf4jnsgd1na2vs0mg"},{"bike_id":"36aa9f8c-0d52-4206-b2d7-e3c98d7d16dc","system_id":"levelo_inurba_marseille","lat":43.293751,"lon":5.401501,"is_reserved":false,"is_disabled":false,"rental_uris":{"android":"levelo://app?vid=36aa9f8c-0d52-4206-b2d7-e3c98d7d16dc","ios":"levelo://app?vid=36aa9f8c-0d52-4206-b2d7-e3c98d7d16dc"},"vehicle_type_id":"4","last_reported":1729750454,"current_range_meters":27600,"station_id":"ce4bh312rcd13ifvqdk0","pricing_plan_id":"cebpf4jnsgd1na2vs0mg"},{"bike_id":"365a5e76-e012-4983-b8a9-1a07480bde83","system_id":"levelo_inurba_marseille","lat":43.23193,"lon":5.35542,"is_reserved":false,"is_disabled":false,"rental_uris":{"android":"levelo://app?vid=365a5e76-e012-4983-b8a9-1a07480bde83","ios":"levelo://app?vid=365a5e76-e012-4983-b8a9-1a07480bde83"},"vehicle_type_id":"4","last_reported":1729750454,"current_range_meters":38800,"station_id":"ce4bhu92rcd13ifvqi70","pricing_plan_id":"cebpf4jnsgd1na2vs0mg"},{"bike_id":"ea08b34e-9fca-4918-bb99-0777e0cf8d40","system_id":"levelo_inurba_marseille","lat":43.31485,"lon":5.37311,"is_reserved":false,"is_disabled":false,"rental_uris":{"android":"levelo://app?vid=ea08b34e-9fca-4918-bb99-0777e0cf8d40","ios":"levelo://app?vid=ea08b34e-9fca-4918-bb99-0777e0cf8d40"},"vehicle_type_id":"4","last_reported":1729750454,"current_range_meters":35200,"station_id":"ce4bgt12rcd13ifvqcd0","pricing_plan_id":"cebpf4jnsgd1na2vs0mg"},{"bike_id":"90c11eb5-fb70-40de-8fbb-0f49e480f53f","system_id":"levelo_inurba_marseille","lat":43.2991,"lon":5.37479,"is_reserved":false,"is_disabled":false,"rental_uris":{"android":"levelo://app?vid=90c11eb5-fb70-40de-8fbb-0f49e480f53f","ios":"levelo://app?vid=90c11eb5-fb70-40de-8fbb-0f49e480f53f"},"vehicle_type_id":"4","last_reported":1729750454,"current_range_meters":38800,"station_id":"ce4bgjh2rcd13ifvqbg0","pricing_plan_id":"cebpf4jnsgd1na2vs0mg"},{"bike_id":"8fe62bce-b87b-4c8f-9b20-51e157e8aae4","system_id":"levelo_inurba_marseille","lat":43.30792,"lon":5.381572,"is_reserved":false,"is_disabled":false,"rental_uris":{"android":"levelo://app?vid=8fe62bce-b87b-4c8f-9b20-51e157e8aae4","ios":"levelo://app?vid=8fe62bce-b87b-4c8f-9b20-51e157e8aae4"},"vehicle_type_id":"4","last_reported":1729750454,"current_range_meters":30800,"station_id":"ce4bgt12rcd13ifvqce0","pricing_plan_id":"cebpf4jnsgd1na2vs0mg"},{"bike_id":"68efc17f-ff91-403e-b1c7-353af2f0bba7","system_id":"levelo_inurba_marseille","lat":43.29915,"lon":5.37477,"is_reserved":false,"is_disabled":false,"rental_uris":{"android":"levelo://app?vid=68efc17f-ff91-403e-b1c7-353af2f0bba7","ios":"levelo://app?vid=68efc17f-ff91-403e-b1c7-353af2f0bba7"},"vehicle_type_id":"4","last_reported":1729750454,"current_range_meters":8000,"station_id":"ce4bgjh2rcd13ifvqbg0","pricing_plan_id":"cebpf4jnsgd1na2vs0mg"},{"bike_id":"e6c78128-59ad-4f84-baf2-7ef4c7e683ec","system_id":"levelo_inurba_marseille","lat":43.27905,"lon":5.38003,"is_reserved":false,"is_disabled":false,"rental_uris":{"android":"levelo://app?vid=e6c78128-59ad-4f84-baf2-7ef4c7e683ec","ios":"levelo://app?vid=e6c78128-59ad-4f84-baf2-7ef4c7e683ec"},"vehicle_type_id":"4","last_reported":1729750454,"current_range_meters":18000,"station_id":"ce4bhf92rcd13ifvqf50","pricing_plan_id":"cebpf4jnsgd1na2vs0mg"},{"bike_id":"4a638cf6-defc-408e-b127-366c1f15f3fd","system_id":"levelo_inurba_marseille","lat":43.3107,"lon":5.38349,"is_reserved":false,"is_disabled":false,"rental_uris":{"android":"levelo://app?vid=4a638cf6-defc-408e-b127-366c1f15f3fd","ios":"levelo://app?vid=4a638cf6-defc-408e-b127-366c1f15f3fd"},"vehicle_type_id":"4","last_reported":1729750454,"current_range_meters":25600,"station_id":"ce4bgv92rcd13ifvqcr0","pricing_plan_id":"cebpf4jnsgd1na2vs0mg"},{"bike_id":"8e07e2ce-8861-484e-b895-0135f702502b","system_id":"levelo_inurba_marseille","lat":43.29793,"lon":5.38112,"is_reserved":false,"is_disabled":false,"rental_uris":{"android":"levelo://app?vid=8e07e2ce-8861-484e-b895-0135f702502b","ios":"levelo://app?vid=8e07e2ce-8861-484e-b895-0135f702502b"},"vehicle_type_id":"4","last_reported":1729750454,"current_range_meters":39200,"station_id":"ce4bgip2rcd13ifvqbb0","pricing_plan_id":"cebpf4jnsgd1na2vs0mg"},{"bike_id":"5e9496de-7d05-43d8-ae1f-8d1fb7635384","system_id":"levelo_inurba_marseille","lat":43.270538,"lon":5.402523,"is_reserved":false,"is_disabled":false,"rental_uris":{"android":"levelo://app?vid=5e9496de-7d05-43d8-ae1f-8d1fb7635384","ios":"levelo://app?vid=5e9496de-7d05-43d8-ae1f-8d1fb7635384"},"vehicle_type_id":"4","last_reported":1729750454,"current_range_meters":27200,"station_id":"ce4bhk92rcd13ifvqgc0","pricing_plan_id":"cebpf4jnsgd1na2vs0mg"},{"bike_id":"10ed8c7b-0b46-4899-be3c-72844b8799cd","system_id":"levelo_inurba_marseille","lat":43.30148,"lon":5.38088,"is_reserved":false,"is_disabled":false,"rental_uris":{"android":"levelo://app?vid=10ed8c7b-0b46-4899-be3c-72844b8799cd","ios":"levelo://app?vid=10ed8c7b-0b46-4899-be3c-72844b8799cd"},"vehicle_type_id":"4","last_reported":1729750454,"current_range_meters":25600,"station_id":"ce4bgjp2rcd13ifvqbh0","pricing_plan_id":"cebpf4jnsgd1na2vs0mg"},{"bike_id":"1bf7fd95-721c-42bc-b449-c8c9be5dfdc8","system_id":"levelo_inurba_marseille","lat":43.29632,"lon":5.40594,"is_reserved":false,"is_disabled":false,"rental_uris":{"android":"levelo://app?vid=1bf7fd95-721c-42bc-b449-c8c9be5dfdc8","ios":"levelo://app?vid=1bf7fd95-721c-42bc-b449-c8c9be5dfdc8"},"vehicle_type_id":"4","last_reported":1729750454,"current_range_meters":39200,"station_id":"ce4bh0h2rcd13ifvqd60","pricing_plan_id":"cebpf4jnsgd1na2vs0mg"},{"bike_id":"1d180020-2774-494a-9712-55fe63b19d77","system_id":"levelo_inurba_marseille","lat":43.25934,"lon":5.40908,"is_reserved":false,"is_disabled":false,"rental_uris":{"android":"levelo://app?vid=1d180020-2774-494a-9712-55fe63b19d77","ios":"levelo://app?vid=1d180020-2774-494a-9712-55fe63b19d77"},"vehicle_type_id":"4","last_reported":1729750454,"current_range_meters":8400,"station_id":"ce4bhm92rcd13ifvqglg","pricing_plan_id":"cebpf4jnsgd1na2vs0mg"},{"bike_id":"2b8263e0-7230-429e-ad59-46fe84792315","system_id":"levelo_inurba_marseille","lat":43.30471,"lon":5.37909,"is_reserved":false,"is_disabled":false,"rental_uris":{"android":"levelo://app?vid=2b8263e0-7230-429e-ad59-46fe84792315","ios":"levelo://app?vid=2b8263e0-7230-429e-ad59-46fe84792315"},"vehicle_type_id":"4","last_reported":1729750454,"current_range_meters":36400,"station_id":"ce4bgup2rcd13ifvqcn0","pricing_plan_id":"cebpf4jnsgd1na2vs0mg"},{"bike_id":"ef93cbee-931c-4136-ad83-01b8a1d45d53","system_id":"levelo_inurba_marseille","lat":43.295575,"lon":5.422885,"is_reserved":false,"is_disabled":false,"rental_uris":{"android":"levelo://app?vid=ef93cbee-931c-4136-ad83-01b8a1d45d53","ios":"levelo://app?vid=ef93cbee-931c-4136-ad83-01b8a1d45d53"},"vehicle_type_id":"4","last_reported":1729750454,"current_range_meters":18000,"station_id":"ce4bhph2rcd13ifvqhdg","pricing_plan_id":"cebpf4jnsgd1na2vs0mg"},{"bike_id":"5cb09975-7dbf-4315-8088-048a8f2197d5","system_id":"levelo_inurba_marseille","lat":43.27208,"lon":5.39175,"is_reserved":false,"is_disabled":false,"rental_uris":{"android":"levelo://app?vid=5cb09975-7dbf-4315-8088-048a8f2197d5","ios":"levelo://app?vid=5cb09975-7dbf-4315-8088-048a8f2197d5"},"vehicle_type_id":"4","last_reported":1729750454,"current_range_meters":26000,"station_id":"ce4bhhp2rcd13ifvqfm0","pricing_plan_id":"cebpf4jnsgd1na2vs0mg"},{"bike_id":"2c4a684a-b69b-4a59-9f8f-3e61716fa58f","system_id":"levelo_inurba_marseille","lat":43.30546,"lon":5.36557,"is_reserved":false,"is_disabled":false,"rental_uris":{"android":"levelo://app?vid=2c4a684a-b69b-4a59-9f8f-3e61716fa58f","ios":"levelo://app?vid=2c4a684a-b69b-4a59-9f8f-3e61716fa58f"},"vehicle_type_id":"4","last_reported":1729750454,"current_range_meters":24400,"station_id":"ce4bgs12rcd13ifvqcag","pricing_plan_id":"cebpf4jnsgd1na2vs0mg"},{"bike_id":"9ee9f5ba-384e-4730-95f3-d2b928c8f35c","system_id":"levelo_inurba_marseille","lat":43.307831,"lon":5.376476,"is_reserved":false,"is_disabled":false,"rental_uris":{"android":"levelo://app?vid=9ee9f5ba-384e-4730-95f3-d2b928c8f35c","ios":"levelo://app?vid=9ee9f5ba-384e-4730-95f3-d2b928c8f35c"},"vehicle_type_id":"4","last_reported":1729750454,"current_range_meters":38800,"station_id":"ce4bgv92rcd13ifvqcq0","pricing_plan_id":"cebpf4jnsgd1na2vs0mg"},{"bike_id":"049e6b8b-6b24-416d-ada9-4a21fd898aad","system_id":"levelo_inurba_marseille","lat":43.25934,"lon":5.40913,"is_reserved":false,"is_disabled":false,"rental_uris":{"android":"levelo://app?vid=049e6b8b-6b24-416d-ada9-4a21fd898aad","ios":"levelo://app?vid=049e6b8b-6b24-416d-ada9-4a21fd898aad"},"vehicle_type_id":"4","last_reported":1729750454,"current_range_meters":28000,"station_id":"ce4bhm92rcd13ifvqglg","pricing_plan_id":"cebpf4jnsgd1na2vs0mg"},{"bike_id":"a5c35b6e-ec94-4c17-be7f-2bf929c3ddf6","system_id":"levelo_inurba_marseille","lat":43.27214,"lon":5.3918,"is_reserved":false,"is_disabled":false,"rental_uris":{"android":"levelo://app?vid=a5c35b6e-ec94-4c17-be7f-2bf929c3ddf6","ios":"levelo://app?vid=a5c35b6e-ec94-4c17-be7f-2bf929c3ddf6"},"vehicle_type_id":"4","last_reported":1729750454,"current_range_meters":16000,"station_id":"ce4bhhp2rcd13ifvqfm0","pricing_plan_id":"cebpf4jnsgd1na2vs0mg"},{"bike_id":"84750931-5524-49d3-8375-fe8ae40f10cc","system_id":"levelo_inurba_marseille","lat":43.31245,"lon":5.36825,"is_reserved":false,"is_disabled":false,"rental_uris":{"android":"levelo://app?vid=84750931-5524-49d3-8375-fe8ae40f10cc","ios":"levelo://app?vid=84750931-5524-49d3-8375-fe8ae40f10cc"},"vehicle_type_id":"4","last_reported":1729750454,"current_range_meters":35600,"station_id":"ce4bgl92rcd13ifvqbq0","pricing_plan_id":"cebpf4jnsgd1na2vs0mg"},{"bike_id":"4f409860-e0f7-4877-99ee-a24fed7f0e97","system_id":"levelo_inurba_marseille","lat":43.27812,"lon":5.40715,"is_reserved":false,"is_disabled":false,"rental_uris":{"android":"levelo://app?vid=4f409860-e0f7-4877-99ee-a24fed7f0e97","ios":"levelo://app?vid=4f409860-e0f7-4877-99ee-a24fed7f0e97"},"vehicle_type_id":"4","last_reported":1729750454,"current_range_meters":37600,"station_id":"ce4bhnh2rcd13ifvqgtg","pricing_plan_id":"cebpf4jnsgd1na2vs0mg"},{"bike_id":"ca4bbc1c-3893-4de4-a6cd-05bfb84c926a","system_id":"levelo_inurba_marseille","lat":43.28659,"lon":5.36342,"is_reserved":false,"is_disabled":false,"rental_uris":{"android":"levelo://app?vid=ca4bbc1c-3893-4de4-a6cd-05bfb84c926a","ios":"levelo://app?vid=ca4bbc1c-3893-4de4-a6cd-05bfb84c926a"},"vehicle_type_id":"4","last_reported":1729750454,"current_range_meters":38800,"station_id":"ce4bhah2rcd13ifvqej0","pricing_plan_id":"cebpf4jnsgd1na2vs0mg"},{"bike_id":"30338b85-7f1d-4f9d-87ef-a8594b72663e","system_id":"levelo_inurba_marseille","lat":43.27493,"lon":5.42456,"is_reserved":false,"is_disabled":false,"rental_uris":{"android":"levelo://app?vid=30338b85-7f1d-4f9d-87ef-a8594b72663e","ios":"levelo://app?vid=30338b85-7f1d-4f9d-87ef-a8594b72663e"},"vehicle_type_id":"4","last_reported":1729750454,"current_range_meters":38400,"station_id":"ce4bhn92rcd13ifvqgrg","pricing_plan_id":"cebpf4jnsgd1na2vs0mg"},{"bike_id":"7952883e-10ad-41b9-abd3-8bb15dc20349","system_id":"levelo_inurba_marseille","lat":43.28439,"lon":5.39188,"is_reserved":false,"is_disabled":false,"rental_uris":{"android":"levelo://app?vid=7952883e-10ad-41b9-abd3-8bb15dc20349","ios":"levelo://app?vid=7952883e-10ad-41b9-abd3-8bb15dc20349"},"vehicle_type_id":"4","last_reported":1729750454,"current_range_meters":35600,"station_id":"ce4bhoh2rcd13ifvqh5g","pricing_plan_id":"cebpf4jnsgd1na2vs0mg"},{"bike_id":"df0b2337-1e1e-4e0f-9040-1ed35b3fd2a0","system_id":"levelo_inurba_marseille","lat":43.28409,"lon":5.37516,"is_reserved":false,"is_disabled":false,"rental_uris":{"android":"levelo://app?vid=df0b2337-1e1e-4e0f-9040-1ed35b3fd2a0","ios":"levelo://app?vid=df0b2337-1e1e-4e0f-9040-1ed35b3fd2a0"},"vehicle_type_id":"4","last_reported":1729750454,"current_range_meters":8400,"station_id":"ce4bh412rcd13ifvqds0","pricing_plan_id":"cebpf4jnsgd1na2vs0mg"},{"bike_id":"62ffa3f4-9d42-434c-a2ce-0d53c352b7c8","system_id":"levelo_inurba_marseille","lat":43.27374,"lon":5.36252,"is_reserved":false,"is_disabled":false,"rental_uris":{"android":"levelo://app?vid=62ffa3f4-9d42-434c-a2ce-0d53c352b7c8","ios":"levelo://app?vid=62ffa3f4-9d42-434c-a2ce-0d53c352b7c8"},"vehicle_type_id":"4","last_reported":1729750454,"current_range_meters":38800,"station_id":"ce4bhbh2rcd13ifvqeo0","pricing_plan_id":"cebpf4jnsgd1na2vs0mg"},{"bike_id":"3d94fec5-828e-465b-811e-6d6f6df1662b","system_id":"levelo_inurba_marseille","lat":43.3055,"lon":5.36705,"is_reserved":false,"is_disabled":false,"rental_uris":{"android":"levelo://app?vid=3d94fec5-828e-465b-811e-6d6f6df1662b","ios":"levelo://app?vid=3d94fec5-828e-465b-811e-6d6f6df1662b"},"vehicle_type_id":"4","last_reported":1729750454,"current_range_meters":36800,"station_id":"ce4bgrp2rcd13ifvqc9g","pricing_plan_id":"cebpf4jnsgd1na2vs0mg"},{"bike_id":"b90e8ab6-5494-42ee-9340-ed28bc61bb67","system_id":"levelo_inurba_marseille","lat":43.29216,"lon":5.36069,"is_reserved":false,"is_disabled":false,"rental_uris":{"android":"levelo://app?vid=b90e8ab6-5494-42ee-9340-ed28bc61bb67","ios":"levelo://app?vid=b90e8ab6-5494-42ee-9340-ed28bc61bb67"},"vehicle_type_id":"4","last_reported":1729750454,"current_range_meters":37600,"station_id":"ce4bhbh2rcd13ifvqeqg","pricing_plan_id":"cebpf4jnsgd1na2vs0mg"},{"bike_id":"e0966160-c643-480b-847d-9a0105f3e49c","system_id":"levelo_inurba_marseille","lat":43.28364,"lon":5.38639,"is_reserved":false,"is_disabled":false,"rental_uris":{"android":"levelo://app?vid=e0966160-c643-480b-847d-9a0105f3e49c","ios":"levelo://app?vid=e0966160-c643-480b-847d-9a0105f3e49c"},"vehicle_type_id":"4","last_reported":1729750454,"current_range_meters":28400,"station_id":"ce4bh492rcd13ifvqdvg","pricing_plan_id":"cebpf4jnsgd1na2vs0mg"},{"bike_id":"b4e6ddf4-e94c-4cf2-9931-296d9ca0f55e","system_id":"levelo_inurba_marseille","lat":43.25934,"lon":5.40906,"is_reserved":false,"is_disabled":false,"rental_uris":{"android":"levelo://app?vid=b4e6ddf4-e94c-4cf2-9931-296d9ca0f55e","ios":"levelo://app?vid=b4e6ddf4-e94c-4cf2-9931-296d9ca0f55e"},"vehicle_type_id":"4","last_reported":1729750454,"current_range_meters":14000,"station_id":"ce4bhm92rcd13ifvqglg","pricing_plan_id":"cebpf4jnsgd1na2vs0mg"},{"bike_id":"9764486d-73b5-4ec0-8e14-33a001fa8f69","system_id":"levelo_inurba_marseille","lat":43.31515,"lon":5.38923,"is_reserved":false,"is_disabled":false,"rental_uris":{"android":"levelo://app?vid=9764486d-73b5-4ec0-8e14-33a001fa8f69","ios":"levelo://app?vid=9764486d-73b5-4ec0-8e14-33a001fa8f69"},"vehicle_type_id":"4","last_reported":1729750454,"current_range_meters":10000,"station_id":"","pricing_plan_id":"cebpf4jnsgd1na2vs0mg"},{"bike_id":"770ba694-4da4-4859-abf2-f761821cc301","system_id":"levelo_inurba_marseille","lat":43.30276,"lon":5.37691,"is_reserved":false,"is_disabled":false,"rental_uris":{"android":"levelo://app?vid=770ba694-4da4-4859-abf2-f761821cc301","ios":"levelo://app?vid=770ba694-4da4-4859-abf2-f761821cc301"},"vehicle_type_id":"4","last_reported":1729750454,"current_range_meters":16400,"station_id":"ce4bguh2rcd13ifvqcj0","pricing_plan_id":"cebpf4jnsgd1na2vs0mg"},{"bike_id":"ba281863-9f58-430c-b368-eaaf45a66db6","system_id":"levelo_inurba_marseille","lat":43.31992,"lon":5.38131,"is_reserved":false,"is_disabled":false,"rental_uris":{"android":"levelo://app?vid=ba281863-9f58-430c-b368-eaaf45a66db6","ios":"levelo://app?vid=ba281863-9f58-430c-b368-eaaf45a66db6"},"vehicle_type_id":"4","last_reported":1729750454,"current_range_meters":18800,"station_id":"ce4bhr12rcd13ifvqhpg","pricing_plan_id":"cebpf4jnsgd1na2vs0mg"},{"bike_id":"06e334e9-cd89-4c02-9877-e800c847cdb2","system_id":"levelo_inurba_marseille","lat":43.31365,"lon":5.36695,"is_reserved":false,"is_disabled":false,"rental_uris":{"android":"levelo://app?vid=06e334e9-cd89-4c02-9877-e800c847cdb2","ios":"levelo://app?vid=06e334e9-cd89-4c02-9877-e800c847cdb2"},"vehicle_type_id":"4","last_reported":1729750454,"current_range_meters":33600,"station_id":"ce4bgr92rcd13ifvqc6g","pricing_plan_id":"cebpf4jnsgd1na2vs0mg"},{"bike_id":"3f826a89-55a2-4597-850c-968758056c2d","system_id":"levelo_inurba_marseille","lat":43.33606,"lon":5.41028,"is_reserved":false,"is_disabled":false,"rental_uris":{"android":"levelo://app?vid=3f826a89-55a2-4597-850c-968758056c2d","ios":"levelo://app?vid=3f826a89-55a2-4597-850c-968758056c2d"},"vehicle_type_id":"4","last_reported":1729750454,"current_range_meters":19600,"station_id":"ce4bhqh2rcd13ifvqhmg","pricing_plan_id":"cebpf4jnsgd1na2vs0mg"},{"bike_id":"813e3d17-fb21-4900-ba9f-baf5539cfb9e","system_id":"levelo_inurba_marseille","lat":43.26204,"lon":5.37928,"is_reserved":false,"is_disabled":false,"rental_uris":{"android":"levelo://app?vid=813e3d17-fb21-4900-ba9f-baf5539cfb9e","ios":"levelo://app?vid=813e3d17-fb21-4900-ba9f-baf5539cfb9e"},"vehicle_type_id":"4","last_reported":1729750454,"current_range_meters":38400,"station_id":"ce4bhjp2rcd13ifvqg90","pricing_plan_id":"cebpf4jnsgd1na2vs0mg"},{"bike_id":"5e574319-cbd8-419c-ba41-35452b8f5cda","system_id":"levelo_inurba_marseille","lat":43.2846,"lon":5.35878,"is_reserved":false,"is_disabled":false,"rental_uris":{"android":"levelo://app?vid=5e574319-cbd8-419c-ba41-35452b8f5cda","ios":"levelo://app?vid=5e574319-cbd8-419c-ba41-35452b8f5cda"},"vehicle_type_id":"4","last_reported":1729750454,"current_range_meters":7200,"station_id":"ce4bhah2rcd13ifvqei0","pricing_plan_id":"cebpf4jnsgd1na2vs0mg"},{"bike_id":"807e98e3-c05c-42d0-b77c-7c8989c5bdc4","system_id":"levelo_inurba_marseille","lat":43.32478,"lon":5.36575,"is_reserved":false,"is_disabled":false,"rental_uris":{"android":"levelo://app?vid=807e98e3-c05c-42d0-b77c-7c8989c5bdc4","ios":"levelo://app?vid=807e98e3-c05c-42d0-b77c-7c8989c5bdc4"},"vehicle_type_id":"4","last_reported":1729750454,"current_range_meters":37600,"station_id":"ce4bhs12rcd13ifvqhvg","pricing_plan_id":"cebpf4jnsgd1na2vs0mg"},{"bike_id":"4e5e4355-30f3-4aa2-a0ba-1b9175c7f0bb","system_id":"levelo_inurba_marseille","lat":43.337444,"lon":5.374475,"is_reserved":false,"is_disabled":false,"rental_uris":{"android":"levelo://app?vid=4e5e4355-30f3-4aa2-a0ba-1b9175c7f0bb","ios":"levelo://app?vid=4e5e4355-30f3-4aa2-a0ba-1b9175c7f0bb"},"vehicle_type_id":"4","last_reported":1729750454,"current_range_meters":14400,"station_id":"","pricing_plan_id":"cebpf4jnsgd1na2vs0mg"},{"bike_id":"eb35fc6a-1a46-485a-ba9a-75f8f86442b7","system_id":"levelo_inurba_marseille","lat":43.30884,"lon":5.3719,"is_reserved":false,"is_disabled":false,"rental_uris":{"android":"levelo://app?vid=eb35fc6a-1a46-485a-ba9a-75f8f86442b7","ios":"levelo://app?vid=eb35fc6a-1a46-485a-ba9a-75f8f86442b7"},"vehicle_type_id":"4","last_reported":1729750454,"current_range_meters":24800,"station_id":"ce4bguh2rcd13ifvqckg","pricing_plan_id":"cebpf4jnsgd1na2vs0mg"},{"bike_id":"d75bec2a-e1d3-491e-90ca-e38a5d8adcf3","system_id":"levelo_inurba_marseille","lat":43.23153,"lon":5.43725,"is_reserved":false,"is_disabled":false,"rental_uris":{"android":"levelo://app?vid=d75bec2a-e1d3-491e-90ca-e38a5d8adcf3","ios":"levelo://app?vid=d75bec2a-e1d3-491e-90ca-e38a5d8adcf3"},"vehicle_type_id":"4","last_reported":1729750454,"current_range_meters":17200,"station_id":"ce4bhmp2rcd13ifvqgog","pricing_plan_id":"cebpf4jnsgd1na2vs0mg"},{"bike_id":"c9884483-8274-4cfa-b892-444e8bb372a3","system_id":"levelo_inurba_marseille","lat":43.26558,"lon":5.39003,"is_reserved":false,"is_disabled":false,"rental_uris":{"android":"levelo://app?vid=c9884483-8274-4cfa-b892-444e8bb372a3","ios":"levelo://app?vid=c9884483-8274-4cfa-b892-444e8bb372a3"},"vehicle_type_id":"4","last_reported":1729750454,"current_range_meters":14400,"station_id":"ce4bhe12rcd13ifvqf30","pricing_plan_id":"cebpf4jnsgd1na2vs0mg"},{"bike_id":"cc8afa2a-65eb-4472-82d0-4de278737e2b","system_id":"levelo_inurba_marseille","lat":43.31248,"lon":5.4046,"is_reserved":false,"is_disabled":false,"rental_uris":{"android":"levelo://app?vid=cc8afa2a-65eb-4472-82d0-4de278737e2b","ios":"levelo://app?vid=cc8afa2a-65eb-4472-82d0-4de278737e2b"},"vehicle_type_id":"4","last_reported":1729750454,"current_range_meters":25600,"station_id":"","pricing_plan_id":"cebpf4jnsgd1na2vs0mg"},{"bike_id":"46e5a48f-4501-4e4e-bfa0-f17a7aed52b9","system_id":"levelo_inurba_marseille","lat":43.33601,"lon":5.41018,"is_reserved":false,"is_disabled":false,"rental_uris":{"android":"levelo://app?vid=46e5a48f-4501-4e4e-bfa0-f17a7aed52b9","ios":"levelo://app?vid=46e5a48f-4501-4e4e-bfa0-f17a7aed52b9"},"vehicle_type_id":"4","last_reported":1729750454,"current_range_meters":25200,"station_id":"ce4bhqh2rcd13ifvqhmg","pricing_plan_id":"cebpf4jnsgd1na2vs0mg"},{"bike_id":"5ee5278b-8c8a-42d0-874a-1f9c7bb2b973","system_id":"levelo_inurba_marseille","lat":43.24072,"lon":5.3776,"is_reserved":false,"is_disabled":false,"rental_uris":{"android":"levelo://app?vid=5ee5278b-8c8a-42d0-874a-1f9c7bb2b973","ios":"levelo://app?vid=5ee5278b-8c8a-42d0-874a-1f9c7bb2b973"},"vehicle_type_id":"4","last_reported":1729750454,"current_range_meters":4800,"station_id":"ce4bhnp2rcd13ifvqgvg","pricing_plan_id":"cebpf4jnsgd1na2vs0mg"},{"bike_id":"0787288b-3aa2-4043-9249-5248c2af295e","system_id":"levelo_inurba_marseille","lat":43.30797,"lon":5.38163,"is_reserved":false,"is_disabled":false,"rental_uris":{"android":"levelo://app?vid=0787288b-3aa2-4043-9249-5248c2af295e","ios":"levelo://app?vid=0787288b-3aa2-4043-9249-5248c2af295e"},"vehicle_type_id":"4","last_reported":1729750454,"current_range_meters":37600,"station_id":"ce4bgt12rcd13ifvqce0","pricing_plan_id":"cebpf4jnsgd1na2vs0mg"},{"bike_id":"0c3b56ee-d58e-485c-9bb9-1d9383e98fed","system_id":"levelo_inurba_marseille","lat":43.308,"lon":5.38154,"is_reserved":false,"is_disabled":false,"rental_uris":{"android":"levelo://app?vid=0c3b56ee-d58e-485c-9bb9-1d9383e98fed","ios":"levelo://app?vid=0c3b56ee-d58e-485c-9bb9-1d9383e98fed"},"vehicle_type_id":"4","last_reported":1729750454,"current_range_meters":39200,"station_id":"ce4bgt12rcd13ifvqce0","pricing_plan_id":"cebpf4jnsgd1na2vs0mg"},{"bike_id":"4d301cd0-a2e0-42f3-9c0d-233509403e70","system_id":"levelo_inurba_marseille","lat":43.24066,"lon":5.37762,"is_reserved":false,"is_disabled":false,"rental_uris":{"android":"levelo://app?vid=4d301cd0-a2e0-42f3-9c0d-233509403e70","ios":"levelo://app?vid=4d301cd0-a2e0-42f3-9c0d-233509403e70"},"vehicle_type_id":"4","last_reported":1729750454,"current_range_meters":20400,"station_id":"ce4bhnp2rcd13ifvqgvg","pricing_plan_id":"cebpf4jnsgd1na2vs0mg"},