{"last_updated":1700586602,"ttl":30,"version":"2.2","data":{"bikes":[{"bike_id":"9c201a9d-22e4-4bab-b9c8-800bf3b6df76","system_id":"levelo_inurba_marseille","lat":43.312239,"lon":5.368562,"is_reserved":false,"is_disabled":false,"rental_uris":{"android":"levelo://app?vid=9c201a9d-22e4-4bab-b9c8-800bf3b6df76","ios":"levelo://app?vid=9c201a9d-22e4-4bab-b9c8-800bf3b6df76"},"vehicle_type_id":"4","last_reported":1700586602,"current_range_meters":19600,"station_id":"ce4bgl92rcd13ifvqbq0","pricing_plan_id":"free"},{"bike_id":"eeef4dbc-7602-4f26-b2c1-c3771c9b5dae","system_id":"levelo_inurba_marseille","lat":43.3115,"lon":5.36889,"is_reserved":false,"is_disabled":false,"rental_uris":{"android":"levelo://app?vid=eeef4dbc-7602-4f26-b2c1-c3771c9b5dae","ios":"levelo://app?vid=eeef4dbc-7602-4f26-b2c1-c3771c9b5dae"},"vehicle_type_id":"4","last_reported":1700586602,"current_range_meters":0,"station_id":"","pricing_plan_id":"free"},{"bike_id":"63b0f8d3-42e7-40a1-a482-0a490202039b","system_id":"levelo_inurba_marseille","lat":43.309076,"lon":5.368465,"is_reserved":false,"is_disabled":false,"rental_uris":{"android":"levelo://app?vid=63b0f8d3-42e7-40a1-a482-0a490202039b","ios":"levelo://app?vid=63b0f8d3-42e7-40a1-a482-0a490202039b"},"vehicle_type_id":"4","last_reported":1700586602,"current_range_meters":15200,"station_id":"ce4bgn92rcd13ifvqbvg","pricing_plan_id":"free"},{"bike_id":"14ead429-c547-47ed-a35b-85841b61ca40","system_id":"levelo_inurba_marseille","lat":43.30844,"lon":5.36878,"is_reserved":false,"is_disabled":false,"rental_uris":{"android":"levelo://app?vid=14ead429-c547-47ed-a35b-85841b61ca40","ios":"levelo://app?vid=14ead429-c547-47ed-a35b-85841b61ca40"},"vehicle_type_id":"4","last_reported":1700586602,"current_range_meters":15600,"station_id":"","pricing_plan_id":"free"},{"bike_id":"b144b251-4596-4854-93ca-48f6d9329797","system_id":"levelo_inurba_marseille","lat":43.314811,"lon":5.373103,"is_reserved":false,"is_disabled":false,"rental_uris":{"android":"levelo://app?vid=b144b251-4596-4854-93ca-48f6d9329797","ios":"levelo://app?vid=b144b251-4596-4854-93ca-48f6d9329797"},"vehicle_type_id":"4","last_reported":1700586602,"current_range_meters":12400,"station_id":"ce4bgt12rcd13ifvqcd0","pricing_plan_id":"free"},{"bike_id":"d2727909-0290-41ce-a071-14aea2655d61","system_id":"levelo_inurba_marseille","lat":43.314811,"lon":5.373103,"is_reserved":false,"is_disabled":false,"rental_uris":{"android":"levelo://app?vid=d2727909-0290-41ce-a071-14aea2655d61","ios":"levelo://app?vid=d2727909-0290-41ce-a071-14aea2655d61"},"vehicle_type_id":"4","last_reported":1700586602,"current_range_meters":26800,"station_id":"ce4bgt12rcd13ifvqcd0","pricing_plan_id":"free"},{"bike_id":"62eb68f9-2c68-4447-8264-777b6d6cf829","system_id":"levelo_inurba_marseille","lat":43.314811,"lon":5.373104,"is_reserved":false,"is_disabled":false,"rental_uris":{"android":"levelo://app?vid=62eb68f9-2c68-4447-8264-777b6d6cf829","ios":"levelo://app?vid=62eb68f9-2c68-4447-8264-777b6d6cf829"},"vehicle_type_id":"4","last_reported":1700586602,"current_range_meters":8000,"station_id":"ce4bgt12rcd13ifvqcd0","pricing_plan_id":"free"},{"bike_id":"920292a1-4af4-44a6-a148-24edbcff0dd6","system_id":"levelo_inurba_marseille","lat":43.309039,"lon":5.371797,"is_reserved":false,"is_disabled":false,"rental_uris":{"android":"levelo://app?vid=920292a1-4af4-44a6-a148-24edbcff0dd6","ios":"levelo://app?vid=920292a1-4af4-44a6-a148-24edbcff0dd6"},"vehicle_type_id":"4","last_reported":1700586602,"current_range_meters":14400,"station_id":"ce4bguh2rcd13ifvqckg","pricing_plan_id":"free"},{"bike_id":"2bc311dc-da0b-403e-8cae-84f8764bc67c","system_id":"levelo_inurba_marseille","lat":43.30679,"lon":5.3679,"is_reserved":false,"is_disabled":false,"rental_uris":{"android":"levelo://app?vid=2bc311dc-da0b-403e-8cae-84f8764bc67c","ios":"levelo://app?vid=2bc311dc-da0b-403e-8cae-84f8764bc67c"},"vehicle_type_id":"4","last_reported":1700586602,"current_range_meters":2400,"station_id":"","pricing_plan_id":"free"},{"bike_id":"f84b06b8-cfcf-4452-adeb-ac7230ab3596","system_id":"levelo_inurba_marseille","lat":43.30537,"lon":5.367345,"is_reserved":false,"is_disabled":false,"rental_uris":{"android":"levelo://app?vid=f84b06b8-cfcf-4452-adeb-ac7230ab3596","ios":"levelo://app?vid=f84b06b8-cfcf-4452-adeb-ac7230ab3596"},"vehicle_type_id":"4","last_reported":1700586602,"current_range_meters":18800,"station_id":"ce4bgrp2rcd13ifvqc9g","pricing_plan_id":"free"},{"bike_id":"a17ab3ba-070b-4300-95ff-09dbacf38475","system_id":"levelo_inurba_marseille","lat":43.30541,"lon":5.36708,"is_reserved":false,"is_disabled":false,"rental_uris":{"android":"levelo://app?vid=a17ab3ba-070b-4300-95ff-09dbacf38475","ios":"levelo://app?vid=a17ab3ba-070b-4300-95ff-09dbacf38475"},"vehicle_type_id":"4","last_reported":1700586602,"current_range_meters":0,"station_id":"ce4bgrp2rcd13ifvqc9g","pricing_plan_id":"free"},{"bike_id":"790d8068-0ca3-4ee2-ac94-5b1995eb78d3","system_id":"levelo_inurba_marseille","lat":43.31961,"lon":5.37069,"is_reserved":false,"is_disabled":false,"rental_uris":{"android":"levelo://app?vid=790d8068-0ca3-4ee2-ac94-5b1995eb78d3","ios":"levelo://app?vid=790d8068-0ca3-4ee2-ac94-5b1995eb78d3"},"vehicle_type_id":"4","last_reported":1700586602,"current_range_meters":0,"station_id":"","pricing_plan_id":"free"},{"bike_id":"8585ecd2-99d8-404d-ad71-78642227d32a","system_id":"levelo_inurba_marseille","lat":43.31122,"lon":5.37774,"is_reserved":false,"is_disabled":false,"rental_uris":{"android":"levelo://app?vid=8585ecd2-99d8-404d-ad71-78642227d32a","ios":"levelo://app?vid=8585ecd2-99d8-404d-ad71-78642227d32a"},"vehicle_type_id":"4","last_reported":1700586602,"current_range_meters":9200,"station_id":"ce4bgt92rcd13ifvqcg0","pricing_plan_id":"free"},{"bike_id":"06284047-1e80-4933-bc3c-a8606f20a4a9","system_id":"levelo_inurba_marseille","lat":43.30819,"lon":5.37648,"is_reserved":false,"is_disabled":false,"rental_uris":{"android":"levelo://app?vid=06284047-1e80-4933-bc3c-a8606f20a4a9","ios":"levelo://app?vid=06284047-1e80-4933-bc3c-a8606f20a4a9"},"vehicle_type_id":"4","last_reported":1700586602,"current_range_meters":19200,"station_id":"ce4bgv92rcd13ifvqcq0","pricing_plan_id":"free"},{"bike_id":"0045b0ce-7b0e-41b0-bbaf-443572242097","system_id":"levelo_inurba_marseille","lat":43.31067,"lon":5.37822,"is_reserved":false,"is_disabled":false,"rental_uris":{"android":"levelo://app?vid=0045b0ce-7b0e-41b0-bbaf-443572242097","ios":"levelo://app?vid=0045b0ce-7b0e-41b0-bbaf-443572242097"},"vehicle_type_id":"4","last_reported":1700586602,"current_range_meters":27600,"station_id":"","pricing_plan_id":"free"},{"bike_id":"0b5b66ed-acad-417b-a88f-0b835680bb1f","system_id":"levelo_inurba_marseille","lat":43.30297,"lon":5.3692,"is_reserved":false,"is_disabled":false,"rental_uris":{"android":"levelo://app?vid=0b5b66ed-acad-417b-a88f-0b835680bb1f","ios":"levelo://app?vid=0b5b66ed-acad-417b-a88f-0b835680bb1f"},"vehicle_type_id":"4","last_reported":1700586602,"current_range_meters":0,"station_id":"ce4bgqh2rcd13ifvqc5g","pricing_plan_id":"free"},{"bike_id":"65d0661a-1a1b-4639-bb28-4807f1680ce8","system_id":"levelo_inurba_marseille","lat":43.301811,"lon":5.366198,"is_reserved":false,"is_disabled":false,"rental_uris":{"android":"levelo://app?vid=65d0661a-1a1b-4639-bb28-4807f1680ce8","ios":"levelo://app?vid=65d0661a-1a1b-4639-bb28-4807f1680ce8"},"vehicle_type_id":"4","last_reported":1700586602,"current_range_meters":0,"station_id":"ce4bgt12rcd13ifvqce0","pricing_plan_id":"free"},{"bike_id":"a684004e-4f8e-4672-898c-2e1956834612","system_id":"levelo_inurba_marseille","lat":43.30803,"lon":5.38146,"is_reserved":false,"is_disabled":false,"rental_uris":{"android":"levelo://app?vid=a684004e-4f8e-4672-898c-2e1956834612","ios":"levelo://app?vid=a684004e-4f8e-4672-898c-2e1956834612"},"vehicle_type_id":"4","last_reported":1700586602,"current_range_meters":0,"station_id":"ce4bgt12rcd13ifvqce0","pricing_plan_id":"free"},{"bike_id":"0327687b-f51e-4077-bf49-2ec73a6de092","system_id":"levelo_inurba_marseille","lat":43.3224,"lon":5.37572,"is_reserved":false,"is_disabled":false,"rental_uris":{"android":"levelo://app?vid=0327687b-f51e-4077-bf49-2ec73a6de092","ios":"levelo://app?vid=0327687b-f51e-4077-bf49-2ec73a6de092"},"vehicle_type_id":"4","last_reported":1700586602,"current_range_meters":20000,"station_id":"","pricing_plan_id":"free"},{"bike_id":"6ae17ab5-e1e8-4115-a6d5-de855a8905f3","system_id":"levelo_inurba_marseille","lat":43.32486,"lon":5.36576,"is_reserved":false,"is_disabled":false,"rental_uris":{"android":"levelo://app?vid=6ae17ab5-e1e8-4115-a6d5-de855a8905f3","ios":"levelo://app?vid=6ae17ab5-e1e8-4115-a6d5-de855a8905f3"},"vehicle_type_id":"4","last_reported":1700586602,"current_range_meters":23200,"station_id":"ce4bhs12rcd13ifvqhvg","pricing_plan_id":"free"},{"bike_id":"a0c175c7-8763-48b2-96c0-ee3535174374","system_id":"levelo_inurba_marseille","lat":43.324771,"lon":5.36557,"is_reserved":false,"is_disabled":false,"rental_uris":{"android":"levelo://app?vid=a0c175c7-8763-48b2-96c0-ee3535174374","ios":"levelo://app?vid=a0c175c7-8763-48b2-96c0-ee3535174374"},"vehicle_type_id":"4","last_reported":1700586602,"current_range_meters":0,"station_id":"ce4bhs12rcd13ifvqhvg","pricing_plan_id":"free"},{"bike_id":"510d0105-b866-48bb-8bdb-59b0079c0d7a","system_id":"levelo_inurba_marseille","lat":43.31997,"lon":5.38156,"is_reserved":false,"is_disabled":false,"rental_uris":{"android":"levelo://app?vid=510d0105-b866-48bb-8bdb-59b0079c0d7a","ios":"levelo://app?vid=510d0105-b866-48bb-8bdb-59b0079c0d7a"},"vehicle_type_id":"4","last_reported":1700586602,"current_range_meters":26000,"station_id":"ce4bhr12rcd13ifvqhpg","pricing_plan_id":"free"},{"bike_id":"b6bef19b-9ba8-4d51-8b70-c38bf53a3315","system_id":"levelo_inurba_marseille","lat":43.31998,"lon":5.38169,"is_reserved":false,"is_disabled":false,"rental_uris":{"android":"levelo://app?vid=b6bef19b-9ba8-4d51-8b70-c38bf53a3315","ios":"levelo://app?vid=b6bef19b-9ba8-4d51-8b70-c38bf53a3315"},"vehicle_type_id":"4","last_reported":1700586602,"current_range_meters":15200,"station_id":"ce4bhr12rcd13ifvqhpg","pricing_plan_id":"free"},{"bike_id":"4b4fe3d7-722a-45a1-81fc-9a019167f268","system_id":"levelo_inurba_marseille","lat":43.319935,"lon":5.381699,"is_reserved":false,"is_disabled":false,"rental_uris":{"android":"levelo://app?vid=4b4fe3d7-722a-45a1-81fc-9a019167f268","ios":"levelo://app?vid=4b4fe3d7-722a-45a1-81fc-9a019167f268"},"vehicle_type_id":"4","last_reported":1700586602,"current_range_meters":25600,"station_id":"ce4bhr12rcd13ifvqhpg","pricing_plan_id":"free"},{"bike_id":"137ccbe1-299f-42e0-9551-4de4d7e107b6","system_id":"levelo_inurba_marseille","lat":43.313571,"lon":5.384829,"is_reserved":false,"is_disabled":false,"rental_uris":{"android":"levelo://app?vid=137ccbe1-299f-42e0-9551-4de4d7e107b6","ios":"levelo://app?vid=137ccbe1-299f-42e0-9551-4de4d7e107b6"},"vehicle_type_id":"4","last_reported":1700586602,"current_range_meters":14800,"station_id":"ce4bgt92rcd13ifvqcf0","pricing_plan_id":"free"},{"bike_id":"18be030c-561b-49be-a5ce-46c216db1430","system_id":"levelo_inurba_marseille","lat":43.31357,"lon":5.38496,"is_reserved":false,"is_disabled":false,"rental_uris":{"android":"levelo://app?vid=18be030c-561b-49be-a5ce-46c216db1430","ios":"levelo://app?vid=18be030c-561b-49be-a5ce-46c216db1430"},"vehicle_type_id":"4","last_reported":1700586602,"current_range_meters":28000,"station_id":"ce4bgt92rcd13ifvqcf0","pricing_plan_id":"free"},{"bike_id":"24471a47-49da-466f-9fa2-9f9f2b40e89b","system_id":"levelo_inurba_marseille","lat":43.299724,"lon":5.371829,"is_reserved":false,"is_disabled":false,"rental_uris":{"android":"levelo://app?vid=24471a47-49da-466f-9fa2-9f9f2b40e89b","ios":"levelo://app?vid=24471a47-49da-466f-9fa2-9f9f2b40e89b"},"vehicle_type_id":"4","last_reported":1700586602,"current_range_meters":16400,"station_id":"ce4bgr92rcd13ifvqc7g","pricing_plan_id":"free"},{"bike_id":"7f50adb9-cdbf-4f2f-827b-94d4dce40811","system_id":"levelo_inurba_marseille","lat":43.299222,"lon":5.365554,"is_reserved":false,"is_disabled":false,"rental_uris":{"android":"levelo://app?vid=7f50adb9-cdbf-4f2f-827b-94d4dce40811","ios":"levelo://app?vid=7f50adb9-cdbf-4f2f-827b-94d4dce40811"},"vehicle_type_id":"4","last_reported":1700586602,"current_range_meters":11600,"station_id":"ce4bgm92rcd13ifvqbr0","pricing_plan_id":"free"},{"bike_id":"a2720227-8ffb-4c67-8648-99ea6e762e2d","system_id":"levelo_inurba_marseille","lat":43.311722,"lon":5.387247,"is_reserved":false,"is_disabled":false,"rental_uris":{"android":"levelo://app?vid=a2720227-8ffb-4c67-8648-99ea6e762e2d","ios":"levelo://app?vid=a2720227-8ffb-4c67-8648-99ea6e762e2d"},"vehicle_type_id":"4","last_reported":1700586602,"current_range_meters":22800,"station_id":"ce4bgv12rcd13ifvqcp0","pricing_plan_id":"free"},{"bike_id":"d4eca3fe-3585-4f84-864c-f7add31e8a96","system_id":"levelo_inurba_marseille","lat":43.311722,"lon":5.387247,"is_reserved":false,"is_disabled":false,"rental_uris":{"android":"levelo://app?vid=d4eca3fe-3585-4f84-864c-f7add31e8a96","ios":"levelo://app?vid=d4eca3fe-3585-4f84-864c-f7add31e8a96"},"vehicle_type_id":"4","last_reported":1700586602,"current_range_meters":1600,"station_id":"ce4bgv12rcd13ifvqcp0","pricing_plan_id":"free"},{"bike_id":"d9a95eb2-3ca7-4d5c-ae71-fae5be7a5a02","system_id":"levelo_inurba_marseille","lat":43.29811,"lon":5.37099,"is_reserved":false,"is_disabled":false,"rental_uris":{"android":"levelo://app?vid=d9a95eb2-3ca7-4d5c-ae71-fae5be7a5a02","ios":"levelo://app?vid=d9a95eb2-3ca7-4d5c-ae71-fae5be7a5a02"},"vehicle_type_id":"4","last_reported":1700586602,"current_range_meters":15600,"station_id":"ce4bgop2rcd13ifvqc1g","pricing_plan_id":"free"},{"bike_id":"24256210-dd9b-4e06-8284-ac9b4520be6f","system_id":"levelo_inurba_marseille","lat":43.32828,"lon":5.36682,"is_reserved":false,"is_disabled":false,"rental_uris":{"android":"levelo://app?vid=24256210-dd9b-4e06-8284-ac9b4520be6f","ios":"levelo://app?vid=24256210-dd9b-4e06-8284-ac9b4520be6f"},"vehicle_type_id":"4","last_reported":1700586602,"current_range_meters":0,"station_id":"ce4bhs92rcd13ifvqi0g","pricing_plan_id":"free"},{"bike_id":"14acb05e-e6f7-4d1a-9ccf-9d030d00cc86","system_id":"levelo_inurba_marseille","lat":43.297163,"lon":5.365866,"is_reserved":false,"is_disabled":false,"rental_uris":{"android":"levelo://app?vid=14acb05e-e6f7-4d1a-9ccf-9d030d00cc86","ios":"levelo://app?vid=14acb05e-e6f7-4d1a-9ccf-9d030d00cc86"},"vehicle_type_id":"4","last_reported":1700586602,"current_range_meters":20000,"station_id":"ce4bgn12rcd13ifvqbt0","pricing_plan_id":"free"},{"bike_id":"33f7a205-a0fa-45aa-8dec-d47c850fa3fa","system_id":"levelo_inurba_marseille","lat":43.29732,"lon":5.37011,"is_reserved":false,"is_disabled":false,"rental_uris":{"android":"levelo://app?vid=33f7a205-a0fa-45aa-8dec-d47c850fa3fa","ios":"levelo://app?vid=33f7a205-a0fa-45aa-8dec-d47c850fa3fa"},"vehicle_type_id":"4","last_reported":1700586602,"current_range_meters":0,"station_id":"","pricing_plan_id":"free"},{"bike_id":"546b7c2e-7cf3-41ce-a4e1-630178190157","system_id":"levelo_inurba_marseille","lat":43.29715,"lon":5.36614,"is_reserved":false,"is_disabled":false,"rental_uris":{"android":"levelo://app?vid=546b7c2e-7cf3-41ce-a4e1-630178190157","ios":"levelo://app?vid=546b7c2e-7cf3-41ce-a4e1-630178190157"},"vehicle_type_id":"4","last_reported":1700586602,"current_range_meters":4000,"station_id":"ce4bgn12rcd13ifvqbt0","pricing_plan_id":"free"},{"bike_id":"d057e447-5cce-4125-adc8-5ddc9a1beb92","system_id":"levelo_inurba_marseille","lat":43.297163,"lon":5.365866,"is_reserved":false,"is_disabled":false,"rental_uris":{"android":"levelo://app?vid=d057e447-5cce-4125-adc8-5ddc9a1beb92","ios":"levelo://app?vid=d057e447-5cce-4125-adc8-5ddc9a1beb92"},"vehicle_type_id":"4","last_reported":1700586602,"current_range_meters":31200,"station_id":"ce4bgn12rcd13ifvqbt0","pricing_plan_id":"free"},{"bike_id":"03b9f08a-1465-4da2-9ec0-c62d6806a4b5","system_id":"levelo_inurba_marseille","lat":43.297163,"lon":5.365866,"is_reserved":false,"is_disabled":false,"rental_uris":{"android":"levelo://app?vid=03b9f08a-1465-4da2-9ec0-c62d6806a4b5","ios":"levelo://app?vid=03b9f08a-1465-4da2-9ec0-c62d6806a4b5"},"vehicle_type_id":"4","last_reported":1700586602,"current_range_meters":20800,"station_id":"ce4bgn12rcd13ifvqbt0","pricing_plan_id":"free"},{"bike_id":"c180b649-cea0-4239-8dcb-73a3e522760e","system_id":"levelo_inurba_marseille","lat":43.297163,"lon":5.365866,"is_reserved":false,"is_disabled":false,"rental_uris":{"android":"levelo://app?vid=c180b649-cea0-4239-8dcb-73a3e522760e","ios":"levelo://app?vid=c180b649-cea0-4239-8dcb-73a3e522760e"},"vehicle_type_id":"4","last_reported":1700586602,"current_range_meters":23600,"station_id":"ce4bgn12rcd13ifvqbt0","pricing_plan_id":"free"},{"bike_id":"95e81720-027c-4d59-b7c2-c0687573b9ca","system_id":"levelo_inurba_marseille","lat":43.299028,"lon":5.381509,"is_reserved":false,"is_disabled":false,"rental_uris":{"android":"levelo://app?vid=95e81720-027c-4d59-b7c2-c0687573b9ca","ios":"levelo://app?vid=95e81720-027c-4d59-b7c2-c0687573b9ca"},"vehicle_type_id":"4","last_reported":1700586602,"current_range_meters":16000,"station_id":"ce4bgj12rcd13ifvqbc0","pricing_plan_id":"free"},{"bike_id":"9fb402a7-7a41-4473-81d2-1fec663a6035","system_id":"levelo_inurba_marseille","lat":43.30558,"lon":5.38877,"is_reserved":false,"is_disabled":false,"rental_uris":{"android":"levelo://app?vid=9fb402a7-7a41-4473-81d2-1fec663a6035","ios":"levelo://app?vid=9fb402a7-7a41-4473-81d2-1fec663a6035"},"vehicle_type_id":"4","last_reported":1700586602,"current_range_meters":28400,"station_id":"","pricing_plan_id":"free"},{"bike_id":"26ae7e1e-e552-449e-bb46-942189b27500","system_id":"levelo_inurba_marseille","lat":43.31752,"lon":5.39022,"is_reserved":false,"is_disabled":false,"rental_uris":{"android":"levelo://app?vid=26ae7e1e-e552-449e-bb46-942189b27500","ios":"levelo://app?vid=26ae7e1e-e552-449e-bb46-942189b27500"},"vehicle_type_id":"4","last_reported":1700586602,"current_range_meters":10800,"station_id":"ce4bhqp2rcd13ifvqhng","pricing_plan_id":"free"},{"bike_id":"a31a4c45-efd0-4e79-89a8-d6ad30c56a72","system_id":"levelo_inurba_marseille","lat":43.298037,"lon":5.381066,"is_reserved":false,"is_disabled":false,"rental_uris":{"android":"levelo://app?vid=a31a4c45-efd0-4e79-89a8-d6ad30c56a72","ios":"levelo://app?vid=a31a4c45-efd0-4e79-89a8-d6ad30c56a72"},"vehicle_type_id":"4","last_reported":1700586602,"current_range_meters":19200,"station_id":"ce4bgip2rcd13ifvqbb0","pricing_plan_id":"free"},{"bike_id":"f6f7e410-51df-44f3-a1fd-5575dc439883","system_id":"levelo_inurba_marseille","lat":43.304274,"lon":5.388873,"is_reserved":false,"is_disabled":false,"rental_uris":{"android":"levelo://app?vid=f6f7e410-51df-44f3-a1fd-5575dc439883","ios":"levelo://app?vid=f6f7e410-51df-44f3-a1fd-5575dc439883"},"vehicle_type_id":"4","last_reported":1700586602,"current_range_meters":15200,"station_id":"ce4bgk12rcd13ifvqbi0","pricing_plan_id":"free"},{"bike_id":"f662fc53-d7a2-43c5-b262-5f1badf67322","system_id":"levelo_inurba_marseille","lat":43.304278,"lon":5.388868,"is_reserved":false,"is_disabled":false,"rental_uris":{"android":"levelo://app?vid=f662fc53-d7a2-43c5-b262-5f1badf67322","ios":"levelo://app?vid=f662fc53-d7a2-43c5-b262-5f1badf67322"},"vehicle_type_id":"4","last_reported":1700586602,"current_range_meters":18400,"station_id":"ce4bgk12rcd13ifvqbi0","pricing_plan_id":"free"},{"bike_id":"af2eb006-2d3d-418a-8c5e-52aed898548c","system_id":"levelo_inurba_marseille","lat":43.304274,"lon":5.388873,"is_reserved":false,"is_disabled":false,"rental_uris":{"android":"levelo://app?vid=af2eb006-2d3d-418a-8c5e-52aed898548c","ios":"levelo://app?vid=af2eb006-2d3d-418a-8c5e-52aed898548c"},"vehicle_type_id":"4","last_reported":1700586602,"current_range_meters":10400,"station_id":"ce4bgk12rcd13ifvqbi0","pricing_plan_id":"free"},{"bike_id":"3059d4c1-3d42-4321-a339-0fea9a03ef82","system_id":"levelo_inurba_marseille","lat":43.328154,"lon":5.380034,"is_reserved":false,"is_disabled":false,"rental_uris":{"android":"levelo://app?vid=3059d4c1-3d42-4321-a339-0fea9a03ef82","ios":"levelo://app?vid=3059d4c1-3d42-4321-a339-0fea9a03ef82"},"vehicle_type_id":"4","last_reported":1700586602,"current_range_meters":0,"station_id":"","pricing_plan_id":"free"},{"bike_id":"7b9bb6e3-b636-444f-b79b-275a9fc1f9b2","system_id":"levelo_inurba_marseille","lat":43.296263,"lon":5.377094,"is_reserved":false,"is_disabled":false,"rental_uris":{"android":"levelo://app?vid=7b9bb6e3-b636-444f-b79b-275a9fc1f9b2","ios":"levelo://app?vid=7b9bb6e3-b636-444f-b79b-275a9fc1f9b2"},"vehicle_type_id":"4","last_reported":1700586602,"current_range_meters":2000,"station_id":"ce4bgi92rcd13ifvqb90","pricing_plan_id":"free"},{"bike_id":"182a4fb5-7633-4938-8d3c-4272d840b92f","system_id":"levelo_inurba_marseille","lat":43.299707,"lon":5.384859,"is_reserved":false,"is_disabled":false,"rental_uris":{"android":"levelo://app?vid=182a4fb5-7633-4938-8d3c-4272d840b92f","ios":"levelo://app?vid=182a4fb5-7633-4938-8d3c-4272d840b92f"},"vehicle_type_id":"4","last_reported":1700586602,"current_range_meters":0,"station_id":"ce4bgj92rcd13ifvqbd0","pricing_plan_id":"free"},{"bike_id":"6b621983-5e9e-42f7-990d-ad5a093820d2","system_id":"levelo_inurba_marseille","lat":43.293801,"lon":5.363066,"is_reserved":false,"is_disabled":false,"rental_uris":{"android":"levelo://app?vid=6b621983-5e9e-42f7-990d-ad5a093820d2","ios":"levelo://app?vid=6b621983-5e9e-42f7-990d-ad5a093820d2"},"vehicle_type_id":"4","last_reported":1700586602,"current_range_meters":15200,"station_id":"","pricing_plan_id":"free"},{"bike_id":"3e1e886f-2820-414b-97b6-7d4ce69fabb7","system_id":"levelo_inurba_marseille","lat":43.29602,"lon":5.381084,"is_reserved":false,"is_disabled":false,"rental_uris":{"android":"levelo://app?vid=3e1e886f-2820-414b-97b6-7d4ce69fabb7","ios":"levelo://app?vid=3e1e886f-2820-414b-97b6-7d4ce69fabb7"},"vehicle_type_id":"4","last_reported":1700586602,"current_range_meters":7600,"station_id":"ce4bgl12rcd13ifvqbo0","pricing_plan_id":"free"},{"bike_id":"d08f04bf-d1cb-49fb-9aa7-04e7f7676b3c","system_id":"levelo_inurba_marseille","lat":43.32342,"lon":5.38947,"is_reserved":false,"is_disabled":false,"rental_uris":{"android":"levelo://app?vid=d08f04bf-d1cb-49fb-9aa7-04e7f7676b3c","ios":"levelo://app?vid=d08f04bf-d1cb-49fb-9aa7-04e7f7676b3c"},"vehicle_type_id":"4","last_reported":1700586602,"current_range_meters":0,"station_id":"","pricing_plan_id":"free"},{"bike_id":"5a799756-a1d1-4e4d-b133-6960faa69137","system_id":"levelo_inurba_marseille","lat":43.29602,"lon":5.381084,"is_reserved":false,"is_disabled":false,"rental_uris":{"android":"levelo://app?vid=5a799756-a1d1-4e4d-b133-6960faa69137","ios":"levelo://app?vid=5a799756-a1d1-4e4d-b133-6960faa69137"},"vehicle_type_id":"4","last_reported":1700586602,"current_range_meters":0,"station_id":"ce4bgl12rcd13ifvqbo0","pricing_plan_id":"free"},{"bike_id":"1b614a8e-373a-4905-88c3-630455036962","system_id":"levelo_inurba_marseille","lat":43.302,"lon":5.38961,"is_reserved":false,"is_disabled":false,"rental_uris":{"android":"levelo://app?vid=1b614a8e-373a-4905-88c3-630455036962","ios":"levelo://app?vid=1b614a8e-373a-4905-88c3-630455036962"},"vehicle_type_id":"4","last_reported":1700586602,"current_range_meters":5200,"station_id":"","pricing_plan_id":"free"},{"bike_id":"36936d9c-cdd8-46bc-876d-93fc09a330c3","system_id":"levelo_inurba_marseille","lat":43.305994,"lon":5.393687,"is_reserved":false,"is_disabled":false,"rental_uris":{"android":"levelo://app?vid=36936d9c-cdd8-46bc-876d-93fc09a330c3","ios":"levelo://app?vid=36936d9c-cdd8-46bc-876d-93fc09a330c3"},"vehicle_type_id":"4","last_reported":1700586602,"current_range_meters":19600,"station_id":"ce4bh0p2rcd13ifvqd80","pricing_plan_id":"free"},{"bike_id":"56976b36-0d06-4b7b-9507-582ab8ce8f96","system_id":"levelo_inurba_marseille","lat":43.29291,"lon":5.37471,"is_reserved":false,"is_disabled":false,"rental_uris":{"android":"levelo://app?vid=56976b36-0d06-4b7b-9507-582ab8ce8f96","ios":"levelo://app?vid=56976b36-0d06-4b7b-9507-582ab8ce8f96"},"vehicle_type_id":"4","last_reported":1700586602,"current_range_meters":13600,"station_id":"ce4bgi12rcd13ifvqb70","pricing_plan_id":"free"},{"bike_id":"b4c8dd03-d28c-40f2-b787-fc76ce0dfe41","system_id":"levelo_inurba_marseille","lat":43.292311,"lon":5.360731,"is_reserved":false,"is_disabled":false,"rental_uris":{"android":"levelo://app?vid=b4c8dd03-d28c-40f2-b787-fc76ce0dfe41","ios":"levelo://app?vid=b4c8dd03-d28c-40f2-b787-fc76ce0dfe41"},"vehicle_type_id":"4","last_reported":1700586602,"current_range_meters":22000,"station_id":"ce4bhbh2rcd13ifvqeqg","pricing_plan_id":"free"},{"bike_id":"64443118-2db6-49db-8f31-a53d85731a64","system_id":"levelo_inurba_marseille","lat":43.291675,"lon":5.371583,"is_reserved":false,"is_disabled":false,"rental_uris":{"android":"levelo://app?vid=64443118-2db6-49db-8f31-a53d85731a64","ios":"levelo://app?vid=64443118-2db6-49db-8f31-a53d85731a64"},"vehicle_type_id":"4","last_reported":1700586602,"current_range_meters":16000,"station_id":"ce4bha92rcd13ifvqeh0","pricing_plan_id":"free"},{"bike_id":"4fdc9e0d-d2b1-4468-a601-87ceee55ecf0","system_id":"levelo_inurba_marseille","lat":43.313291,"lon":5.396838,"is_reserved":false,"is_disabled":false,"rental_uris":{"android":"levelo://app?vid=4fdc9e0d-d2b1-4468-a601-87ceee55ecf0","ios":"levelo://app?vid=4fdc9e0d-d2b1-4468-a601-87ceee55ecf0"},"vehicle_type_id":"4","last_reported":1700586602,"current_range_meters":17600,"station_id":"ce4bgvp2rcd13ifvqcu0","pricing_plan_id":"free"},{"bike_id":"cdfd4d0a-14e5-4e93-b6b8-0b2e2f85621f","system_id":"levelo_inurba_marseille","lat":43.31325,"lon":5.39693,"is_reserved":false,"is_disabled":false,"rental_uris":{"android":"levelo://app?vid=cdfd4d0a-14e5-4e93-b6b8-0b2e2f85621f","ios":"levelo://app?vid=cdfd4d0a-14e5-4e93-b6b8-0b2e2f85621f"},"vehicle_type_id":"4","last_reported":1700586602,"current_range_meters":2400,"station_id":"ce4bgvp2rcd13ifvqcu0","pricing_plan_id":"free"},{"bike_id":"1592a241-f8f0-4177-8ed8-3bddd43c6599","system_id":"levelo_inurba_marseille","lat":43.29189,"lon":5.358,"is_reserved":false,"is_disabled":false,"rental_uris":{"android":"levelo://app?vid=1592a241-f8f0-4177-8ed8-3bddd43c6599","ios":"levelo://app?vid=1592a241-f8f0-4177-8ed8-3bddd43c6599"},"vehicle_type_id":"4","last_reported":1700586602,"current_range_meters":0,"station_id":"ce4bhb12rcd13ifvqel0","pricing_plan_id":"free"},{"bike_id":"dcb1aa45-6710-4c2f-a636-ef38bc26bb65","system_id":"levelo_inurba_marseille","lat":43.31322,"lon":5.39695,"is_reserved":false,"is_disabled":false,"rental_uris":{"android":"levelo://app?vid=dcb1aa45-6710-4c2f-a636-ef38bc26bb65","ios":"levelo://app?vid=dcb1aa45-6710-4c2f-a636-ef38bc26bb65"},"vehicle_type_id":"4","last_reported":1700586602,"current_range_meters":26000,"station_id":"ce4bgvp2rcd13ifvqcu0","pricing_plan_id":"free"},{"bike_id":"04aff88e-5c1a-4caa-96c5-80af3952760a","system_id":"levelo_inurba_marseille","lat":43.313291,"lon":5.396838,"is_reserved":false,"is_disabled":false,"rental_uris":{"android":"levelo://app?vid=04aff88e-5c1a-4caa-96c5-80af3952760a","ios":"levelo://app?vid=04aff88e-5c1a-4caa-96c5-80af3952760a"},"vehicle_type_id":"4","last_reported":1700586602,"current_range_meters":14800,"station_id":"ce4bgvp2rcd13ifvqcu0","pricing_plan_id":"free"},{"bike_id":"3b3ae3b3-66e7-48b7-aee8-e0eba4b10343","system_id":"levelo_inurba_marseille","lat":43.309047,"lon":5.396551,"is_reserved":false,"is_disabled":false,"rental_uris":{"android":"levelo://app?vid=3b3ae3b3-66e7-48b7-aee8-e0eba4b10343","ios":"levelo://app?vid=3b3ae3b3-66e7-48b7-aee8-e0eba4b10343"},"vehicle_type_id":"4","last_reported":1700586602,"current_range_meters":4000,"station_id":"ce4bh012rcd13ifvqcv0","pricing_plan_id":"free"},{"bike_id":"1d10a1b1-d55f-4279-928a-9c6858f32ca9","system_id":"levelo_inurba_marseille","lat":43.33231,"lon":5.380687,"is_reserved":false,"is_disabled":false,"rental_uris":{"android":"levelo://app?vid=1d10a1b1-d55f-4279-928a-9c6858f32ca9","ios":"levelo://app?vid=1d10a1b1-d55f-4279-928a-9c6858f32ca9"},"vehicle_type_id":"4","last_reported":1700586602,"current_range_meters":2800,"station_id":"","pricing_plan_id":"free"},{"bike_id":"3b68d369-dca4-4e1f-b919-466f8fb495e1","system_id":"levelo_inurba_marseille","lat":43.29533,"lon":5.3855,"is_reserved":false,"is_disabled":false,"rental_uris":{"android":"levelo://app?vid=3b68d369-dca4-4e1f-b919-466f8fb495e1","ios":"levelo://app?vid=3b68d369-dca4-4e1f-b919-466f8fb495e1"},"vehicle_type_id":"4","last_reported":1700586602,"current_range_meters":0,"station_id":"ce4bgih2rcd13ifvqba0","pricing_plan_id":"free"},{"bike_id":"bf67c4ac-8d0f-4b15-8687-509f2a88fce2","system_id":"levelo_inurba_marseille","lat":43.29529,"lon":5.385581,"is_reserved":false,"is_disabled":false,"rental_uris":{"android":"levelo://app?vid=bf67c4ac-8d0f-4b15-8687-509f2a88fce2","ios":"levelo://app?vid=bf67c4ac-8d0f-4b15-8687-509f2a88fce2"},"vehicle_type_id":"4","last_reported":1700586602,"current_range_meters":18800,"station_id":"ce4bgih2rcd13ifvqba0","pricing_plan_id":"free"},{"bike_id":"4ac67122-73ac-43d0-9c34-5e9253bbeb77","system_id":"levelo_inurba_marseille","lat":43.302008,"lon":5.394694,"is_reserved":false,"is_disabled":false,"rental_uris":{"android":"levelo://app?vid=4ac67122-73ac-43d0-9c34-5e9253bbeb77","ios":"levelo://app?vid=4ac67122-73ac-43d0-9c34-5e9253bbeb77"},"vehicle_type_id":"4","last_reported":1700586602,"current_range_meters":24800,"station_id":"ce4bh0p2rcd13ifvqd70","pricing_plan_id":"free"},{"bike_id":"76753125-d740-4411-a93c-875d6e019dfe","system_id":"levelo_inurba_marseille","lat":43.290631,"lon":5.359244,"is_reserved":false,"is_disabled":false,"rental_uris":{"android":"levelo://app?vid=76753125-d740-4411-a93c-875d6e019dfe","ios":"levelo://app?vid=76753125-d740-4411-a93c-875d6e019dfe"},"vehicle_type_id":"4","last_reported":1700586602,"current_range_meters":400,"station_id":"ce4bha92rcd13ifvqeg0","pricing_plan_id":"free"},{"bike_id":"4f39850b-636c-4dc6-916f-96f08be9cf93","system_id":"levelo_inurba_marseille","lat":43.289468,"lon":5.363719,"is_reserved":false,"is_disabled":false,"rental_uris":{"android":"levelo://app?vid=4f39850b-636c-4dc6-916f-96f08be9cf93","ios":"levelo://app?vid=4f39850b-636c-4dc6-916f-96f08be9cf93"},"vehicle_type_id":"4","last_reported":1700586602,"current_range_meters":0,"station_id":"ce4bhc92rcd13ifvqetg","pricing_plan_id":"free"},{"bike_id":"e0b19f1f-25db-4e3a-aca1-264e0f4892b1","system_id":"levelo_inurba_marseille","lat":43.289743,"lon":5.378304,"is_reserved":false,"is_disabled":false,"rental_uris":{"android":"levelo://app?vid=e0b19f1f-25db-4e3a-aca1-264e0f4892b1","ios":"levelo://app?vid=e0b19f1f-25db-4e3a-aca1-264e0f4892b1"},"vehicle_type_id":"4","last_reported":1700586602,"current_range_meters":22400,"station_id":"ce4bh9p2rcd13ifvqed0","pricing_plan_id":"free"},{"bike_id":"c0691913-4d43-42af-9fa5-975aa1a8621b","system_id":"levelo_inurba_marseille","lat":43.29087,"lon":5.3816,"is_reserved":false,"is_disabled":false,"rental_uris":{"android":"levelo://app?vid=c0691913-4d43-42af-9fa5-975aa1a8621b","ios":"levelo://app?vid=c0691913-4d43-42af-9fa5-975aa1a8621b"},"vehicle_type_id":"4","last_reported":1700586602,"current_range_meters":0,"station_id":"ce4bh512rcd13ifvqe2g","pricing_plan_id":"free"},{"bike_id":"f3b05e14-f25f-404c-b147-ae068237a416","system_id":"levelo_inurba_marseille","lat":43.290327,"lon":5.375711,"is_reserved":false,"is_disabled":false,"rental_uris":{"android":"levelo://app?vid=f3b05e14-f25f-404c-b147-ae068237a416","ios":"levelo://app?vid=f3b05e14-f25f-404c-b147-ae068237a416"},"vehicle_type_id":"4","last_reported":1700586602,"current_range_meters":28800,"station_id":"ce4bh692rcd13ifvqe90","pricing_plan_id":"free"},{"bike_id":"aad9a792-6976-4183-919a-aef819ff2e25","system_id":"levelo_inurba_marseille","lat":43.31251,"lon":5.40162,"is_reserved":false,"is_disabled":false,"rental_uris":{"android":"levelo://app?vid=aad9a792-6976-4183-919a-aef819ff2e25","ios":"levelo://app?vid=aad9a792-6976-4183-919a-aef819ff2e25"},"vehicle_type_id":"4","last_reported":1700586602,"current_range_meters":2800,"station_id":"","pricing_plan_id":"free"},{"bike_id":"8251cbdf-6fc9-4ed4-bf87-0d2448849ada","system_id":"levelo_inurba_marseille","lat":43.33756,"lon":5.3745,"is_reserved":false,"is_disabled":false,"rental_uris":{"android":"levelo://app?vid=8251cbdf-6fc9-4ed4-bf87-0d2448849ada","ios":"levelo://app?vid=8251cbdf-6fc9-4ed4-bf87-0d2448849ada"},"vehicle_type_id":"4","last_reported":1700586602,"current_range_meters":30800,"station_id":"","pricing_plan_id":"free"},{"bike_id":"b7021fb5-7e75-4436-add5-24bdc7f497ea","system_id":"levelo_inurba_marseille","lat":43.30673,"lon":5.401,"is_reserved":false,"is_disabled":false,"rental_uris":{"android":"levelo://app?vid=b7021fb5-7e75-4436-add5-24bdc7f497ea","ios":"levelo://app?vid=b7021fb5-7e75-4436-add5-24bdc7f497ea"},"vehicle_type_id":"4","last_reported":1700586602,"current_range_meters":19600,"station_id":"ce4bh112rcd13ifvqda0","pricing_plan_id":"free"},{"bike_id":"2b3f4cef-d88a-414c-b2cc-9d2a98e793f1","system_id":"levelo_inurba_marseille","lat":43.33761,"lon":5.37491,"is_reserved":false,"is_disabled":false,"rental_uris":{"android":"levelo://app?vid=2b3f4cef-d88a-414c-b2cc-9d2a98e793f1","ios":"levelo://app?vid=2b3f4cef-d88a-414c-b2cc-9d2a98e793f1"},"vehicle_type_id":"4","last_reported":1700586602,"current_range_meters":10400,"station_id":"","pricing_plan_id":"free"},{"bike_id":"dedd3e4f-e4e1-4fe0-afd5-fc320bdd5588","system_id":"levelo_inurba_marseille","lat":43.33764,"lon":5.37481,"is_reserved":false,"is_disabled":false,"rental_uris":{"android":"levelo://app?vid=dedd3e4f-e4e1-4fe0-afd5-fc320bdd5588","ios":"levelo://app?vid=dedd3e4f-e4e1-4fe0-afd5-fc320bdd5588"},"vehicle_type_id":"4","last_reported":1700586602,"current_range_meters":27200,"station_id":"","pricing_plan_id":"free"},{"bike_id":"aa94f198-82aa-4214-b330-db92b5c3246b","system_id":"levelo_inurba_marseille","lat":43.301117,"lon":5.398795,"is_reserved":false,"is_disabled":false,"rental_uris":{"android":"levelo://app?vid=aa94f198-82aa-4214-b330-db92b5c3246b","ios":"levelo://app?vid=aa94f198-82aa-4214-b330-db92b5c3246b"},"vehicle_type_id":"4","last_reported":1700586602,"current_range_meters":15200,"station_id":"ce4bh0h2rcd13ifvqd40","pricing_plan_id":"free"},{"bike_id":"c23a038d-8fe5-437f-bbe5-513359d786e1","system_id":"levelo_inurba_marseille","lat":43.33771,"lon":5.37487,"is_reserved":false,"is_disabled":false,"rental_uris":{"android":"levelo://app?vid=c23a038d-8fe5-437f-bbe5-513359d786e1","ios":"levelo://app?vid=c23a038d-8fe5-437f-bbe5-513359d786e1"},"vehicle_type_id":"4","last_reported":1700586602,"current_range_meters":30000,"station_id":"","pricing_plan_id":"free"},{"bike_id":"895019b4-d5e1-4d6f-850e-28a9514a18a3","system_id":"levelo_inurba_marseille","lat":43.301235,"lon":5.398966,"is_reserved":false,"is_disabled":false,"rental_uris":{"android":"levelo://app?vid=895019b4-d5e1-4d6f-850e-28a9514a18a3","ios":"levelo://app?vid=895019b4-d5e1-4d6f-850e-28a9514a18a3"},"vehicle_type_id":"4","last_reported":1700586602,"current_range_meters":2800,"station_id":"ce4bh0h2rcd13ifvqd40","pricing_plan_id":"free"},{"bike_id":"6b93bfb9-fb41-4c0e-9787-57f7ec1f0211","system_id":"levelo_inurba_marseille","lat":43.295196,"lon":5.39397,"is_reserved":false,"is_disabled":false,"rental_uris":{"android":"levelo://app?vid=6b93bfb9-fb41-4c0e-9787-57f7ec1f0211","ios":"levelo://app?vid=6b93bfb9-fb41-4c0e-9787-57f7ec1f0211"},"vehicle_type_id":"4","last_reported":1700586602,"current_range_meters":23200,"station_id":"ce4bh292rcd13ifvqdf0","pricing_plan_id":"free"},{"bike_id":"605db072-793d-4ca7-9743-907daf221224","system_id":"levelo_inurba_marseille","lat":43.286591,"lon":5.363346,"is_reserved":false,"is_disabled":false,"rental_uris":{"android":"levelo://app?vid=605db072-793d-4ca7-9743-907daf221224","ios":"levelo://app?vid=605db072-793d-4ca7-9743-907daf221224"},"vehicle_type_id":"4","last_reported":1700586602,"current_range_meters":29600,"station_id":"ce4bhah2rcd13ifvqej0","pricing_plan_id":"free"},{"bike_id":"9b2b61ef-0644-4444-9ea8-0c14f14071a2","system_id":"levelo_inurba_marseille","lat":43.295196,"lon":5.39397,"is_reserved":false,"is_disabled":false,"rental_uris":{"android":"levelo://app?vid=9b2b61ef-0644-4444-9ea8-0c14f14071a2","ios":"levelo://app?vid=9b2b61ef-0644-4444-9ea8-0c14f14071a2"},"vehicle_type_id":"4","last_reported":1700586602,"current_range_meters":6000,"station_id":"ce4bh292rcd13ifvqdf0","pricing_plan_id":"free"},{"bike_id":"4d138e58-b474-4842-92ad-8be8b6e0c20e","system_id":"levelo_inurba_marseille","lat":43.290362,"lon":5.386455,"is_reserved":false,"is_disabled":false,"rental_uris":{"android":"levelo://app?vid=4d138e58-b474-4842-92ad-8be8b6e0c20e","ios":"levelo://app?vid=4d138e58-b474-4842-92ad-8be8b6e0c20e"},"vehicle_type_id":"4","last_reported":1700586602,"current_range_meters":4000,"station_id":"ce4bh4p2rcd13ifvqe0g","pricing_plan_id":"free"},{"bike_id":"5b5f56a5-a60a-407e-9516-b2be8bec5187","system_id":"levelo_inurba_marseille","lat":43.2904,"lon":5.38656,"is_reserved":false,"is_disabled":false,"rental_uris":{"android":"levelo://app?vid=5b5f56a5-a60a-407e-9516-b2be8bec5187","ios":"levelo://app?vid=5b5f56a5-a60a-407e-9516-b2be8bec5187"},"vehicle_type_id":"4","last_reported":1700586602,"current_range_meters":4000,"station_id":"ce4bh4p2rcd13ifvqe0g","pricing_plan_id":"free"},{"bike_id":"8293f80e-4853-442b-9b2a-9af8b1cf1b99","system_id":"levelo_inurba_marseille","lat":43.295194,"lon":5.39397,"is_reserved":false,"is_disabled":false,"rental_uris":{"android":"levelo://app?vid=8293f80e-4853-442b-9b2a-9af8b1cf1b99","ios":"levelo://app?vid=8293f80e-4853-442b-9b2a-9af8b1cf1b99"},"vehicle_type_id":"4","last_reported":1700586602,"current_range_meters":0,"station_id":"ce4bh292rcd13ifvqdf0","pricing_plan_id":"free"},{"bike_id":"65fbcdc3-c7cc-4083-b51d-054a14b598e1","system_id":"levelo_inurba_marseille","lat":43.29031,"lon":5.38651,"is_reserved":false,"is_disabled":false,"rental_uris":{"android":"levelo://app?vid=65fbcdc3-c7cc-4083-b51d-054a14b598e1","ios":"levelo://app?vid=65fbcdc3-c7cc-4083-b51d-054a14b598e1"},"vehicle_type_id":"4","last_reported":1700586602,"current_range_meters":6400,"station_id":"ce4bh4p2rcd13ifvqe0g","pricing_plan_id":"free"},{"bike_id":"5547384f-2b1e-4176-b428-a14a61264672","system_id":"levelo_inurba_marseille","lat":43.290283,"lon":5.386512,"is_reserved":false,"is_disabled":false,"rental_uris":{"android":"levelo://app?vid=5547384f-2b1e-4176-b428-a14a61264672","ios":"levelo://app?vid=5547384f-2b1e-4176-b428-a14a61264672"},"vehicle_type_id":"4","last_reported":1700586602,"current_range_meters":6800,"station_id":"ce4bh4p2rcd13ifvqe0g","pricing_plan_id":"free"},{"bike_id":"24a6354a-384a-4236-8455-09d146f0dddb","system_id":"levelo_inurba_marseille","lat":43.289307,"lon":5.38406,"is_reserved":false,"is_disabled":false,"rental_uris":{"android":"levelo://app?vid=24a6354a-384a-4236-8455-09d146f0dddb","ios":"levelo://app?vid=24a6354a-384a-4236-8455-09d146f0dddb"},"vehicle_type_id":"4","last_reported":1700586602,"current_range_meters":20800,"station_id":"ce4bh612rcd13ifvqe6g","pricing_plan_id":"free"},{"bike_id":"274e0c5b-d5a8-40f6-a426-55b44848ebbb","system_id":"levelo_inurba_marseille","lat":43.302759,"lon":5.400793,"is_reserved":false,"is_disabled":false,"rental_uris":{"android":"levelo://app?vid=274e0c5b-d5a8-40f6-a426-55b44848ebbb","ios":"levelo://app?vid=274e0c5b-d5a8-40f6-a426-55b44848ebbb"},"vehicle_type_id":"4","last_reported":1700586602,"current_range_meters":0,"station_id":"ce4bgvh2rcd13ifvqcs0","pricing_plan_id":"free"},{"bike_id":"587797ad-7dfe-49a2-9404-a32255c8619a","system_id":"levelo_inurba_marseille","lat":43.286152,"lon":5.370623,"is_reserved":false,"is_disabled":false,"rental_uris":{"android":"levelo://app?vid=587797ad-7dfe-49a2-9404-a32255c8619a","ios":"levelo://app?vid=587797ad-7dfe-49a2-9404-a32255c8619a"},"vehicle_type_id":"4","last_reported":1700586602,"current_range_meters":23600,"station_id":"ce4bht12rcd13ifvqi60","pricing_plan_id":"free"},{"bike_id":"ac363c2c-32f2-4e6c-8ef5-18d6bdb60313","system_id":"levelo_inurba_marseille","lat":43.286039,"lon":5.370681,"is_reserved":false,"is_disabled":false,"rental_uris":{"android":"levelo://app?vid=ac363c2c-32f2-4e6c-8ef5-18d6bdb60313","ios":"levelo://app?vid=ac363c2c-32f2-4e6c-8ef5-18d6bdb60313"},"vehicle_type_id":"4","last_reported":1700586602,"current_range_meters":31200,"station_id":"ce4bht12rcd13ifvqi60","pricing_plan_id":"free"},{"bike_id":"103037f0-b8c2-4b7e-bb4e-0c3ed55d65e6","system_id":"levelo_inurba_marseille","lat":43.28612,"lon":5.37072,"is_reserved":false,"is_disabled":false,"rental_uris":{"android":"levelo://app?vid=103037f0-b8c2-4b7e-bb4e-0c3ed55d65e6","ios":"levelo://app?vid=103037f0-b8c2-4b7e-bb4e-0c3ed55d65e6"},"vehicle_type_id":"4","last_reported":1700586602,"current_range_meters":18400,"station_id":"ce4bht12rcd13ifvqi60","pricing_plan_id":"free"},{"bike_id":"e20842cd-8eea-4741-8c73-0475dbb8d81a","system_id":"levelo_inurba_marseille","lat":43.28606,"lon":5.37062,"is_reserved":false,"is_disabled":false,"rental_uris":{"android":"levelo://app?vid=e20842cd-8eea-4741-8c73-0475dbb8d81a","ios":"levelo://app?vid=e20842cd-8eea-4741-8c73-0475dbb8d81a"},"vehicle_type_id":"4","last_reported":1700586602,"current_range_meters":31200,"station_id":"ce4bht12rcd13ifvqi60","pricing_plan_id":"free"},{"bike_id":"cac30199-50d3-4c7e-a9d5-5457f5c00cd6","system_id":"levelo_inurba_marseille","lat":43.2871,"lon":5.37947,"is_reserved":false,"is_disabled":false,"rental_uris":{"android":"levelo://app?vid=cac30199-50d3-4c7e-a9d5-5457f5c00cd6","ios":"levelo://app?vid=cac30199-50d3-4c7e-a9d5-5457f5c00cd6"},"vehicle_type_id":"4","last_reported":1700586602,"current_range_meters":16800,"station_id":"ce4bh9p2rcd13ifvqec0","pricing_plan_id":"free"},{"bike_id":"b8b7a3f8-1d07-447b-9573-d092026c54e6","system_id":"levelo_inurba_marseille","lat":43.29201,"lon":5.39318,"is_reserved":false,"is_disabled":false,"rental_uris":{"android":"levelo://app?vid=b8b7a3f8-1d07-447b-9573-d092026c54e6","ios":"levelo://app?vid=b8b7a3f8-1d07-447b-9573-d092026c54e6"},"vehicle_type_id":"4","last_reported":1700586602,"current_range_meters":0,"station_id":"ce4bh192rcd13ifvqdd0","pricing_plan_id":"free"},{"bike_id":"e8980e1f-7887-4fa0-9a54-a41af1b6cd5b","system_id":"levelo_inurba_marseille","lat":43.29209,"lon":5.3933,"is_reserved":false,"is_disabled":false,"rental_uris":{"android":"levelo://app?vid=e8980e1f-7887-4fa0-9a54-a41af1b6cd5b","ios":"levelo://app?vid=e8980e1f-7887-4fa0-9a54-a41af1b6cd5b"},"vehicle_type_id":"4","last_reported":1700586602,"current_range_meters":0,"station_id":"ce4bh192rcd13ifvqdd0","pricing_plan_id":"free"},{"bike_id":"4a40b4a9-e10b-4654-8c45-b3e8598373c1","system_id":"levelo_inurba_marseille","lat":43.284534,"lon":5.358662,"is_reserved":false,"is_disabled":false,"rental_uris":{"android":"levelo://app?vid=4a40b4a9-e10b-4654-8c45-b3e8598373c1","ios":"levelo://app?vid=4a40b4a9-e10b-4654-8c45-b3e8598373c1"},"vehicle_type_id":"4","last_reported":1700586602,"current_range_meters":25600,"station_id":"ce4bhah2rcd13ifvqei0","pricing_plan_id":"free"},{"bike_id":"4439280f-268d-4264-b4ac-ff9b05ce61fb","system_id":"levelo_inurba_marseille","lat":43.2846,"lon":5.359,"is_reserved":false,"is_disabled":false,"rental_uris":{"android":"levelo://app?vid=4439280f-268d-4264-b4ac-ff9b05ce61fb","ios":"levelo://app?vid=4439280f-268d-4264-b4ac-ff9b05ce61fb"},"vehicle_type_id":"4","last_reported":1700586602,"current_range_meters":31200,"station_id":"ce4bhah2rcd13ifvqei0","pricing_plan_id":"free"},{"bike_id":"a347da8f-70ad-4425-ad6f-903fb940622e","system_id":"levelo_inurba_marseille","lat":43.28462,"lon":5.35882,"is_reserved":false,"is_disabled":false,"rental_uris":{"android":"levelo://app?vid=a347da8f-70ad-4425-ad6f-903fb940622e","ios":"levelo://app?vid=a347da8f-70ad-4425-ad6f-903fb940622e"},"vehicle_type_id":"4","last_reported":1700586602,"current_range_meters":13600,"station_id":"ce4bhah2rcd13ifvqei0","pricing_plan_id":"free"},{"bike_id":"a92d1595-b480-4458-a174-7947c4dbccde","system_id":"levelo_inurba_marseille","lat":43.294314,"lon":5.397498,"is_reserved":false,"is_disabled":false,"rental_uris":{"android":"levelo://app?vid=a92d1595-b480-4458-a174-7947c4dbccde","ios":"levelo://app?vid=a92d1595-b480-4458-a174-7947c4dbccde"},"vehicle_type_id":"4","last_reported":1700586602,"current_range_meters":0,"station_id":"ce4bh3h2rcd13ifvqdo0","pricing_plan_id":"free"},{"bike_id":"90fa7482-3fa6-4154-bf7e-6e320411586d","system_id":"levelo_inurba_marseille","lat":43.287154,"lon":5.399979,"is_reserved":false,"is_disabled":false,"rental_uris":{"android":"levelo://app?vid=90fa7482-3fa6-4154-bf7e-6e320411586d","ios":"levelo://app?vid=90fa7482-3fa6-4154-bf7e-6e320411586d"},"vehicle_type_id":"4","last_reported":1700586602,"current_range_meters":0,"station_id":"ce4bho92rcd13ifvqh3g","pricing_plan_id":"free"},{"bike_id":"36043778-724e-41cd-9ad0-4790e36fb65d","system_id":"levelo_inurba_marseille","lat":43.28615,"lon":5.35114,"is_reserved":false,"is_disabled":false,"rental_uris":{"android":"levelo://app?vid=36043778-724e-41cd-9ad0-4790e36fb65d","ios":"levelo://app?vid=36043778-724e-41cd-9ad0-4790e36fb65d"},"vehicle_type_id":"4","last_reported":1700586602,"current_range_meters":1200,"station_id":"ce4bhch2rcd13ifvqeug","pricing_plan_id":"free"},{"bike_id":"9ad725ba-8857-4107-98f3-7efac68c7d1d","system_id":"levelo_inurba_marseille","lat":43.28617,"lon":5.35105,"is_reserved":false,"is_disabled":false,"rental_uris":{"android":"levelo://app?vid=9ad725ba-8857-4107-98f3-7efac68c7d1d","ios":"levelo://app?vid=9ad725ba-8857-4107-98f3-7efac68c7d1d"},"vehicle_type_id":"4","last_reported":1700586602,"current_range_meters":16000,"station_id":"ce4bhch2rcd13ifvqeug","pricing_plan_id":"free"},{"bike_id":"ce6948d1-e0ba-432a-8972-6a74ab291470","system_id":"levelo_inurba_marseille","lat":43.28614,"lon":5.35112,"is_reserved":false,"is_disabled":false,"rental_uris":{"android":"levelo://app?vid=ce6948d1-e0ba-432a-8972-6a74ab291470","ios":"levelo://app?vid=ce6948d1-e0ba-432a-8972-6a74ab291470"},"vehicle_type_id":"4","last_reported":1700586602,"current_range_meters":31200,"station_id":"ce4bhch2rcd13ifvqeug","pricing_plan_id":"free"},{"bike_id":"93591452-78a8-4deb-aa6d-58319e661151","system_id":"levelo_inurba_marseille","lat":43.286086,"lon":5.351127,"is_reserved":false,"is_disabled":false,"rental_uris":{"android":"levelo://app?vid=93591452-78a8-4deb-aa6d-58319e661151","ios":"levelo://app?vid=93591452-78a8-4deb-aa6d-58319e661151"},"vehicle_type_id":"4","last_reported":1700586602,"current_range_meters":26400,"station_id":"ce4bhch2rcd13ifvqeug","pricing_plan_id":"free"},{"bike_id":"b70a713d-7935-402b-ae9b-c2cf3b6d312c","system_id":"levelo_inurba_marseille","lat":43.283998,"lon":5.375062,"is_reserved":false,"is_disabled":false,"rental_uris":{"android":"levelo://app?vid=b70a713d-7935-402b-ae9b-c2cf3b6d312c","ios":"levelo://app?vid=b70a713d-7935-402b-ae9b-c2cf3b6d312c"},"vehicle_type_id":"4","last_reported":1700586602,"current_range_meters":0,"station_id":"ce4bh412rcd13ifvqds0","pricing_plan_id":"free"},{"bike_id":"be2e9053-6a07-4690-b43a-c38c714fe3c5","system_id":"levelo_inurba_marseille","lat":43.319179,"lon":5.407725,"is_reserved":false,"is_disabled":false,"rental_uris":{"android":"levelo://app?vid=be2e9053-6a07-4690-b43a-c38c714fe3c5","ios":"levelo://app?vid=be2e9053-6a07-4690-b43a-c38c714fe3c5"},"vehicle_type_id":"4","last_reported":1700586602,"current_range_meters":800,"station_id":"ce4bhq12rcd13ifvqhig","pricing_plan_id":"free"},{"bike_id":"35b19955-8c3e-4374-b999-0b151664b0e8","system_id":"levelo_inurba_marseille","lat":43.33237,"lon":5.3985,"is_reserved":false,"is_disabled":false,"rental_uris":{"android":"levelo://app?vid=35b19955-8c3e-4374-b999-0b151664b0e8","ios":"levelo://app?vid=35b19955-8c3e-4374-b999-0b151664b0e8"},"vehicle_type_id":"4","last_reported":1700586602,"current_range_meters":0,"station_id":"","pricing_plan_id":"free"},{"bike_id":"b4319b18-5548-4691-90e2-2eac47989fae","system_id":"levelo_inurba_marseille","lat":43.323464,"lon":5.406297,"is_reserved":false,"is_disabled":false,"rental_uris":{"android":"levelo://app?vid=b4319b18-5548-4691-90e2-2eac47989fae","ios":"levelo://app?vid=b4319b18-5548-4691-90e2-2eac47989fae"},"vehicle_type_id":"4","last_reported":1700586602,"current_range_meters":26400,"station_id":"ce4bhq92rcd13ifvqhjg","pricing_plan_id":"free"},{"bike_id":"189772c1-1973-4f57-977e-df258f6fb4de","system_id":"levelo_inurba_marseille","lat":43.297946,"lon":5.404063,"is_reserved":false,"is_disabled":false,"rental_uris":{"android":"levelo://app?vid=189772c1-1973-4f57-977e-df258f6fb4de","ios":"levelo://app?vid=189772c1-1973-4f57-977e-df258f6fb4de"},"vehicle_type_id":"4","last_reported":1700586602,"current_range_meters":27600,"station_id":"ce4bh112rcd13ifvqd90","pricing_plan_id":"free"},{"bike_id":"7b6d7a82-515d-438f-be61-042cf1d3d07c","system_id":"levelo_inurba_marseille","lat":43.297946,"lon":5.404063,"is_reserved":false,"is_disabled":false,"rental_uris":{"android":"levelo://app?vid=7b6d7a82-515d-438f-be61-042cf1d3d07c","ios":"levelo://app?vid=7b6d7a82-515d-438f-be61-042cf1d3d07c"},"vehicle_type_id":"4","last_reported":1700586602,"current_range_meters":4400,"station_id":"ce4bh112rcd13ifvqd90","pricing_plan_id":"free"},{"bike_id":"a57cfc5c-398b-452e-9317-cbc0835eda70","system_id":"levelo_inurba_marseille","lat":43.2843,"lon":5.35002,"is_reserved":false,"is_disabled":false,"rental_uris":{"android":"levelo://app?vid=a57cfc5c-398b-452e-9317-cbc0835eda70","ios":"levelo://app?vid=a57cfc5c-398b-452e-9317-cbc0835eda70"},"vehicle_type_id":"4","last_reported":1700586602,"current_range_meters":22400,"station_id":"ce4bhbh2rcd13ifvqepg","pricing_plan_id":"free"},{"bike_id":"e57c9540-512f-4490-8f63-010ef0e8c825","system_id":"levelo_inurba_marseille","lat":43.284219,"lon":5.3497,"is_reserved":false,"is_disabled":false,"rental_uris":{"android":"levelo://app?vid=e57c9540-512f-4490-8f63-010ef0e8c825","ios":"levelo://app?vid=e57c9540-512f-4490-8f63-010ef0e8c825"},"vehicle_type_id":"4","last_reported":1700586602,"current_range_meters":24800,"station_id":"ce4bhbh2rcd13ifvqepg","pricing_plan_id":"free"},{"bike_id":"a915fd1c-9128-4c2f-bc4f-b0c446622785","system_id":"levelo_inurba_marseille","lat":43.284217,"lon":5.349697,"is_reserved":false,"is_disabled":false,"rental_uris":{"android":"levelo://app?vid=a915fd1c-9128-4c2f-bc4f-b0c446622785","ios":"levelo://app?vid=a915fd1c-9128-4c2f-bc4f-b0c446622785"},"vehicle_type_id":"4","last_reported":1700586602,"current_range_meters":24800,"station_id":"ce4bhbh2rcd13ifvqepg","pricing_plan_id":"free"},{"bike_id":"c8cfd9ab-d3bf-4c62-a1f3-f8793f300892","system_id":"levelo_inurba_marseille","lat":43.2842,"lon":5.34992,"is_reserved":false,"is_disabled":false,"rental_uris":{"android":"levelo://app?vid=c8cfd9ab-d3bf-4c62-a1f3-f8793f300892","ios":"levelo://app?vid=c8cfd9ab-d3bf-4c62-a1f3-f8793f300892"},"vehicle_type_id":"4","last_reported":1700586602,"current_range_meters":29200,"station_id":"ce4bhbh2rcd13ifvqepg","pricing_plan_id":"free"},{"bike_id":"8e0fe1ed-e689-4951-8c85-2dbcf9526b7b","system_id":"levelo_inurba_marseille","lat":43.284167,"lon":5.349887,"is_reserved":false,"is_disabled":false,"rental_uris":{"android":"levelo://app?vid=8e0fe1ed-e689-4951-8c85-2dbcf9526b7b","ios":"levelo://app?vid=8e0fe1ed-e689-4951-8c85-2dbcf9526b7b"},"vehicle_type_id":"4","last_reported":1700586602,"current_range_meters":11200,"station_id":"ce4bhbh2rcd13ifvqepg","pricing_plan_id":"free"},{"bike_id":"74e481aa-25b5-4f5b-b8cd-79b4a634f242","system_id":"levelo_inurba_marseille","lat":43.282725,"lon":5.350649,"is_reserved":false,"is_disabled":false,"rental_uris":{"android":"levelo://app?vid=74e481aa-25b5-4f5b-b8cd-79b4a634f242","ios":"levelo://app?vid=74e481aa-25b5-4f5b-b8cd-79b4a634f242"},"vehicle_type_id":"4","last_reported":1700586602,"current_range_meters":31200,"station_id":"ce4bhbp2rcd13ifvqerg","pricing_plan_id":"free"},{"bike_id":"2aa17e7e-9b3b-46fa-94e7-eb7b52fe904e","system_id":"levelo_inurba_marseille","lat":43.282754,"lon":5.350519,"is_reserved":false,"is_disabled":false,"rental_uris":{"android":"levelo://app?vid=2aa17e7e-9b3b-46fa-94e7-eb7b52fe904e","ios":"levelo://app?vid=2aa17e7e-9b3b-46fa-94e7-eb7b52fe904e"},"vehicle_type_id":"4","last_reported":1700586602,"current_range_meters":22400,"station_id":"ce4bhbp2rcd13ifvqerg","pricing_plan_id":"free"},{"bike_id":"749eeb71-b867-46c8-948f-2014966a0a9a","system_id":"levelo_inurba_marseille","lat":43.28042,"lon":5.36958,"is_reserved":false,"is_disabled":false,"rental_uris":{"android":"levelo://app?vid=749eeb71-b867-46c8-948f-2014966a0a9a","ios":"levelo://app?vid=749eeb71-b867-46c8-948f-2014966a0a9a"},"vehicle_type_id":"4","last_reported":1700586602,"current_range_meters":22000,"station_id":"ce4bha12rcd13ifvqef0","pricing_plan_id":"free"},{"bike_id":"aa4139f5-27aa-49e1-a8f1-fc54a1da2de8","system_id":"levelo_inurba_marseille","lat":43.280382,"lon":5.369291,"is_reserved":false,"is_disabled":false,"rental_uris":{"android":"levelo://app?vid=aa4139f5-27aa-49e1-a8f1-fc54a1da2de8","ios":"levelo://app?vid=aa4139f5-27aa-49e1-a8f1-fc54a1da2de8"},"vehicle_type_id":"4","last_reported":1700586602,"current_range_meters":16000,"station_id":"ce4bha12rcd13ifvqef0","pricing_plan_id":"free"},{"bike_id":"5e4ef7db-4482-4feb-8b0a-cd6d841e2690","system_id":"levelo_inurba_marseille","lat":43.28036,"lon":5.36941,"is_reserved":false,"is_disabled":false,"rental_uris":{"android":"levelo://app?vid=5e4ef7db-4482-4feb-8b0a-cd6d841e2690","ios":"levelo://app?vid=5e4ef7db-4482-4feb-8b0a-cd6d841e2690"},"vehicle_type_id":"4","last_reported":1700586602,"current_range_meters":31200,"station_id":"ce4bha12rcd13ifvqef0","pricing_plan_id":"free"},{"bike_id":"eace2be8-2781-4338-ba7d-44b9df37bcb4","system_id":"levelo_inurba_marseille","lat":43.280382,"lon":5.369291,"is_reserved":false,"is_disabled":false,"rental_uris":{"android":"levelo://app?vid=eace2be8-2781-4338-ba7d-44b9df37bcb4","ios":"levelo://app?vid=eace2be8-2781-4338-ba7d-44b9df37bcb4"},"vehicle_type_id":"4","last_reported":1700586602,"current_range_meters":31200,"station_id":"ce4bha12rcd13ifvqef0","pricing_plan_id":"free"},{"bike_id":"42cb2438-b89c-4a96-b876-cf188bf74b6f","system_id":"levelo_inurba_marseille","lat":43.296442,"lon":5.405896,"is_reserved":false,"is_disabled":false,"rental_uris":{"android":"levelo://app?vid=42cb2438-b89c-4a96-b876-cf188bf74b6f","ios":"levelo://app?vid=42cb2438-b89c-4a96-b876-cf188bf74b6f"},"vehicle_type_id":"4","last_reported":1700586602,"current_range_meters":0,"station_id":"","pricing_plan_id":"free"},{"bike_id":"30f35dd6-3435-445f-9b73-f7021589f9cb","system_id":"levelo_inurba_marseille","lat":43.28573,"lon":5.394992,"is_reserved":false,"is_disabled":false,"rental_uris":{"android":"levelo://app?vid=30f35dd6-3435-445f-9b73-f7021589f9cb","ios":"levelo://app?vid=30f35dd6-3435-445f-9b73-f7021589f9cb"},"vehicle_type_id":"4","last_reported":1700586602,"current_range_meters":4400,"station_id":"ce4bh292rcd13ifvqdg0","pricing_plan_id":"free"},{"bike_id":"8dd97701-5c42-4e4e-b38f-c2eb1ad42da2","system_id":"levelo_inurba_marseille","lat":43.304188,"lon":5.412904,"is_reserved":false,"is_disabled":false,"rental_uris":{"android":"levelo://app?vid=8dd97701-5c42-4e4e-b38f-c2eb1ad42da2","ios":"levelo://app?vid=8dd97701-5c42-4e4e-b38f-c2eb1ad42da2"},"vehicle_type_id":"4","last_reported":1700586602,"current_range_meters":2000,"station_id":"ce4bhop2rcd13ifvqh8g","pricing_plan_id":"free"},{"bike_id":"c5997d28-dcac-4e8d-abfd-f6396610fa66","system_id":"levelo_inurba_marseille","lat":43.304188,"lon":5.412904,"is_reserved":false,"is_disabled":false,"rental_uris":{"android":"levelo://app?vid=c5997d28-dcac-4e8d-abfd-f6396610fa66","ios":"levelo://app?vid=c5997d28-dcac-4e8d-abfd-f6396610fa66"},"vehicle_type_id":"4","last_reported":1700586602,"current_range_meters":17600,"station_id":"ce4bhop2rcd13ifvqh8g","pricing_plan_id":"free"},{"bike_id":"4b0a4e93-d470-4fbd-ba0d-bda11f51bb0e","system_id":"levelo_inurba_marseille","lat":43.287154,"lon":5.399979,"is_reserved":false,"is_disabled":false,"rental_uris":{"android":"levelo://app?vid=4b0a4e93-d470-4fbd-ba0d-bda11f51bb0e","ios":"levelo://app?vid=4b0a4e93-d470-4fbd-ba0d-bda11f51bb0e"},"vehicle_type_id":"4","last_reported":1700586602,"current_range_meters":1600,"station_id":"ce4bho92rcd13ifvqh3g","pricing_plan_id":"free"},{"bike_id":"29bbe26b-a367-464b-850b-191c1f69dfce","system_id":"levelo_inurba_marseille","lat":43.32043,"lon":5.41553,"is_reserved":false,"is_disabled":false,"rental_uris":{"android":"levelo://app?vid=29bbe26b-a367-464b-850b-191c1f69dfce","ios":"levelo://app?vid=29bbe26b-a367-464b-850b-191c1f69dfce"},"vehicle_type_id":"4","last_reported":1700586602,"current_range_meters":20400,"station_id":"ce4bhq92rcd13ifvqhkg","pricing_plan_id":"free"},{"bike_id":"64cb78e4-dad1-4258-8c21-73119c603497","system_id":"levelo_inurba_marseille","lat":43.279688,"lon":5.387502,"is_reserved":false,"is_disabled":false,"rental_uris":{"android":"levelo://app?vid=64cb78e4-dad1-4258-8c21-73119c603497","ios":"levelo://app?vid=64cb78e4-dad1-4258-8c21-73119c603497"},"vehicle_type_id":"4","last_reported":1700586602,"current_range_meters":15600,"station_id":"ce4bhg12rcd13ifvqf80","pricing_plan_id":"free"},{"bike_id":"7c00187b-7fbf-44cc-b34c-04137403e120","system_id":"levelo_inurba_marseille","lat":43.279742,"lon":5.38744,"is_reserved":false,"is_disabled":false,"rental_uris":{"android":"levelo://app?vid=7c00187b-7fbf-44cc-b34c-04137403e120","ios":"levelo://app?vid=7c00187b-7fbf-44cc-b34c-04137403e120"},"vehicle_type_id":"4","last_reported":1700586602,"current_range_meters":9200,"station_id":"ce4bhg12rcd13ifvqf80","pricing_plan_id":"free"},{"bike_id":"cf7c6503-d761-4e4a-b826-f55f74848caf","system_id":"levelo_inurba_marseille","lat":43.34879,"lon":5.375119,"is_reserved":false,"is_disabled":false,"rental_uris":{"android":"levelo://app?vid=cf7c6503-d761-4e4a-b826-f55f74848caf","ios":"levelo://app?vid=cf7c6503-d761-4e4a-b826-f55f74848caf"},"vehicle_type_id":"4","last_reported":1700586602,"current_range_meters":8800,"station_id":"","pricing_plan_id":"free"},{"bike_id":"fc59d73e-08c5-4314-8a50-83953dfb7866","system_id":"levelo_inurba_marseille","lat":43.27617,"lon":5.36125,"is_reserved":false,"is_disabled":false,"rental_uris":{"android":"levelo://app?vid=fc59d73e-08c5-4314-8a50-83953dfb7866","ios":"levelo://app?vid=fc59d73e-08c5-4314-8a50-83953dfb7866"},"vehicle_type_id":"4","last_reported":1700586602,"current_range_meters":0,"station_id":"ce4bgj92rcd13ifvqbe0","pricing_plan_id":"free"},{"bike_id":"3e23546e-b2ea-49e1-8a7f-befb89393d59","system_id":"levelo_inurba_marseille","lat":43.275625,"lon":5.384392,"is_reserved":false,"is_disabled":false,"rental_uris":{"android":"levelo://app?vid=3e23546e-b2ea-49e1-8a7f-befb89393d59","ios":"levelo://app?vid=3e23546e-b2ea-49e1-8a7f-befb89393d59"},"vehicle_type_id":"4","last_reported":1700586602,"current_range_meters":22400,"station_id":"ce4bhh92rcd13ifvqfi0","pricing_plan_id":"free"},{"bike_id":"9f93b728-7103-4224-9b7f-2088914938d9","system_id":"levelo_inurba_marseille","lat":43.273609,"lon":5.362708,"is_reserved":false,"is_disabled":false,"rental_uris":{"android":"levelo://app?vid=9f93b728-7103-4224-9b7f-2088914938d9","ios":"levelo://app?vid=9f93b728-7103-4224-9b7f-2088914938d9"},"vehicle_type_id":"4","last_reported":1700586602,"current_range_meters":23600,"station_id":"ce4bhbh2rcd13ifvqeo0","pricing_plan_id":"free"},{"bike_id":"1f3e2ef8-cb78-42ff-8d25-7d6acdb17be1","system_id":"levelo_inurba_marseille","lat":43.273609,"lon":5.362708,"is_reserved":false,"is_disabled":false,"rental_uris":{"android":"levelo://app?vid=1f3e2ef8-cb78-42ff-8d25-7d6acdb17be1","ios":"levelo://app?vid=1f3e2ef8-cb78-42ff-8d25-7d6acdb17be1"},"vehicle_type_id":"4","last_reported":1700586602,"current_range_meters":31200,"station_id":"ce4bhbh2rcd13ifvqeo0","pricing_plan_id":"free"},{"bike_id":"57c3f3f4-0cd5-4104-9546-deca7ce974c9","system_id":"levelo_inurba_marseille","lat":43.279952,"lon":5.400085,"is_reserved":false,"is_disabled":false,"rental_uris":{"android":"levelo://app?vid=57c3f3f4-0cd5-4104-9546-deca7ce974c9","ios":"levelo://app?vid=57c3f3f4-0cd5-4104-9546-deca7ce974c9"},"vehicle_type_id":"4","last_reported":1700586602,"current_range_meters":11200,"station_id":"ce4bho92rcd13ifvqh4g","pricing_plan_id":"free"},{"bike_id":"a13cef21-3476-477b-bf9d-f616eb683199","system_id":"levelo_inurba_marseille","lat":43.279952,"lon":5.400085,"is_reserved":false,"is_disabled":false,"rental_uris":{"android":"levelo://app?vid=a13cef21-3476-477b-bf9d-f616eb683199","ios":"levelo://app?vid=a13cef21-3476-477b-bf9d-f616eb683199"},"vehicle_type_id":"4","last_reported":1700586602,"current_range_meters":28800,"station_id":"ce4bho92rcd13ifvqh4g","pricing_plan_id":"free"},{"bike_id":"114187af-32af-4dba-9a5b-7cf8db15d20c","system_id":"levelo_inurba_marseille","lat":43.310785,"lon":5.424305,"is_reserved":false,"is_disabled":false,"rental_uris":{"android":"levelo://app?vid=114187af-32af-4dba-9a5b-7cf8db15d20c","ios":"levelo://app?vid=114187af-32af-4dba-9a5b-7cf8db15d20c"},"vehicle_type_id":"4","last_reported":1700586602,"current_range_meters":25600,"station_id":"ce4bhp92rcd13ifvqhag","pricing_plan_id":"free"},{"bike_id":"bde81528-ab59-42d4-9336-84a319188297","system_id":"levelo_inurba_marseille","lat":43.274099,"lon":5.394019,"is_reserved":false,"is_disabled":false,"rental_uris":{"android":"levelo://app?vid=bde81528-ab59-42d4-9336-84a319188297","ios":"levelo://app?vid=bde81528-ab59-42d4-9336-84a319188297"},"vehicle_type_id":"4","last_reported":1700586602,"current_range_meters":13200,"station_id":"ce4bhdp2rcd13ifvqf20","pricing_plan_id":"free"},{"bike_id":"f2114d90-967e-448d-9d9a-6661c10d62bf","system_id":"levelo_inurba_marseille","lat":43.29549,"lon":5.42292,"is_reserved":false,"is_disabled":false,"rental_uris":{"android":"levelo://app?vid=f2114d90-967e-448d-9d9a-6661c10d62bf","ios":"levelo://app?vid=f2114d90-967e-448d-9d9a-6661c10d62bf"},"vehicle_type_id":"4","last_reported":1700586602,"current_range_meters":4000,"station_id":"ce4bhph2rcd13ifvqhdg","pricing_plan_id":"free"},{"bike_id":"d63f0213-db4d-4ade-9fb5-b0161bcbc51a","system_id":"levelo_inurba_marseille","lat":43.27222,"lon":5.39264,"is_reserved":false,"is_disabled":false,"rental_uris":{"android":"levelo://app?vid=d63f0213-db4d-4ade-9fb5-b0161bcbc51a","ios":"levelo://app?vid=d63f0213-db4d-4ade-9fb5-b0161bcbc51a"},"vehicle_type_id":"4","last_reported":1700586602,"current_range_meters":0,"station_id":"","pricing_plan_id":"free"},{"bike_id":"d0bb53f7-f1b8-4609-a668-27efdac67f66","system_id":"levelo_inurba_marseille","lat":43.27198,"lon":5.3925,"is_reserved":false,"is_disabled":false,"rental_uris":{"android":"levelo://app?vid=d0bb53f7-f1b8-4609-a668-27efdac67f66","ios":"levelo://app?vid=d0bb53f7-f1b8-4609-a668-27efdac67f66"},"vehicle_type_id":"4","last_reported":1700586602,"current_range_meters":0,"station_id":"","pricing_plan_id":"free"},{"bike_id":"cbc2fb9f-e1d7-438a-87af-611b36f7eeb3","system_id":"levelo_inurba_marseille","lat":43.271891,"lon":5.392412,"is_reserved":false,"is_disabled":false,"rental_uris":{"android":"levelo://app?vid=cbc2fb9f-e1d7-438a-87af-611b36f7eeb3","ios":"levelo://app?vid=cbc2fb9f-e1d7-438a-87af-611b36f7eeb3"},"vehicle_type_id":"4","last_reported":1700586602,"current_range_meters":0,"station_id":"","pricing_plan_id":"free"},{"bike_id":"4f01ca55-2931-4d6c-8ac4-ed8694bb7914","system_id":"levelo_inurba_marseille","lat":43.278128,"lon":5.407195,"is_reserved":false,"is_disabled":false,"rental_uris":{"android":"levelo://app?vid=4f01ca55-2931-4d6c-8ac4-ed8694bb7914","ios":"levelo://app?vid=4f01ca55-2931-4d6c-8ac4-ed8694bb7914"},"vehicle_type_id":"4","last_reported":1700586602,"current_range_meters":16400,"station_id":"ce4bhnh2rcd13ifvqgtg","pricing_plan_id":"free"},{"bike_id":"800c2b8d-473c-4840-a9eb-7f8348a7fc21","system_id":"levelo_inurba_marseille","lat":43.26942,"lon":5.38641,"is_reserved":false,"is_disabled":false,"rental_uris":{"android":"levelo://app?vid=800c2b8d-473c-4840-a9eb-7f8348a7fc21","ios":"levelo://app?vid=800c2b8d-473c-4840-a9eb-7f8348a7fc21"},"vehicle_type_id":"4","last_reported":1700586602,"current_range_meters":0,"station_id":"ce4bhh92rcd13ifvqfh0","pricing_plan_id":"free"},{"bike_id":"e70a7ef2-5100-4561-bfdb-b8d5a3d1be94","system_id":"levelo_inurba_marseille","lat":43.269319,"lon":5.389397,"is_reserved":false,"is_disabled":false,"rental_uris":{"android":"levelo://app?vid=e70a7ef2-5100-4561-bfdb-b8d5a3d1be94","ios":"levelo://app?vid=e70a7ef2-5100-4561-bfdb-b8d5a3d1be94"},"vehicle_type_id":"4","last_reported":1700586602,"current_range_meters":5600,"station_id":"ce4bhhh2rcd13ifvqfl0","pricing_plan_id":"free"},{"bike_id":"c530ece8-2d57-4377-9574-ba160cfe1a24","system_id":"levelo_inurba_marseille","lat":43.269319,"lon":5.389397,"is_reserved":false,"is_disabled":false,"rental_uris":{"android":"levelo://app?vid=c530ece8-2d57-4377-9574-ba160cfe1a24","ios":"levelo://app?vid=c530ece8-2d57-4377-9574-ba160cfe1a24"},"vehicle_type_id":"4","last_reported":1700586602,"current_range_meters":26800,"station_id":"ce4bhhh2rcd13ifvqfl0","pricing_plan_id":"free"},{"bike_id":"be19b6bc-3f21-490e-92b7-2ed7d476706b","system_id":"levelo_inurba_marseille","lat":43.265628,"lon":5.372877,"is_reserved":false,"is_disabled":false,"rental_uris":{"android":"levelo://app?vid=be19b6bc-3f21-490e-92b7-2ed7d476706b","ios":"levelo://app?vid=be19b6bc-3f21-490e-92b7-2ed7d476706b"},"vehicle_type_id":"4","last_reported":1700586602,"current_range_meters":23200,"station_id":"ce4bhg12rcd13ifvqf70","pricing_plan_id":"free"},{"bike_id":"72efa8db-72a9-4bdb-8dc5-ee95b30fe844","system_id":"levelo_inurba_marseille","lat":43.26681,"lon":5.382694,"is_reserved":false,"is_disabled":false,"rental_uris":{"android":"levelo://app?vid=72efa8db-72a9-4bdb-8dc5-ee95b30fe844","ios":"levelo://app?vid=72efa8db-72a9-4bdb-8dc5-ee95b30fe844"},"vehicle_type_id":"4","last_reported":1700586602,"current_range_meters":0,"station_id":"ce4bhg92rcd13ifvqf90","pricing_plan_id":"free"},{"bike_id":"4a0f903d-1b67-4bca-b230-f90ed6e6066a","system_id":"levelo_inurba_marseille","lat":43.265575,"lon":5.372871,"is_reserved":false,"is_disabled":false,"rental_uris":{"android":"levelo://app?vid=4a0f903d-1b67-4bca-b230-f90ed6e6066a","ios":"levelo://app?vid=4a0f903d-1b67-4bca-b230-f90ed6e6066a"},"vehicle_type_id":"4","last_reported":1700586602,"current_range_meters":19200,"station_id":"ce4bhg12rcd13ifvqf70","pricing_plan_id":"free"},{"bike_id":"a6f1d0fe-57ac-4cb4-b1f3-6d4a6a8ed399","system_id":"levelo_inurba_marseille","lat":43.26556,"lon":5.37289,"is_reserved":false,"is_disabled":false,"rental_uris":{"android":"levelo://app?vid=a6f1d0fe-57ac-4cb4-b1f3-6d4a6a8ed399","ios":"levelo://app?vid=a6f1d0fe-57ac-4cb4-b1f3-6d4a6a8ed399"},"vehicle_type_id":"4","last_reported":1700586602,"current_range_meters":27200,"station_id":"ce4bhg12rcd13ifvqf70","pricing_plan_id":"free"},{"bike_id":"26f58e22-b859-4a1b-9d04-c1d78467a686","system_id":"levelo_inurba_marseille","lat":43.265714,"lon":5.372891,"is_reserved":false,"is_disabled":false,"rental_uris":{"android":"levelo://app?vid=26f58e22-b859-4a1b-9d04-c1d78467a686","ios":"levelo://app?vid=26f58e22-b859-4a1b-9d04-c1d78467a686"},"vehicle_type_id":"4","last_reported":1700586602,"current_range_meters":0,"station_id":"ce4bhg12rcd13ifvqf70","pricing_plan_id":"free"},{"bike_id":"148eff6f-eafd-4f00-888a-9a7e04faedb9","system_id":"levelo_inurba_marseille","lat":43.26554,"lon":5.37289,"is_reserved":false,"is_disabled":false,"rental_uris":{"android":"levelo://app?vid=148eff6f-eafd-4f00-888a-9a7e04faedb9","ios":"levelo://app?vid=148eff6f-eafd-4f00-888a-9a7e04faedb9"},"vehicle_type_id":"4","last_reported":1700586602,"current_range_meters":31200,"station_id":"ce4bhg12rcd13ifvqf70","pricing_plan_id":"free"},{"bike_id":"28e8ce00-6b21-4e06-9930-c7c4408cc650","system_id":"levelo_inurba_marseille","lat":43.326174,"lon":5.430584,"is_reserved":false,"is_disabled":false,"rental_uris":{"android":"levelo://app?vid=28e8ce00-6b21-4e06-9930-c7c4408cc650","ios":"levelo://app?vid=28e8ce00-6b21-4e06-9930-c7c4408cc650"},"vehicle_type_id":"4","last_reported":1700586602,"current_range_meters":10000,"station_id":"","pricing_plan_id":"free"},{"bike_id":"ed4113e1-2ba1-4f8b-aa36-c33ae70ebe69","system_id":"levelo_inurba_marseille","lat":43.27997,"lon":5.41669,"is_reserved":false,"is_disabled":false,"rental_uris":{"android":"levelo://app?vid=ed4113e1-2ba1-4f8b-aa36-c33ae70ebe69","ios":"levelo://app?vid=ed4113e1-2ba1-4f8b-aa36-c33ae70ebe69"},"vehicle_type_id":"4","last_reported":1700586602,"current_range_meters":8400,"station_id":"ce4bho12rcd13ifvqh1g","pricing_plan_id":"free"},{"bike_id":"9c0f3d24-d589-4d20-9127-3f98cde30437","system_id":"levelo_inurba_marseille","lat":43.27997,"lon":5.41672,"is_reserved":false,"is_disabled":false,"rental_uris":{"android":"levelo://app?vid=9c0f3d24-d589-4d20-9127-3f98cde30437","ios":"levelo://app?vid=9c0f3d24-d589-4d20-9127-3f98cde30437"},"vehicle_type_id":"4","last_reported":1700586602,"current_range_meters":6000,"station_id":"ce4bho12rcd13ifvqh1g","pricing_plan_id":"free"},{"bike_id":"ef0b73c2-45fc-41ea-8166-d22ae8e4a3a8","system_id":"levelo_inurba_marseille","lat":43.267966,"lon":5.393976,"is_reserved":false,"is_disabled":false,"rental_uris":{"android":"levelo://app?vid=ef0b73c2-45fc-41ea-8166-d22ae8e4a3a8","ios":"levelo://app?vid=ef0b73c2-45fc-41ea-8166-d22ae8e4a3a8"},"vehicle_type_id":"4","last_reported":1700586602,"current_range_meters":11200,"station_id":"ce4bhh12rcd13ifvqfg0","pricing_plan_id":"free"},{"bike_id":"adbb4cc7-c682-47c5-bbf0-648ae0ba2327","system_id":"levelo_inurba_marseille","lat":43.270997,"lon":5.403053,"is_reserved":false,"is_disabled":false,"rental_uris":{"android":"levelo://app?vid=adbb4cc7-c682-47c5-bbf0-648ae0ba2327","ios":"levelo://app?vid=adbb4cc7-c682-47c5-bbf0-648ae0ba2327"},"vehicle_type_id":"4","last_reported":1700586602,"current_range_meters":26000,"station_id":"","pricing_plan_id":"free"},{"bike_id":"b917c19a-863c-40d8-aae1-dce47c94bffa","system_id":"levelo_inurba_marseille","lat":43.270137,"lon":5.401467,"is_reserved":false,"is_disabled":false,"rental_uris":{"android":"levelo://app?vid=b917c19a-863c-40d8-aae1-dce47c94bffa","ios":"levelo://app?vid=b917c19a-863c-40d8-aae1-dce47c94bffa"},"vehicle_type_id":"4","last_reported":1700586602,"current_range_meters":20400,"station_id":"","pricing_plan_id":"free"},{"bike_id":"52c40919-08ef-450d-8358-31df6bc23d2e","system_id":"levelo_inurba_marseille","lat":43.26729,"lon":5.3942,"is_reserved":false,"is_disabled":false,"rental_uris":{"android":"levelo://app?vid=52c40919-08ef-450d-8358-31df6bc23d2e","ios":"levelo://app?vid=52c40919-08ef-450d-8358-31df6bc23d2e"},"vehicle_type_id":"4","last_reported":1700586602,"current_range_meters":6400,"station_id":"","pricing_plan_id":"free"},{"bike_id":"04bcb6df-bb21-45d0-b2a0-827a6c5e8f55","system_id":"levelo_inurba_marseille","lat":43.265569,"lon":5.390047,"is_reserved":false,"is_disabled":false,"rental_uris":{"android":"levelo://app?vid=04bcb6df-bb21-45d0-b2a0-827a6c5e8f55","ios":"levelo://app?vid=04bcb6df-bb21-45d0-b2a0-827a6c5e8f55"},"vehicle_type_id":"4","last_reported":1700586602,"current_range_meters":23200,"station_id":"ce4bhe12rcd13ifvqf30","pricing_plan_id":"free"},{"bike_id":"f7245056-9c34-401b-b16c-aa2d24e3930e","system_id":"levelo_inurba_marseille","lat":43.26572,"lon":5.39033,"is_reserved":false,"is_disabled":false,"rental_uris":{"android":"levelo://app?vid=f7245056-9c34-401b-b16c-aa2d24e3930e","ios":"levelo://app?vid=f7245056-9c34-401b-b16c-aa2d24e3930e"},"vehicle_type_id":"4","last_reported":1700586602,"current_range_meters":2400,"station_id":"","pricing_plan_id":"free"},{"bike_id":"49854118-5235-44c4-a940-6bfdc7c147ce","system_id":"levelo_inurba_marseille","lat":43.26567,"lon":5.39015,"is_reserved":false,"is_disabled":false,"rental_uris":{"android":"levelo://app?vid=49854118-5235-44c4-a940-6bfdc7c147ce","ios":"levelo://app?vid=49854118-5235-44c4-a940-6bfdc7c147ce"},"vehicle_type_id":"4","last_reported":1700586602,"current_range_meters":9600,"station_id":"ce4bhe12rcd13ifvqf30","pricing_plan_id":"free"},{"bike_id":"a234b370-dfb7-4716-b72a-38c6d1a8c9cf","system_id":"levelo_inurba_marseille","lat":43.26939,"lon":5.402533,"is_reserved":false,"is_disabled":false,"rental_uris":{"android":"levelo://app?vid=a234b370-dfb7-4716-b72a-38c6d1a8c9cf","ios":"levelo://app?vid=a234b370-dfb7-4716-b72a-38c6d1a8c9cf"},"vehicle_type_id":"4","last_reported":1700586602,"current_range_meters":20800,"station_id":"cjm6bp8fraef2m0cb0m0","pricing_plan_id":"free"},{"bike_id":"38e7165f-7a90-4002-885d-9b318be85703","system_id":"levelo_inurba_marseille","lat":43.261782,"lon":5.374515,"is_reserved":false,"is_disabled":false,"rental_uris":{"android":"levelo://app?vid=38e7165f-7a90-4002-885d-9b318be85703","ios":"levelo://app?vid=38e7165f-7a90-4002-885d-9b318be85703"},"vehicle_type_id":"4","last_reported":1700586602,"current_range_meters":26000,"station_id":"ce4bhgp2rcd13ifvqfc0","pricing_plan_id":"free"},{"bike_id":"abe0b61a-45b1-46bb-bdec-1b72bb7265cd","system_id":"levelo_inurba_marseille","lat":43.267959,"lon":5.402685,"is_reserved":false,"is_disabled":false,"rental_uris":{"android":"levelo://app?vid=abe0b61a-45b1-46bb-bdec-1b72bb7265cd","ios":"levelo://app?vid=abe0b61a-45b1-46bb-bdec-1b72bb7265cd"},"vehicle_type_id":"4","last_reported":1700586602,"current_range_meters":1600,"station_id":"ce501612rcd8frsf0b60","pricing_plan_id":"free"},{"bike_id":"cb16d7ee-4d8d-44c4-bc7a-142b1234ab63","system_id":"levelo_inurba_marseille","lat":43.31725,"lon":5.43786,"is_reserved":false,"is_disabled":false,"rental_uris":{"android":"levelo://app?vid=cb16d7ee-4d8d-44c4-bc7a-142b1234ab63","ios":"levelo://app?vid=cb16d7ee-4d8d-44c4-bc7a-142b1234ab63"},"vehicle_type_id":"4","last_reported":1700586602,"current_range_meters":6400,"station_id":"","pricing_plan_id":"free"},{"bike_id":"49a31422-5d81-4e67-953b-55705c98f239","system_id":"levelo_inurba_marseille","lat":43.279833,"lon":5.423136,"is_reserved":false,"is_disabled":false,"rental_uris":{"android":"levelo://app?vid=49a31422-5d81-4e67-953b-55705c98f239","ios":"levelo://app?vid=49a31422-5d81-4e67-953b-55705c98f239"},"vehicle_type_id":"4","last_reported":1700586602,"current_range_meters":28400,"station_id":"","pricing_plan_id":"free"},{"bike_id":"08fe1057-f796-44fc-8436-36a631179caa","system_id":"levelo_inurba_marseille","lat":43.298768,"lon":5.43643,"is_reserved":false,"is_disabled":false,"rental_uris":{"android":"levelo://app?vid=08fe1057-f796-44fc-8436-36a631179caa","ios":"levelo://app?vid=08fe1057-f796-44fc-8436-36a631179caa"},"vehicle_type_id":"4","last_reported":1700586602,"current_range_meters":31600,"station_id":"ce4bhpp2rcd13ifvqhfg","pricing_plan_id":"free"},{"bike_id":"5706219f-7f73-43a7-b57d-fe235baaea7c","system_id":"levelo_inurba_marseille","lat":43.298768,"lon":5.43643,"is_reserved":false,"is_disabled":false,"rental_uris":{"android":"levelo://app?vid=5706219f-7f73-43a7-b57d-fe235baaea7c","ios":"levelo://app?vid=5706219f-7f73-43a7-b57d-fe235baaea7c"},"vehicle_type_id":"4","last_reported":1700586602,"current_range_meters":400,"station_id":"ce4bhpp2rcd13ifvqhfg","pricing_plan_id":"free"},{"bike_id":"301a69a6-6c81-400d-a329-74c05904f5b5","system_id":"levelo_inurba_marseille","lat":43.298768,"lon":5.43643,"is_reserved":false,"is_disabled":false,"rental_uris":{"android":"levelo://app?vid=301a69a6-6c81-400d-a329-74c05904f5b5","ios":"levelo://app?vid=301a69a6-6c81-400d-a329-74c05904f5b5"},"vehicle_type_id":"4","last_reported":1700586602,"current_range_meters":20400,"station_id":"ce4bhpp2rcd13ifvqhfg","pricing_plan_id":"free"},{"bike_id":"82601332-b84c-40dc-b91b-8eb858de0a32","system_id":"levelo_inurba_marseille","lat":43.260225,"lon":5.375455,"is_reserved":false,"is_disabled":false,"rental_uris":{"android":"levelo://app?vid=82601332-b84c-40dc-b91b-8eb858de0a32","ios":"levelo://app?vid=82601332-b84c-40dc-b91b-8eb858de0a32"},"vehicle_type_id":"4","last_reported":1700586602,"current_range_meters":31200,"station_id":"ce4bhgh2rcd13ifvqfa0","pricing_plan_id":"free"},{"bike_id":"568b950f-0e3b-4b64-9112-8f5fbd71096f","system_id":"levelo_inurba_marseille","lat":43.28157,"lon":5.42641,"is_reserved":false,"is_disabled":false,"rental_uris":{"android":"levelo://app?vid=568b950f-0e3b-4b64-9112-8f5fbd71096f","ios":"levelo://app?vid=568b950f-0e3b-4b64-9112-8f5fbd71096f"},"vehicle_type_id":"4","last_reported":1700586602,"current_range_meters":30800,"station_id":"ce4bhnh2rcd13ifvqgug","pricing_plan_id":"free"},{"bike_id":"f19c8d77-3f76-4a7d-a9c2-f1db721040bc","system_id":"levelo_inurba_marseille","lat":43.281548,"lon":5.42643,"is_reserved":false,"is_disabled":false,"rental_uris":{"android":"levelo://app?vid=f19c8d77-3f76-4a7d-a9c2-f1db721040bc","ios":"levelo://app?vid=f19c8d77-3f76-4a7d-a9c2-f1db721040bc"},"vehicle_type_id":"4","last_reported":1700586602,"current_range_meters":24000,"station_id":"ce4bhnh2rcd13ifvqgug","pricing_plan_id":"free"},{"bike_id":"54ad4cfc-fbfb-4dfd-8037-422ee2a776f9","system_id":"levelo_inurba_marseille","lat":43.281548,"lon":5.42643,"is_reserved":false,"is_disabled":false,"rental_uris":{"android":"levelo://app?vid=54ad4cfc-fbfb-4dfd-8037-422ee2a776f9","ios":"levelo://app?vid=54ad4cfc-fbfb-4dfd-8037-422ee2a776f9"},"vehicle_type_id":"4","last_reported":1700586602,"current_range_meters":21200,"station_id":"ce4bhnh2rcd13ifvqgug","pricing_plan_id":"free"},{"bike_id":"6749ab58-0b98-424b-8251-11fb09896190","system_id":"levelo_inurba_marseille","lat":43.28148,"lon":5.4265,"is_reserved":false,"is_disabled":false,"rental_uris":{"android":"levelo://app?vid=6749ab58-0b98-424b-8251-11fb09896190","ios":"levelo://app?vid=6749ab58-0b98-424b-8251-11fb09896190"},"vehicle_type_id":"4","last_reported":1700586602,"current_range_meters":23600,"station_id":"ce4bhnh2rcd13ifvqgug","pricing_plan_id":"free"},{"bike_id":"6556250c-cbc9-480b-9850-f58687691026","system_id":"levelo_inurba_marseille","lat":43.2607,"lon":5.393983,"is_reserved":false,"is_disabled":false,"rental_uris":{"android":"levelo://app?vid=6556250c-cbc9-480b-9850-f58687691026","ios":"levelo://app?vid=6556250c-cbc9-480b-9850-f58687691026"},"vehicle_type_id":"4","last_reported":1700586602,"current_range_meters":16400,"station_id":"ce4bhh92rcd13ifvqfj0","pricing_plan_id":"free"},{"bike_id":"6b188708-9907-4cc6-a7fa-bcdecbd5a74b","system_id":"levelo_inurba_marseille","lat":43.27495,"lon":5.42454,"is_reserved":false,"is_disabled":false,"rental_uris":{"android":"levelo://app?vid=6b188708-9907-4cc6-a7fa-bcdecbd5a74b","ios":"levelo://app?vid=6b188708-9907-4cc6-a7fa-bcdecbd5a74b"},"vehicle_type_id":"4","last_reported":1700586602,"current_range_meters":4800,"station_id":"ce4bhn92rcd13ifvqgrg","pricing_plan_id":"free"},{"bike_id":"95101c20-e4ab-45b6-ad05-40b3d1e87165","system_id":"levelo_inurba_marseille","lat":43.26085,"lon":5.39767,"is_reserved":false,"is_disabled":false,"rental_uris":{"android":"levelo://app?vid=95101c20-e4ab-45b6-ad05-40b3d1e87165","ios":"levelo://app?vid=95101c20-e4ab-45b6-ad05-40b3d1e87165"},"vehicle_type_id":"4","last_reported":1700586602,"current_range_meters":0,"station_id":"ce4bhi12rcd13ifvqfq0","pricing_plan_id":"free"},{"bike_id":"9fb33827-24d6-460c-83e1-62ba6447884a","system_id":"levelo_inurba_marseille","lat":43.25832,"lon":5.39425,"is_reserved":false,"is_disabled":false,"rental_uris":{"android":"levelo://app?vid=9fb33827-24d6-460c-83e1-62ba6447884a","ios":"levelo://app?vid=9fb33827-24d6-460c-83e1-62ba6447884a"},"vehicle_type_id":"4","last_reported":1700586602,"current_range_meters":24800,"station_id":"ce4bhip2rcd13ifvqft0","pricing_plan_id":"free"},{"bike_id":"3dbfc15d-513b-45f8-a3ba-25b39735be70","system_id":"levelo_inurba_marseille","lat":43.25585,"lon":5.38233,"is_reserved":false,"is_disabled":false,"rental_uris":{"android":"levelo://app?vid=3dbfc15d-513b-45f8-a3ba-25b39735be70","ios":"levelo://app?vid=3dbfc15d-513b-45f8-a3ba-25b39735be70"},"vehicle_type_id":"4","last_reported":1700586602,"current_range_meters":13600,"station_id":"ce4bhih2rcd13ifvqfs0","pricing_plan_id":"free"},{"bike_id":"89f0e159-3d65-4406-8c5d-f4f94a25a5ad","system_id":"levelo_inurba_marseille","lat":43.255824,"lon":5.382252,"is_reserved":false,"is_disabled":false,"rental_uris":{"android":"levelo://app?vid=89f0e159-3d65-4406-8c5d-f4f94a25a5ad","ios":"levelo://app?vid=89f0e159-3d65-4406-8c5d-f4f94a25a5ad"},"vehicle_type_id":"4","last_reported":1700586602,"current_range_meters":2800,"station_id":"ce4bhih2rcd13ifvqfs0","pricing_plan_id":"free"},{"bike_id":"72fee5f0-f3dd-4ab9-b919-6c8b76837eb4","system_id":"levelo_inurba_marseille","lat":43.25581,"lon":5.3823,"is_reserved":false,"is_disabled":false,"rental_uris":{"android":"levelo://app?vid=72fee5f0-f3dd-4ab9-b919-6c8b76837eb4","ios":"levelo://app?vid=72fee5f0-f3dd-4ab9-b919-6c8b76837eb4"},"vehicle_type_id":"4","last_reported":1700586602,"current_range_meters":24400,"station_id":"ce4bhih2rcd13ifvqfs0","pricing_plan_id":"free"},{"bike_id":"9648f353-bf58-4aaf-859a-6e0479e4429f","system_id":"levelo_inurba_marseille","lat":43.2558,"lon":5.38236,"is_reserved":false,"is_disabled":false,"rental_uris":{"android":"levelo://app?vid=9648f353-bf58-4aaf-859a-6e0479e4429f","ios":"levelo://app?vid=9648f353-bf58-4aaf-859a-6e0479e4429f"},"vehicle_type_id":"4","last_reported":1700586602,"current_range_meters":8000,"station_id":"ce4bhih2rcd13ifvqfs0","pricing_plan_id":"free"},{"bike_id":"1b4dd9ba-0d6d-4fb0-8a0d-76bcc3c6a51a","system_id":"levelo_inurba_marseille","lat":43.255768,"lon":5.382267,"is_reserved":false,"is_disabled":false,"rental_uris":{"android":"levelo://app?vid=1b4dd9ba-0d6d-4fb0-8a0d-76bcc3c6a51a","ios":"levelo://app?vid=1b4dd9ba-0d6d-4fb0-8a0d-76bcc3c6a51a"},"vehicle_type_id":"4","last_reported":1700586602,"current_range_meters":22800,"station_id":"ce4bhih2rcd13ifvqfs0","pricing_plan_id":"free"},{"bike_id":"6eab341d-91d4-4d61-9ba7-852e641561a0","system_id":"levelo_inurba_marseille","lat":43.258224,"lon":5.394369,"is_reserved":false,"is_disabled":false,"rental_uris":{"android":"levelo://app?vid=6eab341d-91d4-4d61-9ba7-852e641561a0","ios":"levelo://app?vid=6eab341d-91d4-4d61-9ba7-852e641561a0"},"vehicle_type_id":"4","last_reported":1700586602,"current_range_meters":18400,"station_id":"ce4bhip2rcd13ifvqft0","pricing_plan_id":"free"},{"bike_id":"9add47bf-b33b-48ff-a72c-a91e78597f05","system_id":"levelo_inurba_marseille","lat":43.25823,"lon":5.39443,"is_reserved":false,"is_disabled":false,"rental_uris":{"android":"levelo://app?vid=9add47bf-b33b-48ff-a72c-a91e78597f05","ios":"levelo://app?vid=9add47bf-b33b-48ff-a72c-a91e78597f05"},"vehicle_type_id":"4","last_reported":1700586602,"current_range_meters":23200,"station_id":"","pricing_plan_id":"free"},{"bike_id":"04bb3993-7df0-4611-b671-63861d1ec3cc","system_id":"levelo_inurba_marseille","lat":43.2557,"lon":5.38231,"is_reserved":false,"is_disabled":false,"rental_uris":{"android":"levelo://app?vid=04bb3993-7df0-4611-b671-63861d1ec3cc","ios":"levelo://app?vid=04bb3993-7df0-4611-b671-63861d1ec3cc"},"vehicle_type_id":"4","last_reported":1700586602,"current_range_meters":27200,"station_id":"ce4bhih2rcd13ifvqfs0","pricing_plan_id":"free"},{"bike_id":"c839adb2-58ae-488b-9b12-23e11904a867","system_id":"levelo_inurba_marseille","lat":43.27074,"lon":5.42285,"is_reserved":false,"is_disabled":false,"rental_uris":{"android":"levelo://app?vid=c839adb2-58ae-488b-9b12-23e11904a867","ios":"levelo://app?vid=c839adb2-58ae-488b-9b12-23e11904a867"},"vehicle_type_id":"4","last_reported":1700586602,"current_range_meters":25200,"station_id":"ce4bhk92rcd13ifvqgb0","pricing_plan_id":"free"},{"bike_id":"0b1864fd-bb54-4e71-a69a-988e0a4658d9","system_id":"levelo_inurba_marseille","lat":43.2707,"lon":5.42284,"is_reserved":false,"is_disabled":false,"rental_uris":{"android":"levelo://app?vid=0b1864fd-bb54-4e71-a69a-988e0a4658d9","ios":"levelo://app?vid=0b1864fd-bb54-4e71-a69a-988e0a4658d9"},"vehicle_type_id":"4","last_reported":1700586602,"current_range_meters":400,"station_id":"ce4bhk92rcd13ifvqgb0","pricing_plan_id":"free"},{"bike_id":"cfdc423c-18ac-4b18-badc-13e244b42e4a","system_id":"levelo_inurba_marseille","lat":43.26967,"lon":5.42151,"is_reserved":false,"is_disabled":false,"rental_uris":{"android":"levelo://app?vid=cfdc423c-18ac-4b18-badc-13e244b42e4a","ios":"levelo://app?vid=cfdc423c-18ac-4b18-badc-13e244b42e4a"},"vehicle_type_id":"4","last_reported":1700586602,"current_range_meters":15200,"station_id":"","pricing_plan_id":"free"},{"bike_id":"25c25d07-d4f5-4875-b55e-bea5503bfbd3","system_id":"levelo_inurba_marseille","lat":43.25864,"lon":5.39899,"is_reserved":false,"is_disabled":false,"rental_uris":{"android":"levelo://app?vid=25c25d07-d4f5-4875-b55e-bea5503bfbd3","ios":"levelo://app?vid=25c25d07-d4f5-4875-b55e-bea5503bfbd3"},"vehicle_type_id":"4","last_reported":1700586602,"current_range_meters":18400,"station_id":"ce4bhl92rcd13ifvqghg","pricing_plan_id":"free"},{"bike_id":"e92ce28d-06d0-4300-b25d-ff605927e7c7","system_id":"levelo_inurba_marseille","lat":43.25861,"lon":5.39906,"is_reserved":false,"is_disabled":false,"rental_uris":{"android":"levelo://app?vid=e92ce28d-06d0-4300-b25d-ff605927e7c7","ios":"levelo://app?vid=e92ce28d-06d0-4300-b25d-ff605927e7c7"},"vehicle_type_id":"4","last_reported":1700586602,"current_range_meters":21200,"station_id":"ce4bhl92rcd13ifvqghg","pricing_plan_id":"free"},{"bike_id":"eedf2e51-beb6-448c-9be8-f02e29717301","system_id":"levelo_inurba_marseille","lat":43.257079,"lon":5.411051,"is_reserved":false,"is_disabled":false,"rental_uris":{"android":"levelo://app?vid=eedf2e51-beb6-448c-9be8-f02e29717301","ios":"levelo://app?vid=eedf2e51-beb6-448c-9be8-f02e29717301"},"vehicle_type_id":"4","last_reported":1700586602,"current_range_meters":31600,"station_id":"ce4bhkp2rcd13ifvqgd0","pricing_plan_id":"free"},{"bike_id":"e0f0120a-ca66-4df9-91cd-0c7193cc61a0","system_id":"levelo_inurba_marseille","lat":43.257079,"lon":5.411051,"is_reserved":false,"is_disabled":false,"rental_uris":{"android":"levelo://app?vid=e0f0120a-ca66-4df9-91cd-0c7193cc61a0","ios":"levelo://app?vid=e0f0120a-ca66-4df9-91cd-0c7193cc61a0"},"vehicle_type_id":"4","last_reported":1700586602,"current_range_meters":16000,"station_id":"ce4bhkp2rcd13ifvqgd0","pricing_plan_id":"free"},{"bike_id":"9f401b83-68f2-4a9e-a3a4-d1b1d9afc71d","system_id":"levelo_inurba_marseille","lat":43.250009,"lon":5.389195,"is_reserved":false,"is_disabled":false,"rental_uris":{"android":"levelo://app?vid=9f401b83-68f2-4a9e-a3a4-d1b1d9afc71d","ios":"levelo://app?vid=9f401b83-68f2-4a9e-a3a4-d1b1d9afc71d"},"vehicle_type_id":"4","last_reported":1700586602,"current_range_meters":22400,"station_id":"ce4bhgp2rcd13ifvqfd0","pricing_plan_id":"free"},{"bike_id":"518fe1c4-79ce-4b46-88eb-6d8b0c4ba5e7","system_id":"levelo_inurba_marseille","lat":43.2479,"lon":5.374457,"is_reserved":false,"is_disabled":false,"rental_uris":{"android":"levelo://app?vid=518fe1c4-79ce-4b46-88eb-6d8b0c4ba5e7","ios":"levelo://app?vid=518fe1c4-79ce-4b46-88eb-6d8b0c4ba5e7"},"vehicle_type_id":"4","last_reported":1700586602,"current_range_meters":11600,"station_id":"ce4bhgh2rcd13ifvqfb0","pricing_plan_id":"free"},{"bike_id":"b5573b2a-7bb0-4e99-88d3-1c4c77c9e714","system_id":"levelo_inurba_marseille","lat":43.2479,"lon":5.374457,"is_reserved":false,"is_disabled":false,"rental_uris":{"android":"levelo://app?vid=b5573b2a-7bb0-4e99-88d3-1c4c77c9e714","ios":"levelo://app?vid=b5573b2a-7bb0-4e99-88d3-1c4c77c9e714"},"vehicle_type_id":"4","last_reported":1700586602,"current_range_meters":13200,"station_id":"ce4bhgh2rcd13ifvqfb0","pricing_plan_id":"free"},{"bike_id":"faa454c0-0e66-4f7a-8387-5165bdee6d7c","system_id":"levelo_inurba_marseille","lat":43.250966,"lon":5.395186,"is_reserved":false,"is_disabled":false,"rental_uris":{"android":"levelo://app?vid=faa454c0-0e66-4f7a-8387-5165bdee6d7c","ios":"levelo://app?vid=faa454c0-0e66-4f7a-8387-5165bdee6d7c"},"vehicle_type_id":"4","last_reported":1700586602,"current_range_meters":16000,"station_id":"ce4bhm12rcd13ifvqgkg","pricing_plan_id":"free"},{"bike_id":"8bd8326a-b058-4a44-afb8-c8c5c47517ea","system_id":"levelo_inurba_marseille","lat":43.250966,"lon":5.395186,"is_reserved":false,"is_disabled":false,"rental_uris":{"android":"levelo://app?vid=8bd8326a-b058-4a44-afb8-c8c5c47517ea","ios":"levelo://app?vid=8bd8326a-b058-4a44-afb8-c8c5c47517ea"},"vehicle_type_id":"4","last_reported":1700586602,"current_range_meters":4000,"station_id":"ce4bhm12rcd13ifvqgkg","pricing_plan_id":"free"},{"bike_id":"780e13dd-e110-4d9e-9d8d-abe4c52027b1","system_id":"levelo_inurba_marseille","lat":43.250966,"lon":5.395186,"is_reserved":false,"is_disabled":false,"rental_uris":{"android":"levelo://app?vid=780e13dd-e110-4d9e-9d8d-abe4c52027b1","ios":"levelo://app?vid=780e13dd-e110-4d9e-9d8d-abe4c52027b1"},"vehicle_type_id":"4","last_reported":1700586602,"current_range_meters":28400,"station_id":"ce4bhm12rcd13ifvqgkg","pricing_plan_id":"free"},{"bike_id":"6f917726-52f9-4484-b806-8baa12ad1eb1","system_id":"levelo_inurba_marseille","lat":43.25102,"lon":5.403214,"is_reserved":false,"is_disabled":false,"rental_uris":{"android":"levelo://app?vid=6f917726-52f9-4484-b806-8baa12ad1eb1","ios":"levelo://app?vid=6f917726-52f9-4484-b806-8baa12ad1eb1"},"vehicle_type_id":"4","last_reported":1700586602,"current_range_meters":3200,"station_id":"ce4bhlh2rcd13ifvqgig","pricing_plan_id":"free"},{"bike_id":"51e20386-88f5-4e8e-bc3d-6cdb83da4fce","system_id":"levelo_inurba_marseille","lat":43.25102,"lon":5.403214,"is_reserved":false,"is_disabled":false,"rental_uris":{"android":"levelo://app?vid=51e20386-88f5-4e8e-bc3d-6cdb83da4fce","ios":"levelo://app?vid=51e20386-88f5-4e8e-bc3d-6cdb83da4fce"},"vehicle_type_id":"4","last_reported":1700586602,"current_range_meters":30800,"station_id":"ce4bhlh2rcd13ifvqgig","pricing_plan_id":"free"},{"bike_id":"deab691a-fc29-4bea-816d-eb7071cd422d","system_id":"levelo_inurba_marseille","lat":43.25102,"lon":5.403214,"is_reserved":false,"is_disabled":false,"rental_uris":{"android":"levelo://app?vid=deab691a-fc29-4bea-816d-eb7071cd422d","ios":"levelo://app?vid=deab691a-fc29-4bea-816d-eb7071cd422d"},"vehicle_type_id":"4","last_reported":1700586602,"current_range_meters":29200,"station_id":"ce4bhlh2rcd13ifvqgig","pricing_plan_id":"free"},{"bike_id":"d126fb22-c103-432b-9f3a-e8080e7da2b1","system_id":"levelo_inurba_marseille","lat":43.25102,"lon":5.403214,"is_reserved":false,"is_disabled":false,"rental_uris":{"android":"levelo://app?vid=d126fb22-c103-432b-9f3a-e8080e7da2b1","ios":"levelo://app?vid=d126fb22-c103-432b-9f3a-e8080e7da2b1"},"vehicle_type_id":"4","last_reported":1700586602,"current_range_meters":9600,"station_id":"ce4bhlh2rcd13ifvqgig","pricing_plan_id":"free"},{"bike_id":"5234e817-f5c5-488e-ab5b-2a23bc56663e","system_id":"levelo_inurba_marseille","lat":43.246535,"lon":5.388975,"is_reserved":false,"is_disabled":false,"rental_uris":{"android":"levelo://app?vid=5234e817-f5c5-488e-ab5b-2a23bc56663e","ios":"levelo://app?vid=5234e817-f5c5-488e-ab5b-2a23bc56663e"},"vehicle_type_id":"4","last_reported":1700586602,"current_range_meters":2400,"station_id":"ce4bhg12rcd13ifvqf60","pricing_plan_id":"free"},{"bike_id":"b6beb605-8c99-45c2-85d0-5881d00cf605","system_id":"levelo_inurba_marseille","lat":43.24872,"lon":5.40159,"is_reserved":false,"is_disabled":false,"rental_uris":{"android":"levelo://app?vid=b6beb605-8c99-45c2-85d0-5881d00cf605","ios":"levelo://app?vid=b6beb605-8c99-45c2-85d0-5881d00cf605"},"vehicle_type_id":"4","last_reported":1700586602,"current_range_meters":19200,"station_id":"","pricing_plan_id":"free"},{"bike_id":"d5892773-41a8-41a7-8d0c-e9c88db72c6b","system_id":"levelo_inurba_marseille","lat":43.24391,"lon":5.37057,"is_reserved":false,"is_disabled":false,"rental_uris":{"android":"levelo://app?vid=d5892773-41a8-41a7-8d0c-e9c88db72c6b","ios":"levelo://app?vid=d5892773-41a8-41a7-8d0c-e9c88db72c6b"},"vehicle_type_id":"4","last_reported":1700586602,"current_range_meters":0,"station_id":"ce4bhhh2rcd13ifvqfk0","pricing_plan_id":"free"},{"bike_id":"3717cf83-a32c-4528-96a5-f3f08a8f4f86","system_id":"levelo_inurba_marseille","lat":43.24619,"lon":5.39876,"is_reserved":false,"is_disabled":false,"rental_uris":{"android":"levelo://app?vid=3717cf83-a32c-4528-96a5-f3f08a8f4f86","ios":"levelo://app?vid=3717cf83-a32c-4528-96a5-f3f08a8f4f86"},"vehicle_type_id":"4","last_reported":1700586602,"current_range_meters":16800,"station_id":"","pricing_plan_id":"free"},{"bike_id":"a6d25485-a731-48a6-8879-c10f2bb4cbde","system_id":"levelo_inurba_marseille","lat":43.239588,"lon":5.366238,"is_reserved":false,"is_disabled":false,"rental_uris":{"android":"levelo://app?vid=a6d25485-a731-48a6-8879-c10f2bb4cbde","ios":"levelo://app?vid=a6d25485-a731-48a6-8879-c10f2bb4cbde"},"vehicle_type_id":"4","last_reported":1700586602,"current_range_meters":24000,"station_id":"ce4bhi12rcd13ifvqfp0","pricing_plan_id":"free"},{"bike_id":"67047fa6-9e7c-43de-ba70-38ffab970c01","system_id":"levelo_inurba_marseille","lat":43.239588,"lon":5.366238,"is_reserved":false,"is_disabled":false,"rental_uris":{"android":"levelo://app?vid=67047fa6-9e7c-43de-ba70-38ffab970c01","ios":"levelo://app?vid=67047fa6-9e7c-43de-ba70-38ffab970c01"},"vehicle_type_id":"4","last_reported":1700586602,"current_range_meters":22000,"station_id":"ce4bhi12rcd13ifvqfp0","pricing_plan_id":"free"},{"bike_id":"a961e320-ed97-44c5-96e9-01aaef039e17","system_id":"levelo_inurba_marseille","lat":43.239588,"lon":5.366238,"is_reserved":false,"is_disabled":false,"rental_uris":{"android":"levelo://app?vid=a961e320-ed97-44c5-96e9-01aaef039e17","ios":"levelo://app?vid=a961e320-ed97-44c5-96e9-01aaef039e17"},"vehicle_type_id":"4","last_reported":1700586602,"current_range_meters":17200,"station_id":"ce4bhi12rcd13ifvqfp0","pricing_plan_id":"free"},{"bike_id":"b9323b9a-ff1b-4459-8e19-7fc6eb9ab4b6","system_id":"levelo_inurba_marseille","lat":43.23963,"lon":5.36637,"is_reserved":false,"is_disabled":false,"rental_uris":{"android":"levelo://app?vid=b9323b9a-ff1b-4459-8e19-7fc6eb9ab4b6","ios":"levelo://app?vid=b9323b9a-ff1b-4459-8e19-7fc6eb9ab4b6"},"vehicle_type_id":"4","last_reported":1700586602,"current_range_meters":1200,"station_id":"ce4bhi12rcd13ifvqfp0","pricing_plan_id":"free"},{"bike_id":"47ab54bf-35c1-483f-b851-dab26c70083b","system_id":"levelo_inurba_marseille","lat":43.239588,"lon":5.366238,"is_reserved":false,"is_disabled":false,"rental_uris":{"android":"levelo://app?vid=47ab54bf-35c1-483f-b851-dab26c70083b","ios":"levelo://app?vid=47ab54bf-35c1-483f-b851-dab26c70083b"},"vehicle_type_id":"4","last_reported":1700586602,"current_range_meters":16800,"station_id":"ce4bhi12rcd13ifvqfp0","pricing_plan_id":"free"},{"bike_id":"8b6b2b78-2bd7-4ca2-ac88-68026d58a423","system_id":"levelo_inurba_marseille","lat":43.239588,"lon":5.366238,"is_reserved":false,"is_disabled":false,"rental_uris":{"android":"levelo://app?vid=8b6b2b78-2bd7-4ca2-ac88-68026d58a423","ios":"levelo://app?vid=8b6b2b78-2bd7-4ca2-ac88-68026d58a423"},"vehicle_type_id":"4","last_reported":1700586602,"current_range_meters":15600,"station_id":"ce4bhi12rcd13ifvqfp0","pricing_plan_id":"free"},{"bike_id":"e1fde1d5-162e-4c55-b15c-2b8fd804da67","system_id":"levelo_inurba_marseille","lat":43.239588,"lon":5.366238,"is_reserved":false,"is_disabled":false,"rental_uris":{"android":"levelo://app?vid=e1fde1d5-162e-4c55-b15c-2b8fd804da67","ios":"levelo://app?vid=e1fde1d5-162e-4c55-b15c-2b8fd804da67"},"vehicle_type_id":"4","last_reported":1700586602,"current_range_meters":17600,"station_id":"ce4bhi12rcd13ifvqfp0","pricing_plan_id":"free"},{"bike_id":"797f60ef-b367-4091-973b-56caba25b5f4","system_id":"levelo_inurba_marseille","lat":43.241782,"lon":5.397261,"is_reserved":false,"is_disabled":false,"rental_uris":{"android":"levelo://app?vid=797f60ef-b367-4091-973b-56caba25b5f4","ios":"levelo://app?vid=797f60ef-b367-4091-973b-56caba25b5f4"},"vehicle_type_id":"4","last_reported":1700586602,"current_range_meters":31200,"station_id":"ce4bhn12rcd13ifvqgpg","pricing_plan_id":"free"},{"bike_id":"dcb1074f-ffa1-418a-aa45-445b6d3c88f1","system_id":"levelo_inurba_marseille","lat":43.233893,"lon":5.36018,"is_reserved":false,"is_disabled":false,"rental_uris":{"android":"levelo://app?vid=dcb1074f-ffa1-418a-aa45-445b6d3c88f1","ios":"levelo://app?vid=dcb1074f-ffa1-418a-aa45-445b6d3c88f1"},"vehicle_type_id":"4","last_reported":1700586602,"current_range_meters":2800,"station_id":"","pricing_plan_id":"free"},{"bike_id":"dec3e2ba-6fa9-4942-8e2a-be550a476eed","system_id":"levelo_inurba_marseille","lat":43.231958,"lon":5.355574,"is_reserved":false,"is_disabled":false,"rental_uris":{"android":"levelo://app?vid=dec3e2ba-6fa9-4942-8e2a-be550a476eed","ios":"levelo://app?vid=dec3e2ba-6fa9-4942-8e2a-be550a476eed"},"vehicle_type_id":"4","last_reported":1700586602,"current_range_meters":4000,"station_id":"ce4bhu92rcd13ifvqi70","pricing_plan_id":"free"},{"bike_id":"666773f0-242b-40fc-8a0f-b556535b5533","system_id":"levelo_inurba_marseille","lat":43.231923,"lon":5.355545,"is_reserved":false,"is_disabled":false,"rental_uris":{"android":"levelo://app?vid=666773f0-242b-40fc-8a0f-b556535b5533","ios":"levelo://app?vid=666773f0-242b-40fc-8a0f-b556535b5533"},"vehicle_type_id":"4","last_reported":1700586602,"current_range_meters":26800,"station_id":"ce4bhu92rcd13ifvqi70","pricing_plan_id":"free"},{"bike_id":"dfb374f7-78dc-49a3-b235-dad5c990422b","system_id":"levelo_inurba_marseille","lat":43.231794,"lon":5.400052,"is_reserved":false,"is_disabled":false,"rental_uris":{"android":"levelo://app?vid=dfb374f7-78dc-49a3-b235-dad5c990422b","ios":"levelo://app?vid=dfb374f7-78dc-49a3-b235-dad5c990422b"},"vehicle_type_id":"4","last_reported":1700586602,"current_range_meters":28000,"station_id":"ce4bhn12rcd13ifvqgqg","pricing_plan_id":"free"},{"bike_id":"5775632d-8bbe-49be-baab-6bde700a6a21","system_id":"levelo_inurba_marseille","lat":43.231794,"lon":5.400052,"is_reserved":false,"is_disabled":false,"rental_uris":{"android":"levelo://app?vid=5775632d-8bbe-49be-baab-6bde700a6a21","ios":"levelo://app?vid=5775632d-8bbe-49be-baab-6bde700a6a21"},"vehicle_type_id":"4","last_reported":1700586602,"current_range_meters":21600,"station_id":"ce4bhn12rcd13ifvqgqg","pricing_plan_id":"free"},{"bike_id":"9b9e2e01-3cbb-407c-8957-c9a26cd7e77e","system_id":"levelo_inurba_marseille","lat":43.231794,"lon":5.400052,"is_reserved":false,"is_disabled":false,"rental_uris":{"android":"levelo://app?vid=9b9e2e01-3cbb-407c-8957-c9a26cd7e77e","ios":"levelo://app?vid=9b9e2e01-3cbb-407c-8957-c9a26cd7e77e"},"vehicle_type_id":"4","last_reported":1700586602,"current_range_meters":20800,"station_id":"ce4bhn12rcd13ifvqgqg","pricing_plan_id":"free"},{"bike_id":"15edda9c-6562-4f7c-9ed7-90169efc088c","system_id":"levelo_inurba_marseille","lat":43.2318,"lon":5.39989,"is_reserved":false,"is_disabled":false,"rental_uris":{"android":"levelo://app?vid=15edda9c-6562-4f7c-9ed7-90169efc088c","ios":"levelo://app?vid=15edda9c-6562-4f7c-9ed7-90169efc088c"},"vehicle_type_id":"4","last_reported":1700586602,"current_range_meters":11200,"station_id":"ce4bhn12rcd13ifvqgqg","pricing_plan_id":"free"},{"bike_id":"1e3e2223-10c4-4908-bd2e-d473d186c05c","system_id":"levelo_inurba_marseille","lat":43.231793,"lon":5.400044,"is_reserved":false,"is_disabled":false,"rental_uris":{"android":"levelo://app?vid=1e3e2223-10c4-4908-bd2e-d473d186c05c","ios":"levelo://app?vid=1e3e2223-10c4-4908-bd2e-d473d186c05c"},"vehicle_type_id":"4","last_reported":1700586602,"current_range_meters":7200,"station_id":"ce4bhn12rcd13ifvqgqg","pricing_plan_id":"free"},{"bike_id":"5a826903-9e9d-4f93-9807-9f146dec23f8","system_id":"levelo_inurba_marseille","lat":43.231793,"lon":5.400044,"is_reserved":false,"is_disabled":false,"rental_uris":{"android":"levelo://app?vid=5a826903-9e9d-4f93-9807-9f146dec23f8","ios":"levelo://app?vid=5a826903-9e9d-4f93-9807-9f146dec23f8"},"vehicle_type_id":"4","last_reported":1700586602,"current_range_meters":25200,"station_id":"ce4bhn12rcd13ifvqgqg","pricing_plan_id":"free"},{"bike_id":"a426e073-b12c-4f5d-b282-b7405ce70a66","system_id":"levelo_inurba_marseille","lat":43.231793,"lon":5.400044,"is_reserved":false,"is_disabled":false,"rental_uris":{"android":"levelo://app?vid=a426e073-b12c-4f5d-b282-b7405ce70a66","ios":"levelo://app?vid=a426e073-b12c-4f5d-b282-b7405ce70a66"},"vehicle_type_id":"4","last_reported":1700586602,"current_range_meters":18400,"station_id":"ce4bhn12rcd13ifvqgqg","pricing_plan_id":"free"}]}}