{"last_updated":1694286258,"ttl":30,"version":"2.2","data":{"bikes":[{"bike_id":"e993595b-92c8-4e45-9358-1f364a0c29c3","system_id":"levelo_inurba_marseille","lat":43.31312,"lon":5.36605,"is_reserved":false,"is_disabled":false,"rental_uris":{"android":"levelo://app?vid=e993595b-92c8-4e45-9358-1f364a0c29c3","ios":"levelo://app?vid=e993595b-92c8-4e45-9358-1f364a0c29c3"},"vehicle_type_id":"4","last_reported":1694286259,"current_range_meters":8000,"station_id":"","pricing_plan_id":"free"},{"bike_id":"900f39d9-99c4-40ed-92dd-8ab9b26bf04f","system_id":"levelo_inurba_marseille","lat":43.31355,"lon":5.36719,"is_reserved":false,"is_disabled":false,"rental_uris":{"android":"levelo://app?vid=900f39d9-99c4-40ed-92dd-8ab9b26bf04f","ios":"levelo://app?vid=900f39d9-99c4-40ed-92dd-8ab9b26bf04f"},"vehicle_type_id":"4","last_reported":1694286259,"current_range_meters":26800,"station_id":"","pricing_plan_id":"free"},{"bike_id":"ec45ef7e-c717-424c-9899-265e264a99f3","system_id":"levelo_inurba_marseille","lat":43.312239,"lon":5.368562,"is_reserved":false,"is_disabled":false,"rental_uris":{"android":"levelo://app?vid=ec45ef7e-c717-424c-9899-265e264a99f3","ios":"levelo://app?vid=ec45ef7e-c717-424c-9899-265e264a99f3"},"vehicle_type_id":"4","last_reported":1694286259,"current_range_meters":11200,"station_id":"ce4bgl92rcd13ifvqbq0","pricing_plan_id":"free"},{"bike_id":"91f896b5-9541-422e-88e4-ae9a3f35cadf","system_id":"levelo_inurba_marseille","lat":43.31229,"lon":5.36875,"is_reserved":false,"is_disabled":false,"rental_uris":{"android":"levelo://app?vid=91f896b5-9541-422e-88e4-ae9a3f35cadf","ios":"levelo://app?vid=91f896b5-9541-422e-88e4-ae9a3f35cadf"},"vehicle_type_id":"4","last_reported":1694286259,"current_range_meters":13200,"station_id":"ce4bgl92rcd13ifvqbq0","pricing_plan_id":"free"},{"bike_id":"dbb419d8-471a-4a59-b48d-356f5049ff87","system_id":"levelo_inurba_marseille","lat":43.31146,"lon":5.36944,"is_reserved":false,"is_disabled":false,"rental_uris":{"android":"levelo://app?vid=dbb419d8-471a-4a59-b48d-356f5049ff87","ios":"levelo://app?vid=dbb419d8-471a-4a59-b48d-356f5049ff87"},"vehicle_type_id":"4","last_reported":1694286259,"current_range_meters":9600,"station_id":"ce4bguh2rcd13ifvqckg","pricing_plan_id":"free"},{"bike_id":"28e42d94-8d47-4b80-9f8a-012644c5ebc1","system_id":"levelo_inurba_marseille","lat":43.3124,"lon":5.37077,"is_reserved":false,"is_disabled":false,"rental_uris":{"android":"levelo://app?vid=28e42d94-8d47-4b80-9f8a-012644c5ebc1","ios":"levelo://app?vid=28e42d94-8d47-4b80-9f8a-012644c5ebc1"},"vehicle_type_id":"4","last_reported":1694286259,"current_range_meters":400,"station_id":"","pricing_plan_id":"free"},{"bike_id":"216e4309-0cb0-455f-a516-21989eea42a4","system_id":"levelo_inurba_marseille","lat":43.31643,"lon":5.37024,"is_reserved":false,"is_disabled":false,"rental_uris":{"android":"levelo://app?vid=216e4309-0cb0-455f-a516-21989eea42a4","ios":"levelo://app?vid=216e4309-0cb0-455f-a516-21989eea42a4"},"vehicle_type_id":"4","last_reported":1694286259,"current_range_meters":0,"station_id":"","pricing_plan_id":"free"},{"bike_id":"ea28bdf4-473f-447b-9bfe-5daf2a8c6a2f","system_id":"levelo_inurba_marseille","lat":43.31738,"lon":5.36932,"is_reserved":false,"is_disabled":false,"rental_uris":{"android":"levelo://app?vid=ea28bdf4-473f-447b-9bfe-5daf2a8c6a2f","ios":"levelo://app?vid=ea28bdf4-473f-447b-9bfe-5daf2a8c6a2f"},"vehicle_type_id":"4","last_reported":1694286259,"current_range_meters":10800,"station_id":"","pricing_plan_id":"free"},{"bike_id":"e49e2078-9de6-421f-a60d-09a36cb59a75","system_id":"levelo_inurba_marseille","lat":43.314811,"lon":5.373103,"is_reserved":false,"is_disabled":false,"rental_uris":{"android":"levelo://app?vid=e49e2078-9de6-421f-a60d-09a36cb59a75","ios":"levelo://app?vid=e49e2078-9de6-421f-a60d-09a36cb59a75"},"vehicle_type_id":"4","last_reported":1694286259,"current_range_meters":25600,"station_id":"ce4bgt12rcd13ifvqcd0","pricing_plan_id":"free"},{"bike_id":"d2be997d-44d2-40a5-bb20-02aeaaf65fa5","system_id":"levelo_inurba_marseille","lat":43.314811,"lon":5.373104,"is_reserved":false,"is_disabled":false,"rental_uris":{"android":"levelo://app?vid=d2be997d-44d2-40a5-bb20-02aeaaf65fa5","ios":"levelo://app?vid=d2be997d-44d2-40a5-bb20-02aeaaf65fa5"},"vehicle_type_id":"4","last_reported":1694286259,"current_range_meters":31600,"station_id":"ce4bgt12rcd13ifvqcd0","pricing_plan_id":"free"},{"bike_id":"18312aa3-5157-416c-ab43-743fa5fff8f7","system_id":"levelo_inurba_marseille","lat":43.31708,"lon":5.37192,"is_reserved":false,"is_disabled":false,"rental_uris":{"android":"levelo://app?vid=18312aa3-5157-416c-ab43-743fa5fff8f7","ios":"levelo://app?vid=18312aa3-5157-416c-ab43-743fa5fff8f7"},"vehicle_type_id":"4","last_reported":1694286259,"current_range_meters":0,"station_id":"","pricing_plan_id":"free"},{"bike_id":"8df1f7a8-46cc-49bc-9a85-61eb298ce151","system_id":"levelo_inurba_marseille","lat":43.305368,"lon":5.367343,"is_reserved":false,"is_disabled":false,"rental_uris":{"android":"levelo://app?vid=8df1f7a8-46cc-49bc-9a85-61eb298ce151","ios":"levelo://app?vid=8df1f7a8-46cc-49bc-9a85-61eb298ce151"},"vehicle_type_id":"4","last_reported":1694286259,"current_range_meters":0,"station_id":"ce4bgrp2rcd13ifvqc9g","pricing_plan_id":"free"},{"bike_id":"7ecaebc7-2d23-479f-a760-0b4050fb613c","system_id":"levelo_inurba_marseille","lat":43.30547,"lon":5.36562,"is_reserved":false,"is_disabled":false,"rental_uris":{"android":"levelo://app?vid=7ecaebc7-2d23-479f-a760-0b4050fb613c","ios":"levelo://app?vid=7ecaebc7-2d23-479f-a760-0b4050fb613c"},"vehicle_type_id":"4","last_reported":1694286259,"current_range_meters":15200,"station_id":"ce4bgs12rcd13ifvqcag","pricing_plan_id":"free"},{"bike_id":"5d756bd9-a893-43fd-ae69-b763fc3027eb","system_id":"levelo_inurba_marseille","lat":43.305989,"lon":5.37225,"is_reserved":false,"is_disabled":false,"rental_uris":{"android":"levelo://app?vid=5d756bd9-a893-43fd-ae69-b763fc3027eb","ios":"levelo://app?vid=5d756bd9-a893-43fd-ae69-b763fc3027eb"},"vehicle_type_id":"4","last_reported":1694286259,"current_range_meters":0,"station_id":"ce4bgqh2rcd13ifvqc4g","pricing_plan_id":"free"},{"bike_id":"2b35e149-9756-4d51-988f-87b0829b6a69","system_id":"levelo_inurba_marseille","lat":43.305989,"lon":5.37225,"is_reserved":false,"is_disabled":false,"rental_uris":{"android":"levelo://app?vid=2b35e149-9756-4d51-988f-87b0829b6a69","ios":"levelo://app?vid=2b35e149-9756-4d51-988f-87b0829b6a69"},"vehicle_type_id":"4","last_reported":1694286259,"current_range_meters":800,"station_id":"ce4bgqh2rcd13ifvqc4g","pricing_plan_id":"free"},{"bike_id":"dbb3ab18-5652-464b-8476-ad675d715323","system_id":"levelo_inurba_marseille","lat":43.32057,"lon":5.37117,"is_reserved":false,"is_disabled":false,"rental_uris":{"android":"levelo://app?vid=dbb3ab18-5652-464b-8476-ad675d715323","ios":"levelo://app?vid=dbb3ab18-5652-464b-8476-ad675d715323"},"vehicle_type_id":"4","last_reported":1694286259,"current_range_meters":12400,"station_id":"","pricing_plan_id":"free"},{"bike_id":"ee71b4fc-b05c-41d3-b843-4e1fe2567dbe","system_id":"levelo_inurba_marseille","lat":43.30793,"lon":5.37656,"is_reserved":false,"is_disabled":false,"rental_uris":{"android":"levelo://app?vid=ee71b4fc-b05c-41d3-b843-4e1fe2567dbe","ios":"levelo://app?vid=ee71b4fc-b05c-41d3-b843-4e1fe2567dbe"},"vehicle_type_id":"4","last_reported":1694286259,"current_range_meters":20800,"station_id":"ce4bgv92rcd13ifvqcq0","pricing_plan_id":"free"},{"bike_id":"2a8e6eed-c867-41c5-870f-dfa78ec2f777","system_id":"levelo_inurba_marseille","lat":43.307945,"lon":5.376487,"is_reserved":false,"is_disabled":false,"rental_uris":{"android":"levelo://app?vid=2a8e6eed-c867-41c5-870f-dfa78ec2f777","ios":"levelo://app?vid=2a8e6eed-c867-41c5-870f-dfa78ec2f777"},"vehicle_type_id":"4","last_reported":1694286259,"current_range_meters":10400,"station_id":"ce4bgv92rcd13ifvqcq0","pricing_plan_id":"free"},{"bike_id":"5044c8d7-a065-4608-9fc1-ca54153baa7c","system_id":"levelo_inurba_marseille","lat":43.3078,"lon":5.37659,"is_reserved":false,"is_disabled":false,"rental_uris":{"android":"levelo://app?vid=5044c8d7-a065-4608-9fc1-ca54153baa7c","ios":"levelo://app?vid=5044c8d7-a065-4608-9fc1-ca54153baa7c"},"vehicle_type_id":"4","last_reported":1694286259,"current_range_meters":30000,"station_id":"ce4bgv92rcd13ifvqcq0","pricing_plan_id":"free"},{"bike_id":"9258aa40-d79b-4d46-aea7-85b2639a18bf","system_id":"levelo_inurba_marseille","lat":43.32192,"lon":5.36872,"is_reserved":false,"is_disabled":false,"rental_uris":{"android":"levelo://app?vid=9258aa40-d79b-4d46-aea7-85b2639a18bf","ios":"levelo://app?vid=9258aa40-d79b-4d46-aea7-85b2639a18bf"},"vehicle_type_id":"4","last_reported":1694286259,"current_range_meters":8400,"station_id":"","pricing_plan_id":"free"},{"bike_id":"ff479914-554d-4da3-aa9c-1c27d4393910","system_id":"levelo_inurba_marseille","lat":43.30284,"lon":5.36591,"is_reserved":false,"is_disabled":false,"rental_uris":{"android":"levelo://app?vid=ff479914-554d-4da3-aa9c-1c27d4393910","ios":"levelo://app?vid=ff479914-554d-4da3-aa9c-1c27d4393910"},"vehicle_type_id":"4","last_reported":1694286259,"current_range_meters":12400,"station_id":"","pricing_plan_id":"free"},{"bike_id":"e1364fb1-ee8d-4e34-be8c-2a7d429b78fa","system_id":"levelo_inurba_marseille","lat":43.31534,"lon":5.38025,"is_reserved":false,"is_disabled":false,"rental_uris":{"android":"levelo://app?vid=e1364fb1-ee8d-4e34-be8c-2a7d429b78fa","ios":"levelo://app?vid=e1364fb1-ee8d-4e34-be8c-2a7d429b78fa"},"vehicle_type_id":"4","last_reported":1694286259,"current_range_meters":7600,"station_id":"","pricing_plan_id":"free"},{"bike_id":"8d36e015-eb10-4e5a-a2dc-c144bf7fd007","system_id":"levelo_inurba_marseille","lat":43.315293,"lon":5.380349,"is_reserved":false,"is_disabled":false,"rental_uris":{"android":"levelo://app?vid=8d36e015-eb10-4e5a-a2dc-c144bf7fd007","ios":"levelo://app?vid=8d36e015-eb10-4e5a-a2dc-c144bf7fd007"},"vehicle_type_id":"4","last_reported":1694286259,"current_range_meters":1200,"station_id":"ce4bhsp2rcd13ifvqi50","pricing_plan_id":"free"},{"bike_id":"46b49fba-9b61-4190-99fb-fbc6de95f30a","system_id":"levelo_inurba_marseille","lat":43.301939,"lon":5.366286,"is_reserved":false,"is_disabled":false,"rental_uris":{"android":"levelo://app?vid=46b49fba-9b61-4190-99fb-fbc6de95f30a","ios":"levelo://app?vid=46b49fba-9b61-4190-99fb-fbc6de95f30a"},"vehicle_type_id":"4","last_reported":1694286259,"current_range_meters":20000,"station_id":"ce4bgrh2rcd13ifvqc8g","pricing_plan_id":"free"},{"bike_id":"cf98ba5c-ccd0-4d21-aa56-b7395d01ab31","system_id":"levelo_inurba_marseille","lat":43.31562,"lon":5.38212,"is_reserved":false,"is_disabled":false,"rental_uris":{"android":"levelo://app?vid=cf98ba5c-ccd0-4d21-aa56-b7395d01ab31","ios":"levelo://app?vid=cf98ba5c-ccd0-4d21-aa56-b7395d01ab31"},"vehicle_type_id":"4","last_reported":1694286259,"current_range_meters":3600,"station_id":"","pricing_plan_id":"free"},{"bike_id":"35e385f9-75fa-4d7c-bf8c-b1e0a18db494","system_id":"levelo_inurba_marseille","lat":43.32415,"lon":5.36487,"is_reserved":false,"is_disabled":false,"rental_uris":{"android":"levelo://app?vid=35e385f9-75fa-4d7c-bf8c-b1e0a18db494","ios":"levelo://app?vid=35e385f9-75fa-4d7c-bf8c-b1e0a18db494"},"vehicle_type_id":"4","last_reported":1694286259,"current_range_meters":31200,"station_id":"","pricing_plan_id":"free"},{"bike_id":"b2796f96-e674-479c-b585-f38876a27325","system_id":"levelo_inurba_marseille","lat":43.308012,"lon":5.381511,"is_reserved":false,"is_disabled":false,"rental_uris":{"android":"levelo://app?vid=b2796f96-e674-479c-b585-f38876a27325","ios":"levelo://app?vid=b2796f96-e674-479c-b585-f38876a27325"},"vehicle_type_id":"4","last_reported":1694286259,"current_range_meters":0,"station_id":"ce4bgt12rcd13ifvqce0","pricing_plan_id":"free"},{"bike_id":"e8373113-4a6c-4dd7-9170-4be8eaa75a74","system_id":"levelo_inurba_marseille","lat":43.30143,"lon":5.37419,"is_reserved":false,"is_disabled":false,"rental_uris":{"android":"levelo://app?vid=e8373113-4a6c-4dd7-9170-4be8eaa75a74","ios":"levelo://app?vid=e8373113-4a6c-4dd7-9170-4be8eaa75a74"},"vehicle_type_id":"4","last_reported":1694286259,"current_range_meters":7200,"station_id":"ce4bgs92rcd13ifvqcc0","pricing_plan_id":"free"},{"bike_id":"a50cb06c-5753-4a84-9dbb-7dba698b3271","system_id":"levelo_inurba_marseille","lat":43.319935,"lon":5.381699,"is_reserved":false,"is_disabled":false,"rental_uris":{"android":"levelo://app?vid=a50cb06c-5753-4a84-9dbb-7dba698b3271","ios":"levelo://app?vid=a50cb06c-5753-4a84-9dbb-7dba698b3271"},"vehicle_type_id":"4","last_reported":1694286259,"current_range_meters":0,"station_id":"ce4bhr12rcd13ifvqhpg","pricing_plan_id":"free"},{"bike_id":"e08f1708-ba1f-448d-a8e1-a62a306a1158","system_id":"levelo_inurba_marseille","lat":43.313571,"lon":5.384829,"is_reserved":false,"is_disabled":false,"rental_uris":{"android":"levelo://app?vid=e08f1708-ba1f-448d-a8e1-a62a306a1158","ios":"levelo://app?vid=e08f1708-ba1f-448d-a8e1-a62a306a1158"},"vehicle_type_id":"4","last_reported":1694286259,"current_range_meters":6000,"station_id":"ce4bgt92rcd13ifvqcf0","pricing_plan_id":"free"},{"bike_id":"79a38fce-4fff-4aa1-aa0a-57040d01d286","system_id":"levelo_inurba_marseille","lat":43.313571,"lon":5.384829,"is_reserved":false,"is_disabled":false,"rental_uris":{"android":"levelo://app?vid=79a38fce-4fff-4aa1-aa0a-57040d01d286","ios":"levelo://app?vid=79a38fce-4fff-4aa1-aa0a-57040d01d286"},"vehicle_type_id":"4","last_reported":1694286259,"current_range_meters":8000,"station_id":"ce4bgt92rcd13ifvqcf0","pricing_plan_id":"free"},{"bike_id":"d26af8ba-8953-490b-87f6-d428a440bd2b","system_id":"levelo_inurba_marseille","lat":43.313571,"lon":5.384829,"is_reserved":false,"is_disabled":false,"rental_uris":{"android":"levelo://app?vid=d26af8ba-8953-490b-87f6-d428a440bd2b","ios":"levelo://app?vid=d26af8ba-8953-490b-87f6-d428a440bd2b"},"vehicle_type_id":"4","last_reported":1694286259,"current_range_meters":17200,"station_id":"ce4bgt92rcd13ifvqcf0","pricing_plan_id":"free"},{"bike_id":"d7f88110-701d-40b1-9f18-c42906a5066e","system_id":"levelo_inurba_marseille","lat":43.313571,"lon":5.384829,"is_reserved":false,"is_disabled":false,"rental_uris":{"android":"levelo://app?vid=d7f88110-701d-40b1-9f18-c42906a5066e","ios":"levelo://app?vid=d7f88110-701d-40b1-9f18-c42906a5066e"},"vehicle_type_id":"4","last_reported":1694286259,"current_range_meters":22000,"station_id":"ce4bgt92rcd13ifvqcf0","pricing_plan_id":"free"},{"bike_id":"2bd06f40-84d7-44bd-a134-6a6957fb59af","system_id":"levelo_inurba_marseille","lat":43.31367,"lon":5.38507,"is_reserved":false,"is_disabled":false,"rental_uris":{"android":"levelo://app?vid=2bd06f40-84d7-44bd-a134-6a6957fb59af","ios":"levelo://app?vid=2bd06f40-84d7-44bd-a134-6a6957fb59af"},"vehicle_type_id":"4","last_reported":1694286259,"current_range_meters":25600,"station_id":"ce4bgt92rcd13ifvqcf0","pricing_plan_id":"free"},{"bike_id":"dbd3543d-10a4-4854-8395-7983d36c0aad","system_id":"levelo_inurba_marseille","lat":43.32607,"lon":5.36749,"is_reserved":false,"is_disabled":false,"rental_uris":{"android":"levelo://app?vid=dbd3543d-10a4-4854-8395-7983d36c0aad","ios":"levelo://app?vid=dbd3543d-10a4-4854-8395-7983d36c0aad"},"vehicle_type_id":"4","last_reported":1694286259,"current_range_meters":22800,"station_id":"ce4bhs92rcd13ifvqi0g","pricing_plan_id":"free"},{"bike_id":"732559c2-2aa0-4263-a537-de62bd39e628","system_id":"levelo_inurba_marseille","lat":43.29936,"lon":5.36538,"is_reserved":false,"is_disabled":false,"rental_uris":{"android":"levelo://app?vid=732559c2-2aa0-4263-a537-de62bd39e628","ios":"levelo://app?vid=732559c2-2aa0-4263-a537-de62bd39e628"},"vehicle_type_id":"4","last_reported":1694286259,"current_range_meters":3600,"station_id":"ce4bgm92rcd13ifvqbr0","pricing_plan_id":"free"},{"bike_id":"3abbc4d5-b2bd-4599-944f-a3ced5c9a836","system_id":"levelo_inurba_marseille","lat":43.299724,"lon":5.371829,"is_reserved":false,"is_disabled":false,"rental_uris":{"android":"levelo://app?vid=3abbc4d5-b2bd-4599-944f-a3ced5c9a836","ios":"levelo://app?vid=3abbc4d5-b2bd-4599-944f-a3ced5c9a836"},"vehicle_type_id":"4","last_reported":1694286259,"current_range_meters":25600,"station_id":"ce4bgr92rcd13ifvqc7g","pricing_plan_id":"free"},{"bike_id":"8cbf631c-3dbf-4744-9ff4-9a31335a6848","system_id":"levelo_inurba_marseille","lat":43.298433,"lon":5.362774,"is_reserved":false,"is_disabled":false,"rental_uris":{"android":"levelo://app?vid=8cbf631c-3dbf-4744-9ff4-9a31335a6848","ios":"levelo://app?vid=8cbf631c-3dbf-4744-9ff4-9a31335a6848"},"vehicle_type_id":"4","last_reported":1694286259,"current_range_meters":4800,"station_id":"ce4bgpp2rcd13ifvqc3g","pricing_plan_id":"free"},{"bike_id":"c0e11578-9ab0-48fa-859f-776a117eb228","system_id":"levelo_inurba_marseille","lat":43.298433,"lon":5.362774,"is_reserved":false,"is_disabled":false,"rental_uris":{"android":"levelo://app?vid=c0e11578-9ab0-48fa-859f-776a117eb228","ios":"levelo://app?vid=c0e11578-9ab0-48fa-859f-776a117eb228"},"vehicle_type_id":"4","last_reported":1694286259,"current_range_meters":7200,"station_id":"ce4bgpp2rcd13ifvqc3g","pricing_plan_id":"free"},{"bike_id":"e79fb91c-dd27-4e88-ab18-95b9a05b482e","system_id":"levelo_inurba_marseille","lat":43.311722,"lon":5.387247,"is_reserved":false,"is_disabled":false,"rental_uris":{"android":"levelo://app?vid=e79fb91c-dd27-4e88-ab18-95b9a05b482e","ios":"levelo://app?vid=e79fb91c-dd27-4e88-ab18-95b9a05b482e"},"vehicle_type_id":"4","last_reported":1694286259,"current_range_meters":31600,"station_id":"ce4bgv12rcd13ifvqcp0","pricing_plan_id":"free"},{"bike_id":"924d6452-f7f7-4baa-af9a-49926af70474","system_id":"levelo_inurba_marseille","lat":43.297794,"lon":5.370888,"is_reserved":false,"is_disabled":false,"rental_uris":{"android":"levelo://app?vid=924d6452-f7f7-4baa-af9a-49926af70474","ios":"levelo://app?vid=924d6452-f7f7-4baa-af9a-49926af70474"},"vehicle_type_id":"4","last_reported":1694286259,"current_range_meters":27200,"station_id":"ce4bgop2rcd13ifvqc1g","pricing_plan_id":"free"},{"bike_id":"89dd8f2f-0266-4edb-a056-20d3564cd727","system_id":"levelo_inurba_marseille","lat":43.32292,"lon":5.38259,"is_reserved":false,"is_disabled":false,"rental_uris":{"android":"levelo://app?vid=89dd8f2f-0266-4edb-a056-20d3564cd727","ios":"levelo://app?vid=89dd8f2f-0266-4edb-a056-20d3564cd727"},"vehicle_type_id":"4","last_reported":1694286259,"current_range_meters":12000,"station_id":"ce4bhr12rcd13ifvqhqg","pricing_plan_id":"free"},{"bike_id":"8143ebd5-c5c5-467f-a353-1c0066f90341","system_id":"levelo_inurba_marseille","lat":43.29779,"lon":5.37132,"is_reserved":false,"is_disabled":false,"rental_uris":{"android":"levelo://app?vid=8143ebd5-c5c5-467f-a353-1c0066f90341","ios":"levelo://app?vid=8143ebd5-c5c5-467f-a353-1c0066f90341"},"vehicle_type_id":"4","last_reported":1694286259,"current_range_meters":27200,"station_id":"ce4bgop2rcd13ifvqc1g","pricing_plan_id":"free"},{"bike_id":"4e9d6333-e671-4c7b-93bd-e4738bf72a94","system_id":"levelo_inurba_marseille","lat":43.322872,"lon":5.382756,"is_reserved":false,"is_disabled":false,"rental_uris":{"android":"levelo://app?vid=4e9d6333-e671-4c7b-93bd-e4738bf72a94","ios":"levelo://app?vid=4e9d6333-e671-4c7b-93bd-e4738bf72a94"},"vehicle_type_id":"4","last_reported":1694286259,"current_range_meters":4800,"station_id":"ce4bhr12rcd13ifvqhqg","pricing_plan_id":"free"},{"bike_id":"f886016f-4a6e-4182-9f19-1c29bddcb63d","system_id":"levelo_inurba_marseille","lat":43.32356,"lon":5.38184,"is_reserved":false,"is_disabled":false,"rental_uris":{"android":"levelo://app?vid=f886016f-4a6e-4182-9f19-1c29bddcb63d","ios":"levelo://app?vid=f886016f-4a6e-4182-9f19-1c29bddcb63d"},"vehicle_type_id":"4","last_reported":1694286259,"current_range_meters":11200,"station_id":"","pricing_plan_id":"free"},{"bike_id":"2b7a6367-9ae4-4f23-b36b-3124321d5b76","system_id":"levelo_inurba_marseille","lat":43.322872,"lon":5.382756,"is_reserved":false,"is_disabled":false,"rental_uris":{"android":"levelo://app?vid=2b7a6367-9ae4-4f23-b36b-3124321d5b76","ios":"levelo://app?vid=2b7a6367-9ae4-4f23-b36b-3124321d5b76"},"vehicle_type_id":"4","last_reported":1694286259,"current_range_meters":7600,"station_id":"ce4bhr12rcd13ifvqhqg","pricing_plan_id":"free"},{"bike_id":"9e043314-0b1c-40ff-aac7-8c26f7ca404a","system_id":"levelo_inurba_marseille","lat":43.32295,"lon":5.38272,"is_reserved":false,"is_disabled":false,"rental_uris":{"android":"levelo://app?vid=9e043314-0b1c-40ff-aac7-8c26f7ca404a","ios":"levelo://app?vid=9e043314-0b1c-40ff-aac7-8c26f7ca404a"},"vehicle_type_id":"4","last_reported":1694286259,"current_range_meters":8400,"station_id":"ce4bhr12rcd13ifvqhqg","pricing_plan_id":"free"},{"bike_id":"c659a811-0704-4523-b09a-0c8200a0060b","system_id":"levelo_inurba_marseille","lat":43.301,"lon":5.3808,"is_reserved":false,"is_disabled":false,"rental_uris":{"android":"levelo://app?vid=c659a811-0704-4523-b09a-0c8200a0060b","ios":"levelo://app?vid=c659a811-0704-4523-b09a-0c8200a0060b"},"vehicle_type_id":"4","last_reported":1694286259,"current_range_meters":11600,"station_id":"","pricing_plan_id":"free"},{"bike_id":"3e618cfb-dbbe-4eea-82e6-ccc66c28df05","system_id":"levelo_inurba_marseille","lat":43.32828,"lon":5.36683,"is_reserved":false,"is_disabled":false,"rental_uris":{"android":"levelo://app?vid=3e618cfb-dbbe-4eea-82e6-ccc66c28df05","ios":"levelo://app?vid=3e618cfb-dbbe-4eea-82e6-ccc66c28df05"},"vehicle_type_id":"4","last_reported":1694286259,"current_range_meters":0,"station_id":"ce4bhs92rcd13ifvqi0g","pricing_plan_id":"free"},{"bike_id":"f2251e02-906c-4e24-884a-c3d51f1c840f","system_id":"levelo_inurba_marseille","lat":43.328371,"lon":5.366909,"is_reserved":false,"is_disabled":false,"rental_uris":{"android":"levelo://app?vid=f2251e02-906c-4e24-884a-c3d51f1c840f","ios":"levelo://app?vid=f2251e02-906c-4e24-884a-c3d51f1c840f"},"vehicle_type_id":"4","last_reported":1694286259,"current_range_meters":2000,"station_id":"ce4bhs92rcd13ifvqi0g","pricing_plan_id":"free"},{"bike_id":"bd0bd295-6ecc-40c4-a4d0-89f645593756","system_id":"levelo_inurba_marseille","lat":43.29718,"lon":5.36609,"is_reserved":false,"is_disabled":false,"rental_uris":{"android":"levelo://app?vid=bd0bd295-6ecc-40c4-a4d0-89f645593756","ios":"levelo://app?vid=bd0bd295-6ecc-40c4-a4d0-89f645593756"},"vehicle_type_id":"4","last_reported":1694286259,"current_range_meters":19200,"station_id":"ce4bgn12rcd13ifvqbt0","pricing_plan_id":"free"},{"bike_id":"8483e823-91fc-482e-919e-a8445c974117","system_id":"levelo_inurba_marseille","lat":43.29717,"lon":5.36619,"is_reserved":false,"is_disabled":false,"rental_uris":{"android":"levelo://app?vid=8483e823-91fc-482e-919e-a8445c974117","ios":"levelo://app?vid=8483e823-91fc-482e-919e-a8445c974117"},"vehicle_type_id":"4","last_reported":1694286259,"current_range_meters":6000,"station_id":"","pricing_plan_id":"free"},{"bike_id":"ef8b1ee2-1e10-4c94-b290-36926068820b","system_id":"levelo_inurba_marseille","lat":43.32832,"lon":5.36695,"is_reserved":false,"is_disabled":false,"rental_uris":{"android":"levelo://app?vid=ef8b1ee2-1e10-4c94-b290-36926068820b","ios":"levelo://app?vid=ef8b1ee2-1e10-4c94-b290-36926068820b"},"vehicle_type_id":"4","last_reported":1694286259,"current_range_meters":17600,"station_id":"ce4bhs92rcd13ifvqi0g","pricing_plan_id":"free"},{"bike_id":"49ab1667-a055-46de-b1d6-a6bcf775f7bc","system_id":"levelo_inurba_marseille","lat":43.328371,"lon":5.366909,"is_reserved":false,"is_disabled":false,"rental_uris":{"android":"levelo://app?vid=49ab1667-a055-46de-b1d6-a6bcf775f7bc","ios":"levelo://app?vid=49ab1667-a055-46de-b1d6-a6bcf775f7bc"},"vehicle_type_id":"4","last_reported":1694286259,"current_range_meters":2000,"station_id":"ce4bhs92rcd13ifvqi0g","pricing_plan_id":"free"},{"bike_id":"b604ef3a-f297-48c1-937b-6fa79d61c919","system_id":"levelo_inurba_marseille","lat":43.328371,"lon":5.366909,"is_reserved":false,"is_disabled":false,"rental_uris":{"android":"levelo://app?vid=b604ef3a-f297-48c1-937b-6fa79d61c919","ios":"levelo://app?vid=b604ef3a-f297-48c1-937b-6fa79d61c919"},"vehicle_type_id":"4","last_reported":1694286259,"current_range_meters":15200,"station_id":"ce4bhs92rcd13ifvqi0g","pricing_plan_id":"free"},{"bike_id":"dd789220-e7b5-42c1-b9dc-dc4243148021","system_id":"levelo_inurba_marseille","lat":43.29708,"lon":5.36616,"is_reserved":false,"is_disabled":false,"rental_uris":{"android":"levelo://app?vid=dd789220-e7b5-42c1-b9dc-dc4243148021","ios":"levelo://app?vid=dd789220-e7b5-42c1-b9dc-dc4243148021"},"vehicle_type_id":"4","last_reported":1694286259,"current_range_meters":26800,"station_id":"ce4bgn12rcd13ifvqbt0","pricing_plan_id":"free"},{"bike_id":"d3139180-8ba9-4c91-b6e4-8baae3c22113","system_id":"levelo_inurba_marseille","lat":43.296131,"lon":5.370773,"is_reserved":false,"is_disabled":false,"rental_uris":{"android":"levelo://app?vid=d3139180-8ba9-4c91-b6e4-8baae3c22113","ios":"levelo://app?vid=d3139180-8ba9-4c91-b6e4-8baae3c22113"},"vehicle_type_id":"4","last_reported":1694286259,"current_range_meters":31600,"station_id":"ce4bgnh2rcd13ifvqc0g","pricing_plan_id":"free"},{"bike_id":"57fe2b16-c375-4974-868b-b132b9a55826","system_id":"levelo_inurba_marseille","lat":43.299028,"lon":5.381509,"is_reserved":false,"is_disabled":false,"rental_uris":{"android":"levelo://app?vid=57fe2b16-c375-4974-868b-b132b9a55826","ios":"levelo://app?vid=57fe2b16-c375-4974-868b-b132b9a55826"},"vehicle_type_id":"4","last_reported":1694286259,"current_range_meters":11200,"station_id":"ce4bgj12rcd13ifvqbc0","pricing_plan_id":"free"},{"bike_id":"07f9c260-46c5-4380-bcdb-c01b0c80b164","system_id":"levelo_inurba_marseille","lat":43.296935,"lon":5.376544,"is_reserved":false,"is_disabled":false,"rental_uris":{"android":"levelo://app?vid=07f9c260-46c5-4380-bcdb-c01b0c80b164","ios":"levelo://app?vid=07f9c260-46c5-4380-bcdb-c01b0c80b164"},"vehicle_type_id":"4","last_reported":1694286259,"current_range_meters":0,"station_id":"ce4bgkh2rcd13ifvqbl0","pricing_plan_id":"free"},{"bike_id":"63b85a98-5e45-4715-a2dc-113668cd9614","system_id":"levelo_inurba_marseille","lat":43.309589,"lon":5.390258,"is_reserved":false,"is_disabled":false,"rental_uris":{"android":"levelo://app?vid=63b85a98-5e45-4715-a2dc-113668cd9614","ios":"levelo://app?vid=63b85a98-5e45-4715-a2dc-113668cd9614"},"vehicle_type_id":"4","last_reported":1694286259,"current_range_meters":22800,"station_id":"ce4bgup2rcd13ifvqco0","pricing_plan_id":"free"},{"bike_id":"c2c93205-1c50-497e-9033-e45492f8e791","system_id":"levelo_inurba_marseille","lat":43.317557,"lon":5.390173,"is_reserved":false,"is_disabled":false,"rental_uris":{"android":"levelo://app?vid=c2c93205-1c50-497e-9033-e45492f8e791","ios":"levelo://app?vid=c2c93205-1c50-497e-9033-e45492f8e791"},"vehicle_type_id":"4","last_reported":1694286259,"current_range_meters":24400,"station_id":"ce4bhqp2rcd13ifvqhng","pricing_plan_id":"free"},{"bike_id":"3ad3611b-b16c-43e3-86a2-25172e1d3c4a","system_id":"levelo_inurba_marseille","lat":43.317557,"lon":5.390173,"is_reserved":false,"is_disabled":false,"rental_uris":{"android":"levelo://app?vid=3ad3611b-b16c-43e3-86a2-25172e1d3c4a","ios":"levelo://app?vid=3ad3611b-b16c-43e3-86a2-25172e1d3c4a"},"vehicle_type_id":"4","last_reported":1694286259,"current_range_meters":26400,"station_id":"ce4bhqp2rcd13ifvqhng","pricing_plan_id":"free"},{"bike_id":"b52d6e20-45a7-4ce1-9273-44c84e378a11","system_id":"levelo_inurba_marseille","lat":43.317557,"lon":5.390173,"is_reserved":false,"is_disabled":false,"rental_uris":{"android":"levelo://app?vid=b52d6e20-45a7-4ce1-9273-44c84e378a11","ios":"levelo://app?vid=b52d6e20-45a7-4ce1-9273-44c84e378a11"},"vehicle_type_id":"4","last_reported":1694286259,"current_range_meters":30400,"station_id":"ce4bhqp2rcd13ifvqhng","pricing_plan_id":"free"},{"bike_id":"9f813905-15e2-41aa-940d-9ed87bfe0126","system_id":"levelo_inurba_marseille","lat":43.32311,"lon":5.38676,"is_reserved":false,"is_disabled":false,"rental_uris":{"android":"levelo://app?vid=9f813905-15e2-41aa-940d-9ed87bfe0126","ios":"levelo://app?vid=9f813905-15e2-41aa-940d-9ed87bfe0126"},"vehicle_type_id":"4","last_reported":1694286259,"current_range_meters":15200,"station_id":"","pricing_plan_id":"free"},{"bike_id":"62423260-9c56-4183-b51b-0db01dbfa8ce","system_id":"levelo_inurba_marseille","lat":43.298037,"lon":5.381066,"is_reserved":false,"is_disabled":false,"rental_uris":{"android":"levelo://app?vid=62423260-9c56-4183-b51b-0db01dbfa8ce","ios":"levelo://app?vid=62423260-9c56-4183-b51b-0db01dbfa8ce"},"vehicle_type_id":"4","last_reported":1694286259,"current_range_meters":19600,"station_id":"ce4bgip2rcd13ifvqbb0","pricing_plan_id":"free"},{"bike_id":"22612eb1-0486-4624-b7f7-7f1a62dcc711","system_id":"levelo_inurba_marseille","lat":43.298037,"lon":5.381066,"is_reserved":false,"is_disabled":false,"rental_uris":{"android":"levelo://app?vid=22612eb1-0486-4624-b7f7-7f1a62dcc711","ios":"levelo://app?vid=22612eb1-0486-4624-b7f7-7f1a62dcc711"},"vehicle_type_id":"4","last_reported":1694286259,"current_range_meters":4400,"station_id":"ce4bgip2rcd13ifvqbb0","pricing_plan_id":"free"},{"bike_id":"cec6ba2f-8074-4ba3-875c-d5d89d148725","system_id":"levelo_inurba_marseille","lat":43.298037,"lon":5.381066,"is_reserved":false,"is_disabled":false,"rental_uris":{"android":"levelo://app?vid=cec6ba2f-8074-4ba3-875c-d5d89d148725","ios":"levelo://app?vid=cec6ba2f-8074-4ba3-875c-d5d89d148725"},"vehicle_type_id":"4","last_reported":1694286259,"current_range_meters":0,"station_id":"ce4bgip2rcd13ifvqbb0","pricing_plan_id":"free"},{"bike_id":"2a5f1019-80d5-41de-bab5-236077d682a6","system_id":"levelo_inurba_marseille","lat":43.29574,"lon":5.37512,"is_reserved":false,"is_disabled":false,"rental_uris":{"android":"levelo://app?vid=2a5f1019-80d5-41de-bab5-236077d682a6","ios":"levelo://app?vid=2a5f1019-80d5-41de-bab5-236077d682a6"},"vehicle_type_id":"4","last_reported":1694286259,"current_range_meters":5200,"station_id":"ce4bgh92rcd13ifvqb50","pricing_plan_id":"free"},{"bike_id":"aaca0f06-5d4e-4553-a348-ead7f9116936","system_id":"levelo_inurba_marseille","lat":43.32212,"lon":5.38807,"is_reserved":false,"is_disabled":false,"rental_uris":{"android":"levelo://app?vid=aaca0f06-5d4e-4553-a348-ead7f9116936","ios":"levelo://app?vid=aaca0f06-5d4e-4553-a348-ead7f9116936"},"vehicle_type_id":"4","last_reported":1694286259,"current_range_meters":0,"station_id":"","pricing_plan_id":"free"},{"bike_id":"a583aac6-64aa-40a7-9ec3-c3c1b0fed973","system_id":"levelo_inurba_marseille","lat":43.29512,"lon":5.36157,"is_reserved":false,"is_disabled":false,"rental_uris":{"android":"levelo://app?vid=a583aac6-64aa-40a7-9ec3-c3c1b0fed973","ios":"levelo://app?vid=a583aac6-64aa-40a7-9ec3-c3c1b0fed973"},"vehicle_type_id":"4","last_reported":1694286259,"current_range_meters":4000,"station_id":"","pricing_plan_id":"free"},{"bike_id":"44f18ff6-6c6e-45e6-b4fc-b2999e6752cf","system_id":"levelo_inurba_marseille","lat":43.30423,"lon":5.38885,"is_reserved":false,"is_disabled":false,"rental_uris":{"android":"levelo://app?vid=44f18ff6-6c6e-45e6-b4fc-b2999e6752cf","ios":"levelo://app?vid=44f18ff6-6c6e-45e6-b4fc-b2999e6752cf"},"vehicle_type_id":"4","last_reported":1694286259,"current_range_meters":4400,"station_id":"ce4bgk12rcd13ifvqbi0","pricing_plan_id":"free"},{"bike_id":"2713726e-ab82-47d7-ba93-9f7d5e0b8b4a","system_id":"levelo_inurba_marseille","lat":43.30424,"lon":5.38887,"is_reserved":false,"is_disabled":false,"rental_uris":{"android":"levelo://app?vid=2713726e-ab82-47d7-ba93-9f7d5e0b8b4a","ios":"levelo://app?vid=2713726e-ab82-47d7-ba93-9f7d5e0b8b4a"},"vehicle_type_id":"4","last_reported":1694286259,"current_range_meters":20800,"station_id":"ce4bgk12rcd13ifvqbi0","pricing_plan_id":"free"},{"bike_id":"d2372941-2ecd-42ed-a083-60443ae47c28","system_id":"levelo_inurba_marseille","lat":43.296263,"lon":5.377094,"is_reserved":false,"is_disabled":false,"rental_uris":{"android":"levelo://app?vid=d2372941-2ecd-42ed-a083-60443ae47c28","ios":"levelo://app?vid=d2372941-2ecd-42ed-a083-60443ae47c28"},"vehicle_type_id":"4","last_reported":1694286259,"current_range_meters":14800,"station_id":"ce4bgi92rcd13ifvqb90","pricing_plan_id":"free"},{"bike_id":"4ea945fa-e718-465d-8f4d-1e07e7650c18","system_id":"levelo_inurba_marseille","lat":43.29619,"lon":5.37729,"is_reserved":false,"is_disabled":false,"rental_uris":{"android":"levelo://app?vid=4ea945fa-e718-465d-8f4d-1e07e7650c18","ios":"levelo://app?vid=4ea945fa-e718-465d-8f4d-1e07e7650c18"},"vehicle_type_id":"4","last_reported":1694286259,"current_range_meters":2000,"station_id":"ce4bgi92rcd13ifvqb90","pricing_plan_id":"free"},{"bike_id":"27a2c00e-102c-4245-912c-12a8ca1e04c2","system_id":"levelo_inurba_marseille","lat":43.296263,"lon":5.377094,"is_reserved":false,"is_disabled":false,"rental_uris":{"android":"levelo://app?vid=27a2c00e-102c-4245-912c-12a8ca1e04c2","ios":"levelo://app?vid=27a2c00e-102c-4245-912c-12a8ca1e04c2"},"vehicle_type_id":"4","last_reported":1694286259,"current_range_meters":4400,"station_id":"ce4bgi92rcd13ifvqb90","pricing_plan_id":"free"},{"bike_id":"d7932d52-0b99-415c-88dc-561d5faa16a4","system_id":"levelo_inurba_marseille","lat":43.296263,"lon":5.377094,"is_reserved":false,"is_disabled":false,"rental_uris":{"android":"levelo://app?vid=d7932d52-0b99-415c-88dc-561d5faa16a4","ios":"levelo://app?vid=d7932d52-0b99-415c-88dc-561d5faa16a4"},"vehicle_type_id":"4","last_reported":1694286259,"current_range_meters":26400,"station_id":"ce4bgi92rcd13ifvqb90","pricing_plan_id":"free"},{"bike_id":"9d218d7c-9108-41b4-b95e-2cbd059e1d9c","system_id":"levelo_inurba_marseille","lat":43.299707,"lon":5.384859,"is_reserved":false,"is_disabled":false,"rental_uris":{"android":"levelo://app?vid=9d218d7c-9108-41b4-b95e-2cbd059e1d9c","ios":"levelo://app?vid=9d218d7c-9108-41b4-b95e-2cbd059e1d9c"},"vehicle_type_id":"4","last_reported":1694286259,"current_range_meters":0,"station_id":"ce4bgj92rcd13ifvqbd0","pricing_plan_id":"free"},{"bike_id":"27464f6f-92bc-4785-8d63-464875f7b8e4","system_id":"levelo_inurba_marseille","lat":43.299707,"lon":5.384859,"is_reserved":false,"is_disabled":false,"rental_uris":{"android":"levelo://app?vid=27464f6f-92bc-4785-8d63-464875f7b8e4","ios":"levelo://app?vid=27464f6f-92bc-4785-8d63-464875f7b8e4"},"vehicle_type_id":"4","last_reported":1694286259,"current_range_meters":28800,"station_id":"ce4bgj92rcd13ifvqbd0","pricing_plan_id":"free"},{"bike_id":"25ffd4c1-f09f-4e91-8d83-1a4e22977d44","system_id":"levelo_inurba_marseille","lat":43.29979,"lon":5.38486,"is_reserved":false,"is_disabled":false,"rental_uris":{"android":"levelo://app?vid=25ffd4c1-f09f-4e91-8d83-1a4e22977d44","ios":"levelo://app?vid=25ffd4c1-f09f-4e91-8d83-1a4e22977d44"},"vehicle_type_id":"4","last_reported":1694286259,"current_range_meters":8400,"station_id":"","pricing_plan_id":"free"},{"bike_id":"4ea8231e-fb71-42ba-a9c6-6b5035e46a7e","system_id":"levelo_inurba_marseille","lat":43.29532,"lon":5.3752,"is_reserved":false,"is_disabled":false,"rental_uris":{"android":"levelo://app?vid=4ea8231e-fb71-42ba-a9c6-6b5035e46a7e","ios":"levelo://app?vid=4ea8231e-fb71-42ba-a9c6-6b5035e46a7e"},"vehicle_type_id":"4","last_reported":1694286259,"current_range_meters":0,"station_id":"ce4bgkp2rcd13ifvqbmg","pricing_plan_id":"free"},{"bike_id":"953526f1-e089-4281-a9bb-c52515396115","system_id":"levelo_inurba_marseille","lat":43.299832,"lon":5.385028,"is_reserved":false,"is_disabled":false,"rental_uris":{"android":"levelo://app?vid=953526f1-e089-4281-a9bb-c52515396115","ios":"levelo://app?vid=953526f1-e089-4281-a9bb-c52515396115"},"vehicle_type_id":"4","last_reported":1694286259,"current_range_meters":0,"station_id":"ce4bgj92rcd13ifvqbd0","pricing_plan_id":"free"},{"bike_id":"9988ecdc-7354-4d4d-b55d-b3aa41c62d4c","system_id":"levelo_inurba_marseille","lat":43.299743,"lon":5.384916,"is_reserved":false,"is_disabled":false,"rental_uris":{"android":"levelo://app?vid=9988ecdc-7354-4d4d-b55d-b3aa41c62d4c","ios":"levelo://app?vid=9988ecdc-7354-4d4d-b55d-b3aa41c62d4c"},"vehicle_type_id":"4","last_reported":1694286259,"current_range_meters":18400,"station_id":"ce4bgj92rcd13ifvqbd0","pricing_plan_id":"free"},{"bike_id":"12475378-a97c-418e-a402-927a057ccd16","system_id":"levelo_inurba_marseille","lat":43.29968,"lon":5.385,"is_reserved":false,"is_disabled":false,"rental_uris":{"android":"levelo://app?vid=12475378-a97c-418e-a402-927a057ccd16","ios":"levelo://app?vid=12475378-a97c-418e-a402-927a057ccd16"},"vehicle_type_id":"4","last_reported":1694286259,"current_range_meters":30800,"station_id":"ce4bgj92rcd13ifvqbd0","pricing_plan_id":"free"},{"bike_id":"a8928525-4e5a-4369-bedc-dabef853fea1","system_id":"levelo_inurba_marseille","lat":43.295279,"lon":5.375048,"is_reserved":false,"is_disabled":false,"rental_uris":{"android":"levelo://app?vid=a8928525-4e5a-4369-bedc-dabef853fea1","ios":"levelo://app?vid=a8928525-4e5a-4369-bedc-dabef853fea1"},"vehicle_type_id":"4","last_reported":1694286259,"current_range_meters":0,"station_id":"ce4bgkp2rcd13ifvqbmg","pricing_plan_id":"free"},{"bike_id":"0d3efff9-0936-4546-977d-d65acb8b6b4b","system_id":"levelo_inurba_marseille","lat":43.3236,"lon":5.38892,"is_reserved":false,"is_disabled":false,"rental_uris":{"android":"levelo://app?vid=0d3efff9-0936-4546-977d-d65acb8b6b4b","ios":"levelo://app?vid=0d3efff9-0936-4546-977d-d65acb8b6b4b"},"vehicle_type_id":"4","last_reported":1694286259,"current_range_meters":15200,"station_id":"ce4bhqp2rcd13ifvqhog","pricing_plan_id":"free"},{"bike_id":"1edf12e1-214a-4c50-a9b5-385999275f19","system_id":"levelo_inurba_marseille","lat":43.29601,"lon":5.381084,"is_reserved":false,"is_disabled":false,"rental_uris":{"android":"levelo://app?vid=1edf12e1-214a-4c50-a9b5-385999275f19","ios":"levelo://app?vid=1edf12e1-214a-4c50-a9b5-385999275f19"},"vehicle_type_id":"4","last_reported":1694286259,"current_range_meters":15200,"station_id":"ce4bgl12rcd13ifvqbo0","pricing_plan_id":"free"},{"bike_id":"ede97b7e-7a97-4f6d-a8cb-cf5b8e2db4aa","system_id":"levelo_inurba_marseille","lat":43.29601,"lon":5.381084,"is_reserved":false,"is_disabled":false,"rental_uris":{"android":"levelo://app?vid=ede97b7e-7a97-4f6d-a8cb-cf5b8e2db4aa","ios":"levelo://app?vid=ede97b7e-7a97-4f6d-a8cb-cf5b8e2db4aa"},"vehicle_type_id":"4","last_reported":1694286259,"current_range_meters":4800,"station_id":"ce4bgl12rcd13ifvqbo0","pricing_plan_id":"free"},{"bike_id":"163923d1-ca51-42bf-977a-b0b5e4d9f4d1","system_id":"levelo_inurba_marseille","lat":43.29306,"lon":5.37172,"is_reserved":false,"is_disabled":false,"rental_uris":{"android":"levelo://app?vid=163923d1-ca51-42bf-977a-b0b5e4d9f4d1","ios":"levelo://app?vid=163923d1-ca51-42bf-977a-b0b5e4d9f4d1"},"vehicle_type_id":"4","last_reported":1694286259,"current_range_meters":8400,"station_id":"ce4bgh92rcd13ifvqb40","pricing_plan_id":"free"},{"bike_id":"b7049752-8acf-4a2c-a428-18381381b3e4","system_id":"levelo_inurba_marseille","lat":43.29305,"lon":5.371761,"is_reserved":false,"is_disabled":false,"rental_uris":{"android":"levelo://app?vid=b7049752-8acf-4a2c-a428-18381381b3e4","ios":"levelo://app?vid=b7049752-8acf-4a2c-a428-18381381b3e4"},"vehicle_type_id":"4","last_reported":1694286259,"current_range_meters":0,"station_id":"ce4bgh92rcd13ifvqb40","pricing_plan_id":"free"},{"bike_id":"7b881505-824c-4061-909c-957975dabef5","system_id":"levelo_inurba_marseille","lat":43.29303,"lon":5.3718,"is_reserved":false,"is_disabled":false,"rental_uris":{"android":"levelo://app?vid=7b881505-824c-4061-909c-957975dabef5","ios":"levelo://app?vid=7b881505-824c-4061-909c-957975dabef5"},"vehicle_type_id":"4","last_reported":1694286259,"current_range_meters":5600,"station_id":"ce4bgh92rcd13ifvqb40","pricing_plan_id":"free"},{"bike_id":"50701d29-59fb-4a9f-bf52-ea9c6371aecc","system_id":"levelo_inurba_marseille","lat":43.293009,"lon":5.374584,"is_reserved":false,"is_disabled":false,"rental_uris":{"android":"levelo://app?vid=50701d29-59fb-4a9f-bf52-ea9c6371aecc","ios":"levelo://app?vid=50701d29-59fb-4a9f-bf52-ea9c6371aecc"},"vehicle_type_id":"4","last_reported":1694286259,"current_range_meters":22800,"station_id":"ce4bgi12rcd13ifvqb70","pricing_plan_id":"free"},{"bike_id":"8d17af82-8b73-491f-babc-7bacb26b111e","system_id":"levelo_inurba_marseille","lat":43.293009,"lon":5.374584,"is_reserved":false,"is_disabled":false,"rental_uris":{"android":"levelo://app?vid=8d17af82-8b73-491f-babc-7bacb26b111e","ios":"levelo://app?vid=8d17af82-8b73-491f-babc-7bacb26b111e"},"vehicle_type_id":"4","last_reported":1694286259,"current_range_meters":16000,"station_id":"ce4bgi12rcd13ifvqb70","pricing_plan_id":"free"},{"bike_id":"b02a2267-5bea-4b66-869e-78892a84c32b","system_id":"levelo_inurba_marseille","lat":43.30595,"lon":5.39355,"is_reserved":false,"is_disabled":false,"rental_uris":{"android":"levelo://app?vid=b02a2267-5bea-4b66-869e-78892a84c32b","ios":"levelo://app?vid=b02a2267-5bea-4b66-869e-78892a84c32b"},"vehicle_type_id":"4","last_reported":1694286259,"current_range_meters":17600,"station_id":"ce4bh0p2rcd13ifvqd80","pricing_plan_id":"free"},{"bike_id":"736a4e7d-9858-4019-a260-6aa3bc87f556","system_id":"levelo_inurba_marseille","lat":43.293009,"lon":5.374584,"is_reserved":false,"is_disabled":false,"rental_uris":{"android":"levelo://app?vid=736a4e7d-9858-4019-a260-6aa3bc87f556","ios":"levelo://app?vid=736a4e7d-9858-4019-a260-6aa3bc87f556"},"vehicle_type_id":"4","last_reported":1694286259,"current_range_meters":16400,"station_id":"ce4bgi12rcd13ifvqb70","pricing_plan_id":"free"},{"bike_id":"4b569fc6-b320-4ef6-8228-0ce49763334f","system_id":"levelo_inurba_marseille","lat":43.30306,"lon":5.39205,"is_reserved":false,"is_disabled":false,"rental_uris":{"android":"levelo://app?vid=4b569fc6-b320-4ef6-8228-0ce49763334f","ios":"levelo://app?vid=4b569fc6-b320-4ef6-8228-0ce49763334f"},"vehicle_type_id":"4","last_reported":1694286259,"current_range_meters":28000,"station_id":"ce4bgkh2rcd13ifvqbk0","pricing_plan_id":"free"},{"bike_id":"38fef587-7cc5-4800-b069-87b8f296a10a","system_id":"levelo_inurba_marseille","lat":43.30304,"lon":5.39216,"is_reserved":false,"is_disabled":false,"rental_uris":{"android":"levelo://app?vid=38fef587-7cc5-4800-b069-87b8f296a10a","ios":"levelo://app?vid=38fef587-7cc5-4800-b069-87b8f296a10a"},"vehicle_type_id":"4","last_reported":1694286259,"current_range_meters":27200,"station_id":"ce4bgkh2rcd13ifvqbk0","pricing_plan_id":"free"},{"bike_id":"59d4a7cc-c4d8-47e1-a63f-2e26b5d209c3","system_id":"levelo_inurba_marseille","lat":43.2936,"lon":5.37835,"is_reserved":false,"is_disabled":false,"rental_uris":{"android":"levelo://app?vid=59d4a7cc-c4d8-47e1-a63f-2e26b5d209c3","ios":"levelo://app?vid=59d4a7cc-c4d8-47e1-a63f-2e26b5d209c3"},"vehicle_type_id":"4","last_reported":1694286259,"current_range_meters":30800,"station_id":"ce4bgjh2rcd13ifvqbf0","pricing_plan_id":"free"},{"bike_id":"bdd63a08-13e6-4c8f-af8d-f58f5a81ab99","system_id":"levelo_inurba_marseille","lat":43.31129,"lon":5.39552,"is_reserved":false,"is_disabled":false,"rental_uris":{"android":"levelo://app?vid=bdd63a08-13e6-4c8f-af8d-f58f5a81ab99","ios":"levelo://app?vid=bdd63a08-13e6-4c8f-af8d-f58f5a81ab99"},"vehicle_type_id":"4","last_reported":1694286259,"current_range_meters":30000,"station_id":"","pricing_plan_id":"free"},{"bike_id":"b5ac9604-31dd-4f72-8d4a-75021db6e0fe","system_id":"levelo_inurba_marseille","lat":43.292311,"lon":5.360731,"is_reserved":false,"is_disabled":false,"rental_uris":{"android":"levelo://app?vid=b5ac9604-31dd-4f72-8d4a-75021db6e0fe","ios":"levelo://app?vid=b5ac9604-31dd-4f72-8d4a-75021db6e0fe"},"vehicle_type_id":"4","last_reported":1694286259,"current_range_meters":2400,"station_id":"ce4bhbh2rcd13ifvqeqg","pricing_plan_id":"free"},{"bike_id":"ad1d97f1-4ab9-4a8c-b70d-9259942db9f0","system_id":"levelo_inurba_marseille","lat":43.300852,"lon":5.390859,"is_reserved":false,"is_disabled":false,"rental_uris":{"android":"levelo://app?vid=ad1d97f1-4ab9-4a8c-b70d-9259942db9f0","ios":"levelo://app?vid=ad1d97f1-4ab9-4a8c-b70d-9259942db9f0"},"vehicle_type_id":"4","last_reported":1694286259,"current_range_meters":0,"station_id":"ce4bh192rcd13ifvqdb0","pricing_plan_id":"free"},{"bike_id":"e6421d04-fa56-456b-9e33-899afab1a330","system_id":"levelo_inurba_marseille","lat":43.32657,"lon":5.38866,"is_reserved":false,"is_disabled":false,"rental_uris":{"android":"levelo://app?vid=e6421d04-fa56-456b-9e33-899afab1a330","ios":"levelo://app?vid=e6421d04-fa56-456b-9e33-899afab1a330"},"vehicle_type_id":"4","last_reported":1694286259,"current_range_meters":12800,"station_id":"","pricing_plan_id":"free"},{"bike_id":"9bbc1d96-58ef-49d1-b86c-e8295ad01e3f","system_id":"levelo_inurba_marseille","lat":43.292311,"lon":5.360731,"is_reserved":false,"is_disabled":false,"rental_uris":{"android":"levelo://app?vid=9bbc1d96-58ef-49d1-b86c-e8295ad01e3f","ios":"levelo://app?vid=9bbc1d96-58ef-49d1-b86c-e8295ad01e3f"},"vehicle_type_id":"4","last_reported":1694286259,"current_range_meters":4800,"station_id":"ce4bhbh2rcd13ifvqeqg","pricing_plan_id":"free"},{"bike_id":"a35eaef9-897d-4727-99e8-03c098486b98","system_id":"levelo_inurba_marseille","lat":43.30085,"lon":5.390856,"is_reserved":false,"is_disabled":false,"rental_uris":{"android":"levelo://app?vid=a35eaef9-897d-4727-99e8-03c098486b98","ios":"levelo://app?vid=a35eaef9-897d-4727-99e8-03c098486b98"},"vehicle_type_id":"4","last_reported":1694286259,"current_range_meters":8800,"station_id":"ce4bh192rcd13ifvqdb0","pricing_plan_id":"free"},{"bike_id":"7ee994a3-64cb-4f5a-9dce-62fc2538eb23","system_id":"levelo_inurba_marseille","lat":43.29219,"lon":5.36048,"is_reserved":false,"is_disabled":false,"rental_uris":{"android":"levelo://app?vid=7ee994a3-64cb-4f5a-9dce-62fc2538eb23","ios":"levelo://app?vid=7ee994a3-64cb-4f5a-9dce-62fc2538eb23"},"vehicle_type_id":"4","last_reported":1694286259,"current_range_meters":0,"station_id":"ce4bhbh2rcd13ifvqeqg","pricing_plan_id":"free"},{"bike_id":"b6049fc4-5f75-4146-8b53-fc7248abc847","system_id":"levelo_inurba_marseille","lat":43.29888,"lon":5.38909,"is_reserved":false,"is_disabled":false,"rental_uris":{"android":"levelo://app?vid=b6049fc4-5f75-4146-8b53-fc7248abc847","ios":"levelo://app?vid=b6049fc4-5f75-4146-8b53-fc7248abc847"},"vehicle_type_id":"4","last_reported":1694286259,"current_range_meters":29200,"station_id":"ce4bh392rcd13ifvqdl0","pricing_plan_id":"free"},{"bike_id":"9ed852a0-6c0b-4196-b1d1-8f3cf175e8ec","system_id":"levelo_inurba_marseille","lat":43.298764,"lon":5.388973,"is_reserved":false,"is_disabled":false,"rental_uris":{"android":"levelo://app?vid=9ed852a0-6c0b-4196-b1d1-8f3cf175e8ec","ios":"levelo://app?vid=9ed852a0-6c0b-4196-b1d1-8f3cf175e8ec"},"vehicle_type_id":"4","last_reported":1694286259,"current_range_meters":17200,"station_id":"ce4bh392rcd13ifvqdl0","pricing_plan_id":"free"},{"bike_id":"ec8ca2f7-c557-409e-832b-1382030dacfd","system_id":"levelo_inurba_marseille","lat":43.291675,"lon":5.371583,"is_reserved":false,"is_disabled":false,"rental_uris":{"android":"levelo://app?vid=ec8ca2f7-c557-409e-832b-1382030dacfd","ios":"levelo://app?vid=ec8ca2f7-c557-409e-832b-1382030dacfd"},"vehicle_type_id":"4","last_reported":1694286259,"current_range_meters":18400,"station_id":"ce4bha92rcd13ifvqeh0","pricing_plan_id":"free"},{"bike_id":"16c33705-80ab-482c-a400-ba77b3f16114","system_id":"levelo_inurba_marseille","lat":43.309038,"lon":5.396546,"is_reserved":false,"is_disabled":false,"rental_uris":{"android":"levelo://app?vid=16c33705-80ab-482c-a400-ba77b3f16114","ios":"levelo://app?vid=16c33705-80ab-482c-a400-ba77b3f16114"},"vehicle_type_id":"4","last_reported":1694286259,"current_range_meters":5200,"station_id":"ce4bh012rcd13ifvqcv0","pricing_plan_id":"free"},{"bike_id":"f232bbd6-1ddf-44b6-989c-99fccff4829a","system_id":"levelo_inurba_marseille","lat":43.31331,"lon":5.39691,"is_reserved":false,"is_disabled":false,"rental_uris":{"android":"levelo://app?vid=f232bbd6-1ddf-44b6-989c-99fccff4829a","ios":"levelo://app?vid=f232bbd6-1ddf-44b6-989c-99fccff4829a"},"vehicle_type_id":"4","last_reported":1694286259,"current_range_meters":12000,"station_id":"ce4bgvp2rcd13ifvqcu0","pricing_plan_id":"free"},{"bike_id":"bf3958ce-f0fa-4fce-b55d-a3d9938a50df","system_id":"levelo_inurba_marseille","lat":43.313291,"lon":5.396838,"is_reserved":false,"is_disabled":false,"rental_uris":{"android":"levelo://app?vid=bf3958ce-f0fa-4fce-b55d-a3d9938a50df","ios":"levelo://app?vid=bf3958ce-f0fa-4fce-b55d-a3d9938a50df"},"vehicle_type_id":"4","last_reported":1694286259,"current_range_meters":24800,"station_id":"ce4bgvp2rcd13ifvqcu0","pricing_plan_id":"free"},{"bike_id":"8753d265-fd52-4ba1-ae3a-67ba84bddc9d","system_id":"levelo_inurba_marseille","lat":43.30765,"lon":5.39618,"is_reserved":false,"is_disabled":false,"rental_uris":{"android":"levelo://app?vid=8753d265-fd52-4ba1-ae3a-67ba84bddc9d","ios":"levelo://app?vid=8753d265-fd52-4ba1-ae3a-67ba84bddc9d"},"vehicle_type_id":"4","last_reported":1694286259,"current_range_meters":12000,"station_id":"","pricing_plan_id":"free"},{"bike_id":"75fec453-8d23-4200-a4f7-bd9da0267ca8","system_id":"levelo_inurba_marseille","lat":43.30848,"lon":5.39656,"is_reserved":false,"is_disabled":false,"rental_uris":{"android":"levelo://app?vid=75fec453-8d23-4200-a4f7-bd9da0267ca8","ios":"levelo://app?vid=75fec453-8d23-4200-a4f7-bd9da0267ca8"},"vehicle_type_id":"4","last_reported":1694286259,"current_range_meters":0,"station_id":"","pricing_plan_id":"free"},{"bike_id":"3a705c21-0961-47fb-a2dd-e454f4d327fe","system_id":"levelo_inurba_marseille","lat":43.29529,"lon":5.385581,"is_reserved":false,"is_disabled":false,"rental_uris":{"android":"levelo://app?vid=3a705c21-0961-47fb-a2dd-e454f4d327fe","ios":"levelo://app?vid=3a705c21-0961-47fb-a2dd-e454f4d327fe"},"vehicle_type_id":"4","last_reported":1694286259,"current_range_meters":5200,"station_id":"ce4bgih2rcd13ifvqba0","pricing_plan_id":"free"},{"bike_id":"34066af8-7c84-4faa-b065-8d9d35c0a549","system_id":"levelo_inurba_marseille","lat":43.29524,"lon":5.3854,"is_reserved":false,"is_disabled":false,"rental_uris":{"android":"levelo://app?vid=34066af8-7c84-4faa-b065-8d9d35c0a549","ios":"levelo://app?vid=34066af8-7c84-4faa-b065-8d9d35c0a549"},"vehicle_type_id":"4","last_reported":1694286259,"current_range_meters":16000,"station_id":"ce4bgih2rcd13ifvqba0","pricing_plan_id":"free"},{"bike_id":"92c001f1-c0e6-4e9e-8032-8b77f0f26f2f","system_id":"levelo_inurba_marseille","lat":43.29529,"lon":5.385581,"is_reserved":false,"is_disabled":false,"rental_uris":{"android":"levelo://app?vid=92c001f1-c0e6-4e9e-8032-8b77f0f26f2f","ios":"levelo://app?vid=92c001f1-c0e6-4e9e-8032-8b77f0f26f2f"},"vehicle_type_id":"4","last_reported":1694286259,"current_range_meters":18000,"station_id":"ce4bgih2rcd13ifvqba0","pricing_plan_id":"free"},{"bike_id":"f4724780-f8a0-4e75-bc61-842f1df2ccd5","system_id":"levelo_inurba_marseille","lat":43.29421,"lon":5.3862,"is_reserved":false,"is_disabled":false,"rental_uris":{"android":"levelo://app?vid=f4724780-f8a0-4e75-bc61-842f1df2ccd5","ios":"levelo://app?vid=f4724780-f8a0-4e75-bc61-842f1df2ccd5"},"vehicle_type_id":"4","last_reported":1694286259,"current_range_meters":26400,"station_id":"ce4bh2h2rcd13ifvqdh0","pricing_plan_id":"free"},{"bike_id":"6eb65141-a7fe-4c11-9ea6-75d1dfba3eec","system_id":"levelo_inurba_marseille","lat":43.294153,"lon":5.386305,"is_reserved":false,"is_disabled":false,"rental_uris":{"android":"levelo://app?vid=6eb65141-a7fe-4c11-9ea6-75d1dfba3eec","ios":"levelo://app?vid=6eb65141-a7fe-4c11-9ea6-75d1dfba3eec"},"vehicle_type_id":"4","last_reported":1694286259,"current_range_meters":6400,"station_id":"ce4bh2h2rcd13ifvqdh0","pricing_plan_id":"free"},{"bike_id":"52baf005-76cc-4555-80d6-da1cc3743196","system_id":"levelo_inurba_marseille","lat":43.294153,"lon":5.386305,"is_reserved":false,"is_disabled":false,"rental_uris":{"android":"levelo://app?vid=52baf005-76cc-4555-80d6-da1cc3743196","ios":"levelo://app?vid=52baf005-76cc-4555-80d6-da1cc3743196"},"vehicle_type_id":"4","last_reported":1694286259,"current_range_meters":7200,"station_id":"ce4bh2h2rcd13ifvqdh0","pricing_plan_id":"free"},{"bike_id":"8e57281d-3278-4d8c-b87d-0206162d60a3","system_id":"levelo_inurba_marseille","lat":43.29418,"lon":5.38623,"is_reserved":false,"is_disabled":false,"rental_uris":{"android":"levelo://app?vid=8e57281d-3278-4d8c-b87d-0206162d60a3","ios":"levelo://app?vid=8e57281d-3278-4d8c-b87d-0206162d60a3"},"vehicle_type_id":"4","last_reported":1694286259,"current_range_meters":11200,"station_id":"","pricing_plan_id":"free"},{"bike_id":"1d007f7e-ca4e-4b0b-b01b-816b2523121b","system_id":"levelo_inurba_marseille","lat":43.29418,"lon":5.38623,"is_reserved":false,"is_disabled":false,"rental_uris":{"android":"levelo://app?vid=1d007f7e-ca4e-4b0b-b01b-816b2523121b","ios":"levelo://app?vid=1d007f7e-ca4e-4b0b-b01b-816b2523121b"},"vehicle_type_id":"4","last_reported":1694286259,"current_range_meters":11600,"station_id":"ce4bh2h2rcd13ifvqdh0","pricing_plan_id":"free"},{"bike_id":"3b524c34-642c-4626-ba33-4a76bef50c8e","system_id":"levelo_inurba_marseille","lat":43.29418,"lon":5.38626,"is_reserved":false,"is_disabled":false,"rental_uris":{"android":"levelo://app?vid=3b524c34-642c-4626-ba33-4a76bef50c8e","ios":"levelo://app?vid=3b524c34-642c-4626-ba33-4a76bef50c8e"},"vehicle_type_id":"4","last_reported":1694286259,"current_range_meters":0,"station_id":"ce4bh2h2rcd13ifvqdh0","pricing_plan_id":"free"},{"bike_id":"2c385588-2d6c-4a27-a259-1ca51ca10828","system_id":"levelo_inurba_marseille","lat":43.294162,"lon":5.386292,"is_reserved":false,"is_disabled":false,"rental_uris":{"android":"levelo://app?vid=2c385588-2d6c-4a27-a259-1ca51ca10828","ios":"levelo://app?vid=2c385588-2d6c-4a27-a259-1ca51ca10828"},"vehicle_type_id":"4","last_reported":1694286259,"current_range_meters":25600,"station_id":"ce4bh2h2rcd13ifvqdh0","pricing_plan_id":"free"},{"bike_id":"2f93318d-a393-4e93-88c9-60d3ec241b0e","system_id":"levelo_inurba_marseille","lat":43.289184,"lon":5.366408,"is_reserved":false,"is_disabled":false,"rental_uris":{"android":"levelo://app?vid=2f93318d-a393-4e93-88c9-60d3ec241b0e","ios":"levelo://app?vid=2f93318d-a393-4e93-88c9-60d3ec241b0e"},"vehicle_type_id":"4","last_reported":1694286259,"current_range_meters":30400,"station_id":"ce4bhap2rcd13ifvqek0","pricing_plan_id":"free"},{"bike_id":"9fb67c01-fd01-43c3-af0b-108d63fad010","system_id":"levelo_inurba_marseille","lat":43.289468,"lon":5.363719,"is_reserved":false,"is_disabled":false,"rental_uris":{"android":"levelo://app?vid=9fb67c01-fd01-43c3-af0b-108d63fad010","ios":"levelo://app?vid=9fb67c01-fd01-43c3-af0b-108d63fad010"},"vehicle_type_id":"4","last_reported":1694286259,"current_range_meters":1200,"station_id":"ce4bhc92rcd13ifvqetg","pricing_plan_id":"free"},{"bike_id":"a6dc7c04-c9fd-4ce0-9c8e-efb3298b95ff","system_id":"levelo_inurba_marseille","lat":43.31608,"lon":5.39883,"is_reserved":false,"is_disabled":false,"rental_uris":{"android":"levelo://app?vid=a6dc7c04-c9fd-4ce0-9c8e-efb3298b95ff","ios":"levelo://app?vid=a6dc7c04-c9fd-4ce0-9c8e-efb3298b95ff"},"vehicle_type_id":"4","last_reported":1694286259,"current_range_meters":20400,"station_id":"","pricing_plan_id":"free"},{"bike_id":"9290d953-cae0-452f-90cb-d7b5fead855b","system_id":"levelo_inurba_marseille","lat":43.292644,"lon":5.384257,"is_reserved":false,"is_disabled":false,"rental_uris":{"android":"levelo://app?vid=9290d953-cae0-452f-90cb-d7b5fead855b","ios":"levelo://app?vid=9290d953-cae0-452f-90cb-d7b5fead855b"},"vehicle_type_id":"4","last_reported":1694286259,"current_range_meters":7200,"station_id":"ce4bh692rcd13ifvqea0","pricing_plan_id":"free"},{"bike_id":"0f2f6350-074b-40c2-87f7-78db75e05023","system_id":"levelo_inurba_marseille","lat":43.292644,"lon":5.384257,"is_reserved":false,"is_disabled":false,"rental_uris":{"android":"levelo://app?vid=0f2f6350-074b-40c2-87f7-78db75e05023","ios":"levelo://app?vid=0f2f6350-074b-40c2-87f7-78db75e05023"},"vehicle_type_id":"4","last_reported":1694286259,"current_range_meters":2000,"station_id":"ce4bh692rcd13ifvqea0","pricing_plan_id":"free"},{"bike_id":"3f5f7844-5f93-480e-9b24-e1f1f1fd3257","system_id":"levelo_inurba_marseille","lat":43.292644,"lon":5.384257,"is_reserved":false,"is_disabled":false,"rental_uris":{"android":"levelo://app?vid=3f5f7844-5f93-480e-9b24-e1f1f1fd3257","ios":"levelo://app?vid=3f5f7844-5f93-480e-9b24-e1f1f1fd3257"},"vehicle_type_id":"4","last_reported":1694286259,"current_range_meters":13600,"station_id":"ce4bh692rcd13ifvqea0","pricing_plan_id":"free"},{"bike_id":"3501a6eb-fe1b-4fe7-99da-7052ab3c1db4","system_id":"levelo_inurba_marseille","lat":43.292642,"lon":5.384254,"is_reserved":false,"is_disabled":false,"rental_uris":{"android":"levelo://app?vid=3501a6eb-fe1b-4fe7-99da-7052ab3c1db4","ios":"levelo://app?vid=3501a6eb-fe1b-4fe7-99da-7052ab3c1db4"},"vehicle_type_id":"4","last_reported":1694286259,"current_range_meters":10000,"station_id":"ce4bh692rcd13ifvqea0","pricing_plan_id":"free"},{"bike_id":"07926da2-175d-4470-9b22-b51d56a75039","system_id":"levelo_inurba_marseille","lat":43.33047,"lon":5.38909,"is_reserved":false,"is_disabled":false,"rental_uris":{"android":"levelo://app?vid=07926da2-175d-4470-9b22-b51d56a75039","ios":"levelo://app?vid=07926da2-175d-4470-9b22-b51d56a75039"},"vehicle_type_id":"4","last_reported":1694286259,"current_range_meters":29600,"station_id":"ce4bhr92rcd13ifvqhrg","pricing_plan_id":"free"},{"bike_id":"028b16b4-c861-455c-93e2-214442c48086","system_id":"levelo_inurba_marseille","lat":43.290104,"lon":5.356111,"is_reserved":false,"is_disabled":false,"rental_uris":{"android":"levelo://app?vid=028b16b4-c861-455c-93e2-214442c48086","ios":"levelo://app?vid=028b16b4-c861-455c-93e2-214442c48086"},"vehicle_type_id":"4","last_reported":1694286259,"current_range_meters":28800,"station_id":"ce4bhb92rcd13ifvqen0","pricing_plan_id":"free"},{"bike_id":"ed04e690-8396-47da-a7b2-985ea838897d","system_id":"levelo_inurba_marseille","lat":43.33054,"lon":5.38917,"is_reserved":false,"is_disabled":false,"rental_uris":{"android":"levelo://app?vid=ed04e690-8396-47da-a7b2-985ea838897d","ios":"levelo://app?vid=ed04e690-8396-47da-a7b2-985ea838897d"},"vehicle_type_id":"4","last_reported":1694286259,"current_range_meters":31200,"station_id":"ce4bhr92rcd13ifvqhrg","pricing_plan_id":"free"},{"bike_id":"ea4f18ff-b9a3-47f3-918f-4200cb4e60c7","system_id":"levelo_inurba_marseille","lat":43.290995,"lon":5.381361,"is_reserved":false,"is_disabled":false,"rental_uris":{"android":"levelo://app?vid=ea4f18ff-b9a3-47f3-918f-4200cb4e60c7","ios":"levelo://app?vid=ea4f18ff-b9a3-47f3-918f-4200cb4e60c7"},"vehicle_type_id":"4","last_reported":1694286259,"current_range_meters":0,"station_id":"ce4bh512rcd13ifvqe2g","pricing_plan_id":"free"},{"bike_id":"caf057b6-5c89-492d-afe5-3b9a3fbbfdfb","system_id":"levelo_inurba_marseille","lat":43.2902,"lon":5.3548,"is_reserved":false,"is_disabled":false,"rental_uris":{"android":"levelo://app?vid=caf057b6-5c89-492d-afe5-3b9a3fbbfdfb","ios":"levelo://app?vid=caf057b6-5c89-492d-afe5-3b9a3fbbfdfb"},"vehicle_type_id":"4","last_reported":1694286259,"current_range_meters":800,"station_id":"","pricing_plan_id":"free"},{"bike_id":"937cf12a-3c0f-420f-a5e9-a4f577a99c19","system_id":"levelo_inurba_marseille","lat":43.295169,"lon":5.390426,"is_reserved":false,"is_disabled":false,"rental_uris":{"android":"levelo://app?vid=937cf12a-3c0f-420f-a5e9-a4f577a99c19","ios":"levelo://app?vid=937cf12a-3c0f-420f-a5e9-a4f577a99c19"},"vehicle_type_id":"4","last_reported":1694286259,"current_range_meters":19200,"station_id":"ce4bh3p2rcd13ifvqdp0","pricing_plan_id":"free"},{"bike_id":"4fc8ce6c-57f6-4091-8d37-095ddc11278d","system_id":"levelo_inurba_marseille","lat":43.28979,"lon":5.35488,"is_reserved":false,"is_disabled":false,"rental_uris":{"android":"levelo://app?vid=4fc8ce6c-57f6-4091-8d37-095ddc11278d","ios":"levelo://app?vid=4fc8ce6c-57f6-4091-8d37-095ddc11278d"},"vehicle_type_id":"4","last_reported":1694286259,"current_range_meters":2000,"station_id":"","pricing_plan_id":"free"},{"bike_id":"0dec3d28-e43b-47b2-a867-c352bf9eb8af","system_id":"levelo_inurba_marseille","lat":43.28856,"lon":5.358371,"is_reserved":false,"is_disabled":false,"rental_uris":{"android":"levelo://app?vid=0dec3d28-e43b-47b2-a867-c352bf9eb8af","ios":"levelo://app?vid=0dec3d28-e43b-47b2-a867-c352bf9eb8af"},"vehicle_type_id":"4","last_reported":1694286259,"current_range_meters":20800,"station_id":"ce4bhb12rcd13ifvqem0","pricing_plan_id":"free"},{"bike_id":"5c9a2fb1-e650-4eba-852b-b79d96e33934","system_id":"levelo_inurba_marseille","lat":43.29544,"lon":5.39169,"is_reserved":false,"is_disabled":false,"rental_uris":{"android":"levelo://app?vid=5c9a2fb1-e650-4eba-852b-b79d96e33934","ios":"levelo://app?vid=5c9a2fb1-e650-4eba-852b-b79d96e33934"},"vehicle_type_id":"4","last_reported":1694286259,"current_range_meters":0,"station_id":"","pricing_plan_id":"free"},{"bike_id":"a4088833-1f2c-4a54-90b7-666ebcb138da","system_id":"levelo_inurba_marseille","lat":43.33747,"lon":5.3746,"is_reserved":false,"is_disabled":false,"rental_uris":{"android":"levelo://app?vid=a4088833-1f2c-4a54-90b7-666ebcb138da","ios":"levelo://app?vid=a4088833-1f2c-4a54-90b7-666ebcb138da"},"vehicle_type_id":"4","last_reported":1694286259,"current_range_meters":27600,"station_id":"","pricing_plan_id":"free"},{"bike_id":"a0cbd14d-baca-4133-941f-a883646ebdf5","system_id":"levelo_inurba_marseille","lat":43.309371,"lon":5.401449,"is_reserved":false,"is_disabled":false,"rental_uris":{"android":"levelo://app?vid=a0cbd14d-baca-4133-941f-a883646ebdf5","ios":"levelo://app?vid=a0cbd14d-baca-4133-941f-a883646ebdf5"},"vehicle_type_id":"4","last_reported":1694286259,"current_range_meters":0,"station_id":"ce4bgvp2rcd13ifvqct0","pricing_plan_id":"free"},{"bike_id":"49964a67-ff52-49cb-9c51-99ca05e609c3","system_id":"levelo_inurba_marseille","lat":43.30925,"lon":5.40147,"is_reserved":false,"is_disabled":false,"rental_uris":{"android":"levelo://app?vid=49964a67-ff52-49cb-9c51-99ca05e609c3","ios":"levelo://app?vid=49964a67-ff52-49cb-9c51-99ca05e609c3"},"vehicle_type_id":"4","last_reported":1694286259,"current_range_meters":16800,"station_id":"ce4bgvp2rcd13ifvqct0","pricing_plan_id":"free"},{"bike_id":"189b0f75-2f45-4214-a16f-ce3c7b2b84c4","system_id":"levelo_inurba_marseille","lat":43.33748,"lon":5.37478,"is_reserved":false,"is_disabled":false,"rental_uris":{"android":"levelo://app?vid=189b0f75-2f45-4214-a16f-ce3c7b2b84c4","ios":"levelo://app?vid=189b0f75-2f45-4214-a16f-ce3c7b2b84c4"},"vehicle_type_id":"4","last_reported":1694286259,"current_range_meters":27200,"station_id":"","pricing_plan_id":"free"},{"bike_id":"15876dc7-1b2d-4e47-9bd8-26ec45c4cbe9","system_id":"levelo_inurba_marseille","lat":43.33756,"lon":5.37439,"is_reserved":false,"is_disabled":false,"rental_uris":{"android":"levelo://app?vid=15876dc7-1b2d-4e47-9bd8-26ec45c4cbe9","ios":"levelo://app?vid=15876dc7-1b2d-4e47-9bd8-26ec45c4cbe9"},"vehicle_type_id":"4","last_reported":1694286259,"current_range_meters":30400,"station_id":"","pricing_plan_id":"free"},{"bike_id":"f2444400-46af-4f64-ad4b-258bbfa4630c","system_id":"levelo_inurba_marseille","lat":43.33776,"lon":5.35678,"is_reserved":false,"is_disabled":false,"rental_uris":{"android":"levelo://app?vid=f2444400-46af-4f64-ad4b-258bbfa4630c","ios":"levelo://app?vid=f2444400-46af-4f64-ad4b-258bbfa4630c"},"vehicle_type_id":"4","last_reported":1694286259,"current_range_meters":20800,"station_id":"","pricing_plan_id":"free"},{"bike_id":"75199276-b705-4ad7-b6a9-49aeaa84628a","system_id":"levelo_inurba_marseille","lat":43.286591,"lon":5.363346,"is_reserved":false,"is_disabled":false,"rental_uris":{"android":"levelo://app?vid=75199276-b705-4ad7-b6a9-49aeaa84628a","ios":"levelo://app?vid=75199276-b705-4ad7-b6a9-49aeaa84628a"},"vehicle_type_id":"4","last_reported":1694286259,"current_range_meters":29200,"station_id":"ce4bhah2rcd13ifvqej0","pricing_plan_id":"free"},{"bike_id":"9054d497-1b29-46c5-a3c2-31b69ca347ac","system_id":"levelo_inurba_marseille","lat":43.286593,"lon":5.363346,"is_reserved":false,"is_disabled":false,"rental_uris":{"android":"levelo://app?vid=9054d497-1b29-46c5-a3c2-31b69ca347ac","ios":"levelo://app?vid=9054d497-1b29-46c5-a3c2-31b69ca347ac"},"vehicle_type_id":"4","last_reported":1694286259,"current_range_meters":0,"station_id":"ce4bhah2rcd13ifvqej0","pricing_plan_id":"free"},{"bike_id":"2365150f-73ab-4507-aea4-76016e6109c8","system_id":"levelo_inurba_marseille","lat":43.286593,"lon":5.363346,"is_reserved":false,"is_disabled":false,"rental_uris":{"android":"levelo://app?vid=2365150f-73ab-4507-aea4-76016e6109c8","ios":"levelo://app?vid=2365150f-73ab-4507-aea4-76016e6109c8"},"vehicle_type_id":"4","last_reported":1694286259,"current_range_meters":31600,"station_id":"ce4bhah2rcd13ifvqej0","pricing_plan_id":"free"},{"bike_id":"7bcbcca0-f4c2-4f2e-8afd-05d3620c06fa","system_id":"levelo_inurba_marseille","lat":43.29029,"lon":5.38631,"is_reserved":false,"is_disabled":false,"rental_uris":{"android":"levelo://app?vid=7bcbcca0-f4c2-4f2e-8afd-05d3620c06fa","ios":"levelo://app?vid=7bcbcca0-f4c2-4f2e-8afd-05d3620c06fa"},"vehicle_type_id":"4","last_reported":1694286259,"current_range_meters":1200,"station_id":"ce4bh4p2rcd13ifvqe0g","pricing_plan_id":"free"},{"bike_id":"8cc06211-806f-4eff-ad7f-f8d9b1dc0e22","system_id":"levelo_inurba_marseille","lat":43.282744,"lon":5.350533,"is_reserved":false,"is_disabled":false,"rental_uris":{"android":"levelo://app?vid=8cc06211-806f-4eff-ad7f-f8d9b1dc0e22","ios":"levelo://app?vid=8cc06211-806f-4eff-ad7f-f8d9b1dc0e22"},"vehicle_type_id":"4","last_reported":1694286259,"current_range_meters":6400,"station_id":"ce4bhbp2rcd13ifvqerg","pricing_plan_id":"free"},{"bike_id":"0304f3c5-1d81-4c8f-b52c-032117b9aefa","system_id":"levelo_inurba_marseille","lat":43.29029,"lon":5.38653,"is_reserved":false,"is_disabled":false,"rental_uris":{"android":"levelo://app?vid=0304f3c5-1d81-4c8f-b52c-032117b9aefa","ios":"levelo://app?vid=0304f3c5-1d81-4c8f-b52c-032117b9aefa"},"vehicle_type_id":"4","last_reported":1694286259,"current_range_meters":26000,"station_id":"","pricing_plan_id":"free"},{"bike_id":"67b0d0d6-09cb-45ae-8afe-4d566f306b07","system_id":"levelo_inurba_marseille","lat":43.29019,"lon":5.38659,"is_reserved":false,"is_disabled":false,"rental_uris":{"android":"levelo://app?vid=67b0d0d6-09cb-45ae-8afe-4d566f306b07","ios":"levelo://app?vid=67b0d0d6-09cb-45ae-8afe-4d566f306b07"},"vehicle_type_id":"4","last_reported":1694286259,"current_range_meters":23600,"station_id":"","pricing_plan_id":"free"},{"bike_id":"85b98f2a-bf9f-40ee-b8a5-a30624ffd284","system_id":"levelo_inurba_marseille","lat":43.287184,"lon":5.37937,"is_reserved":false,"is_disabled":false,"rental_uris":{"android":"levelo://app?vid=85b98f2a-bf9f-40ee-b8a5-a30624ffd284","ios":"levelo://app?vid=85b98f2a-bf9f-40ee-b8a5-a30624ffd284"},"vehicle_type_id":"4","last_reported":1694286259,"current_range_meters":6800,"station_id":"ce4bh9p2rcd13ifvqec0","pricing_plan_id":"free"},{"bike_id":"ae87686d-e551-4b95-99b9-a725d43cd208","system_id":"levelo_inurba_marseille","lat":43.287184,"lon":5.37937,"is_reserved":false,"is_disabled":false,"rental_uris":{"android":"levelo://app?vid=ae87686d-e551-4b95-99b9-a725d43cd208","ios":"levelo://app?vid=ae87686d-e551-4b95-99b9-a725d43cd208"},"vehicle_type_id":"4","last_reported":1694286259,"current_range_meters":2000,"station_id":"ce4bh9p2rcd13ifvqec0","pricing_plan_id":"free"},{"bike_id":"ed7b0d4c-6d49-4692-80b1-f5b9d3c46217","system_id":"levelo_inurba_marseille","lat":43.31553,"lon":5.40393,"is_reserved":false,"is_disabled":false,"rental_uris":{"android":"levelo://app?vid=ed7b0d4c-6d49-4692-80b1-f5b9d3c46217","ios":"levelo://app?vid=ed7b0d4c-6d49-4692-80b1-f5b9d3c46217"},"vehicle_type_id":"4","last_reported":1694286259,"current_range_meters":14000,"station_id":"","pricing_plan_id":"free"},{"bike_id":"aaa1da60-2668-4bb5-8bcb-ae4777a22964","system_id":"levelo_inurba_marseille","lat":43.287184,"lon":5.37937,"is_reserved":false,"is_disabled":false,"rental_uris":{"android":"levelo://app?vid=aaa1da60-2668-4bb5-8bcb-ae4777a22964","ios":"levelo://app?vid=aaa1da60-2668-4bb5-8bcb-ae4777a22964"},"vehicle_type_id":"4","last_reported":1694286259,"current_range_meters":2000,"station_id":"ce4bh9p2rcd13ifvqec0","pricing_plan_id":"free"},{"bike_id":"d86a9b7a-513b-42a7-b83d-d97ca1edfd72","system_id":"levelo_inurba_marseille","lat":43.287184,"lon":5.37937,"is_reserved":false,"is_disabled":false,"rental_uris":{"android":"levelo://app?vid=d86a9b7a-513b-42a7-b83d-d97ca1edfd72","ios":"levelo://app?vid=d86a9b7a-513b-42a7-b83d-d97ca1edfd72"},"vehicle_type_id":"4","last_reported":1694286259,"current_range_meters":2400,"station_id":"ce4bh9p2rcd13ifvqec0","pricing_plan_id":"free"},{"bike_id":"faa1ad6a-b4ba-400c-9fe3-e17e6a49beec","system_id":"levelo_inurba_marseille","lat":43.31567,"lon":5.4043,"is_reserved":false,"is_disabled":false,"rental_uris":{"android":"levelo://app?vid=faa1ad6a-b4ba-400c-9fe3-e17e6a49beec","ios":"levelo://app?vid=faa1ad6a-b4ba-400c-9fe3-e17e6a49beec"},"vehicle_type_id":"4","last_reported":1694286259,"current_range_meters":12400,"station_id":"","pricing_plan_id":"free"},{"bike_id":"a9fd134c-3f8d-4959-9af0-690aed6f0e3f","system_id":"levelo_inurba_marseille","lat":43.31569,"lon":5.40433,"is_reserved":false,"is_disabled":false,"rental_uris":{"android":"levelo://app?vid=a9fd134c-3f8d-4959-9af0-690aed6f0e3f","ios":"levelo://app?vid=a9fd134c-3f8d-4959-9af0-690aed6f0e3f"},"vehicle_type_id":"4","last_reported":1694286259,"current_range_meters":13600,"station_id":"","pricing_plan_id":"free"},{"bike_id":"a695b3ed-408e-40c2-b486-6e4de6129ab7","system_id":"levelo_inurba_marseille","lat":43.31568,"lon":5.40434,"is_reserved":false,"is_disabled":false,"rental_uris":{"android":"levelo://app?vid=a695b3ed-408e-40c2-b486-6e4de6129ab7","ios":"levelo://app?vid=a695b3ed-408e-40c2-b486-6e4de6129ab7"},"vehicle_type_id":"4","last_reported":1694286259,"current_range_meters":4400,"station_id":"","pricing_plan_id":"free"},{"bike_id":"c7ee6255-ec8c-414e-bfaa-0ad0fa6b0106","system_id":"levelo_inurba_marseille","lat":43.3124,"lon":5.40459,"is_reserved":false,"is_disabled":false,"rental_uris":{"android":"levelo://app?vid=c7ee6255-ec8c-414e-bfaa-0ad0fa6b0106","ios":"levelo://app?vid=c7ee6255-ec8c-414e-bfaa-0ad0fa6b0106"},"vehicle_type_id":"4","last_reported":1694286259,"current_range_meters":29600,"station_id":"","pricing_plan_id":"free"},{"bike_id":"de315a58-d634-4dfa-8825-dfcf31a8daa5","system_id":"levelo_inurba_marseille","lat":43.31621,"lon":5.4044,"is_reserved":false,"is_disabled":false,"rental_uris":{"android":"levelo://app?vid=de315a58-d634-4dfa-8825-dfcf31a8daa5","ios":"levelo://app?vid=de315a58-d634-4dfa-8825-dfcf31a8daa5"},"vehicle_type_id":"4","last_reported":1694286259,"current_range_meters":27600,"station_id":"ce4bh012rcd13ifvqd00","pricing_plan_id":"free"},{"bike_id":"e49a6295-02a7-4396-9430-a13f7b0c7f2d","system_id":"levelo_inurba_marseille","lat":43.31645,"lon":5.40437,"is_reserved":false,"is_disabled":false,"rental_uris":{"android":"levelo://app?vid=e49a6295-02a7-4396-9430-a13f7b0c7f2d","ios":"levelo://app?vid=e49a6295-02a7-4396-9430-a13f7b0c7f2d"},"vehicle_type_id":"4","last_reported":1694286259,"current_range_meters":0,"station_id":"ce4bh012rcd13ifvqd00","pricing_plan_id":"free"},{"bike_id":"db2dd41a-6f18-40c1-aa21-a54f910662fb","system_id":"levelo_inurba_marseille","lat":43.31556,"lon":5.40458,"is_reserved":false,"is_disabled":false,"rental_uris":{"android":"levelo://app?vid=db2dd41a-6f18-40c1-aa21-a54f910662fb","ios":"levelo://app?vid=db2dd41a-6f18-40c1-aa21-a54f910662fb"},"vehicle_type_id":"4","last_reported":1694286259,"current_range_meters":24400,"station_id":"","pricing_plan_id":"free"},{"bike_id":"020950aa-c8c9-4493-8de2-679852ae1d23","system_id":"levelo_inurba_marseille","lat":43.31701,"lon":5.40455,"is_reserved":false,"is_disabled":false,"rental_uris":{"android":"levelo://app?vid=020950aa-c8c9-4493-8de2-679852ae1d23","ios":"levelo://app?vid=020950aa-c8c9-4493-8de2-679852ae1d23"},"vehicle_type_id":"4","last_reported":1694286259,"current_range_meters":11600,"station_id":"","pricing_plan_id":"free"},{"bike_id":"a835502d-6220-4ec0-ba9a-62577c73a993","system_id":"levelo_inurba_marseille","lat":43.29198,"lon":5.39317,"is_reserved":false,"is_disabled":false,"rental_uris":{"android":"levelo://app?vid=a835502d-6220-4ec0-ba9a-62577c73a993","ios":"levelo://app?vid=a835502d-6220-4ec0-ba9a-62577c73a993"},"vehicle_type_id":"4","last_reported":1694286259,"current_range_meters":18800,"station_id":"ce4bh192rcd13ifvqdd0","pricing_plan_id":"free"},{"bike_id":"5479be6a-f2b4-4bdd-a7c8-ab372b87ee64","system_id":"levelo_inurba_marseille","lat":43.29187,"lon":5.39318,"is_reserved":false,"is_disabled":false,"rental_uris":{"android":"levelo://app?vid=5479be6a-f2b4-4bdd-a7c8-ab372b87ee64","ios":"levelo://app?vid=5479be6a-f2b4-4bdd-a7c8-ab372b87ee64"},"vehicle_type_id":"4","last_reported":1694286259,"current_range_meters":0,"station_id":"ce4bh192rcd13ifvqdd0","pricing_plan_id":"free"},{"bike_id":"7546210e-e483-4ece-adda-59cf32a533f6","system_id":"levelo_inurba_marseille","lat":43.29192,"lon":5.39326,"is_reserved":false,"is_disabled":false,"rental_uris":{"android":"levelo://app?vid=7546210e-e483-4ece-adda-59cf32a533f6","ios":"levelo://app?vid=7546210e-e483-4ece-adda-59cf32a533f6"},"vehicle_type_id":"4","last_reported":1694286259,"current_range_meters":0,"station_id":"ce4bh192rcd13ifvqdd0","pricing_plan_id":"free"},{"bike_id":"3c085bff-b72c-4db8-ac21-51e78926ddaa","system_id":"levelo_inurba_marseille","lat":43.29198,"lon":5.39335,"is_reserved":false,"is_disabled":false,"rental_uris":{"android":"levelo://app?vid=3c085bff-b72c-4db8-ac21-51e78926ddaa","ios":"levelo://app?vid=3c085bff-b72c-4db8-ac21-51e78926ddaa"},"vehicle_type_id":"4","last_reported":1694286259,"current_range_meters":400,"station_id":"ce4bh192rcd13ifvqdd0","pricing_plan_id":"free"},{"bike_id":"dee57eae-d104-4525-b06c-4bd4479513aa","system_id":"levelo_inurba_marseille","lat":43.284538,"lon":5.358657,"is_reserved":false,"is_disabled":false,"rental_uris":{"android":"levelo://app?vid=dee57eae-d104-4525-b06c-4bd4479513aa","ios":"levelo://app?vid=dee57eae-d104-4525-b06c-4bd4479513aa"},"vehicle_type_id":"4","last_reported":1694286259,"current_range_meters":23600,"station_id":"ce4bhah2rcd13ifvqei0","pricing_plan_id":"free"},{"bike_id":"02eb6545-3f2a-4755-9960-7a588c3be22c","system_id":"levelo_inurba_marseille","lat":43.294314,"lon":5.397498,"is_reserved":false,"is_disabled":false,"rental_uris":{"android":"levelo://app?vid=02eb6545-3f2a-4755-9960-7a588c3be22c","ios":"levelo://app?vid=02eb6545-3f2a-4755-9960-7a588c3be22c"},"vehicle_type_id":"4","last_reported":1694286259,"current_range_meters":3200,"station_id":"ce4bh3h2rcd13ifvqdo0","pricing_plan_id":"free"},{"bike_id":"80d9d362-a608-47c4-80f3-15771f6e1247","system_id":"levelo_inurba_marseille","lat":43.29438,"lon":5.39754,"is_reserved":false,"is_disabled":false,"rental_uris":{"android":"levelo://app?vid=80d9d362-a608-47c4-80f3-15771f6e1247","ios":"levelo://app?vid=80d9d362-a608-47c4-80f3-15771f6e1247"},"vehicle_type_id":"4","last_reported":1694286259,"current_range_meters":4400,"station_id":"ce4bh3h2rcd13ifvqdo0","pricing_plan_id":"free"},{"bike_id":"6388def1-3a80-4c37-ba50-195f92f1c7d1","system_id":"levelo_inurba_marseille","lat":43.294314,"lon":5.397498,"is_reserved":false,"is_disabled":false,"rental_uris":{"android":"levelo://app?vid=6388def1-3a80-4c37-ba50-195f92f1c7d1","ios":"levelo://app?vid=6388def1-3a80-4c37-ba50-195f92f1c7d1"},"vehicle_type_id":"4","last_reported":1694286259,"current_range_meters":16800,"station_id":"ce4bh3h2rcd13ifvqdo0","pricing_plan_id":"free"},{"bike_id":"0ed57e53-febe-492e-a638-deeb6afeb4d7","system_id":"levelo_inurba_marseille","lat":43.30349,"lon":5.40485,"is_reserved":false,"is_disabled":false,"rental_uris":{"android":"levelo://app?vid=0ed57e53-febe-492e-a638-deeb6afeb4d7","ios":"levelo://app?vid=0ed57e53-febe-492e-a638-deeb6afeb4d7"},"vehicle_type_id":"4","last_reported":1694286259,"current_range_meters":0,"station_id":"","pricing_plan_id":"free"},{"bike_id":"20bd64d2-b142-4d20-b84b-1f87d09461ac","system_id":"levelo_inurba_marseille","lat":43.31332,"lon":5.40696,"is_reserved":false,"is_disabled":false,"rental_uris":{"android":"levelo://app?vid=20bd64d2-b142-4d20-b84b-1f87d09461ac","ios":"levelo://app?vid=20bd64d2-b142-4d20-b84b-1f87d09461ac"},"vehicle_type_id":"4","last_reported":1694286259,"current_range_meters":0,"station_id":"","pricing_plan_id":"free"},{"bike_id":"1895038e-acdb-4d35-aa35-e1291f23a30a","system_id":"levelo_inurba_marseille","lat":43.28413,"lon":5.37512,"is_reserved":false,"is_disabled":false,"rental_uris":{"android":"levelo://app?vid=1895038e-acdb-4d35-aa35-e1291f23a30a","ios":"levelo://app?vid=1895038e-acdb-4d35-aa35-e1291f23a30a"},"vehicle_type_id":"4","last_reported":1694286259,"current_range_meters":26800,"station_id":"ce4bh412rcd13ifvqds0","pricing_plan_id":"free"},{"bike_id":"49f72109-c67b-42d8-957e-0f59670e7afe","system_id":"levelo_inurba_marseille","lat":43.295713,"lon":5.399639,"is_reserved":false,"is_disabled":false,"rental_uris":{"android":"levelo://app?vid=49f72109-c67b-42d8-957e-0f59670e7afe","ios":"levelo://app?vid=49f72109-c67b-42d8-957e-0f59670e7afe"},"vehicle_type_id":"4","last_reported":1694286259,"current_range_meters":23600,"station_id":"ce4bh312rcd13ifvqdj0","pricing_plan_id":"free"},{"bike_id":"bdedd91f-7e2b-4cf9-91f7-2b1e245dd2ac","system_id":"levelo_inurba_marseille","lat":43.286595,"lon":5.386795,"is_reserved":false,"is_disabled":false,"rental_uris":{"android":"levelo://app?vid=bdedd91f-7e2b-4cf9-91f7-2b1e245dd2ac","ios":"levelo://app?vid=bdedd91f-7e2b-4cf9-91f7-2b1e245dd2ac"},"vehicle_type_id":"4","last_reported":1694286259,"current_range_meters":24800,"station_id":"ce4bh492rcd13ifvqdug","pricing_plan_id":"free"},{"bike_id":"fc0566c3-9cde-4c98-a033-74368bc9a1c3","system_id":"levelo_inurba_marseille","lat":43.286595,"lon":5.386795,"is_reserved":false,"is_disabled":false,"rental_uris":{"android":"levelo://app?vid=fc0566c3-9cde-4c98-a033-74368bc9a1c3","ios":"levelo://app?vid=fc0566c3-9cde-4c98-a033-74368bc9a1c3"},"vehicle_type_id":"4","last_reported":1694286259,"current_range_meters":4000,"station_id":"ce4bh492rcd13ifvqdug","pricing_plan_id":"free"},{"bike_id":"aec9c002-31ad-457e-8041-0a0225bfcfce","system_id":"levelo_inurba_marseille","lat":43.286595,"lon":5.386795,"is_reserved":false,"is_disabled":false,"rental_uris":{"android":"levelo://app?vid=aec9c002-31ad-457e-8041-0a0225bfcfce","ios":"levelo://app?vid=aec9c002-31ad-457e-8041-0a0225bfcfce"},"vehicle_type_id":"4","last_reported":1694286259,"current_range_meters":5600,"station_id":"ce4bh492rcd13ifvqdug","pricing_plan_id":"free"},{"bike_id":"ca6de879-83ab-4149-a6ef-3f4362389373","system_id":"levelo_inurba_marseille","lat":43.286595,"lon":5.386795,"is_reserved":false,"is_disabled":false,"rental_uris":{"android":"levelo://app?vid=ca6de879-83ab-4149-a6ef-3f4362389373","ios":"levelo://app?vid=ca6de879-83ab-4149-a6ef-3f4362389373"},"vehicle_type_id":"4","last_reported":1694286259,"current_range_meters":8800,"station_id":"ce4bh492rcd13ifvqdug","pricing_plan_id":"free"},{"bike_id":"aed3fffb-a24e-44a8-a7a4-24194517b473","system_id":"levelo_inurba_marseille","lat":43.286595,"lon":5.386795,"is_reserved":false,"is_disabled":false,"rental_uris":{"android":"levelo://app?vid=aed3fffb-a24e-44a8-a7a4-24194517b473","ios":"levelo://app?vid=aed3fffb-a24e-44a8-a7a4-24194517b473"},"vehicle_type_id":"4","last_reported":1694286259,"current_range_meters":0,"station_id":"ce4bh492rcd13ifvqdug","pricing_plan_id":"free"},{"bike_id":"b7b68b90-f9d4-4175-a8fc-efad7d655238","system_id":"levelo_inurba_marseille","lat":43.33715,"lon":5.39174,"is_reserved":false,"is_disabled":false,"rental_uris":{"android":"levelo://app?vid=b7b68b90-f9d4-4175-a8fc-efad7d655238","ios":"levelo://app?vid=b7b68b90-f9d4-4175-a8fc-efad7d655238"},"vehicle_type_id":"4","last_reported":1694286259,"current_range_meters":24000,"station_id":"ce4bhr92rcd13ifvqhsg","pricing_plan_id":"free"},{"bike_id":"932f6152-353d-4fa4-ab36-ee8e75d42c2d","system_id":"levelo_inurba_marseille","lat":43.33718,"lon":5.39175,"is_reserved":false,"is_disabled":false,"rental_uris":{"android":"levelo://app?vid=932f6152-353d-4fa4-ab36-ee8e75d42c2d","ios":"levelo://app?vid=932f6152-353d-4fa4-ab36-ee8e75d42c2d"},"vehicle_type_id":"4","last_reported":1694286259,"current_range_meters":21600,"station_id":"ce4bhr92rcd13ifvqhsg","pricing_plan_id":"free"},{"bike_id":"f4003970-5fca-4aa3-99f2-374c912133f9","system_id":"levelo_inurba_marseille","lat":43.33722,"lon":5.39171,"is_reserved":false,"is_disabled":false,"rental_uris":{"android":"levelo://app?vid=f4003970-5fca-4aa3-99f2-374c912133f9","ios":"levelo://app?vid=f4003970-5fca-4aa3-99f2-374c912133f9"},"vehicle_type_id":"4","last_reported":1694286259,"current_range_meters":24400,"station_id":"ce4bhr92rcd13ifvqhsg","pricing_plan_id":"free"},{"bike_id":"0940b143-489b-4d45-953c-ff9c9f922d04","system_id":"levelo_inurba_marseille","lat":43.33718,"lon":5.39179,"is_reserved":false,"is_disabled":false,"rental_uris":{"android":"levelo://app?vid=0940b143-489b-4d45-953c-ff9c9f922d04","ios":"levelo://app?vid=0940b143-489b-4d45-953c-ff9c9f922d04"},"vehicle_type_id":"4","last_reported":1694286259,"current_range_meters":7600,"station_id":"ce4bhr92rcd13ifvqhsg","pricing_plan_id":"free"},{"bike_id":"a8dc209b-cce4-4ccb-b843-df44eec43f6d","system_id":"levelo_inurba_marseille","lat":43.33723,"lon":5.3918,"is_reserved":false,"is_disabled":false,"rental_uris":{"android":"levelo://app?vid=a8dc209b-cce4-4ccb-b843-df44eec43f6d","ios":"levelo://app?vid=a8dc209b-cce4-4ccb-b843-df44eec43f6d"},"vehicle_type_id":"4","last_reported":1694286259,"current_range_meters":25600,"station_id":"ce4bhr92rcd13ifvqhsg","pricing_plan_id":"free"},{"bike_id":"ccddc648-e380-4111-84c0-e06dda878f6c","system_id":"levelo_inurba_marseille","lat":43.284793,"lon":5.384113,"is_reserved":false,"is_disabled":false,"rental_uris":{"android":"levelo://app?vid=ccddc648-e380-4111-84c0-e06dda878f6c","ios":"levelo://app?vid=ccddc648-e380-4111-84c0-e06dda878f6c"},"vehicle_type_id":"4","last_reported":1694286259,"current_range_meters":0,"station_id":"ce4bh512rcd13ifvqe3g","pricing_plan_id":"free"},{"bike_id":"81207e02-e329-4cea-9b6c-33ba9c0267d2","system_id":"levelo_inurba_marseille","lat":43.284793,"lon":5.384113,"is_reserved":false,"is_disabled":false,"rental_uris":{"android":"levelo://app?vid=81207e02-e329-4cea-9b6c-33ba9c0267d2","ios":"levelo://app?vid=81207e02-e329-4cea-9b6c-33ba9c0267d2"},"vehicle_type_id":"4","last_reported":1694286259,"current_range_meters":29600,"station_id":"ce4bh512rcd13ifvqe3g","pricing_plan_id":"free"},{"bike_id":"9fb70a05-ebee-4af0-8f3c-5f8228501d49","system_id":"levelo_inurba_marseille","lat":43.284787,"lon":5.384116,"is_reserved":false,"is_disabled":false,"rental_uris":{"android":"levelo://app?vid=9fb70a05-ebee-4af0-8f3c-5f8228501d49","ios":"levelo://app?vid=9fb70a05-ebee-4af0-8f3c-5f8228501d49"},"vehicle_type_id":"4","last_reported":1694286259,"current_range_meters":30000,"station_id":"ce4bh512rcd13ifvqe3g","pricing_plan_id":"free"},{"bike_id":"c9ca655c-97d3-45d1-b5dd-552c405d671a","system_id":"levelo_inurba_marseille","lat":43.284793,"lon":5.384113,"is_reserved":false,"is_disabled":false,"rental_uris":{"android":"levelo://app?vid=c9ca655c-97d3-45d1-b5dd-552c405d671a","ios":"levelo://app?vid=c9ca655c-97d3-45d1-b5dd-552c405d671a"},"vehicle_type_id":"4","last_reported":1694286259,"current_range_meters":0,"station_id":"ce4bh512rcd13ifvqe3g","pricing_plan_id":"free"},{"bike_id":"a686959a-9c8a-4838-9a1b-30c50769c4e3","system_id":"levelo_inurba_marseille","lat":43.284793,"lon":5.384119,"is_reserved":false,"is_disabled":false,"rental_uris":{"android":"levelo://app?vid=a686959a-9c8a-4838-9a1b-30c50769c4e3","ios":"levelo://app?vid=a686959a-9c8a-4838-9a1b-30c50769c4e3"},"vehicle_type_id":"4","last_reported":1694286259,"current_range_meters":26400,"station_id":"ce4bh512rcd13ifvqe3g","pricing_plan_id":"free"},{"bike_id":"455356da-ece2-4d6a-abf1-38669cdea300","system_id":"levelo_inurba_marseille","lat":43.288497,"lon":5.393089,"is_reserved":false,"is_disabled":false,"rental_uris":{"android":"levelo://app?vid=455356da-ece2-4d6a-abf1-38669cdea300","ios":"levelo://app?vid=455356da-ece2-4d6a-abf1-38669cdea300"},"vehicle_type_id":"4","last_reported":1694286259,"current_range_meters":30000,"station_id":"ce4bh2p2rcd13ifvqdi0","pricing_plan_id":"free"},{"bike_id":"53456645-085a-491d-9e5a-79d0723c8901","system_id":"levelo_inurba_marseille","lat":43.288497,"lon":5.393089,"is_reserved":false,"is_disabled":false,"rental_uris":{"android":"levelo://app?vid=53456645-085a-491d-9e5a-79d0723c8901","ios":"levelo://app?vid=53456645-085a-491d-9e5a-79d0723c8901"},"vehicle_type_id":"4","last_reported":1694286259,"current_range_meters":1200,"station_id":"ce4bh2p2rcd13ifvqdi0","pricing_plan_id":"free"},{"bike_id":"3333e0fb-264d-499b-a962-9e25a961d3e4","system_id":"levelo_inurba_marseille","lat":43.288497,"lon":5.393089,"is_reserved":false,"is_disabled":false,"rental_uris":{"android":"levelo://app?vid=3333e0fb-264d-499b-a962-9e25a961d3e4","ios":"levelo://app?vid=3333e0fb-264d-499b-a962-9e25a961d3e4"},"vehicle_type_id":"4","last_reported":1694286259,"current_range_meters":0,"station_id":"ce4bh2p2rcd13ifvqdi0","pricing_plan_id":"free"},{"bike_id":"7d412376-7194-4510-8903-9bba04dc0d2f","system_id":"levelo_inurba_marseille","lat":43.28843,"lon":5.39304,"is_reserved":false,"is_disabled":false,"rental_uris":{"android":"levelo://app?vid=7d412376-7194-4510-8903-9bba04dc0d2f","ios":"levelo://app?vid=7d412376-7194-4510-8903-9bba04dc0d2f"},"vehicle_type_id":"4","last_reported":1694286259,"current_range_meters":11200,"station_id":"ce4bh2p2rcd13ifvqdi0","pricing_plan_id":"free"},{"bike_id":"5196912b-40d6-42ce-8418-3e0e828824f7","system_id":"levelo_inurba_marseille","lat":43.283494,"lon":5.380945,"is_reserved":false,"is_disabled":false,"rental_uris":{"android":"levelo://app?vid=5196912b-40d6-42ce-8418-3e0e828824f7","ios":"levelo://app?vid=5196912b-40d6-42ce-8418-3e0e828824f7"},"vehicle_type_id":"4","last_reported":1694286259,"current_range_meters":12800,"station_id":"ce4bh412rcd13ifvqdr0","pricing_plan_id":"free"},{"bike_id":"69d583d6-31d6-470b-99ab-b2fddf6bdf44","system_id":"levelo_inurba_marseille","lat":43.283494,"lon":5.380945,"is_reserved":false,"is_disabled":false,"rental_uris":{"android":"levelo://app?vid=69d583d6-31d6-470b-99ab-b2fddf6bdf44","ios":"levelo://app?vid=69d583d6-31d6-470b-99ab-b2fddf6bdf44"},"vehicle_type_id":"4","last_reported":1694286259,"current_range_meters":20400,"station_id":"ce4bh412rcd13ifvqdr0","pricing_plan_id":"free"},{"bike_id":"2bbf1bd7-eb0d-4461-858a-71b73d36ec4e","system_id":"levelo_inurba_marseille","lat":43.283498,"lon":5.380948,"is_reserved":false,"is_disabled":false,"rental_uris":{"android":"levelo://app?vid=2bbf1bd7-eb0d-4461-858a-71b73d36ec4e","ios":"levelo://app?vid=2bbf1bd7-eb0d-4461-858a-71b73d36ec4e"},"vehicle_type_id":"4","last_reported":1694286259,"current_range_meters":6400,"station_id":"ce4bh412rcd13ifvqdr0","pricing_plan_id":"free"},{"bike_id":"564548ae-992d-4f20-9d40-d7f712e194ef","system_id":"levelo_inurba_marseille","lat":43.32401,"lon":5.40665,"is_reserved":false,"is_disabled":false,"rental_uris":{"android":"levelo://app?vid=564548ae-992d-4f20-9d40-d7f712e194ef","ios":"levelo://app?vid=564548ae-992d-4f20-9d40-d7f712e194ef"},"vehicle_type_id":"4","last_reported":1694286259,"current_range_meters":2000,"station_id":"","pricing_plan_id":"free"},{"bike_id":"dd16da87-311f-4acf-8305-df9fdc21216c","system_id":"levelo_inurba_marseille","lat":43.284238,"lon":5.349839,"is_reserved":false,"is_disabled":false,"rental_uris":{"android":"levelo://app?vid=dd16da87-311f-4acf-8305-df9fdc21216c","ios":"levelo://app?vid=dd16da87-311f-4acf-8305-df9fdc21216c"},"vehicle_type_id":"4","last_reported":1694286259,"current_range_meters":3200,"station_id":"ce4bhbh2rcd13ifvqepg","pricing_plan_id":"free"},{"bike_id":"65cc3e5c-a4a8-428d-b808-6e5adc31912f","system_id":"levelo_inurba_marseille","lat":43.28338,"lon":5.38104,"is_reserved":false,"is_disabled":false,"rental_uris":{"android":"levelo://app?vid=65cc3e5c-a4a8-428d-b808-6e5adc31912f","ios":"levelo://app?vid=65cc3e5c-a4a8-428d-b808-6e5adc31912f"},"vehicle_type_id":"4","last_reported":1694286259,"current_range_meters":12400,"station_id":"","pricing_plan_id":"free"},{"bike_id":"79666f9b-3bea-49ca-a7a3-bbfa7a45519c","system_id":"levelo_inurba_marseille","lat":43.292724,"lon":5.401131,"is_reserved":false,"is_disabled":false,"rental_uris":{"android":"levelo://app?vid=79666f9b-3bea-49ca-a7a3-bbfa7a45519c","ios":"levelo://app?vid=79666f9b-3bea-49ca-a7a3-bbfa7a45519c"},"vehicle_type_id":"4","last_reported":1694286259,"current_range_meters":3200,"station_id":"ce4bh312rcd13ifvqdk0","pricing_plan_id":"free"},{"bike_id":"a531c4f0-f20d-411b-a1a7-b8d7bc1135c4","system_id":"levelo_inurba_marseille","lat":43.292724,"lon":5.401131,"is_reserved":false,"is_disabled":false,"rental_uris":{"android":"levelo://app?vid=a531c4f0-f20d-411b-a1a7-b8d7bc1135c4","ios":"levelo://app?vid=a531c4f0-f20d-411b-a1a7-b8d7bc1135c4"},"vehicle_type_id":"4","last_reported":1694286259,"current_range_meters":31200,"station_id":"ce4bh312rcd13ifvqdk0","pricing_plan_id":"free"},{"bike_id":"f27feff1-45de-4a6f-9310-9870c020cb57","system_id":"levelo_inurba_marseille","lat":43.283502,"lon":5.386471,"is_reserved":false,"is_disabled":false,"rental_uris":{"android":"levelo://app?vid=f27feff1-45de-4a6f-9310-9870c020cb57","ios":"levelo://app?vid=f27feff1-45de-4a6f-9310-9870c020cb57"},"vehicle_type_id":"4","last_reported":1694286259,"current_range_meters":0,"station_id":"ce4bh492rcd13ifvqdvg","pricing_plan_id":"free"},{"bike_id":"9f46cfde-4f76-4076-bade-5765c2d3d473","system_id":"levelo_inurba_marseille","lat":43.28039,"lon":5.369297,"is_reserved":false,"is_disabled":false,"rental_uris":{"android":"levelo://app?vid=9f46cfde-4f76-4076-bade-5765c2d3d473","ios":"levelo://app?vid=9f46cfde-4f76-4076-bade-5765c2d3d473"},"vehicle_type_id":"4","last_reported":1694286259,"current_range_meters":31200,"station_id":"ce4bha12rcd13ifvqef0","pricing_plan_id":"free"},{"bike_id":"863f9bdf-835f-4555-ab3c-c3c67c70d613","system_id":"levelo_inurba_marseille","lat":43.29041,"lon":5.399634,"is_reserved":false,"is_disabled":false,"rental_uris":{"android":"levelo://app?vid=863f9bdf-835f-4555-ab3c-c3c67c70d613","ios":"levelo://app?vid=863f9bdf-835f-4555-ab3c-c3c67c70d613"},"vehicle_type_id":"4","last_reported":1694286259,"current_range_meters":20400,"station_id":"ce4bh392rcd13ifvqdm0","pricing_plan_id":"free"},{"bike_id":"db6bb87e-1d3a-43f0-99bf-7bfe2e946395","system_id":"levelo_inurba_marseille","lat":43.29041,"lon":5.399634,"is_reserved":false,"is_disabled":false,"rental_uris":{"android":"levelo://app?vid=db6bb87e-1d3a-43f0-99bf-7bfe2e946395","ios":"levelo://app?vid=db6bb87e-1d3a-43f0-99bf-7bfe2e946395"},"vehicle_type_id":"4","last_reported":1694286259,"current_range_meters":400,"station_id":"ce4bh392rcd13ifvqdm0","pricing_plan_id":"free"},{"bike_id":"994c5ac6-f2b8-4ee0-a2be-b01a4a5993dc","system_id":"levelo_inurba_marseille","lat":43.296263,"lon":5.40601,"is_reserved":false,"is_disabled":false,"rental_uris":{"android":"levelo://app?vid=994c5ac6-f2b8-4ee0-a2be-b01a4a5993dc","ios":"levelo://app?vid=994c5ac6-f2b8-4ee0-a2be-b01a4a5993dc"},"vehicle_type_id":"4","last_reported":1694286259,"current_range_meters":31600,"station_id":"ce4bh0h2rcd13ifvqd60","pricing_plan_id":"free"},{"bike_id":"c030ca22-c559-4fe5-a4d5-d8d5d615fce7","system_id":"levelo_inurba_marseille","lat":43.296263,"lon":5.40601,"is_reserved":false,"is_disabled":false,"rental_uris":{"android":"levelo://app?vid=c030ca22-c559-4fe5-a4d5-d8d5d615fce7","ios":"levelo://app?vid=c030ca22-c559-4fe5-a4d5-d8d5d615fce7"},"vehicle_type_id":"4","last_reported":1694286259,"current_range_meters":2400,"station_id":"ce4bh0h2rcd13ifvqd60","pricing_plan_id":"free"},{"bike_id":"25ed8363-b6d8-425b-8c52-8d263620204b","system_id":"levelo_inurba_marseille","lat":43.296263,"lon":5.40601,"is_reserved":false,"is_disabled":false,"rental_uris":{"android":"levelo://app?vid=25ed8363-b6d8-425b-8c52-8d263620204b","ios":"levelo://app?vid=25ed8363-b6d8-425b-8c52-8d263620204b"},"vehicle_type_id":"4","last_reported":1694286259,"current_range_meters":23600,"station_id":"ce4bh0h2rcd13ifvqd60","pricing_plan_id":"free"},{"bike_id":"6079323f-d33d-489a-b69a-98c92d0b19e1","system_id":"levelo_inurba_marseille","lat":43.296263,"lon":5.40601,"is_reserved":false,"is_disabled":false,"rental_uris":{"android":"levelo://app?vid=6079323f-d33d-489a-b69a-98c92d0b19e1","ios":"levelo://app?vid=6079323f-d33d-489a-b69a-98c92d0b19e1"},"vehicle_type_id":"4","last_reported":1694286259,"current_range_meters":20400,"station_id":"ce4bh0h2rcd13ifvqd60","pricing_plan_id":"free"},{"bike_id":"fb2eba7e-66b4-48b3-b290-519d6753d0a9","system_id":"levelo_inurba_marseille","lat":43.28445,"lon":5.39202,"is_reserved":false,"is_disabled":false,"rental_uris":{"android":"levelo://app?vid=fb2eba7e-66b4-48b3-b290-519d6753d0a9","ios":"levelo://app?vid=fb2eba7e-66b4-48b3-b290-519d6753d0a9"},"vehicle_type_id":"4","last_reported":1694286259,"current_range_meters":0,"station_id":"","pricing_plan_id":"free"},{"bike_id":"382a5e31-4129-4e70-8197-6d8efbcdde18","system_id":"levelo_inurba_marseille","lat":43.284462,"lon":5.392121,"is_reserved":false,"is_disabled":false,"rental_uris":{"android":"levelo://app?vid=382a5e31-4129-4e70-8197-6d8efbcdde18","ios":"levelo://app?vid=382a5e31-4129-4e70-8197-6d8efbcdde18"},"vehicle_type_id":"4","last_reported":1694286259,"current_range_meters":31200,"station_id":"ce4bhoh2rcd13ifvqh5g","pricing_plan_id":"free"},{"bike_id":"d0ef8a38-b0c4-4a60-b22b-8b9b225365c5","system_id":"levelo_inurba_marseille","lat":43.285742,"lon":5.395004,"is_reserved":false,"is_disabled":false,"rental_uris":{"android":"levelo://app?vid=d0ef8a38-b0c4-4a60-b22b-8b9b225365c5","ios":"levelo://app?vid=d0ef8a38-b0c4-4a60-b22b-8b9b225365c5"},"vehicle_type_id":"4","last_reported":1694286259,"current_range_meters":22800,"station_id":"ce4bh292rcd13ifvqdg0","pricing_plan_id":"free"},{"bike_id":"2845dd0e-3506-4ea4-9515-61cfc39c77e8","system_id":"levelo_inurba_marseille","lat":43.3266,"lon":5.40988,"is_reserved":false,"is_disabled":false,"rental_uris":{"android":"levelo://app?vid=2845dd0e-3506-4ea4-9515-61cfc39c77e8","ios":"levelo://app?vid=2845dd0e-3506-4ea4-9515-61cfc39c77e8"},"vehicle_type_id":"4","last_reported":1694286259,"current_range_meters":17200,"station_id":"ce4bhpp2rcd13ifvqhgg","pricing_plan_id":"free"},{"bike_id":"a8077d33-9693-42ab-9e25-e724401b71b7","system_id":"levelo_inurba_marseille","lat":43.32657,"lon":5.4099,"is_reserved":false,"is_disabled":false,"rental_uris":{"android":"levelo://app?vid=a8077d33-9693-42ab-9e25-e724401b71b7","ios":"levelo://app?vid=a8077d33-9693-42ab-9e25-e724401b71b7"},"vehicle_type_id":"4","last_reported":1694286259,"current_range_meters":11600,"station_id":"ce4bhpp2rcd13ifvqhgg","pricing_plan_id":"free"},{"bike_id":"0061aace-749f-406d-a1ed-5706b46175be","system_id":"levelo_inurba_marseille","lat":43.326605,"lon":5.409903,"is_reserved":false,"is_disabled":false,"rental_uris":{"android":"levelo://app?vid=0061aace-749f-406d-a1ed-5706b46175be","ios":"levelo://app?vid=0061aace-749f-406d-a1ed-5706b46175be"},"vehicle_type_id":"4","last_reported":1694286259,"current_range_meters":17200,"station_id":"ce4bhpp2rcd13ifvqhgg","pricing_plan_id":"free"},{"bike_id":"45030d69-b6ea-46aa-842a-28ddcf3441f5","system_id":"levelo_inurba_marseille","lat":43.3266,"lon":5.40995,"is_reserved":false,"is_disabled":false,"rental_uris":{"android":"levelo://app?vid=45030d69-b6ea-46aa-842a-28ddcf3441f5","ios":"levelo://app?vid=45030d69-b6ea-46aa-842a-28ddcf3441f5"},"vehicle_type_id":"4","last_reported":1694286259,"current_range_meters":8000,"station_id":"ce4bhpp2rcd13ifvqhgg","pricing_plan_id":"free"},{"bike_id":"7be72f10-8683-4323-8a6a-b48fb12ed3f0","system_id":"levelo_inurba_marseille","lat":43.326605,"lon":5.409903,"is_reserved":false,"is_disabled":false,"rental_uris":{"android":"levelo://app?vid=7be72f10-8683-4323-8a6a-b48fb12ed3f0","ios":"levelo://app?vid=7be72f10-8683-4323-8a6a-b48fb12ed3f0"},"vehicle_type_id":"4","last_reported":1694286259,"current_range_meters":4800,"station_id":"ce4bhpp2rcd13ifvqhgg","pricing_plan_id":"free"},{"bike_id":"ec027534-72b5-406f-be0e-c00414258068","system_id":"levelo_inurba_marseille","lat":43.32659,"lon":5.40998,"is_reserved":false,"is_disabled":false,"rental_uris":{"android":"levelo://app?vid=ec027534-72b5-406f-be0e-c00414258068","ios":"levelo://app?vid=ec027534-72b5-406f-be0e-c00414258068"},"vehicle_type_id":"4","last_reported":1694286259,"current_range_meters":30400,"station_id":"ce4bhpp2rcd13ifvqhgg","pricing_plan_id":"free"},{"bike_id":"030e3fc1-0319-47f6-aa34-7ef5033732ec","system_id":"levelo_inurba_marseille","lat":43.304188,"lon":5.412904,"is_reserved":false,"is_disabled":false,"rental_uris":{"android":"levelo://app?vid=030e3fc1-0319-47f6-aa34-7ef5033732ec","ios":"levelo://app?vid=030e3fc1-0319-47f6-aa34-7ef5033732ec"},"vehicle_type_id":"4","last_reported":1694286259,"current_range_meters":3200,"station_id":"ce4bhop2rcd13ifvqh8g","pricing_plan_id":"free"},{"bike_id":"f4db0fb1-4b48-4f8d-879f-ca557dea2c96","system_id":"levelo_inurba_marseille","lat":43.287154,"lon":5.399979,"is_reserved":false,"is_disabled":false,"rental_uris":{"android":"levelo://app?vid=f4db0fb1-4b48-4f8d-879f-ca557dea2c96","ios":"levelo://app?vid=f4db0fb1-4b48-4f8d-879f-ca557dea2c96"},"vehicle_type_id":"4","last_reported":1694286259,"current_range_meters":16800,"station_id":"ce4bho92rcd13ifvqh3g","pricing_plan_id":"free"},{"bike_id":"d3728220-2cee-4480-9e07-f634751de031","system_id":"levelo_inurba_marseille","lat":43.287154,"lon":5.399979,"is_reserved":false,"is_disabled":false,"rental_uris":{"android":"levelo://app?vid=d3728220-2cee-4480-9e07-f634751de031","ios":"levelo://app?vid=d3728220-2cee-4480-9e07-f634751de031"},"vehicle_type_id":"4","last_reported":1694286259,"current_range_meters":400,"station_id":"ce4bho92rcd13ifvqh3g","pricing_plan_id":"free"},{"bike_id":"3ea0564b-63ed-4750-ba42-c6573a03c28e","system_id":"levelo_inurba_marseille","lat":43.320045,"lon":5.415046,"is_reserved":false,"is_disabled":false,"rental_uris":{"android":"levelo://app?vid=3ea0564b-63ed-4750-ba42-c6573a03c28e","ios":"levelo://app?vid=3ea0564b-63ed-4750-ba42-c6573a03c28e"},"vehicle_type_id":"4","last_reported":1694286259,"current_range_meters":12400,"station_id":"ce4bhq92rcd13ifvqhkg","pricing_plan_id":"free"},{"bike_id":"b18242ed-031b-415f-84b5-451c70368fef","system_id":"levelo_inurba_marseille","lat":43.320045,"lon":5.415048,"is_reserved":false,"is_disabled":false,"rental_uris":{"android":"levelo://app?vid=b18242ed-031b-415f-84b5-451c70368fef","ios":"levelo://app?vid=b18242ed-031b-415f-84b5-451c70368fef"},"vehicle_type_id":"4","last_reported":1694286259,"current_range_meters":17200,"station_id":"ce4bhq92rcd13ifvqhkg","pricing_plan_id":"free"},{"bike_id":"8d7098f9-b572-4dcf-987c-9fd6cf049616","system_id":"levelo_inurba_marseille","lat":43.320045,"lon":5.415046,"is_reserved":false,"is_disabled":false,"rental_uris":{"android":"levelo://app?vid=8d7098f9-b572-4dcf-987c-9fd6cf049616","ios":"levelo://app?vid=8d7098f9-b572-4dcf-987c-9fd6cf049616"},"vehicle_type_id":"4","last_reported":1694286259,"current_range_meters":17600,"station_id":"ce4bhq92rcd13ifvqhkg","pricing_plan_id":"free"},{"bike_id":"e990b8e9-6d3d-4cc2-95cb-36f7f5f25ed8","system_id":"levelo_inurba_marseille","lat":43.299579,"lon":5.413255,"is_reserved":false,"is_disabled":false,"rental_uris":{"android":"levelo://app?vid=e990b8e9-6d3d-4cc2-95cb-36f7f5f25ed8","ios":"levelo://app?vid=e990b8e9-6d3d-4cc2-95cb-36f7f5f25ed8"},"vehicle_type_id":"4","last_reported":1694286259,"current_range_meters":23200,"station_id":"ce4bhp12rcd13ifvqh9g","pricing_plan_id":"free"},{"bike_id":"c327718a-8fe6-4791-a349-aba0f8f94e82","system_id":"levelo_inurba_marseille","lat":43.27962,"lon":5.38711,"is_reserved":false,"is_disabled":false,"rental_uris":{"android":"levelo://app?vid=c327718a-8fe6-4791-a349-aba0f8f94e82","ios":"levelo://app?vid=c327718a-8fe6-4791-a349-aba0f8f94e82"},"vehicle_type_id":"4","last_reported":1694286259,"current_range_meters":18800,"station_id":"ce4bhg12rcd13ifvqf80","pricing_plan_id":"free"},{"bike_id":"2c44e331-54ae-40dc-8a85-6888e9ca6385","system_id":"levelo_inurba_marseille","lat":43.320045,"lon":5.415046,"is_reserved":false,"is_disabled":false,"rental_uris":{"android":"levelo://app?vid=2c44e331-54ae-40dc-8a85-6888e9ca6385","ios":"levelo://app?vid=2c44e331-54ae-40dc-8a85-6888e9ca6385"},