{"last_updated":1771172257,"ttl":60,"version":"2.2","data":{"bikes":[{"bike_id":"d96f1086-8d9b-4b38-8774-136993319875","system_id":"levelo_inurba_marseille","lat":43.24634,"lon":5.38895,"is_reserved":false,"is_disabled":false,"rental_uris":{"android":"levelo://app?vid=d96f1086-8d9b-4b38-8774-136993319875","ios":"levelo://app?vid=d96f1086-8d9b-4b38-8774-136993319875"},"vehicle_type_id":"4","last_reported":1771172258,"current_range_meters":14000,"station_id":"ce4bhg12rcd13ifvqf60","pricing_plan_id":"cebpf4jnsgd1na2vs0mg"},{"bike_id":"597ba019-6a14-4724-bfeb-cc559411f270","system_id":"levelo_inurba_marseille","lat":43.27616,"lon":5.36106,"is_reserved":false,"is_disabled":false,"rental_uris":{"android":"levelo://app?vid=597ba019-6a14-4724-bfeb-cc559411f270","ios":"levelo://app?vid=597ba019-6a14-4724-bfeb-cc559411f270"},"vehicle_type_id":"4","last_reported":1771172258,"current_range_meters":39200,"station_id":"ce4bgj92rcd13ifvqbe0","pricing_plan_id":"cebpf4jnsgd1na2vs0mg"},{"bike_id":"34d70057-47d6-4c17-b6c1-e79de54e1e52","system_id":"levelo_inurba_marseille","lat":43.33021,"lon":5.39045,"is_reserved":false,"is_disabled":false,"rental_uris":{"android":"levelo://app?vid=34d70057-47d6-4c17-b6c1-e79de54e1e52","ios":"levelo://app?vid=34d70057-47d6-4c17-b6c1-e79de54e1e52"},"vehicle_type_id":"4","last_reported":1771172258,"current_range_meters":25600,"station_id":"ce4bhr92rcd13ifvqhrg","pricing_plan_id":"cebpf4jnsgd1na2vs0mg"},{"bike_id":"68ef5776-ce7e-4d76-bed7-b3b2136e9f86","system_id":"levelo_inurba_marseille","lat":43.33027,"lon":5.39042,"is_reserved":false,"is_disabled":false,"rental_uris":{"android":"levelo://app?vid=68ef5776-ce7e-4d76-bed7-b3b2136e9f86","ios":"levelo://app?vid=68ef5776-ce7e-4d76-bed7-b3b2136e9f86"},"vehicle_type_id":"4","last_reported":1771172258,"current_range_meters":38800,"station_id":"ce4bhr92rcd13ifvqhrg","pricing_plan_id":"cebpf4jnsgd1na2vs0mg"},{"bike_id":"dcf21c8a-af55-489b-ae7c-c01a8eafbc40","system_id":"levelo_inurba_marseille","lat":43.337444,"lon":5.374475,"is_reserved":false,"is_disabled":false,"rental_uris":{"android":"levelo://app?vid=dcf21c8a-af55-489b-ae7c-c01a8eafbc40","ios":"levelo://app?vid=dcf21c8a-af55-489b-ae7c-c01a8eafbc40"},"vehicle_type_id":"4","last_reported":1771172258,"current_range_meters":18800,"station_id":"","pricing_plan_id":"cebpf4jnsgd1na2vs0mg"},{"bike_id":"7017b9ea-236b-408a-9884-05979c964e9b","system_id":"levelo_inurba_marseille","lat":43.33023,"lon":5.39032,"is_reserved":false,"is_disabled":false,"rental_uris":{"android":"levelo://app?vid=7017b9ea-236b-408a-9884-05979c964e9b","ios":"levelo://app?vid=7017b9ea-236b-408a-9884-05979c964e9b"},"vehicle_type_id":"4","last_reported":1771172258,"current_range_meters":39200,"station_id":"ce4bhr92rcd13ifvqhrg","pricing_plan_id":"cebpf4jnsgd1na2vs0mg"},{"bike_id":"05431520-0744-4aff-8d56-5eda07b7d4bf","system_id":"levelo_inurba_marseille","lat":43.330231,"lon":5.390405,"is_reserved":false,"is_disabled":false,"rental_uris":{"android":"levelo://app?vid=05431520-0744-4aff-8d56-5eda07b7d4bf","ios":"levelo://app?vid=05431520-0744-4aff-8d56-5eda07b7d4bf"},"vehicle_type_id":"4","last_reported":1771172258,"current_range_meters":38000,"station_id":"ce4bhr92rcd13ifvqhrg","pricing_plan_id":"cebpf4jnsgd1na2vs0mg"},{"bike_id":"b07f3ef1-c8ed-4cbb-96c2-2cf40b5d7a28","system_id":"levelo_inurba_marseille","lat":43.32981,"lon":5.38951,"is_reserved":false,"is_disabled":false,"rental_uris":{"android":"levelo://app?vid=b07f3ef1-c8ed-4cbb-96c2-2cf40b5d7a28","ios":"levelo://app?vid=b07f3ef1-c8ed-4cbb-96c2-2cf40b5d7a28"},"vehicle_type_id":"4","last_reported":1771172258,"current_range_meters":39200,"station_id":"ce4bhr92rcd13ifvqhrg","pricing_plan_id":"cebpf4jnsgd1na2vs0mg"},{"bike_id":"8ff7e5fe-aeff-4c28-befd-849a0d3b0506","system_id":"levelo_inurba_marseille","lat":43.33013,"lon":5.39048,"is_reserved":false,"is_disabled":false,"rental_uris":{"android":"levelo://app?vid=8ff7e5fe-aeff-4c28-befd-849a0d3b0506","ios":"levelo://app?vid=8ff7e5fe-aeff-4c28-befd-849a0d3b0506"},"vehicle_type_id":"4","last_reported":1771172258,"current_range_meters":38400,"station_id":"ce4bhr92rcd13ifvqhrg","pricing_plan_id":"cebpf4jnsgd1na2vs0mg"},{"bike_id":"64f460a1-288f-42d2-88de-a92a667fff57","system_id":"levelo_inurba_marseille","lat":43.33027,"lon":5.39041,"is_reserved":false,"is_disabled":false,"rental_uris":{"android":"levelo://app?vid=64f460a1-288f-42d2-88de-a92a667fff57","ios":"levelo://app?vid=64f460a1-288f-42d2-88de-a92a667fff57"},"vehicle_type_id":"4","last_reported":1771172258,"current_range_meters":38000,"station_id":"ce4bhr92rcd13ifvqhrg","pricing_plan_id":"cebpf4jnsgd1na2vs0mg"},{"bike_id":"4b69d9ac-5988-4e0b-b555-d4763bf81efe","system_id":"levelo_inurba_marseille","lat":43.33015,"lon":5.39057,"is_reserved":false,"is_disabled":false,"rental_uris":{"android":"levelo://app?vid=4b69d9ac-5988-4e0b-b555-d4763bf81efe","ios":"levelo://app?vid=4b69d9ac-5988-4e0b-b555-d4763bf81efe"},"vehicle_type_id":"4","last_reported":1771172258,"current_range_meters":38400,"station_id":"ce4bhr92rcd13ifvqhrg","pricing_plan_id":"cebpf4jnsgd1na2vs0mg"},{"bike_id":"9942bbc5-c241-4e8a-b7a0-e7948f4f2e45","system_id":"levelo_inurba_marseille","lat":43.32369,"lon":5.3886,"is_reserved":false,"is_disabled":false,"rental_uris":{"android":"levelo://app?vid=9942bbc5-c241-4e8a-b7a0-e7948f4f2e45","ios":"levelo://app?vid=9942bbc5-c241-4e8a-b7a0-e7948f4f2e45"},"vehicle_type_id":"4","last_reported":1771172258,"current_range_meters":39200,"station_id":"ce4bhqp2rcd13ifvqhog","pricing_plan_id":"cebpf4jnsgd1na2vs0mg"},{"bike_id":"78eafc9c-aeb1-4a3e-b6ec-c3c1210ea0e6","system_id":"levelo_inurba_marseille","lat":43.32371,"lon":5.38873,"is_reserved":false,"is_disabled":false,"rental_uris":{"android":"levelo://app?vid=78eafc9c-aeb1-4a3e-b6ec-c3c1210ea0e6","ios":"levelo://app?vid=78eafc9c-aeb1-4a3e-b6ec-c3c1210ea0e6"},"vehicle_type_id":"4","last_reported":1771172258,"current_range_meters":39200,"station_id":"ce4bhqp2rcd13ifvqhog","pricing_plan_id":"cebpf4jnsgd1na2vs0mg"},{"bike_id":"8e8e8859-a5a6-43b8-9a3a-3d7ba83a2210","system_id":"levelo_inurba_marseille","lat":43.33023,"lon":5.39032,"is_reserved":false,"is_disabled":false,"rental_uris":{"android":"levelo://app?vid=8e8e8859-a5a6-43b8-9a3a-3d7ba83a2210","ios":"levelo://app?vid=8e8e8859-a5a6-43b8-9a3a-3d7ba83a2210"},"vehicle_type_id":"4","last_reported":1771172258,"current_range_meters":38400,"station_id":"ce4bhr92rcd13ifvqhrg","pricing_plan_id":"cebpf4jnsgd1na2vs0mg"},{"bike_id":"e09b1854-500a-4103-9ded-791ea62f0cef","system_id":"levelo_inurba_marseille","lat":43.32369,"lon":5.38874,"is_reserved":false,"is_disabled":false,"rental_uris":{"android":"levelo://app?vid=e09b1854-500a-4103-9ded-791ea62f0cef","ios":"levelo://app?vid=e09b1854-500a-4103-9ded-791ea62f0cef"},"vehicle_type_id":"4","last_reported":1771172258,"current_range_meters":39200,"station_id":"ce4bhqp2rcd13ifvqhog","pricing_plan_id":"cebpf4jnsgd1na2vs0mg"},{"bike_id":"be8ecc47-b3b1-4e9a-89ec-d105b0b19936","system_id":"levelo_inurba_marseille","lat":43.3237,"lon":5.38874,"is_reserved":false,"is_disabled":false,"rental_uris":{"android":"levelo://app?vid=be8ecc47-b3b1-4e9a-89ec-d105b0b19936","ios":"levelo://app?vid=be8ecc47-b3b1-4e9a-89ec-d105b0b19936"},"vehicle_type_id":"4","last_reported":1771172258,"current_range_meters":39200,"station_id":"ce4bhqp2rcd13ifvqhog","pricing_plan_id":"cebpf4jnsgd1na2vs0mg"},{"bike_id":"3cccd3b9-43e3-4300-876c-33c46754f515","system_id":"levelo_inurba_marseille","lat":43.33024,"lon":5.39036,"is_reserved":false,"is_disabled":false,"rental_uris":{"android":"levelo://app?vid=3cccd3b9-43e3-4300-876c-33c46754f515","ios":"levelo://app?vid=3cccd3b9-43e3-4300-876c-33c46754f515"},"vehicle_type_id":"4","last_reported":1771172258,"current_range_meters":39200,"station_id":"ce4bhr92rcd13ifvqhrg","pricing_plan_id":"cebpf4jnsgd1na2vs0mg"},{"bike_id":"e6e08f6b-466b-497d-99fe-10096f8ca89b","system_id":"levelo_inurba_marseille","lat":43.33026,"lon":5.39034,"is_reserved":false,"is_disabled":false,"rental_uris":{"android":"levelo://app?vid=e6e08f6b-466b-497d-99fe-10096f8ca89b","ios":"levelo://app?vid=e6e08f6b-466b-497d-99fe-10096f8ca89b"},"vehicle_type_id":"4","last_reported":1771172258,"current_range_meters":39200,"station_id":"ce4bhr92rcd13ifvqhrg","pricing_plan_id":"cebpf4jnsgd1na2vs0mg"},{"bike_id":"2f797b8f-6a1b-4134-b3da-d67715f7aa4a","system_id":"levelo_inurba_marseille","lat":43.23966,"lon":5.36625,"is_reserved":false,"is_disabled":false,"rental_uris":{"android":"levelo://app?vid=2f797b8f-6a1b-4134-b3da-d67715f7aa4a","ios":"levelo://app?vid=2f797b8f-6a1b-4134-b3da-d67715f7aa4a"},"vehicle_type_id":"4","last_reported":1771172258,"current_range_meters":24400,"station_id":"ce4bhi12rcd13ifvqfp0","pricing_plan_id":"cebpf4jnsgd1na2vs0mg"},{"bike_id":"bdf72b80-d7a9-4303-9f7f-d62bd85c9012","system_id":"levelo_inurba_marseille","lat":43.30546,"lon":5.36696,"is_reserved":false,"is_disabled":false,"rental_uris":{"android":"levelo://app?vid=bdf72b80-d7a9-4303-9f7f-d62bd85c9012","ios":"levelo://app?vid=bdf72b80-d7a9-4303-9f7f-d62bd85c9012"},"vehicle_type_id":"4","last_reported":1771172258,"current_range_meters":39200,"station_id":"ce4bgrp2rcd13ifvqc9g","pricing_plan_id":"cebpf4jnsgd1na2vs0mg"},{"bike_id":"2ee2501b-b2dd-4e3f-bff3-a91ee1254efa","system_id":"levelo_inurba_marseille","lat":43.28919,"lon":5.39625,"is_reserved":false,"is_disabled":true,"rental_uris":{"android":"levelo://app?vid=2ee2501b-b2dd-4e3f-bff3-a91ee1254efa","ios":"levelo://app?vid=2ee2501b-b2dd-4e3f-bff3-a91ee1254efa"},"vehicle_type_id":"4","last_reported":1771172258,"current_range_meters":19600,"station_id":"ce4bh3h2rcd13ifvqdn0","pricing_plan_id":"cebpf4jnsgd1na2vs0mg"},{"bike_id":"e28b54de-af57-425f-96ed-b1caac28166f","system_id":"levelo_inurba_marseille","lat":43.3315,"lon":5.3768,"is_reserved":false,"is_disabled":false,"rental_uris":{"android":"levelo://app?vid=e28b54de-af57-425f-96ed-b1caac28166f","ios":"levelo://app?vid=e28b54de-af57-425f-96ed-b1caac28166f"},"vehicle_type_id":"4","last_reported":1771172258,"current_range_meters":34800,"station_id":"st_d46cu089ee8s73dldbu0","pricing_plan_id":"cebpf4jnsgd1na2vs0mg"},{"bike_id":"c8597474-67a5-40d0-a959-e688b0e74629","system_id":"levelo_inurba_marseille","lat":43.30154,"lon":5.38028,"is_reserved":false,"is_disabled":false,"rental_uris":{"android":"levelo://app?vid=c8597474-67a5-40d0-a959-e688b0e74629","ios":"levelo://app?vid=c8597474-67a5-40d0-a959-e688b0e74629"},"vehicle_type_id":"4","last_reported":1771172258,"current_range_meters":20400,"station_id":"ce4bgjp2rcd13ifvqbh0","pricing_plan_id":"cebpf4jnsgd1na2vs0mg"},{"bike_id":"d43115ad-a729-49ce-89e0-975a929f6aa6","system_id":"levelo_inurba_marseille","lat":43.24804,"lon":5.37452,"is_reserved":false,"is_disabled":false,"rental_uris":{"android":"levelo://app?vid=d43115ad-a729-49ce-89e0-975a929f6aa6","ios":"levelo://app?vid=d43115ad-a729-49ce-89e0-975a929f6aa6"},"vehicle_type_id":"4","last_reported":1771172258,"current_range_meters":36000,"station_id":"ce4bhgh2rcd13ifvqfb0","pricing_plan_id":"cebpf4jnsgd1na2vs0mg"},{"bike_id":"99384fa8-8131-47f2-9fd1-057dab2586bd","system_id":"levelo_inurba_marseille","lat":43.26188,"lon":5.37448,"is_reserved":false,"is_disabled":false,"rental_uris":{"android":"levelo://app?vid=99384fa8-8131-47f2-9fd1-057dab2586bd","ios":"levelo://app?vid=99384fa8-8131-47f2-9fd1-057dab2586bd"},"vehicle_type_id":"4","last_reported":1771172258,"current_range_meters":6000,"station_id":"ce4bhgp2rcd13ifvqfc0","pricing_plan_id":"cebpf4jnsgd1na2vs0mg"},{"bike_id":"b829afcc-9b72-4b0e-9514-8b2754aea185","system_id":"levelo_inurba_marseille","lat":43.29926,"lon":5.37429,"is_reserved":false,"is_disabled":true,"rental_uris":{"android":"levelo://app?vid=b829afcc-9b72-4b0e-9514-8b2754aea185","ios":"levelo://app?vid=b829afcc-9b72-4b0e-9514-8b2754aea185"},"vehicle_type_id":"4","last_reported":1771172258,"current_range_meters":11200,"station_id":"ce4bgjh2rcd13ifvqbg0","pricing_plan_id":"cebpf4jnsgd1na2vs0mg"},{"bike_id":"ffe93d07-32ca-4803-90b9-9eb3c38fa2b4","system_id":"levelo_inurba_marseille","lat":43.29716,"lon":5.3662,"is_reserved":false,"is_disabled":false,"rental_uris":{"android":"levelo://app?vid=ffe93d07-32ca-4803-90b9-9eb3c38fa2b4","ios":"levelo://app?vid=ffe93d07-32ca-4803-90b9-9eb3c38fa2b4"},"vehicle_type_id":"4","last_reported":1771172258,"current_range_meters":27600,"station_id":"ce4bgn12rcd13ifvqbt0","pricing_plan_id":"cebpf4jnsgd1na2vs0mg"},{"bike_id":"2a5ef9b8-1859-4a82-8031-3c1de4378080","system_id":"levelo_inurba_marseille","lat":43.304207,"lon":5.412811,"is_reserved":false,"is_disabled":false,"rental_uris":{"android":"levelo://app?vid=2a5ef9b8-1859-4a82-8031-3c1de4378080","ios":"levelo://app?vid=2a5ef9b8-1859-4a82-8031-3c1de4378080"},"vehicle_type_id":"4","last_reported":1771172258,"current_range_meters":16800,"station_id":"ce4bhop2rcd13ifvqh8g","pricing_plan_id":"cebpf4jnsgd1na2vs0mg"},{"bike_id":"5a9eafca-1b61-49ed-8b20-5e260396763a","system_id":"levelo_inurba_marseille","lat":43.30809,"lon":5.38189,"is_reserved":false,"is_disabled":false,"rental_uris":{"android":"levelo://app?vid=5a9eafca-1b61-49ed-8b20-5e260396763a","ios":"levelo://app?vid=5a9eafca-1b61-49ed-8b20-5e260396763a"},"vehicle_type_id":"4","last_reported":1771172258,"current_range_meters":16800,"station_id":"ce4bgt12rcd13ifvqce0","pricing_plan_id":"cebpf4jnsgd1na2vs0mg"},{"bike_id":"d6d5d12a-80c0-4acd-bbde-41f77c6e52d4","system_id":"levelo_inurba_marseille","lat":43.27223,"lon":5.3918,"is_reserved":false,"is_disabled":true,"rental_uris":{"android":"levelo://app?vid=d6d5d12a-80c0-4acd-bbde-41f77c6e52d4","ios":"levelo://app?vid=d6d5d12a-80c0-4acd-bbde-41f77c6e52d4"},"vehicle_type_id":"4","last_reported":1771172258,"current_range_meters":16000,"station_id":"ce4bhhp2rcd13ifvqfm0","pricing_plan_id":"cebpf4jnsgd1na2vs0mg"},{"bike_id":"fcdc8164-8974-4034-a4c9-bef73e1a1a6f","system_id":"levelo_inurba_marseille","lat":43.286748,"lon":5.386606,"is_reserved":false,"is_disabled":true,"rental_uris":{"android":"levelo://app?vid=fcdc8164-8974-4034-a4c9-bef73e1a1a6f","ios":"levelo://app?vid=fcdc8164-8974-4034-a4c9-bef73e1a1a6f"},"vehicle_type_id":"4","last_reported":1771172258,"current_range_meters":35600,"station_id":"ce4bh492rcd13ifvqdug","pricing_plan_id":"cebpf4jnsgd1na2vs0mg"},{"bike_id":"6bb6442b-5f19-462c-a0c7-df73ed65c6a1","system_id":"levelo_inurba_marseille","lat":43.29898,"lon":5.38138,"is_reserved":false,"is_disabled":false,"rental_uris":{"android":"levelo://app?vid=6bb6442b-5f19-462c-a0c7-df73ed65c6a1","ios":"levelo://app?vid=6bb6442b-5f19-462c-a0c7-df73ed65c6a1"},"vehicle_type_id":"4","last_reported":1771172258,"current_range_meters":39200,"station_id":"ce4bgj12rcd13ifvqbc0","pricing_plan_id":"cebpf4jnsgd1na2vs0mg"},{"bike_id":"f0ad1a56-4e51-42d7-928e-1e7025027f7f","system_id":"levelo_inurba_marseille","lat":43.30287,"lon":5.37693,"is_reserved":false,"is_disabled":false,"rental_uris":{"android":"levelo://app?vid=f0ad1a56-4e51-42d7-928e-1e7025027f7f","ios":"levelo://app?vid=f0ad1a56-4e51-42d7-928e-1e7025027f7f"},"vehicle_type_id":"4","last_reported":1771172258,"current_range_meters":30000,"station_id":"ce4bguh2rcd13ifvqcj0","pricing_plan_id":"cebpf4jnsgd1na2vs0mg"},{"bike_id":"460264f3-8bc6-4c77-beaf-ea8534482f84","system_id":"levelo_inurba_marseille","lat":43.24958,"lon":5.40467,"is_reserved":false,"is_disabled":false,"rental_uris":{"android":"levelo://app?vid=460264f3-8bc6-4c77-beaf-ea8534482f84","ios":"levelo://app?vid=460264f3-8bc6-4c77-beaf-ea8534482f84"},"vehicle_type_id":"4","last_reported":1771172258,"current_range_meters":31200,"station_id":"st_d2ngiaodas8pm72gd1h0","pricing_plan_id":"cebpf4jnsgd1na2vs0mg"},{"bike_id":"bfd89baa-fbc2-45c5-8b74-3d61cb004f40","system_id":"levelo_inurba_marseille","lat":43.23783,"lon":5.3664,"is_reserved":false,"is_disabled":false,"rental_uris":{"android":"levelo://app?vid=bfd89baa-fbc2-45c5-8b74-3d61cb004f40","ios":"levelo://app?vid=bfd89baa-fbc2-45c5-8b74-3d61cb004f40"},"vehicle_type_id":"4","last_reported":1771172258,"current_range_meters":36400,"station_id":"ce4bhi12rcd13ifvqfp0","pricing_plan_id":"cebpf4jnsgd1na2vs0mg"},{"bike_id":"1e61c11e-bb48-462f-95ea-c1bf1ce34a30","system_id":"levelo_inurba_marseille","lat":43.2957,"lon":5.37499,"is_reserved":false,"is_disabled":true,"rental_uris":{"android":"levelo://app?vid=1e61c11e-bb48-462f-95ea-c1bf1ce34a30","ios":"levelo://app?vid=1e61c11e-bb48-462f-95ea-c1bf1ce34a30"},"vehicle_type_id":"4","last_reported":1771172258,"current_range_meters":38800,"station_id":"ce4bgh92rcd13ifvqb50","pricing_plan_id":"cebpf4jnsgd1na2vs0mg"},{"bike_id":"f352d86b-4fcd-45a4-a079-b2e379b6aab6","system_id":"levelo_inurba_marseille","lat":43.25495,"lon":5.37623,"is_reserved":false,"is_disabled":false,"rental_uris":{"android":"levelo://app?vid=f352d86b-4fcd-45a4-a079-b2e379b6aab6","ios":"levelo://app?vid=f352d86b-4fcd-45a4-a079-b2e379b6aab6"},"vehicle_type_id":"4","last_reported":1771172258,"current_range_meters":11600,"station_id":"ce4bhh12rcd13ifvqff0","pricing_plan_id":"cebpf4jnsgd1na2vs0mg"},{"bike_id":"2cc9753f-dbf7-49a3-8213-ac68b1130bd6","system_id":"levelo_inurba_marseille","lat":43.30234,"lon":5.40043,"is_reserved":false,"is_disabled":false,"rental_uris":{"android":"levelo://app?vid=2cc9753f-dbf7-49a3-8213-ac68b1130bd6","ios":"levelo://app?vid=2cc9753f-dbf7-49a3-8213-ac68b1130bd6"},"vehicle_type_id":"4","last_reported":1771172258,"current_range_meters":20800,"station_id":"ce4bgvh2rcd13ifvqcs0","pricing_plan_id":"cebpf4jnsgd1na2vs0mg"},{"bike_id":"73746e6b-3a17-44f4-8dd7-7ef243b28100","system_id":"levelo_inurba_marseille","lat":43.30148,"lon":5.38102,"is_reserved":false,"is_disabled":false,"rental_uris":{"android":"levelo://app?vid=73746e6b-3a17-44f4-8dd7-7ef243b28100","ios":"levelo://app?vid=73746e6b-3a17-44f4-8dd7-7ef243b28100"},"vehicle_type_id":"4","last_reported":1771172258,"current_range_meters":34000,"station_id":"ce4bgjp2rcd13ifvqbh0","pricing_plan_id":"cebpf4jnsgd1na2vs0mg"},{"bike_id":"79fe0ffc-50eb-4d4d-9b5d-ccf40f43cda2","system_id":"levelo_inurba_marseille","lat":43.29975,"lon":5.38466,"is_reserved":false,"is_disabled":true,"rental_uris":{"android":"levelo://app?vid=79fe0ffc-50eb-4d4d-9b5d-ccf40f43cda2","ios":"levelo://app?vid=79fe0ffc-50eb-4d4d-9b5d-ccf40f43cda2"},"vehicle_type_id":"4","last_reported":1771172258,"current_range_meters":14800,"station_id":"ce4bgj92rcd13ifvqbd0","pricing_plan_id":"cebpf4jnsgd1na2vs0mg"},{"bike_id":"a8907ca6-f74c-4ac7-a7b4-b372911fdf27","system_id":"levelo_inurba_marseille","lat":43.27208,"lon":5.39181,"is_reserved":false,"is_disabled":true,"rental_uris":{"android":"levelo://app?vid=a8907ca6-f74c-4ac7-a7b4-b372911fdf27","ios":"levelo://app?vid=a8907ca6-f74c-4ac7-a7b4-b372911fdf27"},"vehicle_type_id":"4","last_reported":1771172258,"current_range_meters":32000,"station_id":"ce4bhhp2rcd13ifvqfm0","pricing_plan_id":"cebpf4jnsgd1na2vs0mg"},{"bike_id":"a2c2ab71-71f7-4d31-99e8-19879bedf10b","system_id":"levelo_inurba_marseille","lat":43.29978,"lon":5.38483,"is_reserved":false,"is_disabled":false,"rental_uris":{"android":"levelo://app?vid=a2c2ab71-71f7-4d31-99e8-19879bedf10b","ios":"levelo://app?vid=a2c2ab71-71f7-4d31-99e8-19879bedf10b"},"vehicle_type_id":"4","last_reported":1771172258,"current_range_meters":6400,"station_id":"ce4bgj92rcd13ifvqbd0","pricing_plan_id":"cebpf4jnsgd1na2vs0mg"},{"bike_id":"27822a51-ca21-4d70-880b-aa433daa1dc3","system_id":"levelo_inurba_marseille","lat":43.30597,"lon":5.37205,"is_reserved":false,"is_disabled":false,"rental_uris":{"android":"levelo://app?vid=27822a51-ca21-4d70-880b-aa433daa1dc3","ios":"levelo://app?vid=27822a51-ca21-4d70-880b-aa433daa1dc3"},"vehicle_type_id":"4","last_reported":1771172258,"current_range_meters":31200,"station_id":"ce4bgqh2rcd13ifvqc4g","pricing_plan_id":"cebpf4jnsgd1na2vs0mg"},{"bike_id":"5ebe73de-2cf7-4bc4-9047-e5658e66ceb9","system_id":"levelo_inurba_marseille","lat":43.24169,"lon":5.36431,"is_reserved":false,"is_disabled":true,"rental_uris":{"android":"levelo://app?vid=5ebe73de-2cf7-4bc4-9047-e5658e66ceb9","ios":"levelo://app?vid=5ebe73de-2cf7-4bc4-9047-e5658e66ceb9"},"vehicle_type_id":"4","last_reported":1771172258,"current_range_meters":16000,"station_id":"cpo36qri1sfpv3e86is0","pricing_plan_id":"cebpf4jnsgd1na2vs0mg"},{"bike_id":"08af2bd8-1429-414a-bda0-7a5cd48bf07c","system_id":"levelo_inurba_marseille","lat":43.29727,"lon":5.37679,"is_reserved":false,"is_disabled":false,"rental_uris":{"android":"levelo://app?vid=08af2bd8-1429-414a-bda0-7a5cd48bf07c","ios":"levelo://app?vid=08af2bd8-1429-414a-bda0-7a5cd48bf07c"},"vehicle_type_id":"4","last_reported":1771172258,"current_range_meters":35200,"station_id":"ce4bgkh2rcd13ifvqbl0","pricing_plan_id":"cebpf4jnsgd1na2vs0mg"},{"bike_id":"4220d817-cab7-43f6-bbc6-09a716ee1763","system_id":"levelo_inurba_marseille","lat":43.29435,"lon":5.39745,"is_reserved":false,"is_disabled":true,"rental_uris":{"android":"levelo://app?vid=4220d817-cab7-43f6-bbc6-09a716ee1763","ios":"levelo://app?vid=4220d817-cab7-43f6-bbc6-09a716ee1763"},"vehicle_type_id":"4","last_reported":1771172258,"current_range_meters":400,"station_id":"ce4bh3h2rcd13ifvqdo0","pricing_plan_id":"cebpf4jnsgd1na2vs0mg"},{"bike_id":"ed8b5fe8-1920-4dfd-97af-072031019259","system_id":"levelo_inurba_marseille","lat":43.26377,"lon":5.41046,"is_reserved":false,"is_disabled":false,"rental_uris":{"android":"levelo://app?vid=ed8b5fe8-1920-4dfd-97af-072031019259","ios":"levelo://app?vid=ed8b5fe8-1920-4dfd-97af-072031019259"},"vehicle_type_id":"4","last_reported":1771172258,"current_range_meters":32800,"station_id":"st_d4e5ca6na9uc73bfl5fg","pricing_plan_id":"cebpf4jnsgd1na2vs0mg"},{"bike_id":"ed97e09b-0460-41fa-a2f6-262ed88a2a3d","system_id":"levelo_inurba_marseille","lat":43.27942,"lon":5.38699,"is_reserved":false,"is_disabled":false,"rental_uris":{"android":"levelo://app?vid=ed97e09b-0460-41fa-a2f6-262ed88a2a3d","ios":"levelo://app?vid=ed97e09b-0460-41fa-a2f6-262ed88a2a3d"},"vehicle_type_id":"4","last_reported":1771172258,"current_range_meters":21600,"station_id":"ce4bhg12rcd13ifvqf80","pricing_plan_id":"cebpf4jnsgd1na2vs0mg"},{"bike_id":"ed8b2b84-fd1a-4f53-b302-a13e6042968d","system_id":"levelo_inurba_marseille","lat":43.26791,"lon":5.40246,"is_reserved":false,"is_disabled":false,"rental_uris":{"android":"levelo://app?vid=ed8b2b84-fd1a-4f53-b302-a13e6042968d","ios":"levelo://app?vid=ed8b2b84-fd1a-4f53-b302-a13e6042968d"},"vehicle_type_id":"4","last_reported":1771172258,"current_range_meters":24800,"station_id":"ce501612rcd8frsf0b60","pricing_plan_id":"cebpf4jnsgd1na2vs0mg"},{"bike_id":"c84892b3-eb4b-4559-98db-0e8ff16c6ff1","system_id":"levelo_inurba_marseille","lat":43.32656,"lon":5.40983,"is_reserved":false,"is_disabled":false,"rental_uris":{"android":"levelo://app?vid=c84892b3-eb4b-4559-98db-0e8ff16c6ff1","ios":"levelo://app?vid=c84892b3-eb4b-4559-98db-0e8ff16c6ff1"},"vehicle_type_id":"4","last_reported":1771172258,"current_range_meters":32000,"station_id":"ce4bhpp2rcd13ifvqhgg","pricing_plan_id":"cebpf4jnsgd1na2vs0mg"},{"bike_id":"d97604ce-364c-459d-8875-8f54c335d253","system_id":"levelo_inurba_marseille","lat":43.24708,"lon":5.41716,"is_reserved":false,"is_disabled":false,"rental_uris":{"android":"levelo://app?vid=d97604ce-364c-459d-8875-8f54c335d253","ios":"levelo://app?vid=d97604ce-364c-459d-8875-8f54c335d253"},"vehicle_type_id":"4","last_reported":1771172258,"current_range_meters":8000,"station_id":"","pricing_plan_id":"cebpf4jnsgd1na2vs0mg"},{"bike_id":"e3fb9264-ad00-40aa-b54d-f3353f1aea72","system_id":"levelo_inurba_marseille","lat":43.29001,"lon":5.35605,"is_reserved":false,"is_disabled":false,"rental_uris":{"android":"levelo://app?vid=e3fb9264-ad00-40aa-b54d-f3353f1aea72","ios":"levelo://app?vid=e3fb9264-ad00-40aa-b54d-f3353f1aea72"},"vehicle_type_id":"4","last_reported":1771172258,"current_range_meters":39200,"station_id":"ce4bhb92rcd13ifvqen0","pricing_plan_id":"cebpf4jnsgd1na2vs0mg"},{"bike_id":"79a7e591-1b27-4aab-b9f7-840e2732a2bc","system_id":"levelo_inurba_marseille","lat":43.31681,"lon":5.4043,"is_reserved":false,"is_disabled":false,"rental_uris":{"android":"levelo://app?vid=79a7e591-1b27-4aab-b9f7-840e2732a2bc","ios":"levelo://app?vid=79a7e591-1b27-4aab-b9f7-840e2732a2bc"},"vehicle_type_id":"4","last_reported":1771172258,"current_range_meters":4000,"station_id":"ce4bh012rcd13ifvqd00","pricing_plan_id":"cebpf4jnsgd1na2vs0mg"},{"bike_id":"9517652f-b544-4359-92da-c0119bc1576d","system_id":"levelo_inurba_marseille","lat":43.243914,"lon":5.3706,"is_reserved":false,"is_disabled":false,"rental_uris":{"android":"levelo://app?vid=9517652f-b544-4359-92da-c0119bc1576d","ios":"levelo://app?vid=9517652f-b544-4359-92da-c0119bc1576d"},"vehicle_type_id":"4","last_reported":1771172258,"current_range_meters":30400,"station_id":"ce4bhhh2rcd13ifvqfk0","pricing_plan_id":"cebpf4jnsgd1na2vs0mg"},{"bike_id":"e32d5221-ca1c-4772-a5c6-26646d9ed343","system_id":"levelo_inurba_marseille","lat":43.27827,"lon":5.39216,"is_reserved":false,"is_disabled":false,"rental_uris":{"android":"levelo://app?vid=e32d5221-ca1c-4772-a5c6-26646d9ed343","ios":"levelo://app?vid=e32d5221-ca1c-4772-a5c6-26646d9ed343"},"vehicle_type_id":"4","last_reported":1771172258,"current_range_meters":30000,"station_id":"ce4bhjp2rcd13ifvqga0","pricing_plan_id":"cebpf4jnsgd1na2vs0mg"},{"bike_id":"88879bf5-39fe-4acd-ba0e-dbedee239658","system_id":"levelo_inurba_marseille","lat":43.31162,"lon":5.38733,"is_reserved":false,"is_disabled":false,"rental_uris":{"android":"levelo://app?vid=88879bf5-39fe-4acd-ba0e-dbedee239658","ios":"levelo://app?vid=88879bf5-39fe-4acd-ba0e-dbedee239658"},"vehicle_type_id":"4","last_reported":1771172258,"current_range_meters":30000,"station_id":"ce4bgv12rcd13ifvqcp0","pricing_plan_id":"cebpf4jnsgd1na2vs0mg"},{"bike_id":"e4d4c284-28ad-482b-9ff4-d0399390b2a0","system_id":"levelo_inurba_marseille","lat":43.30193,"lon":5.36627,"is_reserved":false,"is_disabled":false,"rental_uris":{"android":"levelo://app?vid=e4d4c284-28ad-482b-9ff4-d0399390b2a0","ios":"levelo://app?vid=e4d4c284-28ad-482b-9ff4-d0399390b2a0"},"vehicle_type_id":"4","last_reported":1771172258,"current_range_meters":27600,"station_id":"ce4bgrh2rcd13ifvqc8g","pricing_plan_id":"cebpf4jnsgd1na2vs0mg"},{"bike_id":"1a4d09d3-2e07-4421-b53b-defdf8256512","system_id":"levelo_inurba_marseille","lat":43.31233,"lon":5.36899,"is_reserved":false,"is_disabled":false,"rental_uris":{"android":"levelo://app?vid=1a4d09d3-2e07-4421-b53b-defdf8256512","ios":"levelo://app?vid=1a4d09d3-2e07-4421-b53b-defdf8256512"},"vehicle_type_id":"4","last_reported":1771172258,"current_range_meters":38400,"station_id":"ce4bgl92rcd13ifvqbq0","pricing_plan_id":"cebpf4jnsgd1na2vs0mg"},{"bike_id":"80fab6da-3945-4483-88ec-1d0dae2dfb0e","system_id":"levelo_inurba_marseille","lat":43.28668,"lon":5.3866,"is_reserved":false,"is_disabled":false,"rental_uris":{"android":"levelo://app?vid=80fab6da-3945-4483-88ec-1d0dae2dfb0e","ios":"levelo://app?vid=80fab6da-3945-4483-88ec-1d0dae2dfb0e"},"vehicle_type_id":"4","last_reported":1771172258,"current_range_meters":22800,"station_id":"ce4bh492rcd13ifvqdug","pricing_plan_id":"cebpf4jnsgd1na2vs0mg"},{"bike_id":"b7fcb2da-5243-440b-926b-4edc89af4b76","system_id":"levelo_inurba_marseille","lat":43.27993,"lon":5.40013,"is_reserved":false,"is_disabled":false,"rental_uris":{"android":"levelo://app?vid=b7fcb2da-5243-440b-926b-4edc89af4b76","ios":"levelo://app?vid=b7fcb2da-5243-440b-926b-4edc89af4b76"},"vehicle_type_id":"4","last_reported":1771172258,"current_range_meters":22000,"station_id":"ce4bho92rcd13ifvqh4g","pricing_plan_id":"cebpf4jnsgd1na2vs0mg"},{"bike_id":"de23c09b-999d-4731-91c0-faf2e4461159","system_id":"levelo_inurba_marseille","lat":43.29212,"lon":5.3608,"is_reserved":false,"is_disabled":false,"rental_uris":{"android":"levelo://app?vid=de23c09b-999d-4731-91c0-faf2e4461159","ios":"levelo://app?vid=de23c09b-999d-4731-91c0-faf2e4461159"},"vehicle_type_id":"4","last_reported":1771172258,"current_range_meters":8000,"station_id":"ce4bhbh2rcd13ifvqeqg","pricing_plan_id":"cebpf4jnsgd1na2vs0mg"},{"bike_id":"0cc2918b-b433-4ce0-97e8-2fc8fa58f178","system_id":"levelo_inurba_marseille","lat":43.29529,"lon":5.375,"is_reserved":false,"is_disabled":false,"rental_uris":{"android":"levelo://app?vid=0cc2918b-b433-4ce0-97e8-2fc8fa58f178","ios":"levelo://app?vid=0cc2918b-b433-4ce0-97e8-2fc8fa58f178"},"vehicle_type_id":"4","last_reported":1771172258,"current_range_meters":37600,"station_id":"ce4bgkp2rcd13ifvqbmg","pricing_plan_id":"cebpf4jnsgd1na2vs0mg"},{"bike_id":"4e02b353-f95e-4a32-a9ba-79ccd1cc90dd","system_id":"levelo_inurba_marseille","lat":43.24792,"lon":5.3746,"is_reserved":false,"is_disabled":false,"rental_uris":{"android":"levelo://app?vid=4e02b353-f95e-4a32-a9ba-79ccd1cc90dd","ios":"levelo://app?vid=4e02b353-f95e-4a32-a9ba-79ccd1cc90dd"},"vehicle_type_id":"4","last_reported":1771172258,"current_range_meters":35600,"station_id":"ce4bhgh2rcd13ifvqfb0","pricing_plan_id":"cebpf4jnsgd1na2vs0mg"},{"bike_id":"082d7188-6986-4402-9f74-688922c9aa84","system_id":"levelo_inurba_marseille","lat":43.25108,"lon":5.40335,"is_reserved":false,"is_disabled":true,"rental_uris":{"android":"levelo://app?vid=082d7188-6986-4402-9f74-688922c9aa84","ios":"levelo://app?vid=082d7188-6986-4402-9f74-688922c9aa84"},"vehicle_type_id":"4","last_reported":1771172258,"current_range_meters":36800,"station_id":"ce4bhlh2rcd13ifvqgig","pricing_plan_id":"cebpf4jnsgd1na2vs0mg"},{"bike_id":"7cdae2e1-5306-459b-96ab-2c3aaae39e37","system_id":"levelo_inurba_marseille","lat":43.25009,"lon":5.38934,"is_reserved":false,"is_disabled":false,"rental_uris":{"android":"levelo://app?vid=7cdae2e1-5306-459b-96ab-2c3aaae39e37","ios":"levelo://app?vid=7cdae2e1-5306-459b-96ab-2c3aaae39e37"},"vehicle_type_id":"4","last_reported":1771172258,"current_range_meters":34000,"station_id":"ce4bhgp2rcd13ifvqfd0","pricing_plan_id":"cebpf4jnsgd1na2vs0mg"},{"bike_id":"9664a5c4-41bd-49a0-bca7-ccecab569b6a","system_id":"levelo_inurba_marseille","lat":43.32048,"lon":5.41552,"is_reserved":false,"is_disabled":false,"rental_uris":{"android":"levelo://app?vid=9664a5c4-41bd-49a0-bca7-ccecab569b6a","ios":"levelo://app?vid=9664a5c4-41bd-49a0-bca7-ccecab569b6a"},"vehicle_type_id":"4","last_reported":1771172258,"current_range_meters":38800,"station_id":"ce4bhq92rcd13ifvqhkg","pricing_plan_id":"cebpf4jnsgd1na2vs0mg"},{"bike_id":"30de403d-aee7-4467-9e50-3761f2a5df5e","system_id":"levelo_inurba_marseille","lat":43.28452,"lon":5.39165,"is_reserved":false,"is_disabled":true,"rental_uris":{"android":"levelo://app?vid=30de403d-aee7-4467-9e50-3761f2a5df5e","ios":"levelo://app?vid=30de403d-aee7-4467-9e50-3761f2a5df5e"},"vehicle_type_id":"4","last_reported":1771172258,"current_range_meters":38400,"station_id":"ce4bhoh2rcd13ifvqh5g","pricing_plan_id":"cebpf4jnsgd1na2vs0mg"},{"bike_id":"0664bc9f-767f-467e-a2c8-c71096fcbc2b","system_id":"levelo_inurba_marseille","lat":43.30522,"lon":5.36547,"is_reserved":false,"is_disabled":false,"rental_uris":{"android":"levelo://app?vid=0664bc9f-767f-467e-a2c8-c71096fcbc2b","ios":"levelo://app?vid=0664bc9f-767f-467e-a2c8-c71096fcbc2b"},"vehicle_type_id":"4","last_reported":1771172258,"current_range_meters":27600,"station_id":"ce4bgs12rcd13ifvqcag","pricing_plan_id":"cebpf4jnsgd1na2vs0mg"},{"bike_id":"06ca1e50-0c57-4308-ab33-37f48737feed","system_id":"levelo_inurba_marseille","lat":43.33162,"lon":5.37701,"is_reserved":false,"is_disabled":false,"rental_uris":{"android":"levelo://app?vid=06ca1e50-0c57-4308-ab33-37f48737feed","ios":"levelo://app?vid=06ca1e50-0c57-4308-ab33-37f48737feed"},"vehicle_type_id":"4","last_reported":1771172258,"current_range_meters":18800,"station_id":"st_d46cu089ee8s73dldbu0","pricing_plan_id":"cebpf4jnsgd1na2vs0mg"},{"bike_id":"a40147a5-bbf0-4381-a348-9cea87200b78","system_id":"levelo_inurba_marseille","lat":43.2607,"lon":5.39396,"is_reserved":false,"is_disabled":false,"rental_uris":{"android":"levelo://app?vid=a40147a5-bbf0-4381-a348-9cea87200b78","ios":"levelo://app?vid=a40147a5-bbf0-4381-a348-9cea87200b78"},"vehicle_type_id":"4","last_reported":1771172258,"current_range_meters":14800,"station_id":"ce4bhh92rcd13ifvqfj0","pricing_plan_id":"cebpf4jnsgd1na2vs0mg"},{"bike_id":"abb5386c-aa85-45f1-b3a9-55f4ea4e4b5b","system_id":"levelo_inurba_marseille","lat":43.24949,"lon":5.40506,"is_reserved":false,"is_disabled":true,"rental_uris":{"android":"levelo://app?vid=abb5386c-aa85-45f1-b3a9-55f4ea4e4b5b","ios":"levelo://app?vid=abb5386c-aa85-45f1-b3a9-55f4ea4e4b5b"},"vehicle_type_id":"4","last_reported":1771172258,"current_range_meters":34800,"station_id":"st_d2ngiaodas8pm72gd1h0","pricing_plan_id":"cebpf4jnsgd1na2vs0mg"},{"bike_id":"ed5548bc-62cc-4d35-8f24-dd46dc5c1ee5","system_id":"levelo_inurba_marseille","lat":43.29044,"lon":5.35947,"is_reserved":false,"is_disabled":false,"rental_uris":{"android":"levelo://app?vid=ed5548bc-62cc-4d35-8f24-dd46dc5c1ee5","ios":"levelo://app?vid=ed5548bc-62cc-4d35-8f24-dd46dc5c1ee5"},"vehicle_type_id":"4","last_reported":1771172258,"current_range_meters":39200,"station_id":"ce4bha92rcd13ifvqeg0","pricing_plan_id":"cebpf4jnsgd1na2vs0mg"},{"bike_id":"579af26e-548a-4f86-9c31-c74739ec3a56","system_id":"levelo_inurba_marseille","lat":43.29799,"lon":5.37073,"is_reserved":false,"is_disabled":false,"rental_uris":{"android":"levelo://app?vid=579af26e-548a-4f86-9c31-c74739ec3a56","ios":"levelo://app?vid=579af26e-548a-4f86-9c31-c74739ec3a56"},"vehicle_type_id":"4","last_reported":1771172258,"current_range_meters":27200,"station_id":"ce4bgop2rcd13ifvqc1g","pricing_plan_id":"cebpf4jnsgd1na2vs0mg"},{"bike_id":"8d0d6a52-f4bf-478e-934b-7996f5c200a8","system_id":"levelo_inurba_marseille","lat":43.25579,"lon":5.38233,"is_reserved":false,"is_disabled":false,"rental_uris":{"android":"levelo://app?vid=8d0d6a52-f4bf-478e-934b-7996f5c200a8","ios":"levelo://app?vid=8d0d6a52-f4bf-478e-934b-7996f5c200a8"},"vehicle_type_id":"4","last_reported":1771172258,"current_range_meters":25200,"station_id":"ce4bhih2rcd13ifvqfs0","pricing_plan_id":"cebpf4jnsgd1na2vs0mg"},{"bike_id":"242f7311-d2cc-4df7-a0f0-7c6d245cdc25","system_id":"levelo_inurba_marseille","lat":43.32387,"lon":5.36771,"is_reserved":false,"is_disabled":false,"rental_uris":{"android":"levelo://app?vid=242f7311-d2cc-4df7-a0f0-7c6d245cdc25","ios":"levelo://app?vid=242f7311-d2cc-4df7-a0f0-7c6d245cdc25"},"vehicle_type_id":"4","last_reported":1771172258,"current_range_meters":20000,"station_id":"ce4bhsh2rcd13ifvqi2g","pricing_plan_id":"cebpf4jnsgd1na2vs0mg"},{"bike_id":"1c552d2a-5637-49d5-bd03-c19868d9f5f0","system_id":"levelo_inurba_marseille","lat":43.27494,"lon":5.42456,"is_reserved":false,"is_disabled":false,"rental_uris":{"android":"levelo://app?vid=1c552d2a-5637-49d5-bd03-c19868d9f5f0","ios":"levelo://app?vid=1c552d2a-5637-49d5-bd03-c19868d9f5f0"},"vehicle_type_id":"4","last_reported":1771172258,"current_range_meters":13600,"station_id":"ce4bhn92rcd13ifvqgrg","pricing_plan_id":"cebpf4jnsgd1na2vs0mg"},{"bike_id":"97ebd584-accc-4ff9-bdb7-a1f9903c0787","system_id":"levelo_inurba_marseille","lat":43.29223,"lon":5.36069,"is_reserved":false,"is_disabled":false,"rental_uris":{"android":"levelo://app?vid=97ebd584-accc-4ff9-bdb7-a1f9903c0787","ios":"levelo://app?vid=97ebd584-accc-4ff9-bdb7-a1f9903c0787"},"vehicle_type_id":"4","last_reported":1771172258,"current_range_meters":14400,"station_id":"ce4bhbh2rcd13ifvqeqg","pricing_plan_id":"cebpf4jnsgd1na2vs0mg"},{"bike_id":"d67ddf40-700d-44f9-83b4-1bd4d57f1b9a","system_id":"levelo_inurba_marseille","lat":43.30361,"lon":5.41868,"is_reserved":false,"is_disabled":false,"rental_uris":{"android":"levelo://app?vid=d67ddf40-700d-44f9-83b4-1bd4d57f1b9a","ios":"levelo://app?vid=d67ddf40-700d-44f9-83b4-1bd4d57f1b9a"},"vehicle_type_id":"4","last_reported":1771172258,"current_range_meters":3200,"station_id":"ce4bhop2rcd13ifvqh7g","pricing_plan_id":"cebpf4jnsgd1na2vs0mg"},{"bike_id":"ba908372-be81-4d7b-8a96-e7703fd9571f","system_id":"levelo_inurba_marseille","lat":43.26784,"lon":5.3942,"is_reserved":false,"is_disabled":false,"rental_uris":{"android":"levelo://app?vid=ba908372-be81-4d7b-8a96-e7703fd9571f","ios":"levelo://app?vid=ba908372-be81-4d7b-8a96-e7703fd9571f"},"vehicle_type_id":"4","last_reported":1771172258,"current_range_meters":10800,"station_id":"ce4bhh12rcd13ifvqfg0","pricing_plan_id":"cebpf4jnsgd1na2vs0mg"},{"bike_id":"af14ffb7-f097-4d2f-abf2-2d568989ce76","system_id":"levelo_inurba_marseille","lat":43.31502,"lon":5.39114,"is_reserved":false,"is_disabled":false,"rental_uris":{"android":"levelo://app?vid=af14ffb7-f097-4d2f-abf2-2d568989ce76","ios":"levelo://app?vid=af14ffb7-f097-4d2f-abf2-2d568989ce76"},"vehicle_type_id":"4","last_reported":1771172258,"current_range_meters":30400,"station_id":"","pricing_plan_id":"cebpf4jnsgd1na2vs0mg"},{"bike_id":"145e6984-28ea-4666-b90f-7d63cfee56d4","system_id":"levelo_inurba_marseille","lat":43.275,"lon":5.42448,"is_reserved":false,"is_disabled":false,"rental_uris":{"android":"levelo://app?vid=145e6984-28ea-4666-b90f-7d63cfee56d4","ios":"levelo://app?vid=145e6984-28ea-4666-b90f-7d63cfee56d4"},"vehicle_type_id":"4","last_reported":1771172258,"current_range_meters":32800,"station_id":"ce4bhn92rcd13ifvqgrg","pricing_plan_id":"cebpf4jnsgd1na2vs0mg"},{"bike_id":"361472a9-140d-4e92-9e16-c96fbc664522","system_id":"levelo_inurba_marseille","lat":43.241739,"lon":5.364046,"is_reserved":false,"is_disabled":false,"rental_uris":{"android":"levelo://app?vid=361472a9-140d-4e92-9e16-c96fbc664522","ios":"levelo://app?vid=361472a9-140d-4e92-9e16-c96fbc664522"},"vehicle_type_id":"4","last_reported":1771172258,"current_range_meters":9600,"station_id":"cpo36qri1sfpv3e86is0","pricing_plan_id":"cebpf4jnsgd1na2vs0mg"},{"bike_id":"b9090109-0e85-4d33-94b9-9c3dce7583a5","system_id":"levelo_inurba_marseille","lat":43.31711,"lon":5.43706,"is_reserved":false,"is_disabled":true,"rental_uris":{"android":"levelo://app?vid=b9090109-0e85-4d33-94b9-9c3dce7583a5","ios":"levelo://app?vid=b9090109-0e85-4d33-94b9-9c3dce7583a5"},"vehicle_type_id":"4","last_reported":1771172258,"current_range_meters":1200,"station_id":"ce4bhp92rcd13ifvqhcg","pricing_plan_id":"cebpf4jnsgd1na2vs0mg"},{"bike_id":"377c466e-e4e3-44f9-bfe1-0b19350e0961","system_id":"levelo_inurba_marseille","lat":43.29925,"lon":5.38162,"is_reserved":false,"is_disabled":false,"rental_uris":{"android":"levelo://app?vid=377c466e-e4e3-44f9-bfe1-0b19350e0961","ios":"levelo://app?vid=377c466e-e4e3-44f9-bfe1-0b19350e0961"},"vehicle_type_id":"4","last_reported":1771172258,"current_range_meters":38000,"station_id":"ce4bgj12rcd13ifvqbc0","pricing_plan_id":"cebpf4jnsgd1na2vs0mg"},{"bike_id":"14e2d3fb-6c68-42f9-a053-741cc12027ec","system_id":"levelo_inurba_marseille","lat":43.24526,"lon":5.39539,"is_reserved":false,"is_disabled":true,"rental_uris":{"android":"levelo://app?vid=14e2d3fb-6c68-42f9-a053-741cc12027ec","ios":"levelo://app?vid=14e2d3fb-6c68-42f9-a053-741cc12027ec"},"vehicle_type_id":"4","last_reported":1771172258,"current_range_meters":8000,"station_id":"ce4bhlp2rcd13ifvqgjg","pricing_plan_id":"cebpf4jnsgd1na2vs0mg"},{"bike_id":"fef2ac6e-7218-4409-ada0-4bd0bcbfe427","system_id":"levelo_inurba_marseille","lat":43.24638,"lon":5.43135,"is_reserved":false,"is_disabled":false,"rental_uris":{"android":"levelo://app?vid=fef2ac6e-7218-4409-ada0-4bd0bcbfe427","ios":"levelo://app?vid=fef2ac6e-7218-4409-ada0-4bd0bcbfe427"},"vehicle_type_id":"4","last_reported":1771172258,"current_range_meters":19600,"station_id":"st_d2m6c4gdas8pm72e190g","pricing_plan_id":"cebpf4jnsgd1na2vs0mg"},{"bike_id":"91551ca7-df3c-46ae-b740-97d8aad399d4","system_id":"levelo_inurba_marseille","lat":43.2606,"lon":5.3939,"is_reserved":false,"is_disabled":false,"rental_uris":{"android":"levelo://app?vid=91551ca7-df3c-46ae-b740-97d8aad399d4","ios":"levelo://app?vid=91551ca7-df3c-46ae-b740-97d8aad399d4"},"vehicle_type_id":"4","last_reported":1771172258,"current_range_meters":36000,"station_id":"ce4bhh92rcd13ifvqfj0","pricing_plan_id":"cebpf4jnsgd1na2vs0mg"},{"bike_id":"9fdd0acf-5322-46a2-884b-9a02783906d9","system_id":"levelo_inurba_marseille","lat":43.3041,"lon":5.41271,"is_reserved":false,"is_disabled":false,"rental_uris":{"android":"levelo://app?vid=9fdd0acf-5322-46a2-884b-9a02783906d9","ios":"levelo://app?vid=9fdd0acf-5322-46a2-884b-9a02783906d9"},"vehicle_type_id":"4","last_reported":1771172258,"current_range_meters":19600,"station_id":"ce4bhop2rcd13ifvqh8g","pricing_plan_id":"cebpf4jnsgd1na2vs0mg"},{"bike_id":"bc4a9a19-03a5-4e99-9a87-3c61350e5f4e","system_id":"levelo_inurba_marseille","lat":43.28984,"lon":5.38089,"is_reserved":false,"is_disabled":false,"rental_uris":{"android":"levelo://app?vid=bc4a9a19-03a5-4e99-9a87-3c61350e5f4e","ios":"levelo://app?vid=bc4a9a19-03a5-4e99-9a87-3c61350e5f4e"},"vehicle_type_id":"4","last_reported":1771172258,"current_range_meters":39200,"station_id":"ce4bh4p2rcd13ifvqe1g","pricing_plan_id":"cebpf4jnsgd1na2vs0mg"},{"bike_id":"23f101f2-5af2-4076-be66-b4401f342141","system_id":"levelo_inurba_marseille","lat":43.29063,"lon":5.3715,"is_reserved":false,"is_disabled":false,"rental_uris":{"android":"levelo://app?vid=23f101f2-5af2-4076-be66-b4401f342141","ios":"levelo://app?vid=23f101f2-5af2-4076-be66-b4401f342141"},"vehicle_type_id":"4","last_reported":1771172258,"current_range_meters":36400,"station_id":"ce4bh5p2rcd13ifvqe4g","pricing_plan_id":"cebpf4jnsgd1na2vs0mg"},{"bike_id":"cc9be124-54a5-4927-a146-e3a08ef99a81","system_id":"levelo_inurba_marseille","lat":43.30452,"lon":5.37893,"is_reserved":false,"is_disabled":false,"rental_uris":{"android":"levelo://app?vid=cc9be124-54a5-4927-a146-e3a08ef99a81","ios":"levelo://app?vid=cc9be124-54a5-4927-a146-e3a08ef99a81"},"vehicle_type_id":"4","last_reported":1771172258,"current_range_meters":38000,"station_id":"ce4bgup2rcd13ifvqcn0","pricing_plan_id":"cebpf4jnsgd1na2vs0mg"},{"bike_id":"25c9c281-3575-4a22-af22-ea0cee4b2fa4","system_id":"levelo_inurba_marseille","lat":43.29276,"lon":5.40126,"is_reserved":false,"is_disabled":false,"rental_uris":{"android":"levelo://app?vid=25c9c281-3575-4a22-af22-ea0cee4b2fa4","ios":"levelo://app?vid=25c9c281-3575-4a22-af22-ea0cee4b2fa4"},"vehicle_type_id":"4","last_reported":1771172258,"current_range_meters":33600,"station_id":"ce4bh312rcd13ifvqdk0","pricing_plan_id":"cebpf4jnsgd1na2vs0mg"},{"bike_id":"e5866f9c-7f01-4f68-826c-5019be0d6644","system_id":"levelo_inurba_marseille","lat":43.28689,"lon":5.35495,"is_reserved":false,"is_disabled":true,"rental_uris":{"android":"levelo://app?vid=e5866f9c-7f01-4f68-826c-5019be0d6644","ios":"levelo://app?vid=e5866f9c-7f01-4f68-826c-5019be0d6644"},"vehicle_type_id":"4","last_reported":1771172258,"current_range_meters":7200,"station_id":"","pricing_plan_id":"cebpf4jnsgd1na2vs0mg"},{"bike_id":"fa5a3108-faca-4246-a221-debe22f9b953","system_id":"levelo_inurba_marseille","lat":43.29622,"lon":5.37692,"is_reserved":false,"is_disabled":false,"rental_uris":{"android":"levelo://app?vid=fa5a3108-faca-4246-a221-debe22f9b953","ios":"levelo://app?vid=fa5a3108-faca-4246-a221-debe22f9b953"},"vehicle_type_id":"4","last_reported":1771172258,"current_range_meters":25600,"station_id":"ce4bgi92rcd13ifvqb90","pricing_plan_id":"cebpf4jnsgd1na2vs0mg"},{"bike_id":"e018a771-e6cc-4dbb-ae8f-d64b2a69a720","system_id":"levelo_inurba_marseille","lat":43.27365,"lon":5.36253,"is_reserved":false,"is_disabled":false,"rental_uris":{"android":"levelo://app?vid=e018a771-e6cc-4dbb-ae8f-d64b2a69a720","ios":"levelo://app?vid=e018a771-e6cc-4dbb-ae8f-d64b2a69a720"},"vehicle_type_id":"4","last_reported":1771172258,"current_range_meters":28400,"station_id":"ce4bhbh2rcd13ifvqeo0","pricing_plan_id":"cebpf4jnsgd1na2vs0mg"},{"bike_id":"10c2514e-3e10-48b8-b25f-5593fed86aaf","system_id":"levelo_inurba_marseille","lat":43.28623,"lon":5.35118,"is_reserved":false,"is_disabled":false,"rental_uris":{"android":"levelo://app?vid=10c2514e-3e10-48b8-b25f-5593fed86aaf","ios":"levelo://app?vid=10c2514e-3e10-48b8-b25f-5593fed86aaf"},"vehicle_type_id":"4","last_reported":1771172258,"current_range_meters":26800,"station_id":"ce4bhch2rcd13ifvqeug","pricing_plan_id":"cebpf4jnsgd1na2vs0mg"},{"bike_id":"77d97ba8-97db-4bc9-8294-a1d06adce358","system_id":"levelo_inurba_marseille","lat":43.274858,"lon":5.424497,"is_reserved":false,"is_disabled":false,"rental_uris":{"android":"levelo://app?vid=77d97ba8-97db-4bc9-8294-a1d06adce358","ios":"levelo://app?vid=77d97ba8-97db-4bc9-8294-a1d06adce358"},"vehicle_type_id":"4","last_reported":1771172258,"current_range_meters":20000,"station_id":"ce4bhn92rcd13ifvqgrg","pricing_plan_id":"cebpf4jnsgd1na2vs0mg"},{"bike_id":"2e890998-6b11-4d43-89b1-bf06a6d503ec","system_id":"levelo_inurba_marseille","lat":43.25117,"lon":5.40355,"is_reserved":false,"is_disabled":false,"rental_uris":{"android":"levelo://app?vid=2e890998-6b11-4d43-89b1-bf06a6d503ec","ios":"levelo://app?vid=2e890998-6b11-4d43-89b1-bf06a6d503ec"},"vehicle_type_id":"4","last_reported":1771172258,"current_range_meters":38800,"station_id":"ce4bhlh2rcd13ifvqgig","pricing_plan_id":"cebpf4jnsgd1na2vs0mg"},{"bike_id":"a75398a4-d0b6-4900-9674-fe78395921f4","system_id":"levelo_inurba_marseille","lat":43.30536,"lon":5.36696,"is_reserved":false,"is_disabled":false,"rental_uris":{"android":"levelo://app?vid=a75398a4-d0b6-4900-9674-fe78395921f4","ios":"levelo://app?vid=a75398a4-d0b6-4900-9674-fe78395921f4"},"vehicle_type_id":"4","last_reported":1771172258,"current_range_meters":32800,"station_id":"ce4bgrp2rcd13ifvqc9g","pricing_plan_id":"cebpf4jnsgd1na2vs0mg"},{"bike_id":"a92fb365-ee82-44c4-821b-d3a91cb9251a","system_id":"levelo_inurba_marseille","lat":43.31198,"lon":5.36919,"is_reserved":false,"is_disabled":false,"rental_uris":{"android":"levelo://app?vid=a92fb365-ee82-44c4-821b-d3a91cb9251a","ios":"levelo://app?vid=a92fb365-ee82-44c4-821b-d3a91cb9251a"},"vehicle_type_id":"4","last_reported":1771172258,"current_range_meters":30000,"station_id":"ce4bgl92rcd13ifvqbq0","pricing_plan_id":"cebpf4jnsgd1na2vs0mg"},{"bike_id":"a2749dad-a07d-45a5-b48d-09e644d3c272","system_id":"levelo_inurba_marseille","lat":43.29477,"lon":5.37564,"is_reserved":false,"is_disabled":false,"rental_uris":{"android":"levelo://app?vid=a2749dad-a07d-45a5-b48d-09e644d3c272","ios":"levelo://app?vid=a2749dad-a07d-45a5-b48d-09e644d3c272"},"vehicle_type_id":"4","last_reported":1771172258,"current_range_meters":21600,"station_id":"","pricing_plan_id":"cebpf4jnsgd1na2vs0mg"},{"bike_id":"899ca28e-3727-433f-b491-eafb0d972b92","system_id":"levelo_inurba_marseille","lat":43.30152,"lon":5.38075,"is_reserved":false,"is_disabled":false,"rental_uris":{"android":"levelo://app?vid=899ca28e-3727-433f-b491-eafb0d972b92","ios":"levelo://app?vid=899ca28e-3727-433f-b491-eafb0d972b92"},"vehicle_type_id":"4","last_reported":1771172258,"current_range_meters":24400,"station_id":"ce4bgjp2rcd13ifvqbh0","pricing_plan_id":"cebpf4jnsgd1na2vs0mg"},{"bike_id":"cf6ef408-8a1a-4303-bd6d-466ea0d58ae4","system_id":"levelo_inurba_marseille","lat":43.21198,"lon":5.3506,"is_reserved":false,"is_disabled":false,"rental_uris":{"android":"levelo://app?vid=cf6ef408-8a1a-4303-bd6d-466ea0d58ae4","ios":"levelo://app?vid=cf6ef408-8a1a-4303-bd6d-466ea0d58ae4"},"vehicle_type_id":"4","last_reported":1771172258,"current_range_meters":3200,"station_id":"st_cvj6sg6p6f1abm77japg","pricing_plan_id":"cebpf4jnsgd1na2vs0mg"},{"bike_id":"063fb5b3-6f74-415b-a77e-82ae138da81e","system_id":"levelo_inurba_marseille","lat":43.29856,"lon":5.36258,"is_reserved":false,"is_disabled":false,"rental_uris":{"android":"levelo://app?vid=063fb5b3-6f74-415b-a77e-82ae138da81e","ios":"levelo://app?vid=063fb5b3-6f74-415b-a77e-82ae138da81e"},"vehicle_type_id":"4","last_reported":1771172258,"current_range_meters":37600,"station_id":"ce4bgpp2rcd13ifvqc3g","pricing_plan_id":"cebpf4jnsgd1na2vs0mg"},{"bike_id":"89e3bebe-0519-4e8f-97a2-5f9f90f00438","system_id":"levelo_inurba_marseille","lat":43.23966,"lon":5.36607,"is_reserved":false,"is_disabled":false,"rental_uris":{"android":"levelo://app?vid=89e3bebe-0519-4e8f-97a2-5f9f90f00438","ios":"levelo://app?vid=89e3bebe-0519-4e8f-97a2-5f9f90f00438"},"vehicle_type_id":"4","last_reported":1771172258,"current_range_meters":38800,"station_id":"ce4bhi12rcd13ifvqfp0","pricing_plan_id":"cebpf4jnsgd1na2vs0mg"},{"bike_id":"3853b71c-3613-47cc-ae03-5135a7b9fa86","system_id":"levelo_inurba_marseille","lat":43.28352,"lon":5.38627,"is_reserved":false,"is_disabled":false,"rental_uris":{"android":"levelo://app?vid=3853b71c-3613-47cc-ae03-5135a7b9fa86","ios":"levelo://app?vid=3853b71c-3613-47cc-ae03-5135a7b9fa86"},"vehicle_type_id":"4","last_reported":1771172258,"current_range_meters":40000,"station_id":"ce4bh492rcd13ifvqdvg","pricing_plan_id":"cebpf4jnsgd1na2vs0mg"},{"bike_id":"ee905978-629d-417a-8e0c-2864dd1d43ec","system_id":"levelo_inurba_marseille","lat":43.28622,"lon":5.37045,"is_reserved":false,"is_disabled":false,"rental_uris":{"android":"levelo://app?vid=ee905978-629d-417a-8e0c-2864dd1d43ec","ios":"levelo://app?vid=ee905978-629d-417a-8e0c-2864dd1d43ec"},"vehicle_type_id":"4","last_reported":1771172258,"current_range_meters":40000,"station_id":"ce4bht12rcd13ifvqi60","pricing_plan_id":"cebpf4jnsgd1na2vs0mg"},{"bike_id":"d956cd17-cda0-4cdc-98b4-e75b5bb45076","system_id":"levelo_inurba_marseille","lat":43.29843,"lon":5.36273,"is_reserved":false,"is_disabled":false,"rental_uris":{"android":"levelo://app?vid=d956cd17-cda0-4cdc-98b4-e75b5bb45076","ios":"levelo://app?vid=d956cd17-cda0-4cdc-98b4-e75b5bb45076"},"vehicle_type_id":"4","last_reported":1771172258,"current_range_meters":39200,"station_id":"ce4bgpp2rcd13ifvqc3g","pricing_plan_id":"cebpf4jnsgd1na2vs0mg"},{"bike_id":"766ba40c-080a-46d0-a08f-660e07520b61","system_id":"levelo_inurba_marseille","lat":43.29264,"lon":5.36839,"is_reserved":false,"is_disabled":false,"rental_uris":{"android":"levelo://app?vid=766ba40c-080a-46d0-a08f-660e07520b61","ios":"levelo://app?vid=766ba40c-080a-46d0-a08f-660e07520b61"},"vehicle_type_id":"4","last_reported":1771172258,"current_range_meters":38000,"station_id":"ce4bhbp2rcd13ifvqesg","pricing_plan_id":"cebpf4jnsgd1na2vs0mg"},{"bike_id":"f8312403-96e0-48f4-a811-ddf2d3981510","system_id":"levelo_inurba_marseille","lat":43.25116,"lon":5.40328,"is_reserved":false,"is_disabled":false,"rental_uris":{"android":"levelo://app?vid=f8312403-96e0-48f4-a811-ddf2d3981510","ios":"levelo://app?vid=f8312403-96e0-48f4-a811-ddf2d3981510"},"vehicle_type_id":"4","last_reported":1771172258,"current_range_meters":10000,"station_id":"ce4bhlh2rcd13ifvqgig","pricing_plan_id":"cebpf4jnsgd1na2vs0mg"},{"bike_id":"924d7c55-9e75-41cb-9a3e-b7f57a435ae8","system_id":"levelo_inurba_marseille","lat":43.26339,"lon":5.39609,"is_reserved":false,"is_disabled":false,"rental_uris":{"android":"levelo://app?vid=924d7c55-9e75-41cb-9a3e-b7f57a435ae8","ios":"levelo://app?vid=924d7c55-9e75-41cb-9a3e-b7f57a435ae8"},"vehicle_type_id":"4","last_reported":1771172258,"current_range_meters":6400,"station_id":"","pricing_plan_id":"cebpf4jnsgd1na2vs0mg"},{"bike_id":"8c1376f3-519c-4041-9a0a-667bb6369657","system_id":"levelo_inurba_marseille","lat":43.26031,"lon":5.37552,"is_reserved":false,"is_disabled":false,"rental_uris":{"android":"levelo://app?vid=8c1376f3-519c-4041-9a0a-667bb6369657","ios":"levelo://app?vid=8c1376f3-519c-4041-9a0a-667bb6369657"},"vehicle_type_id":"4","last_reported":1771172258,"current_range_meters":12800,"station_id":"ce4bhgh2rcd13ifvqfa0","pricing_plan_id":"cebpf4jnsgd1na2vs0mg"},{"bike_id":"3d77c063-135b-4daf-93de-810c10c76bf7","system_id":"levelo_inurba_marseille","lat":43.29581,"lon":5.37489,"is_reserved":false,"is_disabled":false,"rental_uris":{"android":"levelo://app?vid=3d77c063-135b-4daf-93de-810c10c76bf7","ios":"levelo://app?vid=3d77c063-135b-4daf-93de-810c10c76bf7"},"vehicle_type_id":"4","last_reported":1771172258,"current_range_meters":39200,"station_id":"ce4bgh92rcd13ifvqb50","pricing_plan_id":"cebpf4jnsgd1na2vs0mg"},{"bike_id":"91dd6860-d8b6-48df-9afd-382ab92b6bc0","system_id":"levelo_inurba_marseille","lat":43.289314,"lon":5.383944,"is_reserved":false,"is_disabled":true,"rental_uris":{"android":"levelo://app?vid=91dd6860-d8b6-48df-9afd-382ab92b6bc0","ios":"levelo://app?vid=91dd6860-d8b6-48df-9afd-382ab92b6bc0"},"vehicle_type_id":"4","last_reported":1771172258,"current_range_meters":28800,"station_id":"ce4bh612rcd13ifvqe6g","pricing_plan_id":"cebpf4jnsgd1na2vs0mg"},{"bike_id":"c94fe6ac-e042-467c-af9c-8765ff67cce2","system_id":"levelo_inurba_marseille","lat":43.30532,"lon":5.36532,"is_reserved":false,"is_disabled":false,"rental_uris":{"android":"levelo://app?vid=c94fe6ac-e042-467c-af9c-8765ff67cce2","ios":"levelo://app?vid=c94fe6ac-e042-467c-af9c-8765ff67cce2"},"vehicle_type_id":"4","last_reported":1771172258,"current_range_meters":2800,"station_id":"ce4bgs12rcd13ifvqcag","pricing_plan_id":"cebpf4jnsgd1na2vs0mg"},{"bike_id":"4ef3fea8-855b-4ccb-be6e-2c8185c4a670","system_id":"levelo_inurba_marseille","lat":43.33593,"lon":5.41029,"is_reserved":false,"is_disabled":false,"rental_uris":{"android":"levelo://app?vid=4ef3fea8-855b-4ccb-be6e-2c8185c4a670","ios":"levelo://app?vid=4ef3fea8-855b-4ccb-be6e-2c8185c4a670"},"vehicle_type_id":"4","last_reported":1771172258,"current_range_meters":34800,"station_id":"ce4bhqh2rcd13ifvqhmg","pricing_plan_id":"cebpf4jnsgd1na2vs0mg"},{"bike_id":"524b8461-d679-46b1-a83d-b4bfe7dba6c3","system_id":"levelo_inurba_marseille","lat":43.21756,"lon":5.34587,"is_reserved":false,"is_disabled":false,"rental_uris":{"android":"levelo://app?vid=524b8461-d679-46b1-a83d-b4bfe7dba6c3","ios":"levelo://app?vid=524b8461-d679-46b1-a83d-b4bfe7dba6c3"},"vehicle_type_id":"4","last_reported":1771172258,"current_range_meters":38000,"station_id":"st_cvj6r9ubvosntc0bgbag","pricing_plan_id":"cebpf4jnsgd1na2vs0mg"},{"bike_id":"53bb3863-680c-45ee-b078-75f6bac40aa9","system_id":"levelo_inurba_marseille","lat":43.32661,"lon":5.40988,"is_reserved":false,"is_disabled":false,"rental_uris":{"android":"levelo://app?vid=53bb3863-680c-45ee-b078-75f6bac40aa9","ios":"levelo://app?vid=53bb3863-680c-45ee-b078-75f6bac40aa9"},"vehicle_type_id":"4","last_reported":1771172258,"current_range_meters":39200,"station_id":"ce4bhpp2rcd13ifvqhgg","pricing_plan_id":"cebpf4jnsgd1na2vs0mg"},{"bike_id":"80098677-e509-453f-9fc6-0838a503fcfa","system_id":"levelo_inurba_marseille","lat":43.305414,"lon":5.365336,"is_reserved":false,"is_disabled":false,"rental_uris":{"android":"levelo://app?vid=80098677-e509-453f-9fc6-0838a503fcfa","ios":"levelo://app?vid=80098677-e509-453f-9fc6-0838a503fcfa"},"vehicle_type_id":"4","last_reported":1771172258,"current_range_meters":18800,"station_id":"ce4bgs12rcd13ifvqcag","pricing_plan_id":"cebpf4jnsgd1na2vs0mg"},{"bike_id":"b2793bda-e545-4722-bf36-91387796c790","system_id":"levelo_inurba_marseille","lat":43.25508,"lon":5.37653,"is_reserved":false,"is_disabled":false,"rental_uris":{"android":"levelo://app?vid=b2793bda-e545-4722-bf36-91387796c790","ios":"levelo://app?vid=b2793bda-e545-4722-bf36-91387796c790"},"vehicle_type_id":"4","last_reported":1771172258,"current_range_meters":37600,"station_id":"ce4bhh12rcd13ifvqff0","pricing_plan_id":"cebpf4jnsgd1na2vs0mg"},{"bike_id":"014613de-69aa-4aca-9291-67750cce2e69","system_id":"levelo_inurba_marseille","lat":43.28489,"lon":5.48383,"is_reserved":false,"is_disabled":false,"rental_uris":{"android":"levelo://app?vid=014613de-69aa-4aca-9291-67750cce2e69","ios":"levelo://app?vid=014613de-69aa-4aca-9291-67750cce2e69"},"vehicle_type_id":"4","last_reported":1771172258,"current_range_meters":37600,"station_id":"st_d3svhcjqgbts73a3dn0g","pricing_plan_id":"cebpf4jnsgd1na2vs0mg"},{"bike_id":"ceafdd97-9709-4666-acdc-c6b8a34aace5","system_id":"levelo_inurba_marseille","lat":43.27175,"lon":5.40994,"is_reserved":false,"is_disabled":true,"rental_uris":{"android":"levelo://app?vid=ceafdd97-9709-4666-acdc-c6b8a34aace5","ios":"levelo://app?vid=ceafdd97-9709-4666-acdc-c6b8a34aace5"},"vehicle_type_id":"4","last_reported":1771172258,"current_range_meters":39200,"station_id":"ce4bhl12rcd13ifvqgf0","pricing_plan_id":"cebpf4jnsgd1na2vs0mg"},{"bike_id":"93bab453-c377-4816-a0d3-7383fdfc3ff2","system_id":"levelo_inurba_marseille","lat":43.29531,"lon":5.37497,"is_reserved":false,"is_disabled":false,"rental_uris":{"android":"levelo://app?vid=93bab453-c377-4816-a0d3-7383fdfc3ff2","ios":"levelo://app?vid=93bab453-c377-4816-a0d3-7383fdfc3ff2"},"vehicle_type_id":"4","last_reported":1771172258,"current_range_meters":16000,"station_id":"ce4bgkp2rcd13ifvqbmg","pricing_plan_id":"cebpf4jnsgd1na2vs0mg"},{"bike_id":"9ed7300e-a4d4-493c-95a2-a0b857cf6348","system_id":"levelo_inurba_marseille","lat":43.2256,"lon":5.41611,"is_reserved":false,"is_disabled":false,"rental_uris":{"android":"levelo://app?vid=9ed7300e-a4d4-493c-95a2-a0b857cf6348","ios":"levelo://app?vid=9ed7300e-a4d4-493c-95a2-a0b857cf6348"},"vehicle_type_id":"4","last_reported":1771172258,"current_range_meters":13600,"station_id":"st_d2o4gvlbi1j2169b742g","pricing_plan_id":"cebpf4jnsgd1na2vs0mg"},{"bike_id":"b8d0dbff-fb51-43c9-8f40-12fc94ab2020","system_id":"levelo_inurba_marseille","lat":43.284174,"lon":5.349886,"is_reserved":false,"is_disabled":false,"rental_uris":{"android":"levelo://app?vid=b8d0dbff-fb51-43c9-8f40-12fc94ab2020","ios":"levelo://app?vid=b8d0dbff-fb51-43c9-8f40-12fc94ab2020"},"vehicle_type_id":"4","last_reported":1771172258,"current_range_meters":16400,"station_id":"ce4bhbh2rcd13ifvqepg","pricing_plan_id":"cebpf4jnsgd1na2vs0mg"},{"bike_id":"7278c20a-bbce-4d9e-8603-a0dbe0b44e73","system_id":"levelo_inurba_marseille","lat":43.29852,"lon":5.36279,"is_reserved":false,"is_disabled":false,"rental_uris":{"android":"levelo://app?vid=7278c20a-bbce-4d9e-8603-a0dbe0b44e73","ios":"levelo://app?vid=7278c20a-bbce-4d9e-8603-a0dbe0b44e73"},"vehicle_type_id":"4","last_reported":1771172258,"current_range_meters":12000,"station_id":"ce4bgpp2rcd13ifvqc3g","pricing_plan_id":"cebpf4jnsgd1na2vs0mg"},{"bike_id":"491c9ecf-c613-4666-af5f-af02a2932d22","system_id":"levelo_inurba_marseille","lat":43.30954,"lon":5.3903,"is_reserved":false,"is_disabled":true,"rental_uris":{"android":"levelo://app?vid=491c9ecf-c613-4666-af5f-af02a2932d22","ios":"levelo://app?vid=491c9ecf-c613-4666-af5f-af02a2932d22"},"vehicle_type_id":"4","last_reported":1771172258,"current_range_meters":26800,"station_id":"ce4bgup2rcd13ifvqco0","pricing_plan_id":"cebpf4jnsgd1na2vs0mg"},{"bike_id":"a42b7c44-3dc6-4e8e-b18a-a27a570b27c5","system_id":"levelo_inurba_marseille","lat":43.29774,"lon":5.37106,"is_reserved":false,"is_disabled":false,"rental_uris":{"android":"levelo://app?vid=a42b7c44-3dc6-4e8e-b18a-a27a570b27c5","ios":"levelo://app?vid=a42b7c44-3dc6-4e8e-b18a-a27a570b27c5"},"vehicle_type_id":"4","last_reported":1771172258,"current_range_meters":30800,"station_id":"ce4bgop2rcd13ifvqc1g","pricing_plan_id":"cebpf4jnsgd1na2vs0mg"},{"bike_id":"dc98baeb-281c-4b10-a0d8-1143d2ae501f","system_id":"levelo_inurba_marseille","lat":43.30306,"lon":5.36886,"is_reserved":false,"is_disabled":false,"rental_uris":{"android":"levelo://app?vid=dc98baeb-281c-4b10-a0d8-1143d2ae501f","ios":"levelo://app?vid=dc98baeb-281c-4b10-a0d8-1143d2ae501f"},"vehicle_type_id":"4","last_reported":1771172258,"current_range_meters":32400,"station_id":"ce4bgqh2rcd13ifvqc5g","pricing_plan_id":"cebpf4jnsgd1na2vs0mg"},{"bike_id":"61eb7f07-1c63-4179-84d2-2a4e738d2c5a","system_id":"levelo_inurba_marseille","lat":43.25263,"lon":5.42418,"is_reserved":false,"is_disabled":false,"rental_uris":{"android":"levelo://app?vid=61eb7f07-1c63-4179-84d2-2a4e738d2c5a","ios":"levelo://app?vid=61eb7f07-1c63-4179-84d2-2a4e738d2c5a"},"vehicle_type_id":"4","last_reported":1771172258,"current_range_meters":12400,"station_id":"","pricing_plan_id":"cebpf4jnsgd1na2vs0mg"},{"bike_id":"034224b6-2279-4cbc-9caa-f9a79eebd08e","system_id":"levelo_inurba_marseille","lat":43.31248,"lon":5.36826,"is_reserved":false,"is_disabled":false,"rental_uris":{"android":"levelo://app?vid=034224b6-2279-4cbc-9caa-f9a79eebd08e","ios":"levelo://app?vid=034224b6-2279-4cbc-9caa-f9a79eebd08e"},"vehicle_type_id":"4","last_reported":1771172258,"current_range_meters":38800,"station_id":"ce4bgl92rcd13ifvqbq0","pricing_plan_id":"cebpf4jnsgd1na2vs0mg"},{"bike_id":"3b7ab46d-a5b2-42ad-aec6-a2dcef907956","system_id":"levelo_inurba_marseille","lat":43.27173,"lon":5.40986,"is_reserved":false,"is_disabled":false,"rental_uris":{"android":"levelo://app?vid=3b7ab46d-a5b2-42ad-aec6-a2dcef907956","ios":"levelo://app?vid=3b7ab46d-a5b2-42ad-aec6-a2dcef907956"},"vehicle_type_id":"4","last_reported":1771172258,"current_range_meters":39200,"station_id":"ce4bhl12rcd13ifvqgf0","pricing_plan_id":"cebpf4jnsgd1na2vs0mg"},{"bike_id":"053f63a9-b456-4e00-a86e-29f26979507e","system_id":"levelo_inurba_marseille","lat":43.24662,"lon":5.38151,"is_reserved":false,"is_disabled":true,"rental_uris":{"android":"levelo://app?vid=053f63a9-b456-4e00-a86e-29f26979507e","ios":"levelo://app?vid=053f63a9-b456-4e00-a86e-29f26979507e"},"vehicle_type_id":"4","last_reported":1771172258,"current_range_meters":20000,"station_id":"ce4bhih2rcd13ifvqfr0","pricing_plan_id":"cebpf4jnsgd1na2vs0mg"},{"bike_id":"bb91b1c1-f4b3-4ff5-b47e-b291597a0d30","system_id":"levelo_inurba_marseille","lat":43.253307,"lon":5.421777,"is_reserved":false,"is_disabled":false,"rental_uris":{"android":"levelo://app?vid=bb91b1c1-f4b3-4ff5-b47e-b291597a0d30","ios":"levelo://app?vid=bb91b1c1-f4b3-4ff5-b47e-b291597a0d30"},"vehicle_type_id":"4","last_reported":1771172258,"current_range_meters":11200,"station_id":"st_d2m65c5bi1j21697t3ng","pricing_plan_id":"cebpf4jnsgd1na2vs0mg"},{"bike_id":"7cb9d4bb-817c-477e-b821-2482d90489fa","system_id":"levelo_inurba_marseille","lat":43.33017,"lon":5.39034,"is_reserved":false,"is_disabled":false,"rental_uris":{"android":"levelo://app?vid=7cb9d4bb-817c-477e-b821-2482d90489fa","ios":"levelo://app?vid=7cb9d4bb-817c-477e-b821-2482d90489fa"},"vehicle_type_id":"4","last_reported":1771172258,"current_range_meters":10800,"station_id":"ce4bhr92rcd13ifvqhrg","pricing_plan_id":"cebpf4jnsgd1na2vs0mg"},{"bike_id":"ffe3fbd4-6746-48bb-b0b5-fa7f3d6ff56c","system_id":"levelo_inurba_marseille","lat":43.310551,"lon":5.371856,"is_reserved":false,"is_disabled":false,"rental_uris":{"android":"levelo://app?vid=ffe3fbd4-6746-48bb-b0b5-fa7f3d6ff56c","ios":"levelo://app?vid=ffe3fbd4-6746-48bb-b0b5-fa7f3d6ff56c"},"vehicle_type_id":"4","last_reported":1771172258,"current_range_meters":10800,"station_id":"st_d4kl2rp97mjs73e7tdfg","pricing_plan_id":"cebpf4jnsgd1na2vs0mg"},{"bike_id":"f4f4c39c-d293-4a83-92fd-f36bbc65fe4a","system_id":"levelo_inurba_marseille","lat":43.28263,"lon":5.35057,"is_reserved":false,"is_disabled":true,"rental_uris":{"android":"levelo://app?vid=f4f4c39c-d293-4a83-92fd-f36bbc65fe4a","ios":"levelo://app?vid=f4f4c39c-d293-4a83-92fd-f36bbc65fe4a"},"vehicle_type_id":"4","last_reported":1771172258,"current_range_meters":36400,"station_id":"ce4bhbp2rcd13ifvqerg","pricing_plan_id":"cebpf4jnsgd1na2vs0mg"},{"bike_id":"62a8abd2-3087-46db-925f-2d25a2b3f02d","system_id":"levelo_inurba_marseille","lat":43.30475,"lon":5.38839,"is_reserved":false,"is_disabled":true,"rental_uris":{"android":"levelo://app?vid=62a8abd2-3087-46db-925f-2d25a2b3f02d","ios":"levelo://app?vid=62a8abd2-3087-46db-925f-2d25a2b3f02d"},"vehicle_type_id":"4","last_reported":1771172258,"current_range_meters":17600,"station_id":"ce4bgk12rcd13ifvqbi0","pricing_plan_id":"cebpf4jnsgd1na2vs0mg"},{"bike_id":"2fadaefb-d7be-40bc-b8c2-dfba0bb4802c","system_id":"levelo_inurba_marseille","lat":43.30226,"lon":5.4005,"is_reserved":false,"is_disabled":true,"rental_uris":{"android":"levelo://app?vid=2fadaefb-d7be-40bc-b8c2-dfba0bb4802c","ios":"levelo://app?vid=2fadaefb-d7be-40bc-b8c2-dfba0bb4802c"},"vehicle_type_id":"4","last_reported":1771172258,"current_range_meters":30400,"station_id":"","pricing_plan_id":"cebpf4jnsgd1na2vs0mg"},{"bike_id":"c2622548-2352-4ceb-b8b7-2d2a2030a64c","system_id":"levelo_inurba_marseille","lat":43.29584,"lon":5.37525,"is_reserved":false,"is_disabled":false,"rental_uris":{"android":"levelo://app?vid=c2622548-2352-4ceb-b8b7-2d2a2030a64c","ios":"levelo://app?vid=c2622548-2352-4ceb-b8b7-2d2a2030a64c"},"vehicle_type_id":"4","last_reported":1771172258,"current_range_meters":34000,"station_id":"ce4bgh92rcd13ifvqb50","pricing_plan_id":"cebpf4jnsgd1na2vs0mg"},{"bike_id":"bba28d6d-50ea-4b95-845c-94440a1630f7","system_id":"levelo_inurba_marseille","lat":43.26488,"lon":5.39559,"is_reserved":false,"is_disabled":false,"rental_uris":{"android":"levelo://app?vid=bba28d6d-50ea-4b95-845c-94440a1630f7","ios":"levelo://app?vid=bba28d6d-50ea-4b95-845c-94440a1630f7"},"vehicle_type_id":"4","last_reported":1771172258,"current_range_meters":9200,"station_id":"ce4bhi12rcd13ifvqfq0","pricing_plan_id":"cebpf4jnsgd1na2vs0mg"},{"bike_id":"2aa05e06-5366-4cfd-80c1-a6e66487250b","system_id":"levelo_inurba_marseille","lat":43.28458,"lon":5.48422,"is_reserved":false,"is_disabled":false,"rental_uris":{"android":"levelo://app?vid=2aa05e06-5366-4cfd-80c1-a6e66487250b","ios":"levelo://app?vid=2aa05e06-5366-4cfd-80c1-a6e66487250b"},"vehicle_type_id":"4","last_reported":1771172258,"current_range_meters":24400,"station_id":"st_d3svhcjqgbts73a3dn0g","pricing_plan_id":"cebpf4jnsgd1na2vs0mg"},{"bike_id":"9fa3b8f9-222a-47d4-94ab-1bf20b84c2d5","system_id":"levelo_inurba_marseille","lat":43.29568,"lon":5.37478,"is_reserved":false,"is_disabled":false,"rental_uris":{"android":"levelo://app?vid=9fa3b8f9-222a-47d4-94ab-1bf20b84c2d5","ios":"levelo://app?vid=9fa3b8f9-222a-47d4-94ab-1bf20b84c2d5"},"vehicle_type_id":"4","last_reported":1771172258,"current_range_meters":28000,"station_id":"ce4bgh92rcd13ifvqb50","pricing_plan_id":"cebpf4jnsgd1na2vs0mg"},{"bike_id":"963b299c-f0ed-46b7-9014-29e17db68b1b","system_id":"levelo_inurba_marseille","lat":43.26681,"lon":5.38286,"is_reserved":false,"is_disabled":false,"rental_uris":{"android":"levelo://app?vid=963b299c-f0ed-46b7-9014-29e17db68b1b","ios":"levelo://app?vid=963b299c-f0ed-46b7-9014-29e17db68b1b"},"vehicle_type_id":"4","last_reported":1771172258,"current_range_meters":6800,"station_id":"ce4bhg92rcd13ifvqf90","pricing_plan_id":"cebpf4jnsgd1na2vs0mg"},{"bike_id":"9d0335d2-3051-4637-a59f-b5a4ffc47957","system_id":"levelo_inurba_marseille","lat":43.32657,"lon":5.40985,"is_reserved":false,"is_disabled":false,"rental_uris":{"android":"levelo://app?vid=9d0335d2-3051-4637-a59f-b5a4ffc47957","ios":"levelo://app?vid=9d0335d2-3051-4637-a59f-b5a4ffc47957"},"vehicle_type_id":"4","last_reported":1771172258,"current_range_meters":9200,"station_id":"ce4bhpp2rcd13ifvqhgg","pricing_plan_id":"cebpf4jnsgd1na2vs0mg"},{"bike_id":"bf40be18-51a4-4e54-9c30-1a02e017c42f","system_id":"levelo_inurba_marseille","lat":43.29626,"lon":5.37706,"is_reserved":false,"is_disabled":false,"rental_uris":{"android":"levelo://app?vid=bf40be18-51a4-4e54-9c30-1a02e017c42f","ios":"levelo://app?vid=bf40be18-51a4-4e54-9c30-1a02e017c42f"},"vehicle_type_id":"4","last_reported":1771172258,"current_range_meters":32400,"station_id":"ce4bgi92rcd13ifvqb90","pricing_plan_id":"cebpf4jnsgd1na2vs0mg"},{"bike_id":"6fb6e675-460f-4429-987e-5c8d5ca05444","system_id":"levelo_inurba_marseille","lat":43.323651,"lon":5.367341,"is_reserved":false,"is_disabled":false,"rental_uris":{"android":"levelo://app?vid=6fb6e675-460f-4429-987e-5c8d5ca05444","ios":"levelo://app?vid=6fb6e675-460f-4429-987e-5c8d5ca05444"},"vehicle_type_id":"4","last_reported":1771172258,"current_range_meters":11600,"station_id":"ce4bhsh2rcd13ifvqi2g","pricing_plan_id":"cebpf4jnsgd1na2vs0mg"},{"bike_id":"202f6d0c-bc1e-4dda-9985-efc73b77a4bc","system_id":"levelo_inurba_marseille","lat":43.28476,"lon":5.38406,"is_reserved":false,"is_disabled":false,"rental_uris":{"android":"levelo://app?vid=202f6d0c-bc1e-4dda-9985-efc73b77a4bc","ios":"levelo://app?vid=202f6d0c-bc1e-4dda-9985-efc73b77a4bc"},"vehicle_type_id":"4","last_reported":1771172258,"current_range_meters":28800,"station_id":"ce4bh512rcd13ifvqe3g","pricing_plan_id":"cebpf4jnsgd1na2vs0mg"},{"bike_id":"c7dc1044-a4da-496a-a386-521f9de5f9ec","system_id":"levelo_inurba_marseille","lat":43.281671,"lon":5.426322,"is_reserved":false,"is_disabled":false,"rental_uris":{"android":"levelo://app?vid=c7dc1044-a4da-496a-a386-521f9de5f9ec","ios":"levelo://app?vid=c7dc1044-a4da-496a-a386-521f9de5f9ec"},"vehicle_type_id":"4","last_reported":1771172258,"current_range_meters":2800,"station_id":"ce4bhnh2rcd13ifvqgug","pricing_plan_id":"cebpf4jnsgd1na2vs0mg"},{"bike_id":"32970ac4-1746-4d64-913c-72a1346864f7","system_id":"levelo_inurba_marseille","lat":43.29008,"lon":5.35594,"is_reserved":false,"is_disabled":false,"rental_uris":{"android":"levelo://app?vid=32970ac4-1746-4d64-913c-72a1346864f7","ios":"levelo://app?vid=32970ac4-1746-4d64-913c-72a1346864f7"},"vehicle_type_id":"4","last_reported":1771172258,"current_range_meters":38000,"station_id":"ce4bhb92rcd13ifvqen0","pricing_plan_id":"cebpf4jnsgd1na2vs0mg"},{"bike_id":"230f6b7a-ca58-4196-9d3f-24bc4b6e374b","system_id":"levelo_inurba_marseille","lat":43.29563,"lon":5.37511,"is_reserved":false,"is_disabled":false,"rental_uris":{"android":"levelo://app?vid=230f6b7a-ca58-4196-9d3f-24bc4b6e374b","ios":"levelo://app?vid=230f6b7a-ca58-4196-9d3f-24bc4b6e374b"},"vehicle_type_id":"4","last_reported":1771172258,"current_range_meters":39200,"station_id":"ce4bgh92rcd13ifvqb50","pricing_plan_id":"cebpf4jnsgd1na2vs0mg"},{"bike_id":"10b03d8e-f943-401c-a144-ab85933f89ee","system_id":"levelo_inurba_marseille","lat":43.2658,"lon":5.39013,"is_reserved":false,"is_disabled":false,"rental_uris":{"android":"levelo://app?vid=10b03d8e-f943-401c-a144-ab85933f89ee","ios":"levelo://app?vid=10b03d8e-f943-401c-a144-ab85933f89ee"},"vehicle_type_id":"4","last_reported":1771172258,"current_range_meters":7200,"station_id":"ce4bhe12rcd13ifvqf30","pricing_plan_id":"cebpf4jnsgd1na2vs0mg"},{"bike_id":"7b124e54-8418-4378-b0ad-874da7c23bc2","system_id":"levelo_inurba_marseille","lat":43.25586,"lon":5.38236,"is_reserved":false,"is_disabled":false,"rental_uris":{"android":"levelo://app?vid=7b124e54-8418-4378-b0ad-874da7c23bc2","ios":"levelo://app?vid=7b124e54-8418-4378-b0ad-874da7c23bc2"},"vehicle_type_id":"4","last_reported":1771172258,"current_range_meters":28800,"station_id":"ce4bhih2rcd13ifvqfs0","pricing_plan_id":"cebpf4jnsgd1na2vs0mg"},{"bike_id":"43be838d-f6b4-4835-ad42-59a17af4669a","system_id":"levelo_inurba_marseille","lat":43.27213,"lon":5.39171,"is_reserved":false,"is_disabled":false,"rental_uris":{"android":"levelo://app?vid=43be838d-f6b4-4835-ad42-59a17af4669a","ios":"levelo://app?vid=43be838d-f6b4-4835-ad42-59a17af4669a"},"vehicle_type_id":"4","last_reported":1771172258,"current_range_meters":7200,"station_id":"ce4bhhp2rcd13ifvqfm0","pricing_plan_id":"cebpf4jnsgd1na2vs0mg"},{"bike_id":"5ba309a4-12b9-4eee-8397-472968e7c7d4","system_id":"levelo_inurba_marseille","lat":43.317158,"lon":5.404367,"is_reserved":false,"is_disabled":false,"rental_uris":{"android":"levelo://app?vid=5ba309a4-12b9-4eee-8397-472968e7c7d4","ios":"levelo://app?vid=5ba309a4-12b9-4eee-8397-472968e7c7d4"},"vehicle_type_id":"4","last_reported":1771172258,"current_range_meters":20000,"station_id":"ce4bh012rcd13ifvqd00","pricing_plan_id":"cebpf4jnsgd1na2vs0mg"},{"bike_id":"3bd048ee-102f-43d2-9e7e-e3c42044f3b2","system_id":"levelo_inurba_marseille","lat":43.29617,"lon":5.37719,"is_reserved":false,"is_disabled":false,"rental_uris":{"android":"levelo://app?vid=3bd048ee-102f-43d2-9e7e-e3c42044f3b2","ios":"levelo://app?vid=3bd048ee-102f-43d2-9e7e-e3c42044f3b2"},"vehicle_type_id":"4","last_reported":1771172258,"current_range_meters":28800,"station_id":"ce4bgi92rcd13ifvqb90","pricing_plan_id":"cebpf4jnsgd1na2vs0mg"},{"bike_id":"b7600f14-bce5-4dda-a976-6cbf8683f3d2","system_id":"levelo_inurba_marseille","lat":43.27405,"lon":5.39396,"is_reserved":false,"is_disabled":false,"rental_uris":{"android":"levelo://app?vid=b7600f14-bce5-4dda-a976-6cbf8683f3d2","ios":"levelo://app?vid=b7600f14-bce5-4dda-a976-6cbf8683f3d2"},"vehicle_type_id":"4","last_reported":1771172258,"current_range_meters":39200,"station_id":"ce4bhdp2rcd13ifvqf20","pricing_plan_id":"cebpf4jnsgd1na2vs0mg"},{"bike_id":"931c51f0-d309-40f0-9dc3-4e5d1c000add","system_id":"levelo_inurba_marseille","lat":43.29292,"lon":5.37448,"is_reserved":false,"is_disabled":false,"rental_uris":{"android":"levelo://app?vid=931c51f0-d309-40f0-9dc3-4e5d1c000add","ios":"levelo://app?vid=931c51f0-d309-40f0-9dc3-4e5d1c000add"},"vehicle_type_id":"4","last_reported":1771172258,"current_range_meters":25600,"station_id":"ce4bgi12rcd13ifvqb70","pricing_plan_id":"cebpf4jnsgd1na2vs0mg"},{"bike_id":"47753d3b-8fe5-4e3d-a57c-c661fe640f8e","system_id":"levelo_inurba_marseille","lat":43.30209,"lon":5.39472,"is_reserved":false,"is_disabled":false,"rental_uris":{"android":"levelo://app?vid=47753d3b-8fe5-4e3d-a57c-c661fe640f8e","ios":"levelo://app?vid=47753d3b-8fe5-4e3d-a57c-c661fe640f8e"},"vehicle_type_id":"4","last_reported":1771172258,"current_range_meters":17600,"station_id":"ce4bh0p2rcd13ifvqd70","pricing_plan_id":"cebpf4jnsgd1na2vs0mg"},{"bike_id":"ace3a3b0-15e9-492e-8ef6-e0c69997f592","system_id":"levelo_inurba_marseille","lat":43.2899,"lon":5.35597,"is_reserved":false,"is_disabled":false,"rental_uris":{"android":"levelo://app?vid=ace3a3b0-15e9-492e-8ef6-e0c69997f592","ios":"levelo://app?vid=ace3a3b0-15e9-492e-8ef6-e0c69997f592"},"vehicle_type_id":"4","last_reported":1771172258,"current_range_meters":37600,"station_id":"ce4bhb92rcd13ifvqen0","pricing_plan_id":"cebpf4jnsgd1na2vs0mg"},{"bike_id":"158c9424-fb28-4785-ae2b-b134432cb308","system_id":"levelo_inurba_marseille","lat":43.305701,"lon":5.365153,"is_reserved":false,"is_disabled":false,"rental_uris":{"android":"levelo://app?vid=158c9424-fb28-4785-ae2b-b134432cb308","ios":"levelo://app?vid=158c9424-fb28-4785-ae2b-b134432cb308"},"vehicle_type_id":"4","last_reported":1771172258,"current_range_meters":30400,"station_id":"ce4bgs12rcd13ifvqcag","pricing_plan_id":"cebpf4jnsgd1na2vs0mg"},{"bike_id":"563037d3-7108-43f4-9824-3cbb130d2a47","system_id":"levelo_inurba_marseille","lat":43.30158,"lon":5.38092,"is_reserved":false,"is_disabled":false,"rental_uris":{"android":"levelo://app?vid=563037d3-7108-43f4-9824-3cbb130d2a47","ios":"levelo://app?vid=563037d3-7108-43f4-9824-3cbb130d2a47"},"vehicle_type_id":"4","last_reported":1771172258,"current_range_meters":6800,"station_id":"ce4bgjp2rcd13ifvqbh0","pricing_plan_id":"cebpf4jnsgd1na2vs0mg"},{"bike_id":"ad8a9b7b-14b6-4c4e-9478-db3ca9df079c","system_id":"levelo_inurba_marseille","lat":43.2841,"lon":5.34987,"is_reserved":false,"is_disabled":false,"rental_uris":{"android":"levelo://app?vid=ad8a9b7b-14b6-4c4e-9478-db3ca9df079c","ios":"levelo://app?vid=ad8a9b7b-14b6-4c4e-9478-db3ca9df079c"},"vehicle_type_id":"4","last_reported":1771172258,"current_range_meters":34000,"station_id":"ce4bhbh2rcd13ifvqepg","pricing_plan_id":"cebpf4jnsgd1na2vs0mg"},{"bike_id":"3029fd03-fcab-4cd9-9277-025369248c19","system_id":"levelo_inurba_marseille","lat":43.26188,"lon":5.37446,"is_reserved":false,"is_disabled":false,"rental_uris":{"android":"levelo://app?vid=3029fd03-fcab-4cd9-9277-025369248c19","ios":"levelo://app?vid=3029fd03-fcab-4cd9-9277-025369248c19"},"vehicle_type_id":"4","last_reported":1771172258,"current_range_meters":14000,"station_id":"ce4bhgp2rcd13ifvqfc0","pricing_plan_id":"cebpf4jnsgd1na2vs0mg"},{"bike_id":"4cb2a9d8-8a61-4838-80c1-000f896cc9a0","system_id":"levelo_inurba_marseille","lat":43.28426,"lon":5.34975,"is_reserved":false,"is_disabled":false,"rental_uris":{"android":"levelo://app?vid=4cb2a9d8-8a61-4838-80c1-000f896cc9a0","ios":"levelo://app?vid=4cb2a9d8-8a61-4838-80c1-000f896cc9a0"},"vehicle_type_id":"4","last_reported":1771172258,"current_range_meters":9600,"station_id":"ce4bhbh2rcd13ifvqepg","pricing_plan_id":"cebpf4jnsgd1na2vs0mg"},{"bike_id":"61eff903-483f-41ec-a514-0f580cd1a431","system_id":"levelo_inurba_marseille","lat":43.249495,"lon":5.405,"is_reserved":false,"is_disabled":false,"rental_uris":{"android":"levelo://app?vid=61eff903-483f-41ec-a514-0f580cd1a431","ios":"levelo://app?vid=61eff903-483f-41ec-a514-0f580cd1a431"},"vehicle_type_id":"4","last_reported":1771172258,"current_range_meters":26000,"station_id":"st_d2ngiaodas8pm72gd1h0","pricing_plan_id":"cebpf4jnsgd1na2vs0mg"},{"bike_id":"8cf2d6d7-e51d-4831-bd1b-4195dd83b79f","system_id":"levelo_inurba_marseille","lat":43.29259,"lon":5.40875,"is_reserved":false,"is_disabled":false,"rental_uris":{"android":"levelo://app?vid=8cf2d6d7-e51d-4831-bd1b-4195dd83b79f","ios":"levelo://app?vid=8cf2d6d7-e51d-4831-bd1b-4195dd83b79f"},"vehicle_type_id":"4","last_reported":1771172258,"current_range_meters":8000,"station_id":"ce4bh192rcd13ifvqdc0","pricing_plan_id":"cebpf4jnsgd1na2vs0mg"},{"bike_id":"682e73a5-18c8-4079-9eef-9a2ab09cd23c","system_id":"levelo_inurba_marseille","lat":43.30575,"lon":5.37203,"is_reserved":false,"is_disabled":false,"rental_uris":{"android":"levelo://app?vid=682e73a5-18c8-4079-9eef-9a2ab09cd23c","ios":"levelo://app?vid=682e73a5-18c8-4079-9eef-9a2ab09cd23c"},"vehicle_type_id":"4","last_reported":1771172258,"current_range_meters":38000,"station_id":"ce4bgqh2rcd13ifvqc4g","pricing_plan_id":"cebpf4jnsgd1na2vs0mg"},{"bike_id":"3ac8d135-347a-4bac-b4fe-99d4725f5344","system_id":"levelo_inurba_marseille","lat":43.31033,"lon":5.40186,"is_reserved":false,"is_disabled":true,"rental_uris":{"android":"levelo://app?vid=3ac8d135-347a-4bac-b4fe-99d4725f5344","ios":"levelo://app?vid=3ac8d135-347a-4bac-b4fe-99d4725f5344"},"vehicle_type_id":"4","last_reported":1771172258,"current_range_meters":1200,"station_id":"","pricing_plan_id":"cebpf4jnsgd1na2vs0mg"},{"bike_id":"a7301c03-1d19-48a2-933a-123b05a538a5","system_id":"levelo_inurba_marseille","lat":43.31704,"lon":5.40471,"is_reserved":false,"is_disabled":false,"rental_uris":{"android":"levelo://app?vid=a7301c03-1d19-48a2-933a-123b05a538a5","ios":"levelo://app?vid=a7301c03-1d19-48a2-933a-123b05a538a5"},"vehicle_type_id":"4","last_reported":1771172258,"current_range_meters":12400,"station_id":"ce4bh012rcd13ifvqd00","pricing_plan_id":"cebpf4jnsgd1na2vs0mg"},{"bike_id":"11bbe498-cd8f-4b2e-8e45-54529a7a0a47","system_id":"levelo_inurba_marseille","lat":43.29754,"lon":5.42792,"is_reserved":false,"is_disabled":false,"rental_uris":{"android":"levelo://app?vid=11bbe498-cd8f-4b2e-8e45-54529a7a0a47","ios":"levelo://app?vid=11bbe498-cd8f-4b2e-8e45-54529a7a0a47"},"vehicle_type_id":"4","last_reported":1771172258,"current_range_meters":4000,"station_id":"st_d3md5207bmas73dh9klg","pricing_plan_id":"cebpf4jnsgd1na2vs0mg"},{"bike_id":"db85d612-2486-4180-a7a9-4b56d8d31f7d","system_id":"levelo_inurba_marseille","lat":43.292689,"lon":5.368478,"is_reserved":false,"is_disabled":false,"rental_uris":{"android":"levelo://app?vid=db85d612-2486-4180-a7a9-4b56d8d31f7d","ios":"levelo://app?vid=db85d612-2486-4180-a7a9-4b56d8d31f7d"},"vehicle_type_id":"4","last_reported":1771172258,"current_range_meters":32000,"station_id":"ce4bhbp2rcd13ifvqesg","pricing_plan_id":"cebpf4jnsgd1na2vs0mg"},{"bike_id":"c68d4169-f907-4c79-9246-9c72b1a7a46a","system_id":"levelo_inurba_marseille","lat":43.29219,"lon":5.36047,"is_reserved":false,"is_disabled":false,"rental_uris":{"android":"levelo://app?vid=c68d4169-f907-4c79-9246-9c72b1a7a46a","ios":"levelo://app?vid=c68d4169-f907-4c79-9246-9c72b1a7a46a"},"vehicle_type_id":"4","last_reported":1771172258,"current_range_meters":5600,"station_id":"ce4bhbh2rcd13ifvqeqg","pricing_plan_id":"cebpf4jnsgd1na2vs0mg"},{"bike_id":"6f6a04ad-dd00-4f4a-bdfd-a835cfa0cc11","system_id":"levelo_inurba_marseille","lat":43.27066,"lon":5.38301,"is_reserved":false,"is_disabled":false,"rental_uris":{"android":"levelo://app?vid=6f6a04ad-dd00-4f4a-bdfd-a835cfa0cc11","ios":"levelo://app?vid=6f6a04ad-dd00-4f4a-bdfd-a835cfa0cc11"},"vehicle_type_id":"4","last_reported":1771172258,"current_range_meters":32400,"station_id":"st_d3n2fo6cfp8s73cte1j0","pricing_plan_id":"cebpf4jnsgd1na2vs0mg"},{"bike_id":"801aea90-6d04-4d6c-bccd-030211377390","system_id":"levelo_inurba_marseille","lat":43.27497,"lon":5.42448,"is_reserved":false,"is_disabled":false,"rental_uris":{"android":"levelo://app?vid=801aea90-6d04-4d6c-bccd-030211377390","ios":"levelo://app?vid=801aea90-6d04-4d6c-bccd-030211377390"},"vehicle_type_id":"4","last_reported":1771172258,"current_range_meters":23200,"station_id":"ce4bhn92rcd13ifvqgrg","pricing_plan_id":"cebpf4jnsgd1na2vs0mg"},{"bike_id":"4e4c79b4-286f-458a-a494-98664f2e8591","system_id":"levelo_inurba_marseille","lat":43.33125,"lon":5.39271,"is_reserved":false,"is_disabled":false,"rental_uris":{"android":"levelo://app?vid=4e4c79b4-286f-458a-a494-98664f2e8591","ios":"levelo://app?vid=4e4c79b4-286f-458a-a494-98664f2e8591"},"vehicle_type_id":"4","last_reported":1771172258,"current_range_meters":29600,"station_id":"","pricing_plan_id":"cebpf4jnsgd1na2vs0mg"},{"bike_id":"fcdee124-54c2-45c2-866c-075925635f0c","system_id":"levelo_inurba_marseille","lat":43.28605,"lon":5.35084,"is_reserved":false,"is_disabled":false,"rental_uris":{"android":"levelo://app?vid=fcdee124-54c2-45c2-866c-075925635f0c","ios":"levelo://app?vid=fcdee124-54c2-45c2-866c-075925635f0c"},"vehicle_type_id":"4","last_reported":1771172258,"current_range_meters":19600,"station_id":"ce4bhch2rcd13ifvqeug","pricing_plan_id":"cebpf4jnsgd1na2vs0mg"},{"bike_id":"3466503b-af29-415c-826a-265b92625e7e","system_id":"levelo_inurba_marseille","lat":43.32125,"lon":5.3676,"is_reserved":false,"is_disabled":false,"rental_uris":{"android":"levelo://app?vid=3466503b-af29-415c-826a-265b92625e7e","ios":"levelo://app?vid=3466503b-af29-415c-826a-265b92625e7e"},"vehicle_type_id":"4","last_reported":1771172258,"current_range_meters":28400,"station_id":"ce4bhrh2rcd13ifvqhug","pricing_plan_id":"cebpf4jnsgd1na2vs0mg"},{"bike_id":"25d51c1e-0ea8-4ce1-9f5c-119d4a15130a","system_id":"levelo_inurba_marseille","lat":43.264959,"lon":5.395546,"is_reserved":false,"is_disabled":false,"rental_uris":{"android":"levelo://app?vid=25d51c1e-0ea8-4ce1-9f5c-119d4a15130a","ios":"levelo://app?vid=25d51c1e-0ea8-4ce1-9f5c-119d4a15130a"},"vehicle_type_id":"4","last_reported":1771172258,"current_range_meters":22800,"station_id":"ce4bhi12rcd13ifvqfq0","pricing_plan_id":"cebpf4jnsgd1na2vs0mg"},{"bike_id":"5c5d9bd9-b1c9-4a72-8717-53b6216b3a27","system_id":"levelo_inurba_marseille","lat":43.29792,"lon":5.39352,"is_reserved":false,"is_disabled":false,"rental_uris":{"android":"levelo://app?vid=5c5d9bd9-b1c9-4a72-8717-53b6216b3a27","ios":"levelo://app?vid=5c5d9bd9-b1c9-4a72-8717-53b6216b3a27"},"vehicle_type_id":"4","last_reported":1771172258,"current_range_meters":30800,"station_id":"chh1huq6cuj3fo74tm60","pricing_plan_id":"cebpf4jnsgd1na2vs0mg"},{"bike_id":"6d819218-6dc0-4758-82ab-51c5e4561485","system_id":"levelo_inurba_marseille","lat":43.28621,"lon":5.35094,"is_reserved":false,"is_disabled":false,"rental_uris":{"android":"levelo://app?vid=6d819218-6dc0-4758-82ab-51c5e4561485","ios":"levelo://app?vid=6d819218-6dc0-4758-82ab-51c5e4561485"},"vehicle_type_id":"4","last_reported":1771172258,"current_range_meters":6800,"station_id":"ce4bhch2rcd13ifvqeug","pricing_plan_id":"cebpf4jnsgd1na2vs0mg"},{"bike_id":"ac89198c-c702-4d3c-9029-266a18e0ed53","system_id":"levelo_inurba_marseille","lat":43.30916,"lon":5.36857,"is_reserved":false,"is_disabled":false,"rental_uris":{"android":"levelo://app?vid=ac89198c-c702-4d3c-9029-266a18e0ed53","ios":"levelo://app?vid=ac89198c-c702-4d3c-9029-266a18e0ed53"},"vehicle_type_id":"4","last_reported":1771172258,"current_range_meters":24800,"station_id":"ce4bgn92rcd13ifvqbvg","pricing_plan_id":"cebpf4jnsgd1na2vs0mg"},{"bike_id":"0cfeca90-3a0f-4841-9a00-2513602bf4d3","system_id":"levelo_inurba_marseille","lat":43.29609,"lon":5.37705,"is_reserved":false,"is_disabled":false,"rental_uris":{"android":"levelo://app?vid=0cfeca90-3a0f-4841-9a00-2513602bf4d3","ios":"levelo://app?vid=0cfeca90-3a0f-4841-9a00-2513602bf4d3"},"vehicle_type_id":"4","last_reported":1771172258,"current_range_meters":31200,"station_id":"ce4bgi92rcd13ifvqb90","pricing_plan_id":"cebpf4jnsgd1na2vs0mg"},{"bike_id":"eaa5a20b-1cfb-4952-b36f-41363341fdee","system_id":"levelo_inurba_marseille","lat":43.23981,"lon":5.36604,"is_reserved":false,"is_disabled":false,"rental_uris":{"android":"levelo://app?vid=eaa5a20b-1cfb-4952-b36f-41363341fdee","ios":"levelo://app?vid=eaa5a20b-1cfb-4952-b36f-41363341fdee"},"vehicle_type_id":"4","last_reported":1771172258,"current_range_meters":12400,"station_id":"ce4bhi12rcd13ifvqfp0","pricing_plan_id":"cebpf4jnsgd1na2vs0mg"},{"bike_id":"728a8600-c06b-4447-9a71-a43a2371fd54","system_id":"levelo_inurba_marseille","lat":43.25082,"lon":5.39505,"is_reserved":false,"is_disabled":true,"rental_uris":{"android":"levelo://app?vid=728a8600-c06b-4447-9a71-a43a2371fd54","ios":"levelo://app?vid=728a8600-c06b-4447-9a71-a43a2371fd54"},"vehicle_type_id":"4","last_reported":1771172258,"current_range_meters":10800,"station_id":"ce4bhm12rcd13ifvqgkg","pricing_plan_id":"cebpf4jnsgd1na2vs0mg"},{"bike_id":"ea90ff18-89ca-468b-9c65-2bfa0ffd613b","system_id":"levelo_inurba_marseille","lat":43.26778,"lon":5.39427,"is_reserved":false,"is_disabled":false,"rental_uris":{"android":"levelo://app?vid=ea90ff18-89ca-468b-9c65-2bfa0ffd613b","ios":"levelo://app?vid=ea90ff18-89ca-468b-9c65-2bfa0ffd613b"},"vehicle_type_id":"4","last_reported":1771172258,"current_range_meters":25200,"station_id":"ce4bhh12rcd13ifvqfg0","pricing_plan_id":"cebpf4jnsgd1na2vs0mg"},{"bike_id":"8737a08f-def5-40a2-8352-dee367d723f1","system_id":"levelo_inurba_marseille","lat":43.27336,"lon":5.39082,"is_reserved":false,"is_disabled":false,"rental_uris":{"android":"levelo://app?vid=8737a08f-def5-40a2-8352-dee367d723f1","ios":"levelo://app?vid=8737a08f-def5-40a2-8352-dee367d723f1"},"vehicle_type_id":"4","last_reported":1771172258,"current_range_meters":38400,"station_id":"ce4bhgp2rcd13ifvqfe0","pricing_plan_id":"cebpf4jnsgd1na2vs0mg"},{"bike_id":"2f0b85aa-c457-4958-914e-08f5ab13887b","system_id":"levelo_inurba_marseille","lat":43.24077,"lon":5.37752,"is_reserved":false,"is_disabled":false,"rental_uris":{"android":"levelo://app?vid=2f0b85aa-c457-4958-914e-08f5ab13887b","ios":"levelo://app?vid=2f0b85aa-c457-4958-914e-08f5ab13887b"},"vehicle_type_id":"4","last_reported":1771172258,"current_range_meters":26800,"station_id":"ce4bhnp2rcd13ifvqgvg","pricing_plan_id":"cebpf4jnsgd1na2vs0mg"},{"bike_id":"978d2f99-2f31-4c4e-be2a-4e68224c9eda","system_id":"levelo_inurba_marseille","lat":43.26803,"lon":5.40252,"is_reserved":false,"is_disabled":false,"rental_uris":{"android":"levelo://app?vid=978d2f99-2f31-4c4e-be2a-4e68224c9eda","ios":"levelo://app?vid=978d2f99-2f31-4c4e-be2a-4e68224c9eda"},"vehicle_type_id":"4","last_reported":1771172258,"current_range_meters":24800,"station_id":"ce501612rcd8frsf0b60","pricing_plan_id":"cebpf4jnsgd1na2vs0mg"},{"bike_id":"e71994a2-65a6-4b6d-9113-3678b38f3c81","system_id":"levelo_inurba_marseille","lat":43.30462,"lon":5.36691,"is_reserved":false,"is_disabled":false,"rental_uris":{"android":"levelo://app?vid=e71994a2-65a6-4b6d-9113-3678b38f3c81","ios":"levelo://app?vid=e71994a2-65a6-4b6d-9113-3678b38f3c81"},"vehicle_type_id":"4","last_reported":1771172258,"current_range_meters":14000,"station_id":"","pricing_plan_id":"cebpf4jnsgd1na2vs0mg"},{"bike_id":"fa390c97-a1ba-4dd3-ac05-96a0cadd68c2","system_id":"levelo_inurba_marseille","lat":43.2695,"lon":5.38635,"is_reserved":false,"is_disabled":true,"rental_uris":{"android":"levelo://app?vid=fa390c97-a1ba-4dd3-ac05-96a0cadd68c2","ios":"levelo://app?vid=fa390c97-a1ba-4dd3-ac05-96a0cadd68c2"},"vehicle_type_id":"4","last_reported":1771172258,"current_range_meters":32800,"station_id":"ce4bhh92rcd13ifvqfh0","pricing_plan_id":"cebpf4jnsgd1na2vs0mg"},{"bike_id":"2d0e6cb5-4c4b-4dc3-971d-8835a40341c7","system_id":"levelo_inurba_marseille","lat":43.27297,"lon":5.39098,"is_reserved":false,"is_disabled":false,"rental_uris":{"android":"levelo://app?vid=2d0e6cb5-4c4b-4dc3-971d-8835a40341c7","ios":"levelo://app?vid=2d0e6cb5-4c4b-4dc3-971d-8835a40341c7"},"vehicle_type_id":"4","last_reported":1771172258,"current_range_meters":38000,"station_id":"ce4bhgp2rcd13ifvqfe0","pricing_plan_id":"cebpf4jnsgd1na2vs0mg"},{"bike_id":"cf8b7d0a-9a5a-4f97-92c3-931492bbfb02","system_id":"levelo_inurba_marseille","lat":43.27212,"lon":5.40967,"is_reserved":false,"is_disabled":false,"rental_uris":{"android":"levelo://app?vid=cf8b7d0a-9a5a-4f97-92c3-931492bbfb02","ios":"levelo://app?vid=cf8b7d0a-9a5a-4f97-92c3-931492bbfb02"},"vehicle_type_id":"4","last_reported":1771172258,"current_range_meters":28800,"station_id":"","pricing_plan_id":"cebpf4jnsgd1na2vs0mg"},{"bike_id":"bfd9d056-3cd0-4156-bc1c-ed231a73ccbf","system_id":"levelo_inurba_marseille","lat":43.295586,"lon":5.375216,"is_reserved":false,"is_disabled":false,"rental_uris":{"android":"levelo://app?vid=bfd9d056-3cd0-4156-bc1c-ed231a73ccbf","ios":"levelo://app?vid=bfd9d056-3cd0-4156-bc1c-ed231a73ccbf"},"vehicle_type_id":"4","last_reported":1771172258,"current_range_meters":14400,"station_id":"ce4bgh92rcd13ifvqb50","pricing_plan_id":"cebpf4jnsgd1na2vs0mg"},{"bike_id":"07ce1f5d-6f17-46fa-a2c3-775082efdead","system_id":"levelo_inurba_marseille","lat":43.27325,"lon":5.39109,"is_reserved":false,"is_disabled":false,"rental_uris":{"android":"levelo://app?vid=07ce1f5d-6f17-46fa-a2c3-775082efdead","ios":"levelo://app?vid=07ce1f5d-6f17-46fa-a2c3-775082efdead"},"vehicle_type_id":"4","last_reported":1771172258,"current_range_meters":39200,"station_id":"ce4bhgp2rcd13ifvqfe0","pricing_plan_id":"cebpf4jnsgd1na2vs0mg"},{"bike_id":"88ff9439-db02-4be2-a9f2-dbfd8e7a5968","system_id":"levelo_inurba_marseille","lat":43.25852,"lon":5.39908,"is_reserved":false,"is_disabled":false,"rental_uris":{"android":"levelo://app?vid=88ff9439-db02-4be2-a9f2-dbfd8e7a5968","ios":"levelo://app?vid=88ff9439-db02-4be2-a9f2-dbfd8e7a5968"},"vehicle_type_id":"4","last_reported":1771172258,"current_range_meters":31200,"station_id":"ce4bhl92rcd13ifvqghg","pricing_plan_id":"cebpf4jnsgd1na2vs0mg"},{"bike_id":"cfae685f-c63c-4f49-9c1b-ab3959e7fdd6","system_id":"levelo_inurba_marseille","lat":43.24944,"lon":5.40499,"is_reserved":false,"is_disabled":false,"rental_uris":{"android":"levelo://app?vid=cfae685f-c63c-4f49-9c1b-ab3959e7fdd6","ios":"levelo://app?vid=cfae685f-c63c-4f49-9c1b-ab3959e7fdd6"},"vehicle_type_id":"4","last_reported":1771172258,"current_range_meters":36400,"station_id":"st_d2ngiaodas8pm72gd1h0","pricing_plan_id":"cebpf4jnsgd1na2vs0mg"},{"bike_id":"a0e179e8-519f-4d2a-8892-4488b4514611","system_id":"levelo_inurba_marseille","lat":43.27903,"lon":5.39578,"is_reserved":false,"is_disabled":false,"rental_uris":{"android":"levelo://app?vid=a0e179e8-519f-4d2a-8892-4488b4514611","ios":"levelo://app?vid=a0e179e8-519f-4d2a-8892-4488b4514611"},"vehicle_type_id":"4","last_reported":1771172258,"current_range_meters":24000,"station_id":"ce4bhf92rcd13ifvqf40","pricing_plan_id":"cebpf4jnsgd1na2vs0mg"},{"bike_id":"a92aea04-d9ee-40a7-9385-9fbb090f0026","system_id":"levelo_inurba_marseille","lat":43.2606,"lon":5.393936,"is_reserved":false,"is_disabled":false,"rental_uris":{"android":"levelo://app?vid=a92aea04-d9ee-40a7-9385-9fbb090f0026","ios":"levelo://app?vid=a92aea04-d9ee-40a7-9385-9fbb090f0026"},"vehicle_type_id":"4","last_reported":1771172258,"current_range_meters":39200,"station_id":"ce4bhh92rcd13ifvqfj0","pricing_plan_id":"cebpf4jnsgd1na2vs0mg"},{"bike_id":"7fe9f8d0-2fa5-4c21-899b-a2d0263d69bd","system_id":"levelo_inurba_marseille","lat":43.29879,"lon":5.38913,"is_reserved":false,"is_disabled":false,"rental_uris":{"android":"levelo://app?vid=7fe9f8d0-2fa5-4c21-899b-a2d0263d69bd","ios":"levelo://app?vid=7fe9f8d0-2fa5-4c21-899b-a2d0263d69bd"},"vehicle_type_id":"4","last_reported":1771172258,"current_range_meters":38800,"station_id":"ce4bh392rcd13ifvqdl0","pricing_plan_id":"cebpf4jnsgd1na2vs0mg"},{"bike_id":"ddc08c7d-272e-4f9e-9760-0703e441790a","system_id":"levelo_inurba_marseille","lat":43.29565,"lon":5.37516,"is_reserved":false,"is_disabled":false,"rental_uris":{"android":"levelo://app?vid=ddc08c7d-272e-4f9e-9760-0703e441790a","ios":"levelo://app?vid=ddc08c7d-272e-4f9e-9760-0703e441790a"},"vehicle_type_id":"4","last_reported":1771172258,"current_range_meters":28400,"station_id":"ce4bgh92rcd13ifvqb50","pricing_plan_id":"cebpf4jnsgd1na2vs0mg"},{"bike_id":"d6d15dcd-00cd-47b6-8ef5-5f734da75b32","system_id":"levelo_inurba_marseille","lat":43.2929,"lon":5.37451,"is_reserved":false,"is_disabled":false,"rental_uris":{"android":"levelo://app?vid=d6d15dcd-00cd-47b6-8ef5-5f734da75b32","ios":"levelo://app?vid=d6d15dcd-00cd-47b6-8ef5-5f734da75b32"},"vehicle_type_id":"4","last_reported":1771172258,"current_range_meters":14400,"station_id":"ce4bgi12rcd13ifvqb70","pricing_plan_id":"cebpf4jnsgd1na2vs0mg"},{"bike_id":"9a845590-bef0-4cac-8aaf-99569a2ff2ac","system_id":"levelo_inurba_marseille","lat":43.29263,"lon":5.40902,"is_reserved":false,"is_disabled":false,"rental_uris":{"android":"levelo://app?vid=9a845590-bef0-4cac-8aaf-99569a2ff2ac","ios":"levelo://app?vid=9a845590-bef0-4cac-8aaf-99569a2ff2ac"},"vehicle_type_id":"4","last_reported":1771172258,"current_range_meters":36800,"station_id":"ce4bh192rcd13ifvqdc0","pricing_plan_id":"cebpf4jnsgd1na2vs0mg"},{"bike_id":"8491b334-0ba7-4277-9797-3edac002b21f","system_id":"levelo_inurba_marseille","lat":43.26221,"lon":5.4046,"is_reserved":false,"is_disabled":false,"rental_uris":{"android":"levelo://app?vid=8491b334-0ba7-4277-9797-3edac002b21f","ios":"levelo://app?vid=8491b334-0ba7-4277-9797-3edac002b21f"},"vehicle_type_id":"4","last_reported":1771172258,"current_range_meters":8400,"station_id":"ce4bhmh2rcd13ifvqgmg","pricing_plan_id":"cebpf4jnsgd1na2vs0mg"},{"bike_id":"6c78efb4-21ea-48b6-a077-5447702c0f63","system_id":"levelo_inurba_marseille","lat":43.29872,"lon":5.43663,"is_reserved":false,"is_disabled":false,"rental_uris":{"android":"levelo://app?vid=6c78efb4-21ea-48b6-a077-5447702c0f63","ios":"levelo://app?vid=6c78efb4-21ea-48b6-a077-5447702c0f63"},"vehicle_type_id":"4","last_reported":1771172258,"current_range_meters":32800,"station_id":"ce4bhpp2rcd13ifvqhfg","pricing_plan_id":"cebpf4jnsgd1na2vs0mg"},{"bike_id":"77d1d293-10fd-49de-a4ca-b7d708651906","system_id":"levelo_inurba_marseille","lat":43.26801,"lon":5.39461,"is_reserved":false,"is_disabled":false,"rental_uris":{"android":"levelo://app?vid=77d1d293-10fd-49de-a4ca-b7d708651906","ios":"levelo://app?vid=77d1d293-10fd-49de-a4ca-b7d708651906"},"vehicle_type_id":"4","last_reported":1771172258,"current_range_meters":26000,"station_id":"","pricing_plan_id":"cebpf4jnsgd1na2vs0mg"},{"bike_id":"af1bad4a-9a8c-4ce6-826d-62498546f4f1","system_id":"levelo_inurba_marseille","lat":43.30447,"lon":5.36861,"is_reserved":false,"is_disabled":false,"rental_uris":{"android":"levelo://app?vid=af1bad4a-9a8c-4ce6-826d-62498546f4f1","ios":"levelo://app?vid=af1bad4a-9a8c-4ce6-826d-62498546f4f1"},"vehicle_type_id":"4","last_reported":1771172258,"current_range_meters":25600,"station_id":"","pricing_plan_id":"cebpf4jnsgd1na2vs0mg"},{"bike_id":"3bc2424b-71a6-4ff9-81ce-ed7417ce591d","system_id":"levelo_inurba_marseille","lat":43.29383,"lon":5.37849,"is_reserved":false,"is_disabled":false,"rental_uris":{"android":"levelo://app?vid=3bc2424b-71a6-4ff9-81ce-ed7417ce591d","ios":"levelo://app?vid=3bc2424b-71a6-4ff9-81ce-ed7417ce591d"},"vehicle_type_id":"4","last_reported":1771172258,"current_range_meters":38400,"station_id":"ce4bgjh2rcd13ifvqbf0","pricing_plan_id":"cebpf4jnsgd1na2vs0mg"},{"bike_id":"3a25bdb2-be92-4cff-9916-dc233380668f","system_id":"levelo_inurba_marseille","lat":43.28002,"lon":5.40019,"is_reserved":false,"is_disabled":false,"rental_uris":{"android":"levelo://app?vid=3a25bdb2-be92-4cff-9916-dc233380668f","ios":"levelo://app?vid=3a25bdb2-be92-4cff-9916-dc233380668f"},"vehicle_type_id":"4","last_reported":1771172258,"current_range_meters":32000,"station_id":"ce4bho92rcd13ifvqh4g","pricing_plan_id":"cebpf4jnsgd1na2vs0mg"},{"bike_id":"3bb5bc67-1d0a-4908-8016-273223517602","system_id":"levelo_inurba_marseille","lat":43.25978,"lon":5.39543,"is_reserved":false,"is_disabled":false,"rental_uris":{"android":"levelo://app?vid=3bb5bc67-1d0a-4908-8016-273223517602","ios":"levelo://app?vid=3bb5bc67-1d0a-4908-8016-273223517602"},"vehicle_type_id":"4","last_reported":1771172258,"current_range_meters":5600,"station_id":"","pricing_plan_id":"cebpf4jnsgd1na2vs0mg"},{"bike_id":"bb8da79f-40bd-46c5-8d9f-995adda9ec00","system_id":"levelo_inurba_marseille","lat":43.27973,"lon":5.3868,"is_reserved":false,"is_disabled":true,"rental_uris":{"android":"levelo://app?vid=bb8da79f-40bd-46c5-8d9f-995adda9ec00","ios":"levelo://app?vid=bb8da79f-40bd-46c5-8d9f-995adda9ec00"},"vehicle_type_id":"4","last_reported":1771172258,"current_range_meters":28400,"station_id":"","pricing_plan_id":"cebpf4jnsgd1na2vs0mg"},{"bike_id":"4ecccdf8-eeb1-4e16-8486-1a035343c059","system_id":"levelo_inurba_marseille","lat":43.28613,"lon":5.35093,"is_reserved":false,"is_disabled":false,"rental_uris":{"android":"levelo://app?vid=4ecccdf8-eeb1-4e16-8486-1a035343c059","ios":"levelo://app?vid=4ecccdf8-eeb1-4e16-8486-1a035343c059"},"vehicle_type_id":"4","last_reported":1771172258,"current_range_meters":14000,"station_id":"ce4bhch2rcd13ifvqeug","pricing_plan_id":"cebpf4jnsgd1na2vs0mg"},{"bike_id":"ac8d0ba6-7268-4fe2-9e65-16b755ecb82c","system_id":"levelo_inurba_marseille","lat":43.29509,"lon":5.39403,"is_reserved":false,"is_disabled":false,"rental_uris":{"android":"levelo://app?vid=ac8d0ba6-7268-4fe2-9e65-16b755ecb82c","ios":"levelo://app?vid=ac8d0ba6-7268-4fe2-9e65-16b755ecb82c"},"vehicle_type_id":"4","last_reported":1771172258,"current_range_meters":39200,"station_id":"ce4bh292rcd13ifvqdf0","pricing_plan_id":"cebpf4jnsgd1na2vs0mg"},{"bike_id":"b25d14fc-b504-4447-a03d-7ca17c4c80bd","system_id":"levelo_inurba_marseille","lat":43.25299,"lon":5.42202,"is_reserved":false,"is_disabled":false,"rental_uris":{"android":"levelo://app?vid=b25d14fc-b504-4447-a03d-7ca17c4c80bd","ios":"levelo://app?vid=b25d14fc-b504-4447-a03d-7ca17c4c80bd"},"vehicle_type_id":"4","last_reported":1771172258,"current_range_meters":24400,"station_id":"","pricing_plan_id":"cebpf4jnsgd1na2vs0mg"},{"bike_id":"9c84dd9d-345d-4e79-b566-6f7378557fe2","system_id":"levelo_inurba_marseille","lat":43.28425,"lon":5.3751,"is_reserved":false,"is_disabled":false,"rental_uris":{"android":"levelo://app?vid=9c84dd9d-345d-4e79-b566-6f7378557fe2","ios":"levelo://app?vid=9c84dd9d-345d-4e79-b566-6f7378557fe2"},"vehicle_type_id":"4","last_reported":1771172258,"current_range_meters":38400,"station_id":"ce4bh412rcd13ifvqds0","pricing_plan_id":"cebpf4jnsgd1na2vs0mg"},{"bike_id":"477d05e8-41fd-4178-9842-bf1ac5ecf9c6","system_id":"levelo_inurba_marseille","lat":43.261904,"lon":5.374493,"is_reserved":false,"is_disabled":true,"rental_uris":{"android":"levelo://app?vid=477d05e8-41fd-4178-9842-bf1ac5ecf9c6","ios":"levelo://app?vid=477d05e8-41fd-4178-9842-bf1ac5ecf9c6"},"vehicle_type_id":"4","last_reported":1771172258,"current_range_meters":0,"station_id":"ce4bhgp2rcd13ifvqfc0","pricing_plan_id":"cebpf4jnsgd1na2vs0mg"},{"bike_id":"9089ed9b-d6f5-4931-99df-119259a4097f","system_id":"levelo_inurba_marseille","lat":43.24681,"lon":5.38835,"is_reserved":false,"is_disabled":false,"rental_uris":{"android":"levelo://app?vid=9089ed9b-d6f5-4931-99df-119259a4097f","ios":"levelo://app?vid=9089ed9b-d6f5-4931-99df-119259a4097f"},"vehicle_type_id":"4","last_reported":1771172258,"current_range_meters":40000,"station_id":"ce4bhg12rcd13ifvqf60","pricing_plan_id":"cebpf4jnsgd1na2vs0mg"},{"bike_id":"d2229b13-3c01-426f-a1c3-3c9e5d3accfe","system_id":"levelo_inurba_marseille","lat":43.23369,"lon":5.41254,"is_reserved":false,"is_disabled":false,"rental_uris":{"android":"levelo://app?vid=d2229b13-3c01-426f-a1c3-3c9e5d3accfe","ios":"levelo://app?vid=d2229b13-3c01-426f-a1c3-3c9e5d3accfe"},"vehicle_type_id":"4","last_reported":1771172258,"current_range_meters":2800,"station_id":"","pricing_plan_id":"cebpf4jnsgd1na2vs0mg"},{"bike_id":"d023d277-de4f-4f8d-8ce8-685b15fa0053","system_id":"levelo_inurba_marseille","lat":43.28938,"lon":5.38402,"is_reserved":false,"is_disabled":false,"rental_uris":{"android":"levelo://app?vid=d023d277-de4f-4f8d-8ce8-685b15fa0053","ios":"levelo://app?vid=d023d277-de4f-4f8d-8ce8-685b15fa0053"},"vehicle_type_id":"4","last_reported":1771172258,"current_range_meters":36400,"station_id":"","pricing_plan_id":"cebpf4jnsgd1na2vs0mg"},