{"last_updated":1753204381,"ttl":60,"version":"2.2","data":{"bikes":[{"bike_id":"1250ff6c-c2a7-4511-80f3-383a4c68d5c2","system_id":"levelo_inurba_marseille","lat":43.2866,"lon":5.3868,"is_reserved":false,"is_disabled":false,"rental_uris":{"android":"levelo://app?vid=1250ff6c-c2a7-4511-80f3-383a4c68d5c2","ios":"levelo://app?vid=1250ff6c-c2a7-4511-80f3-383a4c68d5c2"},"vehicle_type_id":"4","last_reported":1753204381,"current_range_meters":2800,"station_id":"ce4bh492rcd13ifvqdug","pricing_plan_id":"cebpf4jnsgd1na2vs0mg"},{"bike_id":"05ec9b5d-e771-4d1e-85a9-c4ff9ee00124","system_id":"levelo_inurba_marseille","lat":43.25495,"lon":5.37655,"is_reserved":false,"is_disabled":false,"rental_uris":{"android":"levelo://app?vid=05ec9b5d-e771-4d1e-85a9-c4ff9ee00124","ios":"levelo://app?vid=05ec9b5d-e771-4d1e-85a9-c4ff9ee00124"},"vehicle_type_id":"4","last_reported":1753204381,"current_range_meters":2800,"station_id":"ce4bhh12rcd13ifvqff0","pricing_plan_id":"cebpf4jnsgd1na2vs0mg"},{"bike_id":"61b57b03-9d69-4f1d-8c61-02663b682476","system_id":"levelo_inurba_marseille","lat":43.30371,"lon":5.42464,"is_reserved":false,"is_disabled":true,"rental_uris":{"android":"levelo://app?vid=61b57b03-9d69-4f1d-8c61-02663b682476","ios":"levelo://app?vid=61b57b03-9d69-4f1d-8c61-02663b682476"},"vehicle_type_id":"4","last_reported":1753204381,"current_range_meters":2800,"station_id":"ce4bhoh2rcd13ifvqh6g","pricing_plan_id":"cebpf4jnsgd1na2vs0mg"},{"bike_id":"e3dcc7bf-4d63-451f-a978-dfaabec3bc1c","system_id":"levelo_inurba_marseille","lat":43.29534,"lon":5.38555,"is_reserved":false,"is_disabled":false,"rental_uris":{"android":"levelo://app?vid=e3dcc7bf-4d63-451f-a978-dfaabec3bc1c","ios":"levelo://app?vid=e3dcc7bf-4d63-451f-a978-dfaabec3bc1c"},"vehicle_type_id":"4","last_reported":1753204381,"current_range_meters":2800,"station_id":"ce4bgih2rcd13ifvqba0","pricing_plan_id":"cebpf4jnsgd1na2vs0mg"},{"bike_id":"f1f3fc6a-faa2-4ea3-8e6d-14c19445671c","system_id":"levelo_inurba_marseille","lat":43.295399,"lon":5.390408,"is_reserved":false,"is_disabled":false,"rental_uris":{"android":"levelo://app?vid=f1f3fc6a-faa2-4ea3-8e6d-14c19445671c","ios":"levelo://app?vid=f1f3fc6a-faa2-4ea3-8e6d-14c19445671c"},"vehicle_type_id":"4","last_reported":1753204381,"current_range_meters":3200,"station_id":"ce4bh3p2rcd13ifvqdp0","pricing_plan_id":"cebpf4jnsgd1na2vs0mg"},{"bike_id":"2570fccc-bc83-4857-aceb-da270b9d0cad","system_id":"levelo_inurba_marseille","lat":43.29479,"lon":5.38201,"is_reserved":false,"is_disabled":false,"rental_uris":{"android":"levelo://app?vid=2570fccc-bc83-4857-aceb-da270b9d0cad","ios":"levelo://app?vid=2570fccc-bc83-4857-aceb-da270b9d0cad"},"vehicle_type_id":"4","last_reported":1753204381,"current_range_meters":3200,"station_id":"","pricing_plan_id":"cebpf4jnsgd1na2vs0mg"},{"bike_id":"75e935fa-0229-4be9-afbd-6b4dee756fc0","system_id":"levelo_inurba_marseille","lat":43.30131,"lon":5.38783,"is_reserved":false,"is_disabled":false,"rental_uris":{"android":"levelo://app?vid=75e935fa-0229-4be9-afbd-6b4dee756fc0","ios":"levelo://app?vid=75e935fa-0229-4be9-afbd-6b4dee756fc0"},"vehicle_type_id":"4","last_reported":1753204381,"current_range_meters":3200,"station_id":"ce4bghh2rcd13ifvqb60","pricing_plan_id":"cebpf4jnsgd1na2vs0mg"},{"bike_id":"05b416f0-5c48-4e0f-ac36-dfd217a66215","system_id":"levelo_inurba_marseille","lat":43.21751,"lon":5.34595,"is_reserved":false,"is_disabled":false,"rental_uris":{"android":"levelo://app?vid=05b416f0-5c48-4e0f-ac36-dfd217a66215","ios":"levelo://app?vid=05b416f0-5c48-4e0f-ac36-dfd217a66215"},"vehicle_type_id":"4","last_reported":1753204381,"current_range_meters":3200,"station_id":"st_cvj6r9ubvosntc0bgbag","pricing_plan_id":"cebpf4jnsgd1na2vs0mg"},{"bike_id":"e73aef60-22f1-45ff-8cce-dc96dab65577","system_id":"levelo_inurba_marseille","lat":43.27974,"lon":5.41036,"is_reserved":false,"is_disabled":false,"rental_uris":{"android":"levelo://app?vid=e73aef60-22f1-45ff-8cce-dc96dab65577","ios":"levelo://app?vid=e73aef60-22f1-45ff-8cce-dc96dab65577"},"vehicle_type_id":"4","last_reported":1753204381,"current_range_meters":3200,"station_id":"ce4bhnp2rcd13ifvqh0g","pricing_plan_id":"cebpf4jnsgd1na2vs0mg"},{"bike_id":"9d6b9fa2-d4ac-444b-80b9-2cce1ce8ab70","system_id":"levelo_inurba_marseille","lat":43.28701,"lon":5.37386,"is_reserved":false,"is_disabled":false,"rental_uris":{"android":"levelo://app?vid=9d6b9fa2-d4ac-444b-80b9-2cce1ce8ab70","ios":"levelo://app?vid=9d6b9fa2-d4ac-444b-80b9-2cce1ce8ab70"},"vehicle_type_id":"4","last_reported":1753204381,"current_range_meters":3200,"station_id":"ce4bh3p2rcd13ifvqdq0","pricing_plan_id":"cebpf4jnsgd1na2vs0mg"},{"bike_id":"77de9928-4e4e-41e9-9dcf-94ef3236205d","system_id":"levelo_inurba_marseille","lat":43.29211,"lon":5.3607,"is_reserved":false,"is_disabled":false,"rental_uris":{"android":"levelo://app?vid=77de9928-4e4e-41e9-9dcf-94ef3236205d","ios":"levelo://app?vid=77de9928-4e4e-41e9-9dcf-94ef3236205d"},"vehicle_type_id":"4","last_reported":1753204381,"current_range_meters":3200,"station_id":"ce4bhbh2rcd13ifvqeqg","pricing_plan_id":"cebpf4jnsgd1na2vs0mg"},{"bike_id":"1c762d52-293d-469a-a24c-2c5369d77fdf","system_id":"levelo_inurba_marseille","lat":43.28857,"lon":5.35864,"is_reserved":false,"is_disabled":false,"rental_uris":{"android":"levelo://app?vid=1c762d52-293d-469a-a24c-2c5369d77fdf","ios":"levelo://app?vid=1c762d52-293d-469a-a24c-2c5369d77fdf"},"vehicle_type_id":"4","last_reported":1753204381,"current_range_meters":3200,"station_id":"ce4bhb12rcd13ifvqem0","pricing_plan_id":"cebpf4jnsgd1na2vs0mg"},{"bike_id":"c450ef0f-7108-40a9-aa29-6425518e134f","system_id":"levelo_inurba_marseille","lat":43.21738,"lon":5.34613,"is_reserved":false,"is_disabled":false,"rental_uris":{"android":"levelo://app?vid=c450ef0f-7108-40a9-aa29-6425518e134f","ios":"levelo://app?vid=c450ef0f-7108-40a9-aa29-6425518e134f"},"vehicle_type_id":"4","last_reported":1753204381,"current_range_meters":3200,"station_id":"st_cvj6r9ubvosntc0bgbag","pricing_plan_id":"cebpf4jnsgd1na2vs0mg"},{"bike_id":"e058211e-2e54-4adc-a83a-bc2e586f9e44","system_id":"levelo_inurba_marseille","lat":43.3031,"lon":5.39205,"is_reserved":false,"is_disabled":true,"rental_uris":{"android":"levelo://app?vid=e058211e-2e54-4adc-a83a-bc2e586f9e44","ios":"levelo://app?vid=e058211e-2e54-4adc-a83a-bc2e586f9e44"},"vehicle_type_id":"4","last_reported":1753204381,"current_range_meters":3600,"station_id":"ce4bgkh2rcd13ifvqbk0","pricing_plan_id":"cebpf4jnsgd1na2vs0mg"},{"bike_id":"617477ca-c1dc-4351-8fac-dca8acccda79","system_id":"levelo_inurba_marseille","lat":43.231766,"lon":5.399858,"is_reserved":false,"is_disabled":false,"rental_uris":{"android":"levelo://app?vid=617477ca-c1dc-4351-8fac-dca8acccda79","ios":"levelo://app?vid=617477ca-c1dc-4351-8fac-dca8acccda79"},"vehicle_type_id":"4","last_reported":1753204381,"current_range_meters":3600,"station_id":"ce4bhn12rcd13ifvqgqg","pricing_plan_id":"cebpf4jnsgd1na2vs0mg"},{"bike_id":"cc81ad0d-e8fd-428a-a4ed-ccf074cd555a","system_id":"levelo_inurba_marseille","lat":43.29002,"lon":5.35658,"is_reserved":false,"is_disabled":false,"rental_uris":{"android":"levelo://app?vid=cc81ad0d-e8fd-428a-a4ed-ccf074cd555a","ios":"levelo://app?vid=cc81ad0d-e8fd-428a-a4ed-ccf074cd555a"},"vehicle_type_id":"4","last_reported":1753204381,"current_range_meters":3600,"station_id":"ce4bhb92rcd13ifvqen0","pricing_plan_id":"cebpf4jnsgd1na2vs0mg"},{"bike_id":"e95282c8-eada-4e6e-bb02-85f6bba74eed","system_id":"levelo_inurba_marseille","lat":43.26028,"lon":5.37553,"is_reserved":false,"is_disabled":false,"rental_uris":{"android":"levelo://app?vid=e95282c8-eada-4e6e-bb02-85f6bba74eed","ios":"levelo://app?vid=e95282c8-eada-4e6e-bb02-85f6bba74eed"},"vehicle_type_id":"4","last_reported":1753204381,"current_range_meters":3600,"station_id":"ce4bhgh2rcd13ifvqfa0","pricing_plan_id":"cebpf4jnsgd1na2vs0mg"},{"bike_id":"00fa3602-2cfe-46ec-8187-c718ea6bb483","system_id":"levelo_inurba_marseille","lat":43.29031,"lon":5.37569,"is_reserved":false,"is_disabled":false,"rental_uris":{"android":"levelo://app?vid=00fa3602-2cfe-46ec-8187-c718ea6bb483","ios":"levelo://app?vid=00fa3602-2cfe-46ec-8187-c718ea6bb483"},"vehicle_type_id":"4","last_reported":1753204381,"current_range_meters":3600,"station_id":"ce4bh692rcd13ifvqe90","pricing_plan_id":"cebpf4jnsgd1na2vs0mg"},{"bike_id":"544835f8-5d0a-4ea5-ac60-d0768457fffd","system_id":"levelo_inurba_marseille","lat":43.21746,"lon":5.34608,"is_reserved":false,"is_disabled":false,"rental_uris":{"android":"levelo://app?vid=544835f8-5d0a-4ea5-ac60-d0768457fffd","ios":"levelo://app?vid=544835f8-5d0a-4ea5-ac60-d0768457fffd"},"vehicle_type_id":"4","last_reported":1753204381,"current_range_meters":4400,"station_id":"st_cvj6r9ubvosntc0bgbag","pricing_plan_id":"cebpf4jnsgd1na2vs0mg"},{"bike_id":"00af51ef-90f3-4b8a-909a-9377d82f672f","system_id":"levelo_inurba_marseille","lat":43.29031,"lon":5.38646,"is_reserved":false,"is_disabled":false,"rental_uris":{"android":"levelo://app?vid=00af51ef-90f3-4b8a-909a-9377d82f672f","ios":"levelo://app?vid=00af51ef-90f3-4b8a-909a-9377d82f672f"},"vehicle_type_id":"4","last_reported":1753204381,"current_range_meters":4000,"station_id":"ce4bh4p2rcd13ifvqe0g","pricing_plan_id":"cebpf4jnsgd1na2vs0mg"},{"bike_id":"0719e809-8e9b-4234-bae8-e578522dd5db","system_id":"levelo_inurba_marseille","lat":43.28937,"lon":5.36661,"is_reserved":false,"is_disabled":false,"rental_uris":{"android":"levelo://app?vid=0719e809-8e9b-4234-bae8-e578522dd5db","ios":"levelo://app?vid=0719e809-8e9b-4234-bae8-e578522dd5db"},"vehicle_type_id":"4","last_reported":1753204381,"current_range_meters":4400,"station_id":"ce4bhap2rcd13ifvqek0","pricing_plan_id":"cebpf4jnsgd1na2vs0mg"},{"bike_id":"461dc88d-d917-41bb-937e-8ffc59c27351","system_id":"levelo_inurba_marseille","lat":43.28084,"lon":5.39666,"is_reserved":false,"is_disabled":false,"rental_uris":{"android":"levelo://app?vid=461dc88d-d917-41bb-937e-8ffc59c27351","ios":"levelo://app?vid=461dc88d-d917-41bb-937e-8ffc59c27351"},"vehicle_type_id":"4","last_reported":1753204381,"current_range_meters":4400,"station_id":"ce4bho12rcd13ifvqh2g","pricing_plan_id":"cebpf4jnsgd1na2vs0mg"},{"bike_id":"cf997371-60ee-475d-9203-0308b0aa91cd","system_id":"levelo_inurba_marseille","lat":43.28265,"lon":5.35059,"is_reserved":false,"is_disabled":false,"rental_uris":{"android":"levelo://app?vid=cf997371-60ee-475d-9203-0308b0aa91cd","ios":"levelo://app?vid=cf997371-60ee-475d-9203-0308b0aa91cd"},"vehicle_type_id":"4","last_reported":1753204381,"current_range_meters":4400,"station_id":"ce4bhbp2rcd13ifvqerg","pricing_plan_id":"cebpf4jnsgd1na2vs0mg"},{"bike_id":"52d7259e-e6d4-43a3-9b64-ddaf0d9996a2","system_id":"levelo_inurba_marseille","lat":43.31721,"lon":5.42397,"is_reserved":false,"is_disabled":false,"rental_uris":{"android":"levelo://app?vid=52d7259e-e6d4-43a3-9b64-ddaf0d9996a2","ios":"levelo://app?vid=52d7259e-e6d4-43a3-9b64-ddaf0d9996a2"},"vehicle_type_id":"4","last_reported":1753204381,"current_range_meters":4000,"station_id":"ce4bhp92rcd13ifvqhbg","pricing_plan_id":"cebpf4jnsgd1na2vs0mg"},{"bike_id":"a05d0f57-2d1c-425d-9046-681b77cb6abb","system_id":"levelo_inurba_marseille","lat":43.33607,"lon":5.41033,"is_reserved":false,"is_disabled":false,"rental_uris":{"android":"levelo://app?vid=a05d0f57-2d1c-425d-9046-681b77cb6abb","ios":"levelo://app?vid=a05d0f57-2d1c-425d-9046-681b77cb6abb"},"vehicle_type_id":"4","last_reported":1753204381,"current_range_meters":5600,"station_id":"ce4bhqh2rcd13ifvqhmg","pricing_plan_id":"cebpf4jnsgd1na2vs0mg"},{"bike_id":"9fbfb15c-7951-47cf-bdec-fbe37baae643","system_id":"levelo_inurba_marseille","lat":43.30214,"lon":5.3946,"is_reserved":false,"is_disabled":false,"rental_uris":{"android":"levelo://app?vid=9fbfb15c-7951-47cf-bdec-fbe37baae643","ios":"levelo://app?vid=9fbfb15c-7951-47cf-bdec-fbe37baae643"},"vehicle_type_id":"4","last_reported":1753204381,"current_range_meters":5600,"station_id":"ce4bh0p2rcd13ifvqd70","pricing_plan_id":"cebpf4jnsgd1na2vs0mg"},{"bike_id":"ae509489-0431-4369-8cc8-696cf5ad11c0","system_id":"levelo_inurba_marseille","lat":43.28866,"lon":5.35861,"is_reserved":false,"is_disabled":false,"rental_uris":{"android":"levelo://app?vid=ae509489-0431-4369-8cc8-696cf5ad11c0","ios":"levelo://app?vid=ae509489-0431-4369-8cc8-696cf5ad11c0"},"vehicle_type_id":"4","last_reported":1753204381,"current_range_meters":5600,"station_id":"ce4bhb12rcd13ifvqem0","pricing_plan_id":"cebpf4jnsgd1na2vs0mg"},{"bike_id":"85a5c837-2ce7-40d8-af0b-883362dd3119","system_id":"levelo_inurba_marseille","lat":43.27803,"lon":5.35505,"is_reserved":false,"is_disabled":false,"rental_uris":{"android":"levelo://app?vid=85a5c837-2ce7-40d8-af0b-883362dd3119","ios":"levelo://app?vid=85a5c837-2ce7-40d8-af0b-883362dd3119"},"vehicle_type_id":"4","last_reported":1753204381,"current_range_meters":6000,"station_id":"","pricing_plan_id":"cebpf4jnsgd1na2vs0mg"},{"bike_id":"29f06860-0cf0-45b0-95a5-4e767431d1cd","system_id":"levelo_inurba_marseille","lat":43.30338,"lon":5.40433,"is_reserved":false,"is_disabled":false,"rental_uris":{"android":"levelo://app?vid=29f06860-0cf0-45b0-95a5-4e767431d1cd","ios":"levelo://app?vid=29f06860-0cf0-45b0-95a5-4e767431d1cd"},"vehicle_type_id":"4","last_reported":1753204381,"current_range_meters":5600,"station_id":"ce4bh012rcd13ifvqd10","pricing_plan_id":"cebpf4jnsgd1na2vs0mg"},{"bike_id":"7f8954c2-1774-4b10-8260-300b28ea4ea2","system_id":"levelo_inurba_marseille","lat":43.30301,"lon":5.39213,"is_reserved":false,"is_disabled":false,"rental_uris":{"android":"levelo://app?vid=7f8954c2-1774-4b10-8260-300b28ea4ea2","ios":"levelo://app?vid=7f8954c2-1774-4b10-8260-300b28ea4ea2"},"vehicle_type_id":"4","last_reported":1753204381,"current_range_meters":6000,"station_id":"ce4bgkh2rcd13ifvqbk0","pricing_plan_id":"cebpf4jnsgd1na2vs0mg"},{"bike_id":"1fd5b0cc-36e0-4305-89c0-2977ed60545e","system_id":"levelo_inurba_marseille","lat":43.28419,"lon":5.37515,"is_reserved":false,"is_disabled":false,"rental_uris":{"android":"levelo://app?vid=1fd5b0cc-36e0-4305-89c0-2977ed60545e","ios":"levelo://app?vid=1fd5b0cc-36e0-4305-89c0-2977ed60545e"},"vehicle_type_id":"4","last_reported":1753204381,"current_range_meters":6400,"station_id":"ce4bh412rcd13ifvqds0","pricing_plan_id":"cebpf4jnsgd1na2vs0mg"},{"bike_id":"09c0eec1-296b-4ec0-9e23-05e0641da4ea","system_id":"levelo_inurba_marseille","lat":43.28397,"lon":5.34975,"is_reserved":false,"is_disabled":false,"rental_uris":{"android":"levelo://app?vid=09c0eec1-296b-4ec0-9e23-05e0641da4ea","ios":"levelo://app?vid=09c0eec1-296b-4ec0-9e23-05e0641da4ea"},"vehicle_type_id":"4","last_reported":1753204381,"current_range_meters":6400,"station_id":"ce4bhbh2rcd13ifvqepg","pricing_plan_id":"cebpf4jnsgd1na2vs0mg"},{"bike_id":"01a1acbb-d8d9-456b-a633-8d9067f4f15e","system_id":"levelo_inurba_marseille","lat":43.29558,"lon":5.42293,"is_reserved":false,"is_disabled":false,"rental_uris":{"android":"levelo://app?vid=01a1acbb-d8d9-456b-a633-8d9067f4f15e","ios":"levelo://app?vid=01a1acbb-d8d9-456b-a633-8d9067f4f15e"},"vehicle_type_id":"4","last_reported":1753204381,"current_range_meters":6400,"station_id":"ce4bhph2rcd13ifvqhdg","pricing_plan_id":"cebpf4jnsgd1na2vs0mg"},{"bike_id":"f35e4f65-9f66-4fa9-9a5d-eb0982c33ee9","system_id":"levelo_inurba_marseille","lat":43.30884,"lon":5.39653,"is_reserved":false,"is_disabled":false,"rental_uris":{"android":"levelo://app?vid=f35e4f65-9f66-4fa9-9a5d-eb0982c33ee9","ios":"levelo://app?vid=f35e4f65-9f66-4fa9-9a5d-eb0982c33ee9"},"vehicle_type_id":"4","last_reported":1753204381,"current_range_meters":6800,"station_id":"ce4bh012rcd13ifvqcv0","pricing_plan_id":"cebpf4jnsgd1na2vs0mg"},{"bike_id":"7b0a783e-9ef3-40c1-901f-4de1de82eee2","system_id":"levelo_inurba_marseille","lat":43.291916,"lon":5.358069,"is_reserved":false,"is_disabled":false,"rental_uris":{"android":"levelo://app?vid=7b0a783e-9ef3-40c1-901f-4de1de82eee2","ios":"levelo://app?vid=7b0a783e-9ef3-40c1-901f-4de1de82eee2"},"vehicle_type_id":"4","last_reported":1753204381,"current_range_meters":6800,"station_id":"ce4bhb12rcd13ifvqel0","pricing_plan_id":"cebpf4jnsgd1na2vs0mg"},{"bike_id":"8de44d53-e90b-49d4-8169-f0f6e6b9faf3","system_id":"levelo_inurba_marseille","lat":43.30143,"lon":5.3807,"is_reserved":false,"is_disabled":false,"rental_uris":{"android":"levelo://app?vid=8de44d53-e90b-49d4-8169-f0f6e6b9faf3","ios":"levelo://app?vid=8de44d53-e90b-49d4-8169-f0f6e6b9faf3"},"vehicle_type_id":"4","last_reported":1753204381,"current_range_meters":7200,"station_id":"ce4bgjp2rcd13ifvqbh0","pricing_plan_id":"cebpf4jnsgd1na2vs0mg"},{"bike_id":"b0efef43-b5a0-41bf-9c1a-8828dbface09","system_id":"levelo_inurba_marseille","lat":43.28943,"lon":5.36416,"is_reserved":false,"is_disabled":false,"rental_uris":{"android":"levelo://app?vid=b0efef43-b5a0-41bf-9c1a-8828dbface09","ios":"levelo://app?vid=b0efef43-b5a0-41bf-9c1a-8828dbface09"},"vehicle_type_id":"4","last_reported":1753204381,"current_range_meters":7200,"station_id":"ce4bhc92rcd13ifvqetg","pricing_plan_id":"cebpf4jnsgd1na2vs0mg"},{"bike_id":"1de1479a-7889-4491-af64-9273fea3f8a8","system_id":"levelo_inurba_marseille","lat":43.27564,"lon":5.38415,"is_reserved":false,"is_disabled":false,"rental_uris":{"android":"levelo://app?vid=1de1479a-7889-4491-af64-9273fea3f8a8","ios":"levelo://app?vid=1de1479a-7889-4491-af64-9273fea3f8a8"},"vehicle_type_id":"4","last_reported":1753204381,"current_range_meters":6800,"station_id":"ce4bhh92rcd13ifvqfi0","pricing_plan_id":"cebpf4jnsgd1na2vs0mg"},{"bike_id":"189e8732-4901-4408-8401-15b578be63e9","system_id":"levelo_inurba_marseille","lat":43.30932,"lon":5.40166,"is_reserved":false,"is_disabled":false,"rental_uris":{"android":"levelo://app?vid=189e8732-4901-4408-8401-15b578be63e9","ios":"levelo://app?vid=189e8732-4901-4408-8401-15b578be63e9"},"vehicle_type_id":"4","last_reported":1753204381,"current_range_meters":7200,"station_id":"ce4bgvp2rcd13ifvqct0","pricing_plan_id":"cebpf4jnsgd1na2vs0mg"},{"bike_id":"90420d51-dd1e-405c-8015-4a442ea9ba0d","system_id":"levelo_inurba_marseille","lat":43.28265,"lon":5.35062,"is_reserved":false,"is_disabled":false,"rental_uris":{"android":"levelo://app?vid=90420d51-dd1e-405c-8015-4a442ea9ba0d","ios":"levelo://app?vid=90420d51-dd1e-405c-8015-4a442ea9ba0d"},"vehicle_type_id":"4","last_reported":1753204381,"current_range_meters":7200,"station_id":"ce4bhbp2rcd13ifvqerg","pricing_plan_id":"cebpf4jnsgd1na2vs0mg"},{"bike_id":"f813e329-57b7-4efd-96c5-da9393567e45","system_id":"levelo_inurba_marseille","lat":43.28295,"lon":5.35053,"is_reserved":false,"is_disabled":false,"rental_uris":{"android":"levelo://app?vid=f813e329-57b7-4efd-96c5-da9393567e45","ios":"levelo://app?vid=f813e329-57b7-4efd-96c5-da9393567e45"},"vehicle_type_id":"4","last_reported":1753204381,"current_range_meters":7200,"station_id":"ce4bhbp2rcd13ifvqerg","pricing_plan_id":"cebpf4jnsgd1na2vs0mg"},{"bike_id":"157b57e8-61cb-47a1-a209-767f77f1ba30","system_id":"levelo_inurba_marseille","lat":43.28416,"lon":5.37517,"is_reserved":false,"is_disabled":false,"rental_uris":{"android":"levelo://app?vid=157b57e8-61cb-47a1-a209-767f77f1ba30","ios":"levelo://app?vid=157b57e8-61cb-47a1-a209-767f77f1ba30"},"vehicle_type_id":"4","last_reported":1753204381,"current_range_meters":8000,"station_id":"ce4bh412rcd13ifvqds0","pricing_plan_id":"cebpf4jnsgd1na2vs0mg"},{"bike_id":"804275f7-bce6-4e84-9670-f64d004138d7","system_id":"levelo_inurba_marseille","lat":43.284407,"lon":5.3754,"is_reserved":false,"is_disabled":false,"rental_uris":{"android":"levelo://app?vid=804275f7-bce6-4e84-9670-f64d004138d7","ios":"levelo://app?vid=804275f7-bce6-4e84-9670-f64d004138d7"},"vehicle_type_id":"4","last_reported":1753204381,"current_range_meters":8000,"station_id":"","pricing_plan_id":"cebpf4jnsgd1na2vs0mg"},{"bike_id":"288e40f1-8fbf-4748-a95b-1be5b48bdbe8","system_id":"levelo_inurba_marseille","lat":43.2894,"lon":5.3664,"is_reserved":false,"is_disabled":true,"rental_uris":{"android":"levelo://app?vid=288e40f1-8fbf-4748-a95b-1be5b48bdbe8","ios":"levelo://app?vid=288e40f1-8fbf-4748-a95b-1be5b48bdbe8"},"vehicle_type_id":"4","last_reported":1753204381,"current_range_meters":8000,"station_id":"ce4bhap2rcd13ifvqek0","pricing_plan_id":"cebpf4jnsgd1na2vs0mg"},{"bike_id":"374764e9-1483-4c39-a939-2017d46b717a","system_id":"levelo_inurba_marseille","lat":43.28039,"lon":5.35014,"is_reserved":false,"is_disabled":false,"rental_uris":{"android":"levelo://app?vid=374764e9-1483-4c39-a939-2017d46b717a","ios":"levelo://app?vid=374764e9-1483-4c39-a939-2017d46b717a"},"vehicle_type_id":"4","last_reported":1753204381,"current_range_meters":8000,"station_id":"","pricing_plan_id":"cebpf4jnsgd1na2vs0mg"},{"bike_id":"235cdb7f-edb9-4f25-b64d-820a156bac8e","system_id":"levelo_inurba_marseille","lat":43.27807,"lon":5.40715,"is_reserved":false,"is_disabled":false,"rental_uris":{"android":"levelo://app?vid=235cdb7f-edb9-4f25-b64d-820a156bac8e","ios":"levelo://app?vid=235cdb7f-edb9-4f25-b64d-820a156bac8e"},"vehicle_type_id":"4","last_reported":1753204381,"current_range_meters":8000,"station_id":"ce4bhnh2rcd13ifvqgtg","pricing_plan_id":"cebpf4jnsgd1na2vs0mg"},{"bike_id":"0fb2b96a-7d52-46c6-8454-5e3d209ed57f","system_id":"levelo_inurba_marseille","lat":43.291995,"lon":5.358049,"is_reserved":false,"is_disabled":false,"rental_uris":{"android":"levelo://app?vid=0fb2b96a-7d52-46c6-8454-5e3d209ed57f","ios":"levelo://app?vid=0fb2b96a-7d52-46c6-8454-5e3d209ed57f"},"vehicle_type_id":"4","last_reported":1753204381,"current_range_meters":8000,"station_id":"ce4bhb12rcd13ifvqel0","pricing_plan_id":"cebpf4jnsgd1na2vs0mg"},{"bike_id":"819d8505-6556-493b-ad8b-43da91e071e8","system_id":"levelo_inurba_marseille","lat":43.28699,"lon":5.361397,"is_reserved":false,"is_disabled":false,"rental_uris":{"android":"levelo://app?vid=819d8505-6556-493b-ad8b-43da91e071e8","ios":"levelo://app?vid=819d8505-6556-493b-ad8b-43da91e071e8"},"vehicle_type_id":"4","last_reported":1753204381,"current_range_meters":8400,"station_id":"","pricing_plan_id":"cebpf4jnsgd1na2vs0mg"},{"bike_id":"f6a6798f-48ec-4ed8-bfa4-7983d30bc71b","system_id":"levelo_inurba_marseille","lat":43.29051,"lon":5.39965,"is_reserved":false,"is_disabled":false,"rental_uris":{"android":"levelo://app?vid=f6a6798f-48ec-4ed8-bfa4-7983d30bc71b","ios":"levelo://app?vid=f6a6798f-48ec-4ed8-bfa4-7983d30bc71b"},"vehicle_type_id":"4","last_reported":1753204381,"current_range_meters":8000,"station_id":"ce4bh392rcd13ifvqdm0","pricing_plan_id":"cebpf4jnsgd1na2vs0mg"},{"bike_id":"1668f832-fb46-4094-ad3e-b55b4121ee1f","system_id":"levelo_inurba_marseille","lat":43.29007,"lon":5.356065,"is_reserved":false,"is_disabled":false,"rental_uris":{"android":"levelo://app?vid=1668f832-fb46-4094-ad3e-b55b4121ee1f","ios":"levelo://app?vid=1668f832-fb46-4094-ad3e-b55b4121ee1f"},"vehicle_type_id":"4","last_reported":1753204381,"current_range_meters":8400,"station_id":"ce4bhb92rcd13ifvqen0","pricing_plan_id":"cebpf4jnsgd1na2vs0mg"},{"bike_id":"3c2f657a-3408-4949-b7b9-83d7e743fc27","system_id":"levelo_inurba_marseille","lat":43.292686,"lon":5.384367,"is_reserved":false,"is_disabled":false,"rental_uris":{"android":"levelo://app?vid=3c2f657a-3408-4949-b7b9-83d7e743fc27","ios":"levelo://app?vid=3c2f657a-3408-4949-b7b9-83d7e743fc27"},"vehicle_type_id":"4","last_reported":1753204381,"current_range_meters":8400,"station_id":"ce4bh692rcd13ifvqea0","pricing_plan_id":"cebpf4jnsgd1na2vs0mg"},{"bike_id":"e68363c5-0e3c-4612-bc72-b712b6ae55ed","system_id":"levelo_inurba_marseille","lat":43.28404,"lon":5.34999,"is_reserved":false,"is_disabled":false,"rental_uris":{"android":"levelo://app?vid=e68363c5-0e3c-4612-bc72-b712b6ae55ed","ios":"levelo://app?vid=e68363c5-0e3c-4612-bc72-b712b6ae55ed"},"vehicle_type_id":"4","last_reported":1753204381,"current_range_meters":8400,"station_id":"ce4bhbh2rcd13ifvqepg","pricing_plan_id":"cebpf4jnsgd1na2vs0mg"},{"bike_id":"e16a8fc2-044e-4398-96eb-be093222cd71","system_id":"levelo_inurba_marseille","lat":43.30261,"lon":5.40081,"is_reserved":false,"is_disabled":false,"rental_uris":{"android":"levelo://app?vid=e16a8fc2-044e-4398-96eb-be093222cd71","ios":"levelo://app?vid=e16a8fc2-044e-4398-96eb-be093222cd71"},"vehicle_type_id":"4","last_reported":1753204381,"current_range_meters":8400,"station_id":"ce4bgvh2rcd13ifvqcs0","pricing_plan_id":"cebpf4jnsgd1na2vs0mg"},{"bike_id":"42413a25-16d1-4419-b44a-45580e0c6ac6","system_id":"levelo_inurba_marseille","lat":43.282171,"lon":5.395775,"is_reserved":false,"is_disabled":false,"rental_uris":{"android":"levelo://app?vid=42413a25-16d1-4419-b44a-45580e0c6ac6","ios":"levelo://app?vid=42413a25-16d1-4419-b44a-45580e0c6ac6"},"vehicle_type_id":"4","last_reported":1753204381,"current_range_meters":8800,"station_id":"","pricing_plan_id":"cebpf4jnsgd1na2vs0mg"},{"bike_id":"da5939fb-fa21-433b-a364-b799f03d34eb","system_id":"levelo_inurba_marseille","lat":43.28412,"lon":5.34994,"is_reserved":false,"is_disabled":false,"rental_uris":{"android":"levelo://app?vid=da5939fb-fa21-433b-a364-b799f03d34eb","ios":"levelo://app?vid=da5939fb-fa21-433b-a364-b799f03d34eb"},"vehicle_type_id":"4","last_reported":1753204381,"current_range_meters":8800,"station_id":"ce4bhbh2rcd13ifvqepg","pricing_plan_id":"cebpf4jnsgd1na2vs0mg"},{"bike_id":"3b7181ea-5d3a-45c5-b42b-53c72962b3ee","system_id":"levelo_inurba_marseille","lat":43.22328,"lon":5.34626,"is_reserved":false,"is_disabled":false,"rental_uris":{"android":"levelo://app?vid=3b7181ea-5d3a-45c5-b42b-53c72962b3ee","ios":"levelo://app?vid=3b7181ea-5d3a-45c5-b42b-53c72962b3ee"},"vehicle_type_id":"4","last_reported":1753204381,"current_range_meters":8800,"station_id":"","pricing_plan_id":"cebpf4jnsgd1na2vs0mg"},{"bike_id":"0d6cba82-d9bc-48b7-9998-faabe790dfb6","system_id":"levelo_inurba_marseille","lat":43.28936,"lon":5.364,"is_reserved":false,"is_disabled":false,"rental_uris":{"android":"levelo://app?vid=0d6cba82-d9bc-48b7-9998-faabe790dfb6","ios":"levelo://app?vid=0d6cba82-d9bc-48b7-9998-faabe790dfb6"},"vehicle_type_id":"4","last_reported":1753204381,"current_range_meters":8800,"station_id":"ce4bhc92rcd13ifvqetg","pricing_plan_id":"cebpf4jnsgd1na2vs0mg"},{"bike_id":"9a58f785-ad5d-4de7-86d9-3827b7b8b7ad","system_id":"levelo_inurba_marseille","lat":43.29213,"lon":5.3605,"is_reserved":false,"is_disabled":false,"rental_uris":{"android":"levelo://app?vid=9a58f785-ad5d-4de7-86d9-3827b7b8b7ad","ios":"levelo://app?vid=9a58f785-ad5d-4de7-86d9-3827b7b8b7ad"},"vehicle_type_id":"4","last_reported":1753204381,"current_range_meters":8800,"station_id":"ce4bhbh2rcd13ifvqeqg","pricing_plan_id":"cebpf4jnsgd1na2vs0mg"},{"bike_id":"30bbe4ec-3d4f-438e-bac1-72db1c78b030","system_id":"levelo_inurba_marseille","lat":43.25496,"lon":5.37658,"is_reserved":false,"is_disabled":false,"rental_uris":{"android":"levelo://app?vid=30bbe4ec-3d4f-438e-bac1-72db1c78b030","ios":"levelo://app?vid=30bbe4ec-3d4f-438e-bac1-72db1c78b030"},"vehicle_type_id":"4","last_reported":1753204381,"current_range_meters":8800,"station_id":"ce4bhh12rcd13ifvqff0","pricing_plan_id":"cebpf4jnsgd1na2vs0mg"},{"bike_id":"c4bf1bcb-e0cb-4761-ab70-9b3bf6a05210","system_id":"levelo_inurba_marseille","lat":43.31319,"lon":5.39681,"is_reserved":false,"is_disabled":false,"rental_uris":{"android":"levelo://app?vid=c4bf1bcb-e0cb-4761-ab70-9b3bf6a05210","ios":"levelo://app?vid=c4bf1bcb-e0cb-4761-ab70-9b3bf6a05210"},"vehicle_type_id":"4","last_reported":1753204381,"current_range_meters":9200,"station_id":"ce4bgvp2rcd13ifvqcu0","pricing_plan_id":"cebpf4jnsgd1na2vs0mg"},{"bike_id":"2791a1cf-f8f1-4674-9084-f245d5cf3114","system_id":"levelo_inurba_marseille","lat":43.28417,"lon":5.34986,"is_reserved":false,"is_disabled":false,"rental_uris":{"android":"levelo://app?vid=2791a1cf-f8f1-4674-9084-f245d5cf3114","ios":"levelo://app?vid=2791a1cf-f8f1-4674-9084-f245d5cf3114"},"vehicle_type_id":"4","last_reported":1753204381,"current_range_meters":9200,"station_id":"ce4bhbh2rcd13ifvqepg","pricing_plan_id":"cebpf4jnsgd1na2vs0mg"},{"bike_id":"cac0e4ea-50a1-44bf-b5ab-90c5a6aad74f","system_id":"levelo_inurba_marseille","lat":43.29221,"lon":5.3601,"is_reserved":false,"is_disabled":false,"rental_uris":{"android":"levelo://app?vid=cac0e4ea-50a1-44bf-b5ab-90c5a6aad74f","ios":"levelo://app?vid=cac0e4ea-50a1-44bf-b5ab-90c5a6aad74f"},"vehicle_type_id":"4","last_reported":1753204381,"current_range_meters":9200,"station_id":"","pricing_plan_id":"cebpf4jnsgd1na2vs0mg"},{"bike_id":"3003df9c-7e41-4757-8f7e-5621dac17212","system_id":"levelo_inurba_marseille","lat":43.28414,"lon":5.37519,"is_reserved":false,"is_disabled":false,"rental_uris":{"android":"levelo://app?vid=3003df9c-7e41-4757-8f7e-5621dac17212","ios":"levelo://app?vid=3003df9c-7e41-4757-8f7e-5621dac17212"},"vehicle_type_id":"4","last_reported":1753204381,"current_range_meters":9200,"station_id":"ce4bh412rcd13ifvqds0","pricing_plan_id":"cebpf4jnsgd1na2vs0mg"},{"bike_id":"e4761578-ae86-4dfa-b146-0428e5d8cca7","system_id":"levelo_inurba_marseille","lat":43.24165,"lon":5.36399,"is_reserved":false,"is_disabled":false,"rental_uris":{"android":"levelo://app?vid=e4761578-ae86-4dfa-b146-0428e5d8cca7","ios":"levelo://app?vid=e4761578-ae86-4dfa-b146-0428e5d8cca7"},"vehicle_type_id":"4","last_reported":1753204381,"current_range_meters":10000,"station_id":"cpo36qri1sfpv3e86is0","pricing_plan_id":"cebpf4jnsgd1na2vs0mg"},{"bike_id":"a8514778-9519-4ee1-9846-6aa9a9ae1bcf","system_id":"levelo_inurba_marseille","lat":43.2707,"lon":5.42282,"is_reserved":false,"is_disabled":false,"rental_uris":{"android":"levelo://app?vid=a8514778-9519-4ee1-9846-6aa9a9ae1bcf","ios":"levelo://app?vid=a8514778-9519-4ee1-9846-6aa9a9ae1bcf"},"vehicle_type_id":"4","last_reported":1753204381,"current_range_meters":9600,"station_id":"ce4bhk92rcd13ifvqgb0","pricing_plan_id":"cebpf4jnsgd1na2vs0mg"},{"bike_id":"bbda3d26-cc40-4585-8d6c-fca9adac1969","system_id":"levelo_inurba_marseille","lat":43.30622,"lon":5.37366,"is_reserved":false,"is_disabled":false,"rental_uris":{"android":"levelo://app?vid=bbda3d26-cc40-4585-8d6c-fca9adac1969","ios":"levelo://app?vid=bbda3d26-cc40-4585-8d6c-fca9adac1969"},"vehicle_type_id":"4","last_reported":1753204381,"current_range_meters":10000,"station_id":"","pricing_plan_id":"cebpf4jnsgd1na2vs0mg"},{"bike_id":"d85ec1a9-8ce8-4582-866f-e81b8010795f","system_id":"levelo_inurba_marseille","lat":43.28299,"lon":5.35052,"is_reserved":false,"is_disabled":false,"rental_uris":{"android":"levelo://app?vid=d85ec1a9-8ce8-4582-866f-e81b8010795f","ios":"levelo://app?vid=d85ec1a9-8ce8-4582-866f-e81b8010795f"},"vehicle_type_id":"4","last_reported":1753204381,"current_range_meters":9600,"station_id":"ce4bhbp2rcd13ifvqerg","pricing_plan_id":"cebpf4jnsgd1na2vs0mg"},{"bike_id":"1ed4b48b-a01f-4e6e-afab-61c78e98e4d0","system_id":"levelo_inurba_marseille","lat":43.30923,"lon":5.4015,"is_reserved":false,"is_disabled":false,"rental_uris":{"android":"levelo://app?vid=1ed4b48b-a01f-4e6e-afab-61c78e98e4d0","ios":"levelo://app?vid=1ed4b48b-a01f-4e6e-afab-61c78e98e4d0"},"vehicle_type_id":"4","last_reported":1753204381,"current_range_meters":9600,"station_id":"ce4bgvp2rcd13ifvqct0","pricing_plan_id":"cebpf4jnsgd1na2vs0mg"},{"bike_id":"7707ba08-ffe8-4ac1-92c9-eae1d5868a27","system_id":"levelo_inurba_marseille","lat":43.29298,"lon":5.37454,"is_reserved":false,"is_disabled":false,"rental_uris":{"android":"levelo://app?vid=7707ba08-ffe8-4ac1-92c9-eae1d5868a27","ios":"levelo://app?vid=7707ba08-ffe8-4ac1-92c9-eae1d5868a27"},"vehicle_type_id":"4","last_reported":1753204381,"current_range_meters":9600,"station_id":"ce4bgi12rcd13ifvqb70","pricing_plan_id":"cebpf4jnsgd1na2vs0mg"},{"bike_id":"684865e1-b99d-434e-b0c2-2eb4cadc36a5","system_id":"levelo_inurba_marseille","lat":43.29712,"lon":5.36613,"is_reserved":false,"is_disabled":false,"rental_uris":{"android":"levelo://app?vid=684865e1-b99d-434e-b0c2-2eb4cadc36a5","ios":"levelo://app?vid=684865e1-b99d-434e-b0c2-2eb4cadc36a5"},"vehicle_type_id":"4","last_reported":1753204381,"current_range_meters":10000,"station_id":"ce4bgn12rcd13ifvqbt0","pricing_plan_id":"cebpf4jnsgd1na2vs0mg"},{"bike_id":"0c550cc8-881a-4b43-b712-5c11b10bea92","system_id":"levelo_inurba_marseille","lat":43.29143,"lon":5.38146,"is_reserved":false,"is_disabled":false,"rental_uris":{"android":"levelo://app?vid=0c550cc8-881a-4b43-b712-5c11b10bea92","ios":"levelo://app?vid=0c550cc8-881a-4b43-b712-5c11b10bea92"},"vehicle_type_id":"4","last_reported":1753204381,"current_range_meters":10000,"station_id":"ce4bhb12rcd13ifvqel0","pricing_plan_id":"cebpf4jnsgd1na2vs0mg"},{"bike_id":"491493b9-2788-4066-9c85-2d6f9ab85059","system_id":"levelo_inurba_marseille","lat":43.2927,"lon":5.38458,"is_reserved":false,"is_disabled":false,"rental_uris":{"android":"levelo://app?vid=491493b9-2788-4066-9c85-2d6f9ab85059","ios":"levelo://app?vid=491493b9-2788-4066-9c85-2d6f9ab85059"},"vehicle_type_id":"4","last_reported":1753204381,"current_range_meters":10000,"station_id":"ce4bh692rcd13ifvqea0","pricing_plan_id":"cebpf4jnsgd1na2vs0mg"},{"bike_id":"bdd391c8-1be0-4141-bd72-77d28e372292","system_id":"levelo_inurba_marseille","lat":43.26202,"lon":5.37932,"is_reserved":false,"is_disabled":false,"rental_uris":{"android":"levelo://app?vid=bdd391c8-1be0-4141-bd72-77d28e372292","ios":"levelo://app?vid=bdd391c8-1be0-4141-bd72-77d28e372292"},"vehicle_type_id":"4","last_reported":1753204381,"current_range_meters":9600,"station_id":"ce4bhjp2rcd13ifvqg90","pricing_plan_id":"cebpf4jnsgd1na2vs0mg"},{"bike_id":"43a000f4-69fb-4d7f-b929-9502c64ee6c5","system_id":"levelo_inurba_marseille","lat":43.250855,"lon":5.395379,"is_reserved":false,"is_disabled":false,"rental_uris":{"android":"levelo://app?vid=43a000f4-69fb-4d7f-b929-9502c64ee6c5","ios":"levelo://app?vid=43a000f4-69fb-4d7f-b929-9502c64ee6c5"},"vehicle_type_id":"4","last_reported":1753204381,"current_range_meters":9600,"station_id":"ce4bhm12rcd13ifvqgkg","pricing_plan_id":"cebpf4jnsgd1na2vs0mg"},{"bike_id":"19ffcca7-419f-4850-94da-ba5b783420a5","system_id":"levelo_inurba_marseille","lat":43.29258,"lon":5.38442,"is_reserved":false,"is_disabled":false,"rental_uris":{"android":"levelo://app?vid=19ffcca7-419f-4850-94da-ba5b783420a5","ios":"levelo://app?vid=19ffcca7-419f-4850-94da-ba5b783420a5"},"vehicle_type_id":"4","last_reported":1753204381,"current_range_meters":10000,"station_id":"ce4bh692rcd13ifvqea0","pricing_plan_id":"cebpf4jnsgd1na2vs0mg"},{"bike_id":"7dbbb529-7a14-4c15-91b2-36294d397550","system_id":"levelo_inurba_marseille","lat":43.23194,"lon":5.35546,"is_reserved":false,"is_disabled":false,"rental_uris":{"android":"levelo://app?vid=7dbbb529-7a14-4c15-91b2-36294d397550","ios":"levelo://app?vid=7dbbb529-7a14-4c15-91b2-36294d397550"},"vehicle_type_id":"4","last_reported":1753204381,"current_range_meters":10000,"station_id":"ce4bhu92rcd13ifvqi70","pricing_plan_id":"cebpf4jnsgd1na2vs0mg"},{"bike_id":"e32b3743-a2cc-4b24-a37e-b1bdcc810968","system_id":"levelo_inurba_marseille","lat":43.30193,"lon":5.36628,"is_reserved":false,"is_disabled":false,"rental_uris":{"android":"levelo://app?vid=e32b3743-a2cc-4b24-a37e-b1bdcc810968","ios":"levelo://app?vid=e32b3743-a2cc-4b24-a37e-b1bdcc810968"},"vehicle_type_id":"4","last_reported":1753204381,"current_range_meters":10000,"station_id":"ce4bgrh2rcd13ifvqc8g","pricing_plan_id":"cebpf4jnsgd1na2vs0mg"},{"bike_id":"02f62ba6-cb19-48be-956f-a91e18589f34","system_id":"levelo_inurba_marseille","lat":43.28272,"lon":5.35057,"is_reserved":false,"is_disabled":false,"rental_uris":{"android":"levelo://app?vid=02f62ba6-cb19-48be-956f-a91e18589f34","ios":"levelo://app?vid=02f62ba6-cb19-48be-956f-a91e18589f34"},"vehicle_type_id":"4","last_reported":1753204381,"current_range_meters":10000,"station_id":"ce4bhbp2rcd13ifvqerg","pricing_plan_id":"cebpf4jnsgd1na2vs0mg"},{"bike_id":"c73aaedc-c3e9-41dc-9a49-e5255211db95","system_id":"levelo_inurba_marseille","lat":43.28417,"lon":5.34975,"is_reserved":false,"is_disabled":false,"rental_uris":{"android":"levelo://app?vid=c73aaedc-c3e9-41dc-9a49-e5255211db95","ios":"levelo://app?vid=c73aaedc-c3e9-41dc-9a49-e5255211db95"},"vehicle_type_id":"4","last_reported":1753204381,"current_range_meters":10800,"station_id":"ce4bhbh2rcd13ifvqepg","pricing_plan_id":"cebpf4jnsgd1na2vs0mg"},{"bike_id":"95aadf90-d57b-4071-830e-bbe28e391880","system_id":"levelo_inurba_marseille","lat":43.29006,"lon":5.35615,"is_reserved":false,"is_disabled":false,"rental_uris":{"android":"levelo://app?vid=95aadf90-d57b-4071-830e-bbe28e391880","ios":"levelo://app?vid=95aadf90-d57b-4071-830e-bbe28e391880"},"vehicle_type_id":"4","last_reported":1753204381,"current_range_meters":10800,"station_id":"ce4bhb92rcd13ifvqen0","pricing_plan_id":"cebpf4jnsgd1na2vs0mg"},{"bike_id":"7419c523-e345-4d6e-ad04-32f5ba32bf3d","system_id":"levelo_inurba_marseille","lat":43.29885,"lon":5.38896,"is_reserved":false,"is_disabled":false,"rental_uris":{"android":"levelo://app?vid=7419c523-e345-4d6e-ad04-32f5ba32bf3d","ios":"levelo://app?vid=7419c523-e345-4d6e-ad04-32f5ba32bf3d"},"vehicle_type_id":"4","last_reported":1753204381,"current_range_meters":10800,"station_id":"ce4bh392rcd13ifvqdl0","pricing_plan_id":"cebpf4jnsgd1na2vs0mg"},{"bike_id":"2f7166a0-c792-4254-b000-4cd6a3879c62","system_id":"levelo_inurba_marseille","lat":43.21746,"lon":5.34607,"is_reserved":false,"is_disabled":false,"rental_uris":{"android":"levelo://app?vid=2f7166a0-c792-4254-b000-4cd6a3879c62","ios":"levelo://app?vid=2f7166a0-c792-4254-b000-4cd6a3879c62"},"vehicle_type_id":"4","last_reported":1753204381,"current_range_meters":10800,"station_id":"st_cvj6r9ubvosntc0bgbag","pricing_plan_id":"cebpf4jnsgd1na2vs0mg"},{"bike_id":"20a281eb-353f-4ce3-be36-127a9ce94c34","system_id":"levelo_inurba_marseille","lat":43.24803,"lon":5.37456,"is_reserved":false,"is_disabled":false,"rental_uris":{"android":"levelo://app?vid=20a281eb-353f-4ce3-be36-127a9ce94c34","ios":"levelo://app?vid=20a281eb-353f-4ce3-be36-127a9ce94c34"},"vehicle_type_id":"4","last_reported":1753204381,"current_range_meters":11200,"station_id":"ce4bhgh2rcd13ifvqfb0","pricing_plan_id":"cebpf4jnsgd1na2vs0mg"},{"bike_id":"fb2b2945-d0ca-4e5e-8c1a-0e9891681402","system_id":"levelo_inurba_marseille","lat":43.23959,"lon":5.36621,"is_reserved":false,"is_disabled":false,"rental_uris":{"android":"levelo://app?vid=fb2b2945-d0ca-4e5e-8c1a-0e9891681402","ios":"levelo://app?vid=fb2b2945-d0ca-4e5e-8c1a-0e9891681402"},"vehicle_type_id":"4","last_reported":1753204381,"current_range_meters":11200,"station_id":"ce4bhi12rcd13ifvqfp0","pricing_plan_id":"cebpf4jnsgd1na2vs0mg"},{"bike_id":"c55b4302-ca4c-45f4-b023-e25c50af9a54","system_id":"levelo_inurba_marseille","lat":43.28613,"lon":5.35117,"is_reserved":false,"is_disabled":false,"rental_uris":{"android":"levelo://app?vid=c55b4302-ca4c-45f4-b023-e25c50af9a54","ios":"levelo://app?vid=c55b4302-ca4c-45f4-b023-e25c50af9a54"},"vehicle_type_id":"4","last_reported":1753204381,"current_range_meters":11200,"station_id":"ce4bhch2rcd13ifvqeug","pricing_plan_id":"cebpf4jnsgd1na2vs0mg"},{"bike_id":"29fa7925-0ef8-4bc0-ac9d-be012880141e","system_id":"levelo_inurba_marseille","lat":43.29305,"lon":5.37189,"is_reserved":false,"is_disabled":false,"rental_uris":{"android":"levelo://app?vid=29fa7925-0ef8-4bc0-ac9d-be012880141e","ios":"levelo://app?vid=29fa7925-0ef8-4bc0-ac9d-be012880141e"},"vehicle_type_id":"4","last_reported":1753204381,"current_range_meters":11200,"station_id":"ce4bgh92rcd13ifvqb40","pricing_plan_id":"cebpf4jnsgd1na2vs0mg"},{"bike_id":"a664e088-0e69-405f-9922-25dfdf792874","system_id":"levelo_inurba_marseille","lat":43.29863,"lon":5.39738,"is_reserved":false,"is_disabled":false,"rental_uris":{"android":"levelo://app?vid=a664e088-0e69-405f-9922-25dfdf792874","ios":"levelo://app?vid=a664e088-0e69-405f-9922-25dfdf792874"},"vehicle_type_id":"4","last_reported":1753204381,"current_range_meters":11600,"station_id":"ce4bh0h2rcd13ifvqd50","pricing_plan_id":"cebpf4jnsgd1na2vs0mg"},{"bike_id":"aed47e46-a072-4e8e-8266-c7af20f03ed8","system_id":"levelo_inurba_marseille","lat":43.284641,"lon":5.34978,"is_reserved":false,"is_disabled":false,"rental_uris":{"android":"levelo://app?vid=aed47e46-a072-4e8e-8266-c7af20f03ed8","ios":"levelo://app?vid=aed47e46-a072-4e8e-8266-c7af20f03ed8"},"vehicle_type_id":"4","last_reported":1753204381,"current_range_meters":11600,"station_id":"","pricing_plan_id":"cebpf4jnsgd1na2vs0mg"},{"bike_id":"93a8b295-0442-42cd-9a09-5ad251943cf6","system_id":"levelo_inurba_marseille","lat":43.28421,"lon":5.34993,"is_reserved":false,"is_disabled":false,"rental_uris":{"android":"levelo://app?vid=93a8b295-0442-42cd-9a09-5ad251943cf6","ios":"levelo://app?vid=93a8b295-0442-42cd-9a09-5ad251943cf6"},"vehicle_type_id":"4","last_reported":1753204381,"current_range_meters":11600,"station_id":"ce4bhbh2rcd13ifvqepg","pricing_plan_id":"cebpf4jnsgd1na2vs0mg"},{"bike_id":"03389a1e-9944-4a7b-89cb-8dea5a5ef7a5","system_id":"levelo_inurba_marseille","lat":43.29188,"lon":5.35793,"is_reserved":false,"is_disabled":false,"rental_uris":{"android":"levelo://app?vid=03389a1e-9944-4a7b-89cb-8dea5a5ef7a5","ios":"levelo://app?vid=03389a1e-9944-4a7b-89cb-8dea5a5ef7a5"},"vehicle_type_id":"4","last_reported":1753204381,"current_range_meters":11600,"station_id":"ce4bhb12rcd13ifvqel0","pricing_plan_id":"cebpf4jnsgd1na2vs0mg"},{"bike_id":"50e2b739-6333-4f3a-902e-13106daae8e4","system_id":"levelo_inurba_marseille","lat":43.24162,"lon":5.36389,"is_reserved":false,"is_disabled":false,"rental_uris":{"android":"levelo://app?vid=50e2b739-6333-4f3a-902e-13106daae8e4","ios":"levelo://app?vid=50e2b739-6333-4f3a-902e-13106daae8e4"},"vehicle_type_id":"4","last_reported":1753204381,"current_range_meters":11600,"station_id":"cpo36qri1sfpv3e86is0","pricing_plan_id":"cebpf4jnsgd1na2vs0mg"},{"bike_id":"a5f1f0d6-c678-45f4-9b29-96eaa29a3e36","system_id":"levelo_inurba_marseille","lat":43.251399,"lon":5.373323,"is_reserved":false,"is_disabled":false,"rental_uris":{"android":"levelo://app?vid=a5f1f0d6-c678-45f4-9b29-96eaa29a3e36","ios":"levelo://app?vid=a5f1f0d6-c678-45f4-9b29-96eaa29a3e36"},"vehicle_type_id":"4","last_reported":1753204381,"current_range_meters":11600,"station_id":"","pricing_plan_id":"cebpf4jnsgd1na2vs0mg"},{"bike_id":"ca03274d-390a-400a-9016-870043e78728","system_id":"levelo_inurba_marseille","lat":43.28412,"lon":5.34987,"is_reserved":false,"is_disabled":false,"rental_uris":{"android":"levelo://app?vid=ca03274d-390a-400a-9016-870043e78728","ios":"levelo://app?vid=ca03274d-390a-400a-9016-870043e78728"},"vehicle_type_id":"4","last_reported":1753204381,"current_range_meters":12000,"station_id":"ce4bhbh2rcd13ifvqepg","pricing_plan_id":"cebpf4jnsgd1na2vs0mg"},{"bike_id":"06410ab7-646b-4a92-8c67-9be9379422d4","system_id":"levelo_inurba_marseille","lat":43.33039,"lon":5.41292,"is_reserved":false,"is_disabled":false,"rental_uris":{"android":"levelo://app?vid=06410ab7-646b-4a92-8c67-9be9379422d4","ios":"levelo://app?vid=06410ab7-646b-4a92-8c67-9be9379422d4"},"vehicle_type_id":"4","last_reported":1753204381,"current_range_meters":12000,"station_id":"","pricing_plan_id":"cebpf4jnsgd1na2vs0mg"},{"bike_id":"8b97af3d-6d6d-487d-ae91-af50ee83e9ef","system_id":"levelo_inurba_marseille","lat":43.29173,"lon":5.36064,"is_reserved":false,"is_disabled":false,"rental_uris":{"android":"levelo://app?vid=8b97af3d-6d6d-487d-ae91-af50ee83e9ef","ios":"levelo://app?vid=8b97af3d-6d6d-487d-ae91-af50ee83e9ef"},"vehicle_type_id":"4","last_reported":1753204381,"current_range_meters":12000,"station_id":"ce4bhbh2rcd13ifvqeqg","pricing_plan_id":"cebpf4jnsgd1na2vs0mg"},{"bike_id":"14bfe123-f8e8-44fc-bbe3-440808c69a8b","system_id":"levelo_inurba_marseille","lat":43.28413,"lon":5.34985,"is_reserved":false,"is_disabled":false,"rental_uris":{"android":"levelo://app?vid=14bfe123-f8e8-44fc-bbe3-440808c69a8b","ios":"levelo://app?vid=14bfe123-f8e8-44fc-bbe3-440808c69a8b"},"vehicle_type_id":"4","last_reported":1753204381,"current_range_meters":12000,"station_id":"ce4bhbh2rcd13ifvqepg","pricing_plan_id":"cebpf4jnsgd1na2vs0mg"},{"bike_id":"0082530e-bede-4c25-a59b-99f14518d4f6","system_id":"levelo_inurba_marseille","lat":43.32362,"lon":5.36766,"is_reserved":false,"is_disabled":false,"rental_uris":{"android":"levelo://app?vid=0082530e-bede-4c25-a59b-99f14518d4f6","ios":"levelo://app?vid=0082530e-bede-4c25-a59b-99f14518d4f6"},"vehicle_type_id":"4","last_reported":1753204381,"current_range_meters":12400,"station_id":"ce4bhsh2rcd13ifvqi2g","pricing_plan_id":"cebpf4jnsgd1na2vs0mg"},{"bike_id":"365bc9b2-68bd-4764-ad7a-4ff9aa780715","system_id":"levelo_inurba_marseille","lat":43.29882,"lon":5.43651,"is_reserved":false,"is_disabled":false,"rental_uris":{"android":"levelo://app?vid=365bc9b2-68bd-4764-ad7a-4ff9aa780715","ios":"levelo://app?vid=365bc9b2-68bd-4764-ad7a-4ff9aa780715"},"vehicle_type_id":"4","last_reported":1753204381,"current_range_meters":12400,"station_id":"ce4bhpp2rcd13ifvqhfg","pricing_plan_id":"cebpf4jnsgd1na2vs0mg"},{"bike_id":"b2cde23e-f061-454e-9280-8b07da9edd7e","system_id":"levelo_inurba_marseille","lat":43.240692,"lon":5.377619,"is_reserved":false,"is_disabled":false,"rental_uris":{"android":"levelo://app?vid=b2cde23e-f061-454e-9280-8b07da9edd7e","ios":"levelo://app?vid=b2cde23e-f061-454e-9280-8b07da9edd7e"},"vehicle_type_id":"4","last_reported":1753204381,"current_range_meters":12400,"station_id":"ce4bhnp2rcd13ifvqgvg","pricing_plan_id":"cebpf4jnsgd1na2vs0mg"},{"bike_id":"b8625307-4caa-404a-8f48-5e8d6f10100f","system_id":"levelo_inurba_marseille","lat":43.31895,"lon":5.40735,"is_reserved":false,"is_disabled":false,"rental_uris":{"android":"levelo://app?vid=b8625307-4caa-404a-8f48-5e8d6f10100f","ios":"levelo://app?vid=b8625307-4caa-404a-8f48-5e8d6f10100f"},"vehicle_type_id":"4","last_reported":1753204381,"current_range_meters":12400,"station_id":"ce4bhq12rcd13ifvqhig","pricing_plan_id":"cebpf4jnsgd1na2vs0mg"},{"bike_id":"4433bd94-c5b0-4a48-96c6-dd6c81bebbf0","system_id":"levelo_inurba_marseille","lat":43.32661,"lon":5.40986,"is_reserved":false,"is_disabled":false,"rental_uris":{"android":"levelo://app?vid=4433bd94-c5b0-4a48-96c6-dd6c81bebbf0","ios":"levelo://app?vid=4433bd94-c5b0-4a48-96c6-dd6c81bebbf0"},"vehicle_type_id":"4","last_reported":1753204381,"current_range_meters":12400,"station_id":"ce4bhpp2rcd13ifvqhgg","pricing_plan_id":"cebpf4jnsgd1na2vs0mg"},{"bike_id":"38694e94-2928-4e5e-bc87-66ead3e80dd1","system_id":"levelo_inurba_marseille","lat":43.28348,"lon":5.38105,"is_reserved":false,"is_disabled":false,"rental_uris":{"android":"levelo://app?vid=38694e94-2928-4e5e-bc87-66ead3e80dd1","ios":"levelo://app?vid=38694e94-2928-4e5e-bc87-66ead3e80dd1"},"vehicle_type_id":"4","last_reported":1753204381,"current_range_meters":12400,"station_id":"ce4bh412rcd13ifvqdr0","pricing_plan_id":"cebpf4jnsgd1na2vs0mg"},{"bike_id":"c05f8a9b-b11a-421b-bf54-758864ba593c","system_id":"levelo_inurba_marseille","lat":43.25924,"lon":5.40894,"is_reserved":false,"is_disabled":true,"rental_uris":{"android":"levelo://app?vid=c05f8a9b-b11a-421b-bf54-758864ba593c","ios":"levelo://app?vid=c05f8a9b-b11a-421b-bf54-758864ba593c"},"vehicle_type_id":"4","last_reported":1753204381,"current_range_meters":12800,"station_id":"ce4bhm92rcd13ifvqglg","pricing_plan_id":"cebpf4jnsgd1na2vs0mg"},{"bike_id":"66a9e543-dcca-4f13-b819-90bff0f75019","system_id":"levelo_inurba_marseille","lat":43.31704,"lon":5.40453,"is_reserved":false,"is_disabled":false,"rental_uris":{"android":"levelo://app?vid=66a9e543-dcca-4f13-b819-90bff0f75019","ios":"levelo://app?vid=66a9e543-dcca-4f13-b819-90bff0f75019"},"vehicle_type_id":"4","last_reported":1753204381,"current_range_meters":12800,"station_id":"ce4bh012rcd13ifvqd00","pricing_plan_id":"cebpf4jnsgd1na2vs0mg"},{"bike_id":"27d356a8-a524-44ee-999c-cdee9783dcf1","system_id":"levelo_inurba_marseille","lat":43.30387,"lon":5.42464,"is_reserved":false,"is_disabled":false,"rental_uris":{"android":"levelo://app?vid=27d356a8-a524-44ee-999c-cdee9783dcf1","ios":"levelo://app?vid=27d356a8-a524-44ee-999c-cdee9783dcf1"},"vehicle_type_id":"4","last_reported":1753204381,"current_range_meters":13600,"station_id":"ce4bhoh2rcd13ifvqh6g","pricing_plan_id":"cebpf4jnsgd1na2vs0mg"},{"bike_id":"79b507a4-6b69-4862-bc07-d60efb691c7d","system_id":"levelo_inurba_marseille","lat":43.28485,"lon":5.38536,"is_reserved":false,"is_disabled":false,"rental_uris":{"android":"levelo://app?vid=79b507a4-6b69-4862-bc07-d60efb691c7d","ios":"levelo://app?vid=79b507a4-6b69-4862-bc07-d60efb691c7d"},"vehicle_type_id":"4","last_reported":1753204381,"current_range_meters":13600,"station_id":"","pricing_plan_id":"cebpf4jnsgd1na2vs0mg"},{"bike_id":"360eafdb-28b8-4ecc-a7ce-f69cecd04f61","system_id":"levelo_inurba_marseille","lat":43.295337,"lon":5.385376,"is_reserved":false,"is_disabled":false,"rental_uris":{"android":"levelo://app?vid=360eafdb-28b8-4ecc-a7ce-f69cecd04f61","ios":"levelo://app?vid=360eafdb-28b8-4ecc-a7ce-f69cecd04f61"},"vehicle_type_id":"4","last_reported":1753204381,"current_range_meters":13600,"station_id":"ce4bgih2rcd13ifvqba0","pricing_plan_id":"cebpf4jnsgd1na2vs0mg"},{"bike_id":"891aabed-e63e-4489-95e9-63b7c6d98056","system_id":"levelo_inurba_marseille","lat":43.3042,"lon":5.4128,"is_reserved":false,"is_disabled":false,"rental_uris":{"android":"levelo://app?vid=891aabed-e63e-4489-95e9-63b7c6d98056","ios":"levelo://app?vid=891aabed-e63e-4489-95e9-63b7c6d98056"},"vehicle_type_id":"4","last_reported":1753204381,"current_range_meters":14000,"station_id":"ce4bhop2rcd13ifvqh8g","pricing_plan_id":"cebpf4jnsgd1na2vs0mg"},{"bike_id":"f663c24d-e54f-4ebf-b7f5-fe81153fe006","system_id":"levelo_inurba_marseille","lat":43.29263,"lon":5.38445,"is_reserved":false,"is_disabled":false,"rental_uris":{"android":"levelo://app?vid=f663c24d-e54f-4ebf-b7f5-fe81153fe006","ios":"levelo://app?vid=f663c24d-e54f-4ebf-b7f5-fe81153fe006"},"vehicle_type_id":"4","last_reported":1753204381,"current_range_meters":14000,"station_id":"ce4bh692rcd13ifvqea0","pricing_plan_id":"cebpf4jnsgd1na2vs0mg"},{"bike_id":"89e5300e-f524-48d1-8669-762241baab60","system_id":"levelo_inurba_marseille","lat":43.22914,"lon":5.35353,"is_reserved":false,"is_disabled":false,"rental_uris":{"android":"levelo://app?vid=89e5300e-f524-48d1-8669-762241baab60","ios":"levelo://app?vid=89e5300e-f524-48d1-8669-762241baab60"},"vehicle_type_id":"4","last_reported":1753204381,"current_range_meters":14000,"station_id":"cpo3532slgdg3j2ikp40","pricing_plan_id":"cebpf4jnsgd1na2vs0mg"},{"bike_id":"4a35db4e-5a3f-4d45-b760-465bfb68f087","system_id":"levelo_inurba_marseille","lat":43.29272,"lon":5.36842,"is_reserved":false,"is_disabled":false,"rental_uris":{"android":"levelo://app?vid=4a35db4e-5a3f-4d45-b760-465bfb68f087","ios":"levelo://app?vid=4a35db4e-5a3f-4d45-b760-465bfb68f087"},"vehicle_type_id":"4","last_reported":1753204381,"current_range_meters":14000,"station_id":"ce4bhbp2rcd13ifvqesg","pricing_plan_id":"cebpf4jnsgd1na2vs0mg"},{"bike_id":"d9438eb8-ff5e-42f7-858b-99f1cb744856","system_id":"levelo_inurba_marseille","lat":43.28623,"lon":5.35096,"is_reserved":false,"is_disabled":false,"rental_uris":{"android":"levelo://app?vid=d9438eb8-ff5e-42f7-858b-99f1cb744856","ios":"levelo://app?vid=d9438eb8-ff5e-42f7-858b-99f1cb744856"},"vehicle_type_id":"4","last_reported":1753204381,"current_range_meters":14000,"station_id":"ce4bhch2rcd13ifvqeug","pricing_plan_id":"cebpf4jnsgd1na2vs0mg"},{"bike_id":"c055c10e-cde6-4e78-9cad-93c5074b6653","system_id":"levelo_inurba_marseille","lat":43.31219,"lon":5.36848,"is_reserved":false,"is_disabled":false,"rental_uris":{"android":"levelo://app?vid=c055c10e-cde6-4e78-9cad-93c5074b6653","ios":"levelo://app?vid=c055c10e-cde6-4e78-9cad-93c5074b6653"},"vehicle_type_id":"4","last_reported":1753204381,"current_range_meters":14000,"station_id":"ce4bgl92rcd13ifvqbq0","pricing_plan_id":"cebpf4jnsgd1na2vs0mg"},{"bike_id":"e565a8c6-c579-489f-96f9-bc8a1f528635","system_id":"levelo_inurba_marseille","lat":43.32548,"lon":5.41448,"is_reserved":false,"is_disabled":false,"rental_uris":{"android":"levelo://app?vid=e565a8c6-c579-489f-96f9-bc8a1f528635","ios":"levelo://app?vid=e565a8c6-c579-489f-96f9-bc8a1f528635"},"vehicle_type_id":"4","last_reported":1753204381,"current_range_meters":14000,"station_id":"ce4bhq12rcd13ifvqhhg","pricing_plan_id":"cebpf4jnsgd1na2vs0mg"},{"bike_id":"b0ff8e5b-2809-47c6-827f-a132e0190493","system_id":"levelo_inurba_marseille","lat":43.28035,"lon":5.36952,"is_reserved":false,"is_disabled":false,"rental_uris":{"android":"levelo://app?vid=b0ff8e5b-2809-47c6-827f-a132e0190493","ios":"levelo://app?vid=b0ff8e5b-2809-47c6-827f-a132e0190493"},"vehicle_type_id":"4","last_reported":1753204381,"current_range_meters":14000,"station_id":"ce4bha12rcd13ifvqef0","pricing_plan_id":"cebpf4jnsgd1na2vs0mg"},{"bike_id":"53c451ad-b10b-4cef-84ba-53d653209c24","system_id":"levelo_inurba_marseille","lat":43.27194,"lon":5.39155,"is_reserved":false,"is_disabled":false,"rental_uris":{"android":"levelo://app?vid=53c451ad-b10b-4cef-84ba-53d653209c24","ios":"levelo://app?vid=53c451ad-b10b-4cef-84ba-53d653209c24"},"vehicle_type_id":"4","last_reported":1753204381,"current_range_meters":14000,"station_id":"ce4bhhp2rcd13ifvqfm0","pricing_plan_id":"cebpf4jnsgd1na2vs0mg"},{"bike_id":"05d42747-d0a7-485b-804a-c208d042127e","system_id":"levelo_inurba_marseille","lat":43.2416,"lon":5.36363,"is_reserved":false,"is_disabled":false,"rental_uris":{"android":"levelo://app?vid=05d42747-d0a7-485b-804a-c208d042127e","ios":"levelo://app?vid=05d42747-d0a7-485b-804a-c208d042127e"},"vehicle_type_id":"4","last_reported":1753204381,"current_range_meters":14000,"station_id":"cpo36qri1sfpv3e86is0","pricing_plan_id":"cebpf4jnsgd1na2vs0mg"},{"bike_id":"bc5a821c-c236-48a4-bbdb-0cd112aed1ec","system_id":"levelo_inurba_marseille","lat":43.27623,"lon":5.36112,"is_reserved":false,"is_disabled":false,"rental_uris":{"android":"levelo://app?vid=bc5a821c-c236-48a4-bbdb-0cd112aed1ec","ios":"levelo://app?vid=bc5a821c-c236-48a4-bbdb-0cd112aed1ec"},"vehicle_type_id":"4","last_reported":1753204381,"current_range_meters":14000,"station_id":"ce4bgj92rcd13ifvqbe0","pricing_plan_id":"cebpf4jnsgd1na2vs0mg"},{"bike_id":"aa5097b6-6968-4aec-b711-e7780938924b","system_id":"levelo_inurba_marseille","lat":43.32971,"lon":5.35902,"is_reserved":false,"is_disabled":false,"rental_uris":{"android":"levelo://app?vid=aa5097b6-6968-4aec-b711-e7780938924b","ios":"levelo://app?vid=aa5097b6-6968-4aec-b711-e7780938924b"},"vehicle_type_id":"4","last_reported":1753204381,"current_range_meters":14400,"station_id":"","pricing_plan_id":"cebpf4jnsgd1na2vs0mg"},{"bike_id":"f0c1c567-3404-405c-9e98-69849925e354","system_id":"levelo_inurba_marseille","lat":43.24388,"lon":5.37069,"is_reserved":false,"is_disabled":false,"rental_uris":{"android":"levelo://app?vid=f0c1c567-3404-405c-9e98-69849925e354","ios":"levelo://app?vid=f0c1c567-3404-405c-9e98-69849925e354"},"vehicle_type_id":"4","last_reported":1753204381,"current_range_meters":14400,"station_id":"ce4bhhh2rcd13ifvqfk0","pricing_plan_id":"cebpf4jnsgd1na2vs0mg"},{"bike_id":"59026f7d-bb30-4eb2-a477-688c584cbaa7","system_id":"levelo_inurba_marseille","lat":43.24998,"lon":5.38919,"is_reserved":false,"is_disabled":false,"rental_uris":{"android":"levelo://app?vid=59026f7d-bb30-4eb2-a477-688c584cbaa7","ios":"levelo://app?vid=59026f7d-bb30-4eb2-a477-688c584cbaa7"},"vehicle_type_id":"4","last_reported":1753204381,"current_range_meters":14000,"station_id":"ce4bhgp2rcd13ifvqfd0","pricing_plan_id":"cebpf4jnsgd1na2vs0mg"},{"bike_id":"1665b1d3-d285-4c6c-a6df-e4ff568b3a5e","system_id":"levelo_inurba_marseille","lat":43.3127,"lon":5.368534,"is_reserved":false,"is_disabled":false,"rental_uris":{"android":"levelo://app?vid=1665b1d3-d285-4c6c-a6df-e4ff568b3a5e","ios":"levelo://app?vid=1665b1d3-d285-4c6c-a6df-e4ff568b3a5e"},"vehicle_type_id":"4","last_reported":1753204381,"current_range_meters":14400,"station_id":"ce4bgl92rcd13ifvqbq0","pricing_plan_id":"cebpf4jnsgd1na2vs0mg"},{"bike_id":"c9dbd36b-479c-4a5c-b200-3aa7673340d9","system_id":"levelo_inurba_marseille","lat":43.241448,"lon":5.363743,"is_reserved":false,"is_disabled":false,"rental_uris":{"android":"levelo://app?vid=c9dbd36b-479c-4a5c-b200-3aa7673340d9","ios":"levelo://app?vid=c9dbd36b-479c-4a5c-b200-3aa7673340d9"},"vehicle_type_id":"4","last_reported":1753204381,"current_range_meters":14400,"station_id":"","pricing_plan_id":"cebpf4jnsgd1na2vs0mg"},{"bike_id":"b8157e49-d09e-4d5e-90fd-5d667c09b9a5","system_id":"levelo_inurba_marseille","lat":43.29058,"lon":5.3717,"is_reserved":false,"is_disabled":true,"rental_uris":{"android":"levelo://app?vid=b8157e49-d09e-4d5e-90fd-5d667c09b9a5","ios":"levelo://app?vid=b8157e49-d09e-4d5e-90fd-5d667c09b9a5"},"vehicle_type_id":"4","last_reported":1753204381,"current_range_meters":14400,"station_id":"ce4bgh92rcd13ifvqb40","pricing_plan_id":"cebpf4jnsgd1na2vs0mg"},{"bike_id":"85b65ca0-7365-40fb-8905-5a0638bc8593","system_id":"levelo_inurba_marseille","lat":43.229218,"lon":5.353757,"is_reserved":false,"is_disabled":false,"rental_uris":{"android":"levelo://app?vid=85b65ca0-7365-40fb-8905-5a0638bc8593","ios":"levelo://app?vid=85b65ca0-7365-40fb-8905-5a0638bc8593"},"vehicle_type_id":"4","last_reported":1753204381,"current_range_meters":14400,"station_id":"cpo3532slgdg3j2ikp40","pricing_plan_id":"cebpf4jnsgd1na2vs0mg"},{"bike_id":"b114d806-d003-49a6-ad16-9835d27cdc50","system_id":"levelo_inurba_marseille","lat":43.2582,"lon":5.39438,"is_reserved":false,"is_disabled":false,"rental_uris":{"android":"levelo://app?vid=b114d806-d003-49a6-ad16-9835d27cdc50","ios":"levelo://app?vid=b114d806-d003-49a6-ad16-9835d27cdc50"},"vehicle_type_id":"4","last_reported":1753204381,"current_range_meters":14400,"station_id":"ce4bhh12rcd13ifvqff0","pricing_plan_id":"cebpf4jnsgd1na2vs0mg"},{"bike_id":"410e0f52-3f39-40f2-b6ac-00f9718a1cba","system_id":"levelo_inurba_marseille","lat":43.2903,"lon":5.38633,"is_reserved":false,"is_disabled":false,"rental_uris":{"android":"levelo://app?vid=410e0f52-3f39-40f2-b6ac-00f9718a1cba","ios":"levelo://app?vid=410e0f52-3f39-40f2-b6ac-00f9718a1cba"},"vehicle_type_id":"4","last_reported":1753204381,"current_range_meters":14000,"station_id":"ce4bh4p2rcd13ifvqe0g","pricing_plan_id":"cebpf4jnsgd1na2vs0mg"},{"bike_id":"4ec81eb2-3305-477e-b674-b0f6b44e2990","system_id":"levelo_inurba_marseille","lat":43.318577,"lon":5.402534,"is_reserved":false,"is_disabled":false,"rental_uris":{"android":"levelo://app?vid=4ec81eb2-3305-477e-b674-b0f6b44e2990","ios":"levelo://app?vid=4ec81eb2-3305-477e-b674-b0f6b44e2990"},"vehicle_type_id":"4","last_reported":1753204381,"current_range_meters":14800,"station_id":"ce4bhq12rcd13ifvqhhg","pricing_plan_id":"cebpf4jnsgd1na2vs0mg"},{"bike_id":"5e18fb79-d37a-4920-98d3-ba1ffaee3ba2","system_id":"levelo_inurba_marseille","lat":43.29005,"lon":5.35626,"is_reserved":false,"is_disabled":false,"rental_uris":{"android":"levelo://app?vid=5e18fb79-d37a-4920-98d3-ba1ffaee3ba2","ios":"levelo://app?vid=5e18fb79-d37a-4920-98d3-ba1ffaee3ba2"},"vehicle_type_id":"4","last_reported":1753204381,"current_range_meters":14800,"station_id":"ce4bhb92rcd13ifvqen0","pricing_plan_id":"cebpf4jnsgd1na2vs0mg"},{"bike_id":"3c21b9e1-b296-4844-a6d5-b8d19c7f36c9","system_id":"levelo_inurba_marseille","lat":43.29172,"lon":5.38457,"is_reserved":false,"is_disabled":false,"rental_uris":{"android":"levelo://app?vid=3c21b9e1-b296-4844-a6d5-b8d19c7f36c9","ios":"levelo://app?vid=3c21b9e1-b296-4844-a6d5-b8d19c7f36c9"},"vehicle_type_id":"4","last_reported":1753204381,"current_range_meters":14800,"station_id":"","pricing_plan_id":"cebpf4jnsgd1na2vs0mg"},{"bike_id":"a4b291e2-97bc-4260-85ae-c68ddedc75b6","system_id":"levelo_inurba_marseille","lat":43.288483,"lon":5.393066,"is_reserved":false,"is_disabled":false,"rental_uris":{"android":"levelo://app?vid=a4b291e2-97bc-4260-85ae-c68ddedc75b6","ios":"levelo://app?vid=a4b291e2-97bc-4260-85ae-c68ddedc75b6"},"vehicle_type_id":"4","last_reported":1753204381,"current_range_meters":14800,"station_id":"ce4bh2p2rcd13ifvqdi0","pricing_plan_id":"cebpf4jnsgd1na2vs0mg"},{"bike_id":"56d29d7b-0840-4d8c-8300-f08d40064ddb","system_id":"levelo_inurba_marseille","lat":43.22521,"lon":5.34779,"is_reserved":false,"is_disabled":false,"rental_uris":{"android":"levelo://app?vid=56d29d7b-0840-4d8c-8300-f08d40064ddb","ios":"levelo://app?vid=56d29d7b-0840-4d8c-8300-f08d40064ddb"},"vehicle_type_id":"4","last_reported":1753204381,"current_range_meters":14800,"station_id":"st_cvj5dfep6f1abm77gieg","pricing_plan_id":"cebpf4jnsgd1na2vs0mg"},{"bike_id":"f7d24d79-fb73-44fe-a579-eccbe39a5e1e","system_id":"levelo_inurba_marseille","lat":43.24171,"lon":5.36397,"is_reserved":false,"is_disabled":false,"rental_uris":{"android":"levelo://app?vid=f7d24d79-fb73-44fe-a579-eccbe39a5e1e","ios":"levelo://app?vid=f7d24d79-fb73-44fe-a579-eccbe39a5e1e"},"vehicle_type_id":"4","last_reported":1753204381,"current_range_meters":15200,"station_id":"cpo36qri1sfpv3e86is0","pricing_plan_id":"cebpf4jnsgd1na2vs0mg"},{"bike_id":"1e6792f6-e23b-4a70-9f0d-cfc180638578","system_id":"levelo_inurba_marseille","lat":43.27413,"lon":5.39416,"is_reserved":false,"is_disabled":false,"rental_uris":{"android":"levelo://app?vid=1e6792f6-e23b-4a70-9f0d-cfc180638578","ios":"levelo://app?vid=1e6792f6-e23b-4a70-9f0d-cfc180638578"},"vehicle_type_id":"4","last_reported":1753204381,"current_range_meters":15200,"station_id":"ce4bhgp2rcd13ifvqfe0","pricing_plan_id":"cebpf4jnsgd1na2vs0mg"},{"bike_id":"c774f4c2-bc5f-4cf6-9563-a432097878f3","system_id":"levelo_inurba_marseille","lat":43.29182,"lon":5.35797,"is_reserved":false,"is_disabled":false,"rental_uris":{"android":"levelo://app?vid=c774f4c2-bc5f-4cf6-9563-a432097878f3","ios":"levelo://app?vid=c774f4c2-bc5f-4cf6-9563-a432097878f3"},"vehicle_type_id":"4","last_reported":1753204381,"current_range_meters":15200,"station_id":"ce4bhb12rcd13ifvqel0","pricing_plan_id":"cebpf4jnsgd1na2vs0mg"},{"bike_id":"255dda78-97ea-40ef-983f-8c63dd973e68","system_id":"levelo_inurba_marseille","lat":43.28946,"lon":5.36393,"is_reserved":false,"is_disabled":false,"rental_uris":{"android":"levelo://app?vid=255dda78-97ea-40ef-983f-8c63dd973e68","ios":"levelo://app?vid=255dda78-97ea-40ef-983f-8c63dd973e68"},"vehicle_type_id":"4","last_reported":1753204381,"current_range_meters":16000,"station_id":"ce4bhc92rcd13ifvqetg","pricing_plan_id":"cebpf4jnsgd1na2vs0mg"},{"bike_id":"5ead7079-9367-4102-86ad-80c0ee22694a","system_id":"levelo_inurba_marseille","lat":43.21741,"lon":5.34604,"is_reserved":false,"is_disabled":false,"rental_uris":{"android":"levelo://app?vid=5ead7079-9367-4102-86ad-80c0ee22694a","ios":"levelo://app?vid=5ead7079-9367-4102-86ad-80c0ee22694a"},"vehicle_type_id":"4","last_reported":1753204381,"current_range_meters":16000,"station_id":"st_cvj6r9ubvosntc0bgbag","pricing_plan_id":"cebpf4jnsgd1na2vs0mg"},{"bike_id":"153ce597-664e-4dca-97e6-09a4750f1a38","system_id":"levelo_inurba_marseille","lat":43.29224,"lon":5.3605,"is_reserved":false,"is_disabled":false,"rental_uris":{"android":"levelo://app?vid=153ce597-664e-4dca-97e6-09a4750f1a38","ios":"levelo://app?vid=153ce597-664e-4dca-97e6-09a4750f1a38"},"vehicle_type_id":"4","last_reported":1753204381,"current_range_meters":16000,"station_id":"ce4bhbh2rcd13ifvqeqg","pricing_plan_id":"cebpf4jnsgd1na2vs0mg"},{"bike_id":"229756b8-509c-4e0f-855c-8f3a920d8a16","system_id":"levelo_inurba_marseille","lat":43.29264,"lon":5.38451,"is_reserved":false,"is_disabled":false,"rental_uris":{"android":"levelo://app?vid=229756b8-509c-4e0f-855c-8f3a920d8a16","ios":"levelo://app?vid=229756b8-509c-4e0f-855c-8f3a920d8a16"},"vehicle_type_id":"4","last_reported":1753204381,"current_range_meters":16000,"station_id":"ce4bh692rcd13ifvqea0","pricing_plan_id":"cebpf4jnsgd1na2vs0mg"},{"bike_id":"87a25bf9-60ea-48cf-a8dd-7937449bef54","system_id":"levelo_inurba_marseille","lat":43.230581,"lon":5.354955,"is_reserved":false,"is_disabled":false,"rental_uris":{"android":"levelo://app?vid=87a25bf9-60ea-48cf-a8dd-7937449bef54","ios":"levelo://app?vid=87a25bf9-60ea-48cf-a8dd-7937449bef54"},"vehicle_type_id":"4","last_reported":1753204381,"current_range_meters":16000,"station_id":"cpo3342slgdg3j2ifvpg","pricing_plan_id":"cebpf4jnsgd1na2vs0mg"},{"bike_id":"9ec0583c-5829-4c40-b788-b21aa44218f4","system_id":"levelo_inurba_marseille","lat":43.28419,"lon":5.37507,"is_reserved":false,"is_disabled":false,"rental_uris":{"android":"levelo://app?vid=9ec0583c-5829-4c40-b788-b21aa44218f4","ios":"levelo://app?vid=9ec0583c-5829-4c40-b788-b21aa44218f4"},"vehicle_type_id":"4","last_reported":1753204381,"current_range_meters":16000,"station_id":"ce4bh412rcd13ifvqds0","pricing_plan_id":"cebpf4jnsgd1na2vs0mg"},{"bike_id":"5624f2b1-f105-4dbc-b632-d2910f97b1d5","system_id":"levelo_inurba_marseille","lat":43.2843,"lon":5.34975,"is_reserved":false,"is_disabled":false,"rental_uris":{"android":"levelo://app?vid=5624f2b1-f105-4dbc-b632-d2910f97b1d5","ios":"levelo://app?vid=5624f2b1-f105-4dbc-b632-d2910f97b1d5"},"vehicle_type_id":"4","last_reported":1753204381,"current_range_meters":16000,"station_id":"ce4bhbh2rcd13ifvqepg","pricing_plan_id":"cebpf4jnsgd1na2vs0mg"},{"bike_id":"fe50cf1d-fc61-4e48-98f2-ea42037cc2b3","system_id":"levelo_inurba_marseille","lat":43.229429,"lon":5.353924,"is_reserved":false,"is_disabled":false,"rental_uris":{"android":"levelo://app?vid=fe50cf1d-fc61-4e48-98f2-ea42037cc2b3","ios":"levelo://app?vid=fe50cf1d-fc61-4e48-98f2-ea42037cc2b3"},"vehicle_type_id":"4","last_reported":1753204381,"current_range_meters":16000,"station_id":"cpo3532slgdg3j2ikp40","pricing_plan_id":"cebpf4jnsgd1na2vs0mg"},{"bike_id":"c768222e-5427-47bf-9d12-784e83813219","system_id":"levelo_inurba_marseille","lat":43.29008,"lon":5.35602,"is_reserved":false,"is_disabled":false,"rental_uris":{"android":"levelo://app?vid=c768222e-5427-47bf-9d12-784e83813219","ios":"levelo://app?vid=c768222e-5427-47bf-9d12-784e83813219"},"vehicle_type_id":"4","last_reported":1753204381,"current_range_meters":16000,"station_id":"ce4bhb92rcd13ifvqen0","pricing_plan_id":"cebpf4jnsgd1na2vs0mg"},{"bike_id":"e44893bb-5cdf-4921-b4e8-39ee578180a1","system_id":"levelo_inurba_marseille","lat":43.24087,"lon":5.37754,"is_reserved":false,"is_disabled":false,"rental_uris":{"android":"levelo://app?vid=e44893bb-5cdf-4921-b4e8-39ee578180a1","ios":"levelo://app?vid=e44893bb-5cdf-4921-b4e8-39ee578180a1"},"vehicle_type_id":"4","last_reported":1753204381,"current_range_meters":16000,"station_id":"ce4bhnp2rcd13ifvqgvg","pricing_plan_id":"cebpf4jnsgd1na2vs0mg"},{"bike_id":"9ca45bd3-5b9e-4080-bcb8-fdb474af3a59","system_id":"levelo_inurba_marseille","lat":43.24168,"lon":5.364,"is_reserved":false,"is_disabled":false,"rental_uris":{"android":"levelo://app?vid=9ca45bd3-5b9e-4080-bcb8-fdb474af3a59","ios":"levelo://app?vid=9ca45bd3-5b9e-4080-bcb8-fdb474af3a59"},"vehicle_type_id":"4","last_reported":1753204381,"current_range_meters":16400,"station_id":"cpo36qri1sfpv3e86is0","pricing_plan_id":"cebpf4jnsgd1na2vs0mg"},{"bike_id":"d3eea4a0-76ba-4059-ba6b-c1ecd6270925","system_id":"levelo_inurba_marseille","lat":43.21193,"lon":5.35092,"is_reserved":false,"is_disabled":false,"rental_uris":{"android":"levelo://app?vid=d3eea4a0-76ba-4059-ba6b-c1ecd6270925","ios":"levelo://app?vid=d3eea4a0-76ba-4059-ba6b-c1ecd6270925"},"vehicle_type_id":"4","last_reported":1753204381,"current_range_meters":16400,"station_id":"st_cvj6sg6p6f1abm77japg","pricing_plan_id":"cebpf4jnsgd1na2vs0mg"},{"bike_id":"194e348e-1696-4be5-b40d-bcccaabbbbd9","system_id":"levelo_inurba_marseille","lat":43.28269,"lon":5.35064,"is_reserved":false,"is_disabled":false,"rental_uris":{"android":"levelo://app?vid=194e348e-1696-4be5-b40d-bcccaabbbbd9","ios":"levelo://app?vid=194e348e-1696-4be5-b40d-bcccaabbbbd9"},"vehicle_type_id":"4","last_reported":1753204381,"current_range_meters":16400,"station_id":"ce4bhbp2rcd13ifvqerg","pricing_plan_id":"cebpf4jnsgd1na2vs0mg"},{"bike_id":"768a6774-6f88-4d8b-b7a7-29c2587ddd57","system_id":"levelo_inurba_marseille","lat":43.27184,"lon":5.40998,"is_reserved":false,"is_disabled":false,"rental_uris":{"android":"levelo://app?vid=768a6774-6f88-4d8b-b7a7-29c2587ddd57","ios":"levelo://app?vid=768a6774-6f88-4d8b-b7a7-29c2587ddd57"},"vehicle_type_id":"4","last_reported":1753204381,"current_range_meters":16400,"station_id":"ce4bhl12rcd13ifvqgf0","pricing_plan_id":"cebpf4jnsgd1na2vs0mg"},{"bike_id":"4be8ab13-53fe-4991-84b7-8c8e15d8b8c8","system_id":"levelo_inurba_marseille","lat":43.2842,"lon":5.34993,"is_reserved":false,"is_disabled":false,"rental_uris":{"android":"levelo://app?vid=4be8ab13-53fe-4991-84b7-8c8e15d8b8c8","ios":"levelo://app?vid=4be8ab13-53fe-4991-84b7-8c8e15d8b8c8"},"vehicle_type_id":"4","last_reported":1753204381,"current_range_meters":16400,"station_id":"ce4bhbh2rcd13ifvqepg","pricing_plan_id":"cebpf4jnsgd1na2vs0mg"},{"bike_id":"975c7ac7-ca95-41a0-9cef-be768d6024c6","system_id":"levelo_inurba_marseille","lat":43.29757,"lon":5.39278,"is_reserved":false,"is_disabled":false,"rental_uris":{"android":"levelo://app?vid=975c7ac7-ca95-41a0-9cef-be768d6024c6","ios":"levelo://app?vid=975c7ac7-ca95-41a0-9cef-be768d6024c6"},"vehicle_type_id":"4","last_reported":1753204381,"current_range_meters":16800,"station_id":"","pricing_plan_id":"cebpf4jnsgd1na2vs0mg"},{"bike_id":"9a4e471e-a476-440d-8f6e-848fa6d1ffe6","system_id":"levelo_inurba_marseille","lat":43.28695,"lon":5.3999,"is_reserved":false,"is_disabled":false,"rental_uris":{"android":"levelo://app?vid=9a4e471e-a476-440d-8f6e-848fa6d1ffe6","ios":"levelo://app?vid=9a4e471e-a476-440d-8f6e-848fa6d1ffe6"},"vehicle_type_id":"4","last_reported":1753204381,"current_range_meters":16800,"station_id":"ce4bho92rcd13ifvqh3g","pricing_plan_id":"cebpf4jnsgd1na2vs0mg"},{"bike_id":"9a143ed1-a3c7-421c-a22c-84e79d27e230","system_id":"levelo_inurba_marseille","lat":43.284216,"lon":5.349935,"is_reserved":false,"is_disabled":true,"rental_uris":{"android":"levelo://app?vid=9a143ed1-a3c7-421c-a22c-84e79d27e230","ios":"levelo://app?vid=9a143ed1-a3c7-421c-a22c-84e79d27e230"},"vehicle_type_id":"4","last_reported":1753204381,"current_range_meters":16800,"station_id":"ce4bhbh2rcd13ifvqepg","pricing_plan_id":"cebpf4jnsgd1na2vs0mg"},{"bike_id":"911c3e66-c4b4-4e9c-bf6d-21f121179e38","system_id":"levelo_inurba_marseille","lat":43.29893,"lon":5.37971,"is_reserved":false,"is_disabled":false,"rental_uris":{"android":"levelo://app?vid=911c3e66-c4b4-4e9c-bf6d-21f121179e38","ios":"levelo://app?vid=911c3e66-c4b4-4e9c-bf6d-21f121179e38"},"vehicle_type_id":"4","last_reported":1753204381,"current_range_meters":16800,"station_id":"","pricing_plan_id":"cebpf4jnsgd1na2vs0mg"},{"bike_id":"fe07410f-2ac3-4d42-a644-c798c7a25a84","system_id":"levelo_inurba_marseille","lat":43.26571,"lon":5.372879,"is_reserved":false,"is_disabled":false,"rental_uris":{"android":"levelo://app?vid=fe07410f-2ac3-4d42-a644-c798c7a25a84","ios":"levelo://app?vid=fe07410f-2ac3-4d42-a644-c798c7a25a84"},"vehicle_type_id":"4","last_reported":1753204381,"current_range_meters":16800,"station_id":"","pricing_plan_id":"cebpf4jnsgd1na2vs0mg"},{"bike_id":"ee5b3c26-9f03-4693-8484-d66daff728e8","system_id":"levelo_inurba_marseille","lat":43.32348,"lon":5.36736,"is_reserved":false,"is_disabled":false,"rental_uris":{"android":"levelo://app?vid=ee5b3c26-9f03-4693-8484-d66daff728e8","ios":"levelo://app?vid=ee5b3c26-9f03-4693-8484-d66daff728e8"},"vehicle_type_id":"4","last_reported":1753204381,"current_range_meters":16800,"station_id":"ce4bhsh2rcd13ifvqi2g","pricing_plan_id":"cebpf4jnsgd1na2vs0mg"},{"bike_id":"05485ec3-07c9-44ad-868d-ca1321acf4f4","system_id":"levelo_inurba_marseille","lat":43.32664,"lon":5.40992,"is_reserved":false,"is_disabled":false,"rental_uris":{"android":"levelo://app?vid=05485ec3-07c9-44ad-868d-ca1321acf4f4","ios":"levelo://app?vid=05485ec3-07c9-44ad-868d-ca1321acf4f4"},"vehicle_type_id":"4","last_reported":1753204381,"current_range_meters":16800,"station_id":"ce4bhpp2rcd13ifvqhgg","pricing_plan_id":"cebpf4jnsgd1na2vs0mg"},{"bike_id":"94d14f95-e2c8-406b-9159-777a343873fe","system_id":"levelo_inurba_marseille","lat":43.28265,"lon":5.3506,"is_reserved":false,"is_disabled":false,"rental_uris":{"android":"levelo://app?vid=94d14f95-e2c8-406b-9159-777a343873fe","ios":"levelo://app?vid=94d14f95-e2c8-406b-9159-777a343873fe"},"vehicle_type_id":"4","last_reported":1753204381,"current_range_meters":16800,"station_id":"ce4bhbp2rcd13ifvqerg","pricing_plan_id":"cebpf4jnsgd1na2vs0mg"},{"bike_id":"911c78cb-34d5-44b1-a60e-8e3e2bb9a5f4","system_id":"levelo_inurba_marseille","lat":43.24166,"lon":5.36395,"is_reserved":false,"is_disabled":false,"rental_uris":{"android":"levelo://app?vid=911c78cb-34d5-44b1-a60e-8e3e2bb9a5f4","ios":"levelo://app?vid=911c78cb-34d5-44b1-a60e-8e3e2bb9a5f4"},"vehicle_type_id":"4","last_reported":1753204381,"current_range_meters":16800,"station_id":"cpo36qri1sfpv3e86is0","pricing_plan_id":"cebpf4jnsgd1na2vs0mg"},{"bike_id":"46add676-e4a8-46f4-a9b1-dfc755b737e9","system_id":"levelo_inurba_marseille","lat":43.29536,"lon":5.38547,"is_reserved":false,"is_disabled":false,"rental_uris":{"android":"levelo://app?vid=46add676-e4a8-46f4-a9b1-dfc755b737e9","ios":"levelo://app?vid=46add676-e4a8-46f4-a9b1-dfc755b737e9"},"vehicle_type_id":"4","last_reported":1753204381,"current_range_meters":16400,"station_id":"ce4bgih2rcd13ifvqba0","pricing_plan_id":"cebpf4jnsgd1na2vs0mg"},{"bike_id":"cc926983-7496-48df-9677-b8723ddc96b9","system_id":"levelo_inurba_marseille","lat":43.22947,"lon":5.35377,"is_reserved":false,"is_disabled":false,"rental_uris":{"android":"levelo://app?vid=cc926983-7496-48df-9677-b8723ddc96b9","ios":"levelo://app?vid=cc926983-7496-48df-9677-b8723ddc96b9"},"vehicle_type_id":"4","last_reported":1753204381,"current_range_meters":17200,"station_id":"cpo3532slgdg3j2ikp40","pricing_plan_id":"cebpf4jnsgd1na2vs0mg"},{"bike_id":"c79df381-2a74-4ffd-b659-e035ccac0f04","system_id":"levelo_inurba_marseille","lat":43.2841,"lon":5.34985,"is_reserved":false,"is_disabled":false,"rental_uris":{"android":"levelo://app?vid=c79df381-2a74-4ffd-b659-e035ccac0f04","ios":"levelo://app?vid=c79df381-2a74-4ffd-b659-e035ccac0f04"},"vehicle_type_id":"4","last_reported":1753204381,"current_range_meters":17200,"station_id":"ce4bhbh2rcd13ifvqepg","pricing_plan_id":"cebpf4jnsgd1na2vs0mg"},{"bike_id":"fb81ee79-6688-4d05-be53-1ac881d0c7b8","system_id":"levelo_inurba_marseille","lat":43.23201,"lon":5.35555,"is_reserved":false,"is_disabled":false,"rental_uris":{"android":"levelo://app?vid=fb81ee79-6688-4d05-be53-1ac881d0c7b8","ios":"levelo://app?vid=fb81ee79-6688-4d05-be53-1ac881d0c7b8"},"vehicle_type_id":"4","last_reported":1753204381,"current_range_meters":17200,"station_id":"ce4bhu92rcd13ifvqi70","pricing_plan_id":"cebpf4jnsgd1na2vs0mg"},{"bike_id":"c0c7b1ef-0193-40a3-982f-bbd4a56ed130","system_id":"levelo_inurba_marseille","lat":43.29169,"lon":5.37163,"is_reserved":false,"is_disabled":false,"rental_uris":{"android":"levelo://app?vid=c0c7b1ef-0193-40a3-982f-bbd4a56ed130","ios":"levelo://app?vid=c0c7b1ef-0193-40a3-982f-bbd4a56ed130"},"vehicle_type_id":"4","last_reported":1753204381,"current_range_meters":17200,"station_id":"ce4bha92rcd13ifvqeh0","pricing_plan_id":"cebpf4jnsgd1na2vs0mg"},{"bike_id":"3605c58d-b72a-4977-89c8-f9f5429904c5","system_id":"levelo_inurba_marseille","lat":43.25116,"lon":5.40319,"is_reserved":false,"is_disabled":false,"rental_uris":{"android":"levelo://app?vid=3605c58d-b72a-4977-89c8-f9f5429904c5","ios":"levelo://app?vid=3605c58d-b72a-4977-89c8-f9f5429904c5"},"vehicle_type_id":"4","last_reported":1753204381,"current_range_meters":16800,"station_id":"ce4bhlh2rcd13ifvqgig","pricing_plan_id":"cebpf4jnsgd1na2vs0mg"},{"bike_id":"586c5268-7d24-412a-82f3-04115e5c5590","system_id":"levelo_inurba_marseille","lat":43.29009,"lon":5.35614,"is_reserved":false,"is_disabled":false,"rental_uris":{"android":"levelo://app?vid=586c5268-7d24-412a-82f3-04115e5c5590","ios":"levelo://app?vid=586c5268-7d24-412a-82f3-04115e5c5590"},"vehicle_type_id":"4","last_reported":1753204381,"current_range_meters":17200,"station_id":"ce4bhb92rcd13ifvqen0","pricing_plan_id":"cebpf4jnsgd1na2vs0mg"},{"bike_id":"7b50a04e-af99-4b54-8144-a850d7eabbbe","system_id":"levelo_inurba_marseille","lat":43.30303,"lon":5.39215,"is_reserved":false,"is_disabled":false,"rental_uris":{"android":"levelo://app?vid=7b50a04e-af99-4b54-8144-a850d7eabbbe","ios":"levelo://app?vid=7b50a04e-af99-4b54-8144-a850d7eabbbe"},"vehicle_type_id":"4","last_reported":1753204381,"current_range_meters":17200,"station_id":"ce4bgkh2rcd13ifvqbk0","pricing_plan_id":"cebpf4jnsgd1na2vs0mg"},{"bike_id":"c1c37b7a-aa87-45b4-810a-8d10d556adb4","system_id":"levelo_inurba_marseille","lat":43.24798,"lon":5.37448,"is_reserved":false,"is_disabled":false,"rental_uris":{"android":"levelo://app?vid=c1c37b7a-aa87-45b4-810a-8d10d556adb4","ios":"levelo://app?vid=c1c37b7a-aa87-45b4-810a-8d10d556adb4"},"vehicle_type_id":"4","last_reported":1753204381,"current_range_meters":17200,"station_id":"ce4bhgh2rcd13ifvqfb0","pricing_plan_id":"cebpf4jnsgd1na2vs0mg"},{"bike_id":"6093672b-1e9a-4299-b920-36e4f293a348","system_id":"levelo_inurba_marseille","lat":43.22932,"lon":5.35376,"is_reserved":false,"is_disabled":false,"rental_uris":{"android":"levelo://app?vid=6093672b-1e9a-4299-b920-36e4f293a348","ios":"levelo://app?vid=6093672b-1e9a-4299-b920-36e4f293a348"},"vehicle_type_id":"4","last_reported":1753204381,"current_range_meters":17600,"station_id":"cpo3532slgdg3j2ikp40","pricing_plan_id":"cebpf4jnsgd1na2vs0mg"},{"bike_id":"1a2751da-031a-4246-8d2c-dd848ee0e802","system_id":"levelo_inurba_marseille","lat":43.2953,"lon":5.3854,"is_reserved":false,"is_disabled":true,"rental_uris":{"android":"levelo://app?vid=1a2751da-031a-4246-8d2c-dd848ee0e802","ios":"levelo://app?vid=1a2751da-031a-4246-8d2c-dd848ee0e802"},"vehicle_type_id":"4","last_reported":1753204381,"current_range_meters":17600,"station_id":"ce4bgih2rcd13ifvqba0","pricing_plan_id":"cebpf4jnsgd1na2vs0mg"},{"bike_id":"e596767d-3b6f-4e7e-90a7-c04c01b3a437","system_id":"levelo_inurba_marseille","lat":43.29534,"lon":5.38536,"is_reserved":false,"is_disabled":false,"rental_uris":{"android":"levelo://app?vid=e596767d-3b6f-4e7e-90a7-c04c01b3a437","ios":"levelo://app?vid=e596767d-3b6f-4e7e-90a7-c04c01b3a437"},"vehicle_type_id":"4","last_reported":1753204381,"current_range_meters":17600,"station_id":"ce4bgih2rcd13ifvqba0","pricing_plan_id":"cebpf4jnsgd1na2vs0mg"},{"bike_id":"b6be997e-9d88-47e9-9bf1-ba6dbad6f950","system_id":"levelo_inurba_marseille","lat":43.31314,"lon":5.39727,"is_reserved":false,"is_disabled":false,"rental_uris":{"android":"levelo://app?vid=b6be997e-9d88-47e9-9bf1-ba6dbad6f950","ios":"levelo://app?vid=b6be997e-9d88-47e9-9bf1-ba6dbad6f950"},"vehicle_type_id":"4","last_reported":1753204381,"current_range_meters":17600,"station_id":"ce4bgvp2rcd13ifvqcu0","pricing_plan_id":"cebpf4jnsgd1na2vs0mg"},{"bike_id":"76db15c8-170e-45d5-b532-47538db583c1","system_id":"levelo_inurba_marseille","lat":43.29537,"lon":5.38549,"is_reserved":false,"is_disabled":false,"rental_uris":{"android":"levelo://app?vid=76db15c8-170e-45d5-b532-47538db583c1","ios":"levelo://app?vid=76db15c8-170e-45d5-b532-47538db583c1"},"vehicle_type_id":"4","last_reported":1753204381,"current_range_meters":17600,"station_id":"ce4bgih2rcd13ifvqba0","pricing_plan_id":"cebpf4jnsgd1na2vs0mg"},{"bike_id":"9a93e0b1-9129-4302-a042-b77b94831fea","system_id":"levelo_inurba_marseille","lat":43.27191,"lon":5.40985,"is_reserved":false,"is_disabled":false,"rental_uris":{"android":"levelo://app?vid=9a93e0b1-9129-4302-a042-b77b94831fea","ios":"levelo://app?vid=9a93e0b1-9129-4302-a042-b77b94831fea"},"vehicle_type_id":"4","last_reported":1753204381,"current_range_meters":17600,"station_id":"ce4bhl12rcd13ifvqgf0","pricing_plan_id":"cebpf4jnsgd1na2vs0mg"},{"bike_id":"a1b0b122-6e21-4460-9358-18ef2a002ce1","system_id":"levelo_inurba_marseille","lat":43.28411,"lon":5.34986,"is_reserved":false,"is_disabled":false,"rental_uris":{"android":"levelo://app?vid=a1b0b122-6e21-4460-9358-18ef2a002ce1","ios":"levelo://app?vid=a1b0b122-6e21-4460-9358-18ef2a002ce1"},"vehicle_type_id":"4","last_reported":1753204381,"current_range_meters":17600,"station_id":"ce4bhbh2rcd13ifvqepg","pricing_plan_id":"cebpf4jnsgd1na2vs0mg"},{"bike_id":"d3707186-06e6-4b62-ad44-25c7a2112328","system_id":"levelo_inurba_marseille","lat":43.292658,"lon":5.384457,"is_reserved":false,"is_disabled":false,"rental_uris":{"android":"levelo://app?vid=d3707186-06e6-4b62-ad44-25c7a2112328","ios":"levelo://app?vid=d3707186-06e6-4b62-ad44-25c7a2112328"},"vehicle_type_id":"4","last_reported":1753204381,"current_range_meters":17600,"station_id":"ce4bh692rcd13ifvqea0","pricing_plan_id":"cebpf4jnsgd1na2vs0mg"},{"bike_id":"5b47a81d-ead0-4c4b-8864-c63aeb4bcd3d","system_id":"levelo_inurba_marseille","lat":43.21218,"lon":5.35062,"is_reserved":false,"is_disabled":false,"rental_uris":{"android":"levelo://app?vid=5b47a81d-ead0-4c4b-8864-c63aeb4bcd3d","ios":"levelo://app?vid=5b47a81d-ead0-4c4b-8864-c63aeb4bcd3d"},"vehicle_type_id":"4","last_reported":1753204381,"current_range_meters":17600,"station_id":"st_cvj6sg6p6f1abm77japg","pricing_plan_id":"cebpf4jnsgd1na2vs0mg"},{"bike_id":"5984b2a9-df08-472f-9972-51a1ce9935d3","system_id":"levelo_inurba_marseille","lat":43.21795,"lon":5.34573,"is_reserved":false,"is_disabled":false,"rental_uris":{"android":"levelo://app?vid=5984b2a9-df08-472f-9972-51a1ce9935d3","ios":"levelo://app?vid=5984b2a9-df08-472f-9972-51a1ce9935d3"},"vehicle_type_id":"4","last_reported":1753204381,"current_range_meters":17600,"station_id":"","pricing_plan_id":"cebpf4jnsgd1na2vs0mg"},{"bike_id":"54e9311d-6849-4964-ad2e-beb1fa5c5ff8","system_id":"levelo_inurba_marseille","lat":43.29861,"lon":5.36308,"is_reserved":false,"is_disabled":false,"rental_uris":{"android":"levelo://app?vid=54e9311d-6849-4964-ad2e-beb1fa5c5ff8","ios":"levelo://app?vid=54e9311d-6849-4964-ad2e-beb1fa5c5ff8"},"vehicle_type_id":"4","last_reported":1753204381,"current_range_meters":18000,"station_id":"ce4bgpp2rcd13ifvqc3g","pricing_plan_id":"cebpf4jnsgd1na2vs0mg"},{"bike_id":"248219e7-14bb-4f0e-9e02-0501bea0b7b4","system_id":"levelo_inurba_marseille","lat":43.2422,"lon":5.36352,"is_reserved":false,"is_disabled":false,"rental_uris":{"android":"levelo://app?vid=248219e7-14bb-4f0e-9e02-0501bea0b7b4","ios":"levelo://app?vid=248219e7-14bb-4f0e-9e02-0501bea0b7b4"},"vehicle_type_id":"4","last_reported":1753204381,"current_range_meters":18000,"station_id":"cpo36qri1sfpv3e86is0","pricing_plan_id":"cebpf4jnsgd1na2vs0mg"},{"bike_id":"e3a9e6d1-788b-4774-babe-289560a0bee7","system_id":"levelo_inurba_marseille","lat":43.29972,"lon":5.374356,"is_reserved":false,"is_disabled":false,"rental_uris":{"android":"levelo://app?vid=e3a9e6d1-788b-4774-babe-289560a0bee7","ios":"levelo://app?vid=e3a9e6d1-788b-4774-babe-289560a0bee7"},"vehicle_type_id":"4","last_reported":1753204381,"current_range_meters":18000,"station_id":"","pricing_plan_id":"cebpf4jnsgd1na2vs0mg"},{"bike_id":"2926e178-6436-4ad4-a9a0-63631e890abe","system_id":"levelo_inurba_marseille","lat":43.21773,"lon":5.34591,"is_reserved":false,"is_disabled":false,"rental_uris":{"android":"levelo://app?vid=2926e178-6436-4ad4-a9a0-63631e890abe","ios":"levelo://app?vid=2926e178-6436-4ad4-a9a0-63631e890abe"},"vehicle_type_id":"4","last_reported":1753204381,"current_range_meters":18000,"station_id":"st_cvj6r9ubvosntc0bgbag","pricing_plan_id":"cebpf4jnsgd1na2vs0mg"},{"bike_id":"d509b331-e799-4503-90e7-40b1e687c26f","system_id":"levelo_inurba_marseille","lat":43.28605,"lon":5.37065,"is_reserved":false,"is_disabled":true,"rental_uris":{"android":"levelo://app?vid=d509b331-e799-4503-90e7-40b1e687c26f","ios":"levelo://app?vid=d509b331-e799-4503-90e7-40b1e687c26f"},"vehicle_type_id":"4","last_reported":1753204381,"current_range_meters":18000,"station_id":"ce4bht12rcd13ifvqi60","pricing_plan_id":"cebpf4jnsgd1na2vs0mg"},{"bike_id":"b68f22f0-2760-41f3-a44a-feef0fac5ce9","system_id":"levelo_inurba_marseille","lat":43.303011,"lon":5.392146,"is_reserved":false,"is_disabled":false,"rental_uris":{"android":"levelo://app?vid=b68f22f0-2760-41f3-a44a-feef0fac5ce9","ios":"levelo://app?vid=b68f22f0-2760-41f3-a44a-feef0fac5ce9"},"vehicle_type_id":"4","last_reported":1753204381,"current_range_meters":18000,"station_id":"ce4bgkh2rcd13ifvqbk0","pricing_plan_id":"cebpf4jnsgd1na2vs0mg"},{"bike_id":"e246d2da-6d80-47b1-a9f1-5e364713e4a8","system_id":"levelo_inurba_marseille","lat":43.27317,"lon":5.39071,"is_reserved":false,"is_disabled":false,"rental_uris":{"android":"levelo://app?vid=e246d2da-6d80-47b1-a9f1-5e364713e4a8","ios":"levelo://app?vid=e246d2da-6d80-47b1-a9f1-5e364713e4a8"},"vehicle_type_id":"4","last_reported":1753204381,"current_range_meters":17600,"station_id":"ce4bhgp2rcd13ifvqfe0","pricing_plan_id":"cebpf4jnsgd1na2vs0mg"},{"bike_id":"0328809f-87e4-43d4-9881-2db7d232e7fc","system_id":"levelo_inurba_marseille","lat":43.289438,"lon":5.366323,"is_reserved":false,"is_disabled":false,"rental_uris":{"android":"levelo://app?vid=0328809f-87e4-43d4-9881-2db7d232e7fc","ios":"levelo://app?vid=0328809f-87e4-43d4-9881-2db7d232e7fc"},"vehicle_type_id":"4","last_reported":1753204381,"current_range_meters":18000,"station_id":"ce4bhap2rcd13ifvqek0","pricing_plan_id":"cebpf4jnsgd1na2vs0mg"},{"bike_id":"eff55f38-e693-4e28-9bab-54692ca2aba6","system_id":"levelo_inurba_marseille","lat":43.29303,"lon":5.37174,"is_reserved":false,"is_disabled":false,"rental_uris":{"android":"levelo://app?vid=eff55f38-e693-4e28-9bab-54692ca2aba6","ios":"levelo://app?vid=eff55f38-e693-4e28-9bab-54692ca2aba6"},"vehicle_type_id":"4","last_reported":1753204381,"current_range_meters":18800,"station_id":"ce4bgh92rcd13ifvqb40","pricing_plan_id":"cebpf4jnsgd1na2vs0mg"},{"bike_id":"7e8f0e09-acf9-4b09-9b3c-19433806bed6","system_id":"levelo_inurba_marseille","lat":43.24809,"lon":5.37461,"is_reserved":false,"is_disabled":false,"rental_uris":{"android":"levelo://app?vid=7e8f0e09-acf9-4b09-9b3c-19433806bed6","ios":"levelo://app?vid=7e8f0e09-acf9-4b09-9b3c-19433806bed6"},"vehicle_type_id":"4","last_reported":1753204381,"current_range_meters":18800,"station_id":"ce4bhgh2rcd13ifvqfb0","pricing_plan_id":"cebpf4jnsgd1na2vs0mg"},{"bike_id":"4f1dd806-4cc0-4731-a103-d84b6076bb8f","system_id":"levelo_inurba_marseille","lat":43.25604,"lon":5.38244,"is_reserved":false,"is_disabled":true,"rental_uris":{"android":"levelo://app?vid=4f1dd806-4cc0-4731-a103-d84b6076bb8f","ios":"levelo://app?vid=4f1dd806-4cc0-4731-a103-d84b6076bb8f"},"vehicle_type_id":"4","last_reported":1753204381,"current_range_meters":18800,"station_id":"ce4bhih2rcd13ifvqfs0","pricing_plan_id":"cebpf4jnsgd1na2vs0mg"},{"bike_id":"4fcfdde1-0843-4cba-8ebe-080aa891d252","system_id":"levelo_inurba_marseille","lat":43.29543,"lon":5.38537,"is_reserved":false,"is_disabled":false,"rental_uris":{"android":"levelo://app?vid=4fcfdde1-0843-4cba-8ebe-080aa891d252","ios":"levelo://app?vid=4fcfdde1-0843-4cba-8ebe-080aa891d252"},"vehicle_type_id":"4","last_reported":1753204381,"current_range_meters":18800,"station_id":"ce4bgih2rcd13ifvqba0","pricing_plan_id":"cebpf4jnsgd1na2vs0mg"},{"bike_id":"23c29e00-ece7-4cf5-8159-4b8848728223","system_id":"levelo_inurba_marseille","lat":43.2841,"lon":5.34987,"is_reserved":false,"is_disabled":false,"rental_uris":{"android":"levelo://app?vid=23c29e00-ece7-4cf5-8159-4b8848728223","ios":"levelo://app?vid=23c29e00-ece7-4cf5-8159-4b8848728223"},"vehicle_type_id":"4","last_reported":1753204381,"current_range_meters":18800,"station_id":"ce4bhbh2rcd13ifvqepg","pricing_plan_id":"cebpf4jnsgd1na2vs0mg"},{"bike_id":"32d78aa2-e515-4b22-b8a1-8418baf6acc2","system_id":"levelo_inurba_marseille","lat":43.30414,"lon":5.4128,"is_reserved":false,"is_disabled":false,"rental_uris":{"android":"levelo://app?vid=32d78aa2-e515-4b22-b8a1-8418baf6acc2","ios":"levelo://app?vid=32d78aa2-e515-4b22-b8a1-8418baf6acc2"},"vehicle_type_id":"4","last_reported":1753204381,"current_range_meters":18000,"station_id":"ce4bhop2rcd13ifvqh8g","pricing_plan_id":"cebpf4jnsgd1na2vs0mg"},{"bike_id":"ee082d24-b60e-457b-b860-f7fafad2fe15","system_id":"levelo_inurba_marseille","lat":43.29605,"lon":5.38096,"is_reserved":false,"is_disabled":false,"rental_uris":{"android":"levelo://app?vid=ee082d24-b60e-457b-b860-f7fafad2fe15","ios":"levelo://app?vid=ee082d24-b60e-457b-b860-f7fafad2fe15"},"vehicle_type_id":"4","last_reported":1753204381,"current_range_meters":18800,"station_id":"ce4bgl12rcd13ifvqbo0","pricing_plan_id":"cebpf4jnsgd1na2vs0mg"},{"bike_id":"3a41e442-1812-4e9c-9a4b-c952397c9da2","system_id":"levelo_inurba_marseille","lat":43.2841,"lon":5.34978,"is_reserved":false,"is_disabled":false,"rental_uris":{"android":"levelo://app?vid=3a41e442-1812-4e9c-9a4b-c952397c9da2","ios":"levelo://app?vid=3a41e442-1812-4e9c-9a4b-c952397c9da2"},"vehicle_type_id":"4","last_reported":1753204381,"current_range_meters":18800,"station_id":"ce4bhbh2rcd13ifvqepg","pricing_plan_id":"cebpf4jnsgd1na2vs0mg"},{"bike_id":"7b07ab64-efe8-46c0-b369-c423ad55555d","system_id":"levelo_inurba_marseille","lat":43.21753,"lon":5.34593,"is_reserved":false,"is_disabled":false,"rental_uris":{"android":"levelo://app?vid=7b07ab64-efe8-46c0-b369-c423ad55555d","ios":"levelo://app?vid=7b07ab64-efe8-46c0-b369-c423ad55555d"},"vehicle_type_id":"4","last_reported":1753204381,"current_range_meters":18800,"station_id":"st_cvj6r9ubvosntc0bgbag","pricing_plan_id":"cebpf4jnsgd1na2vs0mg"},{"bike_id":"b8bfa5de-b4d6-4d38-8e40-510ea441fe00","system_id":"levelo_inurba_marseille","lat":43.28415,"lon":5.34986,"is_reserved":false,"is_disabled":false,"rental_uris":{"android":"levelo://app?vid=b8bfa5de-b4d6-4d38-8e40-510ea441fe00","ios":"levelo://app?vid=b8bfa5de-b4d6-4d38-8e40-510ea441fe00"},"vehicle_type_id":"4","last_reported":1753204381,"current_range_meters":18800,"station_id":"ce4bhbh2rcd13ifvqepg","pricing_plan_id":"cebpf4jnsgd1na2vs0mg"},{"bike_id":"9bb5d30e-7a3b-416b-8265-fcc7d15a3375","system_id":"levelo_inurba_marseille","lat":43.284188,"lon":5.349903,"is_reserved":false,"is_disabled":false,"rental_uris":{"android":"levelo://app?vid=9bb5d30e-7a3b-416b-8265-fcc7d15a3375","ios":"levelo://app?vid=9bb5d30e-7a3b-416b-8265-fcc7d15a3375"},"vehicle_type_id":"4","last_reported":1753204381,"current_range_meters":18800,"station_id":"ce4bhbh2rcd13ifvqepg","pricing_plan_id":"cebpf4jnsgd1na2vs0mg"},{"bike_id":"4355f60b-bb67-4c5e-a729-7d6782d7e997","system_id":"levelo_inurba_marseille","lat":43.279522,"lon":5.41049,"is_reserved":false,"is_disabled":false,"rental_uris":{"android":"levelo://app?vid=4355f60b-bb67-4c5e-a729-7d6782d7e997","ios":"levelo://app?vid=4355f60b-bb67-4c5e-a729-7d6782d7e997"},"vehicle_type_id":"4","last_reported":1753204381,"current_range_meters":18800,"station_id":"ce4bhnp2rcd13ifvqh0g","pricing_plan_id":"cebpf4jnsgd1na2vs0mg"},{"bike_id":"c307ef88-6a75-4945-a67a-8eab9ab17a86","system_id":"levelo_inurba_marseille","lat":43.28947,"lon":5.36404,"is_reserved":false,"is_disabled":false,"rental_uris":{"android":"levelo://app?vid=c307ef88-6a75-4945-a67a-8eab9ab17a86","ios":"levelo://app?vid=c307ef88-6a75-4945-a67a-8eab9ab17a86"},"vehicle_type_id":"4","last_reported":1753204381,"current_range_meters":18800,"station_id":"ce4bhc92rcd13ifvqetg","pricing_plan_id":"cebpf4jnsgd1na2vs0mg"},{"bike_id":"41cf4653-a38b-4b0f-b0c4-f43fc27974c2","system_id":"levelo_inurba_marseille","lat":43.29007,"lon":5.35615,"is_reserved":false,"is_disabled":false,"rental_uris":{"android":"levelo://app?vid=41cf4653-a38b-4b0f-b0c4-f43fc27974c2","ios":"levelo://app?vid=41cf4653-a38b-4b0f-b0c4-f43fc27974c2"},"vehicle_type_id":"4","last_reported":1753204381,"current_range_meters":18800,"station_id":"ce4bhb92rcd13ifvqen0","pricing_plan_id":"cebpf4jnsgd1na2vs0mg"},{"bike_id":"719ed48b-83b0-4bd7-ba7e-f2b2ad99d40d","system_id":"levelo_inurba_marseille","lat":43.31243,"lon":5.37306,"is_reserved":false,"is_disabled":false,"rental_uris":{"android":"levelo://app?vid=719ed48b-83b0-4bd7-ba7e-f2b2ad99d40d","ios":"levelo://app?vid=719ed48b-83b0-4bd7-ba7e-f2b2ad99d40d"},"vehicle_type_id":"4","last_reported":1753204381,"current_range_meters":19200,"station_id":"","pricing_plan_id":"cebpf4jnsgd1na2vs0mg"},{"bike_id":"9ca5274d-bfca-4c67-a546-b3fe82a97520","system_id":"levelo_inurba_marseille","lat":43.30134,"lon":5.39848,"is_reserved":false,"is_disabled":false,"rental_uris":{"android":"levelo://app?vid=9ca5274d-bfca-4c67-a546-b3fe82a97520","ios":"levelo://app?vid=9ca5274d-bfca-4c67-a546-b3fe82a97520"},"vehicle_type_id":"4","last_reported":1753204381,"current_range_meters":19200,"station_id":"ce4bh0h2rcd13ifvqd40","pricing_plan_id":"cebpf4jnsgd1na2vs0mg"},{"bike_id":"869b3531-b500-41ef-9b48-7d699d16ba5f","system_id":"levelo_inurba_marseille","lat":43.24391,"lon":5.37055,"is_reserved":false,"is_disabled":false,"rental_uris":{"android":"levelo://app?vid=869b3531-b500-41ef-9b48-7d699d16ba5f","ios":"levelo://app?vid=869b3531-b500-41ef-9b48-7d699d16ba5f"},"vehicle_type_id":"4","last_reported":1753204381,"current_range_meters":19200,"station_id":"ce4bhhh2rcd13ifvqfk0","pricing_plan_id":"cebpf4jnsgd1na2vs0mg"},{"bike_id":"e99cac00-da55-4ff9-952e-0398936bf222","system_id":"levelo_inurba_marseille","lat":43.2923,"lon":5.36072,"is_reserved":false,"is_disabled":false,"rental_uris":{"android":"levelo://app?vid=e99cac00-da55-4ff9-952e-0398936bf222","ios":"levelo://app?vid=e99cac00-da55-4ff9-952e-0398936bf222"},"vehicle_type_id":"4","last_reported":1753204381,"current_range_meters":19200,"station_id":"ce4bhbh2rcd13ifvqeqg","pricing_plan_id":"cebpf4jnsgd1na2vs0mg"},{"bike_id":"87efb87e-9c1b-48bc-9816-65bf93d44e2c","system_id":"levelo_inurba_marseille","lat":43.276176,"lon":5.361005,"is_reserved":false,"is_disabled":false,"rental_uris":{"android":"levelo://app?vid=87efb87e-9c1b-48bc-9816-65bf93d44e2c","ios":"levelo://app?vid=87efb87e-9c1b-48bc-9816-65bf93d44e2c"},"vehicle_type_id":"4","last_reported":1753204381,"current_range_meters":19200,"station_id":"","pricing_plan_id":"cebpf4jnsgd1na2vs0mg"},{"bike_id":"6e609a8e-a24c-4763-a552-bc09931144e6","system_id":"levelo_inurba_marseille","lat":43.2862,"lon":5.35099,"is_reserved":false,"is_disabled":false,"rental_uris":{"android":"levelo://app?vid=6e609a8e-a24c-4763-a552-bc09931144e6","ios":"levelo://app?vid=6e609a8e-a24c-4763-a552-bc09931144e6"},"vehicle_type_id":"4","last_reported":1753204381,"current_range_meters":19200,"station_id":"ce4bhch2rcd13ifvqeug","pricing_plan_id":"cebpf4jnsgd1na2vs0mg"},{"bike_id":"957634bc-79de-4b4c-b452-d0169c4affe9","system_id":"levelo_inurba_marseille","lat":43.3236,"lon":5.36742,"is_reserved":false,"is_disabled":false,"rental_uris":{"android":"levelo://app?vid=957634bc-79de-4b4c-b452-d0169c4affe9","ios":"levelo://app?vid=957634bc-79de-4b4c-b452-d0169c4affe9"},"vehicle_type_id":"4","last_reported":1753204381,"current_range_meters":19200,"station_id":"ce4bhsh2rcd13ifvqi2g","pricing_plan_id":"cebpf4jnsgd1na2vs0mg"},{"bike_id":"3a605f2b-d7b7-44ba-926c-997a297911d2","system_id":"levelo_inurba_marseille","lat":43.28264,"lon":5.35059,"is_reserved":false,"is_disabled":false,"rental_uris":{"android":"levelo://app?vid=3a605f2b-d7b7-44ba-926c-997a297911d2","ios":"levelo://app?vid=3a605f2b-d7b7-44ba-926c-997a297911d2"},"vehicle_type_id":"4","last_reported":1753204381,"current_range_meters":19200,"station_id":"ce4bhbp2rcd13ifvqerg","pricing_plan_id":"cebpf4jnsgd1na2vs0mg"},{"bike_id":"06101cf9-8ecc-4c54-9850-330545d2ec08","system_id":"levelo_inurba_marseille","lat":43.30796,"lon":5.379577,"is_reserved":false,"is_disabled":false,"rental_uris":{"android":"levelo://app?vid=06101cf9-8ecc-4c54-9850-330545d2ec08","ios":"levelo://app?vid=06101cf9-8ecc-4c54-9850-330545d2ec08"},"vehicle_type_id":"4","last_reported":1753204381,"current_range_meters":19200,"station_id":"","pricing_plan_id":"cebpf4jnsgd1na2vs0mg"},{"bike_id":"0a7e2862-d8ec-4c77-89d9-cfcdd51f8d75","system_id":"levelo_inurba_marseille","lat":43.31776,"lon":5.36842,"is_reserved":false,"is_disabled":false,"rental_uris":{"android":"levelo://app?vid=0a7e2862-d8ec-4c77-89d9-cfcdd51f8d75","ios":"levelo://app?vid=0a7e2862-d8ec-4c77-89d9-cfcdd51f8d75"},"vehicle_type_id":"4","last_reported":1753204381,"current_range_meters":19200,"station_id":"","pricing_plan_id":"cebpf4jnsgd1na2vs0mg"},{"bike_id":"c850df63-8d8b-490d-a711-4a05d01b3fff","system_id":"levelo_inurba_marseille","lat":43.28423,"lon":5.34984,"is_reserved":false,"is_disabled":false,"rental_uris":{"android":"levelo://app?vid=c850df63-8d8b-490d-a711-4a05d01b3fff","ios":"levelo://app?vid=c850df63-8d8b-490d-a711-4a05d01b3fff"},"vehicle_type_id":"4","last_reported":1753204381,"current_range_meters":19200,"station_id":"ce4bhbh2rcd13ifvqepg","pricing_plan_id":"cebpf4jnsgd1na2vs0mg"},{"bike_id":"a87c3911-25ce-4ab2-ac79-331156bb2361","system_id":"levelo_inurba_marseille","lat":43.29527,"lon":5.39031,"is_reserved":false,"is_disabled":false,"rental_uris":{"android":"levelo://app?vid=a87c3911-25ce-4ab2-ac79-331156bb2361","ios":"levelo://app?vid=a87c3911-25ce-4ab2-ac79-331156bb2361"},"vehicle_type_id":"4","last_reported":1753204381,"current_range_meters":18800,"station_id":"ce4bh3p2rcd13ifvqdp0","pricing_plan_id":"cebpf4jnsgd1na2vs0mg"},{"bike_id":"bfa5cd92-f491-45a0-95fe-6103d1bc2ff3","system_id":"levelo_inurba_marseille","lat":43.28436,"lon":5.34991,"is_reserved":false,"is_disabled":false,"rental_uris":{"android":"levelo://app?vid=bfa5cd92-f491-45a0-95fe-6103d1bc2ff3","ios":"levelo://app?vid=bfa5cd92-f491-45a0-95fe-6103d1bc2ff3"},"vehicle_type_id":"4","last_reported":1753204381,"current_range_meters":19600,"station_id":"ce4bhbh2rcd13ifvqepg","pricing_plan_id":"cebpf4jnsgd1na2vs0mg"},{"bike_id":"4b7b5be6-0a5b-41a1-8516-a13df95ad868","system_id":"levelo_inurba_marseille","lat":43.33795,"lon":5.37439,"is_reserved":false,"is_disabled":false,"rental_uris":{"android":"levelo://app?vid=4b7b5be6-0a5b-41a1-8516-a13df95ad868","ios":"levelo://app?vid=4b7b5be6-0a5b-41a1-8516-a13df95ad868"},"vehicle_type_id":"4","last_reported":1753204381,"current_range_meters":19600,"station_id":"","pricing_plan_id":"cebpf4jnsgd1na2vs0mg"},{"bike_id":"5e02988e-7d55-4766-a24e-5a79183357cb","system_id":"levelo_inurba_marseille","lat":43.21195,"lon":5.35049,"is_reserved":false,"is_disabled":false,"rental_uris":{"android":"levelo://app?vid=5e02988e-7d55-4766-a24e-5a79183357cb","ios":"levelo://app?vid=5e02988e-7d55-4766-a24e-5a79183357cb"},"vehicle_type_id":"4","last_reported":1753204381,"current_range_meters":19600,"station_id":"st_cvj6sg6p6f1abm77japg","pricing_plan_id":"cebpf4jnsgd1na2vs0mg"},{"bike_id":"338f297f-e64a-450a-8828-1f50f1c014f1","system_id":"levelo_inurba_marseille","lat":43.29526,"lon":5.38534,"is_reserved":false,"is_disabled":false,"rental_uris":{"android":"levelo://app?vid=338f297f-e64a-450a-8828-1f50f1c014f1","ios":"levelo://app?vid=338f297f-e64a-450a-8828-1f50f1c014f1"},"vehicle_type_id":"4","last_reported":1753204381,"current_range_meters":17600,"station_id":"ce4bgih2rcd13ifvqba0","pricing_plan_id":"cebpf4jnsgd1na2vs0mg"},{"bike_id":"b5ce8d93-17c0-45a5-b2b1-eefce45c2d79","system_id":"levelo_inurba_marseille","lat":43.31838,"lon":5.43503,"is_reserved":false,"is_disabled":false,"rental_uris":{"android":"levelo://app?vid=b5ce8d93-17c0-45a5-b2b1-eefce45c2d79","ios":"levelo://app?vid=b5ce8d93-17c0-45a5-b2b1-eefce45c2d79"},"vehicle_type_id":"4","last_reported":1753204381,"current_range_meters":19600,"station_id":"","pricing_plan_id":"cebpf4jnsgd1na2vs0mg"},{"bike_id":"944db278-b9c9-4038-9af7-6d92c0558395","system_id":"levelo_inurba_marseille","lat":43.2988,"lon":5.38898,"is_reserved":false,"is_disabled":false,"rental_uris":{"android":"levelo://app?vid=944db278-b9c9-4038-9af7-6d92c0558395","ios":"levelo://app?vid=944db278-b9c9-4038-9af7-6d92c0558395"},"vehicle_type_id":"4","last_reported":1753204381,"current_range_meters":19600,"station_id":"ce4bh392rcd13ifvqdl0","pricing_plan_id":"cebpf4jnsgd1na2vs0mg"},{"bike_id":"a0de01aa-cd68-4a4d-8bab-65fa167b8610","system_id":"levelo_inurba_marseille","lat":43.23196,"lon":5.35541,"is_reserved":false,"is_disabled":false,"rental_uris":{"android":"levelo://app?vid=a0de01aa-cd68-4a4d-8bab-65fa167b8610","ios":"levelo://app?vid=a0de01aa-cd68-4a4d-8bab-65fa167b8610"},"vehicle_type_id":"4","last_reported":1753204381,"current_range_meters":19600,"station_id":"ce4bhu92rcd13ifvqi70","pricing_plan_id":"cebpf4jnsgd1na2vs0mg"},{"bike_id":"6b27aecd-c34d-461b-a7f1-2cdb97d2395c","system_id":"levelo_inurba_marseille","lat":43.28709,"lon":5.37932,"is_reserved":false,"is_disabled":false,"rental_uris":{"android":"levelo://app?vid=6b27aecd-c34d-461b-a7f1-2cdb97d2395c","ios":"levelo://app?vid=6b27aecd-c34d-461b-a7f1-2cdb97d2395c"},