{"last_updated":1753273375,"ttl":60,"version":"2.2","data":{"bikes":[{"bike_id":"1540ea18-87ba-44ba-ac2b-efd225f41ef4","system_id":"levelo_inurba_marseille","lat":43.285444,"lon":5.352578,"is_reserved":false,"is_disabled":false,"rental_uris":{"android":"levelo://app?vid=1540ea18-87ba-44ba-ac2b-efd225f41ef4","ios":"levelo://app?vid=1540ea18-87ba-44ba-ac2b-efd225f41ef4"},"vehicle_type_id":"4","last_reported":1753273375,"current_range_meters":2800,"station_id":"ce4bhch2rcd13ifvqeug","pricing_plan_id":"cebpf4jnsgd1na2vs0mg"},{"bike_id":"374764e9-1483-4c39-a939-2017d46b717a","system_id":"levelo_inurba_marseille","lat":43.28034,"lon":5.35022,"is_reserved":false,"is_disabled":false,"rental_uris":{"android":"levelo://app?vid=374764e9-1483-4c39-a939-2017d46b717a","ios":"levelo://app?vid=374764e9-1483-4c39-a939-2017d46b717a"},"vehicle_type_id":"4","last_reported":1753273375,"current_range_meters":2800,"station_id":"","pricing_plan_id":"cebpf4jnsgd1na2vs0mg"},{"bike_id":"a35e0d3b-7b45-4544-b22a-dfb6ea3016e8","system_id":"levelo_inurba_marseille","lat":43.29489,"lon":5.38187,"is_reserved":false,"is_disabled":false,"rental_uris":{"android":"levelo://app?vid=a35e0d3b-7b45-4544-b22a-dfb6ea3016e8","ios":"levelo://app?vid=a35e0d3b-7b45-4544-b22a-dfb6ea3016e8"},"vehicle_type_id":"4","last_reported":1753273375,"current_range_meters":3200,"station_id":"","pricing_plan_id":"cebpf4jnsgd1na2vs0mg"},{"bike_id":"fc0e13bf-64b1-4a9f-b4e7-94cb093f1928","system_id":"levelo_inurba_marseille","lat":43.30457,"lon":5.37905,"is_reserved":false,"is_disabled":false,"rental_uris":{"android":"levelo://app?vid=fc0e13bf-64b1-4a9f-b4e7-94cb093f1928","ios":"levelo://app?vid=fc0e13bf-64b1-4a9f-b4e7-94cb093f1928"},"vehicle_type_id":"4","last_reported":1753273375,"current_range_meters":3200,"station_id":"ce4bgup2rcd13ifvqcn0","pricing_plan_id":"cebpf4jnsgd1na2vs0mg"},{"bike_id":"3a5ba3aa-ca8b-4238-9970-c8880d59a21a","system_id":"levelo_inurba_marseille","lat":43.29021,"lon":5.3756,"is_reserved":false,"is_disabled":true,"rental_uris":{"android":"levelo://app?vid=3a5ba3aa-ca8b-4238-9970-c8880d59a21a","ios":"levelo://app?vid=3a5ba3aa-ca8b-4238-9970-c8880d59a21a"},"vehicle_type_id":"4","last_reported":1753273375,"current_range_meters":3200,"station_id":"ce4bh692rcd13ifvqe90","pricing_plan_id":"cebpf4jnsgd1na2vs0mg"},{"bike_id":"3b1a1d09-82db-4b97-9825-1e5572da19c6","system_id":"levelo_inurba_marseille","lat":43.28423,"lon":5.34989,"is_reserved":false,"is_disabled":false,"rental_uris":{"android":"levelo://app?vid=3b1a1d09-82db-4b97-9825-1e5572da19c6","ios":"levelo://app?vid=3b1a1d09-82db-4b97-9825-1e5572da19c6"},"vehicle_type_id":"4","last_reported":1753273375,"current_range_meters":3200,"station_id":"ce4bhbh2rcd13ifvqepg","pricing_plan_id":"cebpf4jnsgd1na2vs0mg"},{"bike_id":"30b57aa5-a5ee-469e-a08f-be7d40307493","system_id":"levelo_inurba_marseille","lat":43.30524,"lon":5.36725,"is_reserved":false,"is_disabled":false,"rental_uris":{"android":"levelo://app?vid=30b57aa5-a5ee-469e-a08f-be7d40307493","ios":"levelo://app?vid=30b57aa5-a5ee-469e-a08f-be7d40307493"},"vehicle_type_id":"4","last_reported":1753273375,"current_range_meters":3200,"station_id":"ce4bgrp2rcd13ifvqc9g","pricing_plan_id":"cebpf4jnsgd1na2vs0mg"},{"bike_id":"42413a25-16d1-4419-b44a-45580e0c6ac6","system_id":"levelo_inurba_marseille","lat":43.33781,"lon":5.37477,"is_reserved":false,"is_disabled":false,"rental_uris":{"android":"levelo://app?vid=42413a25-16d1-4419-b44a-45580e0c6ac6","ios":"levelo://app?vid=42413a25-16d1-4419-b44a-45580e0c6ac6"},"vehicle_type_id":"4","last_reported":1753273375,"current_range_meters":3600,"station_id":"","pricing_plan_id":"cebpf4jnsgd1na2vs0mg"},{"bike_id":"2ad9d163-9da4-42d8-bf6e-567f9b73cfad","system_id":"levelo_inurba_marseille","lat":43.3238,"lon":5.36791,"is_reserved":false,"is_disabled":false,"rental_uris":{"android":"levelo://app?vid=2ad9d163-9da4-42d8-bf6e-567f9b73cfad","ios":"levelo://app?vid=2ad9d163-9da4-42d8-bf6e-567f9b73cfad"},"vehicle_type_id":"4","last_reported":1753273375,"current_range_meters":4400,"station_id":"ce4bhsh2rcd13ifvqi2g","pricing_plan_id":"cebpf4jnsgd1na2vs0mg"},{"bike_id":"553267f0-6743-4a0b-827b-c5ab2bb024e8","system_id":"levelo_inurba_marseille","lat":43.29093,"lon":5.38146,"is_reserved":false,"is_disabled":false,"rental_uris":{"android":"levelo://app?vid=553267f0-6743-4a0b-827b-c5ab2bb024e8","ios":"levelo://app?vid=553267f0-6743-4a0b-827b-c5ab2bb024e8"},"vehicle_type_id":"4","last_reported":1753273375,"current_range_meters":4000,"station_id":"ce4bh512rcd13ifvqe2g","pricing_plan_id":"cebpf4jnsgd1na2vs0mg"},{"bike_id":"7e3d1e5a-97c3-4829-9835-37e354419ee7","system_id":"levelo_inurba_marseille","lat":43.304818,"lon":5.379094,"is_reserved":false,"is_disabled":false,"rental_uris":{"android":"levelo://app?vid=7e3d1e5a-97c3-4829-9835-37e354419ee7","ios":"levelo://app?vid=7e3d1e5a-97c3-4829-9835-37e354419ee7"},"vehicle_type_id":"4","last_reported":1753273375,"current_range_meters":4400,"station_id":"ce4bgup2rcd13ifvqcn0","pricing_plan_id":"cebpf4jnsgd1na2vs0mg"},{"bike_id":"667c77f3-920c-433b-a398-2e4858203c9a","system_id":"levelo_inurba_marseille","lat":43.231812,"lon":5.399861,"is_reserved":false,"is_disabled":false,"rental_uris":{"android":"levelo://app?vid=667c77f3-920c-433b-a398-2e4858203c9a","ios":"levelo://app?vid=667c77f3-920c-433b-a398-2e4858203c9a"},"vehicle_type_id":"4","last_reported":1753273375,"current_range_meters":4400,"station_id":"ce4bhn12rcd13ifvqgqg","pricing_plan_id":"cebpf4jnsgd1na2vs0mg"},{"bike_id":"7a10bb17-bba6-4099-a515-71b68b3217b5","system_id":"levelo_inurba_marseille","lat":43.23969,"lon":5.36627,"is_reserved":false,"is_disabled":false,"rental_uris":{"android":"levelo://app?vid=7a10bb17-bba6-4099-a515-71b68b3217b5","ios":"levelo://app?vid=7a10bb17-bba6-4099-a515-71b68b3217b5"},"vehicle_type_id":"4","last_reported":1753273375,"current_range_meters":4400,"station_id":"ce4bhi12rcd13ifvqfp0","pricing_plan_id":"cebpf4jnsgd1na2vs0mg"},{"bike_id":"b1a9da3f-07cf-4437-acbe-5597cfe17b8e","system_id":"levelo_inurba_marseille","lat":43.2417,"lon":5.36398,"is_reserved":false,"is_disabled":false,"rental_uris":{"android":"levelo://app?vid=b1a9da3f-07cf-4437-acbe-5597cfe17b8e","ios":"levelo://app?vid=b1a9da3f-07cf-4437-acbe-5597cfe17b8e"},"vehicle_type_id":"4","last_reported":1753273375,"current_range_meters":4800,"station_id":"cpo36qri1sfpv3e86is0","pricing_plan_id":"cebpf4jnsgd1na2vs0mg"},{"bike_id":"aa2693ad-50b7-44d5-859e-9616c3cf8595","system_id":"levelo_inurba_marseille","lat":43.24804,"lon":5.37461,"is_reserved":false,"is_disabled":false,"rental_uris":{"android":"levelo://app?vid=aa2693ad-50b7-44d5-859e-9616c3cf8595","ios":"levelo://app?vid=aa2693ad-50b7-44d5-859e-9616c3cf8595"},"vehicle_type_id":"4","last_reported":1753273375,"current_range_meters":4800,"station_id":"ce4bhgh2rcd13ifvqfb0","pricing_plan_id":"cebpf4jnsgd1na2vs0mg"},{"bike_id":"f2acc98d-b325-4f3c-8489-1c71c7f3125d","system_id":"levelo_inurba_marseille","lat":43.30924,"lon":5.40145,"is_reserved":false,"is_disabled":false,"rental_uris":{"android":"levelo://app?vid=f2acc98d-b325-4f3c-8489-1c71c7f3125d","ios":"levelo://app?vid=f2acc98d-b325-4f3c-8489-1c71c7f3125d"},"vehicle_type_id":"4","last_reported":1753273375,"current_range_meters":5600,"station_id":"ce4bgvp2rcd13ifvqct0","pricing_plan_id":"cebpf4jnsgd1na2vs0mg"},{"bike_id":"8c99eec0-1d3f-4713-b6a1-e3c79df4f70b","system_id":"levelo_inurba_marseille","lat":43.260286,"lon":5.375507,"is_reserved":false,"is_disabled":false,"rental_uris":{"android":"levelo://app?vid=8c99eec0-1d3f-4713-b6a1-e3c79df4f70b","ios":"levelo://app?vid=8c99eec0-1d3f-4713-b6a1-e3c79df4f70b"},"vehicle_type_id":"4","last_reported":1753273375,"current_range_meters":5600,"station_id":"ce4bhgh2rcd13ifvqfa0","pricing_plan_id":"cebpf4jnsgd1na2vs0mg"},{"bike_id":"5d560047-d125-49d9-b4c1-3fb19edb8935","system_id":"levelo_inurba_marseille","lat":43.3089,"lon":5.39661,"is_reserved":false,"is_disabled":false,"rental_uris":{"android":"levelo://app?vid=5d560047-d125-49d9-b4c1-3fb19edb8935","ios":"levelo://app?vid=5d560047-d125-49d9-b4c1-3fb19edb8935"},"vehicle_type_id":"4","last_reported":1753273375,"current_range_meters":5600,"station_id":"ce4bh012rcd13ifvqcv0","pricing_plan_id":"cebpf4jnsgd1na2vs0mg"},{"bike_id":"c2621bc1-3287-4ee9-a55f-c85cfe14ba27","system_id":"levelo_inurba_marseille","lat":43.31238,"lon":5.36904,"is_reserved":false,"is_disabled":false,"rental_uris":{"android":"levelo://app?vid=c2621bc1-3287-4ee9-a55f-c85cfe14ba27","ios":"levelo://app?vid=c2621bc1-3287-4ee9-a55f-c85cfe14ba27"},"vehicle_type_id":"4","last_reported":1753273375,"current_range_meters":5600,"station_id":"ce4bgl92rcd13ifvqbq0","pricing_plan_id":"cebpf4jnsgd1na2vs0mg"},{"bike_id":"542d4317-727c-4e9c-ad13-a543ab3e005f","system_id":"levelo_inurba_marseille","lat":43.24548,"lon":5.39523,"is_reserved":false,"is_disabled":false,"rental_uris":{"android":"levelo://app?vid=542d4317-727c-4e9c-ad13-a543ab3e005f","ios":"levelo://app?vid=542d4317-727c-4e9c-ad13-a543ab3e005f"},"vehicle_type_id":"4","last_reported":1753273375,"current_range_meters":5600,"station_id":"ce4bhlp2rcd13ifvqgjg","pricing_plan_id":"cebpf4jnsgd1na2vs0mg"},{"bike_id":"eb925913-b47c-4f88-97c5-958f9a42aa64","system_id":"levelo_inurba_marseille","lat":43.28933,"lon":5.38411,"is_reserved":false,"is_disabled":false,"rental_uris":{"android":"levelo://app?vid=eb925913-b47c-4f88-97c5-958f9a42aa64","ios":"levelo://app?vid=eb925913-b47c-4f88-97c5-958f9a42aa64"},"vehicle_type_id":"4","last_reported":1753273375,"current_range_meters":5600,"station_id":"ce4bh612rcd13ifvqe6g","pricing_plan_id":"cebpf4jnsgd1na2vs0mg"},{"bike_id":"fa17b7f3-e336-4692-92db-93806c3b5ec5","system_id":"levelo_inurba_marseille","lat":43.28615,"lon":5.35113,"is_reserved":false,"is_disabled":false,"rental_uris":{"android":"levelo://app?vid=fa17b7f3-e336-4692-92db-93806c3b5ec5","ios":"levelo://app?vid=fa17b7f3-e336-4692-92db-93806c3b5ec5"},"vehicle_type_id":"4","last_reported":1753273375,"current_range_meters":6000,"station_id":"ce4bhch2rcd13ifvqeug","pricing_plan_id":"cebpf4jnsgd1na2vs0mg"},{"bike_id":"7bac8b4c-f6fa-45cd-aa95-ca4f8e027f3d","system_id":"levelo_inurba_marseille","lat":43.311521,"lon":5.367448,"is_reserved":false,"is_disabled":false,"rental_uris":{"android":"levelo://app?vid=7bac8b4c-f6fa-45cd-aa95-ca4f8e027f3d","ios":"levelo://app?vid=7bac8b4c-f6fa-45cd-aa95-ca4f8e027f3d"},"vehicle_type_id":"4","last_reported":1753273375,"current_range_meters":6000,"station_id":"","pricing_plan_id":"cebpf4jnsgd1na2vs0mg"},{"bike_id":"51102329-c7ca-45fd-8362-598a7c7fd5fd","system_id":"levelo_inurba_marseille","lat":43.31354,"lon":5.36715,"is_reserved":false,"is_disabled":false,"rental_uris":{"android":"levelo://app?vid=51102329-c7ca-45fd-8362-598a7c7fd5fd","ios":"levelo://app?vid=51102329-c7ca-45fd-8362-598a7c7fd5fd"},"vehicle_type_id":"4","last_reported":1753273375,"current_range_meters":6400,"station_id":"ce4bgr92rcd13ifvqc6g","pricing_plan_id":"cebpf4jnsgd1na2vs0mg"},{"bike_id":"384e556a-ec7a-41a3-904c-d85f6659f5ad","system_id":"levelo_inurba_marseille","lat":43.27082,"lon":5.42268,"is_reserved":false,"is_disabled":false,"rental_uris":{"android":"levelo://app?vid=384e556a-ec7a-41a3-904c-d85f6659f5ad","ios":"levelo://app?vid=384e556a-ec7a-41a3-904c-d85f6659f5ad"},"vehicle_type_id":"4","last_reported":1753273375,"current_range_meters":6800,"station_id":"ce4bhk92rcd13ifvqgb0","pricing_plan_id":"cebpf4jnsgd1na2vs0mg"},{"bike_id":"f3ad7f3f-05ef-4976-a8bd-7743271afd02","system_id":"levelo_inurba_marseille","lat":43.23135,"lon":5.43715,"is_reserved":false,"is_disabled":false,"rental_uris":{"android":"levelo://app?vid=f3ad7f3f-05ef-4976-a8bd-7743271afd02","ios":"levelo://app?vid=f3ad7f3f-05ef-4976-a8bd-7743271afd02"},"vehicle_type_id":"4","last_reported":1753273375,"current_range_meters":7200,"station_id":"ce4bhmp2rcd13ifvqgog","pricing_plan_id":"cebpf4jnsgd1na2vs0mg"},{"bike_id":"f9786a5d-366e-49c2-a29b-76a6bac39194","system_id":"levelo_inurba_marseille","lat":43.2961,"lon":5.37718,"is_reserved":false,"is_disabled":false,"rental_uris":{"android":"levelo://app?vid=f9786a5d-366e-49c2-a29b-76a6bac39194","ios":"levelo://app?vid=f9786a5d-366e-49c2-a29b-76a6bac39194"},"vehicle_type_id":"4","last_reported":1753273375,"current_range_meters":7200,"station_id":"ce4bgi92rcd13ifvqb90","pricing_plan_id":"cebpf4jnsgd1na2vs0mg"},{"bike_id":"83766871-d64f-4fc8-9d3b-2ceaf03b1036","system_id":"levelo_inurba_marseille","lat":43.21187,"lon":5.35068,"is_reserved":false,"is_disabled":false,"rental_uris":{"android":"levelo://app?vid=83766871-d64f-4fc8-9d3b-2ceaf03b1036","ios":"levelo://app?vid=83766871-d64f-4fc8-9d3b-2ceaf03b1036"},"vehicle_type_id":"4","last_reported":1753273375,"current_range_meters":7200,"station_id":"st_cvj6sg6p6f1abm77japg","pricing_plan_id":"cebpf4jnsgd1na2vs0mg"},{"bike_id":"d2ff3419-877b-4aa8-8d80-f8fc1d93c5d9","system_id":"levelo_inurba_marseille","lat":43.24389,"lon":5.37061,"is_reserved":false,"is_disabled":false,"rental_uris":{"android":"levelo://app?vid=d2ff3419-877b-4aa8-8d80-f8fc1d93c5d9","ios":"levelo://app?vid=d2ff3419-877b-4aa8-8d80-f8fc1d93c5d9"},"vehicle_type_id":"4","last_reported":1753273375,"current_range_meters":8000,"station_id":"ce4bhhh2rcd13ifvqfk0","pricing_plan_id":"cebpf4jnsgd1na2vs0mg"},{"bike_id":"569f2387-8b66-418a-a691-3b16b4ff4f96","system_id":"levelo_inurba_marseille","lat":43.324859,"lon":5.365702,"is_reserved":false,"is_disabled":false,"rental_uris":{"android":"levelo://app?vid=569f2387-8b66-418a-a691-3b16b4ff4f96","ios":"levelo://app?vid=569f2387-8b66-418a-a691-3b16b4ff4f96"},"vehicle_type_id":"4","last_reported":1753273375,"current_range_meters":8000,"station_id":"ce4bhs12rcd13ifvqhvg","pricing_plan_id":"cebpf4jnsgd1na2vs0mg"},{"bike_id":"8294a7c3-7da9-4d73-a635-de1194ef9b63","system_id":"levelo_inurba_marseille","lat":43.28981,"lon":5.37831,"is_reserved":false,"is_disabled":false,"rental_uris":{"android":"levelo://app?vid=8294a7c3-7da9-4d73-a635-de1194ef9b63","ios":"levelo://app?vid=8294a7c3-7da9-4d73-a635-de1194ef9b63"},"vehicle_type_id":"4","last_reported":1753273375,"current_range_meters":8400,"station_id":"ce4bh9p2rcd13ifvqed0","pricing_plan_id":"cebpf4jnsgd1na2vs0mg"},{"bike_id":"438a59a3-4400-4f75-b20d-0ea2d9cf17e4","system_id":"levelo_inurba_marseille","lat":43.23183,"lon":5.39987,"is_reserved":false,"is_disabled":false,"rental_uris":{"android":"levelo://app?vid=438a59a3-4400-4f75-b20d-0ea2d9cf17e4","ios":"levelo://app?vid=438a59a3-4400-4f75-b20d-0ea2d9cf17e4"},"vehicle_type_id":"4","last_reported":1753273375,"current_range_meters":8400,"station_id":"ce4bhn12rcd13ifvqgqg","pricing_plan_id":"cebpf4jnsgd1na2vs0mg"},{"bike_id":"736a259d-42e5-458a-b188-81d9dc5fa867","system_id":"levelo_inurba_marseille","lat":43.31364,"lon":5.36696,"is_reserved":false,"is_disabled":false,"rental_uris":{"android":"levelo://app?vid=736a259d-42e5-458a-b188-81d9dc5fa867","ios":"levelo://app?vid=736a259d-42e5-458a-b188-81d9dc5fa867"},"vehicle_type_id":"4","last_reported":1753273375,"current_range_meters":8800,"station_id":"ce4bgr92rcd13ifvqc6g","pricing_plan_id":"cebpf4jnsgd1na2vs0mg"},{"bike_id":"9ae7d50c-a3ea-4136-8080-315c191e000a","system_id":"levelo_inurba_marseille","lat":43.28764,"lon":5.38431,"is_reserved":false,"is_disabled":false,"rental_uris":{"android":"levelo://app?vid=9ae7d50c-a3ea-4136-8080-315c191e000a","ios":"levelo://app?vid=9ae7d50c-a3ea-4136-8080-315c191e000a"},"vehicle_type_id":"4","last_reported":1753273375,"current_range_meters":8800,"station_id":"","pricing_plan_id":"cebpf4jnsgd1na2vs0mg"},{"bike_id":"5eed9fa5-5444-4e01-9ca6-2f35add3d73a","system_id":"levelo_inurba_marseille","lat":43.30796,"lon":5.38149,"is_reserved":false,"is_disabled":true,"rental_uris":{"android":"levelo://app?vid=5eed9fa5-5444-4e01-9ca6-2f35add3d73a","ios":"levelo://app?vid=5eed9fa5-5444-4e01-9ca6-2f35add3d73a"},"vehicle_type_id":"4","last_reported":1753273375,"current_range_meters":8800,"station_id":"ce4bgt12rcd13ifvqce0","pricing_plan_id":"cebpf4jnsgd1na2vs0mg"},{"bike_id":"81f48beb-cba8-4a10-929a-d7834448108c","system_id":"levelo_inurba_marseille","lat":43.33255,"lon":5.39912,"is_reserved":false,"is_disabled":false,"rental_uris":{"android":"levelo://app?vid=81f48beb-cba8-4a10-929a-d7834448108c","ios":"levelo://app?vid=81f48beb-cba8-4a10-929a-d7834448108c"},"vehicle_type_id":"4","last_reported":1753273375,"current_range_meters":8800,"station_id":"","pricing_plan_id":"cebpf4jnsgd1na2vs0mg"},{"bike_id":"1ece60b3-8a74-40fc-aa2c-6c2943f9cb80","system_id":"levelo_inurba_marseille","lat":43.28679,"lon":5.38657,"is_reserved":false,"is_disabled":false,"rental_uris":{"android":"levelo://app?vid=1ece60b3-8a74-40fc-aa2c-6c2943f9cb80","ios":"levelo://app?vid=1ece60b3-8a74-40fc-aa2c-6c2943f9cb80"},"vehicle_type_id":"4","last_reported":1753273375,"current_range_meters":8400,"station_id":"ce4bh492rcd13ifvqdug","pricing_plan_id":"cebpf4jnsgd1na2vs0mg"},{"bike_id":"4c1b9807-2afb-4f35-99fe-7ed84e409880","system_id":"levelo_inurba_marseille","lat":43.29621,"lon":5.3716,"is_reserved":false,"is_disabled":false,"rental_uris":{"android":"levelo://app?vid=4c1b9807-2afb-4f35-99fe-7ed84e409880","ios":"levelo://app?vid=4c1b9807-2afb-4f35-99fe-7ed84e409880"},"vehicle_type_id":"4","last_reported":1753273375,"current_range_meters":9200,"station_id":"ce4bgnh2rcd13ifvqc0g","pricing_plan_id":"cebpf4jnsgd1na2vs0mg"},{"bike_id":"e4761578-ae86-4dfa-b146-0428e5d8cca7","system_id":"levelo_inurba_marseille","lat":43.2417,"lon":5.36417,"is_reserved":false,"is_disabled":false,"rental_uris":{"android":"levelo://app?vid=e4761578-ae86-4dfa-b146-0428e5d8cca7","ios":"levelo://app?vid=e4761578-ae86-4dfa-b146-0428e5d8cca7"},"vehicle_type_id":"4","last_reported":1753273375,"current_range_meters":9200,"station_id":"cpo36qri1sfpv3e86is0","pricing_plan_id":"cebpf4jnsgd1na2vs0mg"},{"bike_id":"abfaf3f8-e2ff-44e6-8b6f-974cac2f8eab","system_id":"levelo_inurba_marseille","lat":43.31161,"lon":5.38708,"is_reserved":false,"is_disabled":false,"rental_uris":{"android":"levelo://app?vid=abfaf3f8-e2ff-44e6-8b6f-974cac2f8eab","ios":"levelo://app?vid=abfaf3f8-e2ff-44e6-8b6f-974cac2f8eab"},"vehicle_type_id":"4","last_reported":1753273375,"current_range_meters":9200,"station_id":"ce4bgv12rcd13ifvqcp0","pricing_plan_id":"cebpf4jnsgd1na2vs0mg"},{"bike_id":"eff8da60-c449-4962-a08a-6ee167720c85","system_id":"levelo_inurba_marseille","lat":43.28943,"lon":5.36401,"is_reserved":false,"is_disabled":false,"rental_uris":{"android":"levelo://app?vid=eff8da60-c449-4962-a08a-6ee167720c85","ios":"levelo://app?vid=eff8da60-c449-4962-a08a-6ee167720c85"},"vehicle_type_id":"4","last_reported":1753273375,"current_range_meters":9200,"station_id":"ce4bhc92rcd13ifvqetg","pricing_plan_id":"cebpf4jnsgd1na2vs0mg"},{"bike_id":"81fa21cc-3224-4a78-9f18-a1605399914c","system_id":"levelo_inurba_marseille","lat":43.21751,"lon":5.345969,"is_reserved":false,"is_disabled":false,"rental_uris":{"android":"levelo://app?vid=81fa21cc-3224-4a78-9f18-a1605399914c","ios":"levelo://app?vid=81fa21cc-3224-4a78-9f18-a1605399914c"},"vehicle_type_id":"4","last_reported":1753273375,"current_range_meters":9200,"station_id":"st_cvj6r9ubvosntc0bgbag","pricing_plan_id":"cebpf4jnsgd1na2vs0mg"},{"bike_id":"f71d41d4-d51b-4f87-b9fc-aed463159a1a","system_id":"levelo_inurba_marseille","lat":43.28711,"lon":5.39996,"is_reserved":false,"is_disabled":false,"rental_uris":{"android":"levelo://app?vid=f71d41d4-d51b-4f87-b9fc-aed463159a1a","ios":"levelo://app?vid=f71d41d4-d51b-4f87-b9fc-aed463159a1a"},"vehicle_type_id":"4","last_reported":1753273375,"current_range_meters":9200,"station_id":"ce4bho92rcd13ifvqh3g","pricing_plan_id":"cebpf4jnsgd1na2vs0mg"},{"bike_id":"75c82608-f18f-4ab2-8f89-50c2346e4c72","system_id":"levelo_inurba_marseille","lat":43.299366,"lon":5.365571,"is_reserved":false,"is_disabled":false,"rental_uris":{"android":"levelo://app?vid=75c82608-f18f-4ab2-8f89-50c2346e4c72","ios":"levelo://app?vid=75c82608-f18f-4ab2-8f89-50c2346e4c72"},"vehicle_type_id":"4","last_reported":1753273375,"current_range_meters":9200,"station_id":"ce4bgm92rcd13ifvqbr0","pricing_plan_id":"cebpf4jnsgd1na2vs0mg"},{"bike_id":"fee709f1-3b48-416c-88ae-83e590e7f8e5","system_id":"levelo_inurba_marseille","lat":43.3095,"lon":5.40148,"is_reserved":false,"is_disabled":false,"rental_uris":{"android":"levelo://app?vid=fee709f1-3b48-416c-88ae-83e590e7f8e5","ios":"levelo://app?vid=fee709f1-3b48-416c-88ae-83e590e7f8e5"},"vehicle_type_id":"4","last_reported":1753273375,"current_range_meters":9200,"station_id":"ce4bgvp2rcd13ifvqct0","pricing_plan_id":"cebpf4jnsgd1na2vs0mg"},{"bike_id":"019096ad-b392-4cfc-8baa-7b244db37717","system_id":"levelo_inurba_marseille","lat":43.31325,"lon":5.39719,"is_reserved":false,"is_disabled":false,"rental_uris":{"android":"levelo://app?vid=019096ad-b392-4cfc-8baa-7b244db37717","ios":"levelo://app?vid=019096ad-b392-4cfc-8baa-7b244db37717"},"vehicle_type_id":"4","last_reported":1753273375,"current_range_meters":9200,"station_id":"ce4bgvp2rcd13ifvqcu0","pricing_plan_id":"cebpf4jnsgd1na2vs0mg"},{"bike_id":"01e463e7-4467-4a94-8c34-ab5b25eaa196","system_id":"levelo_inurba_marseille","lat":43.28398,"lon":5.37521,"is_reserved":false,"is_disabled":false,"rental_uris":{"android":"levelo://app?vid=01e463e7-4467-4a94-8c34-ab5b25eaa196","ios":"levelo://app?vid=01e463e7-4467-4a94-8c34-ab5b25eaa196"},"vehicle_type_id":"4","last_reported":1753273375,"current_range_meters":9200,"station_id":"ce4bh412rcd13ifvqds0","pricing_plan_id":"cebpf4jnsgd1na2vs0mg"},{"bike_id":"a5f1f0d6-c678-45f4-9b29-96eaa29a3e36","system_id":"levelo_inurba_marseille","lat":43.251347,"lon":5.373526,"is_reserved":false,"is_disabled":true,"rental_uris":{"android":"levelo://app?vid=a5f1f0d6-c678-45f4-9b29-96eaa29a3e36","ios":"levelo://app?vid=a5f1f0d6-c678-45f4-9b29-96eaa29a3e36"},"vehicle_type_id":"4","last_reported":1753273375,"current_range_meters":9200,"station_id":"","pricing_plan_id":"cebpf4jnsgd1na2vs0mg"},{"bike_id":"e12be942-9f98-4c5d-aa5f-3cb77675a623","system_id":"levelo_inurba_marseille","lat":43.28159,"lon":5.42641,"is_reserved":false,"is_disabled":false,"rental_uris":{"android":"levelo://app?vid=e12be942-9f98-4c5d-aa5f-3cb77675a623","ios":"levelo://app?vid=e12be942-9f98-4c5d-aa5f-3cb77675a623"},"vehicle_type_id":"4","last_reported":1753273375,"current_range_meters":9600,"station_id":"ce4bhnh2rcd13ifvqgug","pricing_plan_id":"cebpf4jnsgd1na2vs0mg"},{"bike_id":"8a8c67ff-0285-441e-afaf-3eac3565f663","system_id":"levelo_inurba_marseille","lat":43.32368,"lon":5.36762,"is_reserved":false,"is_disabled":false,"rental_uris":{"android":"levelo://app?vid=8a8c67ff-0285-441e-afaf-3eac3565f663","ios":"levelo://app?vid=8a8c67ff-0285-441e-afaf-3eac3565f663"},"vehicle_type_id":"4","last_reported":1753273375,"current_range_meters":9600,"station_id":"ce4bhsh2rcd13ifvqi2g","pricing_plan_id":"cebpf4jnsgd1na2vs0mg"},{"bike_id":"fd578c5d-040f-492f-8a52-c8feb88e9b39","system_id":"levelo_inurba_marseille","lat":43.30886,"lon":5.372,"is_reserved":false,"is_disabled":false,"rental_uris":{"android":"levelo://app?vid=fd578c5d-040f-492f-8a52-c8feb88e9b39","ios":"levelo://app?vid=fd578c5d-040f-492f-8a52-c8feb88e9b39"},"vehicle_type_id":"4","last_reported":1753273375,"current_range_meters":9600,"station_id":"ce4bguh2rcd13ifvqckg","pricing_plan_id":"cebpf4jnsgd1na2vs0mg"},{"bike_id":"3126bb31-1bf1-4cb5-bde4-f290b96689bf","system_id":"levelo_inurba_marseille","lat":43.217509,"lon":5.345993,"is_reserved":false,"is_disabled":false,"rental_uris":{"android":"levelo://app?vid=3126bb31-1bf1-4cb5-bde4-f290b96689bf","ios":"levelo://app?vid=3126bb31-1bf1-4cb5-bde4-f290b96689bf"},"vehicle_type_id":"4","last_reported":1753273375,"current_range_meters":10000,"station_id":"st_cvj6r9ubvosntc0bgbag","pricing_plan_id":"cebpf4jnsgd1na2vs0mg"},{"bike_id":"0d04995a-7320-4e0c-8094-9c2cc3f6ece4","system_id":"levelo_inurba_marseille","lat":43.2572,"lon":5.41115,"is_reserved":false,"is_disabled":false,"rental_uris":{"android":"levelo://app?vid=0d04995a-7320-4e0c-8094-9c2cc3f6ece4","ios":"levelo://app?vid=0d04995a-7320-4e0c-8094-9c2cc3f6ece4"},"vehicle_type_id":"4","last_reported":1753273375,"current_range_meters":10000,"station_id":"ce4bhkp2rcd13ifvqgd0","pricing_plan_id":"cebpf4jnsgd1na2vs0mg"},{"bike_id":"f1164733-5aa2-45bf-9a36-bf18edb3decb","system_id":"levelo_inurba_marseille","lat":43.26941,"lon":5.40257,"is_reserved":false,"is_disabled":false,"rental_uris":{"android":"levelo://app?vid=f1164733-5aa2-45bf-9a36-bf18edb3decb","ios":"levelo://app?vid=f1164733-5aa2-45bf-9a36-bf18edb3decb"},"vehicle_type_id":"4","last_reported":1753273375,"current_range_meters":10000,"station_id":"cjm6bp8fraef2m0cb0m0","pricing_plan_id":"cebpf4jnsgd1na2vs0mg"},{"bike_id":"72c9b80b-0dcb-4268-b920-05a6f76dd0af","system_id":"levelo_inurba_marseille","lat":43.24545,"lon":5.39522,"is_reserved":false,"is_disabled":false,"rental_uris":{"android":"levelo://app?vid=72c9b80b-0dcb-4268-b920-05a6f76dd0af","ios":"levelo://app?vid=72c9b80b-0dcb-4268-b920-05a6f76dd0af"},"vehicle_type_id":"4","last_reported":1753273375,"current_range_meters":10000,"station_id":"ce4bhlp2rcd13ifvqgjg","pricing_plan_id":"cebpf4jnsgd1na2vs0mg"},{"bike_id":"f5d28b42-029f-4d00-a863-a8c9f012ab43","system_id":"levelo_inurba_marseille","lat":43.2827,"lon":5.3507,"is_reserved":false,"is_disabled":false,"rental_uris":{"android":"levelo://app?vid=f5d28b42-029f-4d00-a863-a8c9f012ab43","ios":"levelo://app?vid=f5d28b42-029f-4d00-a863-a8c9f012ab43"},"vehicle_type_id":"4","last_reported":1753273375,"current_range_meters":10000,"station_id":"ce4bhbp2rcd13ifvqerg","pricing_plan_id":"cebpf4jnsgd1na2vs0mg"},{"bike_id":"3cef1158-540c-4055-a46b-73e02d1c17f7","system_id":"levelo_inurba_marseille","lat":43.313819,"lon":5.374443,"is_reserved":false,"is_disabled":false,"rental_uris":{"android":"levelo://app?vid=3cef1158-540c-4055-a46b-73e02d1c17f7","ios":"levelo://app?vid=3cef1158-540c-4055-a46b-73e02d1c17f7"},"vehicle_type_id":"4","last_reported":1753273375,"current_range_meters":10000,"station_id":"","pricing_plan_id":"cebpf4jnsgd1na2vs0mg"},{"bike_id":"3c21b9e1-b296-4844-a6d5-b8d19c7f36c9","system_id":"levelo_inurba_marseille","lat":43.29171,"lon":5.38429,"is_reserved":false,"is_disabled":false,"rental_uris":{"android":"levelo://app?vid=3c21b9e1-b296-4844-a6d5-b8d19c7f36c9","ios":"levelo://app?vid=3c21b9e1-b296-4844-a6d5-b8d19c7f36c9"},"vehicle_type_id":"4","last_reported":1753273375,"current_range_meters":10000,"station_id":"","pricing_plan_id":"cebpf4jnsgd1na2vs0mg"},{"bike_id":"eec3f0c4-bd5c-4b36-a5ec-4d632390f4fe","system_id":"levelo_inurba_marseille","lat":43.25817,"lon":5.39425,"is_reserved":false,"is_disabled":false,"rental_uris":{"android":"levelo://app?vid=eec3f0c4-bd5c-4b36-a5ec-4d632390f4fe","ios":"levelo://app?vid=eec3f0c4-bd5c-4b36-a5ec-4d632390f4fe"},"vehicle_type_id":"4","last_reported":1753273375,"current_range_meters":10000,"station_id":"ce4bhip2rcd13ifvqft0","pricing_plan_id":"cebpf4jnsgd1na2vs0mg"},{"bike_id":"aa5097b6-6968-4aec-b711-e7780938924b","system_id":"levelo_inurba_marseille","lat":43.329593,"lon":5.358963,"is_reserved":false,"is_disabled":false,"rental_uris":{"android":"levelo://app?vid=aa5097b6-6968-4aec-b711-e7780938924b","ios":"levelo://app?vid=aa5097b6-6968-4aec-b711-e7780938924b"},"vehicle_type_id":"4","last_reported":1753273375,"current_range_meters":10000,"station_id":"","pricing_plan_id":"cebpf4jnsgd1na2vs0mg"},{"bike_id":"945e3e5a-5c65-41f4-9cbc-8e1a326b0863","system_id":"levelo_inurba_marseille","lat":43.281555,"lon":5.426396,"is_reserved":false,"is_disabled":false,"rental_uris":{"android":"levelo://app?vid=945e3e5a-5c65-41f4-9cbc-8e1a326b0863","ios":"levelo://app?vid=945e3e5a-5c65-41f4-9cbc-8e1a326b0863"},"vehicle_type_id":"4","last_reported":1753273375,"current_range_meters":10800,"station_id":"ce4bhnh2rcd13ifvqgug","pricing_plan_id":"cebpf4jnsgd1na2vs0mg"},{"bike_id":"166b2014-cbba-4884-a73f-8f4ac4283046","system_id":"levelo_inurba_marseille","lat":43.28417,"lon":5.34982,"is_reserved":false,"is_disabled":false,"rental_uris":{"android":"levelo://app?vid=166b2014-cbba-4884-a73f-8f4ac4283046","ios":"levelo://app?vid=166b2014-cbba-4884-a73f-8f4ac4283046"},"vehicle_type_id":"4","last_reported":1753273375,"current_range_meters":10800,"station_id":"ce4bhbh2rcd13ifvqepg","pricing_plan_id":"cebpf4jnsgd1na2vs0mg"},{"bike_id":"621dbebb-484b-4061-8306-ef32a6a17975","system_id":"levelo_inurba_marseille","lat":43.28615,"lon":5.35117,"is_reserved":false,"is_disabled":false,"rental_uris":{"android":"levelo://app?vid=621dbebb-484b-4061-8306-ef32a6a17975","ios":"levelo://app?vid=621dbebb-484b-4061-8306-ef32a6a17975"},"vehicle_type_id":"4","last_reported":1753273375,"current_range_meters":16800,"station_id":"ce4bhch2rcd13ifvqeug","pricing_plan_id":"cebpf4jnsgd1na2vs0mg"},{"bike_id":"c9dbd36b-479c-4a5c-b200-3aa7673340d9","system_id":"levelo_inurba_marseille","lat":43.241448,"lon":5.363743,"is_reserved":false,"is_disabled":true,"rental_uris":{"android":"levelo://app?vid=c9dbd36b-479c-4a5c-b200-3aa7673340d9","ios":"levelo://app?vid=c9dbd36b-479c-4a5c-b200-3aa7673340d9"},"vehicle_type_id":"4","last_reported":1753273375,"current_range_meters":10800,"station_id":"","pricing_plan_id":"cebpf4jnsgd1na2vs0mg"},{"bike_id":"4037de29-2270-4f36-80cc-672a655c125d","system_id":"levelo_inurba_marseille","lat":43.29058,"lon":5.3717,"is_reserved":false,"is_disabled":false,"rental_uris":{"android":"levelo://app?vid=4037de29-2270-4f36-80cc-672a655c125d","ios":"levelo://app?vid=4037de29-2270-4f36-80cc-672a655c125d"},"vehicle_type_id":"4","last_reported":1753273375,"current_range_meters":10800,"station_id":"ce4bgh92rcd13ifvqb40","pricing_plan_id":"cebpf4jnsgd1na2vs0mg"},{"bike_id":"74c1770d-80e8-41eb-8c87-83bd0402b361","system_id":"levelo_inurba_marseille","lat":43.24169,"lon":5.36406,"is_reserved":false,"is_disabled":false,"rental_uris":{"android":"levelo://app?vid=74c1770d-80e8-41eb-8c87-83bd0402b361","ios":"levelo://app?vid=74c1770d-80e8-41eb-8c87-83bd0402b361"},"vehicle_type_id":"4","last_reported":1753273375,"current_range_meters":10800,"station_id":"cpo36qri1sfpv3e86is0","pricing_plan_id":"cebpf4jnsgd1na2vs0mg"},{"bike_id":"a280b99a-f927-45da-9e98-7c3b9d5f878f","system_id":"levelo_inurba_marseille","lat":43.24386,"lon":5.3706,"is_reserved":false,"is_disabled":false,"rental_uris":{"android":"levelo://app?vid=a280b99a-f927-45da-9e98-7c3b9d5f878f","ios":"levelo://app?vid=a280b99a-f927-45da-9e98-7c3b9d5f878f"},"vehicle_type_id":"4","last_reported":1753273375,"current_range_meters":10800,"station_id":"ce4bhhh2rcd13ifvqfk0","pricing_plan_id":"cebpf4jnsgd1na2vs0mg"},{"bike_id":"2d3067f0-833a-413d-8e39-5e14fbfe6167","system_id":"levelo_inurba_marseille","lat":43.30435,"lon":5.38895,"is_reserved":false,"is_disabled":false,"rental_uris":{"android":"levelo://app?vid=2d3067f0-833a-413d-8e39-5e14fbfe6167","ios":"levelo://app?vid=2d3067f0-833a-413d-8e39-5e14fbfe6167"},"vehicle_type_id":"4","last_reported":1753273375,"current_range_meters":10800,"station_id":"ce4bgk12rcd13ifvqbi0","pricing_plan_id":"cebpf4jnsgd1na2vs0mg"},{"bike_id":"fe50cf1d-fc61-4e48-98f2-ea42037cc2b3","system_id":"levelo_inurba_marseille","lat":43.22928,"lon":5.35391,"is_reserved":false,"is_disabled":false,"rental_uris":{"android":"levelo://app?vid=fe50cf1d-fc61-4e48-98f2-ea42037cc2b3","ios":"levelo://app?vid=fe50cf1d-fc61-4e48-98f2-ea42037cc2b3"},"vehicle_type_id":"4","last_reported":1753273375,"current_range_meters":10800,"station_id":"cpo3532slgdg3j2ikp40","pricing_plan_id":"cebpf4jnsgd1na2vs0mg"},{"bike_id":"0c6e154e-3fc9-4cd0-bd40-79d85c7f3922","system_id":"levelo_inurba_marseille","lat":43.27207,"lon":5.39193,"is_reserved":false,"is_disabled":false,"rental_uris":{"android":"levelo://app?vid=0c6e154e-3fc9-4cd0-bd40-79d85c7f3922","ios":"levelo://app?vid=0c6e154e-3fc9-4cd0-bd40-79d85c7f3922"},"vehicle_type_id":"4","last_reported":1753273375,"current_range_meters":10800,"station_id":"ce4bhhp2rcd13ifvqfm0","pricing_plan_id":"cebpf4jnsgd1na2vs0mg"},{"bike_id":"2153fb05-173b-4f1e-bbe1-f8f5c77f671b","system_id":"levelo_inurba_marseille","lat":43.29276,"lon":5.36843,"is_reserved":false,"is_disabled":false,"rental_uris":{"android":"levelo://app?vid=2153fb05-173b-4f1e-bbe1-f8f5c77f671b","ios":"levelo://app?vid=2153fb05-173b-4f1e-bbe1-f8f5c77f671b"},"vehicle_type_id":"4","last_reported":1753273375,"current_range_meters":10800,"station_id":"ce4bhbp2rcd13ifvqesg","pricing_plan_id":"cebpf4jnsgd1na2vs0mg"},{"bike_id":"eb031908-7012-4908-b77f-23c950a20d8e","system_id":"levelo_inurba_marseille","lat":43.2319,"lon":5.35559,"is_reserved":false,"is_disabled":false,"rental_uris":{"android":"levelo://app?vid=eb031908-7012-4908-b77f-23c950a20d8e","ios":"levelo://app?vid=eb031908-7012-4908-b77f-23c950a20d8e"},"vehicle_type_id":"4","last_reported":1753273375,"current_range_meters":11200,"station_id":"ce4bhu92rcd13ifvqi70","pricing_plan_id":"cebpf4jnsgd1na2vs0mg"},{"bike_id":"23443339-0ea7-4d45-920e-8f6008ba1830","system_id":"levelo_inurba_marseille","lat":43.29584,"lon":5.38127,"is_reserved":false,"is_disabled":false,"rental_uris":{"android":"levelo://app?vid=23443339-0ea7-4d45-920e-8f6008ba1830","ios":"levelo://app?vid=23443339-0ea7-4d45-920e-8f6008ba1830"},"vehicle_type_id":"4","last_reported":1753273375,"current_range_meters":11200,"station_id":"ce4bgl12rcd13ifvqbo0","pricing_plan_id":"cebpf4jnsgd1na2vs0mg"},{"bike_id":"e44893bb-5cdf-4921-b4e8-39ee578180a1","system_id":"levelo_inurba_marseille","lat":43.2407,"lon":5.37785,"is_reserved":false,"is_disabled":false,"rental_uris":{"android":"levelo://app?vid=e44893bb-5cdf-4921-b4e8-39ee578180a1","ios":"levelo://app?vid=e44893bb-5cdf-4921-b4e8-39ee578180a1"},"vehicle_type_id":"4","last_reported":1753273375,"current_range_meters":11200,"station_id":"ce4bhnp2rcd13ifvqgvg","pricing_plan_id":"cebpf4jnsgd1na2vs0mg"},{"bike_id":"4fb2054a-6618-4564-aca7-ea7d65488764","system_id":"levelo_inurba_marseille","lat":43.217511,"lon":5.345987,"is_reserved":false,"is_disabled":false,"rental_uris":{"android":"levelo://app?vid=4fb2054a-6618-4564-aca7-ea7d65488764","ios":"levelo://app?vid=4fb2054a-6618-4564-aca7-ea7d65488764"},"vehicle_type_id":"4","last_reported":1753273375,"current_range_meters":11600,"station_id":"st_cvj6r9ubvosntc0bgbag","pricing_plan_id":"cebpf4jnsgd1na2vs0mg"},{"bike_id":"99aa306a-ef81-4d19-8bbb-673d204cb934","system_id":"levelo_inurba_marseille","lat":43.28412,"lon":5.35009,"is_reserved":false,"is_disabled":false,"rental_uris":{"android":"levelo://app?vid=99aa306a-ef81-4d19-8bbb-673d204cb934","ios":"levelo://app?vid=99aa306a-ef81-4d19-8bbb-673d204cb934"},"vehicle_type_id":"4","last_reported":1753273375,"current_range_meters":11600,"station_id":"ce4bhbh2rcd13ifvqepg","pricing_plan_id":"cebpf4jnsgd1na2vs0mg"},{"bike_id":"25179602-8f77-482a-8d85-9b63439894d3","system_id":"levelo_inurba_marseille","lat":43.27413,"lon":5.39416,"is_reserved":false,"is_disabled":false,"rental_uris":{"android":"levelo://app?vid=25179602-8f77-482a-8d85-9b63439894d3","ios":"levelo://app?vid=25179602-8f77-482a-8d85-9b63439894d3"},"vehicle_type_id":"4","last_reported":1753273375,"current_range_meters":11600,"station_id":"ce4bhgp2rcd13ifvqfe0","pricing_plan_id":"cebpf4jnsgd1na2vs0mg"},{"bike_id":"8be21c3c-096c-4682-9a29-e38e50f0e6be","system_id":"levelo_inurba_marseille","lat":43.28155,"lon":5.4264,"is_reserved":false,"is_disabled":false,"rental_uris":{"android":"levelo://app?vid=8be21c3c-096c-4682-9a29-e38e50f0e6be","ios":"levelo://app?vid=8be21c3c-096c-4682-9a29-e38e50f0e6be"},"vehicle_type_id":"4","last_reported":1753273375,"current_range_meters":12000,"station_id":"ce4bhnh2rcd13ifvqgug","pricing_plan_id":"cebpf4jnsgd1na2vs0mg"},{"bike_id":"0ea7a10a-9a1f-48d6-ba0c-cd300cee1999","system_id":"levelo_inurba_marseille","lat":43.27077,"lon":5.42267,"is_reserved":false,"is_disabled":false,"rental_uris":{"android":"levelo://app?vid=0ea7a10a-9a1f-48d6-ba0c-cd300cee1999","ios":"levelo://app?vid=0ea7a10a-9a1f-48d6-ba0c-cd300cee1999"},"vehicle_type_id":"4","last_reported":1753273375,"current_range_meters":12000,"station_id":"ce4bhk92rcd13ifvqgb0","pricing_plan_id":"cebpf4jnsgd1na2vs0mg"},{"bike_id":"7f63f9a0-7ea4-40f1-844d-1425837a99f2","system_id":"levelo_inurba_marseille","lat":43.296503,"lon":5.380264,"is_reserved":false,"is_disabled":false,"rental_uris":{"android":"levelo://app?vid=7f63f9a0-7ea4-40f1-844d-1425837a99f2","ios":"levelo://app?vid=7f63f9a0-7ea4-40f1-844d-1425837a99f2"},"vehicle_type_id":"4","last_reported":1753273375,"current_range_meters":12400,"station_id":"","pricing_plan_id":"cebpf4jnsgd1na2vs0mg"},{"bike_id":"9a143ed1-a3c7-421c-a22c-84e79d27e230","system_id":"levelo_inurba_marseille","lat":43.28418,"lon":5.34991,"is_reserved":false,"is_disabled":false,"rental_uris":{"android":"levelo://app?vid=9a143ed1-a3c7-421c-a22c-84e79d27e230","ios":"levelo://app?vid=9a143ed1-a3c7-421c-a22c-84e79d27e230"},"vehicle_type_id":"4","last_reported":1753273375,"current_range_meters":12400,"station_id":"ce4bhbh2rcd13ifvqepg","pricing_plan_id":"cebpf4jnsgd1na2vs0mg"},{"bike_id":"2c910316-7db0-4249-ade5-cd57da24c3db","system_id":"levelo_inurba_marseille","lat":43.30137,"lon":5.39868,"is_reserved":false,"is_disabled":false,"rental_uris":{"android":"levelo://app?vid=2c910316-7db0-4249-ade5-cd57da24c3db","ios":"levelo://app?vid=2c910316-7db0-4249-ade5-cd57da24c3db"},"vehicle_type_id":"4","last_reported":1753273375,"current_range_meters":12400,"station_id":"ce4bh0h2rcd13ifvqd40","pricing_plan_id":"cebpf4jnsgd1na2vs0mg"},{"bike_id":"8c580bc0-369e-41bf-9df2-60bf1fa9387d","system_id":"levelo_inurba_marseille","lat":43.30543,"lon":5.36558,"is_reserved":false,"is_disabled":false,"rental_uris":{"android":"levelo://app?vid=8c580bc0-369e-41bf-9df2-60bf1fa9387d","ios":"levelo://app?vid=8c580bc0-369e-41bf-9df2-60bf1fa9387d"},"vehicle_type_id":"4","last_reported":1753273375,"current_range_meters":12400,"station_id":"ce4bgs12rcd13ifvqcag","pricing_plan_id":"cebpf4jnsgd1na2vs0mg"},{"bike_id":"e4ed7ce2-a223-4e8e-968a-d024369c857c","system_id":"levelo_inurba_marseille","lat":43.24997,"lon":5.38951,"is_reserved":false,"is_disabled":false,"rental_uris":{"android":"levelo://app?vid=e4ed7ce2-a223-4e8e-968a-d024369c857c","ios":"levelo://app?vid=e4ed7ce2-a223-4e8e-968a-d024369c857c"},"vehicle_type_id":"4","last_reported":1753273375,"current_range_meters":12800,"station_id":"ce4bhgp2rcd13ifvqfd0","pricing_plan_id":"cebpf4jnsgd1na2vs0mg"},{"bike_id":"bae2df51-73b7-4a19-8c25-027956eba568","system_id":"levelo_inurba_marseille","lat":43.28155,"lon":5.42643,"is_reserved":false,"is_disabled":false,"rental_uris":{"android":"levelo://app?vid=bae2df51-73b7-4a19-8c25-027956eba568","ios":"levelo://app?vid=bae2df51-73b7-4a19-8c25-027956eba568"},"vehicle_type_id":"4","last_reported":1753273375,"current_range_meters":12800,"station_id":"ce4bhnh2rcd13ifvqgug","pricing_plan_id":"cebpf4jnsgd1na2vs0mg"},{"bike_id":"fb81ee79-6688-4d05-be53-1ac881d0c7b8","system_id":"levelo_inurba_marseille","lat":43.23182,"lon":5.35596,"is_reserved":false,"is_disabled":false,"rental_uris":{"android":"levelo://app?vid=fb81ee79-6688-4d05-be53-1ac881d0c7b8","ios":"levelo://app?vid=fb81ee79-6688-4d05-be53-1ac881d0c7b8"},"vehicle_type_id":"4","last_reported":1753273375,"current_range_meters":12800,"station_id":"ce4bhu92rcd13ifvqi70","pricing_plan_id":"cebpf4jnsgd1na2vs0mg"},{"bike_id":"07e7ec69-2e3a-4f54-b2ae-191ac00bd485","system_id":"levelo_inurba_marseille","lat":43.29845,"lon":5.36277,"is_reserved":false,"is_disabled":false,"rental_uris":{"android":"levelo://app?vid=07e7ec69-2e3a-4f54-b2ae-191ac00bd485","ios":"levelo://app?vid=07e7ec69-2e3a-4f54-b2ae-191ac00bd485"},"vehicle_type_id":"4","last_reported":1753273375,"current_range_meters":12800,"station_id":"ce4bgpp2rcd13ifvqc3g","pricing_plan_id":"cebpf4jnsgd1na2vs0mg"},{"bike_id":"a0cfb29e-ccfd-46ad-bb6f-083b7c1c90e9","system_id":"levelo_inurba_marseille","lat":43.30601,"lon":5.37224,"is_reserved":false,"is_disabled":false,"rental_uris":{"android":"levelo://app?vid=a0cfb29e-ccfd-46ad-bb6f-083b7c1c90e9","ios":"levelo://app?vid=a0cfb29e-ccfd-46ad-bb6f-083b7c1c90e9"},"vehicle_type_id":"4","last_reported":1753273375,"current_range_meters":12800,"station_id":"ce4bgqh2rcd13ifvqc4g","pricing_plan_id":"cebpf4jnsgd1na2vs0mg"},{"bike_id":"848a5343-490c-40cd-949c-55ce824484c2","system_id":"levelo_inurba_marseille","lat":43.24805,"lon":5.37469,"is_reserved":false,"is_disabled":false,"rental_uris":{"android":"levelo://app?vid=848a5343-490c-40cd-949c-55ce824484c2","ios":"levelo://app?vid=848a5343-490c-40cd-949c-55ce824484c2"},"vehicle_type_id":"4","last_reported":1753273375,"current_range_meters":12800,"station_id":"ce4bhgh2rcd13ifvqfb0","pricing_plan_id":"cebpf4jnsgd1na2vs0mg"},{"bike_id":"ec15ad8a-0ea3-4f63-83be-f6aec521d9e5","system_id":"levelo_inurba_marseille","lat":43.27948,"lon":5.41053,"is_reserved":false,"is_disabled":false,"rental_uris":{"android":"levelo://app?vid=ec15ad8a-0ea3-4f63-83be-f6aec521d9e5","ios":"levelo://app?vid=ec15ad8a-0ea3-4f63-83be-f6aec521d9e5"},"vehicle_type_id":"4","last_reported":1753273375,"current_range_meters":12800,"station_id":"ce4bhnp2rcd13ifvqh0g","pricing_plan_id":"cebpf4jnsgd1na2vs0mg"},{"bike_id":"6e21b359-af78-4da1-8c74-3d8275bc8184","system_id":"levelo_inurba_marseille","lat":43.24392,"lon":5.37039,"is_reserved":false,"is_disabled":false,"rental_uris":{"android":"levelo://app?vid=6e21b359-af78-4da1-8c74-3d8275bc8184","ios":"levelo://app?vid=6e21b359-af78-4da1-8c74-3d8275bc8184"},"vehicle_type_id":"4","last_reported":1753273375,"current_range_meters":12800,"station_id":"ce4bhhh2rcd13ifvqfk0","pricing_plan_id":"cebpf4jnsgd1na2vs0mg"},{"bike_id":"cc926983-7496-48df-9677-b8723ddc96b9","system_id":"levelo_inurba_marseille","lat":43.22943,"lon":5.3538,"is_reserved":false,"is_disabled":false,"rental_uris":{"android":"levelo://app?vid=cc926983-7496-48df-9677-b8723ddc96b9","ios":"levelo://app?vid=cc926983-7496-48df-9677-b8723ddc96b9"},"vehicle_type_id":"4","last_reported":1753273375,"current_range_meters":13600,"station_id":"cpo3532slgdg3j2ikp40","pricing_plan_id":"cebpf4jnsgd1na2vs0mg"},{"bike_id":"6ff2a422-f5aa-4337-b25e-feddff9f46f0","system_id":"levelo_inurba_marseille","lat":43.25118,"lon":5.40313,"is_reserved":false,"is_disabled":false,"rental_uris":{"android":"levelo://app?vid=6ff2a422-f5aa-4337-b25e-feddff9f46f0","ios":"levelo://app?vid=6ff2a422-f5aa-4337-b25e-feddff9f46f0"},"vehicle_type_id":"4","last_reported":1753273375,"current_range_meters":13600,"station_id":"ce4bhlh2rcd13ifvqgig","pricing_plan_id":"cebpf4jnsgd1na2vs0mg"},{"bike_id":"db4f7d16-4447-4752-b9fa-314b60a317e8","system_id":"levelo_inurba_marseille","lat":43.298988,"lon":5.379276,"is_reserved":false,"is_disabled":false,"rental_uris":{"android":"levelo://app?vid=db4f7d16-4447-4752-b9fa-314b60a317e8","ios":"levelo://app?vid=db4f7d16-4447-4752-b9fa-314b60a317e8"},"vehicle_type_id":"4","last_reported":1753273375,"current_range_meters":13600,"station_id":"","pricing_plan_id":"cebpf4jnsgd1na2vs0mg"},{"bike_id":"4f07190e-caac-415f-b780-172edb0f66b7","system_id":"levelo_inurba_marseille","lat":43.31227,"lon":5.36877,"is_reserved":false,"is_disabled":false,"rental_uris":{"android":"levelo://app?vid=4f07190e-caac-415f-b780-172edb0f66b7","ios":"levelo://app?vid=4f07190e-caac-415f-b780-172edb0f66b7"},"vehicle_type_id":"4","last_reported":1753273375,"current_range_meters":13600,"station_id":"ce4bgl92rcd13ifvqbq0","pricing_plan_id":"cebpf4jnsgd1na2vs0mg"},{"bike_id":"a41d286a-c628-4838-a2ba-f816a3e31899","system_id":"levelo_inurba_marseille","lat":43.23198,"lon":5.35571,"is_reserved":false,"is_disabled":false,"rental_uris":{"android":"levelo://app?vid=a41d286a-c628-4838-a2ba-f816a3e31899","ios":"levelo://app?vid=a41d286a-c628-4838-a2ba-f816a3e31899"},"vehicle_type_id":"4","last_reported":1753273375,"current_range_meters":13600,"station_id":"ce4bhu92rcd13ifvqi70","pricing_plan_id":"cebpf4jnsgd1na2vs0mg"},{"bike_id":"f19b98c6-1765-4a09-836a-873f7f0045c3","system_id":"levelo_inurba_marseille","lat":43.29707,"lon":5.36622,"is_reserved":false,"is_disabled":false,"rental_uris":{"android":"levelo://app?vid=f19b98c6-1765-4a09-836a-873f7f0045c3","ios":"levelo://app?vid=f19b98c6-1765-4a09-836a-873f7f0045c3"},"vehicle_type_id":"4","last_reported":1753273375,"current_range_meters":14000,"station_id":"ce4bgn12rcd13ifvqbt0","pricing_plan_id":"cebpf4jnsgd1na2vs0mg"},{"bike_id":"35bab694-dd6a-40c6-94d3-c3fe03bd99bb","system_id":"levelo_inurba_marseille","lat":43.32322,"lon":5.40621,"is_reserved":false,"is_disabled":false,"rental_uris":{"android":"levelo://app?vid=35bab694-dd6a-40c6-94d3-c3fe03bd99bb","ios":"levelo://app?vid=35bab694-dd6a-40c6-94d3-c3fe03bd99bb"},"vehicle_type_id":"4","last_reported":1753273375,"current_range_meters":14000,"station_id":"ce4bhq92rcd13ifvqhjg","pricing_plan_id":"cebpf4jnsgd1na2vs0mg"},{"bike_id":"ea731c2a-e1c3-44a2-becb-45da31f72b6f","system_id":"levelo_inurba_marseille","lat":43.31356,"lon":5.36724,"is_reserved":false,"is_disabled":false,"rental_uris":{"android":"levelo://app?vid=ea731c2a-e1c3-44a2-becb-45da31f72b6f","ios":"levelo://app?vid=ea731c2a-e1c3-44a2-becb-45da31f72b6f"},"vehicle_type_id":"4","last_reported":1753273375,"current_range_meters":14400,"station_id":"ce4bgr92rcd13ifvqc6g","pricing_plan_id":"cebpf4jnsgd1na2vs0mg"},{"bike_id":"086b22e4-5196-45e9-a924-642396d2348e","system_id":"levelo_inurba_marseille","lat":43.303067,"lon":5.368793,"is_reserved":false,"is_disabled":false,"rental_uris":{"android":"levelo://app?vid=086b22e4-5196-45e9-a924-642396d2348e","ios":"levelo://app?vid=086b22e4-5196-45e9-a924-642396d2348e"},"vehicle_type_id":"4","last_reported":1753273375,"current_range_meters":14400,"station_id":"ce4bgqh2rcd13ifvqc5g","pricing_plan_id":"cebpf4jnsgd1na2vs0mg"},{"bike_id":"68b5d20d-24a0-45d3-a17c-4daac77cfd32","system_id":"levelo_inurba_marseille","lat":43.26549,"lon":5.39066,"is_reserved":false,"is_disabled":false,"rental_uris":{"android":"levelo://app?vid=68b5d20d-24a0-45d3-a17c-4daac77cfd32","ios":"levelo://app?vid=68b5d20d-24a0-45d3-a17c-4daac77cfd32"},"vehicle_type_id":"4","last_reported":1753273375,"current_range_meters":14400,"station_id":"ce4bhe12rcd13ifvqf30","pricing_plan_id":"cebpf4jnsgd1na2vs0mg"},{"bike_id":"bd4053fb-a507-47f8-b050-a61dab05872e","system_id":"levelo_inurba_marseille","lat":43.25592,"lon":5.38254,"is_reserved":false,"is_disabled":false,"rental_uris":{"android":"levelo://app?vid=bd4053fb-a507-47f8-b050-a61dab05872e","ios":"levelo://app?vid=bd4053fb-a507-47f8-b050-a61dab05872e"},"vehicle_type_id":"4","last_reported":1753273375,"current_range_meters":14400,"station_id":"ce4bhih2rcd13ifvqfs0","pricing_plan_id":"cebpf4jnsgd1na2vs0mg"},{"bike_id":"bbc2b271-396f-4875-9f1d-0fcc163d87b6","system_id":"levelo_inurba_marseille","lat":43.290476,"lon":5.399373,"is_reserved":false,"is_disabled":false,"rental_uris":{"android":"levelo://app?vid=bbc2b271-396f-4875-9f1d-0fcc163d87b6","ios":"levelo://app?vid=bbc2b271-396f-4875-9f1d-0fcc163d87b6"},"vehicle_type_id":"4","last_reported":1753273375,"current_range_meters":14400,"station_id":"ce4bh392rcd13ifvqdm0","pricing_plan_id":"cebpf4jnsgd1na2vs0mg"},{"bike_id":"9b5baf63-d843-4090-808c-7461a839e99a","system_id":"levelo_inurba_marseille","lat":43.23192,"lon":5.35571,"is_reserved":false,"is_disabled":false,"rental_uris":{"android":"levelo://app?vid=9b5baf63-d843-4090-808c-7461a839e99a","ios":"levelo://app?vid=9b5baf63-d843-4090-808c-7461a839e99a"},"vehicle_type_id":"4","last_reported":1753273375,"current_range_meters":14400,"station_id":"ce4bhu92rcd13ifvqi70","pricing_plan_id":"cebpf4jnsgd1na2vs0mg"},{"bike_id":"7101038a-4d09-4cb0-b6f0-1eeb775863a5","system_id":"levelo_inurba_marseille","lat":43.29616,"lon":5.37718,"is_reserved":false,"is_disabled":false,"rental_uris":{"android":"levelo://app?vid=7101038a-4d09-4cb0-b6f0-1eeb775863a5","ios":"levelo://app?vid=7101038a-4d09-4cb0-b6f0-1eeb775863a5"},"vehicle_type_id":"4","last_reported":1753273375,"current_range_meters":14800,"station_id":"ce4bgi92rcd13ifvqb90","pricing_plan_id":"cebpf4jnsgd1na2vs0mg"},{"bike_id":"d509b331-e799-4503-90e7-40b1e687c26f","system_id":"levelo_inurba_marseille","lat":43.28607,"lon":5.37077,"is_reserved":false,"is_disabled":true,"rental_uris":{"android":"levelo://app?vid=d509b331-e799-4503-90e7-40b1e687c26f","ios":"levelo://app?vid=d509b331-e799-4503-90e7-40b1e687c26f"},"vehicle_type_id":"4","last_reported":1753273375,"current_range_meters":14800,"station_id":"ce4bht12rcd13ifvqi60","pricing_plan_id":"cebpf4jnsgd1na2vs0mg"},{"bike_id":"447cebff-3145-45a6-8e32-4e3504be28dd","system_id":"levelo_inurba_marseille","lat":43.28414,"lon":5.35006,"is_reserved":false,"is_disabled":false,"rental_uris":{"android":"levelo://app?vid=447cebff-3145-45a6-8e32-4e3504be28dd","ios":"levelo://app?vid=447cebff-3145-45a6-8e32-4e3504be28dd"},"vehicle_type_id":"4","last_reported":1753273375,"current_range_meters":14800,"station_id":"ce4bhbh2rcd13ifvqepg","pricing_plan_id":"cebpf4jnsgd1na2vs0mg"},{"bike_id":"fb184c64-e404-4eb4-9fb8-71230d2ae79c","system_id":"levelo_inurba_marseille","lat":43.24545,"lon":5.39522,"is_reserved":false,"is_disabled":false,"rental_uris":{"android":"levelo://app?vid=fb184c64-e404-4eb4-9fb8-71230d2ae79c","ios":"levelo://app?vid=fb184c64-e404-4eb4-9fb8-71230d2ae79c"},"vehicle_type_id":"4","last_reported":1753273375,"current_range_meters":14800,"station_id":"ce4bhlp2rcd13ifvqgjg","pricing_plan_id":"cebpf4jnsgd1na2vs0mg"},{"bike_id":"b147d87d-ad6b-4ee0-89e1-f2e85a2edd30","system_id":"levelo_inurba_marseille","lat":43.32112,"lon":5.36757,"is_reserved":false,"is_disabled":false,"rental_uris":{"android":"levelo://app?vid=b147d87d-ad6b-4ee0-89e1-f2e85a2edd30","ios":"levelo://app?vid=b147d87d-ad6b-4ee0-89e1-f2e85a2edd30"},"vehicle_type_id":"4","last_reported":1753273375,"current_range_meters":14800,"station_id":"ce4bhrh2rcd13ifvqhug","pricing_plan_id":"cebpf4jnsgd1na2vs0mg"},{"bike_id":"cef7c436-6927-42e9-aa9f-de28d427e1f2","system_id":"levelo_inurba_marseille","lat":43.250042,"lon":5.389464,"is_reserved":false,"is_disabled":false,"rental_uris":{"android":"levelo://app?vid=cef7c436-6927-42e9-aa9f-de28d427e1f2","ios":"levelo://app?vid=cef7c436-6927-42e9-aa9f-de28d427e1f2"},"vehicle_type_id":"4","last_reported":1753273375,"current_range_meters":15200,"station_id":"ce4bhgp2rcd13ifvqfd0","pricing_plan_id":"cebpf4jnsgd1na2vs0mg"},{"bike_id":"9caafdbd-3f97-4ae1-b1b7-dad552793624","system_id":"levelo_inurba_marseille","lat":43.29579,"lon":5.36742,"is_reserved":false,"is_disabled":false,"rental_uris":{"android":"levelo://app?vid=9caafdbd-3f97-4ae1-b1b7-dad552793624","ios":"levelo://app?vid=9caafdbd-3f97-4ae1-b1b7-dad552793624"},"vehicle_type_id":"4","last_reported":1753273375,"current_range_meters":15200,"station_id":"ce4bgph2rcd13ifvqc2g","pricing_plan_id":"cebpf4jnsgd1na2vs0mg"},{"bike_id":"66d1fea4-4631-4d76-ae51-3011ad4a0f54","system_id":"levelo_inurba_marseille","lat":43.279774,"lon":5.395974,"is_reserved":false,"is_disabled":false,"rental_uris":{"android":"levelo://app?vid=66d1fea4-4631-4d76-ae51-3011ad4a0f54","ios":"levelo://app?vid=66d1fea4-4631-4d76-ae51-3011ad4a0f54"},"vehicle_type_id":"4","last_reported":1753273375,"current_range_meters":15200,"station_id":"","pricing_plan_id":"cebpf4jnsgd1na2vs0mg"},{"bike_id":"820f7ded-a613-42b4-8c0a-617cf52f5647","system_id":"levelo_inurba_marseille","lat":43.308868,"lon":5.371856,"is_reserved":false,"is_disabled":false,"rental_uris":{"android":"levelo://app?vid=820f7ded-a613-42b4-8c0a-617cf52f5647","ios":"levelo://app?vid=820f7ded-a613-42b4-8c0a-617cf52f5647"},"vehicle_type_id":"4","last_reported":1753273375,"current_range_meters":15200,"station_id":"ce4bguh2rcd13ifvqckg","pricing_plan_id":"cebpf4jnsgd1na2vs0mg"},{"bike_id":"541e3f7a-640b-4d8c-977d-949ca2a087ab","system_id":"levelo_inurba_marseille","lat":43.30796,"lon":5.379577,"is_reserved":false,"is_disabled":true,"rental_uris":{"android":"levelo://app?vid=541e3f7a-640b-4d8c-977d-949ca2a087ab","ios":"levelo://app?vid=541e3f7a-640b-4d8c-977d-949ca2a087ab"},"vehicle_type_id":"4","last_reported":1753273375,"current_range_meters":15200,"station_id":"ce4bgt12rcd13ifvqce0","pricing_plan_id":"cebpf4jnsgd1na2vs0mg"},{"bike_id":"9625f87f-1c2f-4614-afbc-55de8d020b82","system_id":"levelo_inurba_marseille","lat":43.26203,"lon":5.37926,"is_reserved":false,"is_disabled":false,"rental_uris":{"android":"levelo://app?vid=9625f87f-1c2f-4614-afbc-55de8d020b82","ios":"levelo://app?vid=9625f87f-1c2f-4614-afbc-55de8d020b82"},"vehicle_type_id":"4","last_reported":1753273375,"current_range_meters":15200,"station_id":"ce4bhjp2rcd13ifvqg90","pricing_plan_id":"cebpf4jnsgd1na2vs0mg"},{"bike_id":"adaef4dd-fc8c-4e7a-aebb-ef1f1979e494","system_id":"levelo_inurba_marseille","lat":43.28733,"lon":5.36079,"is_reserved":false,"is_disabled":false,"rental_uris":{"android":"levelo://app?vid=adaef4dd-fc8c-4e7a-aebb-ef1f1979e494","ios":"levelo://app?vid=adaef4dd-fc8c-4e7a-aebb-ef1f1979e494"},"vehicle_type_id":"4","last_reported":1753273375,"current_range_meters":16000,"station_id":"cki0cbj6b192h4jlfktg","pricing_plan_id":"cebpf4jnsgd1na2vs0mg"},{"bike_id":"aa8b47e9-e4de-43c0-867d-c369c0ea4caf","system_id":"levelo_inurba_marseille","lat":43.30261,"lon":5.4006,"is_reserved":false,"is_disabled":false,"rental_uris":{"android":"levelo://app?vid=aa8b47e9-e4de-43c0-867d-c369c0ea4caf","ios":"levelo://app?vid=aa8b47e9-e4de-43c0-867d-c369c0ea4caf"},"vehicle_type_id":"4","last_reported":1753273375,"current_range_meters":16000,"station_id":"ce4bgvh2rcd13ifvqcs0","pricing_plan_id":"cebpf4jnsgd1na2vs0mg"},{"bike_id":"2704fd55-0669-4cd3-a002-e3ba2e827fa5","system_id":"levelo_inurba_marseille","lat":43.2985,"lon":5.36301,"is_reserved":false,"is_disabled":false,"rental_uris":{"android":"levelo://app?vid=2704fd55-0669-4cd3-a002-e3ba2e827fa5","ios":"levelo://app?vid=2704fd55-0669-4cd3-a002-e3ba2e827fa5"},"vehicle_type_id":"4","last_reported":1753273375,"current_range_meters":16000,"station_id":"ce4bgpp2rcd13ifvqc3g","pricing_plan_id":"cebpf4jnsgd1na2vs0mg"},{"bike_id":"6d6c8df7-00e5-48f4-9f91-d2d6d4cdb8e0","system_id":"levelo_inurba_marseille","lat":43.27381,"lon":5.36252,"is_reserved":false,"is_disabled":false,"rental_uris":{"android":"levelo://app?vid=6d6c8df7-00e5-48f4-9f91-d2d6d4cdb8e0","ios":"levelo://app?vid=6d6c8df7-00e5-48f4-9f91-d2d6d4cdb8e0"},"vehicle_type_id":"4","last_reported":1753273375,"current_range_meters":16000,"station_id":"ce4bhbh2rcd13ifvqeo0","pricing_plan_id":"cebpf4jnsgd1na2vs0mg"},{"bike_id":"4ab27091-1662-4811-87b9-a886b076324d","system_id":"levelo_inurba_marseille","lat":43.3248,"lon":5.36559,"is_reserved":false,"is_disabled":false,"rental_uris":{"android":"levelo://app?vid=4ab27091-1662-4811-87b9-a886b076324d","ios":"levelo://app?vid=4ab27091-1662-4811-87b9-a886b076324d"},"vehicle_type_id":"4","last_reported":1753273375,"current_range_meters":16000,"station_id":"ce4bhs12rcd13ifvqhvg","pricing_plan_id":"cebpf4jnsgd1na2vs0mg"},{"bike_id":"c0b2713c-263b-46d6-a3aa-359d6dee023c","system_id":"levelo_inurba_marseille","lat":43.31078,"lon":5.38363,"is_reserved":false,"is_disabled":false,"rental_uris":{"android":"levelo://app?vid=c0b2713c-263b-46d6-a3aa-359d6dee023c","ios":"levelo://app?vid=c0b2713c-263b-46d6-a3aa-359d6dee023c"},"vehicle_type_id":"4","last_reported":1753273375,"current_range_meters":16000,"station_id":"ce4bgv92rcd13ifvqcr0","pricing_plan_id":"cebpf4jnsgd1na2vs0mg"},{"bike_id":"33f6aa60-2c09-45d1-a178-5815033ed9c8","system_id":"levelo_inurba_marseille","lat":43.27081,"lon":5.42283,"is_reserved":false,"is_disabled":false,"rental_uris":{"android":"levelo://app?vid=33f6aa60-2c09-45d1-a178-5815033ed9c8","ios":"levelo://app?vid=33f6aa60-2c09-45d1-a178-5815033ed9c8"},"vehicle_type_id":"4","last_reported":1753273375,"current_range_meters":16000,"station_id":"ce4bhk92rcd13ifvqgb0","pricing_plan_id":"cebpf4jnsgd1na2vs0mg"},{"bike_id":"f26ebe3d-5edb-4a07-bae4-db0a72794a66","system_id":"levelo_inurba_marseille","lat":43.282697,"lon":5.350652,"is_reserved":false,"is_disabled":false,"rental_uris":{"android":"levelo://app?vid=f26ebe3d-5edb-4a07-bae4-db0a72794a66","ios":"levelo://app?vid=f26ebe3d-5edb-4a07-bae4-db0a72794a66"},"vehicle_type_id":"4","last_reported":1753273375,"current_range_meters":16000,"station_id":"ce4bhbp2rcd13ifvqerg","pricing_plan_id":"cebpf4jnsgd1na2vs0mg"},{"bike_id":"15764a2d-4dc5-45e2-a0da-be3a32d790d4","system_id":"levelo_inurba_marseille","lat":43.32341,"lon":5.40629,"is_reserved":false,"is_disabled":false,"rental_uris":{"android":"levelo://app?vid=15764a2d-4dc5-45e2-a0da-be3a32d790d4","ios":"levelo://app?vid=15764a2d-4dc5-45e2-a0da-be3a32d790d4"},"vehicle_type_id":"4","last_reported":1753273375,"current_range_meters":16000,"station_id":"ce4bhq92rcd13ifvqhjg","pricing_plan_id":"cebpf4jnsgd1na2vs0mg"},{"bike_id":"fedc9b46-f587-4e6b-b1ec-5adbe36a6c96","system_id":"levelo_inurba_marseille","lat":43.25911,"lon":5.40885,"is_reserved":false,"is_disabled":false,"rental_uris":{"android":"levelo://app?vid=fedc9b46-f587-4e6b-b1ec-5adbe36a6c96","ios":"levelo://app?vid=fedc9b46-f587-4e6b-b1ec-5adbe36a6c96"},"vehicle_type_id":"4","last_reported":1753273375,"current_range_meters":16000,"station_id":"ce4bhm92rcd13ifvqglg","pricing_plan_id":"cebpf4jnsgd1na2vs0mg"},{"bike_id":"24d0bfb8-0532-4479-b817-467a1fb57955","system_id":"levelo_inurba_marseille","lat":43.26938,"lon":5.40261,"is_reserved":false,"is_disabled":false,"rental_uris":{"android":"levelo://app?vid=24d0bfb8-0532-4479-b817-467a1fb57955","ios":"levelo://app?vid=24d0bfb8-0532-4479-b817-467a1fb57955"},"vehicle_type_id":"4","last_reported":1753273375,"current_range_meters":16000,"station_id":"cjm6bp8fraef2m0cb0m0","pricing_plan_id":"cebpf4jnsgd1na2vs0mg"},{"bike_id":"364d8586-a041-47ee-af34-e763f5bb9bdf","system_id":"levelo_inurba_marseille","lat":43.22504,"lon":5.34785,"is_reserved":false,"is_disabled":false,"rental_uris":{"android":"levelo://app?vid=364d8586-a041-47ee-af34-e763f5bb9bdf","ios":"levelo://app?vid=364d8586-a041-47ee-af34-e763f5bb9bdf"},"vehicle_type_id":"4","last_reported":1753273375,"current_range_meters":16000,"station_id":"st_cvj5dfep6f1abm77gieg","pricing_plan_id":"cebpf4jnsgd1na2vs0mg"},{"bike_id":"ebcd3849-f1de-47ab-8eac-b748d65da180","system_id":"levelo_inurba_marseille","lat":43.312049,"lon":5.368842,"is_reserved":false,"is_disabled":false,"rental_uris":{"android":"levelo://app?vid=ebcd3849-f1de-47ab-8eac-b748d65da180","ios":"levelo://app?vid=ebcd3849-f1de-47ab-8eac-b748d65da180"},"vehicle_type_id":"4","last_reported":1753273375,"current_range_meters":16000,"station_id":"ce4bgl92rcd13ifvqbq0","pricing_plan_id":"cebpf4jnsgd1na2vs0mg"},{"bike_id":"6ba8bf23-faf4-4e7f-a0da-6f0984da5df1","system_id":"levelo_inurba_marseille","lat":43.262067,"lon":5.374437,"is_reserved":false,"is_disabled":false,"rental_uris":{"android":"levelo://app?vid=6ba8bf23-faf4-4e7f-a0da-6f0984da5df1","ios":"levelo://app?vid=6ba8bf23-faf4-4e7f-a0da-6f0984da5df1"},"vehicle_type_id":"4","last_reported":1753273375,"current_range_meters":16000,"station_id":"ce4bhgp2rcd13ifvqfc0","pricing_plan_id":"cebpf4jnsgd1na2vs0mg"},{"bike_id":"aed7210d-3dd8-4a39-b707-adbaf032a846","system_id":"levelo_inurba_marseille","lat":43.23193,"lon":5.35557,"is_reserved":false,"is_disabled":false,"rental_uris":{"android":"levelo://app?vid=aed7210d-3dd8-4a39-b707-adbaf032a846","ios":"levelo://app?vid=aed7210d-3dd8-4a39-b707-adbaf032a846"},"vehicle_type_id":"4","last_reported":1753273375,"current_range_meters":16400,"station_id":"ce4bhu92rcd13ifvqi70","pricing_plan_id":"cebpf4jnsgd1na2vs0mg"},{"bike_id":"f9c9ff83-8548-4acb-a33b-495af4adeef4","system_id":"levelo_inurba_marseille","lat":43.323575,"lon":5.367565,"is_reserved":false,"is_disabled":false,"rental_uris":{"android":"levelo://app?vid=f9c9ff83-8548-4acb-a33b-495af4adeef4","ios":"levelo://app?vid=f9c9ff83-8548-4acb-a33b-495af4adeef4"},"vehicle_type_id":"4","last_reported":1753273375,"current_range_meters":16400,"station_id":"ce4bhsh2rcd13ifvqi2g","pricing_plan_id":"cebpf4jnsgd1na2vs0mg"},{"bike_id":"b5ce8d93-17c0-45a5-b2b1-eefce45c2d79","system_id":"levelo_inurba_marseille","lat":43.318135,"lon":5.435306,"is_reserved":false,"is_disabled":false,"rental_uris":{"android":"levelo://app?vid=b5ce8d93-17c0-45a5-b2b1-eefce45c2d79","ios":"levelo://app?vid=b5ce8d93-17c0-45a5-b2b1-eefce45c2d79"},"vehicle_type_id":"4","last_reported":1753273375,"current_range_meters":16400,"station_id":"","pricing_plan_id":"cebpf4jnsgd1na2vs0mg"},{"bike_id":"a0de01aa-cd68-4a4d-8bab-65fa167b8610","system_id":"levelo_inurba_marseille","lat":43.23187,"lon":5.35565,"is_reserved":false,"is_disabled":false,"rental_uris":{"android":"levelo://app?vid=a0de01aa-cd68-4a4d-8bab-65fa167b8610","ios":"levelo://app?vid=a0de01aa-cd68-4a4d-8bab-65fa167b8610"},"vehicle_type_id":"4","last_reported":1753273375,"current_range_meters":16400,"station_id":"ce4bhu92rcd13ifvqi70","pricing_plan_id":"cebpf4jnsgd1na2vs0mg"},{"bike_id":"e8404a02-06ac-4381-bbb2-1247e5f5c9f1","system_id":"levelo_inurba_marseille","lat":43.25944,"lon":5.40939,"is_reserved":false,"is_disabled":false,"rental_uris":{"android":"levelo://app?vid=e8404a02-06ac-4381-bbb2-1247e5f5c9f1","ios":"levelo://app?vid=e8404a02-06ac-4381-bbb2-1247e5f5c9f1"},"vehicle_type_id":"4","last_reported":1753273375,"current_range_meters":16400,"station_id":"ce4bhm92rcd13ifvqglg","pricing_plan_id":"cebpf4jnsgd1na2vs0mg"},{"bike_id":"9ce312f1-cb07-4159-91d6-c11a68a5ee71","system_id":"levelo_inurba_marseille","lat":43.21187,"lon":5.35079,"is_reserved":false,"is_disabled":false,"rental_uris":{"android":"levelo://app?vid=9ce312f1-cb07-4159-91d6-c11a68a5ee71","ios":"levelo://app?vid=9ce312f1-cb07-4159-91d6-c11a68a5ee71"},"vehicle_type_id":"4","last_reported":1753273375,"current_range_meters":16400,"station_id":"st_cvj6sg6p6f1abm77japg","pricing_plan_id":"cebpf4jnsgd1na2vs0mg"},{"bike_id":"75921511-23bf-408f-9470-1062209789d6","system_id":"levelo_inurba_marseille","lat":43.25579,"lon":5.38233,"is_reserved":false,"is_disabled":false,"rental_uris":{"android":"levelo://app?vid=75921511-23bf-408f-9470-1062209789d6","ios":"levelo://app?vid=75921511-23bf-408f-9470-1062209789d6"},"vehicle_type_id":"4","last_reported":1753273375,"current_range_meters":16800,"station_id":"ce4bhih2rcd13ifvqfs0","pricing_plan_id":"cebpf4jnsgd1na2vs0mg"},{"bike_id":"f3217e35-0bb5-43ab-beb0-dd5e233a7114","system_id":"levelo_inurba_marseille","lat":43.25573,"lon":5.38238,"is_reserved":false,"is_disabled":false,"rental_uris":{"android":"levelo://app?vid=f3217e35-0bb5-43ab-beb0-dd5e233a7114","ios":"levelo://app?vid=f3217e35-0bb5-43ab-beb0-dd5e233a7114"},"vehicle_type_id":"4","last_reported":1753273375,"current_range_meters":16800,"station_id":"ce4bhih2rcd13ifvqfs0","pricing_plan_id":"cebpf4jnsgd1na2vs0mg"},{"bike_id":"9e7bef7c-53f8-4848-95ce-ebad9a02dd2f","system_id":"levelo_inurba_marseille","lat":43.25876,"lon":5.39891,"is_reserved":false,"is_disabled":false,"rental_uris":{"android":"levelo://app?vid=9e7bef7c-53f8-4848-95ce-ebad9a02dd2f","ios":"levelo://app?vid=9e7bef7c-53f8-4848-95ce-ebad9a02dd2f"},"vehicle_type_id":"4","last_reported":1753273375,"current_range_meters":16800,"station_id":"ce4bhl92rcd13ifvqghg","pricing_plan_id":"cebpf4jnsgd1na2vs0mg"},{"bike_id":"860485b8-7c71-40af-af51-b7aec8d1035a","system_id":"levelo_inurba_marseille","lat":43.30145,"lon":5.3807,"is_reserved":false,"is_disabled":false,"rental_uris":{"android":"levelo://app?vid=860485b8-7c71-40af-af51-b7aec8d1035a","ios":"levelo://app?vid=860485b8-7c71-40af-af51-b7aec8d1035a"},"vehicle_type_id":"4","last_reported":1753273375,"current_range_meters":16800,"station_id":"ce4bgjp2rcd13ifvqbh0","pricing_plan_id":"cebpf4jnsgd1na2vs0mg"},{"bike_id":"f6cbc688-e0c4-4b86-9f68-cf0d17b0a867","system_id":"levelo_inurba_marseille","lat":43.28271,"lon":5.35073,"is_reserved":false,"is_disabled":false,"rental_uris":{"android":"levelo://app?vid=f6cbc688-e0c4-4b86-9f68-cf0d17b0a867","ios":"levelo://app?vid=f6cbc688-e0c4-4b86-9f68-cf0d17b0a867"},"vehicle_type_id":"4","last_reported":1753273375,"current_range_meters":16800,"station_id":"ce4bhbp2rcd13ifvqerg","pricing_plan_id":"cebpf4jnsgd1na2vs0mg"},{"bike_id":"7e7f0fe1-be26-4471-8257-922dbc407504","system_id":"levelo_inurba_marseille","lat":43.2656,"lon":5.3732,"is_reserved":false,"is_disabled":false,"rental_uris":{"android":"levelo://app?vid=7e7f0fe1-be26-4471-8257-922dbc407504","ios":"levelo://app?vid=7e7f0fe1-be26-4471-8257-922dbc407504"},"vehicle_type_id":"4","last_reported":1753273375,"current_range_meters":17200,"station_id":"ce4bhg12rcd13ifvqf70","pricing_plan_id":"cebpf4jnsgd1na2vs0mg"},{"bike_id":"d7071428-d9a4-4133-b401-5bb7a0720b6c","system_id":"levelo_inurba_marseille","lat":43.29199,"lon":5.35787,"is_reserved":false,"is_disabled":false,"rental_uris":{"android":"levelo://app?vid=d7071428-d9a4-4133-b401-5bb7a0720b6c","ios":"levelo://app?vid=d7071428-d9a4-4133-b401-5bb7a0720b6c"},"vehicle_type_id":"4","last_reported":1753273375,"current_range_meters":17200,"station_id":"ce4bhb12rcd13ifvqel0","pricing_plan_id":"cebpf4jnsgd1na2vs0mg"},{"bike_id":"bfd7e908-297b-4fb3-954a-c8cd06553c6a","system_id":"levelo_inurba_marseille","lat":43.309148,"lon":5.368469,"is_reserved":false,"is_disabled":false,"rental_uris":{"android":"levelo://app?vid=bfd7e908-297b-4fb3-954a-c8cd06553c6a","ios":"levelo://app?vid=bfd7e908-297b-4fb3-954a-c8cd06553c6a"},"vehicle_type_id":"4","last_reported":1753273375,"current_range_meters":17200,"station_id":"ce4bgn92rcd13ifvqbvg","pricing_plan_id":"cebpf4jnsgd1na2vs0mg"},{"bike_id":"303758b1-b1a0-4e9f-aaba-c15f56ba98b7","system_id":"levelo_inurba_marseille","lat":43.29233,"lon":5.38361,"is_reserved":false,"is_disabled":false,"rental_uris":{"android":"levelo://app?vid=303758b1-b1a0-4e9f-aaba-c15f56ba98b7","ios":"levelo://app?vid=303758b1-b1a0-4e9f-aaba-c15f56ba98b7"},"vehicle_type_id":"4","last_reported":1753273375,"current_range_meters":17200,"station_id":"","pricing_plan_id":"cebpf4jnsgd1na2vs0mg"},{"bike_id":"f493a3a9-7f6b-470e-bce7-7019418af039","system_id":"levelo_inurba_marseille","lat":43.2793,"lon":5.38032,"is_reserved":false,"is_disabled":false,"rental_uris":{"android":"levelo://app?vid=f493a3a9-7f6b-470e-bce7-7019418af039","ios":"levelo://app?vid=f493a3a9-7f6b-470e-bce7-7019418af039"},"vehicle_type_id":"4","last_reported":1753273375,"current_range_meters":17200,"station_id":"ce4bhf92rcd13ifvqf50","pricing_plan_id":"cebpf4jnsgd1na2vs0mg"},{"bike_id":"0a7e2862-d8ec-4c77-89d9-cfcdd51f8d75","system_id":"levelo_inurba_marseille","lat":43.31494,"lon":5.37317,"is_reserved":false,"is_disabled":false,"rental_uris":{"android":"levelo://app?vid=0a7e2862-d8ec-4c77-89d9-cfcdd51f8d75","ios":"levelo://app?vid=0a7e2862-d8ec-4c77-89d9-cfcdd51f8d75"},"vehicle_type_id":"4","last_reported":1753273375,"current_range_meters":17200,"station_id":"ce4bgt12rcd13ifvqcd0","pricing_plan_id":"cebpf4jnsgd1na2vs0mg"},{"bike_id":"727befe3-4906-4974-99f9-cba048f65336","system_id":"levelo_inurba_marseille","lat":43.32057,"lon":5.41558,"is_reserved":false,"is_disabled":false,"rental_uris":{"android":"levelo://app?vid=727befe3-4906-4974-99f9-cba048f65336","ios":"levelo://app?vid=727befe3-4906-4974-99f9-cba048f65336"},"vehicle_type_id":"4","last_reported":1753273375,"current_range_meters":17600,"station_id":"ce4bhq92rcd13ifvqhkg","pricing_plan_id":"cebpf4jnsgd1na2vs0mg"},{"bike_id":"9d2f6c7c-02cf-412a-b451-93aff1dcc242","system_id":"levelo_inurba_marseille","lat":43.30313,"lon":5.36914,"is_reserved":false,"is_disabled":false,"rental_uris":{"android":"levelo://app?vid=9d2f6c7c-02cf-412a-b451-93aff1dcc242","ios":"levelo://app?vid=9d2f6c7c-02cf-412a-b451-93aff1dcc242"},"vehicle_type_id":"4","last_reported":1753273375,"current_range_meters":17600,"station_id":"ce4bgqh2rcd13ifvqc5g","pricing_plan_id":"cebpf4jnsgd1na2vs0mg"},{"bike_id":"42b62a7a-5333-4d0d-bc9e-23fd13ad4be1","system_id":"levelo_inurba_marseille","lat":43.31165,"lon":5.38724,"is_reserved":false,"is_disabled":false,"rental_uris":{"android":"levelo://app?vid=42b62a7a-5333-4d0d-bc9e-23fd13ad4be1","ios":"levelo://app?vid=42b62a7a-5333-4d0d-bc9e-23fd13ad4be1"},"vehicle_type_id":"4","last_reported":1753273375,"current_range_meters":17600,"station_id":"ce4bgv12rcd13ifvqcp0","pricing_plan_id":"cebpf4jnsgd1na2vs0mg"},{"bike_id":"f842fdf6-95fe-4b37-8600-b468542720f1","system_id":"levelo_inurba_marseille","lat":43.259257,"lon":5.408863,"is_reserved":false,"is_disabled":false,"rental_uris":{"android":"levelo://app?vid=f842fdf6-95fe-4b37-8600-b468542720f1","ios":"levelo://app?vid=f842fdf6-95fe-4b37-8600-b468542720f1"},"vehicle_type_id":"4","last_reported":1753273375,"current_range_meters":17600,"station_id":"ce4bhm92rcd13ifvqglg","pricing_plan_id":"cebpf4jnsgd1na2vs0mg"},{"bike_id":"969aee98-593e-408d-b45b-fa00563cdfe3","system_id":"levelo_inurba_marseille","lat":43.28098,"lon":5.37834,"is_reserved":false,"is_disabled":false,"rental_uris":{"android":"levelo://app?vid=969aee98-593e-408d-b45b-fa00563cdfe3","ios":"levelo://app?vid=969aee98-593e-408d-b45b-fa00563cdfe3"},"vehicle_type_id":"4","last_reported":1753273375,"current_range_meters":17600,"station_id":"ce4bha12rcd13ifvqee0","pricing_plan_id":"cebpf4jnsgd1na2vs0mg"},{"bike_id":"5ac85406-65d0-4336-aa89-4b04b2e6689e","system_id":"levelo_inurba_marseille","lat":43.332753,"lon":5.419703,"is_reserved":false,"is_disabled":false,"rental_uris":{"android":"levelo://app?vid=5ac85406-65d0-4336-aa89-4b04b2e6689e","ios":"levelo://app?vid=5ac85406-65d0-4336-aa89-4b04b2e6689e"},"vehicle_type_id":"4","last_reported":1753273375,"current_range_meters":17600,"station_id":"","pricing_plan_id":"cebpf4jnsgd1na2vs0mg"},{"bike_id":"496cac02-0e91-4f64-97b9-cb34cf0ab931","system_id":"levelo_inurba_marseille","lat":43.22506,"lon":5.34788,"is_reserved":false,"is_disabled":false,"rental_uris":{"android":"levelo://app?vid=496cac02-0e91-4f64-97b9-cb34cf0ab931","ios":"levelo://app?vid=496cac02-0e91-4f64-97b9-cb34cf0ab931"},"vehicle_type_id":"4","last_reported":1753273375,"current_range_meters":17600,"station_id":"st_cvj5dfep6f1abm77gieg","pricing_plan_id":"cebpf4jnsgd1na2vs0mg"},{"bike_id":"847ea72f-678a-4d01-8f7f-605517a19cb8","system_id":"levelo_inurba_marseille","lat":43.28664,"lon":5.36353,"is_reserved":false,"is_disabled":false,"rental_uris":{"android":"levelo://app?vid=847ea72f-678a-4d01-8f7f-605517a19cb8","ios":"levelo://app?vid=847ea72f-678a-4d01-8f7f-605517a19cb8"},"vehicle_type_id":"4","last_reported":1753273375,"current_range_meters":17600,"station_id":"ce4bhah2rcd13ifvqej0","pricing_plan_id":"cebpf4jnsgd1na2vs0mg"},{"bike_id":"7a8cb97c-0034-46dc-a245-57a51b419f4c","system_id":"levelo_inurba_marseille","lat":43.30531,"lon":5.36745,"is_reserved":false,"is_disabled":false,"rental_uris":{"android":"levelo://app?vid=7a8cb97c-0034-46dc-a245-57a51b419f4c","ios":"levelo://app?vid=7a8cb97c-0034-46dc-a245-57a51b419f4c"},"vehicle_type_id":"4","last_reported":1753273375,"current_range_meters":17600,"station_id":"ce4bgrp2rcd13ifvqc9g","pricing_plan_id":"cebpf4jnsgd1na2vs0mg"},{"bike_id":"ae131367-d818-44a0-9e1d-4aa65dcdb16a","system_id":"levelo_inurba_marseille","lat":43.275,"lon":5.39659,"is_reserved":false,"is_disabled":false,"rental_uris":{"android":"levelo://app?vid=ae131367-d818-44a0-9e1d-4aa65dcdb16a","ios":"levelo://app?vid=ae131367-d818-44a0-9e1d-4aa65dcdb16a"},"vehicle_type_id":"4","last_reported":1753273375,"current_range_meters":17600,"station_id":"","pricing_plan_id":"cebpf4jnsgd1na2vs0mg"},{"bike_id":"eabf8af7-0ba6-4ed7-9dc1-8770e1d0db11","system_id":"levelo_inurba_marseille","lat":43.305287,"lon":5.367015,"is_reserved":false,"is_disabled":false,"rental_uris":{"android":"levelo://app?vid=eabf8af7-0ba6-4ed7-9dc1-8770e1d0db11","ios":"levelo://app?vid=eabf8af7-0ba6-4ed7-9dc1-8770e1d0db11"},"vehicle_type_id":"4","last_reported":1753273375,"current_range_meters":17600,"station_id":"ce4bgrp2rcd13ifvqc9g","pricing_plan_id":"cebpf4jnsgd1na2vs0mg"},{"bike_id":"7efcf337-4140-49e9-92b0-3f0aa143c851","system_id":"levelo_inurba_marseille","lat":43.298388,"lon":5.362635,"is_reserved":false,"is_disabled":false,"rental_uris":{"android":"levelo://app?vid=7efcf337-4140-49e9-92b0-3f0aa143c851","ios":"levelo://app?vid=7efcf337-4140-49e9-92b0-3f0aa143c851"},"vehicle_type_id":"4","last_reported":1753273375,"current_range_meters":17600,"station_id":"ce4bgpp2rcd13ifvqc3g","pricing_plan_id":"cebpf4jnsgd1na2vs0mg"},{"bike_id":"d080f169-ccd8-4ea1-b6c8-13da223d09cc","system_id":"levelo_inurba_marseille","lat":43.26212,"lon":5.37434,"is_reserved":false,"is_disabled":false,"rental_uris":{"android":"levelo://app?vid=d080f169-ccd8-4ea1-b6c8-13da223d09cc","ios":"levelo://app?vid=d080f169-ccd8-4ea1-b6c8-13da223d09cc"},"vehicle_type_id":"4","last_reported":1753273375,"current_range_meters":17600,"station_id":"ce4bhgp2rcd13ifvqfc0","pricing_plan_id":"cebpf4jnsgd1na2vs0mg"},{"bike_id":"3cd09fc8-9554-4236-8496-0931a7be09d1","system_id":"levelo_inurba_marseille","lat":43.21193,"lon":5.35082,"is_reserved":false,"is_disabled":false,"rental_uris":{"android":"levelo://app?vid=3cd09fc8-9554-4236-8496-0931a7be09d1","ios":"levelo://app?vid=3cd09fc8-9554-4236-8496-0931a7be09d1"},"vehicle_type_id":"4","last_reported":1753273375,"current_range_meters":17600,"station_id":"st_cvj6sg6p6f1abm77japg","pricing_plan_id":"cebpf4jnsgd1na2vs0mg"},{"bike_id":"6bb1f31c-9335-4f39-9585-31374a4775f9","system_id":"levelo_inurba_marseille","lat":43.325583,"lon":5.379059,"is_reserved":false,"is_disabled":false,"rental_uris":{"android":"levelo://app?vid=6bb1f31c-9335-4f39-9585-31374a4775f9","ios":"levelo://app?vid=6bb1f31c-9335-4f39-9585-31374a4775f9"},"vehicle_type_id":"4","last_reported":1753273375,"current_range_meters":17600,"station_id":"","pricing_plan_id":"cebpf4jnsgd1na2vs0mg"},{"bike_id":"908a65a2-61a6-4bc8-baac-11bc4d5e1e65","system_id":"levelo_inurba_marseille","lat":43.28273,"lon":5.35103,"is_reserved":false,"is_disabled":false,"rental_uris":{"android":"levelo://app?vid=908a65a2-61a6-4bc8-baac-11bc4d5e1e65","ios":"levelo://app?vid=908a65a2-61a6-4bc8-baac-11bc4d5e1e65"},"vehicle_type_id":"4","last_reported":1753273375,"current_range_meters":17600,"station_id":"ce4bhbp2rcd13ifvqerg","pricing_plan_id":"cebpf4jnsgd1na2vs0mg"},{"bike_id":"6021a504-979b-4f91-af66-2471777713cc","system_id":"levelo_inurba_marseille","lat":43.24157,"lon":5.36401,"is_reserved":false,"is_disabled":false,"rental_uris":{"android":"levelo://app?vid=6021a504-979b-4f91-af66-2471777713cc","ios":"levelo://app?vid=6021a504-979b-4f91-af66-2471777713cc"},"vehicle_type_id":"4","last_reported":1753273375,"current_range_meters":17600,"station_id":"cpo36qri1sfpv3e86is0","pricing_plan_id":"cebpf4jnsgd1na2vs0mg"},{"bike_id":"f48769e4-de2a-4e1b-b015-eb5c26c34679","system_id":"levelo_inurba_marseille","lat":43.28935,"lon":5.38398,"is_reserved":false,"is_disabled":false,"rental_uris":{"android":"levelo://app?vid=f48769e4-de2a-4e1b-b015-eb5c26c34679","ios":"levelo://app?vid=f48769e4-de2a-4e1b-b015-eb5c26c34679"},"vehicle_type_id":"4","last_reported":1753273375,"current_range_meters":18000,"station_id":"ce4bh612rcd13ifvqe6g","pricing_plan_id":"cebpf4jnsgd1na2vs0mg"},{"bike_id":"14168552-349d-439d-960a-cfdd0a062c30","system_id":"levelo_inurba_marseille","lat":43.31487,"lon":5.37315,"is_reserved":false,"is_disabled":false,"rental_uris":{"android":"levelo://app?vid=14168552-349d-439d-960a-cfdd0a062c30","ios":"levelo://app?vid=14168552-349d-439d-960a-cfdd0a062c30"},"vehicle_type_id":"4","last_reported":1753273375,"current_range_meters":18000,"station_id":"ce4bgt12rcd13ifvqcd0","pricing_plan_id":"cebpf4jnsgd1na2vs0mg"},{"bike_id":"c056311f-78c9-4e18-8685-91c659ddb125","system_id":"levelo_inurba_marseille","lat":43.31617,"lon":5.3896,"is_reserved":false,"is_disabled":false,"rental_uris":{"android":"levelo://app?vid=c056311f-78c9-4e18-8685-91c659ddb125","ios":"levelo://app?vid=c056311f-78c9-4e18-8685-91c659ddb125"},"vehicle_type_id":"4","last_reported":1753273375,"current_range_meters":18000,"station_id":"","pricing_plan_id":"cebpf4jnsgd1na2vs0mg"},{"bike_id":"70737bad-8214-4681-8a7d-fa98042cf105","system_id":"levelo_inurba_marseille","lat":43.29048,"lon":5.39992,"is_reserved":false,"is_disabled":false,"rental_uris":{"android":"levelo://app?vid=70737bad-8214-4681-8a7d-fa98042cf105","ios":"levelo://app?vid=70737bad-8214-4681-8a7d-fa98042cf105"},"vehicle_type_id":"4","last_reported":1753273375,"current_range_meters":18000,"station_id":"ce4bh392rcd13ifvqdm0","pricing_plan_id":"cebpf4jnsgd1na2vs0mg"},{"bike_id":"7573ccce-ef91-4f78-a7ee-c12fda672a92","system_id":"levelo_inurba_marseille","lat":43.23192,"lon":5.3554,"is_reserved":false,"is_disabled":false,"rental_uris":{"android":"levelo://app?vid=7573ccce-ef91-4f78-a7ee-c12fda672a92","ios":"levelo://app?vid=7573ccce-ef91-4f78-a7ee-c12fda672a92"},"vehicle_type_id":"4","last_reported":1753273375,"current_range_meters":18000,"station_id":"ce4bhu92rcd13ifvqi70","pricing_plan_id":"cebpf4jnsgd1na2vs0mg"},{"bike_id":"b6b8c031-0609-4230-b642-25bc0ff457a7","system_id":"levelo_inurba_marseille","lat":43.26551,"lon":5.37295,"is_reserved":false,"is_disabled":false,"rental_uris":{"android":"levelo://app?vid=b6b8c031-0609-4230-b642-25bc0ff457a7","ios":"levelo://app?vid=b6b8c031-0609-4230-b642-25bc0ff457a7"},"vehicle_type_id":"4","last_reported":1753273375,"current_range_meters":18000,"station_id":"ce4bhg12rcd13ifvqf70","pricing_plan_id":"cebpf4jnsgd1na2vs0mg"},{"bike_id":"b9a6498b-a764-497d-aceb-cf94d46f5140","system_id":"levelo_inurba_marseille","lat":43.28617,"lon":5.35114,"is_reserved":false,"is_disabled":false,"rental_uris":{"android":"levelo://app?vid=b9a6498b-a764-497d-aceb-cf94d46f5140","ios":"levelo://app?vid=b9a6498b-a764-497d-aceb-cf94d46f5140"},"vehicle_type_id":"4","last_reported":1753273375,"current_range_meters":18000,"station_id":"ce4bhch2rcd13ifvqeug","pricing_plan_id":"cebpf4jnsgd1na2vs0mg"},{"bike_id":"8ae20bdf-bf90-461a-986c-b66f491b84cd","system_id":"levelo_inurba_marseille","lat":43.30378,"lon":5.42505,"is_reserved":false,"is_disabled":false,"rental_uris":{"android":"levelo://app?vid=8ae20bdf-bf90-461a-986c-b66f491b84cd","ios":"levelo://app?vid=8ae20bdf-bf90-461a-986c-b66f491b84cd"},"vehicle_type_id":"4","last_reported":1753273375,"current_range_meters":18000,"station_id":"ce4bhoh2rcd13ifvqh6g","pricing_plan_id":"cebpf4jnsgd1na2vs0mg"},{"bike_id":"35d19269-3ae6-4c83-9c20-e3958e4b4cc9","system_id":"levelo_inurba_marseille","lat":43.30589,"lon":5.39355,"is_reserved":false,"is_disabled":false,"rental_uris":{"android":"levelo://app?vid=35d19269-3ae6-4c83-9c20-e3958e4b4cc9","ios":"levelo://app?vid=35d19269-3ae6-4c83-9c20-e3958e4b4cc9"},"vehicle_type_id":"4","last_reported":1753273375,"current_range_meters":18000,"station_id":"ce4bh0p2rcd13ifvqd80","pricing_plan_id":"cebpf4jnsgd1na2vs0mg"},{"bike_id":"54943e91-61ee-496b-9667-a7c6c3a25bb5","system_id":"levelo_inurba_marseille","lat":43.26211,"lon":5.37467,"is_reserved":false,"is_disabled":false,"rental_uris":{"android":"levelo://app?vid=54943e91-61ee-496b-9667-a7c6c3a25bb5","ios":"levelo://app?vid=54943e91-61ee-496b-9667-a7c6c3a25bb5"},"vehicle_type_id":"4","last_reported":1753273375,"current_range_meters":18000,"station_id":"ce4bhgp2rcd13ifvqfc0","pricing_plan_id":"cebpf4jnsgd1na2vs0mg"},{"bike_id":"d33a195d-1aba-4725-a7a9-74d21f9597a0","system_id":"levelo_inurba_marseille","lat":43.26213,"lon":5.37469,"is_reserved":false,"is_disabled":false,"rental_uris":{"android":"levelo://app?vid=d33a195d-1aba-4725-a7a9-74d21f9597a0","ios":"levelo://app?vid=d33a195d-1aba-4725-a7a9-74d21f9597a0"},"vehicle_type_id":"4","last_reported":1753273375,"current_range_meters":18800,"station_id":"ce4bhgp2rcd13ifvqfc0","pricing_plan_id":"cebpf4jnsgd1na2vs0mg"},{"bike_id":"f73cbad1-1fbe-45d4-9d1d-c2be60186fdf","system_id":"levelo_inurba_marseille","lat":43.26556,"lon":5.37286,"is_reserved":false,"is_disabled":false,"rental_uris":{"android":"levelo://app?vid=f73cbad1-1fbe-45d4-9d1d-c2be60186fdf","ios":"levelo://app?vid=f73cbad1-1fbe-45d4-9d1d-c2be60186fdf"},"vehicle_type_id":"4","last_reported":1753273375,"current_range_meters":18800,"station_id":"","pricing_plan_id":"cebpf4jnsgd1na2vs0mg"},{"bike_id":"d30f66f5-9995-4a0a-832b-41fe2c74d0c0","system_id":"levelo_inurba_marseille","lat":43.22507,"lon":5.34769,"is_reserved":false,"is_disabled":false,"rental_uris":{"android":"levelo://app?vid=d30f66f5-9995-4a0a-832b-41fe2c74d0c0","ios":"levelo://app?vid=d30f66f5-9995-4a0a-832b-41fe2c74d0c0"},"vehicle_type_id":"4","last_reported":1753273375,"current_range_meters":18800,"station_id":"st_cvj5dfep6f1abm77gieg","pricing_plan_id":"cebpf4jnsgd1na2vs0mg"},{"bike_id":"ffe7c89e-4c3f-48cf-ac1c-3ca3584d8208","system_id":"levelo_inurba_marseille","lat":43.264884,"lon":5.395429,"is_reserved":false,"is_disabled":false,"rental_uris":{"android":"levelo://app?vid=ffe7c89e-4c3f-48cf-ac1c-3ca3584d8208","ios":"levelo://app?vid=ffe7c89e-4c3f-48cf-ac1c-3ca3584d8208"},"vehicle_type_id":"4","last_reported":1753273375,"current_range_meters":18800,"station_id":"ce4bhi12rcd13ifvqfq0","pricing_plan_id":"cebpf4jnsgd1na2vs0mg"},{"bike_id":"1699da3b-157a-4d07-ba4d-8fe9df7d93c7","system_id":"levelo_inurba_marseille","lat":43.30375,"lon":5.41931,"is_reserved":false,"is_disabled":false,"rental_uris":{"android":"levelo://app?vid=1699da3b-157a-4d07-ba4d-8fe9df7d93c7","ios":"levelo://app?vid=1699da3b-157a-4d07-ba4d-8fe9df7d93c7"},"vehicle_type_id":"4","last_reported":1753273375,"current_range_meters":18800,"station_id":"","pricing_plan_id":"cebpf4jnsgd1na2vs0mg"},{"bike_id":"5b7771a9-5590-4ba2-9daa-db26dac2df15","system_id":"levelo_inurba_marseille","lat":43.275734,"lon":5.384195,"is_reserved":false,"is_disabled":false,"rental_uris":{"android":"levelo://app?vid=5b7771a9-5590-4ba2-9daa-db26dac2df15","ios":"levelo://app?vid=5b7771a9-5590-4ba2-9daa-db26dac2df15"},"vehicle_type_id":"4","last_reported":1753273375,"current_range_meters":18800,"station_id":"ce4bhh92rcd13ifvqfi0","pricing_plan_id":"cebpf4jnsgd1na2vs0mg"},{"bike_id":"70dd277f-ab1c-4eb1-a21c-8dc4fba5bf54","system_id":"levelo_inurba_marseille","lat":43.23185,"lon":5.43703,"is_reserved":false,"is_disabled":false,"rental_uris":{"android":"levelo://app?vid=70dd277f-ab1c-4eb1-a21c-8dc4fba5bf54","ios":"levelo://app?vid=70dd277f-ab1c-4eb1-a21c-8dc4fba5bf54"},"vehicle_type_id":"4","last_reported":1753273375,"current_range_meters":18800,"station_id":"ce4bhmp2rcd13ifvqgog","pricing_plan_id":"cebpf4jnsgd1na2vs0mg"},{"bike_id":"88ba686c-e916-48b4-a187-3089cccb5922","system_id":"levelo_inurba_marseille","lat":43.31488,"lon":5.37298,"is_reserved":false,"is_disabled":false,"rental_uris":{"android":"levelo://app?vid=88ba686c-e916-48b4-a187-3089cccb5922","ios":"levelo://app?vid=88ba686c-e916-48b4-a187-3089cccb5922"},"vehicle_type_id":"4","last_reported":1753273375,"current_range_meters":18800,"station_id":"ce4bgt12rcd13ifvqcd0","pricing_plan_id":"cebpf4jnsgd1na2vs0mg"},{"bike_id":"18b86593-4f21-41ed-81b3-f3a5b378dc91","system_id":"levelo_inurba_marseille","lat":43.312339,"lon":5.381309,"is_reserved":false,"is_disabled":false,"rental_uris":{"android":"levelo://app?vid=18b86593-4f21-41ed-81b3-f3a5b378dc91","ios":"levelo://app?vid=18b86593-4f21-41ed-81b3-f3a5b378dc91"},"vehicle_type_id":"4","last_reported":1753273375,"current_range_meters":18800,"station_id":"","pricing_plan_id":"cebpf4jnsgd1na2vs0mg"},{"bike_id":"1ad257b5-7f83-42c1-867f-92635ff1abbf","system_id":"levelo_inurba_marseille","lat":43.22924,"lon":5.35389,"is_reserved":false,"is_disabled":false,"rental_uris":{"android":"levelo://app?vid=1ad257b5-7f83-42c1-867f-92635ff1abbf","ios":"levelo://app?vid=1ad257b5-7f83-42c1-867f-92635ff1abbf"},"vehicle_type_id":"4","last_reported":1753273375,"current_range_meters":18800,"station_id":"cpo3532slgdg3j2ikp40","pricing_plan_id":"cebpf4jnsgd1na2vs0mg"},{"bike_id":"0d3ab85f-936e-4768-80a8-86a6cdc1d32d","system_id":"levelo_inurba_marseille","lat":43.29925,"lon":5.37469,"is_reserved":false,"is_disabled":false,"rental_uris":{"android":"levelo://app?vid=0d3ab85f-936e-4768-80a8-86a6cdc1d32d","ios":"levelo://app?vid=0d3ab85f-936e-4768-80a8-86a6cdc1d32d"},"vehicle_type_id":"4","last_reported":1753273375,"current_range_meters":18800,"station_id":"ce4bgjh2rcd13ifvqbg0","pricing_plan_id":"cebpf4jnsgd1na2vs0mg"},{"bike_id":"049fda93-85a8-4ccd-a1df-9139ba5751bc","system_id":"levelo_inurba_marseille","lat":43.248072,"lon":5.374505,"is_reserved":false,"is_disabled":false,"rental_uris":{"android":"levelo://app?vid=049fda93-85a8-4ccd-a1df-9139ba5751bc","ios":"levelo://app?vid=049fda93-85a8-4ccd-a1df-9139ba5751bc"},"vehicle_type_id":"4","last_reported":1753273375,"current_range_meters":18800,"station_id":"ce4bhgh2rcd13ifvqfb0","pricing_plan_id":"cebpf4jnsgd1na2vs0mg"},{"bike_id":"0063384d-b427-49db-b8ac-b40219c5e899","system_id":"levelo_inurba_marseille","lat":43.29576,"lon":5.375077,"is_reserved":false,"is_disabled":false,"rental_uris":{"android":"levelo://app?vid=0063384d-b427-49db-b8ac-b40219c5e899","ios":"levelo://app?vid=0063384d-b427-49db-b8ac-b40219c5e899"},"vehicle_type_id":"4","last_reported":1753273375,"current_range_meters":19200,"station_id":"ce4bgh92rcd13ifvqb50","pricing_plan_id":"cebpf4jnsgd1na2vs0mg"},{"bike_id":"b1dbcaf1-bfc6-4e0a-9a80-297fdd0c1f07","system_id":"levelo_inurba_marseille","lat":43.26212,"lon":5.3744,"is_reserved":false,"is_disabled":false,"rental_uris":{"android":"levelo://app?vid=b1dbcaf1-bfc6-4e0a-9a80-297fdd0c1f07","ios":"levelo://app?vid=b1dbcaf1-bfc6-4e0a-9a80-297fdd0c1f07"},"vehicle_type_id":"4","last_reported":1753273375,"current_range_meters":19200,"station_id":"ce4bhgp2rcd13ifvqfc0","pricing_plan_id":"cebpf4jnsgd1na2vs0mg"},{"bike_id":"5d2a4027-c4e2-4789-b8d3-60410bc4c347","system_id":"levelo_inurba_marseille","lat":43.25008,"lon":5.38915,"is_reserved":false,"is_disabled":false,"rental_uris":{"android":"levelo://app?vid=5d2a4027-c4e2-4789-b8d3-60410bc4c347","ios":"levelo://app?vid=5d2a4027-c4e2-4789-b8d3-60410bc4c347"},"vehicle_type_id":"4","last_reported":1753273375,"current_range_meters":19200,"station_id":"ce4bhgp2rcd13ifvqfd0","pricing_plan_id":"cebpf4jnsgd1na2vs0mg"},{"bike_id":"61cb5b9a-9cee-4d3f-8bba-365148ee2e42","system_id":"levelo_inurba_marseille","lat":43.25881,"lon":5.39931,"is_reserved":false,"is_disabled":false,"rental_uris":{"android":"levelo://app?vid=61cb5b9a-9cee-4d3f-8bba-365148ee2e42","ios":"levelo://app?vid=61cb5b9a-9cee-4d3f-8bba-365148ee2e42"},"vehicle_type_id":"4","last_reported":1753273375,"current_range_meters":19200,"station_id":"ce4bhl92rcd13ifvqghg","pricing_plan_id":"cebpf4jnsgd1na2vs0mg"},{"bike_id":"c481b9d4-1965-471c-83ec-29798fd46056","system_id":"levelo_inurba_marseille","lat":43.28616,"lon":5.35106,"is_reserved":false,"is_disabled":false,"rental_uris":{"android":"levelo://app?vid=c481b9d4-1965-471c-83ec-29798fd46056","ios":"levelo://app?vid=c481b9d4-1965-471c-83ec-29798fd46056"},"vehicle_type_id":"4","last_reported":1753273375,"current_range_meters":19200,"station_id":"ce4bhch2rcd13ifvqeug","pricing_plan_id":"cebpf4jnsgd1na2vs0mg"},{"bike_id":"750d370d-abb4-47b3-b4f7-7ef76b03801f","system_id":"levelo_inurba_marseille","lat":43.2969,"lon":5.37964,"is_reserved":false,"is_disabled":false,"rental_uris":{"android":"levelo://app?vid=750d370d-abb4-47b3-b4f7-7ef76b03801f","ios":"levelo://app?vid=750d370d-abb4-47b3-b4f7-7ef76b03801f"},"vehicle_type_id":"4","last_reported":1753273375,"current_range_meters":19200,"station_id":"","pricing_plan_id":"cebpf4jnsgd1na2vs0mg"},{"bike_id":"20586eb9-d076-4483-9da1-32bd7f971b1a","system_id":"levelo_inurba_marseille","lat":43.25926,"lon":5.40902,"is_reserved":false,"is_disabled":false,"rental_uris":{"android":"levelo://app?vid=20586eb9-d076-4483-9da1-32bd7f971b1a","ios":"levelo://app?vid=20586eb9-d076-4483-9da1-32bd7f971b1a"},"vehicle_type_id":"4","last_reported":1753273375,"current_range_meters":19200,"station_id":"ce4bhm92rcd13ifvqglg","pricing_plan_id":"cebpf4jnsgd1na2vs0mg"},{"bike_id":"8006020a-6cfe-4131-82ca-a6c8f07671d2","system_id":"levelo_inurba_marseille","lat":43.31185,"lon":5.37721,"is_reserved":false,"is_disabled":false,"rental_uris":{"android":"levelo://app?vid=8006020a-6cfe-4131-82ca-a6c8f07671d2","ios":"levelo://app?vid=8006020a-6cfe-4131-82ca-a6c8f07671d2"},"vehicle_type_id":"4","last_reported":1753273375,"current_range_meters":19200,"station_id":"","pricing_plan_id":"cebpf4jnsgd1na2vs0mg"},{"bike_id":"8dce1851-c0a1-4370-9cb3-33c9098524ad","system_id":"levelo_inurba_marseille","lat":43.26226,"lon":5.40451,"is_reserved":false,"is_disabled":false,"rental_uris":{"android":"levelo://app?vid=8dce1851-c0a1-4370-9cb3-33c9098524ad","ios":"levelo://app?vid=8dce1851-c0a1-4370-9cb3-33c9098524ad"},"vehicle_type_id":"4","last_reported":1753273375,"current_range_meters":19200,"station_id":"ce4bhmh2rcd13ifvqgmg","pricing_plan_id":"cebpf4jnsgd1na2vs0mg"},{"bike_id":"76c65f84-3b49-4269-890c-8259fe6ade74","system_id":"levelo_inurba_marseille","lat":43.32367,"lon":5.36769,"is_reserved":false,"is_disabled":false,"rental_uris":{"android":"levelo://app?vid=76c65f84-3b49-4269-890c-8259fe6ade74","ios":"levelo://app?vid=76c65f84-3b49-4269-890c-8259fe6ade74"},"vehicle_type_id":"4","last_reported":1753273375,"current_range_meters":19200,"station_id":"ce4bhsh2rcd13ifvqi2g","pricing_plan_id":"cebpf4jnsgd1na2vs0mg"},{"bike_id":"3005e616-9f5e-429a-b40e-b7fbed23d489","system_id":"levelo_inurba_marseille","lat":43.24382,"lon":5.37069,"is_reserved":false,"is_disabled":false,"rental_uris":{"android":"levelo://app?vid=3005e616-9f5e-429a-b40e-b7fbed23d489","ios":"levelo://app?vid=3005e616-9f5e-429a-b40e-b7fbed23d489"},"vehicle_type_id":"4","last_reported":1753273375,"current_range_meters":19200,"station_id":"ce4bhhh2rcd13ifvqfk0","pricing_plan_id":"cebpf4jnsgd1na2vs0mg"},{"bike_id":"e246d1c9-8a7e-4c9d-983b-668f75fd83e7","system_id":"levelo_inurba_marseille","lat":43.26554,"lon":5.37297,"is_reserved":false,"is_disabled":false,"rental_uris":{"android":"levelo://app?vid=e246d1c9-8a7e-4c9d-983b-668f75fd83e7","ios":"levelo://app?vid=e246d1c9-8a7e-4c9d-983b-668f75fd83e7"},"vehicle_type_id":"4","last_reported":1753273375,"current_range_meters":19200,"station_id":"ce4bhg12rcd13ifvqf70","pricing_plan_id":"cebpf4jnsgd1na2vs0mg"},{"bike_id":"df519d99-7173-44e0-99ec-500bf86603c8","system_id":"levelo_inurba_marseille","lat":43.248066,"lon":5.374585,"is_reserved":false,"is_disabled":false,"rental_uris":{"android":"levelo://app?vid=df519d99-7173-44e0-99ec-500bf86603c8","ios":"levelo://app?vid=df519d99-7173-44e0-99ec-500bf86603c8"},"vehicle_type_id":"4","last_reported":1753273375,"current_range_meters":19600,"station_id":"ce4bhgh2rcd13ifvqfb0","pricing_plan_id":"cebpf4jnsgd1na2vs0mg"},{"bike_id":"cebbc3b6-4cc7-4dfc-95eb-2a61f47c2a68","system_id":"levelo_inurba_marseille","lat":43.32356,"lon":5.367484,"is_reserved":false,"is_disabled":false,"rental_uris":{"android":"levelo://app?vid=cebbc3b6-4cc7-4dfc-95eb-2a61f47c2a68","ios":"levelo://app?vid=cebbc3b6-4cc7-4dfc-95eb-2a61f47c2a68"},"vehicle_type_id":"4","last_reported":1753273375,"current_range_meters":19600,"station_id":"ce4bhsh2rcd13ifvqi2g","pricing_plan_id":"cebpf4jnsgd1na2vs0mg"},{"bike_id":"5b276880-0177-4a1a-a4e7-7bbbb23f7455","system_id":"levelo_inurba_marseille","lat":43.27073,"lon":5.4228,"is_reserved":false,"is_disabled":false,"rental_uris":{"android":"levelo://app?vid=5b276880-0177-4a1a-a4e7-7bbbb23f7455","ios":"levelo://app?vid=5b276880-0177-4a1a-a4e7-7bbbb23f7455"},"vehicle_type_id":"4","last_reported":1753273375,"current_range_meters":19600,"station_id":"ce4bhk92rcd13ifvqgb0","pricing_plan_id":"cebpf4jnsgd1na2vs0mg"},{"bike_id":"e778c5df-25ef-4e96-9df9-175ecefe3cb1","system_id":"levelo_inurba_marseille","lat":43.30471,"lon":5.37898,"is_reserved":false,"is_disabled":false,"rental_uris":{"android":"levelo://app?vid=e778c5df-25ef-4e96-9df9-175ecefe3cb1","ios":"levelo://app?vid=e778c5df-25ef-4e96-9df9-175ecefe3cb1"},"vehicle_type_id":"4","last_reported":1753273375,"current_range_meters":19600,"station_id":"ce4bgup2rcd13ifvqcn0","pricing_plan_id":"cebpf4jnsgd1na2vs0mg"},{"bike_id":"1d7fe32e-4c02-41d4-b05b-29aca57e1c1b","system_id":"levelo_inurba_marseille","lat":43.217487,"lon":5.346012,"is_reserved":false,"is_disabled":false,"rental_uris":{"android":"levelo://app?vid=1d7fe32e-4c02-41d4-b05b-29aca57e1c1b","ios":"levelo://app?vid=1d7fe32e-4c02-41d4-b05b-29aca57e1c1b"},"vehicle_type_id":"4","last_reported":1753273375,"current_range_meters":19600,"station_id":"st_cvj6r9ubvosntc0bgbag","pricing_plan_id":"cebpf4jnsgd1na2vs0mg"},{"bike_id":"77787b35-f710-4176-af5e-defc5fb2a6a3","system_id":"levelo_inurba_marseille","lat":43.28613,"lon":5.35102,"is_reserved":false,"is_disabled":false,"rental_uris":{"android":"levelo://app?vid=77787b35-f710-4176-af5e-defc5fb2a6a3","ios":"levelo://app?vid=77787b35-f710-4176-af5e-defc5fb2a6a3"},"vehicle_type_id":"4","last_reported":1753273375,"current_range_meters":19600,"station_id":"ce4bhch2rcd13ifvqeug","pricing_plan_id":"cebpf4jnsgd1na2vs0mg"},{"bike_id":"a26d59f0-cf3e-4ca2-aa00-56dbffc54e02","system_id":"levelo_inurba_marseille","lat":43.28409,"lon":5.37522,"is_reserved":false,"is_disabled":false,"rental_uris":{"android":"levelo://app?vid=a26d59f0-cf3e-4ca2-aa00-56dbffc54e02","ios":"levelo://app?vid=a26d59f0-cf3e-4ca2-aa00-56dbffc54e02"},"vehicle_type_id":"4","last_reported":1753273375,"current_range_meters":19600,"station_id":"ce4bh412rcd13ifvqds0","pricing_plan_id":"cebpf4jnsgd1na2vs0mg"},{"bike_id":"f7f07796-c7c9-4a74-80e9-fb85744448b8","system_id":"levelo_inurba_marseille","lat":43.2294,"lon":5.35372,"is_reserved":false,"is_disabled":false,"rental_uris":{"android":"levelo://app?vid=f7f07796-c7c9-4a74-80e9-fb85744448b8","ios":"levelo://app?vid=f7f07796-c7c9-4a74-80e9-fb85744448b8"},"vehicle_type_id":"4","last_reported":1753273375,"current_range_meters":19600,"station_id":"cpo3532slgdg3j2ikp40","pricing_plan_id":"cebpf4jnsgd1na2vs0mg"},{"bike_id":"b7dad234-e0b1-49ef-a753-683227550af8","system_id":"levelo_inurba_marseille","lat":43.30924,"lon":5.36842,"is_reserved":false,"is_disabled":false,"rental_uris":{"android":"levelo://app?vid=b7dad234-e0b1-49ef-a753-683227550af8","ios":"levelo://app?vid=b7dad234-e0b1-49ef-a753-683227550af8"},"vehicle_type_id":"4","last_reported":1753273375,"current_range_meters":19600,"station_id":"ce4bgn92rcd13ifvqbvg","pricing_plan_id":"cebpf4jnsgd1na2vs0mg"},{"bike_id":"5c766fe4-cf4b-4a21-832f-32c779404b21","system_id":"levelo_inurba_marseille","lat":43.29023,"lon":5.38635,"is_reserved":false,"is_disabled":false,"rental_uris":{"android":"levelo://app?vid=5c766fe4-cf4b-4a21-832f-32c779404b21","ios":"levelo://app?vid=5c766fe4-cf4b-4a21-832f-32c779404b21"},"vehicle_type_id":"4","last_reported":1753273375,"current_range_meters":19600,"station_id":"ce4bh4p2rcd13ifvqe0g","pricing_plan_id":"cebpf4jnsgd1na2vs0mg"},{"bike_id":"35a86048-76dd-4de0-afb2-7da8772fad44","system_id":"levelo_inurba_marseille","lat":43.21525,"lon":5.34731,"is_reserved":false,"is_disabled":false,"rental_uris":{"android":"levelo://app?vid=35a86048-76dd-4de0-afb2-7da8772fad44","ios":"levelo://app?vid=35a86048-76dd-4de0-afb2-7da8772fad44"},"vehicle_type_id":"4","last_reported":1753273375,"current_range_meters":19600,"station_id":"","pricing_plan_id":"cebpf4jnsgd1na2vs0mg"},{"bike_id":"154842fb-66cb-4d03-b336-ad8705751d21","system_id":"levelo_inurba_marseille","lat":43.27945,"lon":5.41046,"is_reserved":false,"is_disabled":false,"rental_uris":{"android":"levelo://app?vid=154842fb-66cb-4d03-b336-ad8705751d21","ios":"levelo://app?vid=154842fb-66cb-4d03-b336-ad8705751d21"},"vehicle_type_id":"4","last_reported":1753273375,"current_range_meters":19600,"station_id":"ce4bhnp2rcd13ifvqh0g","pricing_plan_id":"cebpf4jnsgd1na2vs0mg"},{"bike_id":"47b1ab6d-7e74-42f7-9aaa-2031c6b36798","system_id":"levelo_inurba_marseille","lat":43.29264,"lon":5.38435,"is_reserved":false,"is_disabled":false,"rental_uris":{"android":"levelo://app?vid=47b1ab6d-7e74-42f7-9aaa-2031c6b36798","ios":"levelo://app?vid=47b1ab6d-7e74-42f7-9aaa-2031c6b36798"},"vehicle_type_id":"4","last_reported":1753273375,"current_range_meters":19600,"station_id":"ce4bh692rcd13ifvqea0","pricing_plan_id":"cebpf4jnsgd1na2vs0mg"},{"bike_id":"9aa47823-0d4c-4dea-8195-798a2b3d76a9","system_id":"levelo_inurba_marseille","lat":43.29593,"lon":5.38109,"is_reserved":false,"is_disabled":false,"rental_uris":{"android":"levelo://app?vid=9aa47823-0d4c-4dea-8195-798a2b3d76a9","ios":"levelo://app?vid=9aa47823-0d4c-4dea-8195-798a2b3d76a9"},"vehicle_type_id":"4","last_reported":1753273375,"current_range_meters":20000,"station_id":"ce4bgl12rcd13ifvqbo0","pricing_plan_id":"cebpf4jnsgd1na2vs0mg"},{"bike_id":"eaea15aa-98ae-4f78-b37a-80e2e4524837","system_id":"levelo_inurba_marseille","lat":43.297916,"lon":5.381026,"is_reserved":false,"is_disabled":false,"rental_uris":{"android":"levelo://app?vid=eaea15aa-98ae-4f78-b37a-80e2e4524837","ios":"levelo://app?vid=eaea15aa-98ae-4f78-b37a-80e2e4524837"},"vehicle_type_id":"4","last_reported":1753273375,"current_range_meters":20000,"station_id":"","pricing_plan_id":"cebpf4jnsgd1na2vs0mg"},{"bike_id":"15d367de-17b0-4dc7-a6ae-9f74942a498e","system_id":"levelo_inurba_marseille","lat":43.30575,"lon":5.37253,"is_reserved":false,"is_disabled":false,"rental_uris":{"android":"levelo://app?vid=15d367de-17b0-4dc7-a6ae-9f74942a498e","ios":"levelo://app?vid=15d367de-17b0-4dc7-a6ae-9f74942a498e"},"vehicle_type_id":"4","last_reported":1753273375,"current_range_meters":20000,"station_id":"ce4bgqh2rcd13ifvqc4g","pricing_plan_id":"cebpf4jnsgd1na2vs0mg"},{"bike_id":"ace7e9f2-d583-4157-aafd-35aba7652150","system_id":"levelo_inurba_marseille","lat":43.2842,"lon":5.3497,"is_reserved":false,"is_disabled":false,"rental_uris":{"android":"levelo://app?vid=ace7e9f2-d583-4157-aafd-35aba7652150","ios":"levelo://app?vid=ace7e9f2-d583-4157-aafd-35aba7652150"},"vehicle_type_id":"4","last_reported":1753273375,"current_range_meters":20000,"station_id":"ce4bhbh2rcd13ifvqepg","pricing_plan_id":"cebpf4jnsgd1na2vs0mg"},{"bike_id":"66573328-cce6-4ec1-bbb6-cb5d6bb22ede","system_id":"levelo_inurba_marseille","lat":43.28272,"lon":5.35077,"is_reserved":false,"is_disabled":false,"rental_uris":{"android":"levelo://app?vid=66573328-cce6-4ec1-bbb6-cb5d6bb22ede","ios":"levelo://app?vid=66573328-cce6-4ec1-bbb6-cb5d6bb22ede"},"vehicle_type_id":"4","last_reported":1753273375,"current_range_meters":20400,"station_id":"ce4bhbp2rcd13ifvqerg","pricing_plan_id":"cebpf4jnsgd1na2vs0mg"},{"bike_id":"3e7a6c9e-1ec8-4c70-9bc0-27ea105ed580","system_id":"levelo_inurba_marseille","lat":43.28145,"lon":5.42666,"is_reserved":false,"is_disabled":false,"rental_uris":{"android":"levelo://app?vid=3e7a6c9e-1ec8-4c70-9bc0-27ea105ed580","ios":"levelo://app?vid=3e7a6c9e-1ec8-4c70-9bc0-27ea105ed580"},"vehicle_type_id":"4","last_reported":1753273375,"current_range_meters":20400,"station_id":"ce4bhnh2rcd13ifvqgug","pricing_plan_id":"cebpf4jnsgd1na2vs0mg"},{"bike_id":"085cc398-265e-4402-bcb0-4ca5061b4738","system_id":"levelo_inurba_marseille","lat":43.22926,"lon":5.35381,"is_reserved":false,"is_disabled":false,"rental_uris":{"android":"levelo://app?vid=085cc398-265e-4402-bcb0-4ca5061b4738","ios":"levelo://app?vid=085cc398-265e-4402-bcb0-4ca5061b4738"},"vehicle_type_id":"4","last_reported":1753273375,"current_range_meters":20400,"station_id":"cpo3532slgdg3j2ikp40","pricing_plan_id":"cebpf4jnsgd1na2vs0mg"},{"bike_id":"395fcc95-9e25-41c4-a4f7-c969641286d4","system_id":"levelo_inurba_marseille","lat":43.304705,"lon":5.379074,"is_reserved":false,"is_disabled":false,"rental_uris":{"android":"levelo://app?vid=395fcc95-9e25-41c4-a4f7-c969641286d4","ios":"levelo://app?vid=395fcc95-9e25-41c4-a4f7-c969641286d4"},"vehicle_type_id":"4","last_reported":1753273375,"current_range_meters":20400,"station_id":"ce4bgup2rcd13ifvqcn0","pricing_plan_id":"cebpf4jnsgd1na2vs0mg"},{"bike_id":"1190fa2b-252f-461e-a00c-d8b01962702c","system_id":"levelo_inurba_marseille","lat":43.239207,"lon":5.362714,"is_reserved":false,"is_disabled":false,"rental_uris":{"android":"levelo://app?vid=1190fa2b-252f-461e-a00c-d8b01962702c","ios":"levelo://app?vid=1190fa2b-252f-461e-a00c-d8b01962702c"},"vehicle_type_id":"4","last_reported":1753273375,"current_range_meters":20400,"station_id":"cpo3342slgdg3j2ifvpg","pricing_plan_id":"cebpf4jnsgd1na2vs0mg"},{"bike_id":"aeddf888-272a-4f1e-b634-4e92cfed4ec9","system_id":"levelo_inurba_marseille","lat":43.30601,"lon":5.37238,"is_reserved":false,"is_disabled":false,"rental_uris":{"android":"levelo://app?vid=aeddf888-272a-4f1e-b634-4e92cfed4ec9","ios":"levelo://app?vid=aeddf888-272a-4f1e-b634-4e92cfed4ec9"},