{"last_updated":1748852156,"ttl":60,"version":"2.2","data":{"bikes":[{"bike_id":"c9c78cf4-0c6b-41e2-b946-04937c22ec3e","system_id":"levelo_inurba_marseille","lat":43.291882,"lon":5.422511,"is_reserved":false,"is_disabled":true,"rental_uris":{"android":"levelo://app?vid=c9c78cf4-0c6b-41e2-b946-04937c22ec3e","ios":"levelo://app?vid=c9c78cf4-0c6b-41e2-b946-04937c22ec3e"},"vehicle_type_id":"4","last_reported":1748852156,"current_range_meters":2800,"station_id":"","pricing_plan_id":"cebpf4jnsgd1na2vs0mg"},{"bike_id":"733853d0-ff88-4f9f-a5c9-89b018d1191c","system_id":"levelo_inurba_marseille","lat":43.24551,"lon":5.39525,"is_reserved":false,"is_disabled":false,"rental_uris":{"android":"levelo://app?vid=733853d0-ff88-4f9f-a5c9-89b018d1191c","ios":"levelo://app?vid=733853d0-ff88-4f9f-a5c9-89b018d1191c"},"vehicle_type_id":"4","last_reported":1748852156,"current_range_meters":2000,"station_id":"ce4bhlp2rcd13ifvqgjg","pricing_plan_id":"cebpf4jnsgd1na2vs0mg"},{"bike_id":"0d3bab2f-26cf-41f1-82dd-bb5db963b288","system_id":"levelo_inurba_marseille","lat":43.32542,"lon":5.36483,"is_reserved":false,"is_disabled":true,"rental_uris":{"android":"levelo://app?vid=0d3bab2f-26cf-41f1-82dd-bb5db963b288","ios":"levelo://app?vid=0d3bab2f-26cf-41f1-82dd-bb5db963b288"},"vehicle_type_id":"4","last_reported":1748852156,"current_range_meters":3200,"station_id":"","pricing_plan_id":"cebpf4jnsgd1na2vs0mg"},{"bike_id":"06994620-84f3-454f-a901-bcf2100ada98","system_id":"levelo_inurba_marseille","lat":43.283494,"lon":5.381027,"is_reserved":false,"is_disabled":false,"rental_uris":{"android":"levelo://app?vid=06994620-84f3-454f-a901-bcf2100ada98","ios":"levelo://app?vid=06994620-84f3-454f-a901-bcf2100ada98"},"vehicle_type_id":"4","last_reported":1748852156,"current_range_meters":3200,"station_id":"ce4bh412rcd13ifvqdr0","pricing_plan_id":"cebpf4jnsgd1na2vs0mg"},{"bike_id":"8704dbf8-b0fe-46dd-8c36-e60a74964ebe","system_id":"levelo_inurba_marseille","lat":43.31711,"lon":5.43704,"is_reserved":false,"is_disabled":true,"rental_uris":{"android":"levelo://app?vid=8704dbf8-b0fe-46dd-8c36-e60a74964ebe","ios":"levelo://app?vid=8704dbf8-b0fe-46dd-8c36-e60a74964ebe"},"vehicle_type_id":"4","last_reported":1748852156,"current_range_meters":3200,"station_id":"ce4bhp92rcd13ifvqhcg","pricing_plan_id":"cebpf4jnsgd1na2vs0mg"},{"bike_id":"5f7389cd-e6f2-4261-964f-40fb995bf377","system_id":"levelo_inurba_marseille","lat":43.292583,"lon":5.376203,"is_reserved":false,"is_disabled":false,"rental_uris":{"android":"levelo://app?vid=5f7389cd-e6f2-4261-964f-40fb995bf377","ios":"levelo://app?vid=5f7389cd-e6f2-4261-964f-40fb995bf377"},"vehicle_type_id":"4","last_reported":1748852156,"current_range_meters":3600,"station_id":"ce4bgi12rcd13ifvqb80","pricing_plan_id":"cebpf4jnsgd1na2vs0mg"},{"bike_id":"3d5042e2-4d9c-4701-992c-38735d29e1a8","system_id":"levelo_inurba_marseille","lat":43.299225,"lon":5.37473,"is_reserved":false,"is_disabled":false,"rental_uris":{"android":"levelo://app?vid=3d5042e2-4d9c-4701-992c-38735d29e1a8","ios":"levelo://app?vid=3d5042e2-4d9c-4701-992c-38735d29e1a8"},"vehicle_type_id":"4","last_reported":1748852156,"current_range_meters":3600,"station_id":"ce4bgjh2rcd13ifvqbg0","pricing_plan_id":"cebpf4jnsgd1na2vs0mg"},{"bike_id":"59ae54bb-ea00-4726-8c0c-f78e033628de","system_id":"levelo_inurba_marseille","lat":43.320069,"lon":5.394663,"is_reserved":false,"is_disabled":false,"rental_uris":{"android":"levelo://app?vid=59ae54bb-ea00-4726-8c0c-f78e033628de","ios":"levelo://app?vid=59ae54bb-ea00-4726-8c0c-f78e033628de"},"vehicle_type_id":"4","last_reported":1748852156,"current_range_meters":4000,"station_id":"","pricing_plan_id":"cebpf4jnsgd1na2vs0mg"},{"bike_id":"88e80cb1-a39c-4880-a67a-3f4612683930","system_id":"levelo_inurba_marseille","lat":43.30377,"lon":5.42484,"is_reserved":false,"is_disabled":false,"rental_uris":{"android":"levelo://app?vid=88e80cb1-a39c-4880-a67a-3f4612683930","ios":"levelo://app?vid=88e80cb1-a39c-4880-a67a-3f4612683930"},"vehicle_type_id":"4","last_reported":1748852156,"current_range_meters":4000,"station_id":"ce4bhoh2rcd13ifvqh6g","pricing_plan_id":"cebpf4jnsgd1na2vs0mg"},{"bike_id":"44e97acb-5d32-4e60-829d-8a59ab42229b","system_id":"levelo_inurba_marseille","lat":43.273571,"lon":5.362525,"is_reserved":false,"is_disabled":false,"rental_uris":{"android":"levelo://app?vid=44e97acb-5d32-4e60-829d-8a59ab42229b","ios":"levelo://app?vid=44e97acb-5d32-4e60-829d-8a59ab42229b"},"vehicle_type_id":"4","last_reported":1748852156,"current_range_meters":4400,"station_id":"","pricing_plan_id":"cebpf4jnsgd1na2vs0mg"},{"bike_id":"29c628ad-475a-4d0f-a822-5592df28bf52","system_id":"levelo_inurba_marseille","lat":43.26207,"lon":5.40462,"is_reserved":false,"is_disabled":false,"rental_uris":{"android":"levelo://app?vid=29c628ad-475a-4d0f-a822-5592df28bf52","ios":"levelo://app?vid=29c628ad-475a-4d0f-a822-5592df28bf52"},"vehicle_type_id":"4","last_reported":1748852156,"current_range_meters":4400,"station_id":"ce4bhmh2rcd13ifvqgmg","pricing_plan_id":"cebpf4jnsgd1na2vs0mg"},{"bike_id":"0b947903-edf7-4c6f-af75-873d4ee67cbf","system_id":"levelo_inurba_marseille","lat":43.29898,"lon":5.43676,"is_reserved":false,"is_disabled":false,"rental_uris":{"android":"levelo://app?vid=0b947903-edf7-4c6f-af75-873d4ee67cbf","ios":"levelo://app?vid=0b947903-edf7-4c6f-af75-873d4ee67cbf"},"vehicle_type_id":"4","last_reported":1748852156,"current_range_meters":4800,"station_id":"ce4bhpp2rcd13ifvqhfg","pricing_plan_id":"cebpf4jnsgd1na2vs0mg"},{"bike_id":"e47328f9-fc7f-45b3-881c-e35ac1fd8bc5","system_id":"levelo_inurba_marseille","lat":43.27215,"lon":5.39184,"is_reserved":false,"is_disabled":false,"rental_uris":{"android":"levelo://app?vid=e47328f9-fc7f-45b3-881c-e35ac1fd8bc5","ios":"levelo://app?vid=e47328f9-fc7f-45b3-881c-e35ac1fd8bc5"},"vehicle_type_id":"4","last_reported":1748852156,"current_range_meters":4400,"station_id":"ce4bhhp2rcd13ifvqfm0","pricing_plan_id":"cebpf4jnsgd1na2vs0mg"},{"bike_id":"b12db39e-b6e4-48fc-9526-16d49e39e213","system_id":"levelo_inurba_marseille","lat":43.23139,"lon":5.43715,"is_reserved":false,"is_disabled":false,"rental_uris":{"android":"levelo://app?vid=b12db39e-b6e4-48fc-9526-16d49e39e213","ios":"levelo://app?vid=b12db39e-b6e4-48fc-9526-16d49e39e213"},"vehicle_type_id":"4","last_reported":1748852156,"current_range_meters":5600,"station_id":"ce4bhmp2rcd13ifvqgog","pricing_plan_id":"cebpf4jnsgd1na2vs0mg"},{"bike_id":"b4aa2a89-0653-4c41-a8b8-2ef140501c2b","system_id":"levelo_inurba_marseille","lat":43.3035,"lon":5.41883,"is_reserved":false,"is_disabled":false,"rental_uris":{"android":"levelo://app?vid=b4aa2a89-0653-4c41-a8b8-2ef140501c2b","ios":"levelo://app?vid=b4aa2a89-0653-4c41-a8b8-2ef140501c2b"},"vehicle_type_id":"4","last_reported":1748852156,"current_range_meters":4800,"station_id":"ce4bhop2rcd13ifvqh7g","pricing_plan_id":"cebpf4jnsgd1na2vs0mg"},{"bike_id":"486e4914-06ec-464f-87f6-5bff15e0fc75","system_id":"levelo_inurba_marseille","lat":43.28936,"lon":5.36643,"is_reserved":false,"is_disabled":false,"rental_uris":{"android":"levelo://app?vid=486e4914-06ec-464f-87f6-5bff15e0fc75","ios":"levelo://app?vid=486e4914-06ec-464f-87f6-5bff15e0fc75"},"vehicle_type_id":"4","last_reported":1748852156,"current_range_meters":4800,"station_id":"ce4bhap2rcd13ifvqek0","pricing_plan_id":"cebpf4jnsgd1na2vs0mg"},{"bike_id":"7befae79-b580-41f1-a667-d0e17bb5e123","system_id":"levelo_inurba_marseille","lat":43.246747,"lon":5.38167,"is_reserved":false,"is_disabled":false,"rental_uris":{"android":"levelo://app?vid=7befae79-b580-41f1-a667-d0e17bb5e123","ios":"levelo://app?vid=7befae79-b580-41f1-a667-d0e17bb5e123"},"vehicle_type_id":"4","last_reported":1748852156,"current_range_meters":6000,"station_id":"ce4bhih2rcd13ifvqfr0","pricing_plan_id":"cebpf4jnsgd1na2vs0mg"},{"bike_id":"87596efc-d9f2-4535-810d-e182b9c90b48","system_id":"levelo_inurba_marseille","lat":43.26561,"lon":5.37286,"is_reserved":false,"is_disabled":false,"rental_uris":{"android":"levelo://app?vid=87596efc-d9f2-4535-810d-e182b9c90b48","ios":"levelo://app?vid=87596efc-d9f2-4535-810d-e182b9c90b48"},"vehicle_type_id":"4","last_reported":1748852156,"current_range_meters":6400,"station_id":"ce4bhg12rcd13ifvqf70","pricing_plan_id":"cebpf4jnsgd1na2vs0mg"},{"bike_id":"7273030d-9adc-45f9-b57f-8a33ab49dd5a","system_id":"levelo_inurba_marseille","lat":43.21193,"lon":5.35059,"is_reserved":false,"is_disabled":true,"rental_uris":{"android":"levelo://app?vid=7273030d-9adc-45f9-b57f-8a33ab49dd5a","ios":"levelo://app?vid=7273030d-9adc-45f9-b57f-8a33ab49dd5a"},"vehicle_type_id":"4","last_reported":1748852156,"current_range_meters":6400,"station_id":"st_cvj6sg6p6f1abm77japg","pricing_plan_id":"cebpf4jnsgd1na2vs0mg"},{"bike_id":"5166a37c-2da8-491f-9475-fb095a8d0fcc","system_id":"levelo_inurba_marseille","lat":43.33606,"lon":5.41035,"is_reserved":false,"is_disabled":false,"rental_uris":{"android":"levelo://app?vid=5166a37c-2da8-491f-9475-fb095a8d0fcc","ios":"levelo://app?vid=5166a37c-2da8-491f-9475-fb095a8d0fcc"},"vehicle_type_id":"4","last_reported":1748852156,"current_range_meters":6400,"station_id":"ce4bhqh2rcd13ifvqhmg","pricing_plan_id":"cebpf4jnsgd1na2vs0mg"},{"bike_id":"0e766e84-b556-4bd2-9bb4-d19f52af6645","system_id":"levelo_inurba_marseille","lat":43.32554,"lon":5.42378,"is_reserved":false,"is_disabled":false,"rental_uris":{"android":"levelo://app?vid=0e766e84-b556-4bd2-9bb4-d19f52af6645","ios":"levelo://app?vid=0e766e84-b556-4bd2-9bb4-d19f52af6645"},"vehicle_type_id":"4","last_reported":1748852156,"current_range_meters":6800,"station_id":"","pricing_plan_id":"cebpf4jnsgd1na2vs0mg"},{"bike_id":"d7ba427a-1c1c-411c-8450-22a5988a0975","system_id":"levelo_inurba_marseille","lat":43.31701,"lon":5.40454,"is_reserved":false,"is_disabled":false,"rental_uris":{"android":"levelo://app?vid=d7ba427a-1c1c-411c-8450-22a5988a0975","ios":"levelo://app?vid=d7ba427a-1c1c-411c-8450-22a5988a0975"},"vehicle_type_id":"4","last_reported":1748852156,"current_range_meters":6800,"station_id":"ce4bh012rcd13ifvqd00","pricing_plan_id":"cebpf4jnsgd1na2vs0mg"},{"bike_id":"f2d24b18-d214-4b88-99a9-26c99e5fd23c","system_id":"levelo_inurba_marseille","lat":43.24643,"lon":5.3932,"is_reserved":false,"is_disabled":false,"rental_uris":{"android":"levelo://app?vid=f2d24b18-d214-4b88-99a9-26c99e5fd23c","ios":"levelo://app?vid=f2d24b18-d214-4b88-99a9-26c99e5fd23c"},"vehicle_type_id":"4","last_reported":1748852156,"current_range_meters":6800,"station_id":"","pricing_plan_id":"cebpf4jnsgd1na2vs0mg"},{"bike_id":"95f31c97-7fc7-44bc-9ee4-69d3f0b9779f","system_id":"levelo_inurba_marseille","lat":43.25921,"lon":5.40894,"is_reserved":false,"is_disabled":false,"rental_uris":{"android":"levelo://app?vid=95f31c97-7fc7-44bc-9ee4-69d3f0b9779f","ios":"levelo://app?vid=95f31c97-7fc7-44bc-9ee4-69d3f0b9779f"},"vehicle_type_id":"4","last_reported":1748852156,"current_range_meters":6800,"station_id":"ce4bhm92rcd13ifvqglg","pricing_plan_id":"cebpf4jnsgd1na2vs0mg"},{"bike_id":"01da4d33-c5fa-487c-9c58-0038c372ec4e","system_id":"levelo_inurba_marseille","lat":43.27982,"lon":5.38701,"is_reserved":false,"is_disabled":false,"rental_uris":{"android":"levelo://app?vid=01da4d33-c5fa-487c-9c58-0038c372ec4e","ios":"levelo://app?vid=01da4d33-c5fa-487c-9c58-0038c372ec4e"},"vehicle_type_id":"4","last_reported":1748852156,"current_range_meters":6400,"station_id":"ce4bhg12rcd13ifvqf80","pricing_plan_id":"cebpf4jnsgd1na2vs0mg"},{"bike_id":"25fb632f-5679-4e1c-96de-780cae2672db","system_id":"levelo_inurba_marseille","lat":43.30666,"lon":5.40102,"is_reserved":false,"is_disabled":true,"rental_uris":{"android":"levelo://app?vid=25fb632f-5679-4e1c-96de-780cae2672db","ios":"levelo://app?vid=25fb632f-5679-4e1c-96de-780cae2672db"},"vehicle_type_id":"4","last_reported":1748852156,"current_range_meters":7200,"station_id":"ce4bh112rcd13ifvqda0","pricing_plan_id":"cebpf4jnsgd1na2vs0mg"},{"bike_id":"243f3855-f19a-4831-9cd5-f4ec6676a574","system_id":"levelo_inurba_marseille","lat":43.33612,"lon":5.41033,"is_reserved":false,"is_disabled":false,"rental_uris":{"android":"levelo://app?vid=243f3855-f19a-4831-9cd5-f4ec6676a574","ios":"levelo://app?vid=243f3855-f19a-4831-9cd5-f4ec6676a574"},"vehicle_type_id":"4","last_reported":1748852156,"current_range_meters":7200,"station_id":"ce4bhqh2rcd13ifvqhmg","pricing_plan_id":"cebpf4jnsgd1na2vs0mg"},{"bike_id":"5ef067e7-b281-4ef9-ad2a-1c6b02a54c04","system_id":"levelo_inurba_marseille","lat":43.3197,"lon":5.44063,"is_reserved":false,"is_disabled":false,"rental_uris":{"android":"levelo://app?vid=5ef067e7-b281-4ef9-ad2a-1c6b02a54c04","ios":"levelo://app?vid=5ef067e7-b281-4ef9-ad2a-1c6b02a54c04"},"vehicle_type_id":"4","last_reported":1748852156,"current_range_meters":7200,"station_id":"","pricing_plan_id":"cebpf4jnsgd1na2vs0mg"},{"bike_id":"8a675cf2-0f66-4577-865e-356d858be3df","system_id":"levelo_inurba_marseille","lat":43.26955,"lon":5.38637,"is_reserved":false,"is_disabled":false,"rental_uris":{"android":"levelo://app?vid=8a675cf2-0f66-4577-865e-356d858be3df","ios":"levelo://app?vid=8a675cf2-0f66-4577-865e-356d858be3df"},"vehicle_type_id":"4","last_reported":1748852156,"current_range_meters":6800,"station_id":"ce4bhh92rcd13ifvqfh0","pricing_plan_id":"cebpf4jnsgd1na2vs0mg"},{"bike_id":"d635932c-fb27-4ddf-a9f3-1784d569d353","system_id":"levelo_inurba_marseille","lat":43.3096,"lon":5.39056,"is_reserved":false,"is_disabled":false,"rental_uris":{"android":"levelo://app?vid=d635932c-fb27-4ddf-a9f3-1784d569d353","ios":"levelo://app?vid=d635932c-fb27-4ddf-a9f3-1784d569d353"},"vehicle_type_id":"4","last_reported":1748852156,"current_range_meters":7200,"station_id":"ce4bgup2rcd13ifvqco0","pricing_plan_id":"cebpf4jnsgd1na2vs0mg"},{"bike_id":"94f43558-c2b4-41a2-907e-cbc340232580","system_id":"levelo_inurba_marseille","lat":43.22512,"lon":5.34776,"is_reserved":false,"is_disabled":true,"rental_uris":{"android":"levelo://app?vid=94f43558-c2b4-41a2-907e-cbc340232580","ios":"levelo://app?vid=94f43558-c2b4-41a2-907e-cbc340232580"},"vehicle_type_id":"4","last_reported":1748852156,"current_range_meters":8000,"station_id":"st_cvj5dfep6f1abm77gieg","pricing_plan_id":"cebpf4jnsgd1na2vs0mg"},{"bike_id":"28efabed-853b-4429-aae7-48463f59a794","system_id":"levelo_inurba_marseille","lat":43.248895,"lon":5.397295,"is_reserved":false,"is_disabled":false,"rental_uris":{"android":"levelo://app?vid=28efabed-853b-4429-aae7-48463f59a794","ios":"levelo://app?vid=28efabed-853b-4429-aae7-48463f59a794"},"vehicle_type_id":"4","last_reported":1748852156,"current_range_meters":8000,"station_id":"","pricing_plan_id":"cebpf4jnsgd1na2vs0mg"},{"bike_id":"999388a7-0db4-4bd2-b012-5be22a589fe7","system_id":"levelo_inurba_marseille","lat":43.27582,"lon":5.37777,"is_reserved":false,"is_disabled":false,"rental_uris":{"android":"levelo://app?vid=999388a7-0db4-4bd2-b012-5be22a589fe7","ios":"levelo://app?vid=999388a7-0db4-4bd2-b012-5be22a589fe7"},"vehicle_type_id":"4","last_reported":1748852156,"current_range_meters":8000,"station_id":"","pricing_plan_id":"cebpf4jnsgd1na2vs0mg"},{"bike_id":"21ff3fb6-d282-4e8f-8c65-749c73573e4b","system_id":"levelo_inurba_marseille","lat":43.337295,"lon":5.39179,"is_reserved":false,"is_disabled":false,"rental_uris":{"android":"levelo://app?vid=21ff3fb6-d282-4e8f-8c65-749c73573e4b","ios":"levelo://app?vid=21ff3fb6-d282-4e8f-8c65-749c73573e4b"},"vehicle_type_id":"4","last_reported":1748852156,"current_range_meters":8000,"station_id":"ce4bhr92rcd13ifvqhsg","pricing_plan_id":"cebpf4jnsgd1na2vs0mg"},{"bike_id":"cca271ec-b62a-407d-9e94-7b79046df8d0","system_id":"levelo_inurba_marseille","lat":43.31489,"lon":5.37292,"is_reserved":false,"is_disabled":false,"rental_uris":{"android":"levelo://app?vid=cca271ec-b62a-407d-9e94-7b79046df8d0","ios":"levelo://app?vid=cca271ec-b62a-407d-9e94-7b79046df8d0"},"vehicle_type_id":"4","last_reported":1748852156,"current_range_meters":8000,"station_id":"ce4bgt12rcd13ifvqcd0","pricing_plan_id":"cebpf4jnsgd1na2vs0mg"},{"bike_id":"3daa8af5-dc19-4d84-a6ce-4cbd81d98afc","system_id":"levelo_inurba_marseille","lat":43.30585,"lon":5.38906,"is_reserved":false,"is_disabled":false,"rental_uris":{"android":"levelo://app?vid=3daa8af5-dc19-4d84-a6ce-4cbd81d98afc","ios":"levelo://app?vid=3daa8af5-dc19-4d84-a6ce-4cbd81d98afc"},"vehicle_type_id":"4","last_reported":1748852156,"current_range_meters":8000,"station_id":"","pricing_plan_id":"cebpf4jnsgd1na2vs0mg"},{"bike_id":"2f8b1b73-0680-45a5-afe8-554c89bb9986","system_id":"levelo_inurba_marseille","lat":43.25938,"lon":5.40907,"is_reserved":false,"is_disabled":false,"rental_uris":{"android":"levelo://app?vid=2f8b1b73-0680-45a5-afe8-554c89bb9986","ios":"levelo://app?vid=2f8b1b73-0680-45a5-afe8-554c89bb9986"},"vehicle_type_id":"4","last_reported":1748852156,"current_range_meters":8000,"station_id":"ce4bhm92rcd13ifvqglg","pricing_plan_id":"cebpf4jnsgd1na2vs0mg"},{"bike_id":"e61c98c1-2097-47f5-ba8f-fad807b0f3be","system_id":"levelo_inurba_marseille","lat":43.32886,"lon":5.40535,"is_reserved":false,"is_disabled":false,"rental_uris":{"android":"levelo://app?vid=e61c98c1-2097-47f5-ba8f-fad807b0f3be","ios":"levelo://app?vid=e61c98c1-2097-47f5-ba8f-fad807b0f3be"},"vehicle_type_id":"4","last_reported":1748852156,"current_range_meters":8000,"station_id":"","pricing_plan_id":"cebpf4jnsgd1na2vs0mg"},{"bike_id":"b075a6bd-434c-47c3-a3ef-47ec92a26218","system_id":"levelo_inurba_marseille","lat":43.25915,"lon":5.40853,"is_reserved":false,"is_disabled":false,"rental_uris":{"android":"levelo://app?vid=b075a6bd-434c-47c3-a3ef-47ec92a26218","ios":"levelo://app?vid=b075a6bd-434c-47c3-a3ef-47ec92a26218"},"vehicle_type_id":"4","last_reported":1748852156,"current_range_meters":8000,"station_id":"ce4bhm92rcd13ifvqglg","pricing_plan_id":"cebpf4jnsgd1na2vs0mg"},{"bike_id":"7bafe845-9503-4b20-8bcf-46d264ff85af","system_id":"levelo_inurba_marseille","lat":43.25937,"lon":5.40909,"is_reserved":false,"is_disabled":false,"rental_uris":{"android":"levelo://app?vid=7bafe845-9503-4b20-8bcf-46d264ff85af","ios":"levelo://app?vid=7bafe845-9503-4b20-8bcf-46d264ff85af"},"vehicle_type_id":"4","last_reported":1748852156,"current_range_meters":8000,"station_id":"","pricing_plan_id":"cebpf4jnsgd1na2vs0mg"},{"bike_id":"e210be7e-07b8-44d3-ae09-6702f28e2ae8","system_id":"levelo_inurba_marseille","lat":43.25114,"lon":5.3936,"is_reserved":false,"is_disabled":false,"rental_uris":{"android":"levelo://app?vid=e210be7e-07b8-44d3-ae09-6702f28e2ae8","ios":"levelo://app?vid=e210be7e-07b8-44d3-ae09-6702f28e2ae8"},"vehicle_type_id":"4","last_reported":1748852156,"current_range_meters":8000,"station_id":"","pricing_plan_id":"cebpf4jnsgd1na2vs0mg"},{"bike_id":"d58ea574-a5df-489d-8bcf-9931f6fe8b53","system_id":"levelo_inurba_marseille","lat":43.24095,"lon":5.37745,"is_reserved":false,"is_disabled":false,"rental_uris":{"android":"levelo://app?vid=d58ea574-a5df-489d-8bcf-9931f6fe8b53","ios":"levelo://app?vid=d58ea574-a5df-489d-8bcf-9931f6fe8b53"},"vehicle_type_id":"4","last_reported":1748852156,"current_range_meters":8400,"station_id":"ce4bhnp2rcd13ifvqgvg","pricing_plan_id":"cebpf4jnsgd1na2vs0mg"},{"bike_id":"9a189ee8-27ed-444b-b171-f705371af28f","system_id":"levelo_inurba_marseille","lat":43.28264,"lon":5.34913,"is_reserved":false,"is_disabled":false,"rental_uris":{"android":"levelo://app?vid=9a189ee8-27ed-444b-b171-f705371af28f","ios":"levelo://app?vid=9a189ee8-27ed-444b-b171-f705371af28f"},"vehicle_type_id":"4","last_reported":1748852156,"current_range_meters":8400,"station_id":"","pricing_plan_id":"cebpf4jnsgd1na2vs0mg"},{"bike_id":"195168cf-2c99-4aa4-a4e5-aa2a866f4f68","system_id":"levelo_inurba_marseille","lat":43.32036,"lon":5.41573,"is_reserved":false,"is_disabled":true,"rental_uris":{"android":"levelo://app?vid=195168cf-2c99-4aa4-a4e5-aa2a866f4f68","ios":"levelo://app?vid=195168cf-2c99-4aa4-a4e5-aa2a866f4f68"},"vehicle_type_id":"4","last_reported":1748852156,"current_range_meters":8400,"station_id":"ce4bhq92rcd13ifvqhkg","pricing_plan_id":"cebpf4jnsgd1na2vs0mg"},{"bike_id":"84e94b65-0704-41b9-b45c-33b81545a7c4","system_id":"levelo_inurba_marseille","lat":43.30316,"lon":5.36902,"is_reserved":false,"is_disabled":false,"rental_uris":{"android":"levelo://app?vid=84e94b65-0704-41b9-b45c-33b81545a7c4","ios":"levelo://app?vid=84e94b65-0704-41b9-b45c-33b81545a7c4"},"vehicle_type_id":"4","last_reported":1748852156,"current_range_meters":8400,"station_id":"ce4bgqh2rcd13ifvqc5g","pricing_plan_id":"cebpf4jnsgd1na2vs0mg"},{"bike_id":"d95a8927-9413-4ee6-b8dd-9b96d5af8d5e","system_id":"levelo_inurba_marseille","lat":43.28339,"lon":5.35052,"is_reserved":false,"is_disabled":false,"rental_uris":{"android":"levelo://app?vid=d95a8927-9413-4ee6-b8dd-9b96d5af8d5e","ios":"levelo://app?vid=d95a8927-9413-4ee6-b8dd-9b96d5af8d5e"},"vehicle_type_id":"4","last_reported":1748852156,"current_range_meters":8400,"station_id":"","pricing_plan_id":"cebpf4jnsgd1na2vs0mg"},{"bike_id":"56b8f16f-e6ba-4aab-acbd-619d8ef89793","system_id":"levelo_inurba_marseille","lat":43.23149,"lon":5.43722,"is_reserved":false,"is_disabled":false,"rental_uris":{"android":"levelo://app?vid=56b8f16f-e6ba-4aab-acbd-619d8ef89793","ios":"levelo://app?vid=56b8f16f-e6ba-4aab-acbd-619d8ef89793"},"vehicle_type_id":"4","last_reported":1748852156,"current_range_meters":8400,"station_id":"ce4bhmp2rcd13ifvqgog","pricing_plan_id":"cebpf4jnsgd1na2vs0mg"},{"bike_id":"228397f0-f948-41be-8ad5-419d106fe459","system_id":"levelo_inurba_marseille","lat":43.25922,"lon":5.40903,"is_reserved":false,"is_disabled":false,"rental_uris":{"android":"levelo://app?vid=228397f0-f948-41be-8ad5-419d106fe459","ios":"levelo://app?vid=228397f0-f948-41be-8ad5-419d106fe459"},"vehicle_type_id":"4","last_reported":1748852156,"current_range_meters":8400,"station_id":"ce4bhm92rcd13ifvqglg","pricing_plan_id":"cebpf4jnsgd1na2vs0mg"},{"bike_id":"8a0b1bc5-ba8c-481a-9c42-335e985e41da","system_id":"levelo_inurba_marseille","lat":43.31326,"lon":5.39692,"is_reserved":false,"is_disabled":false,"rental_uris":{"android":"levelo://app?vid=8a0b1bc5-ba8c-481a-9c42-335e985e41da","ios":"levelo://app?vid=8a0b1bc5-ba8c-481a-9c42-335e985e41da"},"vehicle_type_id":"4","last_reported":1748852156,"current_range_meters":8400,"station_id":"ce4bgvp2rcd13ifvqcu0","pricing_plan_id":"cebpf4jnsgd1na2vs0mg"},{"bike_id":"c205edc8-d0d2-4cb7-a8e7-8248baf001bc","system_id":"levelo_inurba_marseille","lat":43.25399,"lon":5.42407,"is_reserved":false,"is_disabled":false,"rental_uris":{"android":"levelo://app?vid=c205edc8-d0d2-4cb7-a8e7-8248baf001bc","ios":"levelo://app?vid=c205edc8-d0d2-4cb7-a8e7-8248baf001bc"},"vehicle_type_id":"4","last_reported":1748852156,"current_range_meters":8800,"station_id":"","pricing_plan_id":"cebpf4jnsgd1na2vs0mg"},{"bike_id":"d9b0c828-6b00-4915-ae25-6fdab0a7d9ac","system_id":"levelo_inurba_marseille","lat":43.23181,"lon":5.39988,"is_reserved":false,"is_disabled":false,"rental_uris":{"android":"levelo://app?vid=d9b0c828-6b00-4915-ae25-6fdab0a7d9ac","ios":"levelo://app?vid=d9b0c828-6b00-4915-ae25-6fdab0a7d9ac"},"vehicle_type_id":"4","last_reported":1748852156,"current_range_meters":8800,"station_id":"ce4bhn12rcd13ifvqgqg","pricing_plan_id":"cebpf4jnsgd1na2vs0mg"},{"bike_id":"52138315-f13b-4871-ab78-9e5155a1008c","system_id":"levelo_inurba_marseille","lat":43.32296,"lon":5.38277,"is_reserved":false,"is_disabled":false,"rental_uris":{"android":"levelo://app?vid=52138315-f13b-4871-ab78-9e5155a1008c","ios":"levelo://app?vid=52138315-f13b-4871-ab78-9e5155a1008c"},"vehicle_type_id":"4","last_reported":1748852156,"current_range_meters":8800,"station_id":"ce4bhr12rcd13ifvqhqg","pricing_plan_id":"cebpf4jnsgd1na2vs0mg"},{"bike_id":"d6693ea3-3d44-44ff-b455-04538d6b2136","system_id":"levelo_inurba_marseille","lat":43.27967,"lon":5.38744,"is_reserved":false,"is_disabled":false,"rental_uris":{"android":"levelo://app?vid=d6693ea3-3d44-44ff-b455-04538d6b2136","ios":"levelo://app?vid=d6693ea3-3d44-44ff-b455-04538d6b2136"},"vehicle_type_id":"4","last_reported":1748852156,"current_range_meters":8400,"station_id":"ce4bhg12rcd13ifvqf80","pricing_plan_id":"cebpf4jnsgd1na2vs0mg"},{"bike_id":"8512c838-a713-4ef7-a228-5aa526170f21","system_id":"levelo_inurba_marseille","lat":43.22507,"lon":5.34784,"is_reserved":false,"is_disabled":false,"rental_uris":{"android":"levelo://app?vid=8512c838-a713-4ef7-a228-5aa526170f21","ios":"levelo://app?vid=8512c838-a713-4ef7-a228-5aa526170f21"},"vehicle_type_id":"4","last_reported":1748852156,"current_range_meters":8800,"station_id":"","pricing_plan_id":"cebpf4jnsgd1na2vs0mg"},{"bike_id":"f1d13554-ad01-461a-a2b1-01234f56d9a5","system_id":"levelo_inurba_marseille","lat":43.31185,"lon":5.40161,"is_reserved":false,"is_disabled":false,"rental_uris":{"android":"levelo://app?vid=f1d13554-ad01-461a-a2b1-01234f56d9a5","ios":"levelo://app?vid=f1d13554-ad01-461a-a2b1-01234f56d9a5"},"vehicle_type_id":"4","last_reported":1748852156,"current_range_meters":8800,"station_id":"","pricing_plan_id":"cebpf4jnsgd1na2vs0mg"},{"bike_id":"7b44173b-5d11-4c0b-8d16-0982084d4bdb","system_id":"levelo_inurba_marseille","lat":43.337281,"lon":5.391834,"is_reserved":false,"is_disabled":false,"rental_uris":{"android":"levelo://app?vid=7b44173b-5d11-4c0b-8d16-0982084d4bdb","ios":"levelo://app?vid=7b44173b-5d11-4c0b-8d16-0982084d4bdb"},"vehicle_type_id":"4","last_reported":1748852156,"current_range_meters":9200,"station_id":"ce4bhr92rcd13ifvqhsg","pricing_plan_id":"cebpf4jnsgd1na2vs0mg"},{"bike_id":"0f1c566f-1667-4b65-a47f-a88803d93f3e","system_id":"levelo_inurba_marseille","lat":43.31711,"lon":5.43708,"is_reserved":false,"is_disabled":false,"rental_uris":{"android":"levelo://app?vid=0f1c566f-1667-4b65-a47f-a88803d93f3e","ios":"levelo://app?vid=0f1c566f-1667-4b65-a47f-a88803d93f3e"},"vehicle_type_id":"4","last_reported":1748852156,"current_range_meters":9200,"station_id":"ce4bhp92rcd13ifvqhcg","pricing_plan_id":"cebpf4jnsgd1na2vs0mg"},{"bike_id":"eb679cc4-d138-4078-83ca-dfdad8ed81b1","system_id":"levelo_inurba_marseille","lat":43.292686,"lon":5.384264,"is_reserved":false,"is_disabled":true,"rental_uris":{"android":"levelo://app?vid=eb679cc4-d138-4078-83ca-dfdad8ed81b1","ios":"levelo://app?vid=eb679cc4-d138-4078-83ca-dfdad8ed81b1"},"vehicle_type_id":"4","last_reported":1748852156,"current_range_meters":9200,"station_id":"ce4bh692rcd13ifvqea0","pricing_plan_id":"cebpf4jnsgd1na2vs0mg"},{"bike_id":"d787cfdb-50c2-451d-8448-0eff07939f1e","system_id":"levelo_inurba_marseille","lat":43.23157,"lon":5.43699,"is_reserved":false,"is_disabled":false,"rental_uris":{"android":"levelo://app?vid=d787cfdb-50c2-451d-8448-0eff07939f1e","ios":"levelo://app?vid=d787cfdb-50c2-451d-8448-0eff07939f1e"},"vehicle_type_id":"4","last_reported":1748852156,"current_range_meters":9200,"station_id":"ce4bhmp2rcd13ifvqgog","pricing_plan_id":"cebpf4jnsgd1na2vs0mg"},{"bike_id":"1f9f1b69-d430-4bc1-a013-5e4479eb2020","system_id":"levelo_inurba_marseille","lat":43.32491,"lon":5.36562,"is_reserved":false,"is_disabled":false,"rental_uris":{"android":"levelo://app?vid=1f9f1b69-d430-4bc1-a013-5e4479eb2020","ios":"levelo://app?vid=1f9f1b69-d430-4bc1-a013-5e4479eb2020"},"vehicle_type_id":"4","last_reported":1748852156,"current_range_meters":9200,"station_id":"ce4bhs12rcd13ifvqhvg","pricing_plan_id":"cebpf4jnsgd1na2vs0mg"},{"bike_id":"f5a90625-b7e8-48a8-90c6-777efe255a32","system_id":"levelo_inurba_marseille","lat":43.25107,"lon":5.40953,"is_reserved":false,"is_disabled":false,"rental_uris":{"android":"levelo://app?vid=f5a90625-b7e8-48a8-90c6-777efe255a32","ios":"levelo://app?vid=f5a90625-b7e8-48a8-90c6-777efe255a32"},"vehicle_type_id":"4","last_reported":1748852156,"current_range_meters":9200,"station_id":"","pricing_plan_id":"cebpf4jnsgd1na2vs0mg"},{"bike_id":"32c44f89-664a-4983-b403-b86012670adb","system_id":"levelo_inurba_marseille","lat":43.26794,"lon":5.394217,"is_reserved":false,"is_disabled":false,"rental_uris":{"android":"levelo://app?vid=32c44f89-664a-4983-b403-b86012670adb","ios":"levelo://app?vid=32c44f89-664a-4983-b403-b86012670adb"},"vehicle_type_id":"4","last_reported":1748852156,"current_range_meters":9200,"station_id":"ce4bhh12rcd13ifvqfg0","pricing_plan_id":"cebpf4jnsgd1na2vs0mg"},{"bike_id":"a0d8bc15-237c-49e2-a785-8e8c4a3082e8","system_id":"levelo_inurba_marseille","lat":43.24077,"lon":5.37762,"is_reserved":false,"is_disabled":false,"rental_uris":{"android":"levelo://app?vid=a0d8bc15-237c-49e2-a785-8e8c4a3082e8","ios":"levelo://app?vid=a0d8bc15-237c-49e2-a785-8e8c4a3082e8"},"vehicle_type_id":"4","last_reported":1748852156,"current_range_meters":9200,"station_id":"ce4bhnp2rcd13ifvqgvg","pricing_plan_id":"cebpf4jnsgd1na2vs0mg"},{"bike_id":"a279170c-4e5d-4875-9608-7eec130d02a4","system_id":"levelo_inurba_marseille","lat":43.30914,"lon":5.36849,"is_reserved":false,"is_disabled":false,"rental_uris":{"android":"levelo://app?vid=a279170c-4e5d-4875-9608-7eec130d02a4","ios":"levelo://app?vid=a279170c-4e5d-4875-9608-7eec130d02a4"},"vehicle_type_id":"4","last_reported":1748852156,"current_range_meters":9200,"station_id":"ce4bgn92rcd13ifvqbvg","pricing_plan_id":"cebpf4jnsgd1na2vs0mg"},{"bike_id":"3c714906-76f2-42cc-b185-ab332f5426c2","system_id":"levelo_inurba_marseille","lat":43.23096,"lon":5.40171,"is_reserved":false,"is_disabled":false,"rental_uris":{"android":"levelo://app?vid=3c714906-76f2-42cc-b185-ab332f5426c2","ios":"levelo://app?vid=3c714906-76f2-42cc-b185-ab332f5426c2"},"vehicle_type_id":"4","last_reported":1748852156,"current_range_meters":9200,"station_id":"","pricing_plan_id":"cebpf4jnsgd1na2vs0mg"},{"bike_id":"254e030c-a78f-41be-9494-6c89fd4aac35","system_id":"levelo_inurba_marseille","lat":43.2847,"lon":5.35869,"is_reserved":false,"is_disabled":false,"rental_uris":{"android":"levelo://app?vid=254e030c-a78f-41be-9494-6c89fd4aac35","ios":"levelo://app?vid=254e030c-a78f-41be-9494-6c89fd4aac35"},"vehicle_type_id":"4","last_reported":1748852156,"current_range_meters":9600,"station_id":"ce4bhah2rcd13ifvqei0","pricing_plan_id":"cebpf4jnsgd1na2vs0mg"},{"bike_id":"4b790c0b-cff1-4dc9-8b99-0762b549c6e4","system_id":"levelo_inurba_marseille","lat":43.29608,"lon":5.3773,"is_reserved":false,"is_disabled":false,"rental_uris":{"android":"levelo://app?vid=4b790c0b-cff1-4dc9-8b99-0762b549c6e4","ios":"levelo://app?vid=4b790c0b-cff1-4dc9-8b99-0762b549c6e4"},"vehicle_type_id":"4","last_reported":1748852156,"current_range_meters":9600,"station_id":"ce4bgi92rcd13ifvqb90","pricing_plan_id":"cebpf4jnsgd1na2vs0mg"},{"bike_id":"77520d45-03bf-4b26-9f9b-8ac6c162ce6b","system_id":"levelo_inurba_marseille","lat":43.24355,"lon":5.41146,"is_reserved":false,"is_disabled":false,"rental_uris":{"android":"levelo://app?vid=77520d45-03bf-4b26-9f9b-8ac6c162ce6b","ios":"levelo://app?vid=77520d45-03bf-4b26-9f9b-8ac6c162ce6b"},"vehicle_type_id":"4","last_reported":1748852156,"current_range_meters":9600,"station_id":"","pricing_plan_id":"cebpf4jnsgd1na2vs0mg"},{"bike_id":"a6f4717b-06ef-490a-a998-dfb4abb631ef","system_id":"levelo_inurba_marseille","lat":43.28943,"lon":5.36387,"is_reserved":false,"is_disabled":false,"rental_uris":{"android":"levelo://app?vid=a6f4717b-06ef-490a-a998-dfb4abb631ef","ios":"levelo://app?vid=a6f4717b-06ef-490a-a998-dfb4abb631ef"},"vehicle_type_id":"4","last_reported":1748852156,"current_range_meters":9600,"station_id":"ce4bhc92rcd13ifvqetg","pricing_plan_id":"cebpf4jnsgd1na2vs0mg"},{"bike_id":"12f12f7d-5a9c-489c-804f-030e268658f0","system_id":"levelo_inurba_marseille","lat":43.25918,"lon":5.4089,"is_reserved":false,"is_disabled":false,"rental_uris":{"android":"levelo://app?vid=12f12f7d-5a9c-489c-804f-030e268658f0","ios":"levelo://app?vid=12f12f7d-5a9c-489c-804f-030e268658f0"},"vehicle_type_id":"4","last_reported":1748852156,"current_range_meters":9600,"station_id":"ce4bhm92rcd13ifvqglg","pricing_plan_id":"cebpf4jnsgd1na2vs0mg"},{"bike_id":"f8c310ff-7f1e-4846-a3ed-b26bf26e087f","system_id":"levelo_inurba_marseille","lat":43.29221,"lon":5.379072,"is_reserved":false,"is_disabled":false,"rental_uris":{"android":"levelo://app?vid=f8c310ff-7f1e-4846-a3ed-b26bf26e087f","ios":"levelo://app?vid=f8c310ff-7f1e-4846-a3ed-b26bf26e087f"},"vehicle_type_id":"4","last_reported":1748852156,"current_range_meters":9600,"station_id":"","pricing_plan_id":"cebpf4jnsgd1na2vs0mg"},{"bike_id":"38689cc3-915a-41fe-9cc6-c38599bdb4be","system_id":"levelo_inurba_marseille","lat":43.28353,"lon":5.38113,"is_reserved":false,"is_disabled":false,"rental_uris":{"android":"levelo://app?vid=38689cc3-915a-41fe-9cc6-c38599bdb4be","ios":"levelo://app?vid=38689cc3-915a-41fe-9cc6-c38599bdb4be"},"vehicle_type_id":"4","last_reported":1748852156,"current_range_meters":9600,"station_id":"ce4bh412rcd13ifvqdr0","pricing_plan_id":"cebpf4jnsgd1na2vs0mg"},{"bike_id":"60d8779b-d335-48e5-b4f1-b9da6adf75a8","system_id":"levelo_inurba_marseille","lat":43.2175,"lon":5.34603,"is_reserved":false,"is_disabled":false,"rental_uris":{"android":"levelo://app?vid=60d8779b-d335-48e5-b4f1-b9da6adf75a8","ios":"levelo://app?vid=60d8779b-d335-48e5-b4f1-b9da6adf75a8"},"vehicle_type_id":"4","last_reported":1748852156,"current_range_meters":9600,"station_id":"st_cvj6r9ubvosntc0bgbag","pricing_plan_id":"cebpf4jnsgd1na2vs0mg"},{"bike_id":"141f2843-8ef5-4a8b-aded-57a4b3267bb8","system_id":"levelo_inurba_marseille","lat":43.25818,"lon":5.39433,"is_reserved":false,"is_disabled":false,"rental_uris":{"android":"levelo://app?vid=141f2843-8ef5-4a8b-aded-57a4b3267bb8","ios":"levelo://app?vid=141f2843-8ef5-4a8b-aded-57a4b3267bb8"},"vehicle_type_id":"4","last_reported":1748852156,"current_range_meters":9600,"station_id":"ce4bhip2rcd13ifvqft0","pricing_plan_id":"cebpf4jnsgd1na2vs0mg"},{"bike_id":"cd5335d3-a56f-4ab6-9660-9163c4be6801","system_id":"levelo_inurba_marseille","lat":43.31694,"lon":5.4048,"is_reserved":false,"is_disabled":false,"rental_uris":{"android":"levelo://app?vid=cd5335d3-a56f-4ab6-9660-9163c4be6801","ios":"levelo://app?vid=cd5335d3-a56f-4ab6-9660-9163c4be6801"},"vehicle_type_id":"4","last_reported":1748852156,"current_range_meters":10000,"station_id":"ce4bh012rcd13ifvqd00","pricing_plan_id":"cebpf4jnsgd1na2vs0mg"},{"bike_id":"3c952f48-0392-47ee-8d16-2e0b591f9310","system_id":"levelo_inurba_marseille","lat":43.31995,"lon":5.38151,"is_reserved":false,"is_disabled":false,"rental_uris":{"android":"levelo://app?vid=3c952f48-0392-47ee-8d16-2e0b591f9310","ios":"levelo://app?vid=3c952f48-0392-47ee-8d16-2e0b591f9310"},"vehicle_type_id":"4","last_reported":1748852156,"current_range_meters":10000,"station_id":"ce4bhr12rcd13ifvqhpg","pricing_plan_id":"cebpf4jnsgd1na2vs0mg"},{"bike_id":"48a1bfde-f369-406d-a708-9196401f640b","system_id":"levelo_inurba_marseille","lat":43.25581,"lon":5.38232,"is_reserved":false,"is_disabled":false,"rental_uris":{"android":"levelo://app?vid=48a1bfde-f369-406d-a708-9196401f640b","ios":"levelo://app?vid=48a1bfde-f369-406d-a708-9196401f640b"},"vehicle_type_id":"4","last_reported":1748852156,"current_range_meters":10000,"station_id":"ce4bhih2rcd13ifvqfs0","pricing_plan_id":"cebpf4jnsgd1na2vs0mg"},{"bike_id":"4fc38c6c-42f3-4baa-8501-5e69717b2298","system_id":"levelo_inurba_marseille","lat":43.21764,"lon":5.34616,"is_reserved":false,"is_disabled":false,"rental_uris":{"android":"levelo://app?vid=4fc38c6c-42f3-4baa-8501-5e69717b2298","ios":"levelo://app?vid=4fc38c6c-42f3-4baa-8501-5e69717b2298"},"vehicle_type_id":"4","last_reported":1748852156,"current_range_meters":10000,"station_id":"st_cvj6r9ubvosntc0bgbag","pricing_plan_id":"cebpf4jnsgd1na2vs0mg"},{"bike_id":"49f0d9d2-1b2c-464f-87f0-3b661372260c","system_id":"levelo_inurba_marseille","lat":43.25941,"lon":5.40899,"is_reserved":false,"is_disabled":false,"rental_uris":{"android":"levelo://app?vid=49f0d9d2-1b2c-464f-87f0-3b661372260c","ios":"levelo://app?vid=49f0d9d2-1b2c-464f-87f0-3b661372260c"},"vehicle_type_id":"4","last_reported":1748852156,"current_range_meters":10000,"station_id":"ce4bhm92rcd13ifvqglg","pricing_plan_id":"cebpf4jnsgd1na2vs0mg"},{"bike_id":"b5806e8c-065c-41e5-8415-4e8c05eadebe","system_id":"levelo_inurba_marseille","lat":43.29227,"lon":5.36048,"is_reserved":false,"is_disabled":false,"rental_uris":{"android":"levelo://app?vid=b5806e8c-065c-41e5-8415-4e8c05eadebe","ios":"levelo://app?vid=b5806e8c-065c-41e5-8415-4e8c05eadebe"},"vehicle_type_id":"4","last_reported":1748852156,"current_range_meters":10000,"station_id":"ce4bhbh2rcd13ifvqeqg","pricing_plan_id":"cebpf4jnsgd1na2vs0mg"},{"bike_id":"a5a49411-588e-4b5e-94a6-1c2ad2ee88eb","system_id":"levelo_inurba_marseille","lat":43.324747,"lon":5.424768,"is_reserved":false,"is_disabled":false,"rental_uris":{"android":"levelo://app?vid=a5a49411-588e-4b5e-94a6-1c2ad2ee88eb","ios":"levelo://app?vid=a5a49411-588e-4b5e-94a6-1c2ad2ee88eb"},"vehicle_type_id":"4","last_reported":1748852156,"current_range_meters":10000,"station_id":"","pricing_plan_id":"cebpf4jnsgd1na2vs0mg"},{"bike_id":"32dfae04-0d8a-42e1-b33d-45bb3f40c6a5","system_id":"levelo_inurba_marseille","lat":43.29305,"lon":5.37452,"is_reserved":false,"is_disabled":false,"rental_uris":{"android":"levelo://app?vid=32dfae04-0d8a-42e1-b33d-45bb3f40c6a5","ios":"levelo://app?vid=32dfae04-0d8a-42e1-b33d-45bb3f40c6a5"},"vehicle_type_id":"4","last_reported":1748852156,"current_range_meters":10000,"station_id":"ce4bgi12rcd13ifvqb70","pricing_plan_id":"cebpf4jnsgd1na2vs0mg"},{"bike_id":"a9cde3f4-5476-4d35-b761-1e9ff467cfba","system_id":"levelo_inurba_marseille","lat":43.27678,"lon":5.38869,"is_reserved":false,"is_disabled":false,"rental_uris":{"android":"levelo://app?vid=a9cde3f4-5476-4d35-b761-1e9ff467cfba","ios":"levelo://app?vid=a9cde3f4-5476-4d35-b761-1e9ff467cfba"},"vehicle_type_id":"4","last_reported":1748852156,"current_range_meters":10000,"station_id":"ce4bhi12rcd13ifvqfo0","pricing_plan_id":"cebpf4jnsgd1na2vs0mg"},{"bike_id":"eafc3cd6-d501-4048-abd6-eabf2b1a7db9","system_id":"levelo_inurba_marseille","lat":43.25927,"lon":5.40907,"is_reserved":false,"is_disabled":false,"rental_uris":{"android":"levelo://app?vid=eafc3cd6-d501-4048-abd6-eabf2b1a7db9","ios":"levelo://app?vid=eafc3cd6-d501-4048-abd6-eabf2b1a7db9"},"vehicle_type_id":"4","last_reported":1748852156,"current_range_meters":10800,"station_id":"ce4bhm92rcd13ifvqglg","pricing_plan_id":"cebpf4jnsgd1na2vs0mg"},{"bike_id":"668c729e-2509-41df-a3f9-f1845c72b38d","system_id":"levelo_inurba_marseille","lat":43.30317,"lon":5.36904,"is_reserved":false,"is_disabled":false,"rental_uris":{"android":"levelo://app?vid=668c729e-2509-41df-a3f9-f1845c72b38d","ios":"levelo://app?vid=668c729e-2509-41df-a3f9-f1845c72b38d"},"vehicle_type_id":"4","last_reported":1748852156,"current_range_meters":10000,"station_id":"ce4bgqh2rcd13ifvqc5g","pricing_plan_id":"cebpf4jnsgd1na2vs0mg"},{"bike_id":"97a58472-f76b-47e3-a716-281b120ccffa","system_id":"levelo_inurba_marseille","lat":43.27921,"lon":5.395752,"is_reserved":false,"is_disabled":true,"rental_uris":{"android":"levelo://app?vid=97a58472-f76b-47e3-a716-281b120ccffa","ios":"levelo://app?vid=97a58472-f76b-47e3-a716-281b120ccffa"},"vehicle_type_id":"4","last_reported":1748852156,"current_range_meters":10800,"station_id":"ce4bhf92rcd13ifvqf40","pricing_plan_id":"cebpf4jnsgd1na2vs0mg"},{"bike_id":"e4081ece-7834-435c-b984-68a09ee1ced3","system_id":"levelo_inurba_marseille","lat":43.29579,"lon":5.37526,"is_reserved":false,"is_disabled":false,"rental_uris":{"android":"levelo://app?vid=e4081ece-7834-435c-b984-68a09ee1ced3","ios":"levelo://app?vid=e4081ece-7834-435c-b984-68a09ee1ced3"},"vehicle_type_id":"4","last_reported":1748852156,"current_range_meters":10800,"station_id":"ce4bgh92rcd13ifvqb50","pricing_plan_id":"cebpf4jnsgd1na2vs0mg"},{"bike_id":"48063303-4f1b-4047-8d3d-af4488fa2bc5","system_id":"levelo_inurba_marseille","lat":43.32349,"lon":5.36712,"is_reserved":false,"is_disabled":false,"rental_uris":{"android":"levelo://app?vid=48063303-4f1b-4047-8d3d-af4488fa2bc5","ios":"levelo://app?vid=48063303-4f1b-4047-8d3d-af4488fa2bc5"},"vehicle_type_id":"4","last_reported":1748852156,"current_range_meters":10800,"station_id":"ce4bhsh2rcd13ifvqi2g","pricing_plan_id":"cebpf4jnsgd1na2vs0mg"},{"bike_id":"77894e62-cf22-4c2f-bc18-f45755b4e89d","system_id":"levelo_inurba_marseille","lat":43.23149,"lon":5.43716,"is_reserved":false,"is_disabled":false,"rental_uris":{"android":"levelo://app?vid=77894e62-cf22-4c2f-bc18-f45755b4e89d","ios":"levelo://app?vid=77894e62-cf22-4c2f-bc18-f45755b4e89d"},"vehicle_type_id":"4","last_reported":1748852156,"current_range_meters":11200,"station_id":"ce4bhmp2rcd13ifvqgog","pricing_plan_id":"cebpf4jnsgd1na2vs0mg"},{"bike_id":"e4f2e553-75d1-42a7-95cb-b18b90074a93","system_id":"levelo_inurba_marseille","lat":43.317444,"lon":5.387727,"is_reserved":false,"is_disabled":false,"rental_uris":{"android":"levelo://app?vid=e4f2e553-75d1-42a7-95cb-b18b90074a93","ios":"levelo://app?vid=e4f2e553-75d1-42a7-95cb-b18b90074a93"},"vehicle_type_id":"4","last_reported":1748852156,"current_range_meters":11200,"station_id":"","pricing_plan_id":"cebpf4jnsgd1na2vs0mg"},{"bike_id":"3bee0601-fef9-4b96-b586-2a382ef0bce0","system_id":"levelo_inurba_marseille","lat":43.31714,"lon":5.377507,"is_reserved":false,"is_disabled":false,"rental_uris":{"android":"levelo://app?vid=3bee0601-fef9-4b96-b586-2a382ef0bce0","ios":"levelo://app?vid=3bee0601-fef9-4b96-b586-2a382ef0bce0"},"vehicle_type_id":"4","last_reported":1748852156,"current_range_meters":10800,"station_id":"ce4bgth2rcd13ifvqch0","pricing_plan_id":"cebpf4jnsgd1na2vs0mg"},{"bike_id":"afd11a4c-ccc1-4628-93d2-581335e42eb8","system_id":"levelo_inurba_marseille","lat":43.25946,"lon":5.40909,"is_reserved":false,"is_disabled":false,"rental_uris":{"android":"levelo://app?vid=afd11a4c-ccc1-4628-93d2-581335e42eb8","ios":"levelo://app?vid=afd11a4c-ccc1-4628-93d2-581335e42eb8"},"vehicle_type_id":"4","last_reported":1748852156,"current_range_meters":11200,"station_id":"ce4bhm92rcd13ifvqglg","pricing_plan_id":"cebpf4jnsgd1na2vs0mg"},{"bike_id":"d38ad1a4-80d4-4584-8d94-3ccb38d30685","system_id":"levelo_inurba_marseille","lat":43.28934,"lon":5.36637,"is_reserved":false,"is_disabled":false,"rental_uris":{"android":"levelo://app?vid=d38ad1a4-80d4-4584-8d94-3ccb38d30685","ios":"levelo://app?vid=d38ad1a4-80d4-4584-8d94-3ccb38d30685"},"vehicle_type_id":"4","last_reported":1748852156,"current_range_meters":11200,"station_id":"ce4bhap2rcd13ifvqek0","pricing_plan_id":"cebpf4jnsgd1na2vs0mg"},{"bike_id":"64baa8e5-4948-43ef-bd5f-88d4aadfd8f7","system_id":"levelo_inurba_marseille","lat":43.30895,"lon":5.36848,"is_reserved":false,"is_disabled":false,"rental_uris":{"android":"levelo://app?vid=64baa8e5-4948-43ef-bd5f-88d4aadfd8f7","ios":"levelo://app?vid=64baa8e5-4948-43ef-bd5f-88d4aadfd8f7"},"vehicle_type_id":"4","last_reported":1748852156,"current_range_meters":11600,"station_id":"ce4bgn92rcd13ifvqbvg","pricing_plan_id":"cebpf4jnsgd1na2vs0mg"},{"bike_id":"58e6da17-adc8-4552-9040-8723daac6895","system_id":"levelo_inurba_marseille","lat":43.29096,"lon":5.381535,"is_reserved":false,"is_disabled":false,"rental_uris":{"android":"levelo://app?vid=58e6da17-adc8-4552-9040-8723daac6895","ios":"levelo://app?vid=58e6da17-adc8-4552-9040-8723daac6895"},"vehicle_type_id":"4","last_reported":1748852156,"current_range_meters":12000,"station_id":"ce4bh512rcd13ifvqe2g","pricing_plan_id":"cebpf4jnsgd1na2vs0mg"},{"bike_id":"68751ed8-5def-44dd-9302-814c6cb074a4","system_id":"levelo_inurba_marseille","lat":43.31361,"lon":5.367,"is_reserved":false,"is_disabled":false,"rental_uris":{"android":"levelo://app?vid=68751ed8-5def-44dd-9302-814c6cb074a4","ios":"levelo://app?vid=68751ed8-5def-44dd-9302-814c6cb074a4"},"vehicle_type_id":"4","last_reported":1748852156,"current_range_meters":12000,"station_id":"ce4bgr92rcd13ifvqc6g","pricing_plan_id":"cebpf4jnsgd1na2vs0mg"},{"bike_id":"a8af9193-1f0b-4e5d-99a2-be78ccabc55b","system_id":"levelo_inurba_marseille","lat":43.31192,"lon":5.41642,"is_reserved":false,"is_disabled":false,"rental_uris":{"android":"levelo://app?vid=a8af9193-1f0b-4e5d-99a2-be78ccabc55b","ios":"levelo://app?vid=a8af9193-1f0b-4e5d-99a2-be78ccabc55b"},"vehicle_type_id":"4","last_reported":1748852156,"current_range_meters":12000,"station_id":"","pricing_plan_id":"cebpf4jnsgd1na2vs0mg"},{"bike_id":"03f2c807-2b23-4f78-a442-eebfa37529d1","system_id":"levelo_inurba_marseille","lat":43.31486,"lon":5.37286,"is_reserved":false,"is_disabled":false,"rental_uris":{"android":"levelo://app?vid=03f2c807-2b23-4f78-a442-eebfa37529d1","ios":"levelo://app?vid=03f2c807-2b23-4f78-a442-eebfa37529d1"},"vehicle_type_id":"4","last_reported":1748852156,"current_range_meters":12400,"station_id":"ce4bgt12rcd13ifvqcd0","pricing_plan_id":"cebpf4jnsgd1na2vs0mg"},{"bike_id":"da3db114-678c-4ad5-9027-9c06241c74d0","system_id":"levelo_inurba_marseille","lat":43.26935,"lon":5.38922,"is_reserved":false,"is_disabled":false,"rental_uris":{"android":"levelo://app?vid=da3db114-678c-4ad5-9027-9c06241c74d0","ios":"levelo://app?vid=da3db114-678c-4ad5-9027-9c06241c74d0"},"vehicle_type_id":"4","last_reported":1748852156,"current_range_meters":12400,"station_id":"ce4bhhh2rcd13ifvqfl0","pricing_plan_id":"cebpf4jnsgd1na2vs0mg"},{"bike_id":"5184fa22-0b0f-467e-b976-e72642ebdacc","system_id":"levelo_inurba_marseille","lat":43.31225,"lon":5.36858,"is_reserved":false,"is_disabled":false,"rental_uris":{"android":"levelo://app?vid=5184fa22-0b0f-467e-b976-e72642ebdacc","ios":"levelo://app?vid=5184fa22-0b0f-467e-b976-e72642ebdacc"},"vehicle_type_id":"4","last_reported":1748852156,"current_range_meters":12400,"station_id":"ce4bgl92rcd13ifvqbq0","pricing_plan_id":"cebpf4jnsgd1na2vs0mg"},{"bike_id":"10415325-182c-4cb0-a290-1c6ff811cb42","system_id":"levelo_inurba_marseille","lat":43.296809,"lon":5.377462,"is_reserved":false,"is_disabled":false,"rental_uris":{"android":"levelo://app?vid=10415325-182c-4cb0-a290-1c6ff811cb42","ios":"levelo://app?vid=10415325-182c-4cb0-a290-1c6ff811cb42"},"vehicle_type_id":"4","last_reported":1748852156,"current_range_meters":12400,"station_id":"ce4bgkh2rcd13ifvqbl0","pricing_plan_id":"cebpf4jnsgd1na2vs0mg"},{"bike_id":"ec9a1b09-ae3c-4b03-b69f-0ba6c993f3d5","system_id":"levelo_inurba_marseille","lat":43.29615,"lon":5.38111,"is_reserved":false,"is_disabled":false,"rental_uris":{"android":"levelo://app?vid=ec9a1b09-ae3c-4b03-b69f-0ba6c993f3d5","ios":"levelo://app?vid=ec9a1b09-ae3c-4b03-b69f-0ba6c993f3d5"},"vehicle_type_id":"4","last_reported":1748852156,"current_range_meters":12400,"station_id":"ce4bgl12rcd13ifvqbo0","pricing_plan_id":"cebpf4jnsgd1na2vs0mg"},{"bike_id":"dd532de6-672a-4fd7-8b6c-2ad425c0c828","system_id":"levelo_inurba_marseille","lat":43.24185,"lon":5.39732,"is_reserved":false,"is_disabled":false,"rental_uris":{"android":"levelo://app?vid=dd532de6-672a-4fd7-8b6c-2ad425c0c828","ios":"levelo://app?vid=dd532de6-672a-4fd7-8b6c-2ad425c0c828"},"vehicle_type_id":"4","last_reported":1748852156,"current_range_meters":12400,"station_id":"ce4bhn12rcd13ifvqgpg","pricing_plan_id":"cebpf4jnsgd1na2vs0mg"},{"bike_id":"730ef340-c186-4f89-b14c-df4f09693af6","system_id":"levelo_inurba_marseille","lat":43.259355,"lon":5.409073,"is_reserved":false,"is_disabled":false,"rental_uris":{"android":"levelo://app?vid=730ef340-c186-4f89-b14c-df4f09693af6","ios":"levelo://app?vid=730ef340-c186-4f89-b14c-df4f09693af6"},"vehicle_type_id":"4","last_reported":1748852156,"current_range_meters":12400,"station_id":"","pricing_plan_id":"cebpf4jnsgd1na2vs0mg"},{"bike_id":"acbe00fc-31af-42d7-9eb4-6f976caf4873","system_id":"levelo_inurba_marseille","lat":43.24178,"lon":5.39722,"is_reserved":false,"is_disabled":false,"rental_uris":{"android":"levelo://app?vid=acbe00fc-31af-42d7-9eb4-6f976caf4873","ios":"levelo://app?vid=acbe00fc-31af-42d7-9eb4-6f976caf4873"},"vehicle_type_id":"4","last_reported":1748852156,"current_range_meters":12400,"station_id":"ce4bhn12rcd13ifvqgpg","pricing_plan_id":"cebpf4jnsgd1na2vs0mg"},{"bike_id":"0cc99022-c694-4dc2-a755-671f47cf4524","system_id":"levelo_inurba_marseille","lat":43.30545,"lon":5.36698,"is_reserved":false,"is_disabled":false,"rental_uris":{"android":"levelo://app?vid=0cc99022-c694-4dc2-a755-671f47cf4524","ios":"levelo://app?vid=0cc99022-c694-4dc2-a755-671f47cf4524"},"vehicle_type_id":"4","last_reported":1748852156,"current_range_meters":12800,"station_id":"ce4bgrp2rcd13ifvqc9g","pricing_plan_id":"cebpf4jnsgd1na2vs0mg"},{"bike_id":"35ed2995-17a2-4549-bb55-810459c05dd0","system_id":"levelo_inurba_marseille","lat":43.262248,"lon":5.404522,"is_reserved":false,"is_disabled":false,"rental_uris":{"android":"levelo://app?vid=35ed2995-17a2-4549-bb55-810459c05dd0","ios":"levelo://app?vid=35ed2995-17a2-4549-bb55-810459c05dd0"},"vehicle_type_id":"4","last_reported":1748852156,"current_range_meters":12800,"station_id":"ce4bhmh2rcd13ifvqgmg","pricing_plan_id":"cebpf4jnsgd1na2vs0mg"},{"bike_id":"229eedef-94f4-4176-87a0-c12e500146b0","system_id":"levelo_inurba_marseille","lat":43.27325,"lon":5.3911,"is_reserved":false,"is_disabled":false,"rental_uris":{"android":"levelo://app?vid=229eedef-94f4-4176-87a0-c12e500146b0","ios":"levelo://app?vid=229eedef-94f4-4176-87a0-c12e500146b0"},"vehicle_type_id":"4","last_reported":1748852156,"current_range_meters":12800,"station_id":"ce4bhgp2rcd13ifvqfe0","pricing_plan_id":"cebpf4jnsgd1na2vs0mg"},{"bike_id":"f2f3dfd6-2d1e-4684-a087-37f03a4c6723","system_id":"levelo_inurba_marseille","lat":43.26571,"lon":5.39043,"is_reserved":false,"is_disabled":false,"rental_uris":{"android":"levelo://app?vid=f2f3dfd6-2d1e-4684-a087-37f03a4c6723","ios":"levelo://app?vid=f2f3dfd6-2d1e-4684-a087-37f03a4c6723"},"vehicle_type_id":"4","last_reported":1748852156,"current_range_meters":12800,"station_id":"ce4bhe12rcd13ifvqf30","pricing_plan_id":"cebpf4jnsgd1na2vs0mg"},{"bike_id":"7ad062f4-26a6-4c8a-b137-29b7bdd52d40","system_id":"levelo_inurba_marseille","lat":43.29895,"lon":5.43673,"is_reserved":false,"is_disabled":false,"rental_uris":{"android":"levelo://app?vid=7ad062f4-26a6-4c8a-b137-29b7bdd52d40","ios":"levelo://app?vid=7ad062f4-26a6-4c8a-b137-29b7bdd52d40"},"vehicle_type_id":"4","last_reported":1748852156,"current_range_meters":12800,"station_id":"ce4bhpp2rcd13ifvqhfg","pricing_plan_id":"cebpf4jnsgd1na2vs0mg"},{"bike_id":"559375f8-adf8-4cf2-9f1c-19a6693a74b5","system_id":"levelo_inurba_marseille","lat":43.29043,"lon":5.37575,"is_reserved":false,"is_disabled":false,"rental_uris":{"android":"levelo://app?vid=559375f8-adf8-4cf2-9f1c-19a6693a74b5","ios":"levelo://app?vid=559375f8-adf8-4cf2-9f1c-19a6693a74b5"},"vehicle_type_id":"4","last_reported":1748852156,"current_range_meters":12800,"station_id":"ce4bh692rcd13ifvqe90","pricing_plan_id":"cebpf4jnsgd1na2vs0mg"},{"bike_id":"4c9f4c72-ea0d-488c-a185-89935a2aa1f2","system_id":"levelo_inurba_marseille","lat":43.29003,"lon":5.35615,"is_reserved":false,"is_disabled":false,"rental_uris":{"android":"levelo://app?vid=4c9f4c72-ea0d-488c-a185-89935a2aa1f2","ios":"levelo://app?vid=4c9f4c72-ea0d-488c-a185-89935a2aa1f2"},"vehicle_type_id":"4","last_reported":1748852156,"current_range_meters":12800,"station_id":"ce4bhb92rcd13ifvqen0","pricing_plan_id":"cebpf4jnsgd1na2vs0mg"},{"bike_id":"91fc325b-ef7f-40e8-a7b0-68a0fb45832b","system_id":"levelo_inurba_marseille","lat":43.23154,"lon":5.43714,"is_reserved":false,"is_disabled":false,"rental_uris":{"android":"levelo://app?vid=91fc325b-ef7f-40e8-a7b0-68a0fb45832b","ios":"levelo://app?vid=91fc325b-ef7f-40e8-a7b0-68a0fb45832b"},"vehicle_type_id":"4","last_reported":1748852156,"current_range_meters":13600,"station_id":"ce4bhmp2rcd13ifvqgog","pricing_plan_id":"cebpf4jnsgd1na2vs0mg"},{"bike_id":"e8f928eb-0556-4a41-a297-1f7e2e0fd712","system_id":"levelo_inurba_marseille","lat":43.23232,"lon":5.40019,"is_reserved":false,"is_disabled":true,"rental_uris":{"android":"levelo://app?vid=e8f928eb-0556-4a41-a297-1f7e2e0fd712","ios":"levelo://app?vid=e8f928eb-0556-4a41-a297-1f7e2e0fd712"},"vehicle_type_id":"4","last_reported":1748852156,"current_range_meters":13600,"station_id":"ce4bhn12rcd13ifvqgqg","pricing_plan_id":"cebpf4jnsgd1na2vs0mg"},{"bike_id":"19c07eca-016f-479a-9bff-be38f52f81ce","system_id":"levelo_inurba_marseille","lat":43.21749,"lon":5.34603,"is_reserved":false,"is_disabled":false,"rental_uris":{"android":"levelo://app?vid=19c07eca-016f-479a-9bff-be38f52f81ce","ios":"levelo://app?vid=19c07eca-016f-479a-9bff-be38f52f81ce"},"vehicle_type_id":"4","last_reported":1748852156,"current_range_meters":13600,"station_id":"st_cvj6r9ubvosntc0bgbag","pricing_plan_id":"cebpf4jnsgd1na2vs0mg"},{"bike_id":"710991e5-0699-4ac0-a86c-20f24eb26eac","system_id":"levelo_inurba_marseille","lat":43.26959,"lon":5.38638,"is_reserved":false,"is_disabled":false,"rental_uris":{"android":"levelo://app?vid=710991e5-0699-4ac0-a86c-20f24eb26eac","ios":"levelo://app?vid=710991e5-0699-4ac0-a86c-20f24eb26eac"},"vehicle_type_id":"4","last_reported":1748852156,"current_range_meters":12800,"station_id":"ce4bhh92rcd13ifvqfh0","pricing_plan_id":"cebpf4jnsgd1na2vs0mg"},{"bike_id":"1a97a51a-da6c-40c8-a46d-96a784b85657","system_id":"levelo_inurba_marseille","lat":43.29037,"lon":5.39962,"is_reserved":false,"is_disabled":false,"rental_uris":{"android":"levelo://app?vid=1a97a51a-da6c-40c8-a46d-96a784b85657","ios":"levelo://app?vid=1a97a51a-da6c-40c8-a46d-96a784b85657"},"vehicle_type_id":"4","last_reported":1748852156,"current_range_meters":13600,"station_id":"ce4bh392rcd13ifvqdm0","pricing_plan_id":"cebpf4jnsgd1na2vs0mg"},{"bike_id":"b930ee53-1f40-48b1-b1f4-b67ede2eeedc","system_id":"levelo_inurba_marseille","lat":43.25579,"lon":5.38236,"is_reserved":false,"is_disabled":false,"rental_uris":{"android":"levelo://app?vid=b930ee53-1f40-48b1-b1f4-b67ede2eeedc","ios":"levelo://app?vid=b930ee53-1f40-48b1-b1f4-b67ede2eeedc"},"vehicle_type_id":"4","last_reported":1748852156,"current_range_meters":14000,"station_id":"ce4bhih2rcd13ifvqfs0","pricing_plan_id":"cebpf4jnsgd1na2vs0mg"},{"bike_id":"d198c9dc-a484-4aa3-b84a-3439a1b733e9","system_id":"levelo_inurba_marseille","lat":43.30563,"lon":5.36679,"is_reserved":false,"is_disabled":false,"rental_uris":{"android":"levelo://app?vid=d198c9dc-a484-4aa3-b84a-3439a1b733e9","ios":"levelo://app?vid=d198c9dc-a484-4aa3-b84a-3439a1b733e9"},"vehicle_type_id":"4","last_reported":1748852156,"current_range_meters":14000,"station_id":"ce4bgrp2rcd13ifvqc9g","pricing_plan_id":"cebpf4jnsgd1na2vs0mg"},{"bike_id":"3806d50a-00fe-4b01-aa0d-bc7a7f9177b1","system_id":"levelo_inurba_marseille","lat":43.273352,"lon":5.390893,"is_reserved":false,"is_disabled":false,"rental_uris":{"android":"levelo://app?vid=3806d50a-00fe-4b01-aa0d-bc7a7f9177b1","ios":"levelo://app?vid=3806d50a-00fe-4b01-aa0d-bc7a7f9177b1"},"vehicle_type_id":"4","last_reported":1748852156,"current_range_meters":13600,"station_id":"ce4bhgp2rcd13ifvqfe0","pricing_plan_id":"cebpf4jnsgd1na2vs0mg"},{"bike_id":"d02d5462-21e6-4ed8-a1ad-93b72e4f76e4","system_id":"levelo_inurba_marseille","lat":43.303066,"lon":5.369089,"is_reserved":false,"is_disabled":false,"rental_uris":{"android":"levelo://app?vid=d02d5462-21e6-4ed8-a1ad-93b72e4f76e4","ios":"levelo://app?vid=d02d5462-21e6-4ed8-a1ad-93b72e4f76e4"},"vehicle_type_id":"4","last_reported":1748852156,"current_range_meters":14000,"station_id":"ce4bgqh2rcd13ifvqc5g","pricing_plan_id":"cebpf4jnsgd1na2vs0mg"},{"bike_id":"a97ec209-aa76-4ef3-89ec-8d881c8fb33c","system_id":"levelo_inurba_marseille","lat":43.26226,"lon":5.4045,"is_reserved":false,"is_disabled":false,"rental_uris":{"android":"levelo://app?vid=a97ec209-aa76-4ef3-89ec-8d881c8fb33c","ios":"levelo://app?vid=a97ec209-aa76-4ef3-89ec-8d881c8fb33c"},"vehicle_type_id":"4","last_reported":1748852156,"current_range_meters":14000,"station_id":"ce4bhmh2rcd13ifvqgmg","pricing_plan_id":"cebpf4jnsgd1na2vs0mg"},{"bike_id":"61c50a77-5b72-44a5-9f65-0deaed72dcda","system_id":"levelo_inurba_marseille","lat":43.24806,"lon":5.37461,"is_reserved":false,"is_disabled":false,"rental_uris":{"android":"levelo://app?vid=61c50a77-5b72-44a5-9f65-0deaed72dcda","ios":"levelo://app?vid=61c50a77-5b72-44a5-9f65-0deaed72dcda"},"vehicle_type_id":"4","last_reported":1748852156,"current_range_meters":13600,"station_id":"ce4bhgh2rcd13ifvqfb0","pricing_plan_id":"cebpf4jnsgd1na2vs0mg"},{"bike_id":"a2a9fb40-1fdd-4434-a65d-ca7cb81fdeb9","system_id":"levelo_inurba_marseille","lat":43.292626,"lon":5.376373,"is_reserved":false,"is_disabled":false,"rental_uris":{"android":"levelo://app?vid=a2a9fb40-1fdd-4434-a65d-ca7cb81fdeb9","ios":"levelo://app?vid=a2a9fb40-1fdd-4434-a65d-ca7cb81fdeb9"},"vehicle_type_id":"4","last_reported":1748852156,"current_range_meters":14000,"station_id":"ce4bgi12rcd13ifvqb80","pricing_plan_id":"cebpf4jnsgd1na2vs0mg"},{"bike_id":"44ae34a2-447e-418d-9f31-8eaf75b00fdf","system_id":"levelo_inurba_marseille","lat":43.31233,"lon":5.3687,"is_reserved":false,"is_disabled":false,"rental_uris":{"android":"levelo://app?vid=44ae34a2-447e-418d-9f31-8eaf75b00fdf","ios":"levelo://app?vid=44ae34a2-447e-418d-9f31-8eaf75b00fdf"},"vehicle_type_id":"4","last_reported":1748852156,"current_range_meters":14400,"station_id":"ce4bgl92rcd13ifvqbq0","pricing_plan_id":"cebpf4jnsgd1na2vs0mg"},{"bike_id":"b04a264f-788f-497a-ad7c-6815b58284ea","system_id":"levelo_inurba_marseille","lat":43.23185,"lon":5.3999,"is_reserved":false,"is_disabled":false,"rental_uris":{"android":"levelo://app?vid=b04a264f-788f-497a-ad7c-6815b58284ea","ios":"levelo://app?vid=b04a264f-788f-497a-ad7c-6815b58284ea"},"vehicle_type_id":"4","last_reported":1748852156,"current_range_meters":14400,"station_id":"ce4bhn12rcd13ifvqgqg","pricing_plan_id":"cebpf4jnsgd1na2vs0mg"},{"bike_id":"dc6c3444-9ba0-47fc-8611-9a1252aa910e","system_id":"levelo_inurba_marseille","lat":43.22507,"lon":5.34786,"is_reserved":false,"is_disabled":false,"rental_uris":{"android":"levelo://app?vid=dc6c3444-9ba0-47fc-8611-9a1252aa910e","ios":"levelo://app?vid=dc6c3444-9ba0-47fc-8611-9a1252aa910e"},"vehicle_type_id":"4","last_reported":1748852156,"current_range_meters":14400,"station_id":"st_cvj5dfep6f1abm77gieg","pricing_plan_id":"cebpf4jnsgd1na2vs0mg"},{"bike_id":"d1f9fd8c-d8c6-4862-984b-dd0bcba6ceb2","system_id":"levelo_inurba_marseille","lat":43.31494,"lon":5.37301,"is_reserved":false,"is_disabled":false,"rental_uris":{"android":"levelo://app?vid=d1f9fd8c-d8c6-4862-984b-dd0bcba6ceb2","ios":"levelo://app?vid=d1f9fd8c-d8c6-4862-984b-dd0bcba6ceb2"},"vehicle_type_id":"4","last_reported":1748852156,"current_range_meters":14400,"station_id":"ce4bgt12rcd13ifvqcd0","pricing_plan_id":"cebpf4jnsgd1na2vs0mg"},{"bike_id":"42459521-cadb-44bf-9880-2945be9893e9","system_id":"levelo_inurba_marseille","lat":43.24116,"lon":5.37789,"is_reserved":false,"is_disabled":false,"rental_uris":{"android":"levelo://app?vid=42459521-cadb-44bf-9880-2945be9893e9","ios":"levelo://app?vid=42459521-cadb-44bf-9880-2945be9893e9"},"vehicle_type_id":"4","last_reported":1748852156,"current_range_meters":14800,"station_id":"","pricing_plan_id":"cebpf4jnsgd1na2vs0mg"},{"bike_id":"25be6c0d-7b49-4497-9397-757125443022","system_id":"levelo_inurba_marseille","lat":43.31393,"lon":5.36705,"is_reserved":false,"is_disabled":false,"rental_uris":{"android":"levelo://app?vid=25be6c0d-7b49-4497-9397-757125443022","ios":"levelo://app?vid=25be6c0d-7b49-4497-9397-757125443022"},"vehicle_type_id":"4","last_reported":1748852156,"current_range_meters":14800,"station_id":"ce4bgr92rcd13ifvqc6g","pricing_plan_id":"cebpf4jnsgd1na2vs0mg"},{"bike_id":"c43fa325-4fc3-4fa3-bef4-9b302d9f1214","system_id":"levelo_inurba_marseille","lat":43.287181,"lon":5.37963,"is_reserved":false,"is_disabled":false,"rental_uris":{"android":"levelo://app?vid=c43fa325-4fc3-4fa3-bef4-9b302d9f1214","ios":"levelo://app?vid=c43fa325-4fc3-4fa3-bef4-9b302d9f1214"},"vehicle_type_id":"4","last_reported":1748852156,"current_range_meters":14800,"station_id":"ce4bgrp2rcd13ifvqc9g","pricing_plan_id":"cebpf4jnsgd1na2vs0mg"},{"bike_id":"066ccca4-42a1-455f-a211-f6ea7c97221e","system_id":"levelo_inurba_marseille","lat":43.265707,"lon":5.3901,"is_reserved":false,"is_disabled":false,"rental_uris":{"android":"levelo://app?vid=066ccca4-42a1-455f-a211-f6ea7c97221e","ios":"levelo://app?vid=066ccca4-42a1-455f-a211-f6ea7c97221e"},"vehicle_type_id":"4","last_reported":1748852156,"current_range_meters":14800,"station_id":"ce4bh312rcd13ifvqdk0","pricing_plan_id":"cebpf4jnsgd1na2vs0mg"},{"bike_id":"d2097029-c5b5-4a58-80b3-0bea07b04c15","system_id":"levelo_inurba_marseille","lat":43.302755,"lon":5.377043,"is_reserved":false,"is_disabled":false,"rental_uris":{"android":"levelo://app?vid=d2097029-c5b5-4a58-80b3-0bea07b04c15","ios":"levelo://app?vid=d2097029-c5b5-4a58-80b3-0bea07b04c15"},"vehicle_type_id":"4","last_reported":1748852156,"current_range_meters":14400,"station_id":"ce4bguh2rcd13ifvqcj0","pricing_plan_id":"cebpf4jnsgd1na2vs0mg"},{"bike_id":"3004e7e8-9484-4595-b022-ec8baee9df0a","system_id":"levelo_inurba_marseille","lat":43.26224,"lon":5.40449,"is_reserved":false,"is_disabled":false,"rental_uris":{"android":"levelo://app?vid=3004e7e8-9484-4595-b022-ec8baee9df0a","ios":"levelo://app?vid=3004e7e8-9484-4595-b022-ec8baee9df0a"},"vehicle_type_id":"4","last_reported":1748852156,"current_range_meters":14800,"station_id":"ce4bhmh2rcd13ifvqgmg","pricing_plan_id":"cebpf4jnsgd1na2vs0mg"},{"bike_id":"ed8e13b6-61d9-4b4c-90fb-9c3f7fef78b5","system_id":"levelo_inurba_marseille","lat":43.28921,"lon":5.3729,"is_reserved":false,"is_disabled":false,"rental_uris":{"android":"levelo://app?vid=ed8e13b6-61d9-4b4c-90fb-9c3f7fef78b5","ios":"levelo://app?vid=ed8e13b6-61d9-4b4c-90fb-9c3f7fef78b5"},"vehicle_type_id":"4","last_reported":1748852156,"current_range_meters":14800,"station_id":"","pricing_plan_id":"cebpf4jnsgd1na2vs0mg"},{"bike_id":"1d65bc3d-3f50-4f46-a580-c121857e8e69","system_id":"levelo_inurba_marseille","lat":43.28155,"lon":5.42648,"is_reserved":false,"is_disabled":false,"rental_uris":{"android":"levelo://app?vid=1d65bc3d-3f50-4f46-a580-c121857e8e69","ios":"levelo://app?vid=1d65bc3d-3f50-4f46-a580-c121857e8e69"},"vehicle_type_id":"4","last_reported":1748852156,"current_range_meters":14800,"station_id":"ce4bhnh2rcd13ifvqgug","pricing_plan_id":"cebpf4jnsgd1na2vs0mg"},{"bike_id":"49f22349-8392-495d-854d-8b91399cbd8f","system_id":"levelo_inurba_marseille","lat":43.32571,"lon":5.4251,"is_reserved":false,"is_disabled":false,"rental_uris":{"android":"levelo://app?vid=49f22349-8392-495d-854d-8b91399cbd8f","ios":"levelo://app?vid=49f22349-8392-495d-854d-8b91399cbd8f"},"vehicle_type_id":"4","last_reported":1748852156,"current_range_meters":14800,"station_id":"","pricing_plan_id":"cebpf4jnsgd1na2vs0mg"},{"bike_id":"5aabb07e-b02b-4368-a26a-47b1e2536717","system_id":"levelo_inurba_marseille","lat":43.259323,"lon":5.409063,"is_reserved":false,"is_disabled":false,"rental_uris":{"android":"levelo://app?vid=5aabb07e-b02b-4368-a26a-47b1e2536717","ios":"levelo://app?vid=5aabb07e-b02b-4368-a26a-47b1e2536717"},"vehicle_type_id":"4","last_reported":1748852156,"current_range_meters":15200,"station_id":"ce4bhm92rcd13ifvqglg","pricing_plan_id":"cebpf4jnsgd1na2vs0mg"},{"bike_id":"a39df39d-93aa-4b03-b474-7b2ff1b86284","system_id":"levelo_inurba_marseille","lat":43.32361,"lon":5.36756,"is_reserved":false,"is_disabled":false,"rental_uris":{"android":"levelo://app?vid=a39df39d-93aa-4b03-b474-7b2ff1b86284","ios":"levelo://app?vid=a39df39d-93aa-4b03-b474-7b2ff1b86284"},"vehicle_type_id":"4","last_reported":1748852156,"current_range_meters":14000,"station_id":"ce4bhsh2rcd13ifvqi2g","pricing_plan_id":"cebpf4jnsgd1na2vs0mg"},{"bike_id":"4d792978-04b8-4d9d-a4e5-25acbff07fed","system_id":"levelo_inurba_marseille","lat":43.29261,"lon":5.37619,"is_reserved":false,"is_disabled":false,"rental_uris":{"android":"levelo://app?vid=4d792978-04b8-4d9d-a4e5-25acbff07fed","ios":"levelo://app?vid=4d792978-04b8-4d9d-a4e5-25acbff07fed"},"vehicle_type_id":"4","last_reported":1748852156,"current_range_meters":15200,"station_id":"ce4bgi12rcd13ifvqb80","pricing_plan_id":"cebpf4jnsgd1na2vs0mg"},{"bike_id":"bac690e4-2de8-4772-b802-2affaff5cf4c","system_id":"levelo_inurba_marseille","lat":43.30475,"lon":5.379,"is_reserved":false,"is_disabled":false,"rental_uris":{"android":"levelo://app?vid=bac690e4-2de8-4772-b802-2affaff5cf4c","ios":"levelo://app?vid=bac690e4-2de8-4772-b802-2affaff5cf4c"},"vehicle_type_id":"4","last_reported":1748852156,"current_range_meters":15200,"station_id":"ce4bgup2rcd13ifvqcn0","pricing_plan_id":"cebpf4jnsgd1na2vs0mg"},{"bike_id":"5635a678-885c-4ffb-a793-dc3b8a2a2755","system_id":"levelo_inurba_marseille","lat":43.32371,"lon":5.38879,"is_reserved":false,"is_disabled":false,"rental_uris":{"android":"levelo://app?vid=5635a678-885c-4ffb-a793-dc3b8a2a2755","ios":"levelo://app?vid=5635a678-885c-4ffb-a793-dc3b8a2a2755"},"vehicle_type_id":"4","last_reported":1748852156,"current_range_meters":15200,"station_id":"ce4bhqp2rcd13ifvqhog","pricing_plan_id":"cebpf4jnsgd1na2vs0mg"},{"bike_id":"21335fe1-e361-4f25-9703-649c07cc251d","system_id":"levelo_inurba_marseille","lat":43.32029,"lon":5.36816,"is_reserved":false,"is_disabled":false,"rental_uris":{"android":"levelo://app?vid=21335fe1-e361-4f25-9703-649c07cc251d","ios":"levelo://app?vid=21335fe1-e361-4f25-9703-649c07cc251d"},"vehicle_type_id":"4","last_reported":1748852156,"current_range_meters":16000,"station_id":"","pricing_plan_id":"cebpf4jnsgd1na2vs0mg"},{"bike_id":"d70590aa-f1a6-442d-8fec-879df271d637","system_id":"levelo_inurba_marseille","lat":43.28353,"lon":5.38113,"is_reserved":false,"is_disabled":false,"rental_uris":{"android":"levelo://app?vid=d70590aa-f1a6-442d-8fec-879df271d637","ios":"levelo://app?vid=d70590aa-f1a6-442d-8fec-879df271d637"},"vehicle_type_id":"4","last_reported":1748852156,"current_range_meters":16000,"station_id":"ce4bh412rcd13ifvqdr0","pricing_plan_id":"cebpf4jnsgd1na2vs0mg"},{"bike_id":"3ca0e634-0db6-4da1-b363-f0ad4893e7ff","system_id":"levelo_inurba_marseille","lat":43.26681,"lon":5.38273,"is_reserved":false,"is_disabled":false,"rental_uris":{"android":"levelo://app?vid=3ca0e634-0db6-4da1-b363-f0ad4893e7ff","ios":"levelo://app?vid=3ca0e634-0db6-4da1-b363-f0ad4893e7ff"},"vehicle_type_id":"4","last_reported":1748852156,"current_range_meters":16000,"station_id":"ce4bhg92rcd13ifvqf90","pricing_plan_id":"cebpf4jnsgd1na2vs0mg"},{"bike_id":"ca1543b3-101f-4f6d-b2bc-bc703ea11cf3","system_id":"levelo_inurba_marseille","lat":43.24078,"lon":5.37749,"is_reserved":false,"is_disabled":false,"rental_uris":{"android":"levelo://app?vid=ca1543b3-101f-4f6d-b2bc-bc703ea11cf3","ios":"levelo://app?vid=ca1543b3-101f-4f6d-b2bc-bc703ea11cf3"},"vehicle_type_id":"4","last_reported":1748852156,"current_range_meters":15200,"station_id":"ce4bhnp2rcd13ifvqgvg","pricing_plan_id":"cebpf4jnsgd1na2vs0mg"},{"bike_id":"8553b8b5-1d4b-4e35-bbd4-ba8683e2110b","system_id":"levelo_inurba_marseille","lat":43.31343,"lon":5.36728,"is_reserved":false,"is_disabled":false,"rental_uris":{"android":"levelo://app?vid=8553b8b5-1d4b-4e35-bbd4-ba8683e2110b","ios":"levelo://app?vid=8553b8b5-1d4b-4e35-bbd4-ba8683e2110b"},"vehicle_type_id":"4","last_reported":1748852156,"current_range_meters":16000,"station_id":"ce4bgr92rcd13ifvqc6g","pricing_plan_id":"cebpf4jnsgd1na2vs0mg"},{"bike_id":"e49d7758-dc18-4d4e-bcfb-b4ffe60caf02","system_id":"levelo_inurba_marseille","lat":43.30535,"lon":5.36553,"is_reserved":false,"is_disabled":false,"rental_uris":{"android":"levelo://app?vid=e49d7758-dc18-4d4e-bcfb-b4ffe60caf02","ios":"levelo://app?vid=e49d7758-dc18-4d4e-bcfb-b4ffe60caf02"},"vehicle_type_id":"4","last_reported":1748852156,"current_range_meters":16000,"station_id":"ce4bgs12rcd13ifvqcag","pricing_plan_id":"cebpf4jnsgd1na2vs0mg"},{"bike_id":"509a3b4e-c929-4298-9b04-8ddaa22ba5f8","system_id":"levelo_inurba_marseille","lat":43.29166,"lon":5.37161,"is_reserved":false,"is_disabled":false,"rental_uris":{"android":"levelo://app?vid=509a3b4e-c929-4298-9b04-8ddaa22ba5f8","ios":"levelo://app?vid=509a3b4e-c929-4298-9b04-8ddaa22ba5f8"},"vehicle_type_id":"4","last_reported":1748852156,"current_range_meters":15200,"station_id":"ce4bha92rcd13ifvqeh0","pricing_plan_id":"cebpf4jnsgd1na2vs0mg"},{"bike_id":"9ae06399-5dba-47b8-ac5a-0d7167227708","system_id":"levelo_inurba_marseille","lat":43.30531,"lon":5.36561,"is_reserved":false,"is_disabled":false,"rental_uris":{"android":"levelo://app?vid=9ae06399-5dba-47b8-ac5a-0d7167227708","ios":"levelo://app?vid=9ae06399-5dba-47b8-ac5a-0d7167227708"},"vehicle_type_id":"4","last_reported":1748852156,"current_range_meters":16000,"station_id":"ce4bgs12rcd13ifvqcag","pricing_plan_id":"cebpf4jnsgd1na2vs0mg"},{"bike_id":"c37c2fc8-c917-425d-b159-724316eac607","system_id":"levelo_inurba_marseille","lat":43.29006,"lon":5.35611,"is_reserved":false,"is_disabled":false,"rental_uris":{"android":"levelo://app?vid=c37c2fc8-c917-425d-b159-724316eac607","ios":"levelo://app?vid=c37c2fc8-c917-425d-b159-724316eac607"},"vehicle_type_id":"4","last_reported":1748852156,"current_range_meters":15200,"station_id":"ce4bhb92rcd13ifvqen0","pricing_plan_id":"cebpf4jnsgd1na2vs0mg"},{"bike_id":"8f8db83b-93a4-4fb2-b181-50b98bfbfc20","system_id":"levelo_inurba_marseille","lat":43.27939,"lon":5.38898,"is_reserved":false,"is_disabled":false,"rental_uris":{"android":"levelo://app?vid=8f8db83b-93a4-4fb2-b181-50b98bfbfc20","ios":"levelo://app?vid=8f8db83b-93a4-4fb2-b181-50b98bfbfc20"},"vehicle_type_id":"4","last_reported":1748852156,"current_range_meters":16000,"station_id":"","pricing_plan_id":"cebpf4jnsgd1na2vs0mg"},{"bike_id":"3e12a5c4-055c-468d-8bcf-8fef782e4ba3","system_id":"levelo_inurba_marseille","lat":43.30549,"lon":5.36685,"is_reserved":false,"is_disabled":false,"rental_uris":{"android":"levelo://app?vid=3e12a5c4-055c-468d-8bcf-8fef782e4ba3","ios":"levelo://app?vid=3e12a5c4-055c-468d-8bcf-8fef782e4ba3"},"vehicle_type_id":"4","last_reported":1748852156,"current_range_meters":16400,"station_id":"ce4bgrp2rcd13ifvqc9g","pricing_plan_id":"cebpf4jnsgd1na2vs0mg"},{"bike_id":"9d86dbd1-067d-469f-9039-aa45c3743fb0","system_id":"levelo_inurba_marseille","lat":43.28766,"lon":5.4006,"is_reserved":false,"is_disabled":false,"rental_uris":{"android":"levelo://app?vid=9d86dbd1-067d-469f-9039-aa45c3743fb0","ios":"levelo://app?vid=9d86dbd1-067d-469f-9039-aa45c3743fb0"},"vehicle_type_id":"4","last_reported":1748852156,"current_range_meters":16400,"station_id":"","pricing_plan_id":"cebpf4jnsgd1na2vs0mg"},{"bike_id":"9770d4a3-077a-4ab0-9466-40bf0f079c6c","system_id":"levelo_inurba_marseille","lat":43.30916,"lon":5.36851,"is_reserved":false,"is_disabled":false,"rental_uris":{"android":"levelo://app?vid=9770d4a3-077a-4ab0-9466-40bf0f079c6c","ios":"levelo://app?vid=9770d4a3-077a-4ab0-9466-40bf0f079c6c"},"vehicle_type_id":"4","last_reported":1748852156,"current_range_meters":16400,"station_id":"ce4bgn92rcd13ifvqbvg","pricing_plan_id":"cebpf4jnsgd1na2vs0mg"},{"bike_id":"a9d0afe2-a9aa-4b91-92f9-60a2df65d8fb","system_id":"levelo_inurba_marseille","lat":43.28473,"lon":5.38428,"is_reserved":false,"is_disabled":true,"rental_uris":{"android":"levelo://app?vid=a9d0afe2-a9aa-4b91-92f9-60a2df65d8fb","ios":"levelo://app?vid=a9d0afe2-a9aa-4b91-92f9-60a2df65d8fb"},"vehicle_type_id":"4","last_reported":1748852156,"current_range_meters":16400,"station_id":"ce4bh512rcd13ifvqe3g","pricing_plan_id":"cebpf4jnsgd1na2vs0mg"},{"bike_id":"ae7aa735-1011-4857-8bab-7d6f9c7288e5","system_id":"levelo_inurba_marseille","lat":43.30587,"lon":5.3647,"is_reserved":false,"is_disabled":false,"rental_uris":{"android":"levelo://app?vid=ae7aa735-1011-4857-8bab-7d6f9c7288e5","ios":"levelo://app?vid=ae7aa735-1011-4857-8bab-7d6f9c7288e5"},"vehicle_type_id":"4","last_reported":1748852156,"current_range_meters":16400,"station_id":"ce4bgs12rcd13ifvqcag","pricing_plan_id":"cebpf4jnsgd1na2vs0mg"},{"bike_id":"04c0d0ae-d92d-4af3-8380-e0197cf9aefe","system_id":"levelo_inurba_marseille","lat":43.31358,"lon":5.36723,"is_reserved":false,"is_disabled":false,"rental_uris":{"android":"levelo://app?vid=04c0d0ae-d92d-4af3-8380-e0197cf9aefe","ios":"levelo://app?vid=04c0d0ae-d92d-4af3-8380-e0197cf9aefe"},"vehicle_type_id":"4","last_reported":1748852156,"current_range_meters":16800,"station_id":"ce4bgr92rcd13ifvqc6g","pricing_plan_id":"cebpf4jnsgd1na2vs0mg"},{"bike_id":"c5a09ba4-aa39-4789-921b-7959432078fe","system_id":"levelo_inurba_marseille","lat":43.24166,"lon":5.36392,"is_reserved":false,"is_disabled":false,"rental_uris":{"android":"levelo://app?vid=c5a09ba4-aa39-4789-921b-7959432078fe","ios":"levelo://app?vid=c5a09ba4-aa39-4789-921b-7959432078fe"},"vehicle_type_id":"4","last_reported":1748852156,"current_range_meters":16800,"station_id":"cpo36qri1sfpv3e86is0","pricing_plan_id":"cebpf4jnsgd1na2vs0mg"},{"bike_id":"003928a5-4702-454d-9f12-82d8e17cf28e","system_id":"levelo_inurba_marseille","lat":43.28619,"lon":5.35105,"is_reserved":false,"is_disabled":false,"rental_uris":{"android":"levelo://app?vid=003928a5-4702-454d-9f12-82d8e17cf28e","ios":"levelo://app?vid=003928a5-4702-454d-9f12-82d8e17cf28e"},"vehicle_type_id":"4","last_reported":1748852156,"current_range_meters":16800,"station_id":"ce4bhch2rcd13ifvqeug","pricing_plan_id":"cebpf4jnsgd1na2vs0mg"},{"bike_id":"b0e77b09-837f-49a5-816e-2b333aa54c52","system_id":"levelo_inurba_marseille","lat":43.29004,"lon":5.35619,"is_reserved":false,"is_disabled":false,"rental_uris":{"android":"levelo://app?vid=b0e77b09-837f-49a5-816e-2b333aa54c52","ios":"levelo://app?vid=b0e77b09-837f-49a5-816e-2b333aa54c52"},"vehicle_type_id":"4","last_reported":1748852156,"current_range_meters":16800,"station_id":"ce4bhb92rcd13ifvqen0","pricing_plan_id":"cebpf4jnsgd1na2vs0mg"},{"bike_id":"8adfb0cc-29f5-47e5-b404-a8059ceb3716","system_id":"levelo_inurba_marseille","lat":43.30962,"lon":5.36871,"is_reserved":false,"is_disabled":false,"rental_uris":{"android":"levelo://app?vid=8adfb0cc-29f5-47e5-b404-a8059ceb3716","ios":"levelo://app?vid=8adfb0cc-29f5-47e5-b404-a8059ceb3716"},"vehicle_type_id":"4","last_reported":1748852156,"current_range_meters":16400,"station_id":"ce4bgn92rcd13ifvqbvg","pricing_plan_id":"cebpf4jnsgd1na2vs0mg"},{"bike_id":"32cdc2ba-8bb5-4859-bee4-c93f3a3853c0","system_id":"levelo_inurba_marseille","lat":43.26959,"lon":5.38634,"is_reserved":false,"is_disabled":false,"rental_uris":{"android":"levelo://app?vid=32cdc2ba-8bb5-4859-bee4-c93f3a3853c0","ios":"levelo://app?vid=32cdc2ba-8bb5-4859-bee4-c93f3a3853c0"},"vehicle_type_id":"4","last_reported":1748852156,"current_range_meters":16800,"station_id":"ce4bhh92rcd13ifvqfh0","pricing_plan_id":"cebpf4jnsgd1na2vs0mg"},{"bike_id":"ba0ad73f-9b93-48b9-a2f6-562edffece5f","system_id":"levelo_inurba_marseille","lat":43.3092,"lon":5.36843,"is_reserved":false,"is_disabled":false,"rental_uris":{"android":"levelo://app?vid=ba0ad73f-9b93-48b9-a2f6-562edffece5f","ios":"levelo://app?vid=ba0ad73f-9b93-48b9-a2f6-562edffece5f"},"vehicle_type_id":"4","last_reported":1748852156,"current_range_meters":16800,"station_id":"ce4bgn92rcd13ifvqbvg","pricing_plan_id":"cebpf4jnsgd1na2vs0mg"},{"bike_id":"c689a027-4467-4041-b905-5583c6a7b2ac","system_id":"levelo_inurba_marseille","lat":43.28729,"lon":5.37948,"is_reserved":false,"is_disabled":false,"rental_uris":{"android":"levelo://app?vid=c689a027-4467-4041-b905-5583c6a7b2ac","ios":"levelo://app?vid=c689a027-4467-4041-b905-5583c6a7b2ac"},"vehicle_type_id":"4","last_reported":1748852156,"current_range_meters":16800,"station_id":"ce4bh9p2rcd13ifvqec0","pricing_plan_id":"cebpf4jnsgd1na2vs0mg"},{"bike_id":"9a918d8f-00d4-40a9-96d8-13c25b2792a8","system_id":"levelo_inurba_marseille","lat":43.301424,"lon":5.374193,"is_reserved":false,"is_disabled":false,"rental_uris":{"android":"levelo://app?vid=9a918d8f-00d4-40a9-96d8-13c25b2792a8","ios":"levelo://app?vid=9a918d8f-00d4-40a9-96d8-13c25b2792a8"},"vehicle_type_id":"4","last_reported":1748852156,"current_range_meters":17200,"station_id":"ce4bgs92rcd13ifvqcc0","pricing_plan_id":"cebpf4jnsgd1na2vs0mg"},{"bike_id":"19513994-62e6-4905-bd06-585027b74d88","system_id":"levelo_inurba_marseille","lat":43.30474,"lon":5.37905,"is_reserved":false,"is_disabled":false,"rental_uris":{"android":"levelo://app?vid=19513994-62e6-4905-bd06-585027b74d88","ios":"levelo://app?vid=19513994-62e6-4905-bd06-585027b74d88"},"vehicle_type_id":"4","last_reported":1748852156,"current_range_meters":17200,"station_id":"ce4bgup2rcd13ifvqcn0","pricing_plan_id":"cebpf4jnsgd1na2vs0mg"},{"bike_id":"b301bb9a-e3e8-4b82-8e44-66fe01208815","system_id":"levelo_inurba_marseille","lat":43.32004,"lon":5.38138,"is_reserved":false,"is_disabled":false,"rental_uris":{"android":"levelo://app?vid=b301bb9a-e3e8-4b82-8e44-66fe01208815","ios":"levelo://app?vid=b301bb9a-e3e8-4b82-8e44-66fe01208815"},"vehicle_type_id":"4","last_reported":1748852156,"current_range_meters":17200,"station_id":"ce4bhr12rcd13ifvqhpg","pricing_plan_id":"cebpf4jnsgd1na2vs0mg"},{"bike_id":"d9e8adde-ab4e-4555-9c3a-318be610c0e8","system_id":"levelo_inurba_marseille","lat":43.241665,"lon":5.363947,"is_reserved":false,"is_disabled":false,"rental_uris":{"android":"levelo://app?vid=d9e8adde-ab4e-4555-9c3a-318be610c0e8","ios":"levelo://app?vid=d9e8adde-ab4e-4555-9c3a-318be610c0e8"},"vehicle_type_id":"4","last_reported":1748852156,"current_range_meters":17200,"station_id":"cpo36qri1sfpv3e86is0","pricing_plan_id":"cebpf4jnsgd1na2vs0mg"},{"bike_id":"c7e58958-5199-4f96-9f5d-f848d1261128","system_id":"levelo_inurba_marseille","lat":43.2407,"lon":5.37734,"is_reserved":false,"is_disabled":false,"rental_uris":{"android":"levelo://app?vid=c7e58958-5199-4f96-9f5d-f848d1261128","ios":"levelo://app?vid=c7e58958-5199-4f96-9f5d-f848d1261128"},"vehicle_type_id":"4","last_reported":1748852156,"current_range_meters":17200,"station_id":"ce4bhnp2rcd13ifvqgvg","pricing_plan_id":"cebpf4jnsgd1na2vs0mg"},{"bike_id":"5bf650cc-7d9d-46cd-98d7-5b8c3fab5635","system_id":"levelo_inurba_marseille","lat":43.25106,"lon":5.40316,"is_reserved":false,"is_disabled":false,"rental_uris":{"android":"levelo://app?vid=5bf650cc-7d9d-46cd-98d7-5b8c3fab5635","ios":"levelo://app?vid=5bf650cc-7d9d-46cd-98d7-5b8c3fab5635"},"vehicle_type_id":"4","last_reported":1748852156,"current_range_meters":17200,"station_id":"ce4bhlh2rcd13ifvqgig","pricing_plan_id":"cebpf4jnsgd1na2vs0mg"},{"bike_id":"4587eed8-e272-4e67-9ea4-0ccc94b80ec8","system_id":"levelo_inurba_marseille","lat":43.303085,"lon":5.368921,"is_reserved":false,"is_disabled":false,"rental_uris":{"android":"levelo://app?vid=4587eed8-e272-4e67-9ea4-0ccc94b80ec8","ios":"levelo://app?vid=4587eed8-e272-4e67-9ea4-0ccc94b80ec8"},"vehicle_type_id":"4","last_reported":1748852156,"current_range_meters":17200,"station_id":"ce4bgqh2rcd13ifvqc5g","pricing_plan_id":"cebpf4jnsgd1na2vs0mg"},{"bike_id":"47fb1a12-dec1-45fa-bddf-fc9ce386b7f0","system_id":"levelo_inurba_marseille","lat":43.30462,"lon":5.37903,"is_reserved":false,"is_disabled":false,"rental_uris":{"android":"levelo://app?vid=47fb1a12-dec1-45fa-bddf-fc9ce386b7f0","ios":"levelo://app?vid=47fb1a12-dec1-45fa-bddf-fc9ce386b7f0"},"vehicle_type_id":"4","last_reported":1748852156,"current_range_meters":17200,"station_id":"ce4bgup2rcd13ifvqcn0","pricing_plan_id":"cebpf4jnsgd1na2vs0mg"},{"bike_id":"6b40d269-3252-44de-9099-c4e724d5d0fc","system_id":"levelo_inurba_marseille","lat":43.25914,"lon":5.40899,"is_reserved":false,"is_disabled":false,"rental_uris":{"android":"levelo://app?vid=6b40d269-3252-44de-9099-c4e724d5d0fc","ios":"levelo://app?vid=6b40d269-3252-44de-9099-c4e724d5d0fc"},"vehicle_type_id":"4","last_reported":1748852156,"current_range_meters":17600,"station_id":"ce4bhm92rcd13ifvqglg","pricing_plan_id":"cebpf4jnsgd1na2vs0mg"},{"bike_id":"b5bcdb6e-c46b-4433-bcbf-3b4dbfe7a4ca","system_id":"levelo_inurba_marseille","lat":43.29532,"lon":5.38544,"is_reserved":false,"is_disabled":false,"rental_uris":{"android":"levelo://app?vid=b5bcdb6e-c46b-4433-bcbf-3b4dbfe7a4ca","ios":"levelo://app?vid=b5bcdb6e-c46b-4433-bcbf-3b4dbfe7a4ca"},"vehicle_type_id":"4","last_reported":1748852156,"current_range_meters":17600,"station_id":"ce4bgih2rcd13ifvqba0","pricing_plan_id":"cebpf4jnsgd1na2vs0mg"},{"bike_id":"f8ffd195-22f6-4cef-80df-c80ce9eca6dd","system_id":"levelo_inurba_marseille","lat":43.29279,"lon":5.40109,"is_reserved":false,"is_disabled":false,"rental_uris":{"android":"levelo://app?vid=f8ffd195-22f6-4cef-80df-c80ce9eca6dd","ios":"levelo://app?vid=f8ffd195-22f6-4cef-80df-c80ce9eca6dd"},"vehicle_type_id":"4","last_reported":1748852156,"current_range_meters":17600,"station_id":"ce4bh312rcd13ifvqdk0","pricing_plan_id":"cebpf4jnsgd1na2vs0mg"},{"bike_id":"fec175fd-ce79-4b20-ad49-237aa7c8e2fa","system_id":"levelo_inurba_marseille","lat":43.29572,"lon":5.37526,"is_reserved":false,"is_disabled":false,"rental_uris":{"android":"levelo://app?vid=fec175fd-ce79-4b20-ad49-237aa7c8e2fa","ios":"levelo://app?vid=fec175fd-ce79-4b20-ad49-237aa7c8e2fa"},"vehicle_type_id":"4","last_reported":1748852156,"current_range_meters":17600,"station_id":"ce4bgh92rcd13ifvqb50","pricing_plan_id":"cebpf4jnsgd1na2vs0mg"},{"bike_id":"197b20a9-fb45-4c71-b59f-2c5f5881928f","system_id":"levelo_inurba_marseille","lat":43.29578,"lon":5.37499,"is_reserved":false,"is_disabled":false,"rental_uris":{"android":"levelo://app?vid=197b20a9-fb45-4c71-b59f-2c5f5881928f","ios":"levelo://app?vid=197b20a9-fb45-4c71-b59f-2c5f5881928f"},"vehicle_type_id":"4","last_reported":1748852156,"current_range_meters":18000,"station_id":"ce4bgh92rcd13ifvqb50","pricing_plan_id":"cebpf4jnsgd1na2vs0mg"},{"bike_id":"8a21807b-b65f-4906-aa1d-4518b719b52b","system_id":"levelo_inurba_marseille","lat":43.28721,"lon":5.37944,"is_reserved":false,"is_disabled":false,"rental_uris":{"android":"levelo://app?vid=8a21807b-b65f-4906-aa1d-4518b719b52b","ios":"levelo://app?vid=8a21807b-b65f-4906-aa1d-4518b719b52b"},"vehicle_type_id":"4","last_reported":1748852156,"current_range_meters":18000,"station_id":"ce4bh9p2rcd13ifvqec0","pricing_plan_id":"cebpf4jnsgd1na2vs0mg"},{"bike_id":"b2be45b9-67de-4a3f-a2b3-b780e169b671","system_id":"levelo_inurba_marseille","lat":43.337444,"lon":5.374475,"is_reserved":false,"is_disabled":true,"rental_uris":{"android":"levelo://app?vid=b2be45b9-67de-4a3f-a2b3-b780e169b671","ios":"levelo://app?vid=b2be45b9-67de-4a3f-a2b3-b780e169b671"},"vehicle_type_id":"4","last_reported":1748852156,"current_range_meters":18000,"station_id":"ce4bgup2rcd13ifvqcn0","pricing_plan_id":"cebpf4jnsgd1na2vs0mg"},{"bike_id":"d73d239e-6f37-4b9a-a0b8-50600c5e7b37","system_id":"levelo_inurba_marseille","lat":43.29843,"lon":5.36275,"is_reserved":false,"is_disabled":false,"rental_uris":{"android":"levelo://app?vid=d73d239e-6f37-4b9a-a0b8-50600c5e7b37","ios":"levelo://app?vid=d73d239e-6f37-4b9a-a0b8-50600c5e7b37"},"vehicle_type_id":"4","last_reported":1748852156,"current_range_meters":18000,"station_id":"ce4bgpp2rcd13ifvqc3g","pricing_plan_id":"cebpf4jnsgd1na2vs0mg"},{"bike_id":"7264244a-cec6-4e60-841b-4272e01b10a8","system_id":"levelo_inurba_marseille","lat":43.30325,"lon":5.36912,"is_reserved":false,"is_disabled":false,"rental_uris":{"android":"levelo://app?vid=7264244a-cec6-4e60-841b-4272e01b10a8","ios":"levelo://app?vid=7264244a-cec6-4e60-841b-4272e01b10a8"},"vehicle_type_id":"4","last_reported":1748852156,"current_range_meters":18000,"station_id":"ce4bgqh2rcd13ifvqc5g","pricing_plan_id":"cebpf4jnsgd1na2vs0mg"},{"bike_id":"653a2aae-3b8d-49c9-b867-523e60951faf","system_id":"levelo_inurba_marseille","lat":43.290325,"lon":5.399704,"is_reserved":false,"is_disabled":false,"rental_uris":{"android":"levelo://app?vid=653a2aae-3b8d-49c9-b867-523e60951faf","ios":"levelo://app?vid=653a2aae-3b8d-49c9-b867-523e60951faf"},"vehicle_type_id":"4","last_reported":1748852156,"current_range_meters":18000,"station_id":"ce4bh392rcd13ifvqdm0","pricing_plan_id":"cebpf4jnsgd1na2vs0mg"},{"bike_id":"8b1e8b45-f57f-4122-b27a-d1f00d2e0d23","system_id":"levelo_inurba_marseille","lat":43.26029,"lon":5.3756,"is_reserved":false,"is_disabled":false,"rental_uris":{"android":"levelo://app?vid=8b1e8b45-f57f-4122-b27a-d1f00d2e0d23","ios":"levelo://app?vid=8b1e8b45-f57f-4122-b27a-d1f00d2e0d23"},"vehicle_type_id":"4","last_reported":1748852156,"current_range_meters":18800,"station_id":"ce4bhgh2rcd13ifvqfa0","pricing_plan_id":"cebpf4jnsgd1na2vs0mg"},{"bike_id":"b3c84680-d01b-4840-8e64-0ab7a5c9edd3","system_id":"levelo_inurba_marseille","lat":43.274951,"lon":5.424697,"is_reserved":false,"is_disabled":false,"rental_uris":{"android":"levelo://app?vid=b3c84680-d01b-4840-8e64-0ab7a5c9edd3","ios":"levelo://app?vid=b3c84680-d01b-4840-8e64-0ab7a5c9edd3"},"vehicle_type_id":"4","last_reported":1748852156,"current_range_meters":18800,"station_id":"ce4bhn92rcd13ifvqgrg","pricing_plan_id":"cebpf4jnsgd1na2vs0mg"},{"bike_id":"768b277d-238a-4c35-a73a-bd4cafe77892","system_id":"levelo_inurba_marseille","lat":43.29793,"lon":5.38106,"is_reserved":false,"is_disabled":false,"rental_uris":{"android":"levelo://app?vid=768b277d-238a-4c35-a73a-bd4cafe77892","ios":"levelo://app?vid=768b277d-238a-4c35-a73a-bd4cafe77892"},"vehicle_type_id":"4","last_reported":1748852156,"current_range_meters":18800,"station_id":"ce4bgip2rcd13ifvqbb0","pricing_plan_id":"cebpf4jnsgd1na2vs0mg"},{"bike_id":"c0ac8dc1-1b09-4707-afe3-4286903a2431","system_id":"levelo_inurba_marseille","lat":43.259128,"lon":5.40892,"is_reserved":false,"is_disabled":false,"rental_uris":{"android":"levelo://app?vid=c0ac8dc1-1b09-4707-afe3-4286903a2431","ios":"levelo://app?vid=c0ac8dc1-1b09-4707-afe3-4286903a2431"},"vehicle_type_id":"4","last_reported":1748852156,"current_range_meters":18800,"station_id":"ce4bhm92rcd13ifvqglg","pricing_plan_id":"cebpf4jnsgd1na2vs0mg"},{"bike_id":"c7484275-d4d1-4a04-9d4c-6ab83f8f05b2","system_id":"levelo_inurba_marseille","lat":43.28422,"lon":5.34996,"is_reserved":false,"is_disabled":false,"rental_uris":{"android":"levelo://app?vid=c7484275-d4d1-4a04-9d4c-6ab83f8f05b2","ios":"levelo://app?vid=c7484275-d4d1-4a04-9d4c-6ab83f8f05b2"},"vehicle_type_id":"4","last_reported":1748852156,"current_range_meters":18800,"station_id":"ce4bhbh2rcd13ifvqepg","pricing_plan_id":"cebpf4jnsgd1na2vs0mg"},{"bike_id":"245863db-4ec2-4fc4-ad5b-9e28017ff01f","system_id":"levelo_inurba_marseille","lat":43.29898,"lon":5.43664,"is_reserved":false,"is_disabled":false,"rental_uris":{"android":"levelo://app?vid=245863db-4ec2-4fc4-ad5b-9e28017ff01f","ios":"levelo://app?vid=245863db-4ec2-4fc4-ad5b-9e28017ff01f"},"vehicle_type_id":"4","last_reported":1748852156,"current_range_meters":18800,"station_id":"ce4bhpp2rcd13ifvqhfg","pricing_plan_id":"cebpf4jnsgd1na2vs0mg"},{"bike_id":"a2baceb5-eff0-45de-ae00-9172b7ee2d7b","system_id":"levelo_inurba_marseille","lat":43.31263,"lon":5.376,"is_reserved":false,"is_disabled":false,"rental_uris":{"android":"levelo://app?vid=a2baceb5-eff0-45de-ae00-9172b7ee2d7b","ios":"levelo://app?vid=a2baceb5-eff0-45de-ae00-9172b7ee2d7b"},"vehicle_type_id":"4","last_reported":1748852156,"current_range_meters":18800,"station_id":"","pricing_plan_id":"cebpf4jnsgd1na2vs0mg"},{"bike_id":"49f71857-a3b7-4069-892f-8e2b0d960a42","system_id":"levelo_inurba_marseille","lat":43.3227,"lon":5.38277,"is_reserved":false,"is_disabled":true,"rental_uris":{"android":"levelo://app?vid=49f71857-a3b7-4069-892f-8e2b0d960a42","ios":"levelo://app?vid=49f71857-a3b7-4069-892f-8e2b0d960a42"},"vehicle_type_id":"4","last_reported":1748852156,"current_range_meters":18800,"station_id":"ce4bhr12rcd13ifvqhqg","pricing_plan_id":"cebpf4jnsgd1na2vs0mg"},{"bike_id":"91c1c26f-3b23-496f-a99f-1c2c4d5ffe5c","system_id":"levelo_inurba_marseille","lat":43.2318,"lon":5.39991,"is_reserved":false,"is_disabled":false,"rental_uris":{"android":"levelo://app?vid=91c1c26f-3b23-496f-a99f-1c2c4d5ffe5c","ios":"levelo://app?vid=91c1c26f-3b23-496f-a99f-1c2c4d5ffe5c"},"vehicle_type_id":"4","last_reported":1748852156,"current_range_meters":18800,"station_id":"ce4bhn12rcd13ifvqgqg","pricing_plan_id":"cebpf4jnsgd1na2vs0mg"},{"bike_id":"10e933de-9219-43e0-8d98-07b347a4c5e1","system_id":"levelo_inurba_marseille","lat":43.25017,"lon":5.38912,"is_reserved":false,"is_disabled":false,"rental_uris":{"android":"levelo://app?vid=10e933de-9219-43e0-8d98-07b347a4c5e1","ios":"levelo://app?vid=10e933de-9219-43e0-8d98-07b347a4c5e1"},"vehicle_type_id":"4","last_reported":1748852156,"current_range_meters":18800,"station_id":"ce4bhgp2rcd13ifvqfd0","pricing_plan_id":"cebpf4jnsgd1na2vs0mg"},{"bike_id":"54df68c6-f2bf-4fa0-b06a-11c1647c0f95","system_id":"levelo_inurba_marseille","lat":43.30289,"lon":5.37715,"is_reserved":false,"is_disabled":false,"rental_uris":{"android":"levelo://app?vid=54df68c6-f2bf-4fa0-b06a-11c1647c0f95","ios":"levelo://app?vid=54df68c6-f2bf-4fa0-b06a-11c1647c0f95"},"vehicle_type_id":"4","last_reported":1748852156,"current_range_meters":19200,"station_id":"ce4bguh2rcd13ifvqcj0","pricing_plan_id":"cebpf4jnsgd1na2vs0mg"},{"bike_id":"1cbd4534-6a18-48be-8bf4-bba7eca62dbf","system_id":"levelo_inurba_marseille","lat":43.30492,"lon":5.37911,"is_reserved":false,"is_disabled":false,"rental_uris":{"android":"levelo://app?vid=1cbd4534-6a18-48be-8bf4-bba7eca62dbf","ios":"levelo://app?vid=1cbd4534-6a18-48be-8bf4-bba7eca62dbf"},"vehicle_type_id":"4","last_reported":1748852156,"current_range_meters":19200,"station_id":"ce4bgup2rcd13ifvqcn0","pricing_plan_id":"cebpf4jnsgd1na2vs0mg"},{"bike_id":"b56baf8c-caa7-4d0e-bad4-f4cd58aa9203","system_id":"levelo_inurba_marseille","lat":43.31238,"lon":5.36877,"is_reserved":false,"is_disabled":false,"rental_uris":{"android":"levelo://app?vid=b56baf8c-caa7-4d0e-bad4-f4cd58aa9203","ios":"levelo://app?vid=b56baf8c-caa7-4d0e-bad4-f4cd58aa9203"},"vehicle_type_id":"4","last_reported":1748852156,"current_range_meters":19200,"station_id":"ce4bgl92rcd13ifvqbq0","pricing_plan_id":"cebpf4jnsgd1na2vs0mg"},{"bike_id":"7a927921-bca9-4045-98be-837a9005b8f7","system_id":"levelo_inurba_marseille","lat":43.29263,"lon":5.38449,"is_reserved":false,"is_disabled":false,"rental_uris":{"android":"levelo://app?vid=7a927921-bca9-4045-98be-837a9005b8f7","ios":"levelo://app?vid=7a927921-bca9-4045-98be-837a9005b8f7"},"vehicle_type_id":"4","last_reported":1748852156,"current_range_meters":18000,"station_id":"ce4bh692rcd13ifvqea0","pricing_plan_id":"cebpf4jnsgd1na2vs0mg"},{"bike_id":"626c96a6-ff66-417b-bb08-d146f3d937ff","system_id":"levelo_inurba_marseille","lat":43.2315,"lon":5.43712,"is_reserved":false,"is_disabled":false,"rental_uris":{"android":"levelo://app?vid=626c96a6-ff66-417b-bb08-d146f3d937ff","ios":"levelo://app?vid=626c96a6-ff66-417b-bb08-d146f3d937ff"},"vehicle_type_id":"4","last_reported":1748852156,"current_range_meters":19200,"station_id":"ce4bhmp2rcd13ifvqgog","pricing_plan_id":"cebpf4jnsgd1na2vs0mg"},{"bike_id":"e75d8fdf-622c-4544-a368-080e0a4c2415","system_id":"levelo_inurba_marseille","lat":43.32548,"lon":5.42553,"is_reserved":false,"is_disabled":false,"rental_uris":{"android":"levelo://app?vid=e75d8fdf-622c-4544-a368-080e0a4c2415","ios":"levelo://app?vid=e75d8fdf-622c-4544-a368-080e0a4c2415"},"vehicle_type_id":"4","last_reported":1748852156,"current_range_meters":19200,"station_id":"","pricing_plan_id":"cebpf4jnsgd1na2vs0mg"},{"bike_id":"1c852e15-f3a3-4d30-8fb8-bdbf508a2685","system_id":"levelo_inurba_marseille","lat":43.29037,"lon":5.37569,"is_reserved":false,"is_disabled":false,"rental_uris":{"android":"levelo://app?vid=1c852e15-f3a3-4d30-8fb8-bdbf508a2685","ios":"levelo://app?vid=1c852e15-f3a3-4d30-8fb8-bdbf508a2685"},"vehicle_type_id":"4","last_reported":1748852156,"current_range_meters":19200,"station_id":"ce4bh692rcd13ifvqe90","pricing_plan_id":"cebpf4jnsgd1na2vs0mg"},{"bike_id":"713f7f64-e309-4b23-a642-b6d427cadd2c","system_id":"levelo_inurba_marseille","lat":43.25903,"lon":5.40907,"is_reserved":false,"is_disabled":false,"rental_uris":{"android":"levelo://app?vid=713f7f64-e309-4b23-a642-b6d427cadd2c","ios":"levelo://app?vid=713f7f64-e309-4b23-a642-b6d427cadd2c"},"vehicle_type_id":"4","last_reported":1748852156,"current_range_meters":19200,"station_id":"ce4bhm92rcd13ifvqglg","pricing_plan_id":"cebpf4jnsgd1na2vs0mg"},{"bike_id":"32928832-b017-409a-b273-8a60dd5a08c7","system_id":"levelo_inurba_marseille","lat":43.318948,"lon":5.407367,"is_reserved":false,"is_disabled":false,"rental_uris":{"android":"levelo://app?vid=32928832-b017-409a-b273-8a60dd5a08c7","ios":"levelo://app?vid=32928832-b017-409a-b273-8a60dd5a08c7"},"vehicle_type_id":"4","last_reported":1748852156,"current_range_meters":19200,"station_id":"ce4bhq12rcd13ifvqhig","pricing_plan_id":"cebpf4jnsgd1na2vs0mg"},{"bike_id":"347344cc-d2d1-44d5-8687-eabba94ec5ef","system_id":"levelo_inurba_marseille","lat":43.32484,"lon":5.36575,"is_reserved":false,"is_disabled":false,"rental_uris":{"android":"levelo://app?vid=347344cc-d2d1-44d5-8687-eabba94ec5ef","ios":"levelo://app?vid=347344cc-d2d1-44d5-8687-eabba94ec5ef"},"vehicle_type_id":"4","last_reported":1748852156,"current_range_meters":19200,"station_id":"ce4bhs12rcd13ifvqhvg","pricing_plan_id":"cebpf4jnsgd1na2vs0mg"},{"bike_id":"fbe1752e-458e-4360-89e5-61537d715350","system_id":"levelo_inurba_marseille","lat":43.25863,"lon":5.399,"is_reserved":false,"is_disabled":true,"rental_uris":{"android":"levelo://app?vid=fbe1752e-458e-4360-89e5-61537d715350","ios":"levelo://app?vid=fbe1752e-458e-4360-89e5-61537d715350"},"vehicle_type_id":"4","last_reported":1748852156,"current_range_meters":19200,"station_id":"ce4bhl92rcd13ifvqghg","pricing_plan_id":"cebpf4jnsgd1na2vs0mg"},{"bike_id":"7ee35776-1400-4ef6-97b6-94fcd4770e40","system_id":"levelo_inurba_marseille","lat":43.30191,"lon":5.36609,"is_reserved":false,"is_disabled":false,"rental_uris":{"android":"levelo://app?vid=7ee35776-1400-4ef6-97b6-94fcd4770e40","ios":"levelo://app?vid=7ee35776-1400-4ef6-97b6-94fcd4770e40"},"vehicle_type_id":"4","last_reported":1748852156,"current_range_meters":18800,"station_id":"ce4bgrh2rcd13ifvqc8g","pricing_plan_id":"cebpf4jnsgd1na2vs0mg"},{"bike_id":"da4b004f-e0f6-4588-8cb7-185348fd55c0","system_id":"levelo_inurba_marseille","lat":43.262225,"lon":5.40143,"is_reserved":false,"is_disabled":false,"rental_uris":{"android":"levelo://app?vid=da4b004f-e0f6-4588-8cb7-185348fd55c0","ios":"levelo://app?vid=da4b004f-e0f6-4588-8cb7-185348fd55c0"},"vehicle_type_id":"4","last_reported":1748852156,"current_range_meters":19600,"station_id":"","pricing_plan_id":"cebpf4jnsgd1na2vs0mg"},{"bike_id":"76731954-9abb-4796-a603-5e123c00d7bf","system_id":"levelo_inurba_marseille","lat":43.26786,"lon":5.39414,"is_reserved":false,"is_disabled":false,"rental_uris":{"android":"levelo://app?vid=76731954-9abb-4796-a603-5e123c00d7bf","ios":"levelo://app?vid=76731954-9abb-4796-a603-5e123c00d7bf"},"vehicle_type_id":"4","last_reported":1748852156,"current_range_meters":19200,"station_id":"ce4bhh12rcd13ifvqfg0","pricing_plan_id":"cebpf4jnsgd1na2vs0mg"},{"bike_id":"741ac9ea-2b4c-498d-b36c-9737b82b78c3","system_id":"levelo_inurba_marseille","lat":43.29403,"lon":5.38892,"is_reserved":false,"is_disabled":false,"rental_uris":{"android":"levelo://app?vid=741ac9ea-2b4c-498d-b36c-9737b82b78c3","ios":"levelo://app?vid=741ac9ea-2b4c-498d-b36c-9737b82b78c3"},"vehicle_type_id":"4","last_reported":1748852156,"current_range_meters":19600,"station_id":"","pricing_plan_id":"cebpf4jnsgd1na2vs0mg"},{"bike_id":"17db2b72-b7e3-41a0-88c5-ce61fc6789ad","system_id":"levelo_inurba_marseille","lat":43.23048,"lon":5.35506,"is_reserved":false,"is_disabled":false,"rental_uris":{"android":"levelo://app?vid=17db2b72-b7e3-41a0-88c5-ce61fc6789ad","ios":"levelo://app?vid=17db2b72-b7e3-41a0-88c5-ce61fc6789ad"},"vehicle_type_id":"4","last_reported":1748852156,"current_range_meters":19600,"station_id":"cpo3342slgdg3j2ifvpg","pricing_plan_id":"cebpf4jnsgd1na2vs0mg"},{"bike_id":"25ec67d4-0e3b-4c14-8823-534c6ab10894","system_id":"levelo_inurba_marseille","lat":43.30932,"lon":5.36842,"is_reserved":false,"is_disabled":false,"rental_uris":{"android":"levelo://app?vid=25ec67d4-0e3b-4c14-8823-534c6ab10894","ios":"levelo://app?vid=25ec67d4-0e3b-4c14-8823-534c6ab10894"},"vehicle_type_id":"4","last_reported":1748852156,"current_range_meters":20000,"station_id":"ce4bgn92rcd13ifvqbvg","pricing_plan_id":"cebpf4jnsgd1na2vs0mg"},{"bike_id":"34c1ee19-1ee3-414e-a097-0c14721a5137","system_id":"levelo_inurba_marseille","lat":43.293107,"lon":5.386807,"is_reserved":false,"is_disabled":false,"rental_uris":{"android":"levelo://app?vid=34c1ee19-1ee3-414e-a097-0c14721a5137","ios":"levelo://app?vid=34c1ee19-1ee3-414e-a097-0c14721a5137"},"vehicle_type_id":"4","last_reported":1748852156,"current_range_meters":20000,"station_id":"","pricing_plan_id":"cebpf4jnsgd1na2vs0mg"},{"bike_id":"11c29518-7973-4ca5-a8dd-7538a6783bb3","system_id":"levelo_inurba_marseille","lat":43.32351,"lon":5.367,"is_reserved":false,"is_disabled":false,"rental_uris":{"android":"levelo://app?vid=11c29518-7973-4ca5-a8dd-7538a6783bb3","ios":"levelo://app?vid=11c29518-7973-4ca5-a8dd-7538a6783bb3"},"vehicle_type_id":"4","last_reported":1748852156,"current_range_meters":20000,"station_id":"ce4bhsh2rcd13ifvqi2g","pricing_plan_id":"cebpf4jnsgd1na2vs0mg"},{"bike_id":"fe82da49-33d4-485d-902a-151fa9c6f0ed","system_id":"levelo_inurba_marseille","lat":43.21753,"lon":5.34601,"is_reserved":false,"is_disabled":false,"rental_uris":{"android":"levelo://app?vid=fe82da49-33d4-485d-902a-151fa9c6f0ed","ios":"levelo://app?vid=fe82da49-33d4-485d-902a-151fa9c6f0ed"},"vehicle_type_id":"4","last_reported":1748852156,"current_range_meters":20400,"station_id":"st_cvj6r9ubvosntc0bgbag","pricing_plan_id":"cebpf4jnsgd1na2vs0mg"},{"bike_id":"6a84ef46-ea6b-47b8-8900-b3c88dc92d49","system_id":"levelo_inurba_marseille","lat":43.29712,"lon":5.37689,"is_reserved":false,"is_disabled":false,"rental_uris":{"android":"levelo://app?vid=6a84ef46-ea6b-47b8-8900-b3c88dc92d49","ios":"levelo://app?vid=6a84ef46-ea6b-47b8-8900-b3c88dc92d49"},"vehicle_type_id":"4","last_reported":1748852156,"current_range_meters":20800,"station_id":"ce4bgkh2rcd13ifvqbl0","pricing_plan_id":"cebpf4jnsgd1na2vs0mg"},{"bike_id":"81661448-d55a-4769-a4d7-6c69e782c7aa","system_id":"levelo_inurba_marseille","lat":43.33729,"lon":5.39189,"is_reserved":false,"is_disabled":false,"rental_uris":{"android":"levelo://app?vid=81661448-d55a-4769-a4d7-6c69e782c7aa","ios":"levelo://app?vid=81661448-d55a-4769-a4d7-6c69e782c7aa"},"vehicle_type_id":"4","last_reported":1748852156,"current_range_meters":20800,"station_id":"ce4bhr92rcd13ifvqhsg","pricing_plan_id":"cebpf4jnsgd1na2vs0mg"},{"bike_id":"57f98c7a-0a29-456b-b784-c3318840f530","system_id":"levelo_inurba_marseille","lat":43.28355,"lon":5.38113,"is_reserved":false,"is_disabled":false,"rental_uris":{"android":"levelo://app?vid=57f98c7a-0a29-456b-b784-c3318840f530","ios":"levelo://app?vid=57f98c7a-0a29-456b-b784-c3318840f530"},"vehicle_type_id":"4","last_reported":1748852156,"current_range_meters":20800,"station_id":"ce4bh412rcd13ifvqdr0","pricing_plan_id":"cebpf4jnsgd1na2vs0mg"},{"bike_id":"15b6ef70-74ee-4d6e-8150-23b6f44095a4","system_id":"levelo_inurba_marseille","lat":43.31225,"lon":5.36864,"is_reserved":false,"is_disabled":false,"rental_uris":{"android":"levelo://app?vid=15b6ef70-74ee-4d6e-8150-23b6f44095a4","ios":"levelo://app?vid=15b6ef70-74ee-4d6e-8150-23b6f44095a4"},"vehicle_type_id":"4","last_reported":1748852156,"current_range_meters":20800,"station_id":"ce4bgl92rcd13ifvqbq0","pricing_plan_id":"cebpf4jnsgd1na2vs0mg"},{"bike_id":"ea618eef-a039-47f6-8801-2607775eff5a","system_id":"levelo_inurba_marseille","lat":43.29434,"lon":5.39758,"is_reserved":false,"is_disabled":false,"rental_uris":{"android":"levelo://app?vid=ea618eef-a039-47f6-8801-2607775eff5a","ios":"levelo://app?vid=ea618eef-a039-47f6-8801-2607775eff5a"},"vehicle_type_id":"4","last_reported":1748852156,"current_range_meters":20400,"station_id":"ce4bh3h2rcd13ifvqdo0","pricing_plan_id":"cebpf4jnsgd1na2vs0mg"},{"bike_id":"97489991-5246-47a1-be16-413b41c11fa4","system_id":"levelo_inurba_marseille","lat":43.28493,"lon":5.38564,"is_reserved":false,"is_disabled":false,"rental_uris":{"android":"levelo://app?vid=97489991-5246-47a1-be16-413b41c11fa4","ios":"levelo://app?vid=97489991-5246-47a1-be16-413b41c11fa4"},"vehicle_type_id":"4","last_reported":1748852156,"current_range_meters":20400,"station_id":"ce4bh8p2rcd13ifvqeb0","pricing_plan_id":"cebpf4jnsgd1na2vs0mg"},{"bike_id":"111b1968-1769-4db4-b0ff-42a7ef730797","system_id":"levelo_inurba_marseille","lat":43.27502,"lon":5.42474,"is_reserved":false,"is_disabled":false,"rental_uris":{"android":"levelo://app?vid=111b1968-1769-4db4-b0ff-42a7ef730797","ios":"levelo://app?vid=111b1968-1769-4db4-b0ff-42a7ef730797"},"vehicle_type_id":"4","last_reported":1748852156,"current_range_meters":20800,"station_id":"","pricing_plan_id":"cebpf4jnsgd1na2vs0mg"},