{"last_updated":1747721787,"ttl":60,"version":"2.2","data":{"bikes":[{"bike_id":"46e5be8c-2f7d-43a7-b945-dd9d3618ca5d","system_id":"levelo_inurba_marseille","lat":43.30282,"lon":5.37712,"is_reserved":false,"is_disabled":false,"rental_uris":{"android":"levelo://app?vid=46e5be8c-2f7d-43a7-b945-dd9d3618ca5d","ios":"levelo://app?vid=46e5be8c-2f7d-43a7-b945-dd9d3618ca5d"},"vehicle_type_id":"4","last_reported":1747721787,"current_range_meters":2000,"station_id":"ce4bguh2rcd13ifvqcj0","pricing_plan_id":"cebpf4jnsgd1na2vs0mg"},{"bike_id":"2eab994d-a378-4391-894b-b62d11a34041","system_id":"levelo_inurba_marseille","lat":43.23156,"lon":5.43692,"is_reserved":false,"is_disabled":true,"rental_uris":{"android":"levelo://app?vid=2eab994d-a378-4391-894b-b62d11a34041","ios":"levelo://app?vid=2eab994d-a378-4391-894b-b62d11a34041"},"vehicle_type_id":"4","last_reported":1747721787,"current_range_meters":2800,"station_id":"ce4bhmp2rcd13ifvqgog","pricing_plan_id":"cebpf4jnsgd1na2vs0mg"},{"bike_id":"001329da-21fb-4914-83a1-8f2b8ac66828","system_id":"levelo_inurba_marseille","lat":43.31122,"lon":5.377833,"is_reserved":false,"is_disabled":true,"rental_uris":{"android":"levelo://app?vid=001329da-21fb-4914-83a1-8f2b8ac66828","ios":"levelo://app?vid=001329da-21fb-4914-83a1-8f2b8ac66828"},"vehicle_type_id":"4","last_reported":1747721787,"current_range_meters":2800,"station_id":"ce4bgt92rcd13ifvqcg0","pricing_plan_id":"cebpf4jnsgd1na2vs0mg"},{"bike_id":"4125c17c-5cfc-4af5-996e-4f28745b26c1","system_id":"levelo_inurba_marseille","lat":43.27491,"lon":5.42448,"is_reserved":false,"is_disabled":false,"rental_uris":{"android":"levelo://app?vid=4125c17c-5cfc-4af5-996e-4f28745b26c1","ios":"levelo://app?vid=4125c17c-5cfc-4af5-996e-4f28745b26c1"},"vehicle_type_id":"4","last_reported":1747721787,"current_range_meters":2800,"station_id":"ce4bhn92rcd13ifvqgrg","pricing_plan_id":"cebpf4jnsgd1na2vs0mg"},{"bike_id":"afb6a1c2-854e-4666-ab58-f3fec34dd7a4","system_id":"levelo_inurba_marseille","lat":43.265563,"lon":5.372817,"is_reserved":false,"is_disabled":false,"rental_uris":{"android":"levelo://app?vid=afb6a1c2-854e-4666-ab58-f3fec34dd7a4","ios":"levelo://app?vid=afb6a1c2-854e-4666-ab58-f3fec34dd7a4"},"vehicle_type_id":"4","last_reported":1747721787,"current_range_meters":3200,"station_id":"","pricing_plan_id":"cebpf4jnsgd1na2vs0mg"},{"bike_id":"6a92683f-6f8c-446a-888b-4784cb56ecea","system_id":"levelo_inurba_marseille","lat":43.27209,"lon":5.39189,"is_reserved":false,"is_disabled":false,"rental_uris":{"android":"levelo://app?vid=6a92683f-6f8c-446a-888b-4784cb56ecea","ios":"levelo://app?vid=6a92683f-6f8c-446a-888b-4784cb56ecea"},"vehicle_type_id":"4","last_reported":1747721787,"current_range_meters":3200,"station_id":"ce4bhhp2rcd13ifvqfm0","pricing_plan_id":"cebpf4jnsgd1na2vs0mg"},{"bike_id":"61d4886c-3817-485e-91ce-b42c37b8c2d3","system_id":"levelo_inurba_marseille","lat":43.30148,"lon":5.38059,"is_reserved":false,"is_disabled":false,"rental_uris":{"android":"levelo://app?vid=61d4886c-3817-485e-91ce-b42c37b8c2d3","ios":"levelo://app?vid=61d4886c-3817-485e-91ce-b42c37b8c2d3"},"vehicle_type_id":"4","last_reported":1747721787,"current_range_meters":3200,"station_id":"ce4bgjp2rcd13ifvqbh0","pricing_plan_id":"cebpf4jnsgd1na2vs0mg"},{"bike_id":"0eb7f958-813c-4599-a947-cc188a070eb3","system_id":"levelo_inurba_marseille","lat":43.251171,"lon":5.403264,"is_reserved":false,"is_disabled":false,"rental_uris":{"android":"levelo://app?vid=0eb7f958-813c-4599-a947-cc188a070eb3","ios":"levelo://app?vid=0eb7f958-813c-4599-a947-cc188a070eb3"},"vehicle_type_id":"4","last_reported":1747721787,"current_range_meters":3200,"station_id":"ce4bhlh2rcd13ifvqgig","pricing_plan_id":"cebpf4jnsgd1na2vs0mg"},{"bike_id":"1b136d29-9e9c-4723-8b83-b409e818f7bf","system_id":"levelo_inurba_marseille","lat":43.21207,"lon":5.3508,"is_reserved":false,"is_disabled":false,"rental_uris":{"android":"levelo://app?vid=1b136d29-9e9c-4723-8b83-b409e818f7bf","ios":"levelo://app?vid=1b136d29-9e9c-4723-8b83-b409e818f7bf"},"vehicle_type_id":"4","last_reported":1747721787,"current_range_meters":3600,"station_id":"st_cvj6sg6p6f1abm77japg","pricing_plan_id":"cebpf4jnsgd1na2vs0mg"},{"bike_id":"c2abbae2-2df0-4f41-a37b-7dfff83e6e10","system_id":"levelo_inurba_marseille","lat":43.29316,"lon":5.37148,"is_reserved":false,"is_disabled":true,"rental_uris":{"android":"levelo://app?vid=c2abbae2-2df0-4f41-a37b-7dfff83e6e10","ios":"levelo://app?vid=c2abbae2-2df0-4f41-a37b-7dfff83e6e10"},"vehicle_type_id":"4","last_reported":1747721787,"current_range_meters":3600,"station_id":"ce4bgh92rcd13ifvqb40","pricing_plan_id":"cebpf4jnsgd1na2vs0mg"},{"bike_id":"adf5ff25-4164-4002-9eb7-50c8d12d28c8","system_id":"levelo_inurba_marseille","lat":43.29847,"lon":5.36273,"is_reserved":false,"is_disabled":false,"rental_uris":{"android":"levelo://app?vid=adf5ff25-4164-4002-9eb7-50c8d12d28c8","ios":"levelo://app?vid=adf5ff25-4164-4002-9eb7-50c8d12d28c8"},"vehicle_type_id":"4","last_reported":1747721787,"current_range_meters":3600,"station_id":"ce4bgpp2rcd13ifvqc3g","pricing_plan_id":"cebpf4jnsgd1na2vs0mg"},{"bike_id":"9098acce-4a9e-40d8-ba71-76f7509c9d2b","system_id":"levelo_inurba_marseille","lat":43.265521,"lon":5.372944,"is_reserved":false,"is_disabled":false,"rental_uris":{"android":"levelo://app?vid=9098acce-4a9e-40d8-ba71-76f7509c9d2b","ios":"levelo://app?vid=9098acce-4a9e-40d8-ba71-76f7509c9d2b"},"vehicle_type_id":"4","last_reported":1747721787,"current_range_meters":3600,"station_id":"ce4bhg12rcd13ifvqf70","pricing_plan_id":"cebpf4jnsgd1na2vs0mg"},{"bike_id":"24ef9526-ee14-4133-974b-86458d44b30f","system_id":"levelo_inurba_marseille","lat":43.31711,"lon":5.37735,"is_reserved":false,"is_disabled":false,"rental_uris":{"android":"levelo://app?vid=24ef9526-ee14-4133-974b-86458d44b30f","ios":"levelo://app?vid=24ef9526-ee14-4133-974b-86458d44b30f"},"vehicle_type_id":"4","last_reported":1747721787,"current_range_meters":3200,"station_id":"ce4bgth2rcd13ifvqch0","pricing_plan_id":"cebpf4jnsgd1na2vs0mg"},{"bike_id":"70af07a6-f9af-4759-b69a-55eb5bf04b9c","system_id":"levelo_inurba_marseille","lat":43.26786,"lon":5.3941,"is_reserved":false,"is_disabled":false,"rental_uris":{"android":"levelo://app?vid=70af07a6-f9af-4759-b69a-55eb5bf04b9c","ios":"levelo://app?vid=70af07a6-f9af-4759-b69a-55eb5bf04b9c"},"vehicle_type_id":"4","last_reported":1747721787,"current_range_meters":4000,"station_id":"ce4bhh12rcd13ifvqfg0","pricing_plan_id":"cebpf4jnsgd1na2vs0mg"},{"bike_id":"c55c22a9-1908-4e3b-b2d8-bc68367f5ed7","system_id":"levelo_inurba_marseille","lat":43.28395,"lon":5.37514,"is_reserved":false,"is_disabled":false,"rental_uris":{"android":"levelo://app?vid=c55c22a9-1908-4e3b-b2d8-bc68367f5ed7","ios":"levelo://app?vid=c55c22a9-1908-4e3b-b2d8-bc68367f5ed7"},"vehicle_type_id":"4","last_reported":1747721787,"current_range_meters":4000,"station_id":"ce4bh412rcd13ifvqds0","pricing_plan_id":"cebpf4jnsgd1na2vs0mg"},{"bike_id":"f40652e2-30a0-431e-b1f1-4d9fe84a8149","system_id":"levelo_inurba_marseille","lat":43.27383,"lon":5.36246,"is_reserved":false,"is_disabled":false,"rental_uris":{"android":"levelo://app?vid=f40652e2-30a0-431e-b1f1-4d9fe84a8149","ios":"levelo://app?vid=f40652e2-30a0-431e-b1f1-4d9fe84a8149"},"vehicle_type_id":"4","last_reported":1747721787,"current_range_meters":4400,"station_id":"ce4bhbh2rcd13ifvqeo0","pricing_plan_id":"cebpf4jnsgd1na2vs0mg"},{"bike_id":"0959ff5e-5955-4215-8723-80a097bacc26","system_id":"levelo_inurba_marseille","lat":43.27823,"lon":5.40726,"is_reserved":false,"is_disabled":false,"rental_uris":{"android":"levelo://app?vid=0959ff5e-5955-4215-8723-80a097bacc26","ios":"levelo://app?vid=0959ff5e-5955-4215-8723-80a097bacc26"},"vehicle_type_id":"4","last_reported":1747721787,"current_range_meters":4400,"station_id":"ce4bhnh2rcd13ifvqgtg","pricing_plan_id":"cebpf4jnsgd1na2vs0mg"},{"bike_id":"fefa3ad1-29a6-4d50-af49-b905b6a48898","system_id":"levelo_inurba_marseille","lat":43.28165,"lon":5.42685,"is_reserved":false,"is_disabled":false,"rental_uris":{"android":"levelo://app?vid=fefa3ad1-29a6-4d50-af49-b905b6a48898","ios":"levelo://app?vid=fefa3ad1-29a6-4d50-af49-b905b6a48898"},"vehicle_type_id":"4","last_reported":1747721787,"current_range_meters":4800,"station_id":"ce4bhnh2rcd13ifvqgug","pricing_plan_id":"cebpf4jnsgd1na2vs0mg"},{"bike_id":"e111fb48-6c9b-41ea-aa49-b2df8dd08e29","system_id":"levelo_inurba_marseille","lat":43.26815,"lon":5.40254,"is_reserved":false,"is_disabled":true,"rental_uris":{"android":"levelo://app?vid=e111fb48-6c9b-41ea-aa49-b2df8dd08e29","ios":"levelo://app?vid=e111fb48-6c9b-41ea-aa49-b2df8dd08e29"},"vehicle_type_id":"4","last_reported":1747721787,"current_range_meters":4800,"station_id":"ce501612rcd8frsf0b60","pricing_plan_id":"cebpf4jnsgd1na2vs0mg"},{"bike_id":"9ae48e25-eddd-4760-b976-a176149d9bad","system_id":"levelo_inurba_marseille","lat":43.287203,"lon":5.374117,"is_reserved":false,"is_disabled":true,"rental_uris":{"android":"levelo://app?vid=9ae48e25-eddd-4760-b976-a176149d9bad","ios":"levelo://app?vid=9ae48e25-eddd-4760-b976-a176149d9bad"},"vehicle_type_id":"4","last_reported":1747721787,"current_range_meters":5600,"station_id":"ce4bh3p2rcd13ifvqdq0","pricing_plan_id":"cebpf4jnsgd1na2vs0mg"},{"bike_id":"0814fc28-7c82-4444-bf57-b7589c01a901","system_id":"levelo_inurba_marseille","lat":43.249964,"lon":5.389466,"is_reserved":false,"is_disabled":false,"rental_uris":{"android":"levelo://app?vid=0814fc28-7c82-4444-bf57-b7589c01a901","ios":"levelo://app?vid=0814fc28-7c82-4444-bf57-b7589c01a901"},"vehicle_type_id":"4","last_reported":1747721787,"current_range_meters":5600,"station_id":"ce4bhgp2rcd13ifvqfd0","pricing_plan_id":"cebpf4jnsgd1na2vs0mg"},{"bike_id":"92a6af25-c13e-41f1-9234-7144ec89b7a9","system_id":"levelo_inurba_marseille","lat":43.23191,"lon":5.39976,"is_reserved":false,"is_disabled":false,"rental_uris":{"android":"levelo://app?vid=92a6af25-c13e-41f1-9234-7144ec89b7a9","ios":"levelo://app?vid=92a6af25-c13e-41f1-9234-7144ec89b7a9"},"vehicle_type_id":"4","last_reported":1747721787,"current_range_meters":5600,"station_id":"ce4bhn12rcd13ifvqgqg","pricing_plan_id":"cebpf4jnsgd1na2vs0mg"},{"bike_id":"f00e4c85-4b74-4b78-914c-e4ecaf8cbdf9","system_id":"levelo_inurba_marseille","lat":43.274982,"lon":5.424584,"is_reserved":false,"is_disabled":false,"rental_uris":{"android":"levelo://app?vid=f00e4c85-4b74-4b78-914c-e4ecaf8cbdf9","ios":"levelo://app?vid=f00e4c85-4b74-4b78-914c-e4ecaf8cbdf9"},"vehicle_type_id":"4","last_reported":1747721787,"current_range_meters":5600,"station_id":"ce4bhn92rcd13ifvqgrg","pricing_plan_id":"cebpf4jnsgd1na2vs0mg"},{"bike_id":"39623d61-4997-4363-9c6e-29c93d49b3fe","system_id":"levelo_inurba_marseille","lat":43.30183,"lon":5.374,"is_reserved":false,"is_disabled":false,"rental_uris":{"android":"levelo://app?vid=39623d61-4997-4363-9c6e-29c93d49b3fe","ios":"levelo://app?vid=39623d61-4997-4363-9c6e-29c93d49b3fe"},"vehicle_type_id":"4","last_reported":1747721787,"current_range_meters":5600,"station_id":"ce4bgs92rcd13ifvqcc0","pricing_plan_id":"cebpf4jnsgd1na2vs0mg"},{"bike_id":"c1b8a658-c4a9-47e9-b77e-a60da241dae9","system_id":"levelo_inurba_marseille","lat":43.29026,"lon":5.38626,"is_reserved":false,"is_disabled":false,"rental_uris":{"android":"levelo://app?vid=c1b8a658-c4a9-47e9-b77e-a60da241dae9","ios":"levelo://app?vid=c1b8a658-c4a9-47e9-b77e-a60da241dae9"},"vehicle_type_id":"4","last_reported":1747721787,"current_range_meters":6000,"station_id":"ce4bh4p2rcd13ifvqe0g","pricing_plan_id":"cebpf4jnsgd1na2vs0mg"},{"bike_id":"7e57c655-a436-4f6a-b2f3-b4b39d87eb80","system_id":"levelo_inurba_marseille","lat":43.24381,"lon":5.37053,"is_reserved":false,"is_disabled":false,"rental_uris":{"android":"levelo://app?vid=7e57c655-a436-4f6a-b2f3-b4b39d87eb80","ios":"levelo://app?vid=7e57c655-a436-4f6a-b2f3-b4b39d87eb80"},"vehicle_type_id":"4","last_reported":1747721787,"current_range_meters":6000,"station_id":"ce4bhhh2rcd13ifvqfk0","pricing_plan_id":"cebpf4jnsgd1na2vs0mg"},{"bike_id":"7165ac0e-9a5a-4cc9-a6bb-2349e324aab8","system_id":"levelo_inurba_marseille","lat":43.29268,"lon":5.40945,"is_reserved":false,"is_disabled":false,"rental_uris":{"android":"levelo://app?vid=7165ac0e-9a5a-4cc9-a6bb-2349e324aab8","ios":"levelo://app?vid=7165ac0e-9a5a-4cc9-a6bb-2349e324aab8"},"vehicle_type_id":"4","last_reported":1747721787,"current_range_meters":6000,"station_id":"ce4bh192rcd13ifvqdc0","pricing_plan_id":"cebpf4jnsgd1na2vs0mg"},{"bike_id":"686340cd-e7ba-48f1-952c-ecd0c8484a77","system_id":"levelo_inurba_marseille","lat":43.26555,"lon":5.39003,"is_reserved":false,"is_disabled":false,"rental_uris":{"android":"levelo://app?vid=686340cd-e7ba-48f1-952c-ecd0c8484a77","ios":"levelo://app?vid=686340cd-e7ba-48f1-952c-ecd0c8484a77"},"vehicle_type_id":"4","last_reported":1747721787,"current_range_meters":6400,"station_id":"ce4bhe12rcd13ifvqf30","pricing_plan_id":"cebpf4jnsgd1na2vs0mg"},{"bike_id":"06751f58-0752-4da0-916c-c8f2a0371e39","system_id":"levelo_inurba_marseille","lat":43.31219,"lon":5.36831,"is_reserved":false,"is_disabled":false,"rental_uris":{"android":"levelo://app?vid=06751f58-0752-4da0-916c-c8f2a0371e39","ios":"levelo://app?vid=06751f58-0752-4da0-916c-c8f2a0371e39"},"vehicle_type_id":"4","last_reported":1747721787,"current_range_meters":6400,"station_id":"ce4bgl92rcd13ifvqbq0","pricing_plan_id":"cebpf4jnsgd1na2vs0mg"},{"bike_id":"cf2e5c45-aac0-4784-a8f5-2a28a2e32c91","system_id":"levelo_inurba_marseille","lat":43.271753,"lon":5.409988,"is_reserved":false,"is_disabled":false,"rental_uris":{"android":"levelo://app?vid=cf2e5c45-aac0-4784-a8f5-2a28a2e32c91","ios":"levelo://app?vid=cf2e5c45-aac0-4784-a8f5-2a28a2e32c91"},"vehicle_type_id":"4","last_reported":1747721787,"current_range_meters":6400,"station_id":"ce4bhl12rcd13ifvqgf0","pricing_plan_id":"cebpf4jnsgd1na2vs0mg"},{"bike_id":"9058608d-adf5-45da-b283-4068c6dc0fe2","system_id":"levelo_inurba_marseille","lat":43.27902,"lon":5.37995,"is_reserved":false,"is_disabled":false,"rental_uris":{"android":"levelo://app?vid=9058608d-adf5-45da-b283-4068c6dc0fe2","ios":"levelo://app?vid=9058608d-adf5-45da-b283-4068c6dc0fe2"},"vehicle_type_id":"4","last_reported":1747721787,"current_range_meters":6400,"station_id":"ce4bhf92rcd13ifvqf50","pricing_plan_id":"cebpf4jnsgd1na2vs0mg"},{"bike_id":"5a585b4e-47a9-416c-a173-084754acffd0","system_id":"levelo_inurba_marseille","lat":43.24668,"lon":5.38148,"is_reserved":false,"is_disabled":false,"rental_uris":{"android":"levelo://app?vid=5a585b4e-47a9-416c-a173-084754acffd0","ios":"levelo://app?vid=5a585b4e-47a9-416c-a173-084754acffd0"},"vehicle_type_id":"4","last_reported":1747721787,"current_range_meters":6800,"station_id":"ce4bhih2rcd13ifvqfr0","pricing_plan_id":"cebpf4jnsgd1na2vs0mg"},{"bike_id":"1fabe1fd-8075-4367-93e6-cdb96dd08d75","system_id":"levelo_inurba_marseille","lat":43.31129,"lon":5.37752,"is_reserved":false,"is_disabled":false,"rental_uris":{"android":"levelo://app?vid=1fabe1fd-8075-4367-93e6-cdb96dd08d75","ios":"levelo://app?vid=1fabe1fd-8075-4367-93e6-cdb96dd08d75"},"vehicle_type_id":"4","last_reported":1747721787,"current_range_meters":6800,"station_id":"ce4bgt92rcd13ifvqcg0","pricing_plan_id":"cebpf4jnsgd1na2vs0mg"},{"bike_id":"79d7510d-667c-4488-a218-889e19bca0d7","system_id":"levelo_inurba_marseille","lat":43.30589,"lon":5.39346,"is_reserved":false,"is_disabled":false,"rental_uris":{"android":"levelo://app?vid=79d7510d-667c-4488-a218-889e19bca0d7","ios":"levelo://app?vid=79d7510d-667c-4488-a218-889e19bca0d7"},"vehicle_type_id":"4","last_reported":1747721787,"current_range_meters":6800,"station_id":"ce4bh0p2rcd13ifvqd80","pricing_plan_id":"cebpf4jnsgd1na2vs0mg"},{"bike_id":"fec41bef-30b7-4816-93d7-8a16b0838a5d","system_id":"levelo_inurba_marseille","lat":43.25009,"lon":5.38923,"is_reserved":false,"is_disabled":false,"rental_uris":{"android":"levelo://app?vid=fec41bef-30b7-4816-93d7-8a16b0838a5d","ios":"levelo://app?vid=fec41bef-30b7-4816-93d7-8a16b0838a5d"},"vehicle_type_id":"4","last_reported":1747721787,"current_range_meters":6800,"station_id":"ce4bhgp2rcd13ifvqfd0","pricing_plan_id":"cebpf4jnsgd1na2vs0mg"},{"bike_id":"f61eb94e-1e62-4ef6-ad8b-232d3e5c7942","system_id":"levelo_inurba_marseille","lat":43.278144,"lon":5.407304,"is_reserved":false,"is_disabled":false,"rental_uris":{"android":"levelo://app?vid=f61eb94e-1e62-4ef6-ad8b-232d3e5c7942","ios":"levelo://app?vid=f61eb94e-1e62-4ef6-ad8b-232d3e5c7942"},"vehicle_type_id":"4","last_reported":1747721787,"current_range_meters":6800,"station_id":"ce4bhnh2rcd13ifvqgtg","pricing_plan_id":"cebpf4jnsgd1na2vs0mg"},{"bike_id":"814e2930-a412-47af-849d-26da2abc07f6","system_id":"levelo_inurba_marseille","lat":43.27829,"lon":5.40649,"is_reserved":false,"is_disabled":true,"rental_uris":{"android":"levelo://app?vid=814e2930-a412-47af-849d-26da2abc07f6","ios":"levelo://app?vid=814e2930-a412-47af-849d-26da2abc07f6"},"vehicle_type_id":"4","last_reported":1747721787,"current_range_meters":6800,"station_id":"ce4bhnh2rcd13ifvqgtg","pricing_plan_id":"cebpf4jnsgd1na2vs0mg"},{"bike_id":"fdbcb080-de86-408c-b4a8-7300b93393a6","system_id":"levelo_inurba_marseille","lat":43.231853,"lon":5.399911,"is_reserved":false,"is_disabled":false,"rental_uris":{"android":"levelo://app?vid=fdbcb080-de86-408c-b4a8-7300b93393a6","ios":"levelo://app?vid=fdbcb080-de86-408c-b4a8-7300b93393a6"},"vehicle_type_id":"4","last_reported":1747721787,"current_range_meters":7200,"station_id":"ce4bhn12rcd13ifvqgqg","pricing_plan_id":"cebpf4jnsgd1na2vs0mg"},{"bike_id":"e64e36d1-c3e7-4427-9260-70ac75fa0a1c","system_id":"levelo_inurba_marseille","lat":43.299199,"lon":5.401976,"is_reserved":false,"is_disabled":false,"rental_uris":{"android":"levelo://app?vid=e64e36d1-c3e7-4427-9260-70ac75fa0a1c","ios":"levelo://app?vid=e64e36d1-c3e7-4427-9260-70ac75fa0a1c"},"vehicle_type_id":"4","last_reported":1747721787,"current_range_meters":7200,"station_id":"","pricing_plan_id":"cebpf4jnsgd1na2vs0mg"},{"bike_id":"606f724a-1c53-443b-9378-c589b2767e9c","system_id":"levelo_inurba_marseille","lat":43.26502,"lon":5.39569,"is_reserved":false,"is_disabled":false,"rental_uris":{"android":"levelo://app?vid=606f724a-1c53-443b-9378-c589b2767e9c","ios":"levelo://app?vid=606f724a-1c53-443b-9378-c589b2767e9c"},"vehicle_type_id":"4","last_reported":1747721787,"current_range_meters":7200,"station_id":"ce4bhi12rcd13ifvqfq0","pricing_plan_id":"cebpf4jnsgd1na2vs0mg"},{"bike_id":"64366d8d-3020-466a-9cf8-d38ef48e57f9","system_id":"levelo_inurba_marseille","lat":43.25586,"lon":5.3826,"is_reserved":false,"is_disabled":false,"rental_uris":{"android":"levelo://app?vid=64366d8d-3020-466a-9cf8-d38ef48e57f9","ios":"levelo://app?vid=64366d8d-3020-466a-9cf8-d38ef48e57f9"},"vehicle_type_id":"4","last_reported":1747721787,"current_range_meters":7200,"station_id":"ce4bhih2rcd13ifvqfs0","pricing_plan_id":"cebpf4jnsgd1na2vs0mg"},{"bike_id":"20bee342-4a3f-4f34-940d-bb6cf00d52ae","system_id":"levelo_inurba_marseille","lat":43.26692,"lon":5.38623,"is_reserved":false,"is_disabled":false,"rental_uris":{"android":"levelo://app?vid=20bee342-4a3f-4f34-940d-bb6cf00d52ae","ios":"levelo://app?vid=20bee342-4a3f-4f34-940d-bb6cf00d52ae"},"vehicle_type_id":"4","last_reported":1747721787,"current_range_meters":7200,"station_id":"","pricing_plan_id":"cebpf4jnsgd1na2vs0mg"},{"bike_id":"f227df4d-9824-4803-8938-da373e985d05","system_id":"levelo_inurba_marseille","lat":43.26196,"lon":5.37445,"is_reserved":false,"is_disabled":true,"rental_uris":{"android":"levelo://app?vid=f227df4d-9824-4803-8938-da373e985d05","ios":"levelo://app?vid=f227df4d-9824-4803-8938-da373e985d05"},"vehicle_type_id":"4","last_reported":1747721787,"current_range_meters":7200,"station_id":"","pricing_plan_id":"cebpf4jnsgd1na2vs0mg"},{"bike_id":"06e452b4-00bd-4194-8cf0-97e51cbae02e","system_id":"levelo_inurba_marseille","lat":43.23194,"lon":5.39994,"is_reserved":false,"is_disabled":false,"rental_uris":{"android":"levelo://app?vid=06e452b4-00bd-4194-8cf0-97e51cbae02e","ios":"levelo://app?vid=06e452b4-00bd-4194-8cf0-97e51cbae02e"},"vehicle_type_id":"4","last_reported":1747721787,"current_range_meters":8000,"station_id":"ce4bhn12rcd13ifvqgqg","pricing_plan_id":"cebpf4jnsgd1na2vs0mg"},{"bike_id":"77a387d3-3328-43b2-8421-0bef2ca96c22","system_id":"levelo_inurba_marseille","lat":43.29275,"lon":5.38452,"is_reserved":false,"is_disabled":false,"rental_uris":{"android":"levelo://app?vid=77a387d3-3328-43b2-8421-0bef2ca96c22","ios":"levelo://app?vid=77a387d3-3328-43b2-8421-0bef2ca96c22"},"vehicle_type_id":"4","last_reported":1747721787,"current_range_meters":8000,"station_id":"ce4bh692rcd13ifvqea0","pricing_plan_id":"cebpf4jnsgd1na2vs0mg"},{"bike_id":"a283b2fd-ff3f-48d1-abab-7a3c52921152","system_id":"levelo_inurba_marseille","lat":43.28159,"lon":5.42679,"is_reserved":false,"is_disabled":false,"rental_uris":{"android":"levelo://app?vid=a283b2fd-ff3f-48d1-abab-7a3c52921152","ios":"levelo://app?vid=a283b2fd-ff3f-48d1-abab-7a3c52921152"},"vehicle_type_id":"4","last_reported":1747721787,"current_range_meters":8000,"station_id":"ce4bhnh2rcd13ifvqgug","pricing_plan_id":"cebpf4jnsgd1na2vs0mg"},{"bike_id":"ece1ade1-74a1-4510-9756-1459f9cff1be","system_id":"levelo_inurba_marseille","lat":43.22535,"lon":5.34779,"is_reserved":false,"is_disabled":true,"rental_uris":{"android":"levelo://app?vid=ece1ade1-74a1-4510-9756-1459f9cff1be","ios":"levelo://app?vid=ece1ade1-74a1-4510-9756-1459f9cff1be"},"vehicle_type_id":"4","last_reported":1747721787,"current_range_meters":8000,"station_id":"st_cvj5dfep6f1abm77gieg","pricing_plan_id":"cebpf4jnsgd1na2vs0mg"},{"bike_id":"ffe6d238-6026-4e0e-a599-949c46ef6d5a","system_id":"levelo_inurba_marseille","lat":43.25134,"lon":5.40345,"is_reserved":false,"is_disabled":false,"rental_uris":{"android":"levelo://app?vid=ffe6d238-6026-4e0e-a599-949c46ef6d5a","ios":"levelo://app?vid=ffe6d238-6026-4e0e-a599-949c46ef6d5a"},"vehicle_type_id":"4","last_reported":1747721787,"current_range_meters":8000,"station_id":"ce4bhlh2rcd13ifvqgig","pricing_plan_id":"cebpf4jnsgd1na2vs0mg"},{"bike_id":"1311ffd8-41d2-4e88-a771-63be5982897f","system_id":"levelo_inurba_marseille","lat":43.29027,"lon":5.37573,"is_reserved":false,"is_disabled":false,"rental_uris":{"android":"levelo://app?vid=1311ffd8-41d2-4e88-a771-63be5982897f","ios":"levelo://app?vid=1311ffd8-41d2-4e88-a771-63be5982897f"},"vehicle_type_id":"4","last_reported":1747721787,"current_range_meters":8000,"station_id":"ce4bh692rcd13ifvqe90","pricing_plan_id":"cebpf4jnsgd1na2vs0mg"},{"bike_id":"6889e011-c4a7-4b40-b6d7-e1fde3581e3d","system_id":"levelo_inurba_marseille","lat":43.292729,"lon":5.401455,"is_reserved":false,"is_disabled":false,"rental_uris":{"android":"levelo://app?vid=6889e011-c4a7-4b40-b6d7-e1fde3581e3d","ios":"levelo://app?vid=6889e011-c4a7-4b40-b6d7-e1fde3581e3d"},"vehicle_type_id":"4","last_reported":1747721787,"current_range_meters":8000,"station_id":"ce4bh312rcd13ifvqdk0","pricing_plan_id":"cebpf4jnsgd1na2vs0mg"},{"bike_id":"bcbdbd69-7be8-42f8-a855-a4358565de8f","system_id":"levelo_inurba_marseille","lat":43.277233,"lon":5.414003,"is_reserved":false,"is_disabled":false,"rental_uris":{"android":"levelo://app?vid=bcbdbd69-7be8-42f8-a855-a4358565de8f","ios":"levelo://app?vid=bcbdbd69-7be8-42f8-a855-a4358565de8f"},"vehicle_type_id":"4","last_reported":1747721787,"current_range_meters":8400,"station_id":"","pricing_plan_id":"cebpf4jnsgd1na2vs0mg"},{"bike_id":"f748f67e-63a6-4231-857a-d614a764d1c5","system_id":"levelo_inurba_marseille","lat":43.323651,"lon":5.388589,"is_reserved":false,"is_disabled":false,"rental_uris":{"android":"levelo://app?vid=f748f67e-63a6-4231-857a-d614a764d1c5","ios":"levelo://app?vid=f748f67e-63a6-4231-857a-d614a764d1c5"},"vehicle_type_id":"4","last_reported":1747721787,"current_range_meters":8400,"station_id":"","pricing_plan_id":"cebpf4jnsgd1na2vs0mg"},{"bike_id":"0bee8310-e3c6-4566-aecb-00d86829bb71","system_id":"levelo_inurba_marseille","lat":43.28194,"lon":5.42772,"is_reserved":false,"is_disabled":false,"rental_uris":{"android":"levelo://app?vid=0bee8310-e3c6-4566-aecb-00d86829bb71","ios":"levelo://app?vid=0bee8310-e3c6-4566-aecb-00d86829bb71"},"vehicle_type_id":"4","last_reported":1747721787,"current_range_meters":8400,"station_id":"","pricing_plan_id":"cebpf4jnsgd1na2vs0mg"},{"bike_id":"6553cccb-6957-4c24-9c69-c41b00f2e975","system_id":"levelo_inurba_marseille","lat":43.28359,"lon":5.38634,"is_reserved":false,"is_disabled":false,"rental_uris":{"android":"levelo://app?vid=6553cccb-6957-4c24-9c69-c41b00f2e975","ios":"levelo://app?vid=6553cccb-6957-4c24-9c69-c41b00f2e975"},"vehicle_type_id":"4","last_reported":1747721787,"current_range_meters":8000,"station_id":"ce4bh492rcd13ifvqdvg","pricing_plan_id":"cebpf4jnsgd1na2vs0mg"},{"bike_id":"b2a8a085-4afe-4995-b62f-39dc8b761b89","system_id":"levelo_inurba_marseille","lat":43.211924,"lon":5.350763,"is_reserved":false,"is_disabled":false,"rental_uris":{"android":"levelo://app?vid=b2a8a085-4afe-4995-b62f-39dc8b761b89","ios":"levelo://app?vid=b2a8a085-4afe-4995-b62f-39dc8b761b89"},"vehicle_type_id":"4","last_reported":1747721787,"current_range_meters":8400,"station_id":"st_cvj6sg6p6f1abm77japg","pricing_plan_id":"cebpf4jnsgd1na2vs0mg"},{"bike_id":"21ea8fd1-7094-4cf9-b12a-80bc90604330","system_id":"levelo_inurba_marseille","lat":43.292533,"lon":5.3763,"is_reserved":false,"is_disabled":true,"rental_uris":{"android":"levelo://app?vid=21ea8fd1-7094-4cf9-b12a-80bc90604330","ios":"levelo://app?vid=21ea8fd1-7094-4cf9-b12a-80bc90604330"},"vehicle_type_id":"4","last_reported":1747721787,"current_range_meters":8400,"station_id":"ce4bgi12rcd13ifvqb80","pricing_plan_id":"cebpf4jnsgd1na2vs0mg"},{"bike_id":"000341d6-d7c5-4900-82e6-1c31d3e75f46","system_id":"levelo_inurba_marseille","lat":43.25106,"lon":5.40338,"is_reserved":false,"is_disabled":false,"rental_uris":{"android":"levelo://app?vid=000341d6-d7c5-4900-82e6-1c31d3e75f46","ios":"levelo://app?vid=000341d6-d7c5-4900-82e6-1c31d3e75f46"},"vehicle_type_id":"4","last_reported":1747721787,"current_range_meters":8400,"station_id":"ce4bhlh2rcd13ifvqgig","pricing_plan_id":"cebpf4jnsgd1na2vs0mg"},{"bike_id":"3fdeef47-b532-4e82-b7eb-ca3f0554a6e9","system_id":"levelo_inurba_marseille","lat":43.266891,"lon":5.382986,"is_reserved":false,"is_disabled":true,"rental_uris":{"android":"levelo://app?vid=3fdeef47-b532-4e82-b7eb-ca3f0554a6e9","ios":"levelo://app?vid=3fdeef47-b532-4e82-b7eb-ca3f0554a6e9"},"vehicle_type_id":"4","last_reported":1747721787,"current_range_meters":8800,"station_id":"ce4bhg92rcd13ifvqf90","pricing_plan_id":"cebpf4jnsgd1na2vs0mg"},{"bike_id":"a6840915-9f83-4c91-994e-57774bfb9873","system_id":"levelo_inurba_marseille","lat":43.29026,"lon":5.38616,"is_reserved":false,"is_disabled":false,"rental_uris":{"android":"levelo://app?vid=a6840915-9f83-4c91-994e-57774bfb9873","ios":"levelo://app?vid=a6840915-9f83-4c91-994e-57774bfb9873"},"vehicle_type_id":"4","last_reported":1747721787,"current_range_meters":8800,"station_id":"ce4bh4p2rcd13ifvqe0g","pricing_plan_id":"cebpf4jnsgd1na2vs0mg"},{"bike_id":"8f0f531d-6a65-4647-8a6f-baa3d982f42f","system_id":"levelo_inurba_marseille","lat":43.28107,"lon":5.42591,"is_reserved":false,"is_disabled":false,"rental_uris":{"android":"levelo://app?vid=8f0f531d-6a65-4647-8a6f-baa3d982f42f","ios":"levelo://app?vid=8f0f531d-6a65-4647-8a6f-baa3d982f42f"},"vehicle_type_id":"4","last_reported":1747721787,"current_range_meters":8800,"station_id":"","pricing_plan_id":"cebpf4jnsgd1na2vs0mg"},{"bike_id":"30e83d1f-dc16-42e8-aa4e-eb241671740b","system_id":"levelo_inurba_marseille","lat":43.30141,"lon":5.3808,"is_reserved":false,"is_disabled":false,"rental_uris":{"android":"levelo://app?vid=30e83d1f-dc16-42e8-aa4e-eb241671740b","ios":"levelo://app?vid=30e83d1f-dc16-42e8-aa4e-eb241671740b"},"vehicle_type_id":"4","last_reported":1747721787,"current_range_meters":8800,"station_id":"ce4bgjp2rcd13ifvqbh0","pricing_plan_id":"cebpf4jnsgd1na2vs0mg"},{"bike_id":"a5bcf3ab-5daa-4dec-898b-27b2e944e103","system_id":"levelo_inurba_marseille","lat":43.27293,"lon":5.41073,"is_reserved":false,"is_disabled":false,"rental_uris":{"android":"levelo://app?vid=a5bcf3ab-5daa-4dec-898b-27b2e944e103","ios":"levelo://app?vid=a5bcf3ab-5daa-4dec-898b-27b2e944e103"},"vehicle_type_id":"4","last_reported":1747721787,"current_range_meters":8800,"station_id":"","pricing_plan_id":"cebpf4jnsgd1na2vs0mg"},{"bike_id":"46b8d967-5e1d-4884-8a0b-5ddff9a90472","system_id":"levelo_inurba_marseille","lat":43.330159,"lon":5.438334,"is_reserved":false,"is_disabled":false,"rental_uris":{"android":"levelo://app?vid=46b8d967-5e1d-4884-8a0b-5ddff9a90472","ios":"levelo://app?vid=46b8d967-5e1d-4884-8a0b-5ddff9a90472"},"vehicle_type_id":"4","last_reported":1747721787,"current_range_meters":8800,"station_id":"","pricing_plan_id":"cebpf4jnsgd1na2vs0mg"},{"bike_id":"ae92f61d-1120-4f68-9f8d-d0db94492c15","system_id":"levelo_inurba_marseille","lat":43.27198,"lon":5.40991,"is_reserved":false,"is_disabled":false,"rental_uris":{"android":"levelo://app?vid=ae92f61d-1120-4f68-9f8d-d0db94492c15","ios":"levelo://app?vid=ae92f61d-1120-4f68-9f8d-d0db94492c15"},"vehicle_type_id":"4","last_reported":1747721787,"current_range_meters":8800,"station_id":"ce4bhl12rcd13ifvqgf0","pricing_plan_id":"cebpf4jnsgd1na2vs0mg"},{"bike_id":"82b7f009-bd5b-4d9b-a74a-f4d218e30cc4","system_id":"levelo_inurba_marseille","lat":43.29294,"lon":5.40153,"is_reserved":false,"is_disabled":false,"rental_uris":{"android":"levelo://app?vid=82b7f009-bd5b-4d9b-a74a-f4d218e30cc4","ios":"levelo://app?vid=82b7f009-bd5b-4d9b-a74a-f4d218e30cc4"},"vehicle_type_id":"4","last_reported":1747721787,"current_range_meters":9200,"station_id":"ce4bh312rcd13ifvqdk0","pricing_plan_id":"cebpf4jnsgd1na2vs0mg"},{"bike_id":"7ddabab5-fb9d-431e-bb65-ee4d4e122759","system_id":"levelo_inurba_marseille","lat":43.28124,"lon":5.42578,"is_reserved":false,"is_disabled":false,"rental_uris":{"android":"levelo://app?vid=7ddabab5-fb9d-431e-bb65-ee4d4e122759","ios":"levelo://app?vid=7ddabab5-fb9d-431e-bb65-ee4d4e122759"},"vehicle_type_id":"4","last_reported":1747721787,"current_range_meters":9200,"station_id":"","pricing_plan_id":"cebpf4jnsgd1na2vs0mg"},{"bike_id":"68944906-2bed-4069-92e3-fb4361342be4","system_id":"levelo_inurba_marseille","lat":43.29058,"lon":5.3815,"is_reserved":false,"is_disabled":true,"rental_uris":{"android":"levelo://app?vid=68944906-2bed-4069-92e3-fb4361342be4","ios":"levelo://app?vid=68944906-2bed-4069-92e3-fb4361342be4"},"vehicle_type_id":"4","last_reported":1747721787,"current_range_meters":9200,"station_id":"ce4bh512rcd13ifvqe2g","pricing_plan_id":"cebpf4jnsgd1na2vs0mg"},{"bike_id":"8d91a467-443b-401e-bb33-c6f87a96e75a","system_id":"levelo_inurba_marseille","lat":43.29552,"lon":5.37493,"is_reserved":false,"is_disabled":true,"rental_uris":{"android":"levelo://app?vid=8d91a467-443b-401e-bb33-c6f87a96e75a","ios":"levelo://app?vid=8d91a467-443b-401e-bb33-c6f87a96e75a"},"vehicle_type_id":"4","last_reported":1747721787,"current_range_meters":9200,"station_id":"ce4bgkp2rcd13ifvqbmg","pricing_plan_id":"cebpf4jnsgd1na2vs0mg"},{"bike_id":"85eaca89-9437-48d0-9bca-a254337b88db","system_id":"levelo_inurba_marseille","lat":43.27452,"lon":5.40964,"is_reserved":false,"is_disabled":false,"rental_uris":{"android":"levelo://app?vid=85eaca89-9437-48d0-9bca-a254337b88db","ios":"levelo://app?vid=85eaca89-9437-48d0-9bca-a254337b88db"},"vehicle_type_id":"4","last_reported":1747721787,"current_range_meters":9200,"station_id":"","pricing_plan_id":"cebpf4jnsgd1na2vs0mg"},{"bike_id":"bf0f734e-7db4-4909-bee4-1c076f1b6d92","system_id":"levelo_inurba_marseille","lat":43.28157,"lon":5.4264,"is_reserved":false,"is_disabled":false,"rental_uris":{"android":"levelo://app?vid=bf0f734e-7db4-4909-bee4-1c076f1b6d92","ios":"levelo://app?vid=bf0f734e-7db4-4909-bee4-1c076f1b6d92"},"vehicle_type_id":"4","last_reported":1747721787,"current_range_meters":9200,"station_id":"ce4bhnh2rcd13ifvqgug","pricing_plan_id":"cebpf4jnsgd1na2vs0mg"},{"bike_id":"b7818455-a4e2-4ee4-9041-cdaccd7dec78","system_id":"levelo_inurba_marseille","lat":43.31477,"lon":5.37283,"is_reserved":false,"is_disabled":false,"rental_uris":{"android":"levelo://app?vid=b7818455-a4e2-4ee4-9041-cdaccd7dec78","ios":"levelo://app?vid=b7818455-a4e2-4ee4-9041-cdaccd7dec78"},"vehicle_type_id":"4","last_reported":1747721787,"current_range_meters":9200,"station_id":"ce4bgt12rcd13ifvqcd0","pricing_plan_id":"cebpf4jnsgd1na2vs0mg"},{"bike_id":"89e75d22-2829-4276-bd50-349663c80965","system_id":"levelo_inurba_marseille","lat":43.25083,"lon":5.40355,"is_reserved":false,"is_disabled":false,"rental_uris":{"android":"levelo://app?vid=89e75d22-2829-4276-bd50-349663c80965","ios":"levelo://app?vid=89e75d22-2829-4276-bd50-349663c80965"},"vehicle_type_id":"4","last_reported":1747721787,"current_range_meters":9200,"station_id":"ce4bhlh2rcd13ifvqgig","pricing_plan_id":"cebpf4jnsgd1na2vs0mg"},{"bike_id":"118ea294-71d7-4c59-9497-ddc50e03d40b","system_id":"levelo_inurba_marseille","lat":43.3047,"lon":5.37906,"is_reserved":false,"is_disabled":false,"rental_uris":{"android":"levelo://app?vid=118ea294-71d7-4c59-9497-ddc50e03d40b","ios":"levelo://app?vid=118ea294-71d7-4c59-9497-ddc50e03d40b"},"vehicle_type_id":"4","last_reported":1747721787,"current_range_meters":9200,"station_id":"ce4bgup2rcd13ifvqcn0","pricing_plan_id":"cebpf4jnsgd1na2vs0mg"},{"bike_id":"60393716-8180-42eb-a367-cc5098e8bc92","system_id":"levelo_inurba_marseille","lat":43.27974,"lon":5.40026,"is_reserved":false,"is_disabled":false,"rental_uris":{"android":"levelo://app?vid=60393716-8180-42eb-a367-cc5098e8bc92","ios":"levelo://app?vid=60393716-8180-42eb-a367-cc5098e8bc92"},"vehicle_type_id":"4","last_reported":1747721787,"current_range_meters":9200,"station_id":"ce4bho92rcd13ifvqh4g","pricing_plan_id":"cebpf4jnsgd1na2vs0mg"},{"bike_id":"9d6086ec-ec32-4859-b681-32584f8ea175","system_id":"levelo_inurba_marseille","lat":43.3075,"lon":5.37648,"is_reserved":false,"is_disabled":false,"rental_uris":{"android":"levelo://app?vid=9d6086ec-ec32-4859-b681-32584f8ea175","ios":"levelo://app?vid=9d6086ec-ec32-4859-b681-32584f8ea175"},"vehicle_type_id":"4","last_reported":1747721787,"current_range_meters":9200,"station_id":"ce4bgv92rcd13ifvqcq0","pricing_plan_id":"cebpf4jnsgd1na2vs0mg"},{"bike_id":"b69e9525-f9fe-475a-a8d8-418ab1b45f8d","system_id":"levelo_inurba_marseille","lat":43.28703,"lon":5.36064,"is_reserved":false,"is_disabled":false,"rental_uris":{"android":"levelo://app?vid=b69e9525-f9fe-475a-a8d8-418ab1b45f8d","ios":"levelo://app?vid=b69e9525-f9fe-475a-a8d8-418ab1b45f8d"},"vehicle_type_id":"4","last_reported":1747721787,"current_range_meters":9200,"station_id":"cki0cbj6b192h4jlfktg","pricing_plan_id":"cebpf4jnsgd1na2vs0mg"},{"bike_id":"05c63458-b601-4e4e-ab26-7a54ca437048","system_id":"levelo_inurba_marseille","lat":43.29558,"lon":5.42235,"is_reserved":false,"is_disabled":false,"rental_uris":{"android":"levelo://app?vid=05c63458-b601-4e4e-ab26-7a54ca437048","ios":"levelo://app?vid=05c63458-b601-4e4e-ab26-7a54ca437048"},"vehicle_type_id":"4","last_reported":1747721787,"current_range_meters":9200,"station_id":"ce4bhph2rcd13ifvqhdg","pricing_plan_id":"cebpf4jnsgd1na2vs0mg"},{"bike_id":"0cc5aea8-ca97-4b8f-9152-d3df43b082fd","system_id":"levelo_inurba_marseille","lat":43.23177,"lon":5.40008,"is_reserved":false,"is_disabled":false,"rental_uris":{"android":"levelo://app?vid=0cc5aea8-ca97-4b8f-9152-d3df43b082fd","ios":"levelo://app?vid=0cc5aea8-ca97-4b8f-9152-d3df43b082fd"},"vehicle_type_id":"4","last_reported":1747721787,"current_range_meters":9200,"station_id":"ce4bhn12rcd13ifvqgqg","pricing_plan_id":"cebpf4jnsgd1na2vs0mg"},{"bike_id":"c076ad54-d589-4eeb-ac51-e1376a33ec39","system_id":"levelo_inurba_marseille","lat":43.29571,"lon":5.42271,"is_reserved":false,"is_disabled":false,"rental_uris":{"android":"levelo://app?vid=c076ad54-d589-4eeb-ac51-e1376a33ec39","ios":"levelo://app?vid=c076ad54-d589-4eeb-ac51-e1376a33ec39"},"vehicle_type_id":"4","last_reported":1747721787,"current_range_meters":9200,"station_id":"ce4bhph2rcd13ifvqhdg","pricing_plan_id":"cebpf4jnsgd1na2vs0mg"},{"bike_id":"2170cd3f-65ab-4b4f-b2d9-7b5dc0722083","system_id":"levelo_inurba_marseille","lat":43.28098,"lon":5.40195,"is_reserved":false,"is_disabled":false,"rental_uris":{"android":"levelo://app?vid=2170cd3f-65ab-4b4f-b2d9-7b5dc0722083","ios":"levelo://app?vid=2170cd3f-65ab-4b4f-b2d9-7b5dc0722083"},"vehicle_type_id":"4","last_reported":1747721787,"current_range_meters":9600,"station_id":"","pricing_plan_id":"cebpf4jnsgd1na2vs0mg"},{"bike_id":"dbf8222a-eea0-42f0-80c2-a4791ac4ed58","system_id":"levelo_inurba_marseille","lat":43.250048,"lon":5.389379,"is_reserved":false,"is_disabled":false,"rental_uris":{"android":"levelo://app?vid=dbf8222a-eea0-42f0-80c2-a4791ac4ed58","ios":"levelo://app?vid=dbf8222a-eea0-42f0-80c2-a4791ac4ed58"},"vehicle_type_id":"4","last_reported":1747721787,"current_range_meters":9600,"station_id":"ce4bhgp2rcd13ifvqfd0","pricing_plan_id":"cebpf4jnsgd1na2vs0mg"},{"bike_id":"4b4ec30a-5019-4306-ad90-2b94bab06dcd","system_id":"levelo_inurba_marseille","lat":43.30082,"lon":5.36589,"is_reserved":false,"is_disabled":true,"rental_uris":{"android":"levelo://app?vid=4b4ec30a-5019-4306-ad90-2b94bab06dcd","ios":"levelo://app?vid=4b4ec30a-5019-4306-ad90-2b94bab06dcd"},"vehicle_type_id":"4","last_reported":1747721787,"current_range_meters":9600,"station_id":"","pricing_plan_id":"cebpf4jnsgd1na2vs0mg"},{"bike_id":"572c97ee-0da0-4be5-a2ce-28eff65f3ef1","system_id":"levelo_inurba_marseille","lat":43.337627,"lon":5.374787,"is_reserved":false,"is_disabled":false,"rental_uris":{"android":"levelo://app?vid=572c97ee-0da0-4be5-a2ce-28eff65f3ef1","ios":"levelo://app?vid=572c97ee-0da0-4be5-a2ce-28eff65f3ef1"},"vehicle_type_id":"4","last_reported":1747721787,"current_range_meters":9600,"station_id":"","pricing_plan_id":"cebpf4jnsgd1na2vs0mg"},{"bike_id":"4be0c667-10fb-4d0d-a527-4a1530a211d3","system_id":"levelo_inurba_marseille","lat":43.31505,"lon":5.37295,"is_reserved":false,"is_disabled":false,"rental_uris":{"android":"levelo://app?vid=4be0c667-10fb-4d0d-a527-4a1530a211d3","ios":"levelo://app?vid=4be0c667-10fb-4d0d-a527-4a1530a211d3"},"vehicle_type_id":"4","last_reported":1747721787,"current_range_meters":9600,"station_id":"ce4bgt12rcd13ifvqcd0","pricing_plan_id":"cebpf4jnsgd1na2vs0mg"},{"bike_id":"27e2e700-c978-4d72-8e0b-9608485d555f","system_id":"levelo_inurba_marseille","lat":43.24079,"lon":5.377523,"is_reserved":false,"is_disabled":false,"rental_uris":{"android":"levelo://app?vid=27e2e700-c978-4d72-8e0b-9608485d555f","ios":"levelo://app?vid=27e2e700-c978-4d72-8e0b-9608485d555f"},"vehicle_type_id":"4","last_reported":1747721787,"current_range_meters":10000,"station_id":"ce4bhnp2rcd13ifvqgvg","pricing_plan_id":"cebpf4jnsgd1na2vs0mg"},{"bike_id":"35bf9375-fc1d-4d78-8ef7-6713dae22fae","system_id":"levelo_inurba_marseille","lat":43.30476,"lon":5.37911,"is_reserved":false,"is_disabled":false,"rental_uris":{"android":"levelo://app?vid=35bf9375-fc1d-4d78-8ef7-6713dae22fae","ios":"levelo://app?vid=35bf9375-fc1d-4d78-8ef7-6713dae22fae"},"vehicle_type_id":"4","last_reported":1747721787,"current_range_meters":10000,"station_id":"ce4bgup2rcd13ifvqcn0","pricing_plan_id":"cebpf4jnsgd1na2vs0mg"},{"bike_id":"7b4ebcee-a823-442f-a8fb-bd9eabc7a6ed","system_id":"levelo_inurba_marseille","lat":43.25092,"lon":5.38768,"is_reserved":false,"is_disabled":false,"rental_uris":{"android":"levelo://app?vid=7b4ebcee-a823-442f-a8fb-bd9eabc7a6ed","ios":"levelo://app?vid=7b4ebcee-a823-442f-a8fb-bd9eabc7a6ed"},"vehicle_type_id":"4","last_reported":1747721787,"current_range_meters":10000,"station_id":"","pricing_plan_id":"cebpf4jnsgd1na2vs0mg"},{"bike_id":"bffbaf88-357a-4e87-a68c-a9a27a6e01e6","system_id":"levelo_inurba_marseille","lat":43.26224,"lon":5.421354,"is_reserved":false,"is_disabled":false,"rental_uris":{"android":"levelo://app?vid=bffbaf88-357a-4e87-a68c-a9a27a6e01e6","ios":"levelo://app?vid=bffbaf88-357a-4e87-a68c-a9a27a6e01e6"},"vehicle_type_id":"4","last_reported":1747721787,"current_range_meters":10000,"station_id":"","pricing_plan_id":"cebpf4jnsgd1na2vs0mg"},{"bike_id":"a4d55551-c29d-4f9b-bfe6-8433cbb3e6fe","system_id":"levelo_inurba_marseille","lat":43.30804,"lon":5.3814,"is_reserved":false,"is_disabled":false,"rental_uris":{"android":"levelo://app?vid=a4d55551-c29d-4f9b-bfe6-8433cbb3e6fe","ios":"levelo://app?vid=a4d55551-c29d-4f9b-bfe6-8433cbb3e6fe"},"vehicle_type_id":"4","last_reported":1747721787,"current_range_meters":10000,"station_id":"ce4bgt12rcd13ifvqce0","pricing_plan_id":"cebpf4jnsgd1na2vs0mg"},{"bike_id":"08129706-0840-4cc7-a7e9-4dbc2d7407ba","system_id":"levelo_inurba_marseille","lat":43.2318,"lon":5.39936,"is_reserved":false,"is_disabled":false,"rental_uris":{"android":"levelo://app?vid=08129706-0840-4cc7-a7e9-4dbc2d7407ba","ios":"levelo://app?vid=08129706-0840-4cc7-a7e9-4dbc2d7407ba"},"vehicle_type_id":"4","last_reported":1747721787,"current_range_meters":10000,"station_id":"","pricing_plan_id":"cebpf4jnsgd1na2vs0mg"},{"bike_id":"52a39732-f389-4238-8320-12a8ecb43bc9","system_id":"levelo_inurba_marseille","lat":43.33772,"lon":5.37487,"is_reserved":false,"is_disabled":false,"rental_uris":{"android":"levelo://app?vid=52a39732-f389-4238-8320-12a8ecb43bc9","ios":"levelo://app?vid=52a39732-f389-4238-8320-12a8ecb43bc9"},"vehicle_type_id":"4","last_reported":1747721787,"current_range_meters":10000,"station_id":"","pricing_plan_id":"cebpf4jnsgd1na2vs0mg"},{"bike_id":"a5069c23-eea7-40f4-9d9a-11b963aa48ad","system_id":"levelo_inurba_marseille","lat":43.2318,"lon":5.39985,"is_reserved":false,"is_disabled":false,"rental_uris":{"android":"levelo://app?vid=a5069c23-eea7-40f4-9d9a-11b963aa48ad","ios":"levelo://app?vid=a5069c23-eea7-40f4-9d9a-11b963aa48ad"},"vehicle_type_id":"4","last_reported":1747721787,"current_range_meters":10800,"station_id":"ce4bhn12rcd13ifvqgqg","pricing_plan_id":"cebpf4jnsgd1na2vs0mg"},{"bike_id":"02fc1184-206c-48c4-a5e6-80d0158ace74","system_id":"levelo_inurba_marseille","lat":43.30296,"lon":5.36905,"is_reserved":false,"is_disabled":true,"rental_uris":{"android":"levelo://app?vid=02fc1184-206c-48c4-a5e6-80d0158ace74","ios":"levelo://app?vid=02fc1184-206c-48c4-a5e6-80d0158ace74"},"vehicle_type_id":"4","last_reported":1747721787,"current_range_meters":10800,"station_id":"ce4bgqh2rcd13ifvqc5g","pricing_plan_id":"cebpf4jnsgd1na2vs0mg"},{"bike_id":"0767dbbf-ed3c-4904-92d7-716004b3e1f9","system_id":"levelo_inurba_marseille","lat":43.25593,"lon":5.38224,"is_reserved":false,"is_disabled":true,"rental_uris":{"android":"levelo://app?vid=0767dbbf-ed3c-4904-92d7-716004b3e1f9","ios":"levelo://app?vid=0767dbbf-ed3c-4904-92d7-716004b3e1f9"},"vehicle_type_id":"4","last_reported":1747721787,"current_range_meters":10800,"station_id":"ce4bhih2rcd13ifvqfs0","pricing_plan_id":"cebpf4jnsgd1na2vs0mg"},{"bike_id":"a824fbd1-e4ac-448d-8615-1ee649070018","system_id":"levelo_inurba_marseille","lat":43.286135,"lon":5.370666,"is_reserved":false,"is_disabled":false,"rental_uris":{"android":"levelo://app?vid=a824fbd1-e4ac-448d-8615-1ee649070018","ios":"levelo://app?vid=a824fbd1-e4ac-448d-8615-1ee649070018"},"vehicle_type_id":"4","last_reported":1747721787,"current_range_meters":10800,"station_id":"ce4bht12rcd13ifvqi60","pricing_plan_id":"cebpf4jnsgd1na2vs0mg"},{"bike_id":"d39cae16-34b5-4b82-8fc6-cac28c889070","system_id":"levelo_inurba_marseille","lat":43.29429,"lon":5.38619,"is_reserved":false,"is_disabled":true,"rental_uris":{"android":"levelo://app?vid=d39cae16-34b5-4b82-8fc6-cac28c889070","ios":"levelo://app?vid=d39cae16-34b5-4b82-8fc6-cac28c889070"},"vehicle_type_id":"4","last_reported":1747721787,"current_range_meters":10800,"station_id":"ce4bh2h2rcd13ifvqdh0","pricing_plan_id":"cebpf4jnsgd1na2vs0mg"},{"bike_id":"eb5ed207-fb05-4163-a642-f9110813e20c","system_id":"levelo_inurba_marseille","lat":43.29026,"lon":5.38636,"is_reserved":false,"is_disabled":false,"rental_uris":{"android":"levelo://app?vid=eb5ed207-fb05-4163-a642-f9110813e20c","ios":"levelo://app?vid=eb5ed207-fb05-4163-a642-f9110813e20c"},"vehicle_type_id":"4","last_reported":1747721787,"current_range_meters":10000,"station_id":"ce4bh4p2rcd13ifvqe0g","pricing_plan_id":"cebpf4jnsgd1na2vs0mg"},{"bike_id":"204d1b88-2cc3-469d-bac1-db71361fd818","system_id":"levelo_inurba_marseille","lat":43.29008,"lon":5.38548,"is_reserved":false,"is_disabled":true,"rental_uris":{"android":"levelo://app?vid=204d1b88-2cc3-469d-bac1-db71361fd818","ios":"levelo://app?vid=204d1b88-2cc3-469d-bac1-db71361fd818"},"vehicle_type_id":"4","last_reported":1747721787,"current_range_meters":10800,"station_id":"","pricing_plan_id":"cebpf4jnsgd1na2vs0mg"},{"bike_id":"211d782c-93fe-44fc-931b-5c466bfda976","system_id":"levelo_inurba_marseille","lat":43.26967,"lon":5.38632,"is_reserved":false,"is_disabled":false,"rental_uris":{"android":"levelo://app?vid=211d782c-93fe-44fc-931b-5c466bfda976","ios":"levelo://app?vid=211d782c-93fe-44fc-931b-5c466bfda976"},"vehicle_type_id":"4","last_reported":1747721787,"current_range_meters":11200,"station_id":"ce4bhh92rcd13ifvqfh0","pricing_plan_id":"cebpf4jnsgd1na2vs0mg"},{"bike_id":"598900bc-cc96-46f3-b8f9-32958f862dd5","system_id":"levelo_inurba_marseille","lat":43.30414,"lon":5.36775,"is_reserved":false,"is_disabled":false,"rental_uris":{"android":"levelo://app?vid=598900bc-cc96-46f3-b8f9-32958f862dd5","ios":"levelo://app?vid=598900bc-cc96-46f3-b8f9-32958f862dd5"},"vehicle_type_id":"4","last_reported":1747721787,"current_range_meters":11200,"station_id":"","pricing_plan_id":"cebpf4jnsgd1na2vs0mg"},{"bike_id":"1b81b843-640c-47f1-8f0a-d2baeabc8e0b","system_id":"levelo_inurba_marseille","lat":43.25823,"lon":5.39423,"is_reserved":false,"is_disabled":false,"rental_uris":{"android":"levelo://app?vid=1b81b843-640c-47f1-8f0a-d2baeabc8e0b","ios":"levelo://app?vid=1b81b843-640c-47f1-8f0a-d2baeabc8e0b"},"vehicle_type_id":"4","last_reported":1747721787,"current_range_meters":10800,"station_id":"ce4bhip2rcd13ifvqft0","pricing_plan_id":"cebpf4jnsgd1na2vs0mg"},{"bike_id":"654c7adc-287a-44c4-b56d-62e9c130ac61","system_id":"levelo_inurba_marseille","lat":43.30153,"lon":5.38094,"is_reserved":false,"is_disabled":false,"rental_uris":{"android":"levelo://app?vid=654c7adc-287a-44c4-b56d-62e9c130ac61","ios":"levelo://app?vid=654c7adc-287a-44c4-b56d-62e9c130ac61"},"vehicle_type_id":"4","last_reported":1747721787,"current_range_meters":11200,"station_id":"ce4bgjp2rcd13ifvqbh0","pricing_plan_id":"cebpf4jnsgd1na2vs0mg"},{"bike_id":"b7cb1705-6b5a-49c6-8905-4f8177d4379a","system_id":"levelo_inurba_marseille","lat":43.231868,"lon":5.399996,"is_reserved":false,"is_disabled":false,"rental_uris":{"android":"levelo://app?vid=b7cb1705-6b5a-49c6-8905-4f8177d4379a","ios":"levelo://app?vid=b7cb1705-6b5a-49c6-8905-4f8177d4379a"},"vehicle_type_id":"4","last_reported":1747721787,"current_range_meters":11600,"station_id":"ce4bhn12rcd13ifvqgqg","pricing_plan_id":"cebpf4jnsgd1na2vs0mg"},{"bike_id":"f9bd452a-300d-4454-890a-c716cf8ab1c5","system_id":"levelo_inurba_marseille","lat":43.25015,"lon":5.38932,"is_reserved":false,"is_disabled":false,"rental_uris":{"android":"levelo://app?vid=f9bd452a-300d-4454-890a-c716cf8ab1c5","ios":"levelo://app?vid=f9bd452a-300d-4454-890a-c716cf8ab1c5"},"vehicle_type_id":"4","last_reported":1747721787,"current_range_meters":11600,"station_id":"ce4bhgp2rcd13ifvqfd0","pricing_plan_id":"cebpf4jnsgd1na2vs0mg"},{"bike_id":"bca5fcbc-3c53-4bb3-9196-4ebb9a210b53","system_id":"levelo_inurba_marseille","lat":43.24085,"lon":5.37759,"is_reserved":false,"is_disabled":false,"rental_uris":{"android":"levelo://app?vid=bca5fcbc-3c53-4bb3-9196-4ebb9a210b53","ios":"levelo://app?vid=bca5fcbc-3c53-4bb3-9196-4ebb9a210b53"},"vehicle_type_id":"4","last_reported":1747721787,"current_range_meters":11600,"station_id":"ce4bhnp2rcd13ifvqgvg","pricing_plan_id":"cebpf4jnsgd1na2vs0mg"},{"bike_id":"964aae60-4f31-4f17-8959-5007d680a7e6","system_id":"levelo_inurba_marseille","lat":43.33717,"lon":5.39182,"is_reserved":false,"is_disabled":false,"rental_uris":{"android":"levelo://app?vid=964aae60-4f31-4f17-8959-5007d680a7e6","ios":"levelo://app?vid=964aae60-4f31-4f17-8959-5007d680a7e6"},"vehicle_type_id":"4","last_reported":1747721787,"current_range_meters":11600,"station_id":"ce4bhr92rcd13ifvqhsg","pricing_plan_id":"cebpf4jnsgd1na2vs0mg"},{"bike_id":"728ead91-8794-4cf9-a14c-fda3ec9a1087","system_id":"levelo_inurba_marseille","lat":43.301452,"lon":5.374142,"is_reserved":false,"is_disabled":false,"rental_uris":{"android":"levelo://app?vid=728ead91-8794-4cf9-a14c-fda3ec9a1087","ios":"levelo://app?vid=728ead91-8794-4cf9-a14c-fda3ec9a1087"},"vehicle_type_id":"4","last_reported":1747721787,"current_range_meters":12000,"station_id":"","pricing_plan_id":"cebpf4jnsgd1na2vs0mg"},{"bike_id":"aab7d1e3-5abb-4aa2-a248-da2489d22e99","system_id":"levelo_inurba_marseille","lat":43.29839,"lon":5.38915,"is_reserved":false,"is_disabled":true,"rental_uris":{"android":"levelo://app?vid=aab7d1e3-5abb-4aa2-a248-da2489d22e99","ios":"levelo://app?vid=aab7d1e3-5abb-4aa2-a248-da2489d22e99"},"vehicle_type_id":"4","last_reported":1747721787,"current_range_meters":12000,"station_id":"ce4bh392rcd13ifvqdl0","pricing_plan_id":"cebpf4jnsgd1na2vs0mg"},{"bike_id":"58edc354-c183-4da4-b527-1ba0f2d395e0","system_id":"levelo_inurba_marseille","lat":43.27715,"lon":5.35717,"is_reserved":false,"is_disabled":false,"rental_uris":{"android":"levelo://app?vid=58edc354-c183-4da4-b527-1ba0f2d395e0","ios":"levelo://app?vid=58edc354-c183-4da4-b527-1ba0f2d395e0"},"vehicle_type_id":"4","last_reported":1747721787,"current_range_meters":12000,"station_id":"","pricing_plan_id":"cebpf4jnsgd1na2vs0mg"},{"bike_id":"d1d4e898-7db2-4469-82a8-cd34a4d9d9a4","system_id":"levelo_inurba_marseille","lat":43.24077,"lon":5.37756,"is_reserved":false,"is_disabled":false,"rental_uris":{"android":"levelo://app?vid=d1d4e898-7db2-4469-82a8-cd34a4d9d9a4","ios":"levelo://app?vid=d1d4e898-7db2-4469-82a8-cd34a4d9d9a4"},"vehicle_type_id":"4","last_reported":1747721787,"current_range_meters":12000,"station_id":"ce4bhnp2rcd13ifvqgvg","pricing_plan_id":"cebpf4jnsgd1na2vs0mg"},{"bike_id":"98804e99-9bed-4363-a5ff-1489de79ae3d","system_id":"levelo_inurba_marseille","lat":43.281563,"lon":5.426372,"is_reserved":false,"is_disabled":true,"rental_uris":{"android":"levelo://app?vid=98804e99-9bed-4363-a5ff-1489de79ae3d","ios":"levelo://app?vid=98804e99-9bed-4363-a5ff-1489de79ae3d"},"vehicle_type_id":"4","last_reported":1747721787,"current_range_meters":12000,"station_id":"ce4bhnh2rcd13ifvqgug","pricing_plan_id":"cebpf4jnsgd1na2vs0mg"},{"bike_id":"184a7879-daca-44b6-873d-e1c7c604e329","system_id":"levelo_inurba_marseille","lat":43.30513,"lon":5.378897,"is_reserved":false,"is_disabled":true,"rental_uris":{"android":"levelo://app?vid=184a7879-daca-44b6-873d-e1c7c604e329","ios":"levelo://app?vid=184a7879-daca-44b6-873d-e1c7c604e329"},"vehicle_type_id":"4","last_reported":1747721787,"current_range_meters":12000,"station_id":"","pricing_plan_id":"cebpf4jnsgd1na2vs0mg"},{"bike_id":"59b8a132-4666-485c-b6ad-3e889f0d9322","system_id":"levelo_inurba_marseille","lat":43.255033,"lon":5.376454,"is_reserved":false,"is_disabled":false,"rental_uris":{"android":"levelo://app?vid=59b8a132-4666-485c-b6ad-3e889f0d9322","ios":"levelo://app?vid=59b8a132-4666-485c-b6ad-3e889f0d9322"},"vehicle_type_id":"4","last_reported":1747721787,"current_range_meters":12000,"station_id":"ce4bhh12rcd13ifvqff0","pricing_plan_id":"cebpf4jnsgd1na2vs0mg"},{"bike_id":"17fec4a5-ad1f-40a5-936b-4b7f0fd14820","system_id":"levelo_inurba_marseille","lat":43.26782,"lon":5.39411,"is_reserved":false,"is_disabled":false,"rental_uris":{"android":"levelo://app?vid=17fec4a5-ad1f-40a5-936b-4b7f0fd14820","ios":"levelo://app?vid=17fec4a5-ad1f-40a5-936b-4b7f0fd14820"},"vehicle_type_id":"4","last_reported":1747721787,"current_range_meters":11600,"station_id":"ce4bhh12rcd13ifvqfg0","pricing_plan_id":"cebpf4jnsgd1na2vs0mg"},{"bike_id":"288d48b1-cf16-4053-9043-8e9eb4a12a93","system_id":"levelo_inurba_marseille","lat":43.26692,"lon":5.38274,"is_reserved":false,"is_disabled":false,"rental_uris":{"android":"levelo://app?vid=288d48b1-cf16-4053-9043-8e9eb4a12a93","ios":"levelo://app?vid=288d48b1-cf16-4053-9043-8e9eb4a12a93"},"vehicle_type_id":"4","last_reported":1747721787,"current_range_meters":12000,"station_id":"ce4bhg92rcd13ifvqf90","pricing_plan_id":"cebpf4jnsgd1na2vs0mg"},{"bike_id":"e8162579-a5ad-485f-ad83-fec8a2ebe7e1","system_id":"levelo_inurba_marseille","lat":43.26826,"lon":5.39099,"is_reserved":false,"is_disabled":false,"rental_uris":{"android":"levelo://app?vid=e8162579-a5ad-485f-ad83-fec8a2ebe7e1","ios":"levelo://app?vid=e8162579-a5ad-485f-ad83-fec8a2ebe7e1"},"vehicle_type_id":"4","last_reported":1747721787,"current_range_meters":12400,"station_id":"","pricing_plan_id":"cebpf4jnsgd1na2vs0mg"},{"bike_id":"33e5cbd5-31c8-4fa0-9d70-cf685e1c2a15","system_id":"levelo_inurba_marseille","lat":43.25117,"lon":5.40325,"is_reserved":false,"is_disabled":false,"rental_uris":{"android":"levelo://app?vid=33e5cbd5-31c8-4fa0-9d70-cf685e1c2a15","ios":"levelo://app?vid=33e5cbd5-31c8-4fa0-9d70-cf685e1c2a15"},"vehicle_type_id":"4","last_reported":1747721787,"current_range_meters":12400,"station_id":"ce4bhlh2rcd13ifvqgig","pricing_plan_id":"cebpf4jnsgd1na2vs0mg"},{"bike_id":"815dcb0e-c956-4439-b162-bcd54e1523fd","system_id":"levelo_inurba_marseille","lat":43.30622,"lon":5.39354,"is_reserved":false,"is_disabled":false,"rental_uris":{"android":"levelo://app?vid=815dcb0e-c956-4439-b162-bcd54e1523fd","ios":"levelo://app?vid=815dcb0e-c956-4439-b162-bcd54e1523fd"},"vehicle_type_id":"4","last_reported":1747721787,"current_range_meters":12400,"station_id":"ce4bh0p2rcd13ifvqd80","pricing_plan_id":"cebpf4jnsgd1na2vs0mg"},{"bike_id":"0b299eef-6c06-4adb-a136-b4f135ce84b9","system_id":"levelo_inurba_marseille","lat":43.31178,"lon":5.368929,"is_reserved":false,"is_disabled":false,"rental_uris":{"android":"levelo://app?vid=0b299eef-6c06-4adb-a136-b4f135ce84b9","ios":"levelo://app?vid=0b299eef-6c06-4adb-a136-b4f135ce84b9"},"vehicle_type_id":"4","last_reported":1747721787,"current_range_meters":12800,"station_id":"ce4bhs12rcd13ifvqhvg","pricing_plan_id":"cebpf4jnsgd1na2vs0mg"},{"bike_id":"32f5ee63-29fb-477f-94d9-d703c11037c8","system_id":"levelo_inurba_marseille","lat":43.2962,"lon":5.38089,"is_reserved":false,"is_disabled":false,"rental_uris":{"android":"levelo://app?vid=32f5ee63-29fb-477f-94d9-d703c11037c8","ios":"levelo://app?vid=32f5ee63-29fb-477f-94d9-d703c11037c8"},"vehicle_type_id":"4","last_reported":1747721787,"current_range_meters":12800,"station_id":"ce4bgl12rcd13ifvqbo0","pricing_plan_id":"cebpf4jnsgd1na2vs0mg"},{"bike_id":"e2e3a6f6-0f08-4185-b27b-75bc9500a96d","system_id":"levelo_inurba_marseille","lat":43.211873,"lon":5.35081,"is_reserved":false,"is_disabled":false,"rental_uris":{"android":"levelo://app?vid=e2e3a6f6-0f08-4185-b27b-75bc9500a96d","ios":"levelo://app?vid=e2e3a6f6-0f08-4185-b27b-75bc9500a96d"},"vehicle_type_id":"4","last_reported":1747721787,"current_range_meters":12800,"station_id":"st_cvj6sg6p6f1abm77japg","pricing_plan_id":"cebpf4jnsgd1na2vs0mg"},{"bike_id":"67230f1d-ebb5-40cd-942e-509d2e1520be","system_id":"levelo_inurba_marseille","lat":43.31352,"lon":5.36686,"is_reserved":false,"is_disabled":false,"rental_uris":{"android":"levelo://app?vid=67230f1d-ebb5-40cd-942e-509d2e1520be","ios":"levelo://app?vid=67230f1d-ebb5-40cd-942e-509d2e1520be"},"vehicle_type_id":"4","last_reported":1747721787,"current_range_meters":12800,"station_id":"ce4bgr92rcd13ifvqc6g","pricing_plan_id":"cebpf4jnsgd1na2vs0mg"},{"bike_id":"ee2d8953-5e0e-4a9d-acdd-23c695b2a22a","system_id":"levelo_inurba_marseille","lat":43.28717,"lon":5.37924,"is_reserved":false,"is_disabled":false,"rental_uris":{"android":"levelo://app?vid=ee2d8953-5e0e-4a9d-acdd-23c695b2a22a","ios":"levelo://app?vid=ee2d8953-5e0e-4a9d-acdd-23c695b2a22a"},"vehicle_type_id":"4","last_reported":1747721787,"current_range_meters":12400,"station_id":"ce4bh9p2rcd13ifvqec0","pricing_plan_id":"cebpf4jnsgd1na2vs0mg"},{"bike_id":"e075f9e3-0c32-42d3-832d-61789fa7a28d","system_id":"levelo_inurba_marseille","lat":43.2408,"lon":5.37754,"is_reserved":false,"is_disabled":false,"rental_uris":{"android":"levelo://app?vid=e075f9e3-0c32-42d3-832d-61789fa7a28d","ios":"levelo://app?vid=e075f9e3-0c32-42d3-832d-61789fa7a28d"},"vehicle_type_id":"4","last_reported":1747721787,"current_range_meters":12800,"station_id":"ce4bhnp2rcd13ifvqgvg","pricing_plan_id":"cebpf4jnsgd1na2vs0mg"},{"bike_id":"fc4abf58-1635-4dd7-aeaa-046974ab6166","system_id":"levelo_inurba_marseille","lat":43.25025,"lon":5.38941,"is_reserved":false,"is_disabled":false,"rental_uris":{"android":"levelo://app?vid=fc4abf58-1635-4dd7-aeaa-046974ab6166","ios":"levelo://app?vid=fc4abf58-1635-4dd7-aeaa-046974ab6166"},"vehicle_type_id":"4","last_reported":1747721787,"current_range_meters":13600,"station_id":"ce4bhgp2rcd13ifvqfd0","pricing_plan_id":"cebpf4jnsgd1na2vs0mg"},{"bike_id":"66cc3dea-5bed-4d8d-a002-6935971dd586","system_id":"levelo_inurba_marseille","lat":43.3015,"lon":5.3809,"is_reserved":false,"is_disabled":false,"rental_uris":{"android":"levelo://app?vid=66cc3dea-5bed-4d8d-a002-6935971dd586","ios":"levelo://app?vid=66cc3dea-5bed-4d8d-a002-6935971dd586"},"vehicle_type_id":"4","last_reported":1747721787,"current_range_meters":13600,"station_id":"ce4bgjp2rcd13ifvqbh0","pricing_plan_id":"cebpf4jnsgd1na2vs0mg"},{"bike_id":"3552fbf2-b43a-446f-93f5-d695fc251b73","system_id":"levelo_inurba_marseille","lat":43.251669,"lon":5.375222,"is_reserved":false,"is_disabled":false,"rental_uris":{"android":"levelo://app?vid=3552fbf2-b43a-446f-93f5-d695fc251b73","ios":"levelo://app?vid=3552fbf2-b43a-446f-93f5-d695fc251b73"},"vehicle_type_id":"4","last_reported":1747721787,"current_range_meters":13600,"station_id":"","pricing_plan_id":"cebpf4jnsgd1na2vs0mg"},{"bike_id":"f7474435-f8d2-4143-bbcd-6ab773bd9583","system_id":"levelo_inurba_marseille","lat":43.30816,"lon":5.38152,"is_reserved":false,"is_disabled":false,"rental_uris":{"android":"levelo://app?vid=f7474435-f8d2-4143-bbcd-6ab773bd9583","ios":"levelo://app?vid=f7474435-f8d2-4143-bbcd-6ab773bd9583"},"vehicle_type_id":"4","last_reported":1747721787,"current_range_meters":13600,"station_id":"ce4bgt12rcd13ifvqce0","pricing_plan_id":"cebpf4jnsgd1na2vs0mg"},{"bike_id":"ce4d1ffa-876e-4dab-b1eb-9b411a2a1967","system_id":"levelo_inurba_marseille","lat":43.278157,"lon":5.407366,"is_reserved":false,"is_disabled":false,"rental_uris":{"android":"levelo://app?vid=ce4d1ffa-876e-4dab-b1eb-9b411a2a1967","ios":"levelo://app?vid=ce4d1ffa-876e-4dab-b1eb-9b411a2a1967"},"vehicle_type_id":"4","last_reported":1747721787,"current_range_meters":13600,"station_id":"ce4bhnh2rcd13ifvqgtg","pricing_plan_id":"cebpf4jnsgd1na2vs0mg"},{"bike_id":"2aeaf632-8f44-4284-bf3b-9782c3bf4f04","system_id":"levelo_inurba_marseille","lat":43.27157,"lon":5.40997,"is_reserved":false,"is_disabled":false,"rental_uris":{"android":"levelo://app?vid=2aeaf632-8f44-4284-bf3b-9782c3bf4f04","ios":"levelo://app?vid=2aeaf632-8f44-4284-bf3b-9782c3bf4f04"},"vehicle_type_id":"4","last_reported":1747721787,"current_range_meters":14000,"station_id":"ce4bhl12rcd13ifvqgf0","pricing_plan_id":"cebpf4jnsgd1na2vs0mg"},{"bike_id":"1e0be349-75ac-43ce-a2c7-9ea54df984f0","system_id":"levelo_inurba_marseille","lat":43.30376,"lon":5.42491,"is_reserved":false,"is_disabled":false,"rental_uris":{"android":"levelo://app?vid=1e0be349-75ac-43ce-a2c7-9ea54df984f0","ios":"levelo://app?vid=1e0be349-75ac-43ce-a2c7-9ea54df984f0"},"vehicle_type_id":"4","last_reported":1747721787,"current_range_meters":14000,"station_id":"ce4bhoh2rcd13ifvqh6g","pricing_plan_id":"cebpf4jnsgd1na2vs0mg"},{"bike_id":"6386b301-5c5b-41dc-9be6-064d845d26a2","system_id":"levelo_inurba_marseille","lat":43.28622,"lon":5.406584,"is_reserved":false,"is_disabled":false,"rental_uris":{"android":"levelo://app?vid=6386b301-5c5b-41dc-9be6-064d845d26a2","ios":"levelo://app?vid=6386b301-5c5b-41dc-9be6-064d845d26a2"},"vehicle_type_id":"4","last_reported":1747721787,"current_range_meters":14000,"station_id":"","pricing_plan_id":"cebpf4jnsgd1na2vs0mg"},{"bike_id":"c3c11b11-8507-45b4-bd48-1e3bdd46fbbe","system_id":"levelo_inurba_marseille","lat":43.23171,"lon":5.39945,"is_reserved":false,"is_disabled":false,"rental_uris":{"android":"levelo://app?vid=c3c11b11-8507-45b4-bd48-1e3bdd46fbbe","ios":"levelo://app?vid=c3c11b11-8507-45b4-bd48-1e3bdd46fbbe"},"vehicle_type_id":"4","last_reported":1747721787,"current_range_meters":14000,"station_id":"ce4bhn12rcd13ifvqgqg","pricing_plan_id":"cebpf4jnsgd1na2vs0mg"},{"bike_id":"b94136ba-f5fa-4a01-90e5-14c64bd7ac3f","system_id":"levelo_inurba_marseille","lat":43.29711,"lon":5.37694,"is_reserved":false,"is_disabled":false,"rental_uris":{"android":"levelo://app?vid=b94136ba-f5fa-4a01-90e5-14c64bd7ac3f","ios":"levelo://app?vid=b94136ba-f5fa-4a01-90e5-14c64bd7ac3f"},"vehicle_type_id":"4","last_reported":1747721787,"current_range_meters":14000,"station_id":"ce4bgkh2rcd13ifvqbl0","pricing_plan_id":"cebpf4jnsgd1na2vs0mg"},{"bike_id":"901d18ec-442b-4311-be09-c99faa5dda47","system_id":"levelo_inurba_marseille","lat":43.29977,"lon":5.37165,"is_reserved":false,"is_disabled":true,"rental_uris":{"android":"levelo://app?vid=901d18ec-442b-4311-be09-c99faa5dda47","ios":"levelo://app?vid=901d18ec-442b-4311-be09-c99faa5dda47"},"vehicle_type_id":"4","last_reported":1747721787,"current_range_meters":14400,"station_id":"ce4bgr92rcd13ifvqc7g","pricing_plan_id":"cebpf4jnsgd1na2vs0mg"},{"bike_id":"0c75e290-2f49-4428-9202-02a35670787a","system_id":"levelo_inurba_marseille","lat":43.23198,"lon":5.39995,"is_reserved":false,"is_disabled":false,"rental_uris":{"android":"levelo://app?vid=0c75e290-2f49-4428-9202-02a35670787a","ios":"levelo://app?vid=0c75e290-2f49-4428-9202-02a35670787a"},"vehicle_type_id":"4","last_reported":1747721787,"current_range_meters":14400,"station_id":"ce4bhn12rcd13ifvqgqg","pricing_plan_id":"cebpf4jnsgd1na2vs0mg"},{"bike_id":"971fc3c8-e765-452e-a7f2-ed2f1afcaaa3","system_id":"levelo_inurba_marseille","lat":43.31131,"lon":5.37759,"is_reserved":false,"is_disabled":false,"rental_uris":{"android":"levelo://app?vid=971fc3c8-e765-452e-a7f2-ed2f1afcaaa3","ios":"levelo://app?vid=971fc3c8-e765-452e-a7f2-ed2f1afcaaa3"},"vehicle_type_id":"4","last_reported":1747721787,"current_range_meters":14400,"station_id":"ce4bgt92rcd13ifvqcg0","pricing_plan_id":"cebpf4jnsgd1na2vs0mg"},{"bike_id":"b4092363-ce05-481e-b8a5-74f257327df5","system_id":"levelo_inurba_marseille","lat":43.250869,"lon":5.395242,"is_reserved":false,"is_disabled":false,"rental_uris":{"android":"levelo://app?vid=b4092363-ce05-481e-b8a5-74f257327df5","ios":"levelo://app?vid=b4092363-ce05-481e-b8a5-74f257327df5"},"vehicle_type_id":"4","last_reported":1747721787,"current_range_meters":14400,"station_id":"ce4bhm12rcd13ifvqgkg","pricing_plan_id":"cebpf4jnsgd1na2vs0mg"},{"bike_id":"33790735-6b85-4edc-981e-75cfd415e29a","system_id":"levelo_inurba_marseille","lat":43.30129,"lon":5.38786,"is_reserved":false,"is_disabled":true,"rental_uris":{"android":"levelo://app?vid=33790735-6b85-4edc-981e-75cfd415e29a","ios":"levelo://app?vid=33790735-6b85-4edc-981e-75cfd415e29a"},"vehicle_type_id":"4","last_reported":1747721787,"current_range_meters":14400,"station_id":"ce4bghh2rcd13ifvqb60","pricing_plan_id":"cebpf4jnsgd1na2vs0mg"},{"bike_id":"185ccfd4-2307-4269-8343-9f69a9c912b2","system_id":"levelo_inurba_marseille","lat":43.3175,"lon":5.38998,"is_reserved":false,"is_disabled":false,"rental_uris":{"android":"levelo://app?vid=185ccfd4-2307-4269-8343-9f69a9c912b2","ios":"levelo://app?vid=185ccfd4-2307-4269-8343-9f69a9c912b2"},"vehicle_type_id":"4","last_reported":1747721787,"current_range_meters":14400,"station_id":"ce4bhqp2rcd13ifvqhng","pricing_plan_id":"cebpf4jnsgd1na2vs0mg"},{"bike_id":"ef24fb0c-db74-4c0c-8c90-5cf92ab0b471","system_id":"levelo_inurba_marseille","lat":43.29252,"lon":5.40915,"is_reserved":false,"is_disabled":false,"rental_uris":{"android":"levelo://app?vid=ef24fb0c-db74-4c0c-8c90-5cf92ab0b471","ios":"levelo://app?vid=ef24fb0c-db74-4c0c-8c90-5cf92ab0b471"},"vehicle_type_id":"4","last_reported":1747721787,"current_range_meters":14800,"station_id":"ce4bh192rcd13ifvqdc0","pricing_plan_id":"cebpf4jnsgd1na2vs0mg"},{"bike_id":"a5f241f5-5f56-4773-b4f4-368dd15e3cca","system_id":"levelo_inurba_marseille","lat":43.32361,"lon":5.388955,"is_reserved":false,"is_disabled":false,"rental_uris":{"android":"levelo://app?vid=a5f241f5-5f56-4773-b4f4-368dd15e3cca","ios":"levelo://app?vid=a5f241f5-5f56-4773-b4f4-368dd15e3cca"},"vehicle_type_id":"4","last_reported":1747721787,"current_range_meters":14800,"station_id":"ce4bhqp2rcd13ifvqhog","pricing_plan_id":"cebpf4jnsgd1na2vs0mg"},{"bike_id":"116ee6de-5d7e-4a40-80f6-c5e3f47d2eb6","system_id":"levelo_inurba_marseille","lat":43.304148,"lon":5.412928,"is_reserved":false,"is_disabled":false,"rental_uris":{"android":"levelo://app?vid=116ee6de-5d7e-4a40-80f6-c5e3f47d2eb6","ios":"levelo://app?vid=116ee6de-5d7e-4a40-80f6-c5e3f47d2eb6"},"vehicle_type_id":"4","last_reported":1747721787,"current_range_meters":14800,"station_id":"ce4bhop2rcd13ifvqh8g","pricing_plan_id":"cebpf4jnsgd1na2vs0mg"},{"bike_id":"44d38386-9914-4ca4-99cb-7eb9d3314468","system_id":"levelo_inurba_marseille","lat":43.25937,"lon":5.40903,"is_reserved":false,"is_disabled":false,"rental_uris":{"android":"levelo://app?vid=44d38386-9914-4ca4-99cb-7eb9d3314468","ios":"levelo://app?vid=44d38386-9914-4ca4-99cb-7eb9d3314468"},"vehicle_type_id":"4","last_reported":1747721787,"current_range_meters":14800,"station_id":"ce4bhm92rcd13ifvqglg","pricing_plan_id":"cebpf4jnsgd1na2vs0mg"},{"bike_id":"2360e01b-c52d-4f5a-9885-8dcf40588104","system_id":"levelo_inurba_marseille","lat":43.292476,"lon":5.409105,"is_reserved":false,"is_disabled":false,"rental_uris":{"android":"levelo://app?vid=2360e01b-c52d-4f5a-9885-8dcf40588104","ios":"levelo://app?vid=2360e01b-c52d-4f5a-9885-8dcf40588104"},"vehicle_type_id":"4","last_reported":1747721787,"current_range_meters":14800,"station_id":"ce4bh192rcd13ifvqdc0","pricing_plan_id":"cebpf4jnsgd1na2vs0mg"},{"bike_id":"4f13f9f9-16ff-4a15-947b-39be74fa93cd","system_id":"levelo_inurba_marseille","lat":43.25937,"lon":5.40899,"is_reserved":false,"is_disabled":false,"rental_uris":{"android":"levelo://app?vid=4f13f9f9-16ff-4a15-947b-39be74fa93cd","ios":"levelo://app?vid=4f13f9f9-16ff-4a15-947b-39be74fa93cd"},"vehicle_type_id":"4","last_reported":1747721787,"current_range_meters":14800,"station_id":"ce4bhm92rcd13ifvqglg","pricing_plan_id":"cebpf4jnsgd1na2vs0mg"},{"bike_id":"8da7c00b-5199-431e-9e81-0f430be4a158","system_id":"levelo_inurba_marseille","lat":43.30087,"lon":5.38083,"is_reserved":false,"is_disabled":false,"rental_uris":{"android":"levelo://app?vid=8da7c00b-5199-431e-9e81-0f430be4a158","ios":"levelo://app?vid=8da7c00b-5199-431e-9e81-0f430be4a158"},"vehicle_type_id":"4","last_reported":1747721787,"current_range_meters":15200,"station_id":"ce4bgjp2rcd13ifvqbh0","pricing_plan_id":"cebpf4jnsgd1na2vs0mg"},{"bike_id":"c4fc221d-06d4-48bc-91cf-16d7e89fdb10","system_id":"levelo_inurba_marseille","lat":43.25936,"lon":5.40907,"is_reserved":false,"is_disabled":false,"rental_uris":{"android":"levelo://app?vid=c4fc221d-06d4-48bc-91cf-16d7e89fdb10","ios":"levelo://app?vid=c4fc221d-06d4-48bc-91cf-16d7e89fdb10"},"vehicle_type_id":"4","last_reported":1747721787,"current_range_meters":8000,"station_id":"ce4bhm92rcd13ifvqglg","pricing_plan_id":"cebpf4jnsgd1na2vs0mg"},{"bike_id":"a6e6bbc2-eea6-486d-8fb0-e8e8684d5b57","system_id":"levelo_inurba_marseille","lat":43.29038,"lon":5.39962,"is_reserved":false,"is_disabled":false,"rental_uris":{"android":"levelo://app?vid=a6e6bbc2-eea6-486d-8fb0-e8e8684d5b57","ios":"levelo://app?vid=a6e6bbc2-eea6-486d-8fb0-e8e8684d5b57"},"vehicle_type_id":"4","last_reported":1747721787,"current_range_meters":15200,"station_id":"ce4bh392rcd13ifvqdm0","pricing_plan_id":"cebpf4jnsgd1na2vs0mg"},{"bike_id":"77ae2670-5f4a-4f82-a74a-99848315064b","system_id":"levelo_inurba_marseille","lat":43.303136,"lon":5.404436,"is_reserved":false,"is_disabled":true,"rental_uris":{"android":"levelo://app?vid=77ae2670-5f4a-4f82-a74a-99848315064b","ios":"levelo://app?vid=77ae2670-5f4a-4f82-a74a-99848315064b"},"vehicle_type_id":"4","last_reported":1747721787,"current_range_meters":15200,"station_id":"ce4bh012rcd13ifvqd10","pricing_plan_id":"cebpf4jnsgd1na2vs0mg"},{"bike_id":"9ec8a79a-ec99-4796-9d5e-b05577d4c17a","system_id":"levelo_inurba_marseille","lat":43.32341,"lon":5.40627,"is_reserved":false,"is_disabled":false,"rental_uris":{"android":"levelo://app?vid=9ec8a79a-ec99-4796-9d5e-b05577d4c17a","ios":"levelo://app?vid=9ec8a79a-ec99-4796-9d5e-b05577d4c17a"},"vehicle_type_id":"4","last_reported":1747721787,"current_range_meters":15200,"station_id":"ce4bhq92rcd13ifvqhjg","pricing_plan_id":"cebpf4jnsgd1na2vs0mg"},{"bike_id":"9da25f12-c4f3-4541-9289-4b648fa3c427","system_id":"levelo_inurba_marseille","lat":43.28487,"lon":5.38554,"is_reserved":false,"is_disabled":false,"rental_uris":{"android":"levelo://app?vid=9da25f12-c4f3-4541-9289-4b648fa3c427","ios":"levelo://app?vid=9da25f12-c4f3-4541-9289-4b648fa3c427"},"vehicle_type_id":"4","last_reported":1747721787,"current_range_meters":15200,"station_id":"ce4bh8p2rcd13ifvqeb0","pricing_plan_id":"cebpf4jnsgd1na2vs0mg"},{"bike_id":"5bd747b9-d1db-4842-90ba-63d0c9ee9e0b","system_id":"levelo_inurba_marseille","lat":43.24166,"lon":5.36393,"is_reserved":false,"is_disabled":false,"rental_uris":{"android":"levelo://app?vid=5bd747b9-d1db-4842-90ba-63d0c9ee9e0b","ios":"levelo://app?vid=5bd747b9-d1db-4842-90ba-63d0c9ee9e0b"},"vehicle_type_id":"4","last_reported":1747721787,"current_range_meters":16000,"station_id":"cpo36qri1sfpv3e86is0","pricing_plan_id":"cebpf4jnsgd1na2vs0mg"},{"bike_id":"844abf6c-6c41-4c4c-be73-4d1c6044d781","system_id":"levelo_inurba_marseille","lat":43.29792,"lon":5.39344,"is_reserved":false,"is_disabled":false,"rental_uris":{"android":"levelo://app?vid=844abf6c-6c41-4c4c-be73-4d1c6044d781","ios":"levelo://app?vid=844abf6c-6c41-4c4c-be73-4d1c6044d781"},"vehicle_type_id":"4","last_reported":1747721787,"current_range_meters":16000,"station_id":"chh1huq6cuj3fo74tm60","pricing_plan_id":"cebpf4jnsgd1na2vs0mg"},{"bike_id":"b209cd27-532c-40f1-a5bf-f25f6c308ae9","system_id":"levelo_inurba_marseille","lat":43.288524,"lon":5.393316,"is_reserved":false,"is_disabled":true,"rental_uris":{"android":"levelo://app?vid=b209cd27-532c-40f1-a5bf-f25f6c308ae9","ios":"levelo://app?vid=b209cd27-532c-40f1-a5bf-f25f6c308ae9"},"vehicle_type_id":"4","last_reported":1747721787,"current_range_meters":16000,"station_id":"ce4bh2p2rcd13ifvqdi0","pricing_plan_id":"cebpf4jnsgd1na2vs0mg"},{"bike_id":"e1d57822-ecc8-4c43-b3f2-6f5adecafb55","system_id":"levelo_inurba_marseille","lat":43.25083,"lon":5.39511,"is_reserved":false,"is_disabled":false,"rental_uris":{"android":"levelo://app?vid=e1d57822-ecc8-4c43-b3f2-6f5adecafb55","ios":"levelo://app?vid=e1d57822-ecc8-4c43-b3f2-6f5adecafb55"},"vehicle_type_id":"4","last_reported":1747721787,"current_range_meters":16000,"station_id":"ce4bhm12rcd13ifvqgkg","pricing_plan_id":"cebpf4jnsgd1na2vs0mg"},{"bike_id":"3db1d010-48a6-49be-97c6-2133fb8ee162","system_id":"levelo_inurba_marseille","lat":43.299636,"lon":5.38506,"is_reserved":false,"is_disabled":true,"rental_uris":{"android":"levelo://app?vid=3db1d010-48a6-49be-97c6-2133fb8ee162","ios":"levelo://app?vid=3db1d010-48a6-49be-97c6-2133fb8ee162"},"vehicle_type_id":"4","last_reported":1747721787,"current_range_meters":16000,"station_id":"ce4bgj92rcd13ifvqbd0","pricing_plan_id":"cebpf4jnsgd1na2vs0mg"},{"bike_id":"dc80936a-51b4-4ef9-b71e-e259b58f2ac3","system_id":"levelo_inurba_marseille","lat":43.23185,"lon":5.40006,"is_reserved":false,"is_disabled":false,"rental_uris":{"android":"levelo://app?vid=dc80936a-51b4-4ef9-b71e-e259b58f2ac3","ios":"levelo://app?vid=dc80936a-51b4-4ef9-b71e-e259b58f2ac3"},"vehicle_type_id":"4","last_reported":1747721787,"current_range_meters":16000,"station_id":"ce4bhn12rcd13ifvqgqg","pricing_plan_id":"cebpf4jnsgd1na2vs0mg"},{"bike_id":"bfadeaec-216b-47d1-99b4-74d81f9ee763","system_id":"levelo_inurba_marseille","lat":43.321114,"lon":5.367849,"is_reserved":false,"is_disabled":false,"rental_uris":{"android":"levelo://app?vid=bfadeaec-216b-47d1-99b4-74d81f9ee763","ios":"levelo://app?vid=bfadeaec-216b-47d1-99b4-74d81f9ee763"},"vehicle_type_id":"4","last_reported":1747721787,"current_range_meters":16000,"station_id":"ce4bhrh2rcd13ifvqhug","pricing_plan_id":"cebpf4jnsgd1na2vs0mg"},{"bike_id":"28c554a5-7272-45ce-9456-c02948158cfa","system_id":"levelo_inurba_marseille","lat":43.290403,"lon":5.39951,"is_reserved":false,"is_disabled":false,"rental_uris":{"android":"levelo://app?vid=28c554a5-7272-45ce-9456-c02948158cfa","ios":"levelo://app?vid=28c554a5-7272-45ce-9456-c02948158cfa"},"vehicle_type_id":"4","last_reported":1747721787,"current_range_meters":16000,"station_id":"ce4bh392rcd13ifvqdm0","pricing_plan_id":"cebpf4jnsgd1na2vs0mg"},{"bike_id":"7e053555-9d33-4a74-9b33-70ec85fc4206","system_id":"levelo_inurba_marseille","lat":43.30308,"lon":5.36898,"is_reserved":false,"is_disabled":false,"rental_uris":{"android":"levelo://app?vid=7e053555-9d33-4a74-9b33-70ec85fc4206","ios":"levelo://app?vid=7e053555-9d33-4a74-9b33-70ec85fc4206"},"vehicle_type_id":"4","last_reported":1747721787,"current_range_meters":16000,"station_id":"ce4bgqh2rcd13ifvqc5g","pricing_plan_id":"cebpf4jnsgd1na2vs0mg"},{"bike_id":"283403a0-596c-4a94-85e1-66d88d547369","system_id":"levelo_inurba_marseille","lat":43.29248,"lon":5.4091,"is_reserved":false,"is_disabled":false,"rental_uris":{"android":"levelo://app?vid=283403a0-596c-4a94-85e1-66d88d547369","ios":"levelo://app?vid=283403a0-596c-4a94-85e1-66d88d547369"},"vehicle_type_id":"4","last_reported":1747721787,"current_range_meters":16400,"station_id":"ce4bh192rcd13ifvqdc0","pricing_plan_id":"cebpf4jnsgd1na2vs0mg"},{"bike_id":"93d4c5cb-fc0c-4f68-b5ea-27011cb40d8e","system_id":"levelo_inurba_marseille","lat":43.24068,"lon":5.37734,"is_reserved":false,"is_disabled":false,"rental_uris":{"android":"levelo://app?vid=93d4c5cb-fc0c-4f68-b5ea-27011cb40d8e","ios":"levelo://app?vid=93d4c5cb-fc0c-4f68-b5ea-27011cb40d8e"},"vehicle_type_id":"4","last_reported":1747721787,"current_range_meters":16400,"station_id":"ce4bhnp2rcd13ifvqgvg","pricing_plan_id":"cebpf4jnsgd1na2vs0mg"},{"bike_id":"96806db4-e850-4c29-beae-3920eff38299","system_id":"levelo_inurba_marseille","lat":43.292594,"lon":5.376135,"is_reserved":false,"is_disabled":true,"rental_uris":{"android":"levelo://app?vid=96806db4-e850-4c29-beae-3920eff38299","ios":"levelo://app?vid=96806db4-e850-4c29-beae-3920eff38299"},"vehicle_type_id":"4","last_reported":1747721787,"current_range_meters":16400,"station_id":"ce4bgi12rcd13ifvqb80","pricing_plan_id":"cebpf4jnsgd1na2vs0mg"},{"bike_id":"17008679-5b7b-4904-b0a5-a1a99ad3c945","system_id":"levelo_inurba_marseille","lat":43.295344,"lon":5.375123,"is_reserved":false,"is_disabled":true,"rental_uris":{"android":"levelo://app?vid=17008679-5b7b-4904-b0a5-a1a99ad3c945","ios":"levelo://app?vid=17008679-5b7b-4904-b0a5-a1a99ad3c945"},"vehicle_type_id":"4","last_reported":1747721787,"current_range_meters":16400,"station_id":"ce4bgkp2rcd13ifvqbmg","pricing_plan_id":"cebpf4jnsgd1na2vs0mg"},{"bike_id":"3592927e-bdbe-4e67-99a2-1ba7f5aedb0d","system_id":"levelo_inurba_marseille","lat":43.292757,"lon":5.401308,"is_reserved":false,"is_disabled":false,"rental_uris":{"android":"levelo://app?vid=3592927e-bdbe-4e67-99a2-1ba7f5aedb0d","ios":"levelo://app?vid=3592927e-bdbe-4e67-99a2-1ba7f5aedb0d"},"vehicle_type_id":"4","last_reported":1747721787,"current_range_meters":16400,"station_id":"ce4bh312rcd13ifvqdk0","pricing_plan_id":"cebpf4jnsgd1na2vs0mg"},{"bike_id":"b77be7d5-3cf6-4840-85e1-6671b677c2e7","system_id":"levelo_inurba_marseille","lat":43.28943,"lon":5.36634,"is_reserved":false,"is_disabled":false,"rental_uris":{"android":"levelo://app?vid=b77be7d5-3cf6-4840-85e1-6671b677c2e7","ios":"levelo://app?vid=b77be7d5-3cf6-4840-85e1-6671b677c2e7"},"vehicle_type_id":"4","last_reported":1747721787,"current_range_meters":16400,"station_id":"ce4bhap2rcd13ifvqek0","pricing_plan_id":"cebpf4jnsgd1na2vs0mg"},{"bike_id":"3bdb3b46-4aef-48b5-9943-cf5596d4d5ea","system_id":"levelo_inurba_marseille","lat":43.29047,"lon":5.3998,"is_reserved":false,"is_disabled":false,"rental_uris":{"android":"levelo://app?vid=3bdb3b46-4aef-48b5-9943-cf5596d4d5ea","ios":"levelo://app?vid=3bdb3b46-4aef-48b5-9943-cf5596d4d5ea"},"vehicle_type_id":"4","last_reported":1747721787,"current_range_meters":16400,"station_id":"ce4bh392rcd13ifvqdm0","pricing_plan_id":"cebpf4jnsgd1na2vs0mg"},{"bike_id":"38203ac2-e88c-47dc-a7a0-e05d6a16fea9","system_id":"levelo_inurba_marseille","lat":43.24082,"lon":5.3775,"is_reserved":false,"is_disabled":false,"rental_uris":{"android":"levelo://app?vid=38203ac2-e88c-47dc-a7a0-e05d6a16fea9","ios":"levelo://app?vid=38203ac2-e88c-47dc-a7a0-e05d6a16fea9"},"vehicle_type_id":"4","last_reported":1747721787,"current_range_meters":16800,"station_id":"ce4bhnp2rcd13ifvqgvg","pricing_plan_id":"cebpf4jnsgd1na2vs0mg"},{"bike_id":"4f2e4cda-39ca-4e24-bf95-e6bd03ac21a5","system_id":"levelo_inurba_marseille","lat":43.28723,"lon":5.36086,"is_reserved":false,"is_disabled":false,"rental_uris":{"android":"levelo://app?vid=4f2e4cda-39ca-4e24-bf95-e6bd03ac21a5","ios":"levelo://app?vid=4f2e4cda-39ca-4e24-bf95-e6bd03ac21a5"},"vehicle_type_id":"4","last_reported":1747721787,"current_range_meters":16800,"station_id":"cki0cbj6b192h4jlfktg","pricing_plan_id":"cebpf4jnsgd1na2vs0mg"},{"bike_id":"9a4bbd17-99bd-4347-bd31-e7103b100aa8","system_id":"levelo_inurba_marseille","lat":43.25938,"lon":5.40899,"is_reserved":false,"is_disabled":false,"rental_uris":{"android":"levelo://app?vid=9a4bbd17-99bd-4347-bd31-e7103b100aa8","ios":"levelo://app?vid=9a4bbd17-99bd-4347-bd31-e7103b100aa8"},"vehicle_type_id":"4","last_reported":1747721787,"current_range_meters":16800,"station_id":"ce4bhm92rcd13ifvqglg","pricing_plan_id":"cebpf4jnsgd1na2vs0mg"},{"bike_id":"fdb9f268-8cee-4283-a606-01b48b95487a","system_id":"levelo_inurba_marseille","lat":43.284345,"lon":5.349876,"is_reserved":false,"is_disabled":false,"rental_uris":{"android":"levelo://app?vid=fdb9f268-8cee-4283-a606-01b48b95487a","ios":"levelo://app?vid=fdb9f268-8cee-4283-a606-01b48b95487a"},"vehicle_type_id":"4","last_reported":1747721787,"current_range_meters":16800,"station_id":"","pricing_plan_id":"cebpf4jnsgd1na2vs0mg"},{"bike_id":"18c0878a-8caa-48a1-b8c5-12dc58136a1e","system_id":"levelo_inurba_marseille","lat":43.27072,"lon":5.42278,"is_reserved":false,"is_disabled":true,"rental_uris":{"android":"levelo://app?vid=18c0878a-8caa-48a1-b8c5-12dc58136a1e","ios":"levelo://app?vid=18c0878a-8caa-48a1-b8c5-12dc58136a1e"},"vehicle_type_id":"4","last_reported":1747721787,"current_range_meters":17200,"station_id":"ce4bhk92rcd13ifvqgb0","pricing_plan_id":"cebpf4jnsgd1na2vs0mg"},{"bike_id":"aa048516-7dde-4588-8581-150fd54aee39","system_id":"levelo_inurba_marseille","lat":43.24815,"lon":5.37455,"is_reserved":false,"is_disabled":false,"rental_uris":{"android":"levelo://app?vid=aa048516-7dde-4588-8581-150fd54aee39","ios":"levelo://app?vid=aa048516-7dde-4588-8581-150fd54aee39"},"vehicle_type_id":"4","last_reported":1747721787,"current_range_meters":17200,"station_id":"ce4bhgh2rcd13ifvqfb0","pricing_plan_id":"cebpf4jnsgd1na2vs0mg"},{"bike_id":"697a9b19-19cf-408f-a646-3bcdb4d31625","system_id":"levelo_inurba_marseille","lat":43.24665,"lon":5.38157,"is_reserved":false,"is_disabled":false,"rental_uris":{"android":"levelo://app?vid=697a9b19-19cf-408f-a646-3bcdb4d31625","ios":"levelo://app?vid=697a9b19-19cf-408f-a646-3bcdb4d31625"},"vehicle_type_id":"4","last_reported":1747721787,"current_range_meters":17200,"station_id":"ce4bhih2rcd13ifvqfr0","pricing_plan_id":"cebpf4jnsgd1na2vs0mg"},{"bike_id":"b5a4e322-4d33-4131-bc99-ff63c34a40de","system_id":"levelo_inurba_marseille","lat":43.30154,"lon":5.38079,"is_reserved":false,"is_disabled":false,"rental_uris":{"android":"levelo://app?vid=b5a4e322-4d33-4131-bc99-ff63c34a40de","ios":"levelo://app?vid=b5a4e322-4d33-4131-bc99-ff63c34a40de"},"vehicle_type_id":"4","last_reported":1747721787,"current_range_meters":17200,"station_id":"ce4bgjp2rcd13ifvqbh0","pricing_plan_id":"cebpf4jnsgd1na2vs0mg"},{"bike_id":"418d937f-66ac-4d2b-b689-a1ef31abf478","system_id":"levelo_inurba_marseille","lat":43.30587,"lon":5.3935,"is_reserved":false,"is_disabled":false,"rental_uris":{"android":"levelo://app?vid=418d937f-66ac-4d2b-b689-a1ef31abf478","ios":"levelo://app?vid=418d937f-66ac-4d2b-b689-a1ef31abf478"},"vehicle_type_id":"4","last_reported":1747721787,"current_range_meters":17200,"station_id":"ce4bh0p2rcd13ifvqd80","pricing_plan_id":"cebpf4jnsgd1na2vs0mg"},{"bike_id":"5765434c-77b5-41b5-8b14-b978e4d6dd10","system_id":"levelo_inurba_marseille","lat":43.21215,"lon":5.35055,"is_reserved":false,"is_disabled":false,"rental_uris":{"android":"levelo://app?vid=5765434c-77b5-41b5-8b14-b978e4d6dd10","ios":"levelo://app?vid=5765434c-77b5-41b5-8b14-b978e4d6dd10"},"vehicle_type_id":"4","last_reported":1747721787,"current_range_meters":17200,"station_id":"st_cvj6sg6p6f1abm77japg","pricing_plan_id":"cebpf4jnsgd1na2vs0mg"},{"bike_id":"1ab14a22-64fc-4e05-9bc7-71c47c2434aa","system_id":"levelo_inurba_marseille","lat":43.29547,"lon":5.39977,"is_reserved":false,"is_disabled":false,"rental_uris":{"android":"levelo://app?vid=1ab14a22-64fc-4e05-9bc7-71c47c2434aa","ios":"levelo://app?vid=1ab14a22-64fc-4e05-9bc7-71c47c2434aa"},"vehicle_type_id":"4","last_reported":1747721787,"current_range_meters":17200,"station_id":"ce4bh312rcd13ifvqdj0","pricing_plan_id":"cebpf4jnsgd1na2vs0mg"},{"bike_id":"2a970de0-c1c9-469a-ab82-138a3fd977f3","system_id":"levelo_inurba_marseille","lat":43.290235,"lon":5.386458,"is_reserved":false,"is_disabled":true,"rental_uris":{"android":"levelo://app?vid=2a970de0-c1c9-469a-ab82-138a3fd977f3","ios":"levelo://app?vid=2a970de0-c1c9-469a-ab82-138a3fd977f3"},"vehicle_type_id":"4","last_reported":1747721787,"current_range_meters":17600,"station_id":"ce4bh4p2rcd13ifvqe0g","pricing_plan_id":"cebpf4jnsgd1na2vs0mg"},{"bike_id":"d22b0fd0-78a6-46fc-aad8-ce2ca2a629e3","system_id":"levelo_inurba_marseille","lat":43.211979,"lon":5.35088,"is_reserved":false,"is_disabled":false,"rental_uris":{"android":"levelo://app?vid=d22b0fd0-78a6-46fc-aad8-ce2ca2a629e3","ios":"levelo://app?vid=d22b0fd0-78a6-46fc-aad8-ce2ca2a629e3"},"vehicle_type_id":"4","last_reported":1747721787,"current_range_meters":17600,"station_id":"st_cvj6sg6p6f1abm77japg","pricing_plan_id":"cebpf4jnsgd1na2vs0mg"},{"bike_id":"87e7bc5e-db0f-423c-8aff-9df688bbf3bc","system_id":"levelo_inurba_marseille","lat":43.248115,"lon":5.374586,"is_reserved":false,"is_disabled":false,"rental_uris":{"android":"levelo://app?vid=87e7bc5e-db0f-423c-8aff-9df688bbf3bc","ios":"levelo://app?vid=87e7bc5e-db0f-423c-8aff-9df688bbf3bc"},"vehicle_type_id":"4","last_reported":1747721787,"current_range_meters":17600,"station_id":"ce4bhgh2rcd13ifvqfb0","pricing_plan_id":"cebpf4jnsgd1na2vs0mg"},{"bike_id":"a253706b-1cb9-4ca4-9560-173eeb92ac1f","system_id":"levelo_inurba_marseille","lat":43.30781,"lon":5.43524,"is_reserved":false,"is_disabled":false,"rental_uris":{"android":"levelo://app?vid=a253706b-1cb9-4ca4-9560-173eeb92ac1f","ios":"levelo://app?vid=a253706b-1cb9-4ca4-9560-173eeb92ac1f"},"vehicle_type_id":"4","last_reported":1747721787,"current_range_meters":17600,"station_id":"ce4bhph2rcd13ifvqheg","pricing_plan_id":"cebpf4jnsgd1na2vs0mg"},{"bike_id":"4a846907-0fc0-4765-bc48-f6a21a1bc29b","system_id":"levelo_inurba_marseille","lat":43.28709,"lon":5.37926,"is_reserved":false,"is_disabled":false,"rental_uris":{"android":"levelo://app?vid=4a846907-0fc0-4765-bc48-f6a21a1bc29b","ios":"levelo://app?vid=4a846907-0fc0-4765-bc48-f6a21a1bc29b"},"vehicle_type_id":"4","last_reported":1747721787,"current_range_meters":18000,"station_id":"ce4bh9p2rcd13ifvqec0","pricing_plan_id":"cebpf4jnsgd1na2vs0mg"},{"bike_id":"6037a4be-e248-4e74-a5a7-2eb53c9cae37","system_id":"levelo_inurba_marseille","lat":43.28478,"lon":5.38422,"is_reserved":false,"is_disabled":false,"rental_uris":{"android":"levelo://app?vid=6037a4be-e248-4e74-a5a7-2eb53c9cae37","ios":"levelo://app?vid=6037a4be-e248-4e74-a5a7-2eb53c9cae37"},"vehicle_type_id":"4","last_reported":1747721787,"current_range_meters":17600,"station_id":"ce4bh512rcd13ifvqe3g","pricing_plan_id":"cebpf4jnsgd1na2vs0mg"},{"bike_id":"24dc12dd-e0a1-4ccc-b473-486d35ddca69","system_id":"levelo_inurba_marseille","lat":43.317164,"lon":5.437071,"is_reserved":false,"is_disabled":false,"rental_uris":{"android":"levelo://app?vid=24dc12dd-e0a1-4ccc-b473-486d35ddca69","ios":"levelo://app?vid=24dc12dd-e0a1-4ccc-b473-486d35ddca69"},"vehicle_type_id":"4","last_reported":1747721787,"current_range_meters":18000,"station_id":"ce4bhp92rcd13ifvqhcg","pricing_plan_id":"cebpf4jnsgd1na2vs0mg"},{"bike_id":"07646ddd-2a2b-4dd4-9b59-d381148169b1","system_id":"levelo_inurba_marseille","lat":43.30149,"lon":5.38082,"is_reserved":false,"is_disabled":false,"rental_uris":{"android":"levelo://app?vid=07646ddd-2a2b-4dd4-9b59-d381148169b1","ios":"levelo://app?vid=07646ddd-2a2b-4dd4-9b59-d381148169b1"},"vehicle_type_id":"4","last_reported":1747721787,"current_range_meters":18000,"station_id":"ce4bgjp2rcd13ifvqbh0","pricing_plan_id":"cebpf4jnsgd1na2vs0mg"},{"bike_id":"500f2333-7972-4e60-88b8-69e8feda7dad","system_id":"levelo_inurba_marseille","lat":43.30155,"lon":5.38087,"is_reserved":false,"is_disabled":false,"rental_uris":{"android":"levelo://app?vid=500f2333-7972-4e60-88b8-69e8feda7dad","ios":"levelo://app?vid=500f2333-7972-4e60-88b8-69e8feda7dad"},"vehicle_type_id":"4","last_reported":1747721787,"current_range_meters":18000,"station_id":"ce4bgjp2rcd13ifvqbh0","pricing_plan_id":"cebpf4jnsgd1na2vs0mg"},{"bike_id":"2b8afebf-3c3f-4aeb-b8d3-3e9a8c0034a7","system_id":"levelo_inurba_marseille","lat":43.28343,"lon":5.38096,"is_reserved":false,"is_disabled":false,"rental_uris":{"android":"levelo://app?vid=2b8afebf-3c3f-4aeb-b8d3-3e9a8c0034a7","ios":"levelo://app?vid=2b8afebf-3c3f-4aeb-b8d3-3e9a8c0034a7"},"vehicle_type_id":"4","last_reported":1747721787,"current_range_meters":17600,"station_id":"ce4bh412rcd13ifvqdr0","pricing_plan_id":"cebpf4jnsgd1na2vs0mg"},{"bike_id":"c7bb0dfb-9f56-4d16-bd41-669f02cf50ad","system_id":"levelo_inurba_marseille","lat":43.30311,"lon":5.40433,"is_reserved":false,"is_disabled":true,"rental_uris":{"android":"levelo://app?vid=c7bb0dfb-9f56-4d16-bd41-669f02cf50ad","ios":"levelo://app?vid=c7bb0dfb-9f56-4d16-bd41-669f02cf50ad"},"vehicle_type_id":"4","last_reported":1747721787,"current_range_meters":18000,"station_id":"ce4bh012rcd13ifvqd10","pricing_plan_id":"cebpf4jnsgd1na2vs0mg"},{"bike_id":"0fff9fb1-fc84-48c6-8ab5-8a9c77b239b4","system_id":"levelo_inurba_marseille","lat":43.25196,"lon":5.4036,"is_reserved":false,"is_disabled":false,"rental_uris":{"android":"levelo://app?vid=0fff9fb1-fc84-48c6-8ab5-8a9c77b239b4","ios":"levelo://app?vid=0fff9fb1-fc84-48c6-8ab5-8a9c77b239b4"},"vehicle_type_id":"4","last_reported":1747721787,"current_range_meters":18800,"station_id":"","pricing_plan_id":"cebpf4jnsgd1na2vs0mg"},{"bike_id":"d9aaf1a2-4106-41f1-bdb5-227fd13f0c43","system_id":"levelo_inurba_marseille","lat":43.311235,"lon":5.37764,"is_reserved":false,"is_disabled":false,"rental_uris":{"android":"levelo://app?vid=d9aaf1a2-4106-41f1-bdb5-227fd13f0c43","ios":"levelo://app?vid=d9aaf1a2-4106-41f1-bdb5-227fd13f0c43"},"vehicle_type_id":"4","last_reported":1747721787,"current_range_meters":18800,"station_id":"ce4bgt92rcd13ifvqcg0","pricing_plan_id":"cebpf4jnsgd1na2vs0mg"},{"bike_id":"3e90b5a3-cc90-4e07-92d6-fd1e339027d5","system_id":"levelo_inurba_marseille","lat":43.262161,"lon":5.404553,"is_reserved":false,"is_disabled":false,"rental_uris":{"android":"levelo://app?vid=3e90b5a3-cc90-4e07-92d6-fd1e339027d5","ios":"levelo://app?vid=3e90b5a3-cc90-4e07-92d6-fd1e339027d5"},"vehicle_type_id":"4","last_reported":1747721787,"current_range_meters":18800,"station_id":"ce4bhmh2rcd13ifvqgmg","pricing_plan_id":"cebpf4jnsgd1na2vs0mg"},{"bike_id":"16fbc0ca-59ed-4c4d-b4d9-b27ebb67bb19","system_id":"levelo_inurba_marseille","lat":43.27619,"lon":5.36108,"is_reserved":false,"is_disabled":false,"rental_uris":{"android":"levelo://app?vid=16fbc0ca-59ed-4c4d-b4d9-b27ebb67bb19","ios":"levelo://app?vid=16fbc0ca-59ed-4c4d-b4d9-b27ebb67bb19"},"vehicle_type_id":"4","last_reported":1747721787,"current_range_meters":18000,"station_id":"ce4bgj92rcd13ifvqbe0","pricing_plan_id":"cebpf4jnsgd1na2vs0mg"},{"bike_id":"4fc7bf17-e255-463f-8600-ada92b628c7b","system_id":"levelo_inurba_marseille","lat":43.28412,"lon":5.37509,"is_reserved":false,"is_disabled":false,"rental_uris":{"android":"levelo://app?vid=4fc7bf17-e255-463f-8600-ada92b628c7b","ios":"levelo://app?vid=4fc7bf17-e255-463f-8600-ada92b628c7b"},"vehicle_type_id":"4","last_reported":1747721787,"current_range_meters":18800,"station_id":"ce4bh412rcd13ifvqds0","pricing_plan_id":"cebpf4jnsgd1na2vs0mg"},{"bike_id":"a6e135f2-19a5-49b1-b746-d9f5706741ce","system_id":"levelo_inurba_marseille","lat":43.24054,"lon":5.37728,"is_reserved":false,"is_disabled":false,"rental_uris":{"android":"levelo://app?vid=a6e135f2-19a5-49b1-b746-d9f5706741ce","ios":"levelo://app?vid=a6e135f2-19a5-49b1-b746-d9f5706741ce"},"vehicle_type_id":"4","last_reported":1747721787,"current_range_meters":16400,"station_id":"ce4bhnp2rcd13ifvqgvg","pricing_plan_id":"cebpf4jnsgd1na2vs0mg"},{"bike_id":"4087717d-3758-40b3-aba6-6248bfdfe049","system_id":"levelo_inurba_marseille","lat":43.29287,"lon":5.37632,"is_reserved":false,"is_disabled":false,"rental_uris":{"android":"levelo://app?vid=4087717d-3758-40b3-aba6-6248bfdfe049","ios":"levelo://app?vid=4087717d-3758-40b3-aba6-6248bfdfe049"},"vehicle_type_id":"4","last_reported":1747721787,"current_range_meters":18800,"station_id":"ce4bgi12rcd13ifvqb80","pricing_plan_id":"cebpf4jnsgd1na2vs0mg"},{"bike_id":"6ed8eb2e-4617-409f-9e20-3e97dffc3b6a","system_id":"levelo_inurba_marseille","lat":43.29032,"lon":5.39978,"is_reserved":false,"is_disabled":false,"rental_uris":{"android":"levelo://app?vid=6ed8eb2e-4617-409f-9e20-3e97dffc3b6a","ios":"levelo://app?vid=6ed8eb2e-4617-409f-9e20-3e97dffc3b6a"},"vehicle_type_id":"4","last_reported":1747721787,"current_range_meters":18800,"station_id":"ce4bh392rcd13ifvqdm0","pricing_plan_id":"cebpf4jnsgd1na2vs0mg"},{"bike_id":"663106d9-3d8f-4347-ae89-d8e356470262","system_id":"levelo_inurba_marseille","lat":43.28738,"lon":5.3611,"is_reserved":false,"is_disabled":true,"rental_uris":{"android":"levelo://app?vid=663106d9-3d8f-4347-ae89-d8e356470262","ios":"levelo://app?vid=663106d9-3d8f-4347-ae89-d8e356470262"},"vehicle_type_id":"4","last_reported":1747721787,"current_range_meters":18800,"station_id":"cki0cbj6b192h4jlfktg","pricing_plan_id":"cebpf4jnsgd1na2vs0mg"},{"bike_id":"f3ff345b-e8fd-4f46-ad2c-dcaf4bf31ff5","system_id":"levelo_inurba_marseille","lat":43.28269,"lon":5.35068,"is_reserved":false,"is_disabled":false,"rental_uris":{"android":"levelo://app?vid=f3ff345b-e8fd-4f46-ad2c-dcaf4bf31ff5","ios":"levelo://app?vid=f3ff345b-e8fd-4f46-ad2c-dcaf4bf31ff5"},"vehicle_type_id":"4","last_reported":1747721787,"current_range_meters":19200,"station_id":"ce4bhbp2rcd13ifvqerg","pricing_plan_id":"cebpf4jnsgd1na2vs0mg"},{"bike_id":"a3830faf-6ba4-4ea5-8de5-91cbf435bca9","system_id":"levelo_inurba_marseille","lat":43.25939,"lon":5.40905,"is_reserved":false,"is_disabled":false,"rental_uris":{"android":"levelo://app?vid=a3830faf-6ba4-4ea5-8de5-91cbf435bca9","ios":"levelo://app?vid=a3830faf-6ba4-4ea5-8de5-91cbf435bca9"},"vehicle_type_id":"4","last_reported":1747721787,"current_range_meters":19200,"station_id":"ce4bhm92rcd13ifvqglg","pricing_plan_id":"cebpf4jnsgd1na2vs0mg"},{"bike_id":"ad645217-e0a8-4df1-8194-00de8bf8e3a5","system_id":"levelo_inurba_marseille","lat":43.31203,"lon":5.3845,"is_reserved":false,"is_disabled":false,"rental_uris":{"android":"levelo://app?vid=ad645217-e0a8-4df1-8194-00de8bf8e3a5","ios":"levelo://app?vid=ad645217-e0a8-4df1-8194-00de8bf8e3a5"},"vehicle_type_id":"4","last_reported":1747721787,"current_range_meters":19200,"station_id":"","pricing_plan_id":"cebpf4jnsgd1na2vs0mg"},{"bike_id":"77d4889d-469b-48ef-875f-6a4f88d1a4ec","system_id":"levelo_inurba_marseille","lat":43.29629,"lon":5.40596,"is_reserved":false,"is_disabled":false,"rental_uris":{"android":"levelo://app?vid=77d4889d-469b-48ef-875f-6a4f88d1a4ec","ios":"levelo://app?vid=77d4889d-469b-48ef-875f-6a4f88d1a4ec"},"vehicle_type_id":"4","last_reported":1747721787,"current_range_meters":19200,"station_id":"ce4bh0h2rcd13ifvqd60","pricing_plan_id":"cebpf4jnsgd1na2vs0mg"},{"bike_id":"0091b09f-c2be-4c12-9467-47f26996591d","system_id":"levelo_inurba_marseille","lat":43.30468,"lon":5.37895,"is_reserved":false,"is_disabled":false,"rental_uris":{"android":"levelo://app?vid=0091b09f-c2be-4c12-9467-47f26996591d","ios":"levelo://app?vid=0091b09f-c2be-4c12-9467-47f26996591d"},"vehicle_type_id":"4","last_reported":1747721787,"current_range_meters":18800,"station_id":"ce4bgup2rcd13ifvqcn0","pricing_plan_id":"cebpf4jnsgd1na2vs0mg"},{"bike_id":"96f71296-a807-405e-93fc-a000200c17e6","system_id":"levelo_inurba_marseille","lat":43.26225,"lon":5.40455,"is_reserved":false,"is_disabled":false,"rental_uris":{"android":"levelo://app?vid=96f71296-a807-405e-93fc-a000200c17e6","ios":"levelo://app?vid=96f71296-a807-405e-93fc-a000200c17e6"},"vehicle_type_id":"4","last_reported":1747721787,"current_range_meters":19600,"station_id":"ce4bhmh2rcd13ifvqgmg","pricing_plan_id":"cebpf4jnsgd1na2vs0mg"},{"bike_id":"e723398f-ed8b-42c8-abd2-cee13788dfd2","system_id":"levelo_inurba_marseille","lat":43.2961,"lon":5.38103,"is_reserved":false,"is_disabled":false,"rental_uris":{"android":"levelo://app?vid=e723398f-ed8b-42c8-abd2-cee13788dfd2","ios":"levelo://app?vid=e723398f-ed8b-42c8-abd2-cee13788dfd2"},"vehicle_type_id":"4","last_reported":1747721787,"current_range_meters":19200,"station_id":"ce4bgl12rcd13ifvqbo0","pricing_plan_id":"cebpf4jnsgd1na2vs0mg"},{"bike_id":"23e03e03-1bdb-46d3-ad4e-9958a18c2ffc","system_id":"levelo_inurba_marseille","lat":43.278106,"lon":5.407121,"is_reserved":false,"is_disabled":false,"rental_uris":{"android":"levelo://app?vid=23e03e03-1bdb-46d3-ad4e-9958a18c2ffc","ios":"levelo://app?vid=23e03e03-1bdb-46d3-ad4e-9958a18c2ffc"},"vehicle_type_id":"4","last_reported":1747721787,"current_range_meters":19600,"station_id":"ce4bhnh2rcd13ifvqgtg","pricing_plan_id":"cebpf4jnsgd1na2vs0mg"},{"bike_id":"28aad65e-0de0-436a-a9c6-72b66c7a120c","system_id":"levelo_inurba_marseille","lat":43.29262,"lon":5.37616,"is_reserved":false,"is_disabled":true,"rental_uris":{"android":"levelo://app?vid=28aad65e-0de0-436a-a9c6-72b66c7a120c","ios":"levelo://app?vid=28aad65e-0de0-436a-a9c6-72b66c7a120c"},"vehicle_type_id":"4","last_reported":1747721787,"current_range_meters":19600,"station_id":"ce4bgi12rcd13ifvqb80","pricing_plan_id":"cebpf4jnsgd1na2vs0mg"},{"bike_id":"73f432da-6399-4b0a-a471-840c9b36360f","system_id":"levelo_inurba_marseille","lat":43.301211,"lon":5.397436,"is_reserved":false,"is_disabled":false,"rental_uris":{"android":"levelo://app?vid=73f432da-6399-4b0a-a471-840c9b36360f","ios":"levelo://app?vid=73f432da-6399-4b0a-a471-840c9b36360f"},"vehicle_type_id":"4","last_reported":1747721787,"current_range_meters":19600,"station_id":"","pricing_plan_id":"cebpf4jnsgd1na2vs0mg"},{"bike_id":"f7662c72-7b73-4bd8-a2af-bcea477ed2d6","system_id":"levelo_inurba_marseille","lat":43.278213,"lon":5.407143,"is_reserved":false,"is_disabled":false,"rental_uris":{"android":"levelo://app?vid=f7662c72-7b73-4bd8-a2af-bcea477ed2d6","ios":"levelo://app?vid=f7662c72-7b73-4bd8-a2af-bcea477ed2d6"},"vehicle_type_id":"4","last_reported":1747721787,"current_range_meters":19600,"station_id":"ce4bhnh2rcd13ifvqgtg","pricing_plan_id":"cebpf4jnsgd1na2vs0mg"},{"bike_id":"64702c37-643a-4005-9f9e-4e467acf5ab2","system_id":"levelo_inurba_marseille","lat":43.30464,"lon":5.379122,"is_reserved":false,"is_disabled":false,"rental_uris":{"android":"levelo://app?vid=64702c37-643a-4005-9f9e-4e467acf5ab2","ios":"levelo://app?vid=64702c37-643a-4005-9f9e-4e467acf5ab2"},"vehicle_type_id":"4","last_reported":1747721787,"current_range_meters":19600,"station_id":"","pricing_plan_id":"cebpf4jnsgd1na2vs0mg"},{"bike_id":"75a553c5-d489-4944-addf-59be89c2a440","system_id":"levelo_inurba_marseille","lat":43.28965,"lon":5.36444,"is_reserved":false,"is_disabled":true,"rental_uris":{"android":"levelo://app?vid=75a553c5-d489-4944-addf-59be89c2a440","ios":"levelo://app?vid=75a553c5-d489-4944-addf-59be89c2a440"},"vehicle_type_id":"4","last_reported":1747721787,"current_range_meters":19600,"station_id":"","pricing_plan_id":"cebpf4jnsgd1na2vs0mg"},{"bike_id":"657e437f-34c4-417d-8581-7019e6d428ca","system_id":"levelo_inurba_marseille","lat":43.28838,"lon":5.39301,"is_reserved":false,"is_disabled":false,"rental_uris":{"android":"levelo://app?vid=657e437f-34c4-417d-8581-7019e6d428ca","ios":"levelo://app?vid=657e437f-34c4-417d-8581-7019e6d428ca"},"vehicle_type_id":"4","last_reported":1747721787,"current_range_meters":19600,"station_id":"ce4bh2p2rcd13ifvqdi0","pricing_plan_id":"cebpf4jnsgd1na2vs0mg"},{"bike_id":"e37dc69e-02cc-45dd-972d-12a914cd89dd","system_id":"levelo_inurba_marseille","lat":43.30151,"lon":5.38086,"is_reserved":false,"is_disabled":false,"rental_uris":{"android":"levelo://app?vid=e37dc69e-02cc-45dd-972d-12a914cd89dd","ios":"levelo://app?vid=e37dc69e-02cc-45dd-972d-12a914cd89dd"},"vehicle_type_id":"4","last_reported":1747721787,"current_range_meters":19600,"station_id":"ce4bgjp2rcd13ifvqbh0","pricing_plan_id":"cebpf4jnsgd1na2vs0mg"},{"bike_id":"1fea3aa0-bd2e-49a7-a54a-ab620f502330","system_id":"levelo_inurba_marseille","lat":43.29243,"lon":5.40152,"is_reserved":false,"is_disabled":false,"rental_uris":{"android":"levelo://app?vid=1fea3aa0-bd2e-49a7-a54a-ab620f502330","ios":"levelo://app?vid=1fea3aa0-bd2e-49a7-a54a-ab620f502330"},"vehicle_type_id":"4","last_reported":1747721787,"current_range_meters":19600,"station_id":"ce4bh312rcd13ifvqdk0","pricing_plan_id":"cebpf4jnsgd1na2vs0mg"},{"bike_id":"a033c6d8-5a8f-4551-9a74-b4f10acffaec","system_id":"levelo_inurba_marseille","lat":43.323558,"lon":5.367436,"is_reserved":false,"is_disabled":false,"rental_uris":{"android":"levelo://app?vid=a033c6d8-5a8f-4551-9a74-b4f10acffaec","ios":"levelo://app?vid=a033c6d8-5a8f-4551-9a74-b4f10acffaec"},"vehicle_type_id":"4","last_reported":1747721787,"current_range_meters":20000,"station_id":"ce4bhsh2rcd13ifvqi2g","pricing_plan_id":"cebpf4jnsgd1na2vs0mg"},{"bike_id":"8da44370-a435-48f7-9bf8-4043a5db973f","system_id":"levelo_inurba_marseille","lat":43.26096,"lon":5.37856,"is_reserved":false,"is_disabled":false,"rental_uris":{"android":"levelo://app?vid=8da44370-a435-48f7-9bf8-4043a5db973f","ios":"levelo://app?vid=8da44370-a435-48f7-9bf8-4043a5db973f"},"vehicle_type_id":"4","last_reported":1747721787,"current_range_meters":20000,"station_id":"","pricing_plan_id":"cebpf4jnsgd1na2vs0mg"},{"bike_id":"475e2f38-2844-4c15-947e-98a85e897d54","system_id":"levelo_inurba_marseille","lat":43.311153,"lon":5.377499,"is_reserved":false,"is_disabled":false,"rental_uris":{"android":"levelo://app?vid=475e2f38-2844-4c15-947e-98a85e897d54","ios":"levelo://app?vid=475e2f38-2844-4c15-947e-98a85e897d54"},"vehicle_type_id":"4","last_reported":1747721787,"current_range_meters":20000,"station_id":"ce4bgt92rcd13ifvqcg0","pricing_plan_id":"cebpf4jnsgd1na2vs0mg"},{"bike_id":"869cfffe-2f4a-4c85-8893-bc8d2c15d749","system_id":"levelo_inurba_marseille","lat":43.29245,"lon":5.40912,"is_reserved":false,"is_disabled":false,"rental_uris":{"android":"levelo://app?vid=869cfffe-2f4a-4c85-8893-bc8d2c15d749","ios":"levelo://app?vid=869cfffe-2f4a-4c85-8893-bc8d2c15d749"},"vehicle_type_id":"4","last_reported":1747721787,"current_range_meters":20000,"station_id":"ce4bh192rcd13ifvqdc0","pricing_plan_id":"cebpf4jnsgd1na2vs0mg"},{"bike_id":"34be4db7-aace-4830-b220-79ab118495e6","system_id":"levelo_inurba_marseille","lat":43.30932,"lon":5.40142,"is_reserved":false,"is_disabled":false,"rental_uris":{"android":"levelo://app?vid=34be4db7-aace-4830-b220-79ab118495e6","ios":"levelo://app?vid=34be4db7-aace-4830-b220-79ab118495e6"},"vehicle_type_id":"4","last_reported":1747721787,"current_range_meters":20000,"station_id":"ce4bgvp2rcd13ifvqct0","pricing_plan_id":"cebpf4jnsgd1na2vs0mg"},