{"last_updated":1738739315,"ttl":60,"version":"2.2","data":{"bikes":[{"bike_id":"d084e8ac-f9c2-4cf7-9aec-ff3c79770415","system_id":"levelo_inurba_marseille","lat":43.2991,"lon":5.38143,"is_reserved":false,"is_disabled":false,"rental_uris":{"android":"levelo://app?vid=d084e8ac-f9c2-4cf7-9aec-ff3c79770415","ios":"levelo://app?vid=d084e8ac-f9c2-4cf7-9aec-ff3c79770415"},"vehicle_type_id":"4","last_reported":1738739315,"current_range_meters":37600,"station_id":"ce4bgj12rcd13ifvqbc0","pricing_plan_id":"cebpf4jnsgd1na2vs0mg"},{"bike_id":"84598151-c453-4c49-a4d4-90560262791b","system_id":"levelo_inurba_marseille","lat":43.25818,"lon":5.39444,"is_reserved":false,"is_disabled":false,"rental_uris":{"android":"levelo://app?vid=84598151-c453-4c49-a4d4-90560262791b","ios":"levelo://app?vid=84598151-c453-4c49-a4d4-90560262791b"},"vehicle_type_id":"4","last_reported":1738739315,"current_range_meters":38800,"station_id":"ce4bhip2rcd13ifvqft0","pricing_plan_id":"cebpf4jnsgd1na2vs0mg"},{"bike_id":"419c8c22-86a4-4ef5-91f4-a06b4c2e4bba","system_id":"levelo_inurba_marseille","lat":43.22933,"lon":5.35393,"is_reserved":false,"is_disabled":false,"rental_uris":{"android":"levelo://app?vid=419c8c22-86a4-4ef5-91f4-a06b4c2e4bba","ios":"levelo://app?vid=419c8c22-86a4-4ef5-91f4-a06b4c2e4bba"},"vehicle_type_id":"4","last_reported":1738739315,"current_range_meters":27600,"station_id":"cpo3532slgdg3j2ikp40","pricing_plan_id":"cebpf4jnsgd1na2vs0mg"},{"bike_id":"9fa5934b-265d-4647-ad90-fd53fb1906bf","system_id":"levelo_inurba_marseille","lat":43.29519,"lon":5.37504,"is_reserved":false,"is_disabled":false,"rental_uris":{"android":"levelo://app?vid=9fa5934b-265d-4647-ad90-fd53fb1906bf","ios":"levelo://app?vid=9fa5934b-265d-4647-ad90-fd53fb1906bf"},"vehicle_type_id":"4","last_reported":1738739315,"current_range_meters":18800,"station_id":"ce4bgkp2rcd13ifvqbmg","pricing_plan_id":"cebpf4jnsgd1na2vs0mg"},{"bike_id":"811c103b-629b-4769-b2a0-d90a71807bac","system_id":"levelo_inurba_marseille","lat":43.31481,"lon":5.37334,"is_reserved":false,"is_disabled":false,"rental_uris":{"android":"levelo://app?vid=811c103b-629b-4769-b2a0-d90a71807bac","ios":"levelo://app?vid=811c103b-629b-4769-b2a0-d90a71807bac"},"vehicle_type_id":"4","last_reported":1738739315,"current_range_meters":11200,"station_id":"ce4bgt12rcd13ifvqcd0","pricing_plan_id":"cebpf4jnsgd1na2vs0mg"},{"bike_id":"a8e35987-3f14-4ce3-8ebc-b6caeb8642f4","system_id":"levelo_inurba_marseille","lat":43.25934,"lon":5.40903,"is_reserved":false,"is_disabled":false,"rental_uris":{"android":"levelo://app?vid=a8e35987-3f14-4ce3-8ebc-b6caeb8642f4","ios":"levelo://app?vid=a8e35987-3f14-4ce3-8ebc-b6caeb8642f4"},"vehicle_type_id":"4","last_reported":1738739315,"current_range_meters":4000,"station_id":"ce4bhm92rcd13ifvqglg","pricing_plan_id":"cebpf4jnsgd1na2vs0mg"},{"bike_id":"26b8c6d0-0da6-44db-91e7-4de5ef76b7aa","system_id":"levelo_inurba_marseille","lat":43.28601,"lon":5.35153,"is_reserved":false,"is_disabled":false,"rental_uris":{"android":"levelo://app?vid=26b8c6d0-0da6-44db-91e7-4de5ef76b7aa","ios":"levelo://app?vid=26b8c6d0-0da6-44db-91e7-4de5ef76b7aa"},"vehicle_type_id":"4","last_reported":1738739315,"current_range_meters":37600,"station_id":"ce4bhch2rcd13ifvqeug","pricing_plan_id":"cebpf4jnsgd1na2vs0mg"},{"bike_id":"02a904ec-0fc6-49cf-bf85-39b52a013347","system_id":"levelo_inurba_marseille","lat":43.28159,"lon":5.42657,"is_reserved":false,"is_disabled":false,"rental_uris":{"android":"levelo://app?vid=02a904ec-0fc6-49cf-bf85-39b52a013347","ios":"levelo://app?vid=02a904ec-0fc6-49cf-bf85-39b52a013347"},"vehicle_type_id":"4","last_reported":1738739315,"current_range_meters":38400,"station_id":"ce4bhnh2rcd13ifvqgug","pricing_plan_id":"cebpf4jnsgd1na2vs0mg"},{"bike_id":"caf558c3-a9ad-4fe3-92b6-038f06ef09fe","system_id":"levelo_inurba_marseille","lat":43.231945,"lon":5.355634,"is_reserved":false,"is_disabled":false,"rental_uris":{"android":"levelo://app?vid=caf558c3-a9ad-4fe3-92b6-038f06ef09fe","ios":"levelo://app?vid=caf558c3-a9ad-4fe3-92b6-038f06ef09fe"},"vehicle_type_id":"4","last_reported":1738739315,"current_range_meters":12400,"station_id":"ce4bhu92rcd13ifvqi70","pricing_plan_id":"cebpf4jnsgd1na2vs0mg"},{"bike_id":"ca569277-7b06-46b6-8f6f-cd357d4d7164","system_id":"levelo_inurba_marseille","lat":43.24085,"lon":5.37726,"is_reserved":false,"is_disabled":false,"rental_uris":{"android":"levelo://app?vid=ca569277-7b06-46b6-8f6f-cd357d4d7164","ios":"levelo://app?vid=ca569277-7b06-46b6-8f6f-cd357d4d7164"},"vehicle_type_id":"4","last_reported":1738739315,"current_range_meters":15200,"station_id":"ce4bhnp2rcd13ifvqgvg","pricing_plan_id":"cebpf4jnsgd1na2vs0mg"},{"bike_id":"f2df43d7-33ba-4e8c-9709-410c7a2fe9e4","system_id":"levelo_inurba_marseille","lat":43.30212,"lon":5.39462,"is_reserved":false,"is_disabled":false,"rental_uris":{"android":"levelo://app?vid=f2df43d7-33ba-4e8c-9709-410c7a2fe9e4","ios":"levelo://app?vid=f2df43d7-33ba-4e8c-9709-410c7a2fe9e4"},"vehicle_type_id":"4","last_reported":1738739315,"current_range_meters":16000,"station_id":"ce4bh0p2rcd13ifvqd70","pricing_plan_id":"cebpf4jnsgd1na2vs0mg"},{"bike_id":"7e19e353-1331-446b-aa47-ecd228ac2406","system_id":"levelo_inurba_marseille","lat":43.30474,"lon":5.37904,"is_reserved":false,"is_disabled":false,"rental_uris":{"android":"levelo://app?vid=7e19e353-1331-446b-aa47-ecd228ac2406","ios":"levelo://app?vid=7e19e353-1331-446b-aa47-ecd228ac2406"},"vehicle_type_id":"4","last_reported":1738739315,"current_range_meters":38000,"station_id":"ce4bgup2rcd13ifvqcn0","pricing_plan_id":"cebpf4jnsgd1na2vs0mg"},{"bike_id":"a9bd79b5-1c90-4aba-b1e9-d7eabea49915","system_id":"levelo_inurba_marseille","lat":43.317197,"lon":5.424082,"is_reserved":false,"is_disabled":false,"rental_uris":{"android":"levelo://app?vid=a9bd79b5-1c90-4aba-b1e9-d7eabea49915","ios":"levelo://app?vid=a9bd79b5-1c90-4aba-b1e9-d7eabea49915"},"vehicle_type_id":"4","last_reported":1738739315,"current_range_meters":38000,"station_id":"ce4bhp92rcd13ifvqhbg","pricing_plan_id":"cebpf4jnsgd1na2vs0mg"},{"bike_id":"0db77ccd-018c-4148-a078-44d034315823","system_id":"levelo_inurba_marseille","lat":43.28408,"lon":5.37524,"is_reserved":false,"is_disabled":false,"rental_uris":{"android":"levelo://app?vid=0db77ccd-018c-4148-a078-44d034315823","ios":"levelo://app?vid=0db77ccd-018c-4148-a078-44d034315823"},"vehicle_type_id":"4","last_reported":1738739315,"current_range_meters":31200,"station_id":"ce4bh412rcd13ifvqds0","pricing_plan_id":"cebpf4jnsgd1na2vs0mg"},{"bike_id":"6a2d4ebb-73b9-49fe-a603-0cc2bbea31cd","system_id":"levelo_inurba_marseille","lat":43.30588,"lon":5.39373,"is_reserved":false,"is_disabled":false,"rental_uris":{"android":"levelo://app?vid=6a2d4ebb-73b9-49fe-a603-0cc2bbea31cd","ios":"levelo://app?vid=6a2d4ebb-73b9-49fe-a603-0cc2bbea31cd"},"vehicle_type_id":"4","last_reported":1738739315,"current_range_meters":17600,"station_id":"ce4bh0p2rcd13ifvqd80","pricing_plan_id":"cebpf4jnsgd1na2vs0mg"},{"bike_id":"eb755d59-7afc-4519-b8a7-b1014a179d3c","system_id":"levelo_inurba_marseille","lat":43.279376,"lon":5.407911,"is_reserved":false,"is_disabled":false,"rental_uris":{"android":"levelo://app?vid=eb755d59-7afc-4519-b8a7-b1014a179d3c","ios":"levelo://app?vid=eb755d59-7afc-4519-b8a7-b1014a179d3c"},"vehicle_type_id":"4","last_reported":1738739315,"current_range_meters":38400,"station_id":"ce4bhnh2rcd13ifvqgtg","pricing_plan_id":"cebpf4jnsgd1na2vs0mg"},{"bike_id":"f56185a9-012f-40f6-b178-338a8bf6ac85","system_id":"levelo_inurba_marseille","lat":43.30934,"lon":5.40155,"is_reserved":false,"is_disabled":false,"rental_uris":{"android":"levelo://app?vid=f56185a9-012f-40f6-b178-338a8bf6ac85","ios":"levelo://app?vid=f56185a9-012f-40f6-b178-338a8bf6ac85"},"vehicle_type_id":"4","last_reported":1738739315,"current_range_meters":34000,"station_id":"ce4bgvp2rcd13ifvqct0","pricing_plan_id":"cebpf4jnsgd1na2vs0mg"},{"bike_id":"353c2584-bc9a-4935-811d-ab9092e9e435","system_id":"levelo_inurba_marseille","lat":43.29293,"lon":5.38432,"is_reserved":false,"is_disabled":false,"rental_uris":{"android":"levelo://app?vid=353c2584-bc9a-4935-811d-ab9092e9e435","ios":"levelo://app?vid=353c2584-bc9a-4935-811d-ab9092e9e435"},"vehicle_type_id":"4","last_reported":1738739315,"current_range_meters":24800,"station_id":"ce4bh692rcd13ifvqea0","pricing_plan_id":"cebpf4jnsgd1na2vs0mg"},{"bike_id":"22a6f0cc-fa38-4aad-915c-02f32a8fb4af","system_id":"levelo_inurba_marseille","lat":43.30252,"lon":5.40068,"is_reserved":false,"is_disabled":false,"rental_uris":{"android":"levelo://app?vid=22a6f0cc-fa38-4aad-915c-02f32a8fb4af","ios":"levelo://app?vid=22a6f0cc-fa38-4aad-915c-02f32a8fb4af"},"vehicle_type_id":"4","last_reported":1738739315,"current_range_meters":34000,"station_id":"ce4bgvh2rcd13ifvqcs0","pricing_plan_id":"cebpf4jnsgd1na2vs0mg"},{"bike_id":"57763ed3-933f-4f21-b428-128e595d9462","system_id":"levelo_inurba_marseille","lat":43.30209,"lon":5.39467,"is_reserved":false,"is_disabled":false,"rental_uris":{"android":"levelo://app?vid=57763ed3-933f-4f21-b428-128e595d9462","ios":"levelo://app?vid=57763ed3-933f-4f21-b428-128e595d9462"},"vehicle_type_id":"4","last_reported":1738739315,"current_range_meters":36800,"station_id":"ce4bh0p2rcd13ifvqd70","pricing_plan_id":"cebpf4jnsgd1na2vs0mg"},{"bike_id":"4c10257c-0622-4433-b0b2-f448ee8bd1f8","system_id":"levelo_inurba_marseille","lat":43.28482,"lon":5.38555,"is_reserved":false,"is_disabled":false,"rental_uris":{"android":"levelo://app?vid=4c10257c-0622-4433-b0b2-f448ee8bd1f8","ios":"levelo://app?vid=4c10257c-0622-4433-b0b2-f448ee8bd1f8"},"vehicle_type_id":"4","last_reported":1738739315,"current_range_meters":32400,"station_id":"ce4bh8p2rcd13ifvqeb0","pricing_plan_id":"cebpf4jnsgd1na2vs0mg"},{"bike_id":"585548c3-dfea-4775-b261-9cda396a75ed","system_id":"levelo_inurba_marseille","lat":43.30933,"lon":5.40153,"is_reserved":false,"is_disabled":true,"rental_uris":{"android":"levelo://app?vid=585548c3-dfea-4775-b261-9cda396a75ed","ios":"levelo://app?vid=585548c3-dfea-4775-b261-9cda396a75ed"},"vehicle_type_id":"4","last_reported":1738739315,"current_range_meters":38000,"station_id":"ce4bgvp2rcd13ifvqct0","pricing_plan_id":"cebpf4jnsgd1na2vs0mg"},{"bike_id":"7eaacd34-10f9-4246-8aa1-4a22e07a7c06","system_id":"levelo_inurba_marseille","lat":43.316622,"lon":5.374105,"is_reserved":false,"is_disabled":false,"rental_uris":{"android":"levelo://app?vid=7eaacd34-10f9-4246-8aa1-4a22e07a7c06","ios":"levelo://app?vid=7eaacd34-10f9-4246-8aa1-4a22e07a7c06"},"vehicle_type_id":"4","last_reported":1738739315,"current_range_meters":27600,"station_id":"","pricing_plan_id":"cebpf4jnsgd1na2vs0mg"},{"bike_id":"1572cbca-62ac-4b78-95e4-0e23353e4f06","system_id":"levelo_inurba_marseille","lat":43.290311,"lon":5.359224,"is_reserved":false,"is_disabled":false,"rental_uris":{"android":"levelo://app?vid=1572cbca-62ac-4b78-95e4-0e23353e4f06","ios":"levelo://app?vid=1572cbca-62ac-4b78-95e4-0e23353e4f06"},"vehicle_type_id":"4","last_reported":1738739315,"current_range_meters":10800,"station_id":"ce4bha92rcd13ifvqeg0","pricing_plan_id":"cebpf4jnsgd1na2vs0mg"},{"bike_id":"a8cfe157-3ba9-4ecb-8b89-61f956b868c4","system_id":"levelo_inurba_marseille","lat":43.32291,"lon":5.40623,"is_reserved":false,"is_disabled":false,"rental_uris":{"android":"levelo://app?vid=a8cfe157-3ba9-4ecb-8b89-61f956b868c4","ios":"levelo://app?vid=a8cfe157-3ba9-4ecb-8b89-61f956b868c4"},"vehicle_type_id":"4","last_reported":1738739315,"current_range_meters":26800,"station_id":"","pricing_plan_id":"cebpf4jnsgd1na2vs0mg"},{"bike_id":"4b8dd0a3-c3f7-460b-8cbe-d2a77291452b","system_id":"levelo_inurba_marseille","lat":43.29024,"lon":5.38124,"is_reserved":false,"is_disabled":false,"rental_uris":{"android":"levelo://app?vid=4b8dd0a3-c3f7-460b-8cbe-d2a77291452b","ios":"levelo://app?vid=4b8dd0a3-c3f7-460b-8cbe-d2a77291452b"},"vehicle_type_id":"4","last_reported":1738739315,"current_range_meters":34800,"station_id":"ce4bh4p2rcd13ifvqe1g","pricing_plan_id":"cebpf4jnsgd1na2vs0mg"},{"bike_id":"81232249-f73a-4ee8-8a83-c51d8a23ad51","system_id":"levelo_inurba_marseille","lat":43.25497,"lon":5.3767,"is_reserved":false,"is_disabled":false,"rental_uris":{"android":"levelo://app?vid=81232249-f73a-4ee8-8a83-c51d8a23ad51","ios":"levelo://app?vid=81232249-f73a-4ee8-8a83-c51d8a23ad51"},"vehicle_type_id":"4","last_reported":1738739315,"current_range_meters":38800,"station_id":"ce4bhh12rcd13ifvqff0","pricing_plan_id":"cebpf4jnsgd1na2vs0mg"},{"bike_id":"1a78f126-15bb-40e4-a379-1a33eae10b94","system_id":"levelo_inurba_marseille","lat":43.32107,"lon":5.36788,"is_reserved":false,"is_disabled":false,"rental_uris":{"android":"levelo://app?vid=1a78f126-15bb-40e4-a379-1a33eae10b94","ios":"levelo://app?vid=1a78f126-15bb-40e4-a379-1a33eae10b94"},"vehicle_type_id":"4","last_reported":1738739315,"current_range_meters":36400,"station_id":"ce4bhrh2rcd13ifvqhug","pricing_plan_id":"cebpf4jnsgd1na2vs0mg"},{"bike_id":"95dfb3ed-a02f-4b20-9602-3463ddc791a3","system_id":"levelo_inurba_marseille","lat":43.30484,"lon":5.3791,"is_reserved":false,"is_disabled":false,"rental_uris":{"android":"levelo://app?vid=95dfb3ed-a02f-4b20-9602-3463ddc791a3","ios":"levelo://app?vid=95dfb3ed-a02f-4b20-9602-3463ddc791a3"},"vehicle_type_id":"4","last_reported":1738739315,"current_range_meters":33600,"station_id":"ce4bgup2rcd13ifvqcn0","pricing_plan_id":"cebpf4jnsgd1na2vs0mg"},{"bike_id":"c92d27b3-011a-4b9b-85d3-c7a68cdf0054","system_id":"levelo_inurba_marseille","lat":43.324777,"lon":5.365669,"is_reserved":false,"is_disabled":true,"rental_uris":{"android":"levelo://app?vid=c92d27b3-011a-4b9b-85d3-c7a68cdf0054","ios":"levelo://app?vid=c92d27b3-011a-4b9b-85d3-c7a68cdf0054"},"vehicle_type_id":"4","last_reported":1738739315,"current_range_meters":13600,"station_id":"","pricing_plan_id":"cebpf4jnsgd1na2vs0mg"},{"bike_id":"f53cc797-2e23-4ec6-a462-85989923c05c","system_id":"levelo_inurba_marseille","lat":43.250135,"lon":5.389367,"is_reserved":false,"is_disabled":false,"rental_uris":{"android":"levelo://app?vid=f53cc797-2e23-4ec6-a462-85989923c05c","ios":"levelo://app?vid=f53cc797-2e23-4ec6-a462-85989923c05c"},"vehicle_type_id":"4","last_reported":1738739315,"current_range_meters":39200,"station_id":"ce4bhgp2rcd13ifvqfd0","pricing_plan_id":"cebpf4jnsgd1na2vs0mg"},{"bike_id":"a31da492-d404-42a4-a173-3e8c75aeef5d","system_id":"levelo_inurba_marseille","lat":43.24367,"lon":5.37068,"is_reserved":false,"is_disabled":false,"rental_uris":{"android":"levelo://app?vid=a31da492-d404-42a4-a173-3e8c75aeef5d","ios":"levelo://app?vid=a31da492-d404-42a4-a173-3e8c75aeef5d"},"vehicle_type_id":"4","last_reported":1738739315,"current_range_meters":30400,"station_id":"ce4bhhh2rcd13ifvqfk0","pricing_plan_id":"cebpf4jnsgd1na2vs0mg"},{"bike_id":"3cefc9f4-662a-490d-a7a9-f6d840f7ee85","system_id":"levelo_inurba_marseille","lat":43.25588,"lon":5.38242,"is_reserved":false,"is_disabled":false,"rental_uris":{"android":"levelo://app?vid=3cefc9f4-662a-490d-a7a9-f6d840f7ee85","ios":"levelo://app?vid=3cefc9f4-662a-490d-a7a9-f6d840f7ee85"},"vehicle_type_id":"4","last_reported":1738739315,"current_range_meters":18000,"station_id":"ce4bhih2rcd13ifvqfs0","pricing_plan_id":"cebpf4jnsgd1na2vs0mg"},{"bike_id":"a1a7079b-68b5-45ca-9af8-b6bc9f7cd559","system_id":"levelo_inurba_marseille","lat":43.22922,"lon":5.35387,"is_reserved":false,"is_disabled":false,"rental_uris":{"android":"levelo://app?vid=a1a7079b-68b5-45ca-9af8-b6bc9f7cd559","ios":"levelo://app?vid=a1a7079b-68b5-45ca-9af8-b6bc9f7cd559"},"vehicle_type_id":"4","last_reported":1738739315,"current_range_meters":38800,"station_id":"cpo3532slgdg3j2ikp40","pricing_plan_id":"cebpf4jnsgd1na2vs0mg"},{"bike_id":"4cff4c18-6936-40ba-b1b4-9d0ae4647e78","system_id":"levelo_inurba_marseille","lat":43.275606,"lon":5.3841,"is_reserved":false,"is_disabled":false,"rental_uris":{"android":"levelo://app?vid=4cff4c18-6936-40ba-b1b4-9d0ae4647e78","ios":"levelo://app?vid=4cff4c18-6936-40ba-b1b4-9d0ae4647e78"},"vehicle_type_id":"4","last_reported":1738739315,"current_range_meters":29600,"station_id":"ce4bhh92rcd13ifvqfi0","pricing_plan_id":"cebpf4jnsgd1na2vs0mg"},{"bike_id":"b33c305b-93f2-4704-99fc-c1fc7dc94c00","system_id":"levelo_inurba_marseille","lat":43.31193,"lon":5.38702,"is_reserved":false,"is_disabled":false,"rental_uris":{"android":"levelo://app?vid=b33c305b-93f2-4704-99fc-c1fc7dc94c00","ios":"levelo://app?vid=b33c305b-93f2-4704-99fc-c1fc7dc94c00"},"vehicle_type_id":"4","last_reported":1738739315,"current_range_meters":38400,"station_id":"ce4bgv12rcd13ifvqcp0","pricing_plan_id":"cebpf4jnsgd1na2vs0mg"},{"bike_id":"b7406dda-3082-4224-bdff-a31932a4a7c1","system_id":"levelo_inurba_marseille","lat":43.28084,"lon":5.39655,"is_reserved":false,"is_disabled":false,"rental_uris":{"android":"levelo://app?vid=b7406dda-3082-4224-bdff-a31932a4a7c1","ios":"levelo://app?vid=b7406dda-3082-4224-bdff-a31932a4a7c1"},"vehicle_type_id":"4","last_reported":1738739315,"current_range_meters":28000,"station_id":"ce4bho12rcd13ifvqh2g","pricing_plan_id":"cebpf4jnsgd1na2vs0mg"},{"bike_id":"e900f4fe-f287-4f7a-a111-e62d22c31fb5","system_id":"levelo_inurba_marseille","lat":43.25577,"lon":5.38222,"is_reserved":false,"is_disabled":false,"rental_uris":{"android":"levelo://app?vid=e900f4fe-f287-4f7a-a111-e62d22c31fb5","ios":"levelo://app?vid=e900f4fe-f287-4f7a-a111-e62d22c31fb5"},"vehicle_type_id":"4","last_reported":1738739315,"current_range_meters":28800,"station_id":"ce4bhih2rcd13ifvqfs0","pricing_plan_id":"cebpf4jnsgd1na2vs0mg"},{"bike_id":"b4da0a36-b2a2-409b-8b71-70ab4e6718ab","system_id":"levelo_inurba_marseille","lat":43.25586,"lon":5.38227,"is_reserved":false,"is_disabled":false,"rental_uris":{"android":"levelo://app?vid=b4da0a36-b2a2-409b-8b71-70ab4e6718ab","ios":"levelo://app?vid=b4da0a36-b2a2-409b-8b71-70ab4e6718ab"},"vehicle_type_id":"4","last_reported":1738739315,"current_range_meters":17200,"station_id":"ce4bhih2rcd13ifvqfs0","pricing_plan_id":"cebpf4jnsgd1na2vs0mg"},{"bike_id":"3726dff5-00e4-45e5-9db7-c906f7e13ea9","system_id":"levelo_inurba_marseille","lat":43.27167,"lon":5.40992,"is_reserved":false,"is_disabled":false,"rental_uris":{"android":"levelo://app?vid=3726dff5-00e4-45e5-9db7-c906f7e13ea9","ios":"levelo://app?vid=3726dff5-00e4-45e5-9db7-c906f7e13ea9"},"vehicle_type_id":"4","last_reported":1738739315,"current_range_meters":30000,"station_id":"ce4bhl12rcd13ifvqgf0","pricing_plan_id":"cebpf4jnsgd1na2vs0mg"},{"bike_id":"38d9c123-c80e-4d99-abd9-1554da4e609f","system_id":"levelo_inurba_marseille","lat":43.24657,"lon":5.38885,"is_reserved":false,"is_disabled":false,"rental_uris":{"android":"levelo://app?vid=38d9c123-c80e-4d99-abd9-1554da4e609f","ios":"levelo://app?vid=38d9c123-c80e-4d99-abd9-1554da4e609f"},"vehicle_type_id":"4","last_reported":1738739315,"current_range_meters":27200,"station_id":"ce4bhg12rcd13ifvqf60","pricing_plan_id":"cebpf4jnsgd1na2vs0mg"},{"bike_id":"2bba9d1a-4edc-4113-a741-12ea4ee670b3","system_id":"levelo_inurba_marseille","lat":43.26557,"lon":5.39013,"is_reserved":false,"is_disabled":false,"rental_uris":{"android":"levelo://app?vid=2bba9d1a-4edc-4113-a741-12ea4ee670b3","ios":"levelo://app?vid=2bba9d1a-4edc-4113-a741-12ea4ee670b3"},"vehicle_type_id":"4","last_reported":1738739315,"current_range_meters":25600,"station_id":"ce4bhe12rcd13ifvqf30","pricing_plan_id":"cebpf4jnsgd1na2vs0mg"},{"bike_id":"ecfd8047-b75a-4e87-a298-ba28fe0083c2","system_id":"levelo_inurba_marseille","lat":43.295861,"lon":5.380949,"is_reserved":false,"is_disabled":true,"rental_uris":{"android":"levelo://app?vid=ecfd8047-b75a-4e87-a298-ba28fe0083c2","ios":"levelo://app?vid=ecfd8047-b75a-4e87-a298-ba28fe0083c2"},"vehicle_type_id":"4","last_reported":1738739315,"current_range_meters":0,"station_id":"ce4bgl12rcd13ifvqbo0","pricing_plan_id":"cebpf4jnsgd1na2vs0mg"},{"bike_id":"91c53a12-bfb5-4d75-8638-43c02b53d613","system_id":"levelo_inurba_marseille","lat":43.3049,"lon":5.37911,"is_reserved":false,"is_disabled":false,"rental_uris":{"android":"levelo://app?vid=91c53a12-bfb5-4d75-8638-43c02b53d613","ios":"levelo://app?vid=91c53a12-bfb5-4d75-8638-43c02b53d613"},"vehicle_type_id":"4","last_reported":1738739315,"current_range_meters":36000,"station_id":"ce4bgup2rcd13ifvqcn0","pricing_plan_id":"cebpf4jnsgd1na2vs0mg"},{"bike_id":"6b934ec5-7661-41f6-825f-dd4dddb4671e","system_id":"levelo_inurba_marseille","lat":43.286149,"lon":5.351077,"is_reserved":false,"is_disabled":false,"rental_uris":{"android":"levelo://app?vid=6b934ec5-7661-41f6-825f-dd4dddb4671e","ios":"levelo://app?vid=6b934ec5-7661-41f6-825f-dd4dddb4671e"},"vehicle_type_id":"4","last_reported":1738739315,"current_range_meters":20000,"station_id":"ce4bhch2rcd13ifvqeug","pricing_plan_id":"cebpf4jnsgd1na2vs0mg"},{"bike_id":"9a3d8afe-6430-4f53-aba8-27d653fab8bf","system_id":"levelo_inurba_marseille","lat":43.25006,"lon":5.38922,"is_reserved":false,"is_disabled":false,"rental_uris":{"android":"levelo://app?vid=9a3d8afe-6430-4f53-aba8-27d653fab8bf","ios":"levelo://app?vid=9a3d8afe-6430-4f53-aba8-27d653fab8bf"},"vehicle_type_id":"4","last_reported":1738739315,"current_range_meters":39200,"station_id":"ce4bhgp2rcd13ifvqfd0","pricing_plan_id":"cebpf4jnsgd1na2vs0mg"},{"bike_id":"272335b6-dc24-496f-b8c5-36817206bf50","system_id":"levelo_inurba_marseille","lat":43.29899,"lon":5.43671,"is_reserved":false,"is_disabled":false,"rental_uris":{"android":"levelo://app?vid=272335b6-dc24-496f-b8c5-36817206bf50","ios":"levelo://app?vid=272335b6-dc24-496f-b8c5-36817206bf50"},"vehicle_type_id":"4","last_reported":1738739315,"current_range_meters":38800,"station_id":"ce4bhpp2rcd13ifvqhfg","pricing_plan_id":"cebpf4jnsgd1na2vs0mg"},{"bike_id":"6531779e-9867-422a-b66d-15b4715f1895","system_id":"levelo_inurba_marseille","lat":43.28875,"lon":5.39357,"is_reserved":false,"is_disabled":false,"rental_uris":{"android":"levelo://app?vid=6531779e-9867-422a-b66d-15b4715f1895","ios":"levelo://app?vid=6531779e-9867-422a-b66d-15b4715f1895"},"vehicle_type_id":"4","last_reported":1738739315,"current_range_meters":33200,"station_id":"ce4bh412rcd13ifvqdr0","pricing_plan_id":"cebpf4jnsgd1na2vs0mg"},{"bike_id":"0d10f978-6cf2-4f16-95f6-172ed5fa00c8","system_id":"levelo_inurba_marseille","lat":43.33601,"lon":5.41036,"is_reserved":false,"is_disabled":false,"rental_uris":{"android":"levelo://app?vid=0d10f978-6cf2-4f16-95f6-172ed5fa00c8","ios":"levelo://app?vid=0d10f978-6cf2-4f16-95f6-172ed5fa00c8"},"vehicle_type_id":"4","last_reported":1738739315,"current_range_meters":16000,"station_id":"ce4bhqh2rcd13ifvqhmg","pricing_plan_id":"cebpf4jnsgd1na2vs0mg"},{"bike_id":"17b1a83f-f008-47e8-9f74-209e6cf0cf56","system_id":"levelo_inurba_marseille","lat":43.31351,"lon":5.36716,"is_reserved":false,"is_disabled":false,"rental_uris":{"android":"levelo://app?vid=17b1a83f-f008-47e8-9f74-209e6cf0cf56","ios":"levelo://app?vid=17b1a83f-f008-47e8-9f74-209e6cf0cf56"},"vehicle_type_id":"4","last_reported":1738739315,"current_range_meters":38400,"station_id":"ce4bgr92rcd13ifvqc6g","pricing_plan_id":"cebpf4jnsgd1na2vs0mg"},{"bike_id":"0c83acd9-85d1-40f8-bd6e-5ad0e4c112fc","system_id":"levelo_inurba_marseille","lat":43.27492,"lon":5.4245,"is_reserved":false,"is_disabled":false,"rental_uris":{"android":"levelo://app?vid=0c83acd9-85d1-40f8-bd6e-5ad0e4c112fc","ios":"levelo://app?vid=0c83acd9-85d1-40f8-bd6e-5ad0e4c112fc"},"vehicle_type_id":"4","last_reported":1738739315,"current_range_meters":18000,"station_id":"ce4bhn92rcd13ifvqgrg","pricing_plan_id":"cebpf4jnsgd1na2vs0mg"},{"bike_id":"967cdb67-2f8e-4493-a026-a8ad4dd4b8dd","system_id":"levelo_inurba_marseille","lat":43.30169,"lon":5.38085,"is_reserved":false,"is_disabled":false,"rental_uris":{"android":"levelo://app?vid=967cdb67-2f8e-4493-a026-a8ad4dd4b8dd","ios":"levelo://app?vid=967cdb67-2f8e-4493-a026-a8ad4dd4b8dd"},"vehicle_type_id":"4","last_reported":1738739315,"current_range_meters":35200,"station_id":"ce4bgjp2rcd13ifvqbh0","pricing_plan_id":"cebpf4jnsgd1na2vs0mg"},{"bike_id":"cf0d534e-429a-4742-b2cb-4793faf704ac","system_id":"levelo_inurba_marseille","lat":43.24646,"lon":5.38889,"is_reserved":false,"is_disabled":false,"rental_uris":{"android":"levelo://app?vid=cf0d534e-429a-4742-b2cb-4793faf704ac","ios":"levelo://app?vid=cf0d534e-429a-4742-b2cb-4793faf704ac"},"vehicle_type_id":"4","last_reported":1738739315,"current_range_meters":38800,"station_id":"ce4bhg12rcd13ifvqf60","pricing_plan_id":"cebpf4jnsgd1na2vs0mg"},{"bike_id":"69c6d5d4-9b9c-4893-a498-9f9616a1a34b","system_id":"levelo_inurba_marseille","lat":43.27494,"lon":5.42458,"is_reserved":false,"is_disabled":false,"rental_uris":{"android":"levelo://app?vid=69c6d5d4-9b9c-4893-a498-9f9616a1a34b","ios":"levelo://app?vid=69c6d5d4-9b9c-4893-a498-9f9616a1a34b"},"vehicle_type_id":"4","last_reported":1738739315,"current_range_meters":26800,"station_id":"ce4bhn92rcd13ifvqgrg","pricing_plan_id":"cebpf4jnsgd1na2vs0mg"},{"bike_id":"d5af1b14-c1df-4fc7-aca9-3e1801986d1b","system_id":"levelo_inurba_marseille","lat":43.29029,"lon":5.39963,"is_reserved":false,"is_disabled":false,"rental_uris":{"android":"levelo://app?vid=d5af1b14-c1df-4fc7-aca9-3e1801986d1b","ios":"levelo://app?vid=d5af1b14-c1df-4fc7-aca9-3e1801986d1b"},"vehicle_type_id":"4","last_reported":1738739315,"current_range_meters":36400,"station_id":"ce4bh392rcd13ifvqdm0","pricing_plan_id":"cebpf4jnsgd1na2vs0mg"},{"bike_id":"3a5aa9c9-bc8f-448e-aeb5-c9e98d56970c","system_id":"levelo_inurba_marseille","lat":43.33608,"lon":5.40976,"is_reserved":false,"is_disabled":false,"rental_uris":{"android":"levelo://app?vid=3a5aa9c9-bc8f-448e-aeb5-c9e98d56970c","ios":"levelo://app?vid=3a5aa9c9-bc8f-448e-aeb5-c9e98d56970c"},"vehicle_type_id":"4","last_reported":1738739315,"current_range_meters":39200,"station_id":"ce4bhqh2rcd13ifvqhmg","pricing_plan_id":"cebpf4jnsgd1na2vs0mg"},{"bike_id":"3d9b957f-57ac-4f6a-9efb-9b6e675d032c","system_id":"levelo_inurba_marseille","lat":43.29073,"lon":5.37186,"is_reserved":false,"is_disabled":false,"rental_uris":{"android":"levelo://app?vid=3d9b957f-57ac-4f6a-9efb-9b6e675d032c","ios":"levelo://app?vid=3d9b957f-57ac-4f6a-9efb-9b6e675d032c"},"vehicle_type_id":"4","last_reported":1738739315,"current_range_meters":22800,"station_id":"ce4bh5p2rcd13ifvqe4g","pricing_plan_id":"cebpf4jnsgd1na2vs0mg"},{"bike_id":"d4ab90f0-97f6-4046-8e63-e9c46ed6b688","system_id":"levelo_inurba_marseille","lat":43.3414,"lon":5.40906,"is_reserved":false,"is_disabled":false,"rental_uris":{"android":"levelo://app?vid=d4ab90f0-97f6-4046-8e63-e9c46ed6b688","ios":"levelo://app?vid=d4ab90f0-97f6-4046-8e63-e9c46ed6b688"},"vehicle_type_id":"4","last_reported":1738739315,"current_range_meters":33600,"station_id":"ce4bhqh2rcd13ifvqhlg","pricing_plan_id":"cebpf4jnsgd1na2vs0mg"},{"bike_id":"30d68ac6-7ba6-4749-8154-bf914e372a6a","system_id":"levelo_inurba_marseille","lat":43.32361,"lon":5.38884,"is_reserved":false,"is_disabled":false,"rental_uris":{"android":"levelo://app?vid=30d68ac6-7ba6-4749-8154-bf914e372a6a","ios":"levelo://app?vid=30d68ac6-7ba6-4749-8154-bf914e372a6a"},"vehicle_type_id":"4","last_reported":1738739315,"current_range_meters":35200,"station_id":"ce4bhqp2rcd13ifvqhog","pricing_plan_id":"cebpf4jnsgd1na2vs0mg"},{"bike_id":"25291f48-3ef4-4a16-a90d-672c3bbe8a32","system_id":"levelo_inurba_marseille","lat":43.280968,"lon":5.378321,"is_reserved":false,"is_disabled":true,"rental_uris":{"android":"levelo://app?vid=25291f48-3ef4-4a16-a90d-672c3bbe8a32","ios":"levelo://app?vid=25291f48-3ef4-4a16-a90d-672c3bbe8a32"},"vehicle_type_id":"4","last_reported":1738739315,"current_range_meters":400,"station_id":"ce4bha12rcd13ifvqee0","pricing_plan_id":"cebpf4jnsgd1na2vs0mg"},{"bike_id":"312e32c3-6324-498b-b53b-8d30f4b3f2b5","system_id":"levelo_inurba_marseille","lat":43.30898,"lon":5.40218,"is_reserved":false,"is_disabled":false,"rental_uris":{"android":"levelo://app?vid=312e32c3-6324-498b-b53b-8d30f4b3f2b5","ios":"levelo://app?vid=312e32c3-6324-498b-b53b-8d30f4b3f2b5"},"vehicle_type_id":"4","last_reported":1738739315,"current_range_meters":37600,"station_id":"","pricing_plan_id":"cebpf4jnsgd1na2vs0mg"},{"bike_id":"d7612fe3-c24f-460a-978f-01663b32ea49","system_id":"levelo_inurba_marseille","lat":43.3053,"lon":5.367,"is_reserved":false,"is_disabled":false,"rental_uris":{"android":"levelo://app?vid=d7612fe3-c24f-460a-978f-01663b32ea49","ios":"levelo://app?vid=d7612fe3-c24f-460a-978f-01663b32ea49"},"vehicle_type_id":"4","last_reported":1738739315,"current_range_meters":38800,"station_id":"ce4bgrp2rcd13ifvqc9g","pricing_plan_id":"cebpf4jnsgd1na2vs0mg"},{"bike_id":"5012ce34-cb64-4d41-8f9c-62d48daa0237","system_id":"levelo_inurba_marseille","lat":43.27982,"lon":5.40029,"is_reserved":false,"is_disabled":false,"rental_uris":{"android":"levelo://app?vid=5012ce34-cb64-4d41-8f9c-62d48daa0237","ios":"levelo://app?vid=5012ce34-cb64-4d41-8f9c-62d48daa0237"},"vehicle_type_id":"4","last_reported":1738739315,"current_range_meters":15200,"station_id":"ce4bho92rcd13ifvqh4g","pricing_plan_id":"cebpf4jnsgd1na2vs0mg"},{"bike_id":"70fbd080-ab33-4da0-bbe4-7f2c4038fdd5","system_id":"levelo_inurba_marseille","lat":43.29597,"lon":5.38095,"is_reserved":false,"is_disabled":false,"rental_uris":{"android":"levelo://app?vid=70fbd080-ab33-4da0-bbe4-7f2c4038fdd5","ios":"levelo://app?vid=70fbd080-ab33-4da0-bbe4-7f2c4038fdd5"},"vehicle_type_id":"4","last_reported":1738739315,"current_range_meters":7200,"station_id":"ce4bgl12rcd13ifvqbo0","pricing_plan_id":"cebpf4jnsgd1na2vs0mg"},{"bike_id":"2790d2d3-7d97-472f-8b77-7a1cf84612bd","system_id":"levelo_inurba_marseille","lat":43.27492,"lon":5.42456,"is_reserved":false,"is_disabled":false,"rental_uris":{"android":"levelo://app?vid=2790d2d3-7d97-472f-8b77-7a1cf84612bd","ios":"levelo://app?vid=2790d2d3-7d97-472f-8b77-7a1cf84612bd"},"vehicle_type_id":"4","last_reported":1738739315,"current_range_meters":27200,"station_id":"ce4bhn92rcd13ifvqgrg","pricing_plan_id":"cebpf4jnsgd1na2vs0mg"},{"bike_id":"ca88369d-345d-48dc-ab5a-0852603169d5","system_id":"levelo_inurba_marseille","lat":43.28348,"lon":5.38093,"is_reserved":false,"is_disabled":false,"rental_uris":{"android":"levelo://app?vid=ca88369d-345d-48dc-ab5a-0852603169d5","ios":"levelo://app?vid=ca88369d-345d-48dc-ab5a-0852603169d5"},"vehicle_type_id":"4","last_reported":1738739315,"current_range_meters":24800,"station_id":"ce4bh412rcd13ifvqdr0","pricing_plan_id":"cebpf4jnsgd1na2vs0mg"},{"bike_id":"6712f04b-f35d-4e3a-a70d-c89aec85d9b2","system_id":"levelo_inurba_marseille","lat":43.22924,"lon":5.35399,"is_reserved":false,"is_disabled":false,"rental_uris":{"android":"levelo://app?vid=6712f04b-f35d-4e3a-a70d-c89aec85d9b2","ios":"levelo://app?vid=6712f04b-f35d-4e3a-a70d-c89aec85d9b2"},"vehicle_type_id":"4","last_reported":1738739315,"current_range_meters":38800,"station_id":"cpo3532slgdg3j2ikp40","pricing_plan_id":"cebpf4jnsgd1na2vs0mg"},{"bike_id":"5044aa60-48d5-4442-a7ee-5bef833d2152","system_id":"levelo_inurba_marseille","lat":43.27919,"lon":5.39575,"is_reserved":false,"is_disabled":false,"rental_uris":{"android":"levelo://app?vid=5044aa60-48d5-4442-a7ee-5bef833d2152","ios":"levelo://app?vid=5044aa60-48d5-4442-a7ee-5bef833d2152"},"vehicle_type_id":"4","last_reported":1738739315,"current_range_meters":32000,"station_id":"ce4bhf92rcd13ifvqf40","pricing_plan_id":"cebpf4jnsgd1na2vs0mg"},{"bike_id":"7fd957a0-f606-42e8-84a1-dd7a787460a7","system_id":"levelo_inurba_marseille","lat":43.34147,"lon":5.40914,"is_reserved":false,"is_disabled":false,"rental_uris":{"android":"levelo://app?vid=7fd957a0-f606-42e8-84a1-dd7a787460a7","ios":"levelo://app?vid=7fd957a0-f606-42e8-84a1-dd7a787460a7"},"vehicle_type_id":"4","last_reported":1738739315,"current_range_meters":30800,"station_id":"ce4bhqh2rcd13ifvqhlg","pricing_plan_id":"cebpf4jnsgd1na2vs0mg"},{"bike_id":"8f51f7b4-db37-49a2-ac98-4da47d8beaee","system_id":"levelo_inurba_marseille","lat":43.28031,"lon":5.36978,"is_reserved":false,"is_disabled":false,"rental_uris":{"android":"levelo://app?vid=8f51f7b4-db37-49a2-ac98-4da47d8beaee","ios":"levelo://app?vid=8f51f7b4-db37-49a2-ac98-4da47d8beaee"},"vehicle_type_id":"4","last_reported":1738739315,"current_range_meters":38400,"station_id":"ce4bha12rcd13ifvqef0","pricing_plan_id":"cebpf4jnsgd1na2vs0mg"},{"bike_id":"326654a7-edf6-4ca5-96ff-623d3b2484a0","system_id":"levelo_inurba_marseille","lat":43.30158,"lon":5.38125,"is_reserved":false,"is_disabled":false,"rental_uris":{"android":"levelo://app?vid=326654a7-edf6-4ca5-96ff-623d3b2484a0","ios":"levelo://app?vid=326654a7-edf6-4ca5-96ff-623d3b2484a0"},"vehicle_type_id":"4","last_reported":1738739315,"current_range_meters":16000,"station_id":"ce4bgjp2rcd13ifvqbh0","pricing_plan_id":"cebpf4jnsgd1na2vs0mg"},{"bike_id":"1d735f75-9435-41e6-9a3b-d86be257f270","system_id":"levelo_inurba_marseille","lat":43.29038,"lon":5.39959,"is_reserved":false,"is_disabled":false,"rental_uris":{"android":"levelo://app?vid=1d735f75-9435-41e6-9a3b-d86be257f270","ios":"levelo://app?vid=1d735f75-9435-41e6-9a3b-d86be257f270"},"vehicle_type_id":"4","last_reported":1738739315,"current_range_meters":38400,"station_id":"ce4bh392rcd13ifvqdm0","pricing_plan_id":"cebpf4jnsgd1na2vs0mg"},{"bike_id":"8c7e28a2-c094-43eb-94b7-1afdc1f385b9","system_id":"levelo_inurba_marseille","lat":43.305468,"lon":5.366946,"is_reserved":false,"is_disabled":false,"rental_uris":{"android":"levelo://app?vid=8c7e28a2-c094-43eb-94b7-1afdc1f385b9","ios":"levelo://app?vid=8c7e28a2-c094-43eb-94b7-1afdc1f385b9"},"vehicle_type_id":"4","last_reported":1738739315,"current_range_meters":34000,"station_id":"ce4bgrp2rcd13ifvqc9g","pricing_plan_id":"cebpf4jnsgd1na2vs0mg"},{"bike_id":"4f711729-11db-4481-a558-983b7b381ab1","system_id":"levelo_inurba_marseille","lat":43.33611,"lon":5.40989,"is_reserved":false,"is_disabled":false,"rental_uris":{"android":"levelo://app?vid=4f711729-11db-4481-a558-983b7b381ab1","ios":"levelo://app?vid=4f711729-11db-4481-a558-983b7b381ab1"},"vehicle_type_id":"4","last_reported":1738739315,"current_range_meters":31200,"station_id":"ce4bhqh2rcd13ifvqhmg","pricing_plan_id":"cebpf4jnsgd1na2vs0mg"},{"bike_id":"afbd3e10-bf6b-4e82-9905-5ed611a6f962","system_id":"levelo_inurba_marseille","lat":43.28408,"lon":5.37521,"is_reserved":false,"is_disabled":false,"rental_uris":{"android":"levelo://app?vid=afbd3e10-bf6b-4e82-9905-5ed611a6f962","ios":"levelo://app?vid=afbd3e10-bf6b-4e82-9905-5ed611a6f962"},"vehicle_type_id":"4","last_reported":1738739315,"current_range_meters":36400,"station_id":"ce4bh412rcd13ifvqds0","pricing_plan_id":"cebpf4jnsgd1na2vs0mg"},{"bike_id":"98521eb1-f73d-4347-9677-19f981e82934","system_id":"levelo_inurba_marseille","lat":43.29803,"lon":5.38094,"is_reserved":false,"is_disabled":false,"rental_uris":{"android":"levelo://app?vid=98521eb1-f73d-4347-9677-19f981e82934","ios":"levelo://app?vid=98521eb1-f73d-4347-9677-19f981e82934"},"vehicle_type_id":"4","last_reported":1738739315,"current_range_meters":36800,"station_id":"ce4bgip2rcd13ifvqbb0","pricing_plan_id":"cebpf4jnsgd1na2vs0mg"},{"bike_id":"a4feb191-8532-43e6-9e74-6ad8af8a54c9","system_id":"levelo_inurba_marseille","lat":43.27493,"lon":5.42451,"is_reserved":false,"is_disabled":false,"rental_uris":{"android":"levelo://app?vid=a4feb191-8532-43e6-9e74-6ad8af8a54c9","ios":"levelo://app?vid=a4feb191-8532-43e6-9e74-6ad8af8a54c9"},"vehicle_type_id":"4","last_reported":1738739315,"current_range_meters":24400,"station_id":"ce4bhn92rcd13ifvqgrg","pricing_plan_id":"cebpf4jnsgd1na2vs0mg"},{"bike_id":"1a3714ed-2f47-45be-8a12-f8dffc386763","system_id":"levelo_inurba_marseille","lat":43.25563,"lon":5.38238,"is_reserved":false,"is_disabled":false,"rental_uris":{"android":"levelo://app?vid=1a3714ed-2f47-45be-8a12-f8dffc386763","ios":"levelo://app?vid=1a3714ed-2f47-45be-8a12-f8dffc386763"},"vehicle_type_id":"4","last_reported":1738739315,"current_range_meters":26800,"station_id":"ce4bhih2rcd13ifvqfs0","pricing_plan_id":"cebpf4jnsgd1na2vs0mg"},{"bike_id":"278902b4-7b50-4f46-8ac1-6d0f29cc8638","system_id":"levelo_inurba_marseille","lat":43.24393,"lon":5.37042,"is_reserved":false,"is_disabled":false,"rental_uris":{"android":"levelo://app?vid=278902b4-7b50-4f46-8ac1-6d0f29cc8638","ios":"levelo://app?vid=278902b4-7b50-4f46-8ac1-6d0f29cc8638"},"vehicle_type_id":"4","last_reported":1738739315,"current_range_meters":38800,"station_id":"ce4bhhh2rcd13ifvqfk0","pricing_plan_id":"cebpf4jnsgd1na2vs0mg"},{"bike_id":"d6b0cf54-fa2e-4bc8-963e-74d7f8faf1fe","system_id":"levelo_inurba_marseille","lat":43.24652,"lon":5.38156,"is_reserved":false,"is_disabled":false,"rental_uris":{"android":"levelo://app?vid=d6b0cf54-fa2e-4bc8-963e-74d7f8faf1fe","ios":"levelo://app?vid=d6b0cf54-fa2e-4bc8-963e-74d7f8faf1fe"},"vehicle_type_id":"4","last_reported":1738739315,"current_range_meters":2800,"station_id":"ce4bhih2rcd13ifvqfr0","pricing_plan_id":"cebpf4jnsgd1na2vs0mg"},{"bike_id":"96db26f3-6182-45b1-98ca-6576a1e2e797","system_id":"levelo_inurba_marseille","lat":43.25474,"lon":5.37657,"is_reserved":false,"is_disabled":false,"rental_uris":{"android":"levelo://app?vid=96db26f3-6182-45b1-98ca-6576a1e2e797","ios":"levelo://app?vid=96db26f3-6182-45b1-98ca-6576a1e2e797"},"vehicle_type_id":"4","last_reported":1738739315,"current_range_meters":19200,"station_id":"ce4bhh12rcd13ifvqff0","pricing_plan_id":"cebpf4jnsgd1na2vs0mg"},{"bike_id":"3ab0ceb6-cd89-477f-8038-1be761eb4bda","system_id":"levelo_inurba_marseille","lat":43.29535,"lon":5.37503,"is_reserved":false,"is_disabled":true,"rental_uris":{"android":"levelo://app?vid=3ab0ceb6-cd89-477f-8038-1be761eb4bda","ios":"levelo://app?vid=3ab0ceb6-cd89-477f-8038-1be761eb4bda"},"vehicle_type_id":"4","last_reported":1738739315,"current_range_meters":0,"station_id":"ce4bgkp2rcd13ifvqbmg","pricing_plan_id":"cebpf4jnsgd1na2vs0mg"},{"bike_id":"2b34222e-65d7-4275-82a3-4ec28c002700","system_id":"levelo_inurba_marseille","lat":43.243847,"lon":5.370559,"is_reserved":false,"is_disabled":false,"rental_uris":{"android":"levelo://app?vid=2b34222e-65d7-4275-82a3-4ec28c002700","ios":"levelo://app?vid=2b34222e-65d7-4275-82a3-4ec28c002700"},"vehicle_type_id":"4","last_reported":1738739315,"current_range_meters":28800,"station_id":"ce4bhhh2rcd13ifvqfk0","pricing_plan_id":"cebpf4jnsgd1na2vs0mg"},{"bike_id":"b2d6864b-5060-48af-bc3e-cc82b3d1573e","system_id":"levelo_inurba_marseille","lat":43.257283,"lon":5.411044,"is_reserved":false,"is_disabled":false,"rental_uris":{"android":"levelo://app?vid=b2d6864b-5060-48af-bc3e-cc82b3d1573e","ios":"levelo://app?vid=b2d6864b-5060-48af-bc3e-cc82b3d1573e"},"vehicle_type_id":"4","last_reported":1738739315,"current_range_meters":18000,"station_id":"ce4bhkp2rcd13ifvqgd0","pricing_plan_id":"cebpf4jnsgd1na2vs0mg"},{"bike_id":"c85a26e1-f53e-4ec1-b1ea-8b32d23f1f4d","system_id":"levelo_inurba_marseille","lat":43.23057,"lon":5.3551,"is_reserved":false,"is_disabled":false,"rental_uris":{"android":"levelo://app?vid=c85a26e1-f53e-4ec1-b1ea-8b32d23f1f4d","ios":"levelo://app?vid=c85a26e1-f53e-4ec1-b1ea-8b32d23f1f4d"},"vehicle_type_id":"4","last_reported":1738739315,"current_range_meters":23200,"station_id":"cpo3342slgdg3j2ifvpg","pricing_plan_id":"cebpf4jnsgd1na2vs0mg"},{"bike_id":"512a3a23-b079-4568-bc04-d9235c65b5d3","system_id":"levelo_inurba_marseille","lat":43.23963,"lon":5.3663,"is_reserved":false,"is_disabled":false,"rental_uris":{"android":"levelo://app?vid=512a3a23-b079-4568-bc04-d9235c65b5d3","ios":"levelo://app?vid=512a3a23-b079-4568-bc04-d9235c65b5d3"},"vehicle_type_id":"4","last_reported":1738739315,"current_range_meters":14000,"station_id":"ce4bhi12rcd13ifvqfp0","pricing_plan_id":"cebpf4jnsgd1na2vs0mg"},{"bike_id":"99e78fb5-56ee-4556-bcf7-53194eeea3c2","system_id":"levelo_inurba_marseille","lat":43.26568,"lon":5.3901,"is_reserved":false,"is_disabled":false,"rental_uris":{"android":"levelo://app?vid=99e78fb5-56ee-4556-bcf7-53194eeea3c2","ios":"levelo://app?vid=99e78fb5-56ee-4556-bcf7-53194eeea3c2"},"vehicle_type_id":"4","last_reported":1738739315,"current_range_meters":3600,"station_id":"ce4bhe12rcd13ifvqf30","pricing_plan_id":"cebpf4jnsgd1na2vs0mg"},{"bike_id":"9fbf5135-937c-4ad1-bfe5-7b9a4518456d","system_id":"levelo_inurba_marseille","lat":43.28606,"lon":5.37064,"is_reserved":false,"is_disabled":false,"rental_uris":{"android":"levelo://app?vid=9fbf5135-937c-4ad1-bfe5-7b9a4518456d","ios":"levelo://app?vid=9fbf5135-937c-4ad1-bfe5-7b9a4518456d"},"vehicle_type_id":"4","last_reported":1738739315,"current_range_meters":30800,"station_id":"ce4bht12rcd13ifvqi60","pricing_plan_id":"cebpf4jnsgd1na2vs0mg"},{"bike_id":"5b7376af-b3c2-4a99-9809-a8a9ac47b249","system_id":"levelo_inurba_marseille","lat":43.29373,"lon":5.37849,"is_reserved":false,"is_disabled":false,"rental_uris":{"android":"levelo://app?vid=5b7376af-b3c2-4a99-9809-a8a9ac47b249","ios":"levelo://app?vid=5b7376af-b3c2-4a99-9809-a8a9ac47b249"},"vehicle_type_id":"4","last_reported":1738739315,"current_range_meters":39200,"station_id":"ce4bgjh2rcd13ifvqbf0","pricing_plan_id":"cebpf4jnsgd1na2vs0mg"},{"bike_id":"c11b7b30-e92b-44c5-9523-5e4c86fb9eb1","system_id":"levelo_inurba_marseille","lat":43.29501,"lon":5.39422,"is_reserved":false,"is_disabled":false,"rental_uris":{"android":"levelo://app?vid=c11b7b30-e92b-44c5-9523-5e4c86fb9eb1","ios":"levelo://app?vid=c11b7b30-e92b-44c5-9523-5e4c86fb9eb1"},"vehicle_type_id":"4","last_reported":1738739315,"current_range_meters":18800,"station_id":"ce4bh292rcd13ifvqdf0","pricing_plan_id":"cebpf4jnsgd1na2vs0mg"},{"bike_id":"a601793f-2b5e-4f15-b76e-8c54ae0448f5","system_id":"levelo_inurba_marseille","lat":43.2898,"lon":5.37833,"is_reserved":false,"is_disabled":false,"rental_uris":{"android":"levelo://app?vid=a601793f-2b5e-4f15-b76e-8c54ae0448f5","ios":"levelo://app?vid=a601793f-2b5e-4f15-b76e-8c54ae0448f5"},"vehicle_type_id":"4","last_reported":1738739315,"current_range_meters":35200,"station_id":"ce4bh9p2rcd13ifvqed0","pricing_plan_id":"cebpf4jnsgd1na2vs0mg"},{"bike_id":"f254a14f-886a-417a-a90d-82e98d31b2a0","system_id":"levelo_inurba_marseille","lat":43.29037,"lon":5.37578,"is_reserved":false,"is_disabled":false,"rental_uris":{"android":"levelo://app?vid=f254a14f-886a-417a-a90d-82e98d31b2a0","ios":"levelo://app?vid=f254a14f-886a-417a-a90d-82e98d31b2a0"},"vehicle_type_id":"4","last_reported":1738739315,"current_range_meters":38800,"station_id":"ce4bh692rcd13ifvqe90","pricing_plan_id":"cebpf4jnsgd1na2vs0mg"},{"bike_id":"c644fe7c-e90b-45f3-8ac2-8bc5eae3a4cf","system_id":"levelo_inurba_marseille","lat":43.30476,"lon":5.379,"is_reserved":false,"is_disabled":false,"rental_uris":{"android":"levelo://app?vid=c644fe7c-e90b-45f3-8ac2-8bc5eae3a4cf","ios":"levelo://app?vid=c644fe7c-e90b-45f3-8ac2-8bc5eae3a4cf"},"vehicle_type_id":"4","last_reported":1738739315,"current_range_meters":37600,"station_id":"ce4bgup2rcd13ifvqcn0","pricing_plan_id":"cebpf4jnsgd1na2vs0mg"},{"bike_id":"37bd6623-0abc-4998-96a7-633a78ea1348","system_id":"levelo_inurba_marseille","lat":43.24072,"lon":5.37765,"is_reserved":false,"is_disabled":false,"rental_uris":{"android":"levelo://app?vid=37bd6623-0abc-4998-96a7-633a78ea1348","ios":"levelo://app?vid=37bd6623-0abc-4998-96a7-633a78ea1348"},"vehicle_type_id":"4","last_reported":1738739315,"current_range_meters":22000,"station_id":"ce4bhnp2rcd13ifvqgvg","pricing_plan_id":"cebpf4jnsgd1na2vs0mg"},{"bike_id":"b9130098-0a44-4ecd-bbd3-507b85cd499a","system_id":"levelo_inurba_marseille","lat":43.29573,"lon":5.39979,"is_reserved":false,"is_disabled":false,"rental_uris":{"android":"levelo://app?vid=b9130098-0a44-4ecd-bbd3-507b85cd499a","ios":"levelo://app?vid=b9130098-0a44-4ecd-bbd3-507b85cd499a"},"vehicle_type_id":"4","last_reported":1738739315,"current_range_meters":30800,"station_id":"ce4bh312rcd13ifvqdj0","pricing_plan_id":"cebpf4jnsgd1na2vs0mg"},{"bike_id":"29d4b30d-8252-49fa-ae41-d718518d9d51","system_id":"levelo_inurba_marseille","lat":43.30595,"lon":5.39352,"is_reserved":false,"is_disabled":false,"rental_uris":{"android":"levelo://app?vid=29d4b30d-8252-49fa-ae41-d718518d9d51","ios":"levelo://app?vid=29d4b30d-8252-49fa-ae41-d718518d9d51"},"vehicle_type_id":"4","last_reported":1738739315,"current_range_meters":12800,"station_id":"ce4bh0p2rcd13ifvqd80","pricing_plan_id":"cebpf4jnsgd1na2vs0mg"},{"bike_id":"fad1c00d-4059-45de-a64c-5e70bc98c930","system_id":"levelo_inurba_marseille","lat":43.31686,"lon":5.40475,"is_reserved":false,"is_disabled":false,"rental_uris":{"android":"levelo://app?vid=fad1c00d-4059-45de-a64c-5e70bc98c930","ios":"levelo://app?vid=fad1c00d-4059-45de-a64c-5e70bc98c930"},"vehicle_type_id":"4","last_reported":1738739315,"current_range_meters":38800,"station_id":"ce4bh012rcd13ifvqd00","pricing_plan_id":"cebpf4jnsgd1na2vs0mg"},{"bike_id":"2e1fd84a-93c0-4e60-908d-3675bdd34c0e","system_id":"levelo_inurba_marseille","lat":43.22918,"lon":5.35396,"is_reserved":false,"is_disabled":false,"rental_uris":{"android":"levelo://app?vid=2e1fd84a-93c0-4e60-908d-3675bdd34c0e","ios":"levelo://app?vid=2e1fd84a-93c0-4e60-908d-3675bdd34c0e"},"vehicle_type_id":"4","last_reported":1738739315,"current_range_meters":6000,"station_id":"cpo3532slgdg3j2ikp40","pricing_plan_id":"cebpf4jnsgd1na2vs0mg"},{"bike_id":"5aed099a-cab6-44fb-88f0-25d6c0c09d8c","system_id":"levelo_inurba_marseille","lat":43.3049,"lon":5.37909,"is_reserved":false,"is_disabled":false,"rental_uris":{"android":"levelo://app?vid=5aed099a-cab6-44fb-88f0-25d6c0c09d8c","ios":"levelo://app?vid=5aed099a-cab6-44fb-88f0-25d6c0c09d8c"},"vehicle_type_id":"4","last_reported":1738739315,"current_range_meters":10800,"station_id":"ce4bgup2rcd13ifvqcn0","pricing_plan_id":"cebpf4jnsgd1na2vs0mg"},{"bike_id":"962646f7-90d3-45dd-b3f9-254502912c1d","system_id":"levelo_inurba_marseille","lat":43.293,"lon":5.37468,"is_reserved":false,"is_disabled":false,"rental_uris":{"android":"levelo://app?vid=962646f7-90d3-45dd-b3f9-254502912c1d","ios":"levelo://app?vid=962646f7-90d3-45dd-b3f9-254502912c1d"},"vehicle_type_id":"4","last_reported":1738739315,"current_range_meters":36800,"station_id":"ce4bgi12rcd13ifvqb70","pricing_plan_id":"cebpf4jnsgd1na2vs0mg"},{"bike_id":"19dd9c2e-cef0-4d2b-a66c-51d7760c52c3","system_id":"levelo_inurba_marseille","lat":43.30537,"lon":5.36562,"is_reserved":false,"is_disabled":false,"rental_uris":{"android":"levelo://app?vid=19dd9c2e-cef0-4d2b-a66c-51d7760c52c3","ios":"levelo://app?vid=19dd9c2e-cef0-4d2b-a66c-51d7760c52c3"},"vehicle_type_id":"4","last_reported":1738739315,"current_range_meters":34800,"station_id":"ce4bgs12rcd13ifvqcag","pricing_plan_id":"cebpf4jnsgd1na2vs0mg"},{"bike_id":"072b5b45-f8f2-4dea-a3f6-e012a73b5f25","system_id":"levelo_inurba_marseille","lat":43.27944,"lon":5.4105,"is_reserved":false,"is_disabled":false,"rental_uris":{"android":"levelo://app?vid=072b5b45-f8f2-4dea-a3f6-e012a73b5f25","ios":"levelo://app?vid=072b5b45-f8f2-4dea-a3f6-e012a73b5f25"},"vehicle_type_id":"4","last_reported":1738739315,"current_range_meters":27600,"station_id":"ce4bhnp2rcd13ifvqh0g","pricing_plan_id":"cebpf4jnsgd1na2vs0mg"},{"bike_id":"5721e463-de28-40c9-bfc7-a32a5872b1cd","system_id":"levelo_inurba_marseille","lat":43.26782,"lon":5.39424,"is_reserved":false,"is_disabled":false,"rental_uris":{"android":"levelo://app?vid=5721e463-de28-40c9-bfc7-a32a5872b1cd","ios":"levelo://app?vid=5721e463-de28-40c9-bfc7-a32a5872b1cd"},"vehicle_type_id":"4","last_reported":1738739315,"current_range_meters":19600,"station_id":"ce4bhh12rcd13ifvqfg0","pricing_plan_id":"cebpf4jnsgd1na2vs0mg"},{"bike_id":"95936406-09f0-40b4-b772-e6fc8a0ec3aa","system_id":"levelo_inurba_marseille","lat":43.27485,"lon":5.42461,"is_reserved":false,"is_disabled":false,"rental_uris":{"android":"levelo://app?vid=95936406-09f0-40b4-b772-e6fc8a0ec3aa","ios":"levelo://app?vid=95936406-09f0-40b4-b772-e6fc8a0ec3aa"},"vehicle_type_id":"4","last_reported":1738739315,"current_range_meters":34800,"station_id":"ce4bhn92rcd13ifvqgrg","pricing_plan_id":"cebpf4jnsgd1na2vs0mg"},{"bike_id":"9116974e-a7a9-4a65-9b0b-55d40e949133","system_id":"levelo_inurba_marseille","lat":43.30135,"lon":5.39871,"is_reserved":false,"is_disabled":false,"rental_uris":{"android":"levelo://app?vid=9116974e-a7a9-4a65-9b0b-55d40e949133","ios":"levelo://app?vid=9116974e-a7a9-4a65-9b0b-55d40e949133"},"vehicle_type_id":"4","last_reported":1738739315,"current_range_meters":38800,"station_id":"ce4bh0h2rcd13ifvqd40","pricing_plan_id":"cebpf4jnsgd1na2vs0mg"},{"bike_id":"a4d825ed-77dc-4f71-aed9-4271810a5bc2","system_id":"levelo_inurba_marseille","lat":43.31319,"lon":5.3864,"is_reserved":false,"is_disabled":false,"rental_uris":{"android":"levelo://app?vid=a4d825ed-77dc-4f71-aed9-4271810a5bc2","ios":"levelo://app?vid=a4d825ed-77dc-4f71-aed9-4271810a5bc2"},"vehicle_type_id":"4","last_reported":1738739315,"current_range_meters":30000,"station_id":"","pricing_plan_id":"cebpf4jnsgd1na2vs0mg"},{"bike_id":"38d5197c-53e9-4ed5-8c6c-9f20d291f067","system_id":"levelo_inurba_marseille","lat":43.288417,"lon":5.358717,"is_reserved":false,"is_disabled":false,"rental_uris":{"android":"levelo://app?vid=38d5197c-53e9-4ed5-8c6c-9f20d291f067","ios":"levelo://app?vid=38d5197c-53e9-4ed5-8c6c-9f20d291f067"},"vehicle_type_id":"4","last_reported":1738739315,"current_range_meters":36800,"station_id":"ce4bhb12rcd13ifvqem0","pricing_plan_id":"cebpf4jnsgd1na2vs0mg"},{"bike_id":"7390c2ab-c7eb-4529-8bf2-4ceb900ed2ac","system_id":"levelo_inurba_marseille","lat":43.27977,"lon":5.38743,"is_reserved":false,"is_disabled":false,"rental_uris":{"android":"levelo://app?vid=7390c2ab-c7eb-4529-8bf2-4ceb900ed2ac","ios":"levelo://app?vid=7390c2ab-c7eb-4529-8bf2-4ceb900ed2ac"},"vehicle_type_id":"4","last_reported":1738739315,"current_range_meters":36000,"station_id":"ce4bhg12rcd13ifvqf80","pricing_plan_id":"cebpf4jnsgd1na2vs0mg"},{"bike_id":"3af62529-6ae7-4088-8f5d-1520c0b4b7f8","system_id":"levelo_inurba_marseille","lat":43.29035,"lon":5.39965,"is_reserved":false,"is_disabled":false,"rental_uris":{"android":"levelo://app?vid=3af62529-6ae7-4088-8f5d-1520c0b4b7f8","ios":"levelo://app?vid=3af62529-6ae7-4088-8f5d-1520c0b4b7f8"},"vehicle_type_id":"4","last_reported":1738739315,"current_range_meters":38400,"station_id":"ce4bh392rcd13ifvqdm0","pricing_plan_id":"cebpf4jnsgd1na2vs0mg"},{"bike_id":"1eda83aa-7482-480d-a0de-80b4ca4ae12b","system_id":"levelo_inurba_marseille","lat":43.3053,"lon":5.36711,"is_reserved":false,"is_disabled":false,"rental_uris":{"android":"levelo://app?vid=1eda83aa-7482-480d-a0de-80b4ca4ae12b","ios":"levelo://app?vid=1eda83aa-7482-480d-a0de-80b4ca4ae12b"},"vehicle_type_id":"4","last_reported":1738739315,"current_range_meters":30800,"station_id":"ce4bgrp2rcd13ifvqc9g","pricing_plan_id":"cebpf4jnsgd1na2vs0mg"},{"bike_id":"88f6ec14-1047-428a-bfc8-ed7564b679d3","system_id":"levelo_inurba_marseille","lat":43.24393,"lon":5.37061,"is_reserved":false,"is_disabled":false,"rental_uris":{"android":"levelo://app?vid=88f6ec14-1047-428a-bfc8-ed7564b679d3","ios":"levelo://app?vid=88f6ec14-1047-428a-bfc8-ed7564b679d3"},"vehicle_type_id":"4","last_reported":1738739315,"current_range_meters":37600,"station_id":"ce4bhhh2rcd13ifvqfk0","pricing_plan_id":"cebpf4jnsgd1na2vs0mg"},{"bike_id":"147f437d-7b8c-425d-a0f3-70832c2cd538","system_id":"levelo_inurba_marseille","lat":43.28944,"lon":5.36411,"is_reserved":false,"is_disabled":false,"rental_uris":{"android":"levelo://app?vid=147f437d-7b8c-425d-a0f3-70832c2cd538","ios":"levelo://app?vid=147f437d-7b8c-425d-a0f3-70832c2cd538"},"vehicle_type_id":"4","last_reported":1738739315,"current_range_meters":36800,"station_id":"ce4bhc92rcd13ifvqetg","pricing_plan_id":"cebpf4jnsgd1na2vs0mg"},{"bike_id":"3eb089a4-83c3-4e94-92de-84f6b7286420","system_id":"levelo_inurba_marseille","lat":43.28157,"lon":5.42656,"is_reserved":false,"is_disabled":false,"rental_uris":{"android":"levelo://app?vid=3eb089a4-83c3-4e94-92de-84f6b7286420","ios":"levelo://app?vid=3eb089a4-83c3-4e94-92de-84f6b7286420"},"vehicle_type_id":"4","last_reported":1738739315,"current_range_meters":10800,"station_id":"ce4bhnh2rcd13ifvqgug","pricing_plan_id":"cebpf4jnsgd1na2vs0mg"},{"bike_id":"3d554245-3f89-4df3-9e21-aeb1df3f6e2c","system_id":"levelo_inurba_marseille","lat":43.29509,"lon":5.42334,"is_reserved":false,"is_disabled":false,"rental_uris":{"android":"levelo://app?vid=3d554245-3f89-4df3-9e21-aeb1df3f6e2c","ios":"levelo://app?vid=3d554245-3f89-4df3-9e21-aeb1df3f6e2c"},"vehicle_type_id":"4","last_reported":1738739315,"current_range_meters":27600,"station_id":"ce4bhph2rcd13ifvqhdg","pricing_plan_id":"cebpf4jnsgd1na2vs0mg"},{"bike_id":"a13fcc7d-b39d-449d-923a-9303756f2dbd","system_id":"levelo_inurba_marseille","lat":43.30601,"lon":5.3725,"is_reserved":false,"is_disabled":false,"rental_uris":{"android":"levelo://app?vid=a13fcc7d-b39d-449d-923a-9303756f2dbd","ios":"levelo://app?vid=a13fcc7d-b39d-449d-923a-9303756f2dbd"},"vehicle_type_id":"4","last_reported":1738739315,"current_range_meters":36800,"station_id":"ce4bgqh2rcd13ifvqc4g","pricing_plan_id":"cebpf4jnsgd1na2vs0mg"},{"bike_id":"2b05073d-60e5-43e5-b13c-86d3deb4df57","system_id":"levelo_inurba_marseille","lat":43.32529,"lon":5.41461,"is_reserved":false,"is_disabled":false,"rental_uris":{"android":"levelo://app?vid=2b05073d-60e5-43e5-b13c-86d3deb4df57","ios":"levelo://app?vid=2b05073d-60e5-43e5-b13c-86d3deb4df57"},"vehicle_type_id":"4","last_reported":1738739315,"current_range_meters":38800,"station_id":"ce4bhq12rcd13ifvqhhg","pricing_plan_id":"cebpf4jnsgd1na2vs0mg"},{"bike_id":"7d5a071b-33d0-4a99-a7a2-905e423e155c","system_id":"levelo_inurba_marseille","lat":43.23962,"lon":5.36631,"is_reserved":false,"is_disabled":false,"rental_uris":{"android":"levelo://app?vid=7d5a071b-33d0-4a99-a7a2-905e423e155c","ios":"levelo://app?vid=7d5a071b-33d0-4a99-a7a2-905e423e155c"},"vehicle_type_id":"4","last_reported":1738739315,"current_range_meters":36800,"station_id":"ce4bhi12rcd13ifvqfp0","pricing_plan_id":"cebpf4jnsgd1na2vs0mg"},{"bike_id":"e49c0636-9950-4d18-844c-51d42aa48a7c","system_id":"levelo_inurba_marseille","lat":43.24081,"lon":5.37755,"is_reserved":false,"is_disabled":false,"rental_uris":{"android":"levelo://app?vid=e49c0636-9950-4d18-844c-51d42aa48a7c","ios":"levelo://app?vid=e49c0636-9950-4d18-844c-51d42aa48a7c"},"vehicle_type_id":"4","last_reported":1738739315,"current_range_meters":30000,"station_id":"ce4bhnp2rcd13ifvqgvg","pricing_plan_id":"cebpf4jnsgd1na2vs0mg"},{"bike_id":"3894dca2-273b-40ed-8be2-d6f8dae96388","system_id":"levelo_inurba_marseille","lat":43.286175,"lon":5.351067,"is_reserved":false,"is_disabled":false,"rental_uris":{"android":"levelo://app?vid=3894dca2-273b-40ed-8be2-d6f8dae96388","ios":"levelo://app?vid=3894dca2-273b-40ed-8be2-d6f8dae96388"},"vehicle_type_id":"4","last_reported":1738739315,"current_range_meters":36800,"station_id":"ce4bhch2rcd13ifvqeug","pricing_plan_id":"cebpf4jnsgd1na2vs0mg"},{"bike_id":"03215b30-aa65-4b10-b451-ed50967ec88e","system_id":"levelo_inurba_marseille","lat":43.34418,"lon":5.35975,"is_reserved":false,"is_disabled":true,"rental_uris":{"android":"levelo://app?vid=03215b30-aa65-4b10-b451-ed50967ec88e","ios":"levelo://app?vid=03215b30-aa65-4b10-b451-ed50967ec88e"},"vehicle_type_id":"4","last_reported":1738739315,"current_range_meters":0,"station_id":"","pricing_plan_id":"cebpf4jnsgd1na2vs0mg"},{"bike_id":"61c6debb-35d5-4957-bb21-71614dec663a","system_id":"levelo_inurba_marseille","lat":43.28996,"lon":5.35608,"is_reserved":false,"is_disabled":false,"rental_uris":{"android":"levelo://app?vid=61c6debb-35d5-4957-bb21-71614dec663a","ios":"levelo://app?vid=61c6debb-35d5-4957-bb21-71614dec663a"},"vehicle_type_id":"4","last_reported":1738739315,"current_range_meters":38000,"station_id":"ce4bhb92rcd13ifvqen0","pricing_plan_id":"cebpf4jnsgd1na2vs0mg"},{"bike_id":"931c3b97-cce1-4ebe-a291-6c50a6f2810e","system_id":"levelo_inurba_marseille","lat":43.31786,"lon":5.37422,"is_reserved":false,"is_disabled":false,"rental_uris":{"android":"levelo://app?vid=931c3b97-cce1-4ebe-a291-6c50a6f2810e","ios":"levelo://app?vid=931c3b97-cce1-4ebe-a291-6c50a6f2810e"},"vehicle_type_id":"4","last_reported":1738739315,"current_range_meters":7200,"station_id":"","pricing_plan_id":"cebpf4jnsgd1na2vs0mg"},{"bike_id":"d1d51ec2-e1ab-4b92-9a4b-f935b04ef436","system_id":"levelo_inurba_marseille","lat":43.24999,"lon":5.38922,"is_reserved":false,"is_disabled":false,"rental_uris":{"android":"levelo://app?vid=d1d51ec2-e1ab-4b92-9a4b-f935b04ef436","ios":"levelo://app?vid=d1d51ec2-e1ab-4b92-9a4b-f935b04ef436"},"vehicle_type_id":"4","last_reported":1738739315,"current_range_meters":20400,"station_id":"ce4bhgp2rcd13ifvqfd0","pricing_plan_id":"cebpf4jnsgd1na2vs0mg"},{"bike_id":"102b9f2d-4c9c-4720-8aef-3f4ab487e1a0","system_id":"levelo_inurba_marseille","lat":43.32364,"lon":5.38879,"is_reserved":false,"is_disabled":false,"rental_uris":{"android":"levelo://app?vid=102b9f2d-4c9c-4720-8aef-3f4ab487e1a0","ios":"levelo://app?vid=102b9f2d-4c9c-4720-8aef-3f4ab487e1a0"},"vehicle_type_id":"4","last_reported":1738739315,"current_range_meters":38400,"station_id":"ce4bhqp2rcd13ifvqhog","pricing_plan_id":"cebpf4jnsgd1na2vs0mg"},{"bike_id":"7a2080c9-d44a-471c-9acd-526428e8e5dc","system_id":"levelo_inurba_marseille","lat":43.2292,"lon":5.3539,"is_reserved":false,"is_disabled":false,"rental_uris":{"android":"levelo://app?vid=7a2080c9-d44a-471c-9acd-526428e8e5dc","ios":"levelo://app?vid=7a2080c9-d44a-471c-9acd-526428e8e5dc"},"vehicle_type_id":"4","last_reported":1738739315,"current_range_meters":38800,"station_id":"cpo3532slgdg3j2ikp40","pricing_plan_id":"cebpf4jnsgd1na2vs0mg"},{"bike_id":"6453e36c-ae71-416a-a083-484fce240a0c","system_id":"levelo_inurba_marseille","lat":43.30463,"lon":5.37909,"is_reserved":false,"is_disabled":false,"rental_uris":{"android":"levelo://app?vid=6453e36c-ae71-416a-a083-484fce240a0c","ios":"levelo://app?vid=6453e36c-ae71-416a-a083-484fce240a0c"},"vehicle_type_id":"4","last_reported":1738739315,"current_range_meters":36000,"station_id":"ce4bgup2rcd13ifvqcn0","pricing_plan_id":"cebpf4jnsgd1na2vs0mg"},{"bike_id":"3cffe561-5575-4d5f-9a3c-4ee740a5b122","system_id":"levelo_inurba_marseille","lat":43.279464,"lon":5.410435,"is_reserved":false,"is_disabled":false,"rental_uris":{"android":"levelo://app?vid=3cffe561-5575-4d5f-9a3c-4ee740a5b122","ios":"levelo://app?vid=3cffe561-5575-4d5f-9a3c-4ee740a5b122"},"vehicle_type_id":"4","last_reported":1738739315,"current_range_meters":25200,"station_id":"ce4bhnp2rcd13ifvqh0g","pricing_plan_id":"cebpf4jnsgd1na2vs0mg"},{"bike_id":"d500b762-3915-4dff-a06c-7c96151cfc0d","system_id":"levelo_inurba_marseille","lat":43.32525,"lon":5.41482,"is_reserved":false,"is_disabled":false,"rental_uris":{"android":"levelo://app?vid=d500b762-3915-4dff-a06c-7c96151cfc0d","ios":"levelo://app?vid=d500b762-3915-4dff-a06c-7c96151cfc0d"},"vehicle_type_id":"4","last_reported":1738739315,"current_range_meters":39200,"station_id":"ce4bhq12rcd13ifvqhhg","pricing_plan_id":"cebpf4jnsgd1na2vs0mg"},{"bike_id":"f307dfc9-492f-427c-886b-0aebd0c4a217","system_id":"levelo_inurba_marseille","lat":43.24167,"lon":5.36403,"is_reserved":false,"is_disabled":false,"rental_uris":{"android":"levelo://app?vid=f307dfc9-492f-427c-886b-0aebd0c4a217","ios":"levelo://app?vid=f307dfc9-492f-427c-886b-0aebd0c4a217"},"vehicle_type_id":"4","last_reported":1738739315,"current_range_meters":9600,"station_id":"cpo36qri1sfpv3e86is0","pricing_plan_id":"cebpf4jnsgd1na2vs0mg"},{"bike_id":"b2272a44-41b3-4706-bf06-4d1dc73506e4","system_id":"levelo_inurba_marseille","lat":43.28944,"lon":5.39625,"is_reserved":false,"is_disabled":false,"rental_uris":{"android":"levelo://app?vid=b2272a44-41b3-4706-bf06-4d1dc73506e4","ios":"levelo://app?vid=b2272a44-41b3-4706-bf06-4d1dc73506e4"},"vehicle_type_id":"4","last_reported":1738739315,"current_range_meters":38000,"station_id":"ce4bh3h2rcd13ifvqdn0","pricing_plan_id":"cebpf4jnsgd1na2vs0mg"},{"bike_id":"95803261-46c8-44cf-bcf5-6d42e560429f","system_id":"levelo_inurba_marseille","lat":43.28348,"lon":5.38106,"is_reserved":false,"is_disabled":false,"rental_uris":{"android":"levelo://app?vid=95803261-46c8-44cf-bcf5-6d42e560429f","ios":"levelo://app?vid=95803261-46c8-44cf-bcf5-6d42e560429f"},"vehicle_type_id":"4","last_reported":1738739315,"current_range_meters":17600,"station_id":"ce4bh412rcd13ifvqdr0","pricing_plan_id":"cebpf4jnsgd1na2vs0mg"},{"bike_id":"912bb9c2-043f-4f6a-844b-3b4807b26d0c","system_id":"levelo_inurba_marseille","lat":43.27498,"lon":5.42451,"is_reserved":false,"is_disabled":false,"rental_uris":{"android":"levelo://app?vid=912bb9c2-043f-4f6a-844b-3b4807b26d0c","ios":"levelo://app?vid=912bb9c2-043f-4f6a-844b-3b4807b26d0c"},"vehicle_type_id":"4","last_reported":1738739315,"current_range_meters":38400,"station_id":"ce4bhn92rcd13ifvqgrg","pricing_plan_id":"cebpf4jnsgd1na2vs0mg"},{"bike_id":"6dfe34ee-89dc-4687-a40b-bb003e3c18c6","system_id":"levelo_inurba_marseille","lat":43.28102,"lon":5.37846,"is_reserved":false,"is_disabled":true,"rental_uris":{"android":"levelo://app?vid=6dfe34ee-89dc-4687-a40b-bb003e3c18c6","ios":"levelo://app?vid=6dfe34ee-89dc-4687-a40b-bb003e3c18c6"},"vehicle_type_id":"4","last_reported":1738739315,"current_range_meters":12800,"station_id":"ce4bha12rcd13ifvqee0","pricing_plan_id":"cebpf4jnsgd1na2vs0mg"},{"bike_id":"8e0a0553-d4ce-4a58-bdf9-cddf2b79af95","system_id":"levelo_inurba_marseille","lat":43.27995,"lon":5.4,"is_reserved":false,"is_disabled":false,"rental_uris":{"android":"levelo://app?vid=8e0a0553-d4ce-4a58-bdf9-cddf2b79af95","ios":"levelo://app?vid=8e0a0553-d4ce-4a58-bdf9-cddf2b79af95"},"vehicle_type_id":"4","last_reported":1738739315,"current_range_meters":38800,"station_id":"ce4bho92rcd13ifvqh4g","pricing_plan_id":"cebpf4jnsgd1na2vs0mg"},{"bike_id":"e31f2bae-f24d-493c-af96-81e7fa36ed01","system_id":"levelo_inurba_marseille","lat":43.28441,"lon":5.38706,"is_reserved":false,"is_disabled":false,"rental_uris":{"android":"levelo://app?vid=e31f2bae-f24d-493c-af96-81e7fa36ed01","ios":"levelo://app?vid=e31f2bae-f24d-493c-af96-81e7fa36ed01"},"vehicle_type_id":"4","last_reported":1738739315,"current_range_meters":38000,"station_id":"ce4bh8p2rcd13ifvqeb0","pricing_plan_id":"cebpf4jnsgd1na2vs0mg"},{"bike_id":"4aab5f6d-fa51-4980-b027-491c58f7f391","system_id":"levelo_inurba_marseille","lat":43.28621,"lon":5.35098,"is_reserved":false,"is_disabled":false,"rental_uris":{"android":"levelo://app?vid=4aab5f6d-fa51-4980-b027-491c58f7f391","ios":"levelo://app?vid=4aab5f6d-fa51-4980-b027-491c58f7f391"},"vehicle_type_id":"4","last_reported":1738739315,"current_range_meters":36800,"station_id":"ce4bhch2rcd13ifvqeug","pricing_plan_id":"cebpf4jnsgd1na2vs0mg"},{"bike_id":"6d60913d-cc26-4ecc-b494-5bb2f9b2ea83","system_id":"levelo_inurba_marseille","lat":43.29887,"lon":5.4367,"is_reserved":false,"is_disabled":false,"rental_uris":{"android":"levelo://app?vid=6d60913d-cc26-4ecc-b494-5bb2f9b2ea83","ios":"levelo://app?vid=6d60913d-cc26-4ecc-b494-5bb2f9b2ea83"},"vehicle_type_id":"4","last_reported":1738739315,"current_range_meters":38400,"station_id":"ce4bhpp2rcd13ifvqhfg","pricing_plan_id":"cebpf4jnsgd1na2vs0mg"},{"bike_id":"2fed9ba3-3909-423b-8e60-69abd9978d73","system_id":"levelo_inurba_marseille","lat":43.26807,"lon":5.4026,"is_reserved":false,"is_disabled":false,"rental_uris":{"android":"levelo://app?vid=2fed9ba3-3909-423b-8e60-69abd9978d73","ios":"levelo://app?vid=2fed9ba3-3909-423b-8e60-69abd9978d73"},"vehicle_type_id":"4","last_reported":1738739315,"current_range_meters":36800,"station_id":"ce501612rcd8frsf0b60","pricing_plan_id":"cebpf4jnsgd1na2vs0mg"},{"bike_id":"bc4186b3-1073-492b-ab95-0326a7b12d0e","system_id":"levelo_inurba_marseille","lat":43.28415,"lon":5.35018,"is_reserved":false,"is_disabled":false,"rental_uris":{"android":"levelo://app?vid=bc4186b3-1073-492b-ab95-0326a7b12d0e","ios":"levelo://app?vid=bc4186b3-1073-492b-ab95-0326a7b12d0e"},"vehicle_type_id":"4","last_reported":1738739315,"current_range_meters":36800,"station_id":"ce4bhbh2rcd13ifvqepg","pricing_plan_id":"cebpf4jnsgd1na2vs0mg"},{"bike_id":"c5b2f3ac-aed1-4933-899c-adbe3effcf20","system_id":"levelo_inurba_marseille","lat":43.28703,"lon":5.3998,"is_reserved":false,"is_disabled":false,"rental_uris":{"android":"levelo://app?vid=c5b2f3ac-aed1-4933-899c-adbe3effcf20","ios":"levelo://app?vid=c5b2f3ac-aed1-4933-899c-adbe3effcf20"},"vehicle_type_id":"4","last_reported":1738739315,"current_range_meters":12000,"station_id":"ce4bho92rcd13ifvqh3g","pricing_plan_id":"cebpf4jnsgd1na2vs0mg"},{"bike_id":"fb1830e2-f6fc-4fde-afda-8615e8ed9c4a","system_id":"levelo_inurba_marseille","lat":43.26189,"lon":5.37458,"is_reserved":false,"is_disabled":false,"rental_uris":{"android":"levelo://app?vid=fb1830e2-f6fc-4fde-afda-8615e8ed9c4a","ios":"levelo://app?vid=fb1830e2-f6fc-4fde-afda-8615e8ed9c4a"},"vehicle_type_id":"4","last_reported":1738739315,"current_range_meters":6800,"station_id":"ce4bhgp2rcd13ifvqfc0","pricing_plan_id":"cebpf4jnsgd1na2vs0mg"},{"bike_id":"32b0730a-f64d-4e71-9fea-c5533d71cda7","system_id":"levelo_inurba_marseille","lat":43.28609,"lon":5.3511,"is_reserved":false,"is_disabled":false,"rental_uris":{"android":"levelo://app?vid=32b0730a-f64d-4e71-9fea-c5533d71cda7","ios":"levelo://app?vid=32b0730a-f64d-4e71-9fea-c5533d71cda7"},"vehicle_type_id":"4","last_reported":1738739315,"current_range_meters":19200,"station_id":"ce4bhch2rcd13ifvqeug","pricing_plan_id":"cebpf4jnsgd1na2vs0mg"},{"bike_id":"6e7c1ac2-e791-43c7-8c36-9db37854d07d","system_id":"levelo_inurba_marseille","lat":43.28624,"lon":5.35085,"is_reserved":false,"is_disabled":true,"rental_uris":{"android":"levelo://app?vid=6e7c1ac2-e791-43c7-8c36-9db37854d07d","ios":"levelo://app?vid=6e7c1ac2-e791-43c7-8c36-9db37854d07d"},"vehicle_type_id":"4","last_reported":1738739315,"current_range_meters":23200,"station_id":"ce4bhch2rcd13ifvqeug","pricing_plan_id":"cebpf4jnsgd1na2vs0mg"},{"bike_id":"2b52254f-933d-4903-ac07-21eb27a1e798","system_id":"levelo_inurba_marseille","lat":43.27171,"lon":5.4099,"is_reserved":false,"is_disabled":false,"rental_uris":{"android":"levelo://app?vid=2b52254f-933d-4903-ac07-21eb27a1e798","ios":"levelo://app?vid=2b52254f-933d-4903-ac07-21eb27a1e798"},"vehicle_type_id":"4","last_reported":1738739315,"current_range_meters":6800,"station_id":"ce4bhl12rcd13ifvqgf0","pricing_plan_id":"cebpf4jnsgd1na2vs0mg"},{"bike_id":"1418b524-1535-4478-a5d6-289886b7efa0","system_id":"levelo_inurba_marseille","lat":43.28144,"lon":5.42651,"is_reserved":false,"is_disabled":false,"rental_uris":{"android":"levelo://app?vid=1418b524-1535-4478-a5d6-289886b7efa0","ios":"levelo://app?vid=1418b524-1535-4478-a5d6-289886b7efa0"},"vehicle_type_id":"4","last_reported":1738739315,"current_range_meters":38400,"station_id":"ce4bhnh2rcd13ifvqgug","pricing_plan_id":"cebpf4jnsgd1na2vs0mg"},{"bike_id":"fa0211eb-5d0a-4202-bca3-b8bd04905239","system_id":"levelo_inurba_marseille","lat":43.28415,"lon":5.37516,"is_reserved":false,"is_disabled":false,"rental_uris":{"android":"levelo://app?vid=fa0211eb-5d0a-4202-bca3-b8bd04905239","ios":"levelo://app?vid=fa0211eb-5d0a-4202-bca3-b8bd04905239"},"vehicle_type_id":"4","last_reported":1738739315,"current_range_meters":31200,"station_id":"ce4bh412rcd13ifvqds0","pricing_plan_id":"cebpf4jnsgd1na2vs0mg"},{"bike_id":"fef859c5-282a-46db-90e8-8b5f1c89ff40","system_id":"levelo_inurba_marseille","lat":43.298557,"lon":5.362786,"is_reserved":false,"is_disabled":false,"rental_uris":{"android":"levelo://app?vid=fef859c5-282a-46db-90e8-8b5f1c89ff40","ios":"levelo://app?vid=fef859c5-282a-46db-90e8-8b5f1c89ff40"},"vehicle_type_id":"4","last_reported":1738739315,"current_range_meters":35600,"station_id":"ce4bgpp2rcd13ifvqc3g","pricing_plan_id":"cebpf4jnsgd1na2vs0mg"},{"bike_id":"376bb105-0387-498b-acb6-67588782c225","system_id":"levelo_inurba_marseille","lat":43.301566,"lon":5.380759,"is_reserved":false,"is_disabled":false,"rental_uris":{"android":"levelo://app?vid=376bb105-0387-498b-acb6-67588782c225","ios":"levelo://app?vid=376bb105-0387-498b-acb6-67588782c225"},"vehicle_type_id":"4","last_reported":1738739315,"current_range_meters":38800,"station_id":"ce4bgjp2rcd13ifvqbh0","pricing_plan_id":"cebpf4jnsgd1na2vs0mg"},{"bike_id":"64ab4051-628c-4522-bffc-2252fa5fcc2f","system_id":"levelo_inurba_marseille","lat":43.29979,"lon":5.4133,"is_reserved":false,"is_disabled":false,"rental_uris":{"android":"levelo://app?vid=64ab4051-628c-4522-bffc-2252fa5fcc2f","ios":"levelo://app?vid=64ab4051-628c-4522-bffc-2252fa5fcc2f"},"vehicle_type_id":"4","last_reported":1738739315,"current_range_meters":38800,"station_id":"ce4bhp12rcd13ifvqh9g","pricing_plan_id":"cebpf4jnsgd1na2vs0mg"},{"bike_id":"ef921652-a254-4821-8779-ff39d8b70130","system_id":"levelo_inurba_marseille","lat":43.29964,"lon":5.413178,"is_reserved":false,"is_disabled":false,"rental_uris":{"android":"levelo://app?vid=ef921652-a254-4821-8779-ff39d8b70130","ios":"levelo://app?vid=ef921652-a254-4821-8779-ff39d8b70130"},"vehicle_type_id":"4","last_reported":1738739315,"current_range_meters":38000,"station_id":"ce4bhp12rcd13ifvqh9g","pricing_plan_id":"cebpf4jnsgd1na2vs0mg"},{"bike_id":"676d6708-b333-4cfc-9e75-3e3edf4fe8f1","system_id":"levelo_inurba_marseille","lat":43.28673,"lon":5.38656,"is_reserved":false,"is_disabled":false,"rental_uris":{"android":"levelo://app?vid=676d6708-b333-4cfc-9e75-3e3edf4fe8f1","ios":"levelo://app?vid=676d6708-b333-4cfc-9e75-3e3edf4fe8f1"},"vehicle_type_id":"4","last_reported":1738739315,"current_range_meters":29600,"station_id":"ce4bh492rcd13ifvqdug","pricing_plan_id":"cebpf4jnsgd1na2vs0mg"},{"bike_id":"cbc65456-707b-4ddd-b341-f003b676778a","system_id":"levelo_inurba_marseille","lat":43.27803,"lon":5.40715,"is_reserved":false,"is_disabled":false,"rental_uris":{"android":"levelo://app?vid=cbc65456-707b-4ddd-b341-f003b676778a","ios":"levelo://app?vid=cbc65456-707b-4ddd-b341-f003b676778a"},"vehicle_type_id":"4","last_reported":1738739315,"current_range_meters":27600,"station_id":"ce4bhnh2rcd13ifvqgtg","pricing_plan_id":"cebpf4jnsgd1na2vs0mg"},{"bike_id":"a5462f1d-afb7-48b7-807f-622cb8e49d72","system_id":"levelo_inurba_marseille","lat":43.30473,"lon":5.37902,"is_reserved":false,"is_disabled":false,"rental_uris":{"android":"levelo://app?vid=a5462f1d-afb7-48b7-807f-622cb8e49d72","ios":"levelo://app?vid=a5462f1d-afb7-48b7-807f-622cb8e49d72"},"vehicle_type_id":"4","last_reported":1738739315,"current_range_meters":32000,"station_id":"ce4bgup2rcd13ifvqcn0","pricing_plan_id":"cebpf4jnsgd1na2vs0mg"},{"bike_id":"81994705-0fc3-43d1-9766-890bb33231c9","system_id":"levelo_inurba_marseille","lat":43.29801,"lon":5.3809,"is_reserved":false,"is_disabled":false,"rental_uris":{"android":"levelo://app?vid=81994705-0fc3-43d1-9766-890bb33231c9","ios":"levelo://app?vid=81994705-0fc3-43d1-9766-890bb33231c9"},"vehicle_type_id":"4","last_reported":1738739315,"current_range_meters":38400,"station_id":"ce4bgip2rcd13ifvqbb0","pricing_plan_id":"cebpf4jnsgd1na2vs0mg"},{"bike_id":"26d397a9-61ee-400d-a6b0-dc8b026ea3e4","system_id":"levelo_inurba_marseille","lat":43.29618,"lon":5.37161,"is_reserved":false,"is_disabled":false,"rental_uris":{"android":"levelo://app?vid=26d397a9-61ee-400d-a6b0-dc8b026ea3e4","ios":"levelo://app?vid=26d397a9-61ee-400d-a6b0-dc8b026ea3e4"},"vehicle_type_id":"4","last_reported":1738739315,"current_range_meters":32000,"station_id":"ce4bgnh2rcd13ifvqc0g","pricing_plan_id":"cebpf4jnsgd1na2vs0mg"},{"bike_id":"9ab1c3d0-6f39-4f7e-9c21-58fedca93f91","system_id":"levelo_inurba_marseille","lat":43.31682,"lon":5.40485,"is_reserved":false,"is_disabled":false,"rental_uris":{"android":"levelo://app?vid=9ab1c3d0-6f39-4f7e-9c21-58fedca93f91","ios":"levelo://app?vid=9ab1c3d0-6f39-4f7e-9c21-58fedca93f91"},"vehicle_type_id":"4","last_reported":1738739315,"current_range_meters":35600,"station_id":"ce4bh012rcd13ifvqd00","pricing_plan_id":"cebpf4jnsgd1na2vs0mg"},{"bike_id":"23c092e3-4a32-4941-9f55-1ac432101554","system_id":"levelo_inurba_marseille","lat":43.29028,"lon":5.39955,"is_reserved":false,"is_disabled":false,"rental_uris":{"android":"levelo://app?vid=23c092e3-4a32-4941-9f55-1ac432101554","ios":"levelo://app?vid=23c092e3-4a32-4941-9f55-1ac432101554"},"vehicle_type_id":"4","last_reported":1738739315,"current_range_meters":34800,"station_id":"ce4bh392rcd13ifvqdm0","pricing_plan_id":"cebpf4jnsgd1na2vs0mg"},{"bike_id":"5fba90fb-e993-4d8f-99e0-53f38203668f","system_id":"levelo_inurba_marseille","lat":43.23179,"lon":5.39993,"is_reserved":false,"is_disabled":false,"rental_uris":{"android":"levelo://app?vid=5fba90fb-e993-4d8f-99e0-53f38203668f","ios":"levelo://app?vid=5fba90fb-e993-4d8f-99e0-53f38203668f"},"vehicle_type_id":"4","last_reported":1738739315,"current_range_meters":24000,"station_id":"ce4bhn12rcd13ifvqgqg","pricing_plan_id":"cebpf4jnsgd1na2vs0mg"},{"bike_id":"3370c680-24ff-40d1-b432-a6746eb5f9ee","system_id":"levelo_inurba_marseille","lat":43.28728,"lon":5.36049,"is_reserved":false,"is_disabled":false,"rental_uris":{"android":"levelo://app?vid=3370c680-24ff-40d1-b432-a6746eb5f9ee","ios":"levelo://app?vid=3370c680-24ff-40d1-b432-a6746eb5f9ee"},"vehicle_type_id":"4","last_reported":1738739315,"current_range_meters":36000,"station_id":"cki0cbj6b192h4jlfktg","pricing_plan_id":"cebpf4jnsgd1na2vs0mg"},{"bike_id":"a9ee38d0-21e8-4d99-8e3f-cc643e32473e","system_id":"levelo_inurba_marseille","lat":43.27815,"lon":5.40719,"is_reserved":false,"is_disabled":false,"rental_uris":{"android":"levelo://app?vid=a9ee38d0-21e8-4d99-8e3f-cc643e32473e","ios":"levelo://app?vid=a9ee38d0-21e8-4d99-8e3f-cc643e32473e"},"vehicle_type_id":"4","last_reported":1738739315,"current_range_meters":38400,"station_id":"ce4bhnh2rcd13ifvqgtg","pricing_plan_id":"cebpf4jnsgd1na2vs0mg"},{"bike_id":"630dd466-e4dd-4ada-8a39-01e92abf0818","system_id":"levelo_inurba_marseille","lat":43.26203,"lon":5.37475,"is_reserved":false,"is_disabled":false,"rental_uris":{"android":"levelo://app?vid=630dd466-e4dd-4ada-8a39-01e92abf0818","ios":"levelo://app?vid=630dd466-e4dd-4ada-8a39-01e92abf0818"},"vehicle_type_id":"4","last_reported":1738739315,"current_range_meters":30000,"station_id":"ce4bhgp2rcd13ifvqfc0","pricing_plan_id":"cebpf4jnsgd1na2vs0mg"},{"bike_id":"148ebf1c-0c4a-4bca-80d0-096264c9b011","system_id":"levelo_inurba_marseille","lat":43.31251,"lon":5.36827,"is_reserved":false,"is_disabled":false,"rental_uris":{"android":"levelo://app?vid=148ebf1c-0c4a-4bca-80d0-096264c9b011","ios":"levelo://app?vid=148ebf1c-0c4a-4bca-80d0-096264c9b011"},"vehicle_type_id":"4","last_reported":1738739315,"current_range_meters":38800,"station_id":"ce4bgl92rcd13ifvqbq0","pricing_plan_id":"cebpf4jnsgd1na2vs0mg"},{"bike_id":"192cb5c3-56c2-4578-9abb-38ac3d357cf4","system_id":"levelo_inurba_marseille","lat":43.2953,"lon":5.38549,"is_reserved":false,"is_disabled":false,"rental_uris":{"android":"levelo://app?vid=192cb5c3-56c2-4578-9abb-38ac3d357cf4","ios":"levelo://app?vid=192cb5c3-56c2-4578-9abb-38ac3d357cf4"},"vehicle_type_id":"4","last_reported":1738739315,"current_range_meters":18800,"station_id":"ce4bgih2rcd13ifvqba0","pricing_plan_id":"cebpf4jnsgd1na2vs0mg"},{"bike_id":"557ec739-798b-416b-9f1d-95b14df4a0c5","system_id":"levelo_inurba_marseille","lat":43.29566,"lon":5.39979,"is_reserved":false,"is_disabled":false,"rental_uris":{"android":"levelo://app?vid=557ec739-798b-416b-9f1d-95b14df4a0c5","ios":"levelo://app?vid=557ec739-798b-416b-9f1d-95b14df4a0c5"},"vehicle_type_id":"4","last_reported":1738739315,"current_range_meters":32000,"station_id":"ce4bh312rcd13ifvqdj0","pricing_plan_id":"cebpf4jnsgd1na2vs0mg"},{"bike_id":"3034d64e-f78e-468c-b4d6-2520a053438f","system_id":"levelo_inurba_marseille","lat":43.23187,"lon":5.39932,"is_reserved":false,"is_disabled":false,"rental_uris":{"android":"levelo://app?vid=3034d64e-f78e-468c-b4d6-2520a053438f","ios":"levelo://app?vid=3034d64e-f78e-468c-b4d6-2520a053438f"},"vehicle_type_id":"4","last_reported":1738739315,"current_range_meters":36800,"station_id":"","pricing_plan_id":"cebpf4jnsgd1na2vs0mg"},{"bike_id":"89c66f7b-44c1-45ea-9fd9-a928af4003a2","system_id":"levelo_inurba_marseille","lat":43.3147,"lon":5.373,"is_reserved":false,"is_disabled":false,"rental_uris":{"android":"levelo://app?vid=89c66f7b-44c1-45ea-9fd9-a928af4003a2","ios":"levelo://app?vid=89c66f7b-44c1-45ea-9fd9-a928af4003a2"},"vehicle_type_id":"4","last_reported":1738739315,"current_range_meters":34000,"station_id":"ce4bgt12rcd13ifvqcd0","pricing_plan_id":"cebpf4jnsgd1na2vs0mg"},{"bike_id":"41ad3d36-51d8-4204-ae3d-d7c8884b6fab","system_id":"levelo_inurba_marseille","lat":43.2557,"lon":5.382371,"is_reserved":false,"is_disabled":false,"rental_uris":{"android":"levelo://app?vid=41ad3d36-51d8-4204-ae3d-d7c8884b6fab","ios":"levelo://app?vid=41ad3d36-51d8-4204-ae3d-d7c8884b6fab"},"vehicle_type_id":"4","last_reported":1738739315,"current_range_meters":36800,"station_id":"ce4bhih2rcd13ifvqfs0","pricing_plan_id":"cebpf4jnsgd1na2vs0mg"},{"bike_id":"0444d04a-5ddc-4adb-90fc-b1be829b71a2","system_id":"levelo_inurba_marseille","lat":43.31282,"lon":5.40164,"is_reserved":false,"is_disabled":false,"rental_uris":{"android":"levelo://app?vid=0444d04a-5ddc-4adb-90fc-b1be829b71a2","ios":"levelo://app?vid=0444d04a-5ddc-4adb-90fc-b1be829b71a2"},"vehicle_type_id":"4","last_reported":1738739315,"current_range_meters":38800,"station_id":"ce4bh092rcd13ifvqd30","pricing_plan_id":"cebpf4jnsgd1na2vs0mg"},{"bike_id":"70eec59f-8e5c-4c4a-8440-79555df8ea8f","system_id":"levelo_inurba_marseille","lat":43.28968,"lon":5.35645,"is_reserved":false,"is_disabled":true,"rental_uris":{"android":"levelo://app?vid=70eec59f-8e5c-4c4a-8440-79555df8ea8f","ios":"levelo://app?vid=70eec59f-8e5c-4c4a-8440-79555df8ea8f"},"vehicle_type_id":"4","last_reported":1738739315,"current_range_meters":10800,"station_id":"ce4bhb92rcd13ifvqen0","pricing_plan_id":"cebpf4jnsgd1na2vs0mg"},{"bike_id":"e1fd63af-2ded-46aa-b95c-acb582af5c06","system_id":"levelo_inurba_marseille","lat":43.28731,"lon":5.40042,"is_reserved":false,"is_disabled":true,"rental_uris":{"android":"levelo://app?vid=e1fd63af-2ded-46aa-b95c-acb582af5c06","ios":"levelo://app?vid=e1fd63af-2ded-46aa-b95c-acb582af5c06"},"vehicle_type_id":"4","last_reported":1738739315,"current_range_meters":0,"station_id":"ce4bho92rcd13ifvqh3g","pricing_plan_id":"cebpf4jnsgd1na2vs0mg"},{"bike_id":"0b557b94-8edf-49bc-8c24-edbb5993edd9","system_id":"levelo_inurba_marseille","lat":43.336031,"lon":5.410103,"is_reserved":false,"is_disabled":false,"rental_uris":{"android":"levelo://app?vid=0b557b94-8edf-49bc-8c24-edbb5993edd9","ios":"levelo://app?vid=0b557b94-8edf-49bc-8c24-edbb5993edd9"},"vehicle_type_id":"4","last_reported":1738739315,"current_range_meters":30000,"station_id":"ce4bhqh2rcd13ifvqhmg","pricing_plan_id":"cebpf4jnsgd1na2vs0mg"},{"bike_id":"b09ebd01-c975-4878-ac0b-8fd11b1739f7","system_id":"levelo_inurba_marseille","lat":43.28144,"lon":5.42646,"is_reserved":false,"is_disabled":false,"rental_uris":{"android":"levelo://app?vid=b09ebd01-c975-4878-ac0b-8fd11b1739f7","ios":"levelo://app?vid=b09ebd01-c975-4878-ac0b-8fd11b1739f7"},"vehicle_type_id":"4","last_reported":1738739315,"current_range_meters":12000,"station_id":"ce4bhnh2rcd13ifvqgug","pricing_plan_id":"cebpf4jnsgd1na2vs0mg"},{"bike_id":"ca405a09-fa5d-4313-9499-037cca543303","system_id":"levelo_inurba_marseille","lat":43.30456,"lon":5.3888,"is_reserved":false,"is_disabled":false,"rental_uris":{"android":"levelo://app?vid=ca405a09-fa5d-4313-9499-037cca543303","ios":"levelo://app?vid=ca405a09-fa5d-4313-9499-037cca543303"},"vehicle_type_id":"4","last_reported":1738739315,"current_range_meters":28000,"station_id":"ce4bgk12rcd13ifvqbi0","pricing_plan_id":"cebpf4jnsgd1na2vs0mg"},{"bike_id":"a66ff152-aaa1-48ab-8ff7-974294611fc7","system_id":"levelo_inurba_marseille","lat":43.29782,"lon":5.38102,"is_reserved":false,"is_disabled":false,"rental_uris":{"android":"levelo://app?vid=a66ff152-aaa1-48ab-8ff7-974294611fc7","ios":"levelo://app?vid=a66ff152-aaa1-48ab-8ff7-974294611fc7"},"vehicle_type_id":"4","last_reported":1738739315,"current_range_meters":39200,"station_id":"ce4bgip2rcd13ifvqbb0","pricing_plan_id":"cebpf4jnsgd1na2vs0mg"},{"bike_id":"a7dc0848-081a-4438-bce6-7e161a91f066","system_id":"levelo_inurba_marseille","lat":43.28152,"lon":5.42651,"is_reserved":false,"is_disabled":false,"rental_uris":{"android":"levelo://app?vid=a7dc0848-081a-4438-bce6-7e161a91f066","ios":"levelo://app?vid=a7dc0848-081a-4438-bce6-7e161a91f066"},"vehicle_type_id":"4","last_reported":1738739315,"current_range_meters":31200,"station_id":"ce4bhnh2rcd13ifvqgug","pricing_plan_id":"cebpf4jnsgd1na2vs0mg"},{"bike_id":"537d148d-4101-4c2e-81be-eedbb9188f59","system_id":"levelo_inurba_marseille","lat":43.26187,"lon":5.37469,"is_reserved":false,"is_disabled":false,"rental_uris":{"android":"levelo://app?vid=537d148d-4101-4c2e-81be-eedbb9188f59","ios":"levelo://app?vid=537d148d-4101-4c2e-81be-eedbb9188f59"},"vehicle_type_id":"4","last_reported":1738739315,"current_range_meters":29600,"station_id":"ce4bhgp2rcd13ifvqfc0","pricing_plan_id":"cebpf4jnsgd1na2vs0mg"},{"bike_id":"865b4df2-5df2-4bf5-8c0d-c123c258a732","system_id":"levelo_inurba_marseille","lat":43.27494,"lon":5.42453,"is_reserved":false,"is_disabled":false,"rental_uris":{"android":"levelo://app?vid=865b4df2-5df2-4bf5-8c0d-c123c258a732","ios":"levelo://app?vid=865b4df2-5df2-4bf5-8c0d-c123c258a732"},"vehicle_type_id":"4","last_reported":1738739315,"current_range_meters":24800,"station_id":"ce4bhn92rcd13ifvqgrg","pricing_plan_id":"cebpf4jnsgd1na2vs0mg"},{"bike_id":"9dc60976-d2bc-44c3-87bb-1d52fbe610c3","system_id":"levelo_inurba_marseille","lat":43.28351,"lon":5.38118,"is_reserved":false,"is_disabled":false,"rental_uris":{"android":"levelo://app?vid=9dc60976-d2bc-44c3-87bb-1d52fbe610c3","ios":"levelo://app?vid=9dc60976-d2bc-44c3-87bb-1d52fbe610c3"},"vehicle_type_id":"4","last_reported":1738739315,"current_range_meters":30000,"station_id":"ce4bh412rcd13ifvqdr0","pricing_plan_id":"cebpf4jnsgd1na2vs0mg"},{"bike_id":"2055a81d-8e5e-4bf5-b5e1-2fc40f396b7c","system_id":"levelo_inurba_marseille","lat":43.30531,"lon":5.38457,"is_reserved":false,"is_disabled":true,"rental_uris":{"android":"levelo://app?vid=2055a81d-8e5e-4bf5-b5e1-2fc40f396b7c","ios":"levelo://app?vid=2055a81d-8e5e-4bf5-b5e1-2fc40f396b7c"},"vehicle_type_id":"4","last_reported":1738739315,"current_range_meters":29600,"station_id":"ce4bgg92rcd13ifvqb30","pricing_plan_id":"cebpf4jnsgd1na2vs0mg"},{"bike_id":"60459898-4795-4acb-95dc-4e319e0a4d38","system_id":"levelo_inurba_marseille","lat":43.24654,"lon":5.38894,"is_reserved":false,"is_disabled":false,"rental_uris":{"android":"levelo://app?vid=60459898-4795-4acb-95dc-4e319e0a4d38","ios":"levelo://app?vid=60459898-4795-4acb-95dc-4e319e0a4d38"},"vehicle_type_id":"4","last_reported":1738739315,"current_range_meters":33200,"station_id":"ce4bhg12rcd13ifvqf60","pricing_plan_id":"cebpf4jnsgd1na2vs0mg"},{"bike_id":"84ed939f-9f09-4f60-a7e3-213d6b465b41","system_id":"levelo_inurba_marseille","lat":43.255009,"lon":5.376591,"is_reserved":false,"is_disabled":false,"rental_uris":{"android":"levelo://app?vid=84ed939f-9f09-4f60-a7e3-213d6b465b41","ios":"levelo://app?vid=84ed939f-9f09-4f60-a7e3-213d6b465b41"},"vehicle_type_id":"4","last_reported":1738739315,"current_range_meters":38800,"station_id":"ce4bhh12rcd13ifvqff0","pricing_plan_id":"cebpf4jnsgd1na2vs0mg"},{"bike_id":"722be818-6472-428d-8c9a-db48620784ac","system_id":"levelo_inurba_marseille","lat":43.284,"lon":5.37538,"is_reserved":false,"is_disabled":false,"rental_uris":{"android":"levelo://app?vid=722be818-6472-428d-8c9a-db48620784ac","ios":"levelo://app?vid=722be818-6472-428d-8c9a-db48620784ac"},"vehicle_type_id":"4","last_reported":1738739315,"current_range_meters":19200,"station_id":"ce4bh412rcd13ifvqds0","pricing_plan_id":"cebpf4jnsgd1na2vs0mg"},{"bike_id":"24d5d228-2f8c-41d5-8b6c-733fd0c1c967","system_id":"levelo_inurba_marseille","lat":43.29366,"lon":5.37851,"is_reserved":false,"is_disabled":false,"rental_uris":{"android":"levelo://app?vid=24d5d228-2f8c-41d5-8b6c-733fd0c1c967","ios":"levelo://app?vid=24d5d228-2f8c-41d5-8b6c-733fd0c1c967"},"vehicle_type_id":"4","last_reported":1738739315,"current_range_meters":38800,"station_id":"ce4bgjh2rcd13ifvqbf0","pricing_plan_id":"cebpf4jnsgd1na2vs0mg"},{"bike_id":"bb846df9-2969-480a-aed6-edbcf9c326fb","system_id":"levelo_inurba_marseille","lat":43.24811,"lon":5.37453,"is_reserved":false,"is_disabled":false,"rental_uris":{"android":"levelo://app?vid=bb846df9-2969-480a-aed6-edbcf9c326fb","ios":"levelo://app?vid=bb846df9-2969-480a-aed6-edbcf9c326fb"},"vehicle_type_id":"4","last_reported":1738739315,"current_range_meters":22000,"station_id":"ce4bhgh2rcd13ifvqfb0","pricing_plan_id":"cebpf4jnsgd1na2vs0mg"},{"bike_id":"a33a1f02-de42-4d05-887b-933203e68017","system_id":"levelo_inurba_marseille","lat":43.29022,"lon":5.38657,"is_reserved":false,"is_disabled":true,"rental_uris":{"android":"levelo://app?vid=a33a1f02-de42-4d05-887b-933203e68017","ios":"levelo://app?vid=a33a1f02-de42-4d05-887b-933203e68017"},"vehicle_type_id":"4","last_reported":1738739315,"current_range_meters":36800,"station_id":"ce4bh4p2rcd13ifvqe0g","pricing_plan_id":"cebpf4jnsgd1na2vs0mg"},{"bike_id":"cd07e062-2af1-406e-bcb9-5f1ec4730937","system_id":"levelo_inurba_marseille","lat":43.23068,"lon":5.35493,"is_reserved":false,"is_disabled":false,"rental_uris":{"android":"levelo://app?vid=cd07e062-2af1-406e-bcb9-5f1ec4730937","ios":"levelo://app?vid=cd07e062-2af1-406e-bcb9-5f1ec4730937"},"vehicle_type_id":"4","last_reported":1738739315,"current_range_meters":6400,"station_id":"cpo3342slgdg3j2ifvpg","pricing_plan_id":"cebpf4jnsgd1na2vs0mg"},{"bike_id":"c3644d12-8427-4602-9945-9ef42c46feca","system_id":"levelo_inurba_marseille","lat":43.24178,"lon":5.36396,"is_reserved":false,"is_disabled":false,"rental_uris":{"android":"levelo://app?vid=c3644d12-8427-4602-9945-9ef42c46feca","ios":"levelo://app?vid=c3644d12-8427-4602-9945-9ef42c46feca"},"vehicle_type_id":"4","last_reported":1738739315,"current_range_meters":9600,"station_id":"cpo36qri1sfpv3e86is0","pricing_plan_id":"cebpf4jnsgd1na2vs0mg"},{"bike_id":"2769350b-54f1-48e4-aedf-1324fffc26ba","system_id":"levelo_inurba_marseille","lat":43.23971,"lon":5.36617,"is_reserved":false,"is_disabled":false,"rental_uris":{"android":"levelo://app?vid=2769350b-54f1-48e4-aedf-1324fffc26ba","ios":"levelo://app?vid=2769350b-54f1-48e4-aedf-1324fffc26ba"},"vehicle_type_id":"4","last_reported":1738739315,"current_range_meters":4400,"station_id":"ce4bhi12rcd13ifvqfp0","pricing_plan_id":"cebpf4jnsgd1na2vs0mg"},{"bike_id":"cd89ed35-87d2-41a0-a461-2c97aa104998","system_id":"levelo_inurba_marseille","lat":43.281482,"lon":5.407628,"is_reserved":false,"is_disabled":false,"rental_uris":{"android":"levelo://app?vid=cd89ed35-87d2-41a0-a461-2c97aa104998","ios":"levelo://app?vid=cd89ed35-87d2-41a0-a461-2c97aa104998"},"vehicle_type_id":"4","last_reported":1738739315,"current_range_meters":22000,"station_id":"","pricing_plan_id":"cebpf4jnsgd1na2vs0mg"},{"bike_id":"1e7bde43-ab8f-4755-b59a-acd0a53ae759","system_id":"levelo_inurba_marseille","lat":43.317108,"lon":5.424078,"is_reserved":false,"is_disabled":true,"rental_uris":{"android":"levelo://app?vid=1e7bde43-ab8f-4755-b59a-acd0a53ae759","ios":"levelo://app?vid=1e7bde43-ab8f-4755-b59a-acd0a53ae759"},"vehicle_type_id":"4","last_reported":1738739315,"current_range_meters":0,"station_id":"ce4bhp92rcd13ifvqhbg","pricing_plan_id":"cebpf4jnsgd1na2vs0mg"},{"bike_id":"144d5ef4-9c7a-41fb-b06b-1f4330eee933","system_id":"levelo_inurba_marseille","lat":43.29621,"lon":5.37744,"is_reserved":false,"is_disabled":false,"rental_uris":{"android":"levelo://app?vid=144d5ef4-9c7a-41fb-b06b-1f4330eee933","ios":"levelo://app?vid=144d5ef4-9c7a-41fb-b06b-1f4330eee933"},"vehicle_type_id":"4","last_reported":1738739315,"current_range_meters":20000,"station_id":"ce4bgi92rcd13ifvqb90","pricing_plan_id":"cebpf4jnsgd1na2vs0mg"},{"bike_id":"e40a7264-a928-4c13-aec0-8ad25395be3d","system_id":"levelo_inurba_marseille","lat":43.30938,"lon":5.40161,"is_reserved":false,"is_disabled":false,"rental_uris":{"android":"levelo://app?vid=e40a7264-a928-4c13-aec0-8ad25395be3d","ios":"levelo://app?vid=e40a7264-a928-4c13-aec0-8ad25395be3d"},"vehicle_type_id":"4","last_reported":1738739315,"current_range_meters":38800,"station_id":"ce4bgvp2rcd13ifvqct0","pricing_plan_id":"cebpf4jnsgd1na2vs0mg"},{"bike_id":"d4acc25e-826d-4a87-a9c3-ec1a35a614f2","system_id":"levelo_inurba_marseille","lat":43.28842,"lon":5.3931,"is_reserved":false,"is_disabled":true,"rental_uris":{"android":"levelo://app?vid=d4acc25e-826d-4a87-a9c3-ec1a35a614f2","ios":"levelo://app?vid=d4acc25e-826d-4a87-a9c3-ec1a35a614f2"},"vehicle_type_id":"4","last_reported":1738739315,"current_range_meters":1200,"station_id":"ce4bh2p2rcd13ifvqdi0","pricing_plan_id":"cebpf4jnsgd1na2vs0mg"},{"bike_id":"9cdb87ac-4fa4-465d-a7c1-6b5c0d6eccf9","system_id":"levelo_inurba_marseille","lat":43.26953,"lon":5.38633,"is_reserved":false,"is_disabled":false,"rental_uris":{"android":"levelo://app?vid=9cdb87ac-4fa4-465d-a7c1-6b5c0d6eccf9","ios":"levelo://app?vid=9cdb87ac-4fa4-465d-a7c1-6b5c0d6eccf9"},"vehicle_type_id":"4","last_reported":1738739315,"current_range_meters":29600,"station_id":"ce4bhh92rcd13ifvqfh0","pricing_plan_id":"cebpf4jnsgd1na2vs0mg"},{"bike_id":"fd9fc28e-cdd1-4d2d-875b-8c661a56be94","system_id":"levelo_inurba_marseille","lat":43.2937,"lon":5.37843,"is_reserved":false,"is_disabled":false,"rental_uris":{"android":"levelo://app?vid=fd9fc28e-cdd1-4d2d-875b-8c661a56be94","ios":"levelo://app?vid=fd9fc28e-cdd1-4d2d-875b-8c661a56be94"},"vehicle_type_id":"4","last_reported":1738739315,"current_range_meters":15200,"station_id":"ce4bgjh2rcd13ifvqbf0","pricing_plan_id":"cebpf4jnsgd1na2vs0mg"},{"bike_id":"45a7daa2-2a2e-4454-90c3-1009aaecc5bd","system_id":"levelo_inurba_marseille","lat":43.23181,"lon":5.35575,"is_reserved":false,"is_disabled":false,"rental_uris":{"android":"levelo://app?vid=45a7daa2-2a2e-4454-90c3-1009aaecc5bd","ios":"levelo://app?vid=45a7daa2-2a2e-4454-90c3-1009aaecc5bd"},"vehicle_type_id":"4","last_reported":1738739315,"current_range_meters":4800,"station_id":"ce4bhu92rcd13ifvqi70","pricing_plan_id":"cebpf4jnsgd1na2vs0mg"},{"bike_id":"0ab4aa9b-08f7-4a3f-ac08-b9d225eaab26","system_id":"levelo_inurba_marseille","lat":43.2582,"lon":5.39439,"is_reserved":false,"is_disabled":false,"rental_uris":{"android":"levelo://app?vid=0ab4aa9b-08f7-4a3f-ac08-b9d225eaab26","ios":"levelo://app?vid=0ab4aa9b-08f7-4a3f-ac08-b9d225eaab26"},"vehicle_type_id":"4","last_reported":1738739315,"current_range_meters":27200,"station_id":"ce4bhip2rcd13ifvqft0","pricing_plan_id":"cebpf4jnsgd1na2vs0mg"},{"bike_id":"aece1634-918f-4f68-8bc7-9a7b7abafc1f","system_id":"levelo_inurba_marseille","lat":43.28142,"lon":5.42665,"is_reserved":false,"is_disabled":true,"rental_uris":{"android":"levelo://app?vid=aece1634-918f-4f68-8bc7-9a7b7abafc1f","ios":"levelo://app?vid=aece1634-918f-4f68-8bc7-9a7b7abafc1f"},"vehicle_type_id":"4","last_reported":1738739315,"current_range_meters":31200,"station_id":"ce4bhnh2rcd13ifvqgug","pricing_plan_id":"cebpf4jnsgd1na2vs0mg"},{"bike_id":"b4c4a2b5-8113-41e0-816a-5141dbc28c6d","system_id":"levelo_inurba_marseille","lat":43.28082,"lon":5.39663,"is_reserved":false,"is_disabled":false,"rental_uris":{"android":"levelo://app?vid=b4c4a2b5-8113-41e0-816a-5141dbc28c6d","ios":"levelo://app?vid=b4c4a2b5-8113-41e0-816a-5141dbc28c6d"},"vehicle_type_id":"4","last_reported":1738739315,"current_range_meters":38800,"station_id":"ce4bho12rcd13ifvqh2g","pricing_plan_id":"cebpf4jnsgd1na2vs0mg"},{"bike_id":"dde8d3e4-ec2d-4dec-80db-e4e161a62eca","system_id":"levelo_inurba_marseille","lat":43.28718,"lon":5.37933,"is_reserved":false,"is_disabled":false,"rental_uris":{"android":"levelo://app?vid=dde8d3e4-ec2d-4dec-80db-e4e161a62eca","ios":"levelo://app?vid=dde8d3e4-ec2d-4dec-80db-e4e161a62eca"},"vehicle_type_id":"4","last_reported":1738739315,"current_range_meters":36400,"station_id":"ce4bh9p2rcd13ifvqec0","pricing_plan_id":"cebpf4jnsgd1na2vs0mg"},{"bike_id":"645d7952-548f-4ce9-85fc-0044f000ae1a","system_id":"levelo_inurba_marseille","lat":43.30144,"lon":5.38085,"is_reserved":false,"is_disabled":false,"rental_uris":{"android":"levelo://app?vid=645d7952-548f-4ce9-85fc-0044f000ae1a","ios":"levelo://app?vid=645d7952-548f-4ce9-85fc-0044f000ae1a"},"vehicle_type_id":"4","last_reported":1738739315,"current_range_meters":38000,"station_id":"ce4bgjp2rcd13ifvqbh0","pricing_plan_id":"cebpf4jnsgd1na2vs0mg"},{"bike_id":"3b1d5f28-8e2f-4cd2-84ee-32e60c8bc1d4","system_id":"levelo_inurba_marseille","lat":43.27944,"lon":5.38727,"is_reserved":false,"is_disabled":true,"rental_uris":{"android":"levelo://app?vid=3b1d5f28-8e2f-4cd2-84ee-32e60c8bc1d4","ios":"levelo://app?vid=3b1d5f28-8e2f-4cd2-84ee-32e60c8bc1d4"},"vehicle_type_id":"4","last_reported":1738739315,"current_range_meters":0,"station_id":"ce4bhg12rcd13ifvqf80","pricing_plan_id":"cebpf4jnsgd1na2vs0mg"},{"bike_id":"a21453e1-7dd1-439a-9411-5be2637f52a4","system_id":"levelo_inurba_marseille","lat":43.29771,"lon":5.38142,"is_reserved":false,"is_disabled":true,"rental_uris":{"android":"levelo://app?vid=a21453e1-7dd1-439a-9411-5be2637f52a4","ios":"levelo://app?vid=a21453e1-7dd1-439a-9411-5be2637f52a4"},"vehicle_type_id":"4","last_reported":1738739315,"current_range_meters":0,"station_id":"ce4bgip2rcd13ifvqbb0","pricing_plan_id":"cebpf4jnsgd1na2vs0mg"},{"bike_id":"35798297-b936-47d1-8a98-bfdb50e14c75","system_id":"levelo_inurba_marseille","lat":43.320699,"lon":5.432959,"is_reserved":false,"is_disabled":true,"rental_uris":{"android":"levelo://app?vid=35798297-b936-47d1-8a98-bfdb50e14c75","ios":"levelo://app?vid=35798297-b936-47d1-8a98-bfdb50e14c75"},"vehicle_type_id":"4","last_reported":1738739315,"current_range_meters":35200,"station_id":"","pricing_plan_id":"cebpf4jnsgd1na2vs0mg"},{"bike_id":"ea5d774f-7eab-4828-a560-1535ca043c02","system_id":"levelo_inurba_marseille","lat":43.28416,"lon":5.35005,"is_reserved":false,"is_disabled":false,"rental_uris":{"android":"levelo://app?vid=ea5d774f-7eab-4828-a560-1535ca043c02","ios":"levelo://app?vid=ea5d774f-7eab-4828-a560-1535ca043c02"},"vehicle_type_id":"4","last_reported":1738739315,"current_range_meters":37600,"station_id":"ce4bhbh2rcd13ifvqepg","pricing_plan_id":"cebpf4jnsgd1na2vs0mg"},{"bike_id":"e6dc612f-7f56-4634-8aac-2cfefb7b3910","system_id":"levelo_inurba_marseille","lat":43.28274,"lon":5.35076,"is_reserved":false,"is_disabled":true,"rental_uris":{"android":"levelo://app?vid=e6dc612f-7f56-4634-8aac-2cfefb7b3910","ios":"levelo://app?vid=e6dc612f-7f56-4634-8aac-2cfefb7b3910"},"vehicle_type_id":"4","last_reported":1738739315,"current_range_meters":28400,"station_id":"ce4bhbp2rcd13ifvqerg","pricing_plan_id":"cebpf4jnsgd1na2vs0mg"},{"bike_id":"4ab5657a-d02d-42a0-9c03-c6d06f0a7e67","system_id":"levelo_inurba_marseille","lat":43.25575,"lon":5.38241,"is_reserved":false,"is_disabled":false,"rental_uris":{"android":"levelo://app?vid=4ab5657a-d02d-42a0-9c03-c6d06f0a7e67","ios":"levelo://app?vid=4ab5657a-d02d-42a0-9c03-c6d06f0a7e67"},"vehicle_type_id":"4","last_reported":1738739315,"current_range_meters":16000,"station_id":"ce4bhih2rcd13ifvqfs0","pricing_plan_id":"cebpf4jnsgd1na2vs0mg"},{"bike_id":"f3b6bed8-58c8-47c3-9b33-96a84a13685d","system_id":"levelo_inurba_marseille","lat":43.25576,"lon":5.38248,"is_reserved":false,"is_disabled":false,"rental_uris":{"android":"levelo://app?vid=f3b6bed8-58c8-47c3-9b33-96a84a13685d","ios":"levelo://app?vid=f3b6bed8-58c8-47c3-9b33-96a84a13685d"},"vehicle_type_id":"4","last_reported":1738739315,"current_range_meters":34800,"station_id":"ce4bhih2rcd13ifvqfs0","pricing_plan_id":"cebpf4jnsgd1na2vs0mg"},{"bike_id":"b52a6d3e-a9ce-4443-82e6-82003d5e3234","system_id":"levelo_inurba_marseille","lat":43.30596,"lon":5.39358,"is_reserved":false,"is_disabled":false,"rental_uris":{"android":"levelo://app?vid=b52a6d3e-a9ce-4443-82e6-82003d5e3234","ios":"levelo://app?vid=b52a6d3e-a9ce-4443-82e6-82003d5e3234"},"vehicle_type_id":"4","last_reported":1738739315,"current_range_meters":29600,"station_id":"ce4bh0p2rcd13ifvqd80","pricing_plan_id":"cebpf4jnsgd1na2vs0mg"},{"bike_id":"297a4a02-2730-48f7-b051-15a6abe2b802","system_id":"levelo_inurba_marseille","lat":43.312757,"lon":5.401701,"is_reserved":false,"is_disabled":false,"rental_uris":{"android":"levelo://app?vid=297a4a02-2730-48f7-b051-15a6abe2b802","ios":"levelo://app?vid=297a4a02-2730-48f7-b051-15a6abe2b802"},"vehicle_type_id":"4","last_reported":1738739315,"current_range_meters":36800,"station_id":"ce4bh092rcd13ifvqd30","pricing_plan_id":"cebpf4jnsgd1na2vs0mg"},{"bike_id":"0be0cecc-4fba-4bed-ab1b-2e0b99c31c3a","system_id":"levelo_inurba_marseille","lat":43.27183,"lon":5.39207,"is_reserved":false,"is_disabled":false,"rental_uris":{"android":"levelo://app?vid=0be0cecc-4fba-4bed-ab1b-2e0b99c31c3a","ios":"levelo://app?vid=0be0cecc-4fba-4bed-ab1b-2e0b99c31c3a"},"vehicle_type_id":"4","last_reported":1738739315,"current_range_meters":38800,"station_id":"ce4bhhp2rcd13ifvqfm0","pricing_plan_id":"cebpf4jnsgd1na2vs0mg"},{"bike_id":"0ebd63af-eae8-480d-af19-009062a12210","system_id":"levelo_inurba_marseille","lat":43.30455,"lon":5.37906,"is_reserved":false,"is_disabled":true,"rental_uris":{"android":"levelo://app?vid=0ebd63af-eae8-480d-af19-009062a12210","ios":"levelo://app?vid=0ebd63af-eae8-480d-af19-009062a12210"},"vehicle_type_id":"4","last_reported":1738739315,"current_range_meters":0,"station_id":"ce4bgup2rcd13ifvqcn0","pricing_plan_id":"cebpf4jnsgd1na2vs0mg"},{"bike_id":"8778b171-47ec-44c2-b44f-816e206c8dc6","system_id":"levelo_inurba_marseille","lat":43.27487,"lon":5.42455,"is_reserved":false,"is_disabled":false,"rental_uris":{"android":"levelo://app?vid=8778b171-47ec-44c2-b44f-816e206c8dc6","ios":"levelo://app?vid=8778b171-47ec-44c2-b44f-816e206c8dc6"},"vehicle_type_id":"4","last_reported":1738739315,"current_range_meters":36800,"station_id":"ce4bhn92rcd13ifvqgrg","pricing_plan_id":"cebpf4jnsgd1na2vs0mg"},{"bike_id":"4d66fa5e-9d0d-4225-b182-a188c53ba644","system_id":"levelo_inurba_marseille","lat":43.27494,"lon":5.42448,"is_reserved":false,"is_disabled":false,"rental_uris":{"android":"levelo://app?vid=4d66fa5e-9d0d-4225-b182-a188c53ba644","ios":"levelo://app?vid=4d66fa5e-9d0d-4225-b182-a188c53ba644"},"vehicle_type_id":"4","last_reported":1738739315,"current_range_meters":24400,"station_id":"ce4bhn92rcd13ifvqgrg","pricing_plan_id":"cebpf4jnsgd1na2vs0mg"},{"bike_id":"6bb18b6b-35db-4080-8375-2a2e83c6fc4b","system_id":"levelo_inurba_marseille","lat":43.23139,"lon":5.43722,"is_reserved":false,"is_disabled":true,"rental_uris":{"android":"levelo://app?vid=6bb18b6b-35db-4080-8375-2a2e83c6fc4b","ios":"levelo://app?vid=6bb18b6b-35db-4080-8375-2a2e83c6fc4b"},"vehicle_type_id":"4","last_reported":1738739315,"current_range_meters":38400,"station_id":"ce4bhmp2rcd13ifvqgog","pricing_plan_id":"cebpf4jnsgd1na2vs0mg"},{"bike_id":"1511c7c1-2e7e-4777-bf81-d4ba294f5a9f","system_id":"levelo_inurba_marseille","lat":43.30228,"lon":5.4003,"is_reserved":false,"is_disabled":false,"rental_uris":{"android":"levelo://app?vid=1511c7c1-2e7e-4777-bf81-d4ba294f5a9f","ios":"levelo://app?vid=1511c7c1-2e7e-4777-bf81-d4ba294f5a9f"},"vehicle_type_id":"4","last_reported":1738739315,"current_range_meters":8800,"station_id":"ce4bgvh2rcd13ifvqcs0","pricing_plan_id":"cebpf4jnsgd1na2vs0mg"},{"bike_id":"4c938425-c231-42e7-aed2-476a37f6fa3f","system_id":"levelo_inurba_marseille","lat":43.290395,"lon":5.399475,"is_reserved":false,"is_disabled":true,"rental_uris":{"android":"levelo://app?vid=4c938425-c231-42e7-aed2-476a37f6fa3f","ios":"levelo://app?vid=4c938425-c231-42e7-aed2-476a37f6fa3f"},"vehicle_type_id":"4","last_reported":1738739315,"current_range_meters":36400,"station_id":"ce4bh392rcd13ifvqdm0","pricing_plan_id":"cebpf4jnsgd1na2vs0mg"},{"bike_id":"787b7837-f258-4886-bbf5-841ee39c0166","system_id":"levelo_inurba_marseille","lat":43.28267,"lon":5.35076,"is_reserved":false,"is_disabled":true,"rental_uris":{"android":"levelo://app?vid=787b7837-f258-4886-bbf5-841ee39c0166","ios":"levelo://app?vid=787b7837-f258-4886-bbf5-841ee39c0166"},"vehicle_type_id":"4","last_reported":1738739315,"current_range_meters":34800,"station_id":"ce4bhbp2rcd13ifvqerg","pricing_plan_id":"cebpf4jnsgd1na2vs0mg"},{"bike_id":"0ba161f2-f159-4c93-aa58-b6d71cafe2d8","system_id":"levelo_inurba_marseille","lat":43.24657,"lon":5.38177,"is_reserved":false,"is_disabled":false,"rental_uris":{"android":"levelo://app?vid=0ba161f2-f159-4c93-aa58-b6d71cafe2d8","ios":"levelo://app?vid=0ba161f2-f159-4c93-aa58-b6d71cafe2d8"},"vehicle_type_id":"4","last_reported":1738739315,"current_range_meters":26000,"station_id":"ce4bhih2rcd13ifvqfr0","pricing_plan_id":"cebpf4jnsgd1na2vs0mg"},