{"last_updated":1769603303,"ttl":60,"version":"2.2","data":{"bikes":[{"bike_id":"e630bc63-4e12-440e-8a69-8ab0e52f5cc2","system_id":"levelo_inurba_marseille","lat":43.29863,"lon":5.36265,"is_reserved":false,"is_disabled":false,"rental_uris":{"android":"levelo://app?vid=e630bc63-4e12-440e-8a69-8ab0e52f5cc2","ios":"levelo://app?vid=e630bc63-4e12-440e-8a69-8ab0e52f5cc2"},"vehicle_type_id":"4","last_reported":1769603304,"current_range_meters":2800,"station_id":"ce4bgpp2rcd13ifvqc3g","pricing_plan_id":"cebpf4jnsgd1na2vs0mg"},{"bike_id":"4563cd4a-14be-4cd2-962a-8eb9b6992943","system_id":"levelo_inurba_marseille","lat":43.23192,"lon":5.35548,"is_reserved":false,"is_disabled":false,"rental_uris":{"android":"levelo://app?vid=4563cd4a-14be-4cd2-962a-8eb9b6992943","ios":"levelo://app?vid=4563cd4a-14be-4cd2-962a-8eb9b6992943"},"vehicle_type_id":"4","last_reported":1769603304,"current_range_meters":2800,"station_id":"ce4bhu92rcd13ifvqi70","pricing_plan_id":"cebpf4jnsgd1na2vs0mg"},{"bike_id":"e4fa939a-dc96-45d2-863f-92555a441917","system_id":"levelo_inurba_marseille","lat":43.28195,"lon":5.42652,"is_reserved":false,"is_disabled":true,"rental_uris":{"android":"levelo://app?vid=e4fa939a-dc96-45d2-863f-92555a441917","ios":"levelo://app?vid=e4fa939a-dc96-45d2-863f-92555a441917"},"vehicle_type_id":"4","last_reported":1769603304,"current_range_meters":2800,"station_id":"ce4bhnh2rcd13ifvqgug","pricing_plan_id":"cebpf4jnsgd1na2vs0mg"},{"bike_id":"29aa5aa3-c04d-4a4a-9381-86a1ba9e5e8a","system_id":"levelo_inurba_marseille","lat":43.26544,"lon":5.37294,"is_reserved":false,"is_disabled":false,"rental_uris":{"android":"levelo://app?vid=29aa5aa3-c04d-4a4a-9381-86a1ba9e5e8a","ios":"levelo://app?vid=29aa5aa3-c04d-4a4a-9381-86a1ba9e5e8a"},"vehicle_type_id":"4","last_reported":1769603304,"current_range_meters":2800,"station_id":"ce4bhg12rcd13ifvqf70","pricing_plan_id":"cebpf4jnsgd1na2vs0mg"},{"bike_id":"c7341e95-329a-44f9-aa76-f229f23d5b98","system_id":"levelo_inurba_marseille","lat":43.29243,"lon":5.36153,"is_reserved":false,"is_disabled":false,"rental_uris":{"android":"levelo://app?vid=c7341e95-329a-44f9-aa76-f229f23d5b98","ios":"levelo://app?vid=c7341e95-329a-44f9-aa76-f229f23d5b98"},"vehicle_type_id":"4","last_reported":1769603304,"current_range_meters":2800,"station_id":"","pricing_plan_id":"cebpf4jnsgd1na2vs0mg"},{"bike_id":"77d8bad2-be8f-4adf-aa33-b9459cdea121","system_id":"levelo_inurba_marseille","lat":43.33544,"lon":5.37444,"is_reserved":false,"is_disabled":false,"rental_uris":{"android":"levelo://app?vid=77d8bad2-be8f-4adf-aa33-b9459cdea121","ios":"levelo://app?vid=77d8bad2-be8f-4adf-aa33-b9459cdea121"},"vehicle_type_id":"4","last_reported":1769603304,"current_range_meters":2800,"station_id":"st_d46tts09ee8s73dlu43g","pricing_plan_id":"cebpf4jnsgd1na2vs0mg"},{"bike_id":"bbdc722c-a4be-4d49-adbb-d9a1c61c5a2b","system_id":"levelo_inurba_marseille","lat":43.26575,"lon":5.39017,"is_reserved":false,"is_disabled":false,"rental_uris":{"android":"levelo://app?vid=bbdc722c-a4be-4d49-adbb-d9a1c61c5a2b","ios":"levelo://app?vid=bbdc722c-a4be-4d49-adbb-d9a1c61c5a2b"},"vehicle_type_id":"4","last_reported":1769603304,"current_range_meters":2800,"station_id":"ce4bhe12rcd13ifvqf30","pricing_plan_id":"cebpf4jnsgd1na2vs0mg"},{"bike_id":"77545d33-0669-4746-a994-42c252299dcc","system_id":"levelo_inurba_marseille","lat":43.24656,"lon":5.43139,"is_reserved":false,"is_disabled":false,"rental_uris":{"android":"levelo://app?vid=77545d33-0669-4746-a994-42c252299dcc","ios":"levelo://app?vid=77545d33-0669-4746-a994-42c252299dcc"},"vehicle_type_id":"4","last_reported":1769603304,"current_range_meters":2800,"station_id":"st_d2m6c4gdas8pm72e190g","pricing_plan_id":"cebpf4jnsgd1na2vs0mg"},{"bike_id":"aef48c2d-4e9e-44fa-b69a-17199407ac19","system_id":"levelo_inurba_marseille","lat":43.28512,"lon":5.48387,"is_reserved":false,"is_disabled":false,"rental_uris":{"android":"levelo://app?vid=aef48c2d-4e9e-44fa-b69a-17199407ac19","ios":"levelo://app?vid=aef48c2d-4e9e-44fa-b69a-17199407ac19"},"vehicle_type_id":"4","last_reported":1769603304,"current_range_meters":2800,"station_id":"st_d3svhcjqgbts73a3dn0g","pricing_plan_id":"cebpf4jnsgd1na2vs0mg"},{"bike_id":"e01e12df-208f-43ee-99bf-5376acaa42bf","system_id":"levelo_inurba_marseille","lat":43.28865,"lon":5.4251,"is_reserved":false,"is_disabled":false,"rental_uris":{"android":"levelo://app?vid=e01e12df-208f-43ee-99bf-5376acaa42bf","ios":"levelo://app?vid=e01e12df-208f-43ee-99bf-5376acaa42bf"},"vehicle_type_id":"4","last_reported":1769603304,"current_range_meters":2800,"station_id":"st_d3b462108ojc7389ooeg","pricing_plan_id":"cebpf4jnsgd1na2vs0mg"},{"bike_id":"1b368f07-fb77-43ed-a874-1f0946e19f72","system_id":"levelo_inurba_marseille","lat":43.32329,"lon":5.36717,"is_reserved":false,"is_disabled":false,"rental_uris":{"android":"levelo://app?vid=1b368f07-fb77-43ed-a874-1f0946e19f72","ios":"levelo://app?vid=1b368f07-fb77-43ed-a874-1f0946e19f72"},"vehicle_type_id":"4","last_reported":1769603304,"current_range_meters":2800,"station_id":"ce4bhsh2rcd13ifvqi2g","pricing_plan_id":"cebpf4jnsgd1na2vs0mg"},{"bike_id":"a547037f-f7c5-4529-85b9-38478b8230cc","system_id":"levelo_inurba_marseille","lat":43.31496,"lon":5.37305,"is_reserved":false,"is_disabled":false,"rental_uris":{"android":"levelo://app?vid=a547037f-f7c5-4529-85b9-38478b8230cc","ios":"levelo://app?vid=a547037f-f7c5-4529-85b9-38478b8230cc"},"vehicle_type_id":"4","last_reported":1769603304,"current_range_meters":3200,"station_id":"ce4bgt12rcd13ifvqcd0","pricing_plan_id":"cebpf4jnsgd1na2vs0mg"},{"bike_id":"d1377c68-9764-4306-bbd3-9ed415521826","system_id":"levelo_inurba_marseille","lat":43.30413,"lon":5.39756,"is_reserved":false,"is_disabled":false,"rental_uris":{"android":"levelo://app?vid=d1377c68-9764-4306-bbd3-9ed415521826","ios":"levelo://app?vid=d1377c68-9764-4306-bbd3-9ed415521826"},"vehicle_type_id":"4","last_reported":1769603304,"current_range_meters":3200,"station_id":"ce4bh092rcd13ifvqd20","pricing_plan_id":"cebpf4jnsgd1na2vs0mg"},{"bike_id":"b1c835b9-d1b0-4420-b1bf-6cfd071e73dc","system_id":"levelo_inurba_marseille","lat":43.24807,"lon":5.37457,"is_reserved":false,"is_disabled":false,"rental_uris":{"android":"levelo://app?vid=b1c835b9-d1b0-4420-b1bf-6cfd071e73dc","ios":"levelo://app?vid=b1c835b9-d1b0-4420-b1bf-6cfd071e73dc"},"vehicle_type_id":"4","last_reported":1769603304,"current_range_meters":3200,"station_id":"ce4bhgh2rcd13ifvqfb0","pricing_plan_id":"cebpf4jnsgd1na2vs0mg"},{"bike_id":"a4197ac1-f17c-4dde-8532-d7c6e6881287","system_id":"levelo_inurba_marseille","lat":43.23196,"lon":5.35553,"is_reserved":false,"is_disabled":false,"rental_uris":{"android":"levelo://app?vid=a4197ac1-f17c-4dde-8532-d7c6e6881287","ios":"levelo://app?vid=a4197ac1-f17c-4dde-8532-d7c6e6881287"},"vehicle_type_id":"4","last_reported":1769603304,"current_range_meters":3200,"station_id":"ce4bhu92rcd13ifvqi70","pricing_plan_id":"cebpf4jnsgd1na2vs0mg"},{"bike_id":"71356222-e5c5-4365-b84a-c5d9e6a66d49","system_id":"levelo_inurba_marseille","lat":43.31754,"lon":5.39021,"is_reserved":false,"is_disabled":false,"rental_uris":{"android":"levelo://app?vid=71356222-e5c5-4365-b84a-c5d9e6a66d49","ios":"levelo://app?vid=71356222-e5c5-4365-b84a-c5d9e6a66d49"},"vehicle_type_id":"4","last_reported":1769603304,"current_range_meters":3200,"station_id":"ce4bhqp2rcd13ifvqhng","pricing_plan_id":"cebpf4jnsgd1na2vs0mg"},{"bike_id":"210d34b3-637d-4a3a-93be-c748d1fe37e1","system_id":"levelo_inurba_marseille","lat":43.24643,"lon":5.43141,"is_reserved":false,"is_disabled":false,"rental_uris":{"android":"levelo://app?vid=210d34b3-637d-4a3a-93be-c748d1fe37e1","ios":"levelo://app?vid=210d34b3-637d-4a3a-93be-c748d1fe37e1"},"vehicle_type_id":"4","last_reported":1769603304,"current_range_meters":3200,"station_id":"st_d2m6c4gdas8pm72e190g","pricing_plan_id":"cebpf4jnsgd1na2vs0mg"},{"bike_id":"9bcda961-27cd-4075-b93d-da48aacaa36e","system_id":"levelo_inurba_marseille","lat":43.26679,"lon":5.38263,"is_reserved":false,"is_disabled":false,"rental_uris":{"android":"levelo://app?vid=9bcda961-27cd-4075-b93d-da48aacaa36e","ios":"levelo://app?vid=9bcda961-27cd-4075-b93d-da48aacaa36e"},"vehicle_type_id":"4","last_reported":1769603304,"current_range_meters":3200,"station_id":"ce4bhg92rcd13ifvqf90","pricing_plan_id":"cebpf4jnsgd1na2vs0mg"},{"bike_id":"5b1328e1-725c-435f-9cc2-db91a5108ba5","system_id":"levelo_inurba_marseille","lat":43.25019,"lon":5.38928,"is_reserved":false,"is_disabled":false,"rental_uris":{"android":"levelo://app?vid=5b1328e1-725c-435f-9cc2-db91a5108ba5","ios":"levelo://app?vid=5b1328e1-725c-435f-9cc2-db91a5108ba5"},"vehicle_type_id":"4","last_reported":1769603304,"current_range_meters":3200,"station_id":"ce4bhgp2rcd13ifvqfd0","pricing_plan_id":"cebpf4jnsgd1na2vs0mg"},{"bike_id":"1d032a20-19ad-49a5-a797-ecf678e0d73c","system_id":"levelo_inurba_marseille","lat":43.31537,"lon":5.38051,"is_reserved":false,"is_disabled":true,"rental_uris":{"android":"levelo://app?vid=1d032a20-19ad-49a5-a797-ecf678e0d73c","ios":"levelo://app?vid=1d032a20-19ad-49a5-a797-ecf678e0d73c"},"vehicle_type_id":"4","last_reported":1769603304,"current_range_meters":3600,"station_id":"ce4bhsp2rcd13ifvqi50","pricing_plan_id":"cebpf4jnsgd1na2vs0mg"},{"bike_id":"954f219f-17bd-4a32-93cc-2c1d526f0bc0","system_id":"levelo_inurba_marseille","lat":43.27879,"lon":5.38797,"is_reserved":false,"is_disabled":false,"rental_uris":{"android":"levelo://app?vid=954f219f-17bd-4a32-93cc-2c1d526f0bc0","ios":"levelo://app?vid=954f219f-17bd-4a32-93cc-2c1d526f0bc0"},"vehicle_type_id":"4","last_reported":1769603304,"current_range_meters":3600,"station_id":"","pricing_plan_id":"cebpf4jnsgd1na2vs0mg"},{"bike_id":"2fe091e2-020a-493a-bbbf-aebda364107a","system_id":"levelo_inurba_marseille","lat":43.27067,"lon":5.42278,"is_reserved":false,"is_disabled":false,"rental_uris":{"android":"levelo://app?vid=2fe091e2-020a-493a-bbbf-aebda364107a","ios":"levelo://app?vid=2fe091e2-020a-493a-bbbf-aebda364107a"},"vehicle_type_id":"4","last_reported":1769603304,"current_range_meters":3600,"station_id":"ce4bhk92rcd13ifvqgb0","pricing_plan_id":"cebpf4jnsgd1na2vs0mg"},{"bike_id":"13412fd6-fcc8-4592-8f33-a77ca55d2b61","system_id":"levelo_inurba_marseille","lat":43.31072,"lon":5.38736,"is_reserved":false,"is_disabled":false,"rental_uris":{"android":"levelo://app?vid=13412fd6-fcc8-4592-8f33-a77ca55d2b61","ios":"levelo://app?vid=13412fd6-fcc8-4592-8f33-a77ca55d2b61"},"vehicle_type_id":"4","last_reported":1769603304,"current_range_meters":3600,"station_id":"","pricing_plan_id":"cebpf4jnsgd1na2vs0mg"},{"bike_id":"2d341e68-8682-48ca-86e7-ace06645ef34","system_id":"levelo_inurba_marseille","lat":43.24471,"lon":5.42548,"is_reserved":false,"is_disabled":false,"rental_uris":{"android":"levelo://app?vid=2d341e68-8682-48ca-86e7-ace06645ef34","ios":"levelo://app?vid=2d341e68-8682-48ca-86e7-ace06645ef34"},"vehicle_type_id":"4","last_reported":1769603304,"current_range_meters":3600,"station_id":"st_d4a3vfp97mjs738cd8kg","pricing_plan_id":"cebpf4jnsgd1na2vs0mg"},{"bike_id":"51f12955-85fa-488e-a5a3-3568ec645218","system_id":"levelo_inurba_marseille","lat":43.23146,"lon":5.437212,"is_reserved":false,"is_disabled":false,"rental_uris":{"android":"levelo://app?vid=51f12955-85fa-488e-a5a3-3568ec645218","ios":"levelo://app?vid=51f12955-85fa-488e-a5a3-3568ec645218"},"vehicle_type_id":"4","last_reported":1769603304,"current_range_meters":3600,"station_id":"ce4bhmp2rcd13ifvqgog","pricing_plan_id":"cebpf4jnsgd1na2vs0mg"},{"bike_id":"19de4354-2610-4d8f-8fbb-e754c3570356","system_id":"levelo_inurba_marseille","lat":43.2722,"lon":5.42802,"is_reserved":false,"is_disabled":false,"rental_uris":{"android":"levelo://app?vid=19de4354-2610-4d8f-8fbb-e754c3570356","ios":"levelo://app?vid=19de4354-2610-4d8f-8fbb-e754c3570356"},"vehicle_type_id":"4","last_reported":1769603304,"current_range_meters":3600,"station_id":"","pricing_plan_id":"cebpf4jnsgd1na2vs0mg"},{"bike_id":"7d9982a5-bc45-4237-abe2-f8a80718bcf2","system_id":"levelo_inurba_marseille","lat":43.33164,"lon":5.37694,"is_reserved":false,"is_disabled":false,"rental_uris":{"android":"levelo://app?vid=7d9982a5-bc45-4237-abe2-f8a80718bcf2","ios":"levelo://app?vid=7d9982a5-bc45-4237-abe2-f8a80718bcf2"},"vehicle_type_id":"4","last_reported":1769603304,"current_range_meters":3600,"station_id":"st_d46cu089ee8s73dldbu0","pricing_plan_id":"cebpf4jnsgd1na2vs0mg"},{"bike_id":"433a86e3-90b2-4549-ba52-a6c419db47b4","system_id":"levelo_inurba_marseille","lat":43.27373,"lon":5.36255,"is_reserved":false,"is_disabled":false,"rental_uris":{"android":"levelo://app?vid=433a86e3-90b2-4549-ba52-a6c419db47b4","ios":"levelo://app?vid=433a86e3-90b2-4549-ba52-a6c419db47b4"},"vehicle_type_id":"4","last_reported":1769603304,"current_range_meters":3600,"station_id":"ce4bhbh2rcd13ifvqeo0","pricing_plan_id":"cebpf4jnsgd1na2vs0mg"},{"bike_id":"8daea874-6378-4664-a8a0-600241f931cc","system_id":"levelo_inurba_marseille","lat":43.23778,"lon":5.36635,"is_reserved":false,"is_disabled":false,"rental_uris":{"android":"levelo://app?vid=8daea874-6378-4664-a8a0-600241f931cc","ios":"levelo://app?vid=8daea874-6378-4664-a8a0-600241f931cc"},"vehicle_type_id":"4","last_reported":1769603304,"current_range_meters":4000,"station_id":"st_d3nk18o9ro0c73en2l3g","pricing_plan_id":"cebpf4jnsgd1na2vs0mg"},{"bike_id":"4b3417a6-1f1f-4163-87a9-5c0d16767f2a","system_id":"levelo_inurba_marseille","lat":43.28477,"lon":5.48395,"is_reserved":false,"is_disabled":false,"rental_uris":{"android":"levelo://app?vid=4b3417a6-1f1f-4163-87a9-5c0d16767f2a","ios":"levelo://app?vid=4b3417a6-1f1f-4163-87a9-5c0d16767f2a"},"vehicle_type_id":"4","last_reported":1769603304,"current_range_meters":4000,"station_id":"st_d3svhcjqgbts73a3dn0g","pricing_plan_id":"cebpf4jnsgd1na2vs0mg"},{"bike_id":"78aa4272-c4e4-4137-8530-4c40847f1cd9","system_id":"levelo_inurba_marseille","lat":43.305279,"lon":5.367262,"is_reserved":false,"is_disabled":false,"rental_uris":{"android":"levelo://app?vid=78aa4272-c4e4-4137-8530-4c40847f1cd9","ios":"levelo://app?vid=78aa4272-c4e4-4137-8530-4c40847f1cd9"},"vehicle_type_id":"4","last_reported":1769603304,"current_range_meters":4000,"station_id":"","pricing_plan_id":"cebpf4jnsgd1na2vs0mg"},{"bike_id":"caf214c6-f51e-422f-a150-65a2d01f29fe","system_id":"levelo_inurba_marseille","lat":43.33255,"lon":5.36598,"is_reserved":false,"is_disabled":false,"rental_uris":{"android":"levelo://app?vid=caf214c6-f51e-422f-a150-65a2d01f29fe","ios":"levelo://app?vid=caf214c6-f51e-422f-a150-65a2d01f29fe"},"vehicle_type_id":"4","last_reported":1769603304,"current_range_meters":4000,"station_id":"","pricing_plan_id":"cebpf4jnsgd1na2vs0mg"},{"bike_id":"1688c340-73c6-4485-acbc-c94dbb7532d1","system_id":"levelo_inurba_marseille","lat":43.29267,"lon":5.37624,"is_reserved":false,"is_disabled":false,"rental_uris":{"android":"levelo://app?vid=1688c340-73c6-4485-acbc-c94dbb7532d1","ios":"levelo://app?vid=1688c340-73c6-4485-acbc-c94dbb7532d1"},"vehicle_type_id":"4","last_reported":1769603304,"current_range_meters":4000,"station_id":"ce4bgi12rcd13ifvqb80","pricing_plan_id":"cebpf4jnsgd1na2vs0mg"},{"bike_id":"a877ff0d-924e-49b8-b58e-9952f8ccded5","system_id":"levelo_inurba_marseille","lat":43.31172,"lon":5.38709,"is_reserved":false,"is_disabled":false,"rental_uris":{"android":"levelo://app?vid=a877ff0d-924e-49b8-b58e-9952f8ccded5","ios":"levelo://app?vid=a877ff0d-924e-49b8-b58e-9952f8ccded5"},"vehicle_type_id":"4","last_reported":1769603304,"current_range_meters":4400,"station_id":"ce4bgv12rcd13ifvqcp0","pricing_plan_id":"cebpf4jnsgd1na2vs0mg"},{"bike_id":"51b8f39f-e87e-4327-a9b7-dad481cf0cba","system_id":"levelo_inurba_marseille","lat":43.23795,"lon":5.36623,"is_reserved":false,"is_disabled":false,"rental_uris":{"android":"levelo://app?vid=51b8f39f-e87e-4327-a9b7-dad481cf0cba","ios":"levelo://app?vid=51b8f39f-e87e-4327-a9b7-dad481cf0cba"},"vehicle_type_id":"4","last_reported":1769603304,"current_range_meters":4400,"station_id":"st_d3nk18o9ro0c73en2l3g","pricing_plan_id":"cebpf4jnsgd1na2vs0mg"},{"bike_id":"8a225959-9028-4e8e-bb41-43f7382c386a","system_id":"levelo_inurba_marseille","lat":43.25428,"lon":5.39583,"is_reserved":false,"is_disabled":false,"rental_uris":{"android":"levelo://app?vid=8a225959-9028-4e8e-bb41-43f7382c386a","ios":"levelo://app?vid=8a225959-9028-4e8e-bb41-43f7382c386a"},"vehicle_type_id":"4","last_reported":1769603304,"current_range_meters":4400,"station_id":"","pricing_plan_id":"cebpf4jnsgd1na2vs0mg"},{"bike_id":"ddb2a730-30fd-4588-a2fb-a734e53f0d24","system_id":"levelo_inurba_marseille","lat":43.30911,"lon":5.37477,"is_reserved":false,"is_disabled":false,"rental_uris":{"android":"levelo://app?vid=ddb2a730-30fd-4588-a2fb-a734e53f0d24","ios":"levelo://app?vid=ddb2a730-30fd-4588-a2fb-a734e53f0d24"},"vehicle_type_id":"4","last_reported":1769603304,"current_range_meters":4400,"station_id":"","pricing_plan_id":"cebpf4jnsgd1na2vs0mg"},{"bike_id":"175e5f71-fbb3-4254-8434-f47a57e9bda6","system_id":"levelo_inurba_marseille","lat":43.23152,"lon":5.4371,"is_reserved":false,"is_disabled":false,"rental_uris":{"android":"levelo://app?vid=175e5f71-fbb3-4254-8434-f47a57e9bda6","ios":"levelo://app?vid=175e5f71-fbb3-4254-8434-f47a57e9bda6"},"vehicle_type_id":"4","last_reported":1769603304,"current_range_meters":4400,"station_id":"ce4bhmp2rcd13ifvqgog","pricing_plan_id":"cebpf4jnsgd1na2vs0mg"},{"bike_id":"773a0794-9608-48d0-ac87-744f6b7bca0d","system_id":"levelo_inurba_marseille","lat":43.22546,"lon":5.41625,"is_reserved":false,"is_disabled":false,"rental_uris":{"android":"levelo://app?vid=773a0794-9608-48d0-ac87-744f6b7bca0d","ios":"levelo://app?vid=773a0794-9608-48d0-ac87-744f6b7bca0d"},"vehicle_type_id":"4","last_reported":1769603304,"current_range_meters":4400,"station_id":"st_d2o4gvlbi1j2169b742g","pricing_plan_id":"cebpf4jnsgd1na2vs0mg"},{"bike_id":"27f194a5-e968-4a9b-97d7-2d76fb04828c","system_id":"levelo_inurba_marseille","lat":43.26684,"lon":5.38273,"is_reserved":false,"is_disabled":false,"rental_uris":{"android":"levelo://app?vid=27f194a5-e968-4a9b-97d7-2d76fb04828c","ios":"levelo://app?vid=27f194a5-e968-4a9b-97d7-2d76fb04828c"},"vehicle_type_id":"4","last_reported":1769603304,"current_range_meters":4400,"station_id":"ce4bhg92rcd13ifvqf90","pricing_plan_id":"cebpf4jnsgd1na2vs0mg"},{"bike_id":"38939492-5112-461d-8788-f383260a8286","system_id":"levelo_inurba_marseille","lat":43.33152,"lon":5.37707,"is_reserved":false,"is_disabled":false,"rental_uris":{"android":"levelo://app?vid=38939492-5112-461d-8788-f383260a8286","ios":"levelo://app?vid=38939492-5112-461d-8788-f383260a8286"},"vehicle_type_id":"4","last_reported":1769603304,"current_range_meters":4400,"station_id":"st_d46cu089ee8s73dldbu0","pricing_plan_id":"cebpf4jnsgd1na2vs0mg"},{"bike_id":"5629f77c-efd7-418d-a053-3ace41b8a029","system_id":"levelo_inurba_marseille","lat":43.282634,"lon":5.350743,"is_reserved":false,"is_disabled":false,"rental_uris":{"android":"levelo://app?vid=5629f77c-efd7-418d-a053-3ace41b8a029","ios":"levelo://app?vid=5629f77c-efd7-418d-a053-3ace41b8a029"},"vehicle_type_id":"4","last_reported":1769603304,"current_range_meters":4400,"station_id":"ce4bhbp2rcd13ifvqerg","pricing_plan_id":"cebpf4jnsgd1na2vs0mg"},{"bike_id":"db91af1c-8610-46d2-8811-cba210a8ff4f","system_id":"levelo_inurba_marseille","lat":43.33281,"lon":5.37958,"is_reserved":false,"is_disabled":false,"rental_uris":{"android":"levelo://app?vid=db91af1c-8610-46d2-8811-cba210a8ff4f","ios":"levelo://app?vid=db91af1c-8610-46d2-8811-cba210a8ff4f"},"vehicle_type_id":"4","last_reported":1769603304,"current_range_meters":4400,"station_id":"","pricing_plan_id":"cebpf4jnsgd1na2vs0mg"},{"bike_id":"a997154f-4a72-4820-b602-9de2c46bda7b","system_id":"levelo_inurba_marseille","lat":43.28328,"lon":5.38134,"is_reserved":false,"is_disabled":false,"rental_uris":{"android":"levelo://app?vid=a997154f-4a72-4820-b602-9de2c46bda7b","ios":"levelo://app?vid=a997154f-4a72-4820-b602-9de2c46bda7b"},"vehicle_type_id":"4","last_reported":1769603304,"current_range_meters":4400,"station_id":"ce4bh412rcd13ifvqdr0","pricing_plan_id":"cebpf4jnsgd1na2vs0mg"},{"bike_id":"a712c9e9-c045-4ed2-b0ce-1fd06fa0cd07","system_id":"levelo_inurba_marseille","lat":43.28722,"lon":5.37923,"is_reserved":false,"is_disabled":false,"rental_uris":{"android":"levelo://app?vid=a712c9e9-c045-4ed2-b0ce-1fd06fa0cd07","ios":"levelo://app?vid=a712c9e9-c045-4ed2-b0ce-1fd06fa0cd07"},"vehicle_type_id":"4","last_reported":1769603304,"current_range_meters":4800,"station_id":"ce4bh9p2rcd13ifvqec0","pricing_plan_id":"cebpf4jnsgd1na2vs0mg"},{"bike_id":"70e6e4b1-7efc-43fa-b416-14145ad2c461","system_id":"levelo_inurba_marseille","lat":43.27925,"lon":5.40889,"is_reserved":false,"is_disabled":false,"rental_uris":{"android":"levelo://app?vid=70e6e4b1-7efc-43fa-b416-14145ad2c461","ios":"levelo://app?vid=70e6e4b1-7efc-43fa-b416-14145ad2c461"},"vehicle_type_id":"4","last_reported":1769603304,"current_range_meters":4800,"station_id":"","pricing_plan_id":"cebpf4jnsgd1na2vs0mg"},{"bike_id":"8f2c85c3-3510-435d-85e9-5dd477c18650","system_id":"levelo_inurba_marseille","lat":43.23184,"lon":5.39993,"is_reserved":false,"is_disabled":false,"rental_uris":{"android":"levelo://app?vid=8f2c85c3-3510-435d-85e9-5dd477c18650","ios":"levelo://app?vid=8f2c85c3-3510-435d-85e9-5dd477c18650"},"vehicle_type_id":"4","last_reported":1769603304,"current_range_meters":4800,"station_id":"ce4bhn12rcd13ifvqgqg","pricing_plan_id":"cebpf4jnsgd1na2vs0mg"},{"bike_id":"eeec3323-1eab-4171-a774-187bc3a536e5","system_id":"levelo_inurba_marseille","lat":43.29948,"lon":5.365428,"is_reserved":false,"is_disabled":false,"rental_uris":{"android":"levelo://app?vid=eeec3323-1eab-4171-a774-187bc3a536e5","ios":"levelo://app?vid=eeec3323-1eab-4171-a774-187bc3a536e5"},"vehicle_type_id":"4","last_reported":1769603304,"current_range_meters":4800,"station_id":"ce4bgm92rcd13ifvqbr0","pricing_plan_id":"cebpf4jnsgd1na2vs0mg"},{"bike_id":"ec6cd7cd-b5d0-46e7-a3c8-0526c2ec4592","system_id":"levelo_inurba_marseille","lat":43.28419,"lon":5.34983,"is_reserved":false,"is_disabled":false,"rental_uris":{"android":"levelo://app?vid=ec6cd7cd-b5d0-46e7-a3c8-0526c2ec4592","ios":"levelo://app?vid=ec6cd7cd-b5d0-46e7-a3c8-0526c2ec4592"},"vehicle_type_id":"4","last_reported":1769603304,"current_range_meters":4800,"station_id":"ce4bhbh2rcd13ifvqepg","pricing_plan_id":"cebpf4jnsgd1na2vs0mg"},{"bike_id":"0e3e56a8-c028-4a2f-88ed-6334be577f88","system_id":"levelo_inurba_marseille","lat":43.23165,"lon":5.43719,"is_reserved":false,"is_disabled":false,"rental_uris":{"android":"levelo://app?vid=0e3e56a8-c028-4a2f-88ed-6334be577f88","ios":"levelo://app?vid=0e3e56a8-c028-4a2f-88ed-6334be577f88"},"vehicle_type_id":"4","last_reported":1769603304,"current_range_meters":4800,"station_id":"ce4bhmp2rcd13ifvqgog","pricing_plan_id":"cebpf4jnsgd1na2vs0mg"},{"bike_id":"aef10846-628b-4472-b735-88d2fcb27420","system_id":"levelo_inurba_marseille","lat":43.2792,"lon":5.39584,"is_reserved":false,"is_disabled":true,"rental_uris":{"android":"levelo://app?vid=aef10846-628b-4472-b735-88d2fcb27420","ios":"levelo://app?vid=aef10846-628b-4472-b735-88d2fcb27420"},"vehicle_type_id":"4","last_reported":1769603304,"current_range_meters":4800,"station_id":"ce4bhf92rcd13ifvqf40","pricing_plan_id":"cebpf4jnsgd1na2vs0mg"},{"bike_id":"66b53d6a-3c00-42ec-b9d6-c6c8259b1a95","system_id":"levelo_inurba_marseille","lat":43.337444,"lon":5.374475,"is_reserved":false,"is_disabled":false,"rental_uris":{"android":"levelo://app?vid=66b53d6a-3c00-42ec-b9d6-c6c8259b1a95","ios":"levelo://app?vid=66b53d6a-3c00-42ec-b9d6-c6c8259b1a95"},"vehicle_type_id":"4","last_reported":1769603304,"current_range_meters":4800,"station_id":"","pricing_plan_id":"cebpf4jnsgd1na2vs0mg"},{"bike_id":"2e77998e-c517-4f35-8821-169fc0fea54e","system_id":"levelo_inurba_marseille","lat":43.232,"lon":5.35548,"is_reserved":false,"is_disabled":false,"rental_uris":{"android":"levelo://app?vid=2e77998e-c517-4f35-8821-169fc0fea54e","ios":"levelo://app?vid=2e77998e-c517-4f35-8821-169fc0fea54e"},"vehicle_type_id":"4","last_reported":1769603304,"current_range_meters":4800,"station_id":"ce4bhu92rcd13ifvqi70","pricing_plan_id":"cebpf4jnsgd1na2vs0mg"},{"bike_id":"730f088c-00d8-4b8f-a391-1a0afdcd34ad","system_id":"levelo_inurba_marseille","lat":43.25941,"lon":5.40897,"is_reserved":false,"is_disabled":false,"rental_uris":{"android":"levelo://app?vid=730f088c-00d8-4b8f-a391-1a0afdcd34ad","ios":"levelo://app?vid=730f088c-00d8-4b8f-a391-1a0afdcd34ad"},"vehicle_type_id":"4","last_reported":1769603304,"current_range_meters":5600,"station_id":"ce4bhm92rcd13ifvqglg","pricing_plan_id":"cebpf4jnsgd1na2vs0mg"},{"bike_id":"d2c4eb74-42b0-4647-9a1a-00c8b86dfe4c","system_id":"levelo_inurba_marseille","lat":43.25822,"lon":5.39443,"is_reserved":false,"is_disabled":false,"rental_uris":{"android":"levelo://app?vid=d2c4eb74-42b0-4647-9a1a-00c8b86dfe4c","ios":"levelo://app?vid=d2c4eb74-42b0-4647-9a1a-00c8b86dfe4c"},"vehicle_type_id":"4","last_reported":1769603304,"current_range_meters":5600,"station_id":"ce4bhip2rcd13ifvqft0","pricing_plan_id":"cebpf4jnsgd1na2vs0mg"},{"bike_id":"3bc5eb93-5e52-4f30-bca7-1c72bb708566","system_id":"levelo_inurba_marseille","lat":43.30905,"lon":5.3718,"is_reserved":false,"is_disabled":false,"rental_uris":{"android":"levelo://app?vid=3bc5eb93-5e52-4f30-bca7-1c72bb708566","ios":"levelo://app?vid=3bc5eb93-5e52-4f30-bca7-1c72bb708566"},"vehicle_type_id":"4","last_reported":1769603304,"current_range_meters":5600,"station_id":"ce4bguh2rcd13ifvqckg","pricing_plan_id":"cebpf4jnsgd1na2vs0mg"},{"bike_id":"5b541917-86b0-46e9-b782-3fdbd5f814c3","system_id":"levelo_inurba_marseille","lat":43.27701,"lon":5.38891,"is_reserved":false,"is_disabled":false,"rental_uris":{"android":"levelo://app?vid=5b541917-86b0-46e9-b782-3fdbd5f814c3","ios":"levelo://app?vid=5b541917-86b0-46e9-b782-3fdbd5f814c3"},"vehicle_type_id":"4","last_reported":1769603304,"current_range_meters":5600,"station_id":"ce4bhi12rcd13ifvqfo0","pricing_plan_id":"cebpf4jnsgd1na2vs0mg"},{"bike_id":"3dd2411b-f8de-4a30-814e-1da4b7a8334b","system_id":"levelo_inurba_marseille","lat":43.27205,"lon":5.39172,"is_reserved":false,"is_disabled":false,"rental_uris":{"android":"levelo://app?vid=3dd2411b-f8de-4a30-814e-1da4b7a8334b","ios":"levelo://app?vid=3dd2411b-f8de-4a30-814e-1da4b7a8334b"},"vehicle_type_id":"4","last_reported":1769603304,"current_range_meters":5600,"station_id":"ce4bhhp2rcd13ifvqfm0","pricing_plan_id":"cebpf4jnsgd1na2vs0mg"},{"bike_id":"958b43fb-8c80-4692-977b-3f50e641a707","system_id":"levelo_inurba_marseille","lat":43.25933,"lon":5.40923,"is_reserved":false,"is_disabled":false,"rental_uris":{"android":"levelo://app?vid=958b43fb-8c80-4692-977b-3f50e641a707","ios":"levelo://app?vid=958b43fb-8c80-4692-977b-3f50e641a707"},"vehicle_type_id":"4","last_reported":1769603304,"current_range_meters":5600,"station_id":"ce4bhm92rcd13ifvqglg","pricing_plan_id":"cebpf4jnsgd1na2vs0mg"},{"bike_id":"d89cf35e-ea72-4be0-abab-d87970f6484a","system_id":"levelo_inurba_marseille","lat":43.30555,"lon":5.36532,"is_reserved":false,"is_disabled":false,"rental_uris":{"android":"levelo://app?vid=d89cf35e-ea72-4be0-abab-d87970f6484a","ios":"levelo://app?vid=d89cf35e-ea72-4be0-abab-d87970f6484a"},"vehicle_type_id":"4","last_reported":1769603304,"current_range_meters":5600,"station_id":"ce4bgs12rcd13ifvqcag","pricing_plan_id":"cebpf4jnsgd1na2vs0mg"},{"bike_id":"36f7b4ee-973d-4746-b0ea-83fb14c68c00","system_id":"levelo_inurba_marseille","lat":43.31887,"lon":5.40734,"is_reserved":false,"is_disabled":false,"rental_uris":{"android":"levelo://app?vid=36f7b4ee-973d-4746-b0ea-83fb14c68c00","ios":"levelo://app?vid=36f7b4ee-973d-4746-b0ea-83fb14c68c00"},"vehicle_type_id":"4","last_reported":1769603304,"current_range_meters":5600,"station_id":"ce4bhq12rcd13ifvqhig","pricing_plan_id":"cebpf4jnsgd1na2vs0mg"},{"bike_id":"cd02ba22-612e-4831-90a9-3caddc641598","system_id":"levelo_inurba_marseille","lat":43.27206,"lon":5.39182,"is_reserved":false,"is_disabled":false,"rental_uris":{"android":"levelo://app?vid=cd02ba22-612e-4831-90a9-3caddc641598","ios":"levelo://app?vid=cd02ba22-612e-4831-90a9-3caddc641598"},"vehicle_type_id":"4","last_reported":1769603304,"current_range_meters":5600,"station_id":"ce4bhhp2rcd13ifvqfm0","pricing_plan_id":"cebpf4jnsgd1na2vs0mg"},{"bike_id":"abee8780-ae36-4054-bd72-bac8e13e66b1","system_id":"levelo_inurba_marseille","lat":43.24176,"lon":5.36391,"is_reserved":false,"is_disabled":false,"rental_uris":{"android":"levelo://app?vid=abee8780-ae36-4054-bd72-bac8e13e66b1","ios":"levelo://app?vid=abee8780-ae36-4054-bd72-bac8e13e66b1"},"vehicle_type_id":"4","last_reported":1769603304,"current_range_meters":5600,"station_id":"cpo36qri1sfpv3e86is0","pricing_plan_id":"cebpf4jnsgd1na2vs0mg"},{"bike_id":"71042b96-000f-4e7a-bb56-f5d8e1c37566","system_id":"levelo_inurba_marseille","lat":43.307116,"lon":5.367907,"is_reserved":false,"is_disabled":false,"rental_uris":{"android":"levelo://app?vid=71042b96-000f-4e7a-bb56-f5d8e1c37566","ios":"levelo://app?vid=71042b96-000f-4e7a-bb56-f5d8e1c37566"},"vehicle_type_id":"4","last_reported":1769603304,"current_range_meters":5600,"station_id":"ce4bgn92rcd13ifvqbvg","pricing_plan_id":"cebpf4jnsgd1na2vs0mg"},{"bike_id":"5ec5e39e-3ed1-40f6-847f-e3215d6e9aa5","system_id":"levelo_inurba_marseille","lat":43.28426,"lon":5.3498,"is_reserved":false,"is_disabled":false,"rental_uris":{"android":"levelo://app?vid=5ec5e39e-3ed1-40f6-847f-e3215d6e9aa5","ios":"levelo://app?vid=5ec5e39e-3ed1-40f6-847f-e3215d6e9aa5"},"vehicle_type_id":"4","last_reported":1769603304,"current_range_meters":5600,"station_id":"ce4bhbh2rcd13ifvqepg","pricing_plan_id":"cebpf4jnsgd1na2vs0mg"},{"bike_id":"2cbc7424-7b65-4052-8f3c-87c3539bab9f","system_id":"levelo_inurba_marseille","lat":43.29752,"lon":5.38005,"is_reserved":false,"is_disabled":false,"rental_uris":{"android":"levelo://app?vid=2cbc7424-7b65-4052-8f3c-87c3539bab9f","ios":"levelo://app?vid=2cbc7424-7b65-4052-8f3c-87c3539bab9f"},"vehicle_type_id":"4","last_reported":1769603304,"current_range_meters":6000,"station_id":"","pricing_plan_id":"cebpf4jnsgd1na2vs0mg"},{"bike_id":"71474573-e139-42f3-bf94-d0fc6a99c0c9","system_id":"levelo_inurba_marseille","lat":43.281561,"lon":5.426352,"is_reserved":false,"is_disabled":false,"rental_uris":{"android":"levelo://app?vid=71474573-e139-42f3-bf94-d0fc6a99c0c9","ios":"levelo://app?vid=71474573-e139-42f3-bf94-d0fc6a99c0c9"},"vehicle_type_id":"4","last_reported":1769603304,"current_range_meters":6000,"station_id":"ce4bhnh2rcd13ifvqgug","pricing_plan_id":"cebpf4jnsgd1na2vs0mg"},{"bike_id":"1f27925c-ff25-4870-9c4e-ac24412cf67a","system_id":"levelo_inurba_marseille","lat":43.30086,"lon":5.37648,"is_reserved":false,"is_disabled":false,"rental_uris":{"android":"levelo://app?vid=1f27925c-ff25-4870-9c4e-ac24412cf67a","ios":"levelo://app?vid=1f27925c-ff25-4870-9c4e-ac24412cf67a"},"vehicle_type_id":"4","last_reported":1769603304,"current_range_meters":6000,"station_id":"","pricing_plan_id":"cebpf4jnsgd1na2vs0mg"},{"bike_id":"37898724-93a0-4c37-b4d2-86862ecb9561","system_id":"levelo_inurba_marseille","lat":43.24403,"lon":5.37078,"is_reserved":false,"is_disabled":false,"rental_uris":{"android":"levelo://app?vid=37898724-93a0-4c37-b4d2-86862ecb9561","ios":"levelo://app?vid=37898724-93a0-4c37-b4d2-86862ecb9561"},"vehicle_type_id":"4","last_reported":1769603304,"current_range_meters":6000,"station_id":"ce4bhhh2rcd13ifvqfk0","pricing_plan_id":"cebpf4jnsgd1na2vs0mg"},{"bike_id":"34bb4a39-c605-4c5f-a716-28f6d4e1a9bb","system_id":"levelo_inurba_marseille","lat":43.28396,"lon":5.37511,"is_reserved":false,"is_disabled":false,"rental_uris":{"android":"levelo://app?vid=34bb4a39-c605-4c5f-a716-28f6d4e1a9bb","ios":"levelo://app?vid=34bb4a39-c605-4c5f-a716-28f6d4e1a9bb"},"vehicle_type_id":"4","last_reported":1769603304,"current_range_meters":6000,"station_id":"ce4bh412rcd13ifvqds0","pricing_plan_id":"cebpf4jnsgd1na2vs0mg"},{"bike_id":"251146e2-ec72-43b0-a9b4-a10323a3d397","system_id":"levelo_inurba_marseille","lat":43.27417,"lon":5.39408,"is_reserved":false,"is_disabled":false,"rental_uris":{"android":"levelo://app?vid=251146e2-ec72-43b0-a9b4-a10323a3d397","ios":"levelo://app?vid=251146e2-ec72-43b0-a9b4-a10323a3d397"},"vehicle_type_id":"4","last_reported":1769603304,"current_range_meters":6000,"station_id":"ce4bhdp2rcd13ifvqf20","pricing_plan_id":"cebpf4jnsgd1na2vs0mg"},{"bike_id":"832ba7eb-1c35-43cb-be63-61f58639df63","system_id":"levelo_inurba_marseille","lat":43.32375,"lon":5.36741,"is_reserved":false,"is_disabled":false,"rental_uris":{"android":"levelo://app?vid=832ba7eb-1c35-43cb-be63-61f58639df63","ios":"levelo://app?vid=832ba7eb-1c35-43cb-be63-61f58639df63"},"vehicle_type_id":"4","last_reported":1769603304,"current_range_meters":6000,"station_id":"ce4bhsh2rcd13ifvqi2g","pricing_plan_id":"cebpf4jnsgd1na2vs0mg"},{"bike_id":"9f87aa0c-b33c-4139-a4c2-7bae7dcb2add","system_id":"levelo_inurba_marseille","lat":43.26531,"lon":5.4035,"is_reserved":false,"is_disabled":false,"rental_uris":{"android":"levelo://app?vid=9f87aa0c-b33c-4139-a4c2-7bae7dcb2add","ios":"levelo://app?vid=9f87aa0c-b33c-4139-a4c2-7bae7dcb2add"},"vehicle_type_id":"4","last_reported":1769603304,"current_range_meters":6000,"station_id":"ce4bhmp2rcd13ifvqgng","pricing_plan_id":"cebpf4jnsgd1na2vs0mg"},{"bike_id":"8de525a9-5bd3-43a9-9291-a02ed36bbc58","system_id":"levelo_inurba_marseille","lat":43.33163,"lon":5.37697,"is_reserved":false,"is_disabled":false,"rental_uris":{"android":"levelo://app?vid=8de525a9-5bd3-43a9-9291-a02ed36bbc58","ios":"levelo://app?vid=8de525a9-5bd3-43a9-9291-a02ed36bbc58"},"vehicle_type_id":"4","last_reported":1769603304,"current_range_meters":6000,"station_id":"st_d46cu089ee8s73dldbu0","pricing_plan_id":"cebpf4jnsgd1na2vs0mg"},{"bike_id":"43cdc93d-f3f2-47d5-9737-990cb5438b9e","system_id":"levelo_inurba_marseille","lat":43.33128,"lon":5.37709,"is_reserved":false,"is_disabled":false,"rental_uris":{"android":"levelo://app?vid=43cdc93d-f3f2-47d5-9737-990cb5438b9e","ios":"levelo://app?vid=43cdc93d-f3f2-47d5-9737-990cb5438b9e"},"vehicle_type_id":"4","last_reported":1769603304,"current_range_meters":6000,"station_id":"st_d46cu089ee8s73dldbu0","pricing_plan_id":"cebpf4jnsgd1na2vs0mg"},{"bike_id":"7c2c6188-24f4-45f3-8d60-9f685b2c2b74","system_id":"levelo_inurba_marseille","lat":43.31096,"lon":5.37744,"is_reserved":false,"is_disabled":false,"rental_uris":{"android":"levelo://app?vid=7c2c6188-24f4-45f3-8d60-9f685b2c2b74","ios":"levelo://app?vid=7c2c6188-24f4-45f3-8d60-9f685b2c2b74"},"vehicle_type_id":"4","last_reported":1769603304,"current_range_meters":6000,"station_id":"ce4bgt92rcd13ifvqcg0","pricing_plan_id":"cebpf4jnsgd1na2vs0mg"},{"bike_id":"30d5ad6b-daa5-4699-ad03-8950354a49a5","system_id":"levelo_inurba_marseille","lat":43.32135,"lon":5.36782,"is_reserved":false,"is_disabled":false,"rental_uris":{"android":"levelo://app?vid=30d5ad6b-daa5-4699-ad03-8950354a49a5","ios":"levelo://app?vid=30d5ad6b-daa5-4699-ad03-8950354a49a5"},"vehicle_type_id":"4","last_reported":1769603304,"current_range_meters":6000,"station_id":"ce4bhrh2rcd13ifvqhug","pricing_plan_id":"cebpf4jnsgd1na2vs0mg"},{"bike_id":"f9ae7f2f-5457-44fd-9d2d-f28092c57ba7","system_id":"levelo_inurba_marseille","lat":43.26493,"lon":5.39549,"is_reserved":false,"is_disabled":false,"rental_uris":{"android":"levelo://app?vid=f9ae7f2f-5457-44fd-9d2d-f28092c57ba7","ios":"levelo://app?vid=f9ae7f2f-5457-44fd-9d2d-f28092c57ba7"},"vehicle_type_id":"4","last_reported":1769603304,"current_range_meters":6000,"station_id":"ce4bhi12rcd13ifvqfq0","pricing_plan_id":"cebpf4jnsgd1na2vs0mg"},{"bike_id":"82a6b099-0577-4798-9a60-21fb38c2bbb7","system_id":"levelo_inurba_marseille","lat":43.29818,"lon":5.44077,"is_reserved":false,"is_disabled":false,"rental_uris":{"android":"levelo://app?vid=82a6b099-0577-4798-9a60-21fb38c2bbb7","ios":"levelo://app?vid=82a6b099-0577-4798-9a60-21fb38c2bbb7"},"vehicle_type_id":"4","last_reported":1769603304,"current_range_meters":6400,"station_id":"st_d3jp68qikq2c7381ktn0","pricing_plan_id":"cebpf4jnsgd1na2vs0mg"},{"bike_id":"fac05f0d-3f8e-4c73-9a70-4db007f85a93","system_id":"levelo_inurba_marseille","lat":43.29896,"lon":5.43671,"is_reserved":false,"is_disabled":false,"rental_uris":{"android":"levelo://app?vid=fac05f0d-3f8e-4c73-9a70-4db007f85a93","ios":"levelo://app?vid=fac05f0d-3f8e-4c73-9a70-4db007f85a93"},"vehicle_type_id":"4","last_reported":1769603304,"current_range_meters":6400,"station_id":"ce4bhpp2rcd13ifvqhfg","pricing_plan_id":"cebpf4jnsgd1na2vs0mg"},{"bike_id":"f52bb016-748e-431f-b1a5-60e3ac754844","system_id":"levelo_inurba_marseille","lat":43.29928,"lon":5.36535,"is_reserved":false,"is_disabled":false,"rental_uris":{"android":"levelo://app?vid=f52bb016-748e-431f-b1a5-60e3ac754844","ios":"levelo://app?vid=f52bb016-748e-431f-b1a5-60e3ac754844"},"vehicle_type_id":"4","last_reported":1769603304,"current_range_meters":6400,"station_id":"ce4bgm92rcd13ifvqbr0","pricing_plan_id":"cebpf4jnsgd1na2vs0mg"},{"bike_id":"e8f45a33-ec85-48b6-ae9b-6673515ea86a","system_id":"levelo_inurba_marseille","lat":43.30304,"lon":5.36885,"is_reserved":false,"is_disabled":false,"rental_uris":{"android":"levelo://app?vid=e8f45a33-ec85-48b6-ae9b-6673515ea86a","ios":"levelo://app?vid=e8f45a33-ec85-48b6-ae9b-6673515ea86a"},"vehicle_type_id":"4","last_reported":1769603304,"current_range_meters":6400,"station_id":"ce4bgqh2rcd13ifvqc5g","pricing_plan_id":"cebpf4jnsgd1na2vs0mg"},{"bike_id":"a69253cf-ad14-45b4-a376-a0b74b0251db","system_id":"levelo_inurba_marseille","lat":43.29599,"lon":5.38098,"is_reserved":false,"is_disabled":false,"rental_uris":{"android":"levelo://app?vid=a69253cf-ad14-45b4-a376-a0b74b0251db","ios":"levelo://app?vid=a69253cf-ad14-45b4-a376-a0b74b0251db"},"vehicle_type_id":"4","last_reported":1769603304,"current_range_meters":6400,"station_id":"ce4bgl12rcd13ifvqbo0","pricing_plan_id":"cebpf4jnsgd1na2vs0mg"},{"bike_id":"16339541-f3d1-4532-a8b0-a72ce5907e6f","system_id":"levelo_inurba_marseille","lat":43.2512,"lon":5.40312,"is_reserved":false,"is_disabled":false,"rental_uris":{"android":"levelo://app?vid=16339541-f3d1-4532-a8b0-a72ce5907e6f","ios":"levelo://app?vid=16339541-f3d1-4532-a8b0-a72ce5907e6f"},"vehicle_type_id":"4","last_reported":1769603304,"current_range_meters":6400,"station_id":"ce4bhlh2rcd13ifvqgig","pricing_plan_id":"cebpf4jnsgd1na2vs0mg"},{"bike_id":"7040bdbc-5052-46fd-9d78-6fb9765e379a","system_id":"levelo_inurba_marseille","lat":43.23973,"lon":5.36617,"is_reserved":false,"is_disabled":false,"rental_uris":{"android":"levelo://app?vid=7040bdbc-5052-46fd-9d78-6fb9765e379a","ios":"levelo://app?vid=7040bdbc-5052-46fd-9d78-6fb9765e379a"},"vehicle_type_id":"4","last_reported":1769603304,"current_range_meters":6400,"station_id":"ce4bhi12rcd13ifvqfp0","pricing_plan_id":"cebpf4jnsgd1na2vs0mg"},{"bike_id":"293e483c-1e3c-46c3-b7be-8f2ffab97441","system_id":"levelo_inurba_marseille","lat":43.33595,"lon":5.40971,"is_reserved":false,"is_disabled":false,"rental_uris":{"android":"levelo://app?vid=293e483c-1e3c-46c3-b7be-8f2ffab97441","ios":"levelo://app?vid=293e483c-1e3c-46c3-b7be-8f2ffab97441"},"vehicle_type_id":"4","last_reported":1769603304,"current_range_meters":6400,"station_id":"","pricing_plan_id":"cebpf4jnsgd1na2vs0mg"},{"bike_id":"e0dfeece-b248-44e5-b8de-55fb82f0d36c","system_id":"levelo_inurba_marseille","lat":43.30454,"lon":5.37895,"is_reserved":false,"is_disabled":false,"rental_uris":{"android":"levelo://app?vid=e0dfeece-b248-44e5-b8de-55fb82f0d36c","ios":"levelo://app?vid=e0dfeece-b248-44e5-b8de-55fb82f0d36c"},"vehicle_type_id":"4","last_reported":1769603304,"current_range_meters":6400,"station_id":"ce4bgup2rcd13ifvqcn0","pricing_plan_id":"cebpf4jnsgd1na2vs0mg"},{"bike_id":"1ad2e393-a92c-4f9d-816f-005ca727b14e","system_id":"levelo_inurba_marseille","lat":43.2315,"lon":5.43716,"is_reserved":false,"is_disabled":false,"rental_uris":{"android":"levelo://app?vid=1ad2e393-a92c-4f9d-816f-005ca727b14e","ios":"levelo://app?vid=1ad2e393-a92c-4f9d-816f-005ca727b14e"},"vehicle_type_id":"4","last_reported":1769603304,"current_range_meters":6400,"station_id":"ce4bhmp2rcd13ifvqgog","pricing_plan_id":"cebpf4jnsgd1na2vs0mg"},{"bike_id":"0e2af928-1823-41b4-be10-9ab8609a9a2e","system_id":"levelo_inurba_marseille","lat":43.24165,"lon":5.36421,"is_reserved":false,"is_disabled":false,"rental_uris":{"android":"levelo://app?vid=0e2af928-1823-41b4-be10-9ab8609a9a2e","ios":"levelo://app?vid=0e2af928-1823-41b4-be10-9ab8609a9a2e"},"vehicle_type_id":"4","last_reported":1769603304,"current_range_meters":6400,"station_id":"cpo36qri1sfpv3e86is0","pricing_plan_id":"cebpf4jnsgd1na2vs0mg"},{"bike_id":"55815b43-85cf-40ff-97dd-1477d8dcbf09","system_id":"levelo_inurba_marseille","lat":43.23147,"lon":5.43715,"is_reserved":false,"is_disabled":false,"rental_uris":{"android":"levelo://app?vid=55815b43-85cf-40ff-97dd-1477d8dcbf09","ios":"levelo://app?vid=55815b43-85cf-40ff-97dd-1477d8dcbf09"},"vehicle_type_id":"4","last_reported":1769603304,"current_range_meters":6400,"station_id":"ce4bhmp2rcd13ifvqgog","pricing_plan_id":"cebpf4jnsgd1na2vs0mg"},{"bike_id":"d8ebb893-ca25-4c70-acca-c7891950474a","system_id":"levelo_inurba_marseille","lat":43.29359,"lon":5.37857,"is_reserved":false,"is_disabled":false,"rental_uris":{"android":"levelo://app?vid=d8ebb893-ca25-4c70-acca-c7891950474a","ios":"levelo://app?vid=d8ebb893-ca25-4c70-acca-c7891950474a"},"vehicle_type_id":"4","last_reported":1769603304,"current_range_meters":6400,"station_id":"ce4bgjh2rcd13ifvqbf0","pricing_plan_id":"cebpf4jnsgd1na2vs0mg"},{"bike_id":"e435ef18-1ad4-429b-951e-0f6db25d708d","system_id":"levelo_inurba_marseille","lat":43.30462,"lon":5.39375,"is_reserved":false,"is_disabled":false,"rental_uris":{"android":"levelo://app?vid=e435ef18-1ad4-429b-951e-0f6db25d708d","ios":"levelo://app?vid=e435ef18-1ad4-429b-951e-0f6db25d708d"},"vehicle_type_id":"4","last_reported":1769603304,"current_range_meters":6400,"station_id":"","pricing_plan_id":"cebpf4jnsgd1na2vs0mg"},{"bike_id":"5432d7a0-1700-4fbb-98da-e9587b56686e","system_id":"levelo_inurba_marseille","lat":43.27618,"lon":5.36094,"is_reserved":false,"is_disabled":false,"rental_uris":{"android":"levelo://app?vid=5432d7a0-1700-4fbb-98da-e9587b56686e","ios":"levelo://app?vid=5432d7a0-1700-4fbb-98da-e9587b56686e"},"vehicle_type_id":"4","last_reported":1769603304,"current_range_meters":6800,"station_id":"ce4bgj92rcd13ifvqbe0","pricing_plan_id":"cebpf4jnsgd1na2vs0mg"},{"bike_id":"2b025830-a75f-4dd0-9345-1f4a2853b8f8","system_id":"levelo_inurba_marseille","lat":43.32346,"lon":5.36728,"is_reserved":false,"is_disabled":false,"rental_uris":{"android":"levelo://app?vid=2b025830-a75f-4dd0-9345-1f4a2853b8f8","ios":"levelo://app?vid=2b025830-a75f-4dd0-9345-1f4a2853b8f8"},"vehicle_type_id":"4","last_reported":1769603304,"current_range_meters":6800,"station_id":"ce4bhsh2rcd13ifvqi2g","pricing_plan_id":"cebpf4jnsgd1na2vs0mg"},{"bike_id":"c9026cf3-bc60-41ac-ba3f-4fdf4bcb4586","system_id":"levelo_inurba_marseille","lat":43.25348,"lon":5.42159,"is_reserved":false,"is_disabled":false,"rental_uris":{"android":"levelo://app?vid=c9026cf3-bc60-41ac-ba3f-4fdf4bcb4586","ios":"levelo://app?vid=c9026cf3-bc60-41ac-ba3f-4fdf4bcb4586"},"vehicle_type_id":"4","last_reported":1769603304,"current_range_meters":6800,"station_id":"st_d2m65c5bi1j21697t3ng","pricing_plan_id":"cebpf4jnsgd1na2vs0mg"},{"bike_id":"701b1f82-872b-404a-b1b9-c04d698fc931","system_id":"levelo_inurba_marseille","lat":43.29014,"lon":5.3562,"is_reserved":false,"is_disabled":false,"rental_uris":{"android":"levelo://app?vid=701b1f82-872b-404a-b1b9-c04d698fc931","ios":"levelo://app?vid=701b1f82-872b-404a-b1b9-c04d698fc931"},"vehicle_type_id":"4","last_reported":1769603304,"current_range_meters":6800,"station_id":"ce4bhb92rcd13ifvqen0","pricing_plan_id":"cebpf4jnsgd1na2vs0mg"},{"bike_id":"83fc51a6-33d8-4514-8bb6-691df6dd60b4","system_id":"levelo_inurba_marseille","lat":43.30116,"lon":5.43118,"is_reserved":false,"is_disabled":false,"rental_uris":{"android":"levelo://app?vid=83fc51a6-33d8-4514-8bb6-691df6dd60b4","ios":"levelo://app?vid=83fc51a6-33d8-4514-8bb6-691df6dd60b4"},"vehicle_type_id":"4","last_reported":1769603304,"current_range_meters":6800,"station_id":"st_d3js3co5814s73ftftug","pricing_plan_id":"cebpf4jnsgd1na2vs0mg"},{"bike_id":"a3951293-9c0a-44f5-ba95-d7309dbd4917","system_id":"levelo_inurba_marseille","lat":43.3128,"lon":5.36828,"is_reserved":false,"is_disabled":false,"rental_uris":{"android":"levelo://app?vid=a3951293-9c0a-44f5-ba95-d7309dbd4917","ios":"levelo://app?vid=a3951293-9c0a-44f5-ba95-d7309dbd4917"},"vehicle_type_id":"4","last_reported":1769603304,"current_range_meters":6800,"station_id":"ce4bgl92rcd13ifvqbq0","pricing_plan_id":"cebpf4jnsgd1na2vs0mg"},{"bike_id":"2e4b5a78-8d5f-49ab-a32c-da3979878386","system_id":"levelo_inurba_marseille","lat":43.25483,"lon":5.37649,"is_reserved":false,"is_disabled":false,"rental_uris":{"android":"levelo://app?vid=2e4b5a78-8d5f-49ab-a32c-da3979878386","ios":"levelo://app?vid=2e4b5a78-8d5f-49ab-a32c-da3979878386"},"vehicle_type_id":"4","last_reported":1769603304,"current_range_meters":6800,"station_id":"ce4bhh12rcd13ifvqff0","pricing_plan_id":"cebpf4jnsgd1na2vs0mg"},{"bike_id":"a314aa3a-257c-4a25-888c-c8675cd8023a","system_id":"levelo_inurba_marseille","lat":43.30552,"lon":5.36517,"is_reserved":false,"is_disabled":false,"rental_uris":{"android":"levelo://app?vid=a314aa3a-257c-4a25-888c-c8675cd8023a","ios":"levelo://app?vid=a314aa3a-257c-4a25-888c-c8675cd8023a"},"vehicle_type_id":"4","last_reported":1769603304,"current_range_meters":6800,"station_id":"ce4bgs12rcd13ifvqcag","pricing_plan_id":"cebpf4jnsgd1na2vs0mg"},{"bike_id":"69015cf3-bc6b-446f-9be5-f6f422a1478d","system_id":"levelo_inurba_marseille","lat":43.28859,"lon":5.42516,"is_reserved":false,"is_disabled":false,"rental_uris":{"android":"levelo://app?vid=69015cf3-bc6b-446f-9be5-f6f422a1478d","ios":"levelo://app?vid=69015cf3-bc6b-446f-9be5-f6f422a1478d"},"vehicle_type_id":"4","last_reported":1769603304,"current_range_meters":6800,"station_id":"st_d3b462108ojc7389ooeg","pricing_plan_id":"cebpf4jnsgd1na2vs0mg"},{"bike_id":"dd025a3b-8d88-4cc7-98ea-d46d5c91c806","system_id":"levelo_inurba_marseille","lat":43.27213,"lon":5.40985,"is_reserved":false,"is_disabled":false,"rental_uris":{"android":"levelo://app?vid=dd025a3b-8d88-4cc7-98ea-d46d5c91c806","ios":"levelo://app?vid=dd025a3b-8d88-4cc7-98ea-d46d5c91c806"},"vehicle_type_id":"4","last_reported":1769603304,"current_range_meters":6800,"station_id":"ce4bhl12rcd13ifvqgf0","pricing_plan_id":"cebpf4jnsgd1na2vs0mg"},{"bike_id":"42f8414b-aac3-4531-a10a-d65bb6862d25","system_id":"levelo_inurba_marseille","lat":43.25343,"lon":5.42178,"is_reserved":false,"is_disabled":false,"rental_uris":{"android":"levelo://app?vid=42f8414b-aac3-4531-a10a-d65bb6862d25","ios":"levelo://app?vid=42f8414b-aac3-4531-a10a-d65bb6862d25"},"vehicle_type_id":"4","last_reported":1769603304,"current_range_meters":6800,"station_id":"st_d2m65c5bi1j21697t3ng","pricing_plan_id":"cebpf4jnsgd1na2vs0mg"},{"bike_id":"1f87ef8a-3044-4fd0-b65c-27ad6dcc8004","system_id":"levelo_inurba_marseille","lat":43.24947,"lon":5.40488,"is_reserved":false,"is_disabled":false,"rental_uris":{"android":"levelo://app?vid=1f87ef8a-3044-4fd0-b65c-27ad6dcc8004","ios":"levelo://app?vid=1f87ef8a-3044-4fd0-b65c-27ad6dcc8004"},"vehicle_type_id":"4","last_reported":1769603304,"current_range_meters":6800,"station_id":"st_d2ngiaodas8pm72gd1h0","pricing_plan_id":"cebpf4jnsgd1na2vs0mg"},{"bike_id":"11c0b822-ed21-4cc4-ae23-9767ba2abb5a","system_id":"levelo_inurba_marseille","lat":43.30558,"lon":5.36524,"is_reserved":false,"is_disabled":false,"rental_uris":{"android":"levelo://app?vid=11c0b822-ed21-4cc4-ae23-9767ba2abb5a","ios":"levelo://app?vid=11c0b822-ed21-4cc4-ae23-9767ba2abb5a"},"vehicle_type_id":"4","last_reported":1769603304,"current_range_meters":7200,"station_id":"ce4bgs12rcd13ifvqcag","pricing_plan_id":"cebpf4jnsgd1na2vs0mg"},{"bike_id":"1c28b0bd-3eca-46f6-a58a-d76a26f70029","system_id":"levelo_inurba_marseille","lat":43.25581,"lon":5.38242,"is_reserved":false,"is_disabled":false,"rental_uris":{"android":"levelo://app?vid=1c28b0bd-3eca-46f6-a58a-d76a26f70029","ios":"levelo://app?vid=1c28b0bd-3eca-46f6-a58a-d76a26f70029"},"vehicle_type_id":"4","last_reported":1769603304,"current_range_meters":7200,"station_id":"ce4bhih2rcd13ifvqfs0","pricing_plan_id":"cebpf4jnsgd1na2vs0mg"},{"bike_id":"7c70a630-f080-4d65-8f79-af323dbedc62","system_id":"levelo_inurba_marseille","lat":43.3012,"lon":5.43081,"is_reserved":false,"is_disabled":false,"rental_uris":{"android":"levelo://app?vid=7c70a630-f080-4d65-8f79-af323dbedc62","ios":"levelo://app?vid=7c70a630-f080-4d65-8f79-af323dbedc62"},"vehicle_type_id":"4","last_reported":1769603304,"current_range_meters":7200,"station_id":"st_d3js3co5814s73ftftug","pricing_plan_id":"cebpf4jnsgd1na2vs0mg"},{"bike_id":"72089be9-38d6-423c-b54b-444cdb64406b","system_id":"levelo_inurba_marseille","lat":43.28431,"lon":5.34981,"is_reserved":false,"is_disabled":false,"rental_uris":{"android":"levelo://app?vid=72089be9-38d6-423c-b54b-444cdb64406b","ios":"levelo://app?vid=72089be9-38d6-423c-b54b-444cdb64406b"},"vehicle_type_id":"4","last_reported":1769603304,"current_range_meters":7200,"station_id":"ce4bhbh2rcd13ifvqepg","pricing_plan_id":"cebpf4jnsgd1na2vs0mg"},{"bike_id":"234f7311-25dc-4b55-a0cb-d05382a81de7","system_id":"levelo_inurba_marseille","lat":43.30329,"lon":5.36902,"is_reserved":false,"is_disabled":false,"rental_uris":{"android":"levelo://app?vid=234f7311-25dc-4b55-a0cb-d05382a81de7","ios":"levelo://app?vid=234f7311-25dc-4b55-a0cb-d05382a81de7"},"vehicle_type_id":"4","last_reported":1769603304,"current_range_meters":7200,"station_id":"ce4bgqh2rcd13ifvqc5g","pricing_plan_id":"cebpf4jnsgd1na2vs0mg"},{"bike_id":"c86d42ac-229c-4818-930b-a7ffc82a6487","system_id":"levelo_inurba_marseille","lat":43.27963,"lon":5.38706,"is_reserved":false,"is_disabled":false,"rental_uris":{"android":"levelo://app?vid=c86d42ac-229c-4818-930b-a7ffc82a6487","ios":"levelo://app?vid=c86d42ac-229c-4818-930b-a7ffc82a6487"},"vehicle_type_id":"4","last_reported":1769603304,"current_range_meters":7200,"station_id":"ce4bhg12rcd13ifvqf80","pricing_plan_id":"cebpf4jnsgd1na2vs0mg"},{"bike_id":"215d9242-cc67-4957-98e5-94a2159c71f8","system_id":"levelo_inurba_marseille","lat":43.3237,"lon":5.36724,"is_reserved":false,"is_disabled":false,"rental_uris":{"android":"levelo://app?vid=215d9242-cc67-4957-98e5-94a2159c71f8","ios":"levelo://app?vid=215d9242-cc67-4957-98e5-94a2159c71f8"},"vehicle_type_id":"4","last_reported":1769603304,"current_range_meters":7200,"station_id":"ce4bhsh2rcd13ifvqi2g","pricing_plan_id":"cebpf4jnsgd1na2vs0mg"},{"bike_id":"863a71d0-8b41-4347-8cb9-2ac07c295d3a","system_id":"levelo_inurba_marseille","lat":43.29163,"lon":5.37149,"is_reserved":false,"is_disabled":false,"rental_uris":{"android":"levelo://app?vid=863a71d0-8b41-4347-8cb9-2ac07c295d3a","ios":"levelo://app?vid=863a71d0-8b41-4347-8cb9-2ac07c295d3a"},"vehicle_type_id":"4","last_reported":1769603304,"current_range_meters":7200,"station_id":"ce4bha92rcd13ifvqeh0","pricing_plan_id":"cebpf4jnsgd1na2vs0mg"},{"bike_id":"0ab6c478-2c78-44ad-a186-430f7a4b7533","system_id":"levelo_inurba_marseille","lat":43.27209,"lon":5.39187,"is_reserved":false,"is_disabled":false,"rental_uris":{"android":"levelo://app?vid=0ab6c478-2c78-44ad-a186-430f7a4b7533","ios":"levelo://app?vid=0ab6c478-2c78-44ad-a186-430f7a4b7533"},"vehicle_type_id":"4","last_reported":1769603304,"current_range_meters":7200,"station_id":"ce4bhhp2rcd13ifvqfm0","pricing_plan_id":"cebpf4jnsgd1na2vs0mg"},{"bike_id":"60c02f49-2adf-4424-ade8-9c6070d15506","system_id":"levelo_inurba_marseille","lat":43.25014,"lon":5.38935,"is_reserved":false,"is_disabled":false,"rental_uris":{"android":"levelo://app?vid=60c02f49-2adf-4424-ade8-9c6070d15506","ios":"levelo://app?vid=60c02f49-2adf-4424-ade8-9c6070d15506"},"vehicle_type_id":"4","last_reported":1769603304,"current_range_meters":7200,"station_id":"ce4bhgp2rcd13ifvqfd0","pricing_plan_id":"cebpf4jnsgd1na2vs0mg"},{"bike_id":"d75d722c-1278-467f-b25c-2eec7b30ce3e","system_id":"levelo_inurba_marseille","lat":43.29713,"lon":5.37706,"is_reserved":false,"is_disabled":false,"rental_uris":{"android":"levelo://app?vid=d75d722c-1278-467f-b25c-2eec7b30ce3e","ios":"levelo://app?vid=d75d722c-1278-467f-b25c-2eec7b30ce3e"},"vehicle_type_id":"4","last_reported":1769603304,"current_range_meters":7200,"station_id":"ce4bgkh2rcd13ifvqbl0","pricing_plan_id":"cebpf4jnsgd1na2vs0mg"},{"bike_id":"fbc926d5-cbfb-428e-955a-1c9b655184ab","system_id":"levelo_inurba_marseille","lat":43.31366,"lon":5.38491,"is_reserved":false,"is_disabled":false,"rental_uris":{"android":"levelo://app?vid=fbc926d5-cbfb-428e-955a-1c9b655184ab","ios":"levelo://app?vid=fbc926d5-cbfb-428e-955a-1c9b655184ab"},"vehicle_type_id":"4","last_reported":1769603304,"current_range_meters":7200,"station_id":"ce4bgt92rcd13ifvqcf0","pricing_plan_id":"cebpf4jnsgd1na2vs0mg"},{"bike_id":"7685a49c-8aa3-4105-b6c4-9b0fdec5d0f8","system_id":"levelo_inurba_marseille","lat":43.3149,"lon":5.37258,"is_reserved":false,"is_disabled":false,"rental_uris":{"android":"levelo://app?vid=7685a49c-8aa3-4105-b6c4-9b0fdec5d0f8","ios":"levelo://app?vid=7685a49c-8aa3-4105-b6c4-9b0fdec5d0f8"},"vehicle_type_id":"4","last_reported":1769603304,"current_range_meters":7200,"station_id":"ce4bgt12rcd13ifvqcd0","pricing_plan_id":"cebpf4jnsgd1na2vs0mg"},{"bike_id":"a31218b5-45f9-4cee-ae20-3afb077962a4","system_id":"levelo_inurba_marseille","lat":43.26679,"lon":5.38248,"is_reserved":false,"is_disabled":false,"rental_uris":{"android":"levelo://app?vid=a31218b5-45f9-4cee-ae20-3afb077962a4","ios":"levelo://app?vid=a31218b5-45f9-4cee-ae20-3afb077962a4"},"vehicle_type_id":"4","last_reported":1769603304,"current_range_meters":7200,"station_id":"ce4bhg92rcd13ifvqf90","pricing_plan_id":"cebpf4jnsgd1na2vs0mg"},{"bike_id":"84274319-ba59-4490-8672-0925ce71afad","system_id":"levelo_inurba_marseille","lat":43.29448,"lon":5.39751,"is_reserved":false,"is_disabled":false,"rental_uris":{"android":"levelo://app?vid=84274319-ba59-4490-8672-0925ce71afad","ios":"levelo://app?vid=84274319-ba59-4490-8672-0925ce71afad"},"vehicle_type_id":"4","last_reported":1769603304,"current_range_meters":7200,"station_id":"ce4bh3h2rcd13ifvqdo0","pricing_plan_id":"cebpf4jnsgd1na2vs0mg"},{"bike_id":"5d05d531-ebc5-422e-a94d-fab2e789248e","system_id":"levelo_inurba_marseille","lat":43.25087,"lon":5.39505,"is_reserved":false,"is_disabled":false,"rental_uris":{"android":"levelo://app?vid=5d05d531-ebc5-422e-a94d-fab2e789248e","ios":"levelo://app?vid=5d05d531-ebc5-422e-a94d-fab2e789248e"},"vehicle_type_id":"4","last_reported":1769603304,"current_range_meters":8000,"station_id":"ce4bhm12rcd13ifvqgkg","pricing_plan_id":"cebpf4jnsgd1na2vs0mg"},{"bike_id":"3b7f3048-013e-4bb0-8bd4-712c681bd263","system_id":"levelo_inurba_marseille","lat":43.31342,"lon":5.3971,"is_reserved":false,"is_disabled":false,"rental_uris":{"android":"levelo://app?vid=3b7f3048-013e-4bb0-8bd4-712c681bd263","ios":"levelo://app?vid=3b7f3048-013e-4bb0-8bd4-712c681bd263"},"vehicle_type_id":"4","last_reported":1769603304,"current_range_meters":8000,"station_id":"ce4bgvp2rcd13ifvqcu0","pricing_plan_id":"cebpf4jnsgd1na2vs0mg"},{"bike_id":"c4afb074-53a0-4d44-b5f4-69a59fdc18cd","system_id":"levelo_inurba_marseille","lat":43.24156,"lon":5.36416,"is_reserved":false,"is_disabled":false,"rental_uris":{"android":"levelo://app?vid=c4afb074-53a0-4d44-b5f4-69a59fdc18cd","ios":"levelo://app?vid=c4afb074-53a0-4d44-b5f4-69a59fdc18cd"},"vehicle_type_id":"4","last_reported":1769603304,"current_range_meters":8000,"station_id":"cpo36qri1sfpv3e86is0","pricing_plan_id":"cebpf4jnsgd1na2vs0mg"},{"bike_id":"edcf7268-9037-4d86-a040-f29b3b6258a5","system_id":"levelo_inurba_marseille","lat":43.32446,"lon":5.36619,"is_reserved":false,"is_disabled":false,"rental_uris":{"android":"levelo://app?vid=edcf7268-9037-4d86-a040-f29b3b6258a5","ios":"levelo://app?vid=edcf7268-9037-4d86-a040-f29b3b6258a5"},"vehicle_type_id":"4","last_reported":1769603304,"current_range_meters":8000,"station_id":"","pricing_plan_id":"cebpf4jnsgd1na2vs0mg"},{"bike_id":"c00d1abe-f6f3-4677-9b5b-65f2d4348ca7","system_id":"levelo_inurba_marseille","lat":43.23197,"lon":5.35555,"is_reserved":false,"is_disabled":false,"rental_uris":{"android":"levelo://app?vid=c00d1abe-f6f3-4677-9b5b-65f2d4348ca7","ios":"levelo://app?vid=c00d1abe-f6f3-4677-9b5b-65f2d4348ca7"},"vehicle_type_id":"4","last_reported":1769603304,"current_range_meters":8000,"station_id":"ce4bhu92rcd13ifvqi70","pricing_plan_id":"cebpf4jnsgd1na2vs0mg"},{"bike_id":"1d6b32ed-dde8-4831-851e-66657d346ed1","system_id":"levelo_inurba_marseille","lat":43.313611,"lon":5.367194,"is_reserved":false,"is_disabled":false,"rental_uris":{"android":"levelo://app?vid=1d6b32ed-dde8-4831-851e-66657d346ed1","ios":"levelo://app?vid=1d6b32ed-dde8-4831-851e-66657d346ed1"},"vehicle_type_id":"4","last_reported":1769603304,"current_range_meters":8000,"station_id":"ce4bgr92rcd13ifvqc6g","pricing_plan_id":"cebpf4jnsgd1na2vs0mg"},{"bike_id":"4a39372c-0ef2-41b6-bdd5-fbaa3b123a7c","system_id":"levelo_inurba_marseille","lat":43.26564,"lon":5.37285,"is_reserved":false,"is_disabled":false,"rental_uris":{"android":"levelo://app?vid=4a39372c-0ef2-41b6-bdd5-fbaa3b123a7c","ios":"levelo://app?vid=4a39372c-0ef2-41b6-bdd5-fbaa3b123a7c"},"vehicle_type_id":"4","last_reported":1769603304,"current_range_meters":8000,"station_id":"ce4bhg12rcd13ifvqf70","pricing_plan_id":"cebpf4jnsgd1na2vs0mg"},{"bike_id":"0e67fe98-9108-433b-9434-394fc2106387","system_id":"levelo_inurba_marseille","lat":43.24644,"lon":5.43142,"is_reserved":false,"is_disabled":false,"rental_uris":{"android":"levelo://app?vid=0e67fe98-9108-433b-9434-394fc2106387","ios":"levelo://app?vid=0e67fe98-9108-433b-9434-394fc2106387"},"vehicle_type_id":"4","last_reported":1769603304,"current_range_meters":8000,"station_id":"st_d2m6c4gdas8pm72e190g","pricing_plan_id":"cebpf4jnsgd1na2vs0mg"},{"bike_id":"41c91ad2-73b9-4699-b23d-1b5a65edd284","system_id":"levelo_inurba_marseille","lat":43.33537,"lon":5.37476,"is_reserved":false,"is_disabled":false,"rental_uris":{"android":"levelo://app?vid=41c91ad2-73b9-4699-b23d-1b5a65edd284","ios":"levelo://app?vid=41c91ad2-73b9-4699-b23d-1b5a65edd284"},"vehicle_type_id":"4","last_reported":1769603304,"current_range_meters":8000,"station_id":"","pricing_plan_id":"cebpf4jnsgd1na2vs0mg"},{"bike_id":"78d03db0-b708-4f88-803b-be42c5896239","system_id":"levelo_inurba_marseille","lat":43.33601,"lon":5.41015,"is_reserved":false,"is_disabled":false,"rental_uris":{"android":"levelo://app?vid=78d03db0-b708-4f88-803b-be42c5896239","ios":"levelo://app?vid=78d03db0-b708-4f88-803b-be42c5896239"},"vehicle_type_id":"4","last_reported":1769603304,"current_range_meters":8000,"station_id":"ce4bhqh2rcd13ifvqhmg","pricing_plan_id":"cebpf4jnsgd1na2vs0mg"},{"bike_id":"40d2c4f5-c3bd-4ea5-ba84-9ab34dcf6c2d","system_id":"levelo_inurba_marseille","lat":43.31222,"lon":5.36835,"is_reserved":false,"is_disabled":false,"rental_uris":{"android":"levelo://app?vid=40d2c4f5-c3bd-4ea5-ba84-9ab34dcf6c2d","ios":"levelo://app?vid=40d2c4f5-c3bd-4ea5-ba84-9ab34dcf6c2d"},"vehicle_type_id":"4","last_reported":1769603304,"current_range_meters":8000,"station_id":"ce4bgl92rcd13ifvqbq0","pricing_plan_id":"cebpf4jnsgd1na2vs0mg"},{"bike_id":"ba5c0ab7-6f53-4709-a08b-3ce80febb960","system_id":"levelo_inurba_marseille","lat":43.26229,"lon":5.40424,"is_reserved":false,"is_disabled":false,"rental_uris":{"android":"levelo://app?vid=ba5c0ab7-6f53-4709-a08b-3ce80febb960","ios":"levelo://app?vid=ba5c0ab7-6f53-4709-a08b-3ce80febb960"},"vehicle_type_id":"4","last_reported":1769603304,"current_range_meters":8000,"station_id":"ce4bhmh2rcd13ifvqgmg","pricing_plan_id":"cebpf4jnsgd1na2vs0mg"},{"bike_id":"0742544d-4cad-4f38-bacd-71d9b4def1ec","system_id":"levelo_inurba_marseille","lat":43.295773,"lon":5.37507,"is_reserved":false,"is_disabled":false,"rental_uris":{"android":"levelo://app?vid=0742544d-4cad-4f38-bacd-71d9b4def1ec","ios":"levelo://app?vid=0742544d-4cad-4f38-bacd-71d9b4def1ec"},"vehicle_type_id":"4","last_reported":1769603304,"current_range_meters":8000,"station_id":"ce4bgkp2rcd13ifvqbmg","pricing_plan_id":"cebpf4jnsgd1na2vs0mg"},{"bike_id":"69a8705c-622c-4687-befc-0e95f406c55e","system_id":"levelo_inurba_marseille","lat":43.22566,"lon":5.41633,"is_reserved":false,"is_disabled":false,"rental_uris":{"android":"levelo://app?vid=69a8705c-622c-4687-befc-0e95f406c55e","ios":"levelo://app?vid=69a8705c-622c-4687-befc-0e95f406c55e"},"vehicle_type_id":"4","last_reported":1769603304,"current_range_meters":8400,"station_id":"st_d2o4gvlbi1j2169b742g","pricing_plan_id":"cebpf4jnsgd1na2vs0mg"},{"bike_id":"b45c8d2c-8d88-4cef-8b61-a19c2da1c61e","system_id":"levelo_inurba_marseille","lat":43.3354,"lon":5.37465,"is_reserved":false,"is_disabled":false,"rental_uris":{"android":"levelo://app?vid=b45c8d2c-8d88-4cef-8b61-a19c2da1c61e","ios":"levelo://app?vid=b45c8d2c-8d88-4cef-8b61-a19c2da1c61e"},"vehicle_type_id":"4","last_reported":1769603304,"current_range_meters":8400,"station_id":"st_d46tts09ee8s73dlu43g","pricing_plan_id":"cebpf4jnsgd1na2vs0mg"},{"bike_id":"a6305a42-2141-4640-8070-a027ca70a32b","system_id":"levelo_inurba_marseille","lat":43.28217,"lon":5.39049,"is_reserved":false,"is_disabled":false,"rental_uris":{"android":"levelo://app?vid=a6305a42-2141-4640-8070-a027ca70a32b","ios":"levelo://app?vid=a6305a42-2141-4640-8070-a027ca70a32b"},"vehicle_type_id":"4","last_reported":1769603304,"current_range_meters":8400,"station_id":"ce4bhn92rcd13ifvqgsg","pricing_plan_id":"cebpf4jnsgd1na2vs0mg"},{"bike_id":"8f81f246-6d5d-41c6-a914-40ca18e88edd","system_id":"levelo_inurba_marseille","lat":43.33217,"lon":5.40242,"is_reserved":false,"is_disabled":false,"rental_uris":{"android":"levelo://app?vid=8f81f246-6d5d-41c6-a914-40ca18e88edd","ios":"levelo://app?vid=8f81f246-6d5d-41c6-a914-40ca18e88edd"},"vehicle_type_id":"4","last_reported":1769603304,"current_range_meters":8400,"station_id":"","pricing_plan_id":"cebpf4jnsgd1na2vs0mg"},{"bike_id":"a4707b56-8543-4650-b077-b13a35c19385","system_id":"levelo_inurba_marseille","lat":43.29561,"lon":5.37532,"is_reserved":false,"is_disabled":false,"rental_uris":{"android":"levelo://app?vid=a4707b56-8543-4650-b077-b13a35c19385","ios":"levelo://app?vid=a4707b56-8543-4650-b077-b13a35c19385"},"vehicle_type_id":"4","last_reported":1769603304,"current_range_meters":8400,"station_id":"ce4bgh92rcd13ifvqb50","pricing_plan_id":"cebpf4jnsgd1na2vs0mg"},{"bike_id":"6a8eee90-3975-4ec5-99bf-07ee51105bb1","system_id":"levelo_inurba_marseille","lat":43.290255,"lon":5.381375,"is_reserved":false,"is_disabled":false,"rental_uris":{"android":"levelo://app?vid=6a8eee90-3975-4ec5-99bf-07ee51105bb1","ios":"levelo://app?vid=6a8eee90-3975-4ec5-99bf-07ee51105bb1"},"vehicle_type_id":"4","last_reported":1769603304,"current_range_meters":8400,"station_id":"ce4bgjh2rcd13ifvqbg0","pricing_plan_id":"cebpf4jnsgd1na2vs0mg"},{"bike_id":"9ba0872b-a869-4522-9809-2326ba94ec06","system_id":"levelo_inurba_marseille","lat":43.30544,"lon":5.36517,"is_reserved":false,"is_disabled":false,"rental_uris":{"android":"levelo://app?vid=9ba0872b-a869-4522-9809-2326ba94ec06","ios":"levelo://app?vid=9ba0872b-a869-4522-9809-2326ba94ec06"},"vehicle_type_id":"4","last_reported":1769603304,"current_range_meters":8400,"station_id":"ce4bgs12rcd13ifvqcag","pricing_plan_id":"cebpf4jnsgd1na2vs0mg"},{"bike_id":"b160d3e8-6013-4e1d-a5e2-a6cbcdd77ebd","system_id":"levelo_inurba_marseille","lat":43.301388,"lon":5.374131,"is_reserved":false,"is_disabled":false,"rental_uris":{"android":"levelo://app?vid=b160d3e8-6013-4e1d-a5e2-a6cbcdd77ebd","ios":"levelo://app?vid=b160d3e8-6013-4e1d-a5e2-a6cbcdd77ebd"},"vehicle_type_id":"4","last_reported":1769603304,"current_range_meters":8400,"station_id":"ce4bgs92rcd13ifvqcc0","pricing_plan_id":"cebpf4jnsgd1na2vs0mg"},{"bike_id":"2fdd7372-7a1a-41fc-b3d0-637003fe8700","system_id":"levelo_inurba_marseille","lat":43.26208,"lon":5.37926,"is_reserved":false,"is_disabled":false,"rental_uris":{"android":"levelo://app?vid=2fdd7372-7a1a-41fc-b3d0-637003fe8700","ios":"levelo://app?vid=2fdd7372-7a1a-41fc-b3d0-637003fe8700"},"vehicle_type_id":"4","last_reported":1769603304,"current_range_meters":8400,"station_id":"ce4bhjp2rcd13ifvqg90","pricing_plan_id":"cebpf4jnsgd1na2vs0mg"},{"bike_id":"4d6c9886-c900-4f99-b9f8-03aa0164a59d","system_id":"levelo_inurba_marseille","lat":43.23152,"lon":5.43716,"is_reserved":false,"is_disabled":false,"rental_uris":{"android":"levelo://app?vid=4d6c9886-c900-4f99-b9f8-03aa0164a59d","ios":"levelo://app?vid=4d6c9886-c900-4f99-b9f8-03aa0164a59d"},"vehicle_type_id":"4","last_reported":1769603304,"current_range_meters":8400,"station_id":"","pricing_plan_id":"cebpf4jnsgd1na2vs0mg"},{"bike_id":"1ffbda22-e3ce-449b-8cf2-1a8499f4ffd7","system_id":"levelo_inurba_marseille","lat":43.26925,"lon":5.38661,"is_reserved":false,"is_disabled":true,"rental_uris":{"android":"levelo://app?vid=1ffbda22-e3ce-449b-8cf2-1a8499f4ffd7","ios":"levelo://app?vid=1ffbda22-e3ce-449b-8cf2-1a8499f4ffd7"},"vehicle_type_id":"4","last_reported":1769603304,"current_range_meters":8400,"station_id":"ce4bhh92rcd13ifvqfh0","pricing_plan_id":"cebpf4jnsgd1na2vs0mg"},{"bike_id":"452f769f-adc3-4ad7-809e-fe7e6a116547","system_id":"levelo_inurba_marseille","lat":43.295861,"lon":5.375168,"is_reserved":false,"is_disabled":false,"rental_uris":{"android":"levelo://app?vid=452f769f-adc3-4ad7-809e-fe7e6a116547","ios":"levelo://app?vid=452f769f-adc3-4ad7-809e-fe7e6a116547"},"vehicle_type_id":"4","last_reported":1769603304,"current_range_meters":8400,"station_id":"ce4bgh92rcd13ifvqb50","pricing_plan_id":"cebpf4jnsgd1na2vs0mg"},{"bike_id":"c5845baf-9f1a-482b-a6a9-83c61113307a","system_id":"levelo_inurba_marseille","lat":43.23068,"lon":5.3551,"is_reserved":false,"is_disabled":false,"rental_uris":{"android":"levelo://app?vid=c5845baf-9f1a-482b-a6a9-83c61113307a","ios":"levelo://app?vid=c5845baf-9f1a-482b-a6a9-83c61113307a"},"vehicle_type_id":"4","last_reported":1769603304,"current_range_meters":8400,"station_id":"cpo3342slgdg3j2ifvpg","pricing_plan_id":"cebpf4jnsgd1na2vs0mg"},{"bike_id":"a097c751-bb29-4ebe-bc02-881e85889070","system_id":"levelo_inurba_marseille","lat":43.28871,"lon":5.4251,"is_reserved":false,"is_disabled":false,"rental_uris":{"android":"levelo://app?vid=a097c751-bb29-4ebe-bc02-881e85889070","ios":"levelo://app?vid=a097c751-bb29-4ebe-bc02-881e85889070"},"vehicle_type_id":"4","last_reported":1769603304,"current_range_meters":8400,"station_id":"st_d3b462108ojc7389ooeg","pricing_plan_id":"cebpf4jnsgd1na2vs0mg"},{"bike_id":"3321b722-8e48-4e0a-b21f-521420aa604e","system_id":"levelo_inurba_marseille","lat":43.28995,"lon":5.3561,"is_reserved":false,"is_disabled":false,"rental_uris":{"android":"levelo://app?vid=3321b722-8e48-4e0a-b21f-521420aa604e","ios":"levelo://app?vid=3321b722-8e48-4e0a-b21f-521420aa604e"},"vehicle_type_id":"4","last_reported":1769603304,"current_range_meters":8400,"station_id":"ce4bhb92rcd13ifvqen0","pricing_plan_id":"cebpf4jnsgd1na2vs0mg"},{"bike_id":"7914e119-1614-4899-81d3-c50cda4c6e7a","system_id":"levelo_inurba_marseille","lat":43.23156,"lon":5.43701,"is_reserved":false,"is_disabled":false,"rental_uris":{"android":"levelo://app?vid=7914e119-1614-4899-81d3-c50cda4c6e7a","ios":"levelo://app?vid=7914e119-1614-4899-81d3-c50cda4c6e7a"},"vehicle_type_id":"4","last_reported":1769603304,"current_range_meters":8400,"station_id":"ce4bhmp2rcd13ifvqgog","pricing_plan_id":"cebpf4jnsgd1na2vs0mg"},{"bike_id":"ffc95317-ad6d-43e1-9145-eeebc3fe117c","system_id":"levelo_inurba_marseille","lat":43.25096,"lon":5.39504,"is_reserved":false,"is_disabled":false,"rental_uris":{"android":"levelo://app?vid=ffc95317-ad6d-43e1-9145-eeebc3fe117c","ios":"levelo://app?vid=ffc95317-ad6d-43e1-9145-eeebc3fe117c"},"vehicle_type_id":"4","last_reported":1769603304,"current_range_meters":8400,"station_id":"ce4bhm12rcd13ifvqgkg","pricing_plan_id":"cebpf4jnsgd1na2vs0mg"},{"bike_id":"cb244530-27d3-443c-b788-0340e0e04b1c","system_id":"levelo_inurba_marseille","lat":43.33169,"lon":5.37703,"is_reserved":false,"is_disabled":false,"rental_uris":{"android":"levelo://app?vid=cb244530-27d3-443c-b788-0340e0e04b1c","ios":"levelo://app?vid=cb244530-27d3-443c-b788-0340e0e04b1c"},"vehicle_type_id":"4","last_reported":1769603304,"current_range_meters":8400,"station_id":"st_d46cu089ee8s73dldbu0","pricing_plan_id":"cebpf4jnsgd1na2vs0mg"},{"bike_id":"fd5cac91-3b82-41b2-9b97-04cacea7a2ee","system_id":"levelo_inurba_marseille","lat":43.26195,"lon":5.37448,"is_reserved":false,"is_disabled":true,"rental_uris":{"android":"levelo://app?vid=fd5cac91-3b82-41b2-9b97-04cacea7a2ee","ios":"levelo://app?vid=fd5cac91-3b82-41b2-9b97-04cacea7a2ee"},"vehicle_type_id":"4","last_reported":1769603304,"current_range_meters":8400,"station_id":"ce4bhgp2rcd13ifvqfc0","pricing_plan_id":"cebpf4jnsgd1na2vs0mg"},{"bike_id":"0548a075-d19d-4f11-b886-281a35384499","system_id":"levelo_inurba_marseille","lat":43.265539,"lon":5.372856,"is_reserved":false,"is_disabled":false,"rental_uris":{"android":"levelo://app?vid=0548a075-d19d-4f11-b886-281a35384499","ios":"levelo://app?vid=0548a075-d19d-4f11-b886-281a35384499"},"vehicle_type_id":"4","last_reported":1769603304,"current_range_meters":8400,"station_id":"ce4bhg12rcd13ifvqf70","pricing_plan_id":"cebpf4jnsgd1na2vs0mg"},{"bike_id":"7814df40-9301-40b7-aba2-c38d6a9d242a","system_id":"levelo_inurba_marseille","lat":43.24943,"lon":5.40492,"is_reserved":false,"is_disabled":false,"rental_uris":{"android":"levelo://app?vid=7814df40-9301-40b7-aba2-c38d6a9d242a","ios":"levelo://app?vid=7814df40-9301-40b7-aba2-c38d6a9d242a"},"vehicle_type_id":"4","last_reported":1769603304,"current_range_meters":8400,"station_id":"st_d2ngiaodas8pm72gd1h0","pricing_plan_id":"cebpf4jnsgd1na2vs0mg"},{"bike_id":"c7e4813a-c248-4d27-817f-f64ef50a11f2","system_id":"levelo_inurba_marseille","lat":43.25938,"lon":5.40903,"is_reserved":false,"is_disabled":false,"rental_uris":{"android":"levelo://app?vid=c7e4813a-c248-4d27-817f-f64ef50a11f2","ios":"levelo://app?vid=c7e4813a-c248-4d27-817f-f64ef50a11f2"},"vehicle_type_id":"4","last_reported":1769603304,"current_range_meters":8800,"station_id":"ce4bhm92rcd13ifvqglg","pricing_plan_id":"cebpf4jnsgd1na2vs0mg"},{"bike_id":"e67fc9ad-980c-4bee-9cef-9478c6435fce","system_id":"levelo_inurba_marseille","lat":43.27957,"lon":5.41048,"is_reserved":false,"is_disabled":true,"rental_uris":{"android":"levelo://app?vid=e67fc9ad-980c-4bee-9cef-9478c6435fce","ios":"levelo://app?vid=e67fc9ad-980c-4bee-9cef-9478c6435fce"},"vehicle_type_id":"4","last_reported":1769603304,"current_range_meters":8800,"station_id":"ce4bhnp2rcd13ifvqh0g","pricing_plan_id":"cebpf4jnsgd1na2vs0mg"},{"bike_id":"4ae21097-68ff-4a44-bcb7-3e142e11d517","system_id":"levelo_inurba_marseille","lat":43.24178,"lon":5.36387,"is_reserved":false,"is_disabled":false,"rental_uris":{"android":"levelo://app?vid=4ae21097-68ff-4a44-bcb7-3e142e11d517","ios":"levelo://app?vid=4ae21097-68ff-4a44-bcb7-3e142e11d517"},"vehicle_type_id":"4","last_reported":1769603304,"current_range_meters":8800,"station_id":"cpo36qri1sfpv3e86is0","pricing_plan_id":"cebpf4jnsgd1na2vs0mg"},{"bike_id":"b11b090f-d856-4990-985e-2002304d9e6e","system_id":"levelo_inurba_marseille","lat":43.27056,"lon":5.40257,"is_reserved":false,"is_disabled":false,"rental_uris":{"android":"levelo://app?vid=b11b090f-d856-4990-985e-2002304d9e6e","ios":"levelo://app?vid=b11b090f-d856-4990-985e-2002304d9e6e"},"vehicle_type_id":"4","last_reported":1769603304,"current_range_meters":8800,"station_id":"ce4bhk92rcd13ifvqgc0","pricing_plan_id":"cebpf4jnsgd1na2vs0mg"},{"bike_id":"1101bc69-1a13-4c25-af4c-dd501d038abf","system_id":"levelo_inurba_marseille","lat":43.31391,"lon":5.36718,"is_reserved":false,"is_disabled":false,"rental_uris":{"android":"levelo://app?vid=1101bc69-1a13-4c25-af4c-dd501d038abf","ios":"levelo://app?vid=1101bc69-1a13-4c25-af4c-dd501d038abf"},"vehicle_type_id":"4","last_reported":1769603304,"current_range_meters":8800,"station_id":"ce4bgr92rcd13ifvqc6g","pricing_plan_id":"cebpf4jnsgd1na2vs0mg"},{"bike_id":"b96775b7-8954-4f94-990f-968813344c58","system_id":"levelo_inurba_marseille","lat":43.31254,"lon":5.37828,"is_reserved":false,"is_disabled":false,"rental_uris":{"android":"levelo://app?vid=b96775b7-8954-4f94-990f-968813344c58","ios":"levelo://app?vid=b96775b7-8954-4f94-990f-968813344c58"},"vehicle_type_id":"4","last_reported":1769603304,"current_range_meters":8800,"station_id":"","pricing_plan_id":"cebpf4jnsgd1na2vs0mg"},{"bike_id":"ec92a3d7-0aaf-40cf-9513-2fb7d35cc0c4","system_id":"levelo_inurba_marseille","lat":43.23063,"lon":5.35505,"is_reserved":false,"is_disabled":false,"rental_uris":{"android":"levelo://app?vid=ec92a3d7-0aaf-40cf-9513-2fb7d35cc0c4","ios":"levelo://app?vid=ec92a3d7-0aaf-40cf-9513-2fb7d35cc0c4"},"vehicle_type_id":"4","last_reported":1769603304,"current_range_meters":8800,"station_id":"cpo3342slgdg3j2ifvpg","pricing_plan_id":"cebpf4jnsgd1na2vs0mg"},{"bike_id":"74829c31-df37-44cc-86b1-35496a80b022","system_id":"levelo_inurba_marseille","lat":43.31368,"lon":5.38475,"is_reserved":false,"is_disabled":false,"rental_uris":{"android":"levelo://app?vid=74829c31-df37-44cc-86b1-35496a80b022","ios":"levelo://app?vid=74829c31-df37-44cc-86b1-35496a80b022"},"vehicle_type_id":"4","last_reported":1769603304,"current_range_meters":8800,"station_id":"ce4bgt92rcd13ifvqcf0","pricing_plan_id":"cebpf4jnsgd1na2vs0mg"},{"bike_id":"79009d73-0523-4c6d-91de-5993a965a866","system_id":"levelo_inurba_marseille","lat":43.25943,"lon":5.40906,"is_reserved":false,"is_disabled":false,"rental_uris":{"android":"levelo://app?vid=79009d73-0523-4c6d-91de-5993a965a866","ios":"levelo://app?vid=79009d73-0523-4c6d-91de-5993a965a866"},"vehicle_type_id":"4","last_reported":1769603304,"current_range_meters":8800,"station_id":"ce4bhm92rcd13ifvqglg","pricing_plan_id":"cebpf4jnsgd1na2vs0mg"},{"bike_id":"8a04e7f4-e170-4133-887a-58e9073acef7","system_id":"levelo_inurba_marseille","lat":43.31362,"lon":5.38482,"is_reserved":false,"is_disabled":false,"rental_uris":{"android":"levelo://app?vid=8a04e7f4-e170-4133-887a-58e9073acef7","ios":"levelo://app?vid=8a04e7f4-e170-4133-887a-58e9073acef7"},"vehicle_type_id":"4","last_reported":1769603304,"current_range_meters":8800,"station_id":"ce4bgt92rcd13ifvqcf0","pricing_plan_id":"cebpf4jnsgd1na2vs0mg"},{"bike_id":"42261fde-3fe4-44c7-975f-1eedde9b2875","system_id":"levelo_inurba_marseille","lat":43.30184,"lon":5.36604,"is_reserved":false,"is_disabled":false,"rental_uris":{"android":"levelo://app?vid=42261fde-3fe4-44c7-975f-1eedde9b2875","ios":"levelo://app?vid=42261fde-3fe4-44c7-975f-1eedde9b2875"},"vehicle_type_id":"4","last_reported":1769603304,"current_range_meters":9200,"station_id":"ce4bgrh2rcd13ifvqc8g","pricing_plan_id":"cebpf4jnsgd1na2vs0mg"},{"bike_id":"bc230eaa-6d54-4e2d-8428-bb3463d83558","system_id":"levelo_inurba_marseille","lat":43.27325,"lon":5.39072,"is_reserved":false,"is_disabled":true,"rental_uris":{"android":"levelo://app?vid=bc230eaa-6d54-4e2d-8428-bb3463d83558","ios":"levelo://app?vid=bc230eaa-6d54-4e2d-8428-bb3463d83558"},"vehicle_type_id":"4","last_reported":1769603304,"current_range_meters":9200,"station_id":"ce4bhgp2rcd13ifvqfe0","pricing_plan_id":"cebpf4jnsgd1na2vs0mg"},{"bike_id":"d58f344c-cd0b-44a8-8dbf-ba727762a67b","system_id":"levelo_inurba_marseille","lat":43.23155,"lon":5.43718,"is_reserved":false,"is_disabled":false,"rental_uris":{"android":"levelo://app?vid=d58f344c-cd0b-44a8-8dbf-ba727762a67b","ios":"levelo://app?vid=d58f344c-cd0b-44a8-8dbf-ba727762a67b"},"vehicle_type_id":"4","last_reported":1769603304,"current_range_meters":9200,"station_id":"ce4bhmp2rcd13ifvqgog","pricing_plan_id":"cebpf4jnsgd1na2vs0mg"},{"bike_id":"81f0ff38-9bcb-481c-bb97-efd01000649f","system_id":"levelo_inurba_marseille","lat":43.29611,"lon":5.37726,"is_reserved":false,"is_disabled":false,"rental_uris":{"android":"levelo://app?vid=81f0ff38-9bcb-481c-bb97-efd01000649f","ios":"levelo://app?vid=81f0ff38-9bcb-481c-bb97-efd01000649f"},"vehicle_type_id":"4","last_reported":1769603304,"current_range_meters":9200,"station_id":"ce4bgi92rcd13ifvqb90","pricing_plan_id":"cebpf4jnsgd1na2vs0mg"},{"bike_id":"e8f03a56-57c3-45d7-aa77-c0c99a59d5d8","system_id":"levelo_inurba_marseille","lat":43.31483,"lon":5.37304,"is_reserved":false,"is_disabled":false,"rental_uris":{"android":"levelo://app?vid=e8f03a56-57c3-45d7-aa77-c0c99a59d5d8","ios":"levelo://app?vid=e8f03a56-57c3-45d7-aa77-c0c99a59d5d8"},"vehicle_type_id":"4","last_reported":1769603304,"current_range_meters":9200,"station_id":"ce4bgt12rcd13ifvqcd0","pricing_plan_id":"cebpf4jnsgd1na2vs0mg"},{"bike_id":"3e6599b3-80f5-4cb4-a947-9865a5671465","system_id":"levelo_inurba_marseille","lat":43.276172,"lon":5.361248,"is_reserved":false,"is_disabled":false,"rental_uris":{"android":"levelo://app?vid=3e6599b3-80f5-4cb4-a947-9865a5671465","ios":"levelo://app?vid=3e6599b3-80f5-4cb4-a947-9865a5671465"},"vehicle_type_id":"4","last_reported":1769603304,"current_range_meters":9200,"station_id":"ce4bgj92rcd13ifvqbe0","pricing_plan_id":"cebpf4jnsgd1na2vs0mg"},{"bike_id":"4964a424-0af3-42e2-bf0b-74b0ddd1ccbc","system_id":"levelo_inurba_marseille","lat":43.25673,"lon":5.386785,"is_reserved":false,"is_disabled":false,"rental_uris":{"android":"levelo://app?vid=4964a424-0af3-42e2-bf0b-74b0ddd1ccbc","ios":"levelo://app?vid=4964a424-0af3-42e2-bf0b-74b0ddd1ccbc"},"vehicle_type_id":"4","last_reported":1769603304,"current_range_meters":9200,"station_id":"","pricing_plan_id":"cebpf4jnsgd1na2vs0mg"},{"bike_id":"11ea5605-7882-4487-a008-b5f4221886b5","system_id":"levelo_inurba_marseille","lat":43.313979,"lon":5.374127,"is_reserved":false,"is_disabled":false,"rental_uris":{"android":"levelo://app?vid=11ea5605-7882-4487-a008-b5f4221886b5","ios":"levelo://app?vid=11ea5605-7882-4487-a008-b5f4221886b5"},"vehicle_type_id":"4","last_reported":1769603304,"current_range_meters":9200,"station_id":"","pricing_plan_id":"cebpf4jnsgd1na2vs0mg"},{"bike_id":"d6347785-7f4b-4520-b64a-bf5bb0e98944","system_id":"levelo_inurba_marseille","lat":43.25001,"lon":5.38921,"is_reserved":false,"is_disabled":false,"rental_uris":{"android":"levelo://app?vid=d6347785-7f4b-4520-b64a-bf5bb0e98944","ios":"levelo://app?vid=d6347785-7f4b-4520-b64a-bf5bb0e98944"},"vehicle_type_id":"4","last_reported":1769603304,"current_range_meters":9200,"station_id":"ce4bhgp2rcd13ifvqfd0","pricing_plan_id":"cebpf4jnsgd1na2vs0mg"},{"bike_id":"8c50cc1b-6957-4db2-9b96-76d9d37bac03","system_id":"levelo_inurba_marseille","lat":43.22566,"lon":5.41625,"is_reserved":false,"is_disabled":false,"rental_uris":{"android":"levelo://app?vid=8c50cc1b-6957-4db2-9b96-76d9d37bac03","ios":"levelo://app?vid=8c50cc1b-6957-4db2-9b96-76d9d37bac03"},"vehicle_type_id":"4","last_reported":1769603304,"current_range_meters":9200,"station_id":"st_d2o4gvlbi1j2169b742g","pricing_plan_id":"cebpf4jnsgd1na2vs0mg"},{"bike_id":"7467cb27-eaf1-4da2-8e26-27fbbc086518","system_id":"levelo_inurba_marseille","lat":43.29951,"lon":5.4264,"is_reserved":false,"is_disabled":false,"rental_uris":{"android":"levelo://app?vid=7467cb27-eaf1-4da2-8e26-27fbbc086518","ios":"levelo://app?vid=7467cb27-eaf1-4da2-8e26-27fbbc086518"},"vehicle_type_id":"4","last_reported":1769603304,"current_range_meters":9200,"station_id":"","pricing_plan_id":"cebpf4jnsgd1na2vs0mg"},{"bike_id":"58561bee-b9b4-40cb-a81c-4908ef2f3de1","system_id":"levelo_inurba_marseille","lat":43.27368,"lon":5.36241,"is_reserved":false,"is_disabled":false,"rental_uris":{"android":"levelo://app?vid=58561bee-b9b4-40cb-a81c-4908ef2f3de1","ios":"levelo://app?vid=58561bee-b9b4-40cb-a81c-4908ef2f3de1"},"vehicle_type_id":"4","last_reported":1769603304,"current_range_meters":9200,"station_id":"ce4bhbh2rcd13ifvqeo0","pricing_plan_id":"cebpf4jnsgd1na2vs0mg"},{"bike_id":"c98b11d0-0520-418d-bfc6-d6149e6ffac9","system_id":"levelo_inurba_marseille","lat":43.28475,"lon":5.48388,"is_reserved":false,"is_disabled":false,"rental_uris":{"android":"levelo://app?vid=c98b11d0-0520-418d-bfc6-d6149e6ffac9","ios":"levelo://app?vid=c98b11d0-0520-418d-bfc6-d6149e6ffac9"},"vehicle_type_id":"4","last_reported":1769603304,"current_range_meters":9200,"station_id":"st_d3svhcjqgbts73a3dn0g","pricing_plan_id":"cebpf4jnsgd1na2vs0mg"},{"bike_id":"36855e79-f7ac-4112-b45f-3779dd796963","system_id":"levelo_inurba_marseille","lat":43.30173,"lon":5.37363,"is_reserved":false,"is_disabled":false,"rental_uris":{"android":"levelo://app?vid=36855e79-f7ac-4112-b45f-3779dd796963","ios":"levelo://app?vid=36855e79-f7ac-4112-b45f-3779dd796963"},"vehicle_type_id":"4","last_reported":1769603304,"current_range_meters":9200,"station_id":"","pricing_plan_id":"cebpf4jnsgd1na2vs0mg"},{"bike_id":"12d18314-b173-4f53-8c34-39de8e2a6514","system_id":"levelo_inurba_marseille","lat":43.28458,"lon":5.38749,"is_reserved":false,"is_disabled":false,"rental_uris":{"android":"levelo://app?vid=12d18314-b173-4f53-8c34-39de8e2a6514","ios":"levelo://app?vid=12d18314-b173-4f53-8c34-39de8e2a6514"},"vehicle_type_id":"4","last_reported":1769603304,"current_range_meters":9600,"station_id":"","pricing_plan_id":"cebpf4jnsgd1na2vs0mg"},{"bike_id":"e0eb837e-198e-477d-b11b-0d066804c80a","system_id":"levelo_inurba_marseille","lat":43.341397,"lon":5.409069,"is_reserved":false,"is_disabled":false,"rental_uris":{"android":"levelo://app?vid=e0eb837e-198e-477d-b11b-0d066804c80a","ios":"levelo://app?vid=e0eb837e-198e-477d-b11b-0d066804c80a"},"vehicle_type_id":"4","last_reported":1769603304,"current_range_meters":9600,"station_id":"ce4bhqh2rcd13ifvqhlg","pricing_plan_id":"cebpf4jnsgd1na2vs0mg"},{"bike_id":"9806da0f-d7e9-4daf-99fc-e3fd22a4da76","system_id":"levelo_inurba_marseille","lat":43.25935,"lon":5.40881,"is_reserved":false,"is_disabled":false,"rental_uris":{"android":"levelo://app?vid=9806da0f-d7e9-4daf-99fc-e3fd22a4da76","ios":"levelo://app?vid=9806da0f-d7e9-4daf-99fc-e3fd22a4da76"},"vehicle_type_id":"4","last_reported":1769603304,"current_range_meters":9600,"station_id":"ce4bhm92rcd13ifvqglg","pricing_plan_id":"cebpf4jnsgd1na2vs0mg"},{"bike_id":"e358c4a2-d06d-4fe1-b1ad-21427c2407be","system_id":"levelo_inurba_marseille","lat":43.2737,"lon":5.36257,"is_reserved":false,"is_disabled":false,"rental_uris":{"android":"levelo://app?vid=e358c4a2-d06d-4fe1-b1ad-21427c2407be","ios":"levelo://app?vid=e358c4a2-d06d-4fe1-b1ad-21427c2407be"},"vehicle_type_id":"4","last_reported":1769603304,"current_range_meters":9600,"station_id":"ce4bhbh2rcd13ifvqeo0","pricing_plan_id":"cebpf4jnsgd1na2vs0mg"},{"bike_id":"312472ef-ec71-4255-ba04-19d354fd64d5","system_id":"levelo_inurba_marseille","lat":43.23958,"lon":5.36637,"is_reserved":false,"is_disabled":false,"rental_uris":{"android":"levelo://app?vid=312472ef-ec71-4255-ba04-19d354fd64d5","ios":"levelo://app?vid=312472ef-ec71-4255-ba04-19d354fd64d5"},"vehicle_type_id":"4","last_reported":1769603304,"current_range_meters":9600,"station_id":"ce4bhi12rcd13ifvqfp0","pricing_plan_id":"cebpf4jnsgd1na2vs0mg"},{"bike_id":"a9d61f59-4fb7-4f9c-8f78-ddfcb7d9a59d","system_id":"levelo_inurba_marseille","lat":43.30142,"lon":5.38093,"is_reserved":false,"is_disabled":false,"rental_uris":{"android":"levelo://app?vid=a9d61f59-4fb7-4f9c-8f78-ddfcb7d9a59d","ios":"levelo://app?vid=a9d61f59-4fb7-4f9c-8f78-ddfcb7d9a59d"},"vehicle_type_id":"4","last_reported":1769603304,"current_range_meters":9600,"station_id":"ce4bgjp2rcd13ifvqbh0","pricing_plan_id":"cebpf4jnsgd1na2vs0mg"},{"bike_id":"fa3935ca-5664-431b-81b3-d462965b7a2a","system_id":"levelo_inurba_marseille","lat":43.2314,"lon":5.43706,"is_reserved":false,"is_disabled":false,"rental_uris":{"android":"levelo://app?vid=fa3935ca-5664-431b-81b3-d462965b7a2a","ios":"levelo://app?vid=fa3935ca-5664-431b-81b3-d462965b7a2a"},"vehicle_type_id":"4","last_reported":1769603304,"current_range_meters":9600,"station_id":"ce4bhmp2rcd13ifvqgog","pricing_plan_id":"cebpf4jnsgd1na2vs0mg"},{"bike_id":"541aab47-c46a-45ce-9946-ea87420fea14","system_id":"levelo_inurba_marseille","lat":43.23191,"lon":5.3997,"is_reserved":false,"is_disabled":false,"rental_uris":{"android":"levelo://app?vid=541aab47-c46a-45ce-9946-ea87420fea14","ios":"levelo://app?vid=541aab47-c46a-45ce-9946-ea87420fea14"},"vehicle_type_id":"4","last_reported":1769603304,"current_range_meters":9600,"station_id":"ce4bhn12rcd13ifvqgqg","pricing_plan_id":"cebpf4jnsgd1na2vs0mg"},{"bike_id":"2dcd229b-9a70-410f-96af-5a659ecc8110","system_id":"levelo_inurba_marseille","lat":43.24155,"lon":5.36394,"is_reserved":false,"is_disabled":false,"rental_uris":{"android":"levelo://app?vid=2dcd229b-9a70-410f-96af-5a659ecc8110","ios":"levelo://app?vid=2dcd229b-9a70-410f-96af-5a659ecc8110"},"vehicle_type_id":"4","last_reported":1769603304,"current_range_meters":9600,"station_id":"cpo36qri1sfpv3e86is0","pricing_plan_id":"cebpf4jnsgd1na2vs0mg"},{"bike_id":"0a7405ad-871c-4a38-944c-17ac55cc69b6","system_id":"levelo_inurba_marseille","lat":43.24175,"lon":5.36398,"is_reserved":false,"is_disabled":false,"rental_uris":{"android":"levelo://app?vid=0a7405ad-871c-4a38-944c-17ac55cc69b6","ios":"levelo://app?vid=0a7405ad-871c-4a38-944c-17ac55cc69b6"},"vehicle_type_id":"4","last_reported":1769603304,"current_range_meters":9600,"station_id":"cpo36qri1sfpv3e86is0","pricing_plan_id":"cebpf4jnsgd1na2vs0mg"},{"bike_id":"f2a23d25-d20b-4668-95d8-75a469f4c816","system_id":"levelo_inurba_marseille","lat":43.289759,"lon":5.378285,"is_reserved":false,"is_disabled":false,"rental_uris":{"android":"levelo://app?vid=f2a23d25-d20b-4668-95d8-75a469f4c816","ios":"levelo://app?vid=f2a23d25-d20b-4668-95d8-75a469f4c816"},"vehicle_type_id":"4","last_reported":1769603304,"current_range_meters":9600,"station_id":"ce4bh9p2rcd13ifvqed0","pricing_plan_id":"cebpf4jnsgd1na2vs0mg"},{"bike_id":"cef89498-fbf9-4ad5-afa6-46a5eea10249","system_id":"levelo_inurba_marseille","lat":43.27346,"lon":5.40965,"is_reserved":false,"is_disabled":false,"rental_uris":{"android":"levelo://app?vid=cef89498-fbf9-4ad5-afa6-46a5eea10249","ios":"levelo://app?vid=cef89498-fbf9-4ad5-afa6-46a5eea10249"},"vehicle_type_id":"4","last_reported":1769603304,"current_range_meters":9600,"station_id":"","pricing_plan_id":"cebpf4jnsgd1na2vs0mg"},{"bike_id":"50d961b8-a9c0-4574-b5f1-516ebf614958","system_id":"levelo_inurba_marseille","lat":43.29575,"lon":5.375175,"is_reserved":false,"is_disabled":false,"rental_uris":{"android":"levelo://app?vid=50d961b8-a9c0-4574-b5f1-516ebf614958","ios":"levelo://app?vid=50d961b8-a9c0-4574-b5f1-516ebf614958"},"vehicle_type_id":"4","last_reported":1769603304,"current_range_meters":9600,"station_id":"ce4bgh92rcd13ifvqb50","pricing_plan_id":"cebpf4jnsgd1na2vs0mg"},{"bike_id":"9183a072-7ef7-40b6-9d57-92fed5e7631a","system_id":"levelo_inurba_marseille","lat":43.30129,"lon":5.43116,"is_reserved":false,"is_disabled":false,"rental_uris":{"android":"levelo://app?vid=9183a072-7ef7-40b6-9d57-92fed5e7631a","ios":"levelo://app?vid=9183a072-7ef7-40b6-9d57-92fed5e7631a"},"vehicle_type_id":"4","last_reported":1769603304,"current_range_meters":10000,"station_id":"st_d3js3co5814s73ftftug","pricing_plan_id":"cebpf4jnsgd1na2vs0mg"},{"bike_id":"29e658f4-2359-46f1-90c1-df0499696a70","system_id":"levelo_inurba_marseille","lat":43.30125,"lon":5.43118,"is_reserved":false,"is_disabled":false,"rental_uris":{"android":"levelo://app?vid=29e658f4-2359-46f1-90c1-df0499696a70","ios":"levelo://app?vid=29e658f4-2359-46f1-90c1-df0499696a70"},"vehicle_type_id":"4","last_reported":1769603304,"current_range_meters":10000,"station_id":"st_d3js3co5814s73ftftug","pricing_plan_id":"cebpf4jnsgd1na2vs0mg"},{"bike_id":"9530e525-99a6-44ef-9550-48c35496d598","system_id":"levelo_inurba_marseille","lat":43.33528,"lon":5.37456,"is_reserved":false,"is_disabled":false,"rental_uris":{"android":"levelo://app?vid=9530e525-99a6-44ef-9550-48c35496d598","ios":"levelo://app?vid=9530e525-99a6-44ef-9550-48c35496d598"},"vehicle_type_id":"4","last_reported":1769603304,"current_range_meters":10000,"station_id":"st_d46tts09ee8s73dlu43g","pricing_plan_id":"cebpf4jnsgd1na2vs0mg"},{"bike_id":"c07f73fb-61ca-46b5-b7a6-c22c91a3d83d","system_id":"levelo_inurba_marseille","lat":43.32457,"lon":5.36522,"is_reserved":false,"is_disabled":false,"rental_uris":{"android":"levelo://app?vid=c07f73fb-61ca-46b5-b7a6-c22c91a3d83d","ios":"levelo://app?vid=c07f73fb-61ca-46b5-b7a6-c22c91a3d83d"},"vehicle_type_id":"4","last_reported":1769603304,"current_range_meters":10000,"station_id":"ce4bhs12rcd13ifvqhvg","pricing_plan_id":"cebpf4jnsgd1na2vs0mg"},{"bike_id":"16199858-b735-4ef4-aea3-a073cd0a7000","system_id":"levelo_inurba_marseille","lat":43.25575,"lon":5.38202,"is_reserved":false,"is_disabled":false,"rental_uris":{"android":"levelo://app?vid=16199858-b735-4ef4-aea3-a073cd0a7000","ios":"levelo://app?vid=16199858-b735-4ef4-aea3-a073cd0a7000"},"vehicle_type_id":"4","last_reported":1769603304,"current_range_meters":10000,"station_id":"ce4bhih2rcd13ifvqfs0","pricing_plan_id":"cebpf4jnsgd1na2vs0mg"},{"bike_id":"dcc20a74-9ba4-4119-a5f5-ce0a76ef7ac9","system_id":"levelo_inurba_marseille","lat":43.22562,"lon":5.41629,"is_reserved":false,"is_disabled":false,"rental_uris":{"android":"levelo://app?vid=dcc20a74-9ba4-4119-a5f5-ce0a76ef7ac9","ios":"levelo://app?vid=dcc20a74-9ba4-4119-a5f5-ce0a76ef7ac9"},"vehicle_type_id":"4","last_reported":1769603304,"current_range_meters":10000,"station_id":"st_d2o4gvlbi1j2169b742g","pricing_plan_id":"cebpf4jnsgd1na2vs0mg"},{"bike_id":"f02ad13a-b109-419b-8125-42e22c165192","system_id":"levelo_inurba_marseille","lat":43.28998,"lon":5.35609,"is_reserved":false,"is_disabled":false,"rental_uris":{"android":"levelo://app?vid=f02ad13a-b109-419b-8125-42e22c165192","ios":"levelo://app?vid=f02ad13a-b109-419b-8125-42e22c165192"},"vehicle_type_id":"4","last_reported":1769603304,"current_range_meters":10000,"station_id":"ce4bhb92rcd13ifvqen0","pricing_plan_id":"cebpf4jnsgd1na2vs0mg"},{"bike_id":"5138898d-be6b-4794-b991-21453a881634","system_id":"levelo_inurba_marseille","lat":43.30602,"lon":5.37225,"is_reserved":false,"is_disabled":false,"rental_uris":{"android":"levelo://app?vid=5138898d-be6b-4794-b991-21453a881634","ios":"levelo://app?vid=5138898d-be6b-4794-b991-21453a881634"},"vehicle_type_id":"4","last_reported":1769603304,"current_range_meters":10000,"station_id":"ce4bgqh2rcd13ifvqc4g","pricing_plan_id":"cebpf4jnsgd1na2vs0mg"},{"bike_id":"70c8e946-935d-472e-a5f3-1a97a017c367","system_id":"levelo_inurba_marseille","lat":43.32466,"lon":5.36574,"is_reserved":false,"is_disabled":false,"rental_uris":{"android":"levelo://app?vid=70c8e946-935d-472e-a5f3-1a97a017c367","ios":"levelo://app?vid=70c8e946-935d-472e-a5f3-1a97a017c367"},"vehicle_type_id":"4","last_reported":1769603304,"current_range_meters":10000,"station_id":"ce4bhs12rcd13ifvqhvg","pricing_plan_id":"cebpf4jnsgd1na2vs0mg"},{"bike_id":"85b1b1e1-c458-4711-86a6-2ddb2584b733","system_id":"levelo_inurba_marseille","lat":43.33547,"lon":5.37466,"is_reserved":false,"is_disabled":false,"rental_uris":{"android":"levelo://app?vid=85b1b1e1-c458-4711-86a6-2ddb2584b733","ios":"levelo://app?vid=85b1b1e1-c458-4711-86a6-2ddb2584b733"},"vehicle_type_id":"4","last_reported":1769603304,"current_range_meters":10000,"station_id":"","pricing_plan_id":"cebpf4jnsgd1na2vs0mg"},{"bike_id":"3d405854-a3e9-4cc4-bcac-5ce2eff49e57","system_id":"levelo_inurba_marseille","lat":43.23187,"lon":5.39978,"is_reserved":false,"is_disabled":false,"rental_uris":{"android":"levelo://app?vid=3d405854-a3e9-4cc4-bcac-5ce2eff49e57","ios":"levelo://app?vid=3d405854-a3e9-4cc4-bcac-5ce2eff49e57"},"vehicle_type_id":"4","last_reported":1769603304,"current_range_meters":10000,"station_id":"ce4bhn12rcd13ifvqgqg","pricing_plan_id":"cebpf4jnsgd1na2vs0mg"},{"bike_id":"eb167014-ce0e-4a3e-b641-cad9158c8a9e","system_id":"levelo_inurba_marseille","lat":43.26229,"lon":5.4045,"is_reserved":false,"is_disabled":false,"rental_uris":{"android":"levelo://app?vid=eb167014-ce0e-4a3e-b641-cad9158c8a9e","ios":"levelo://app?vid=eb167014-ce0e-4a3e-b641-cad9158c8a9e"},"vehicle_type_id":"4","last_reported":1769603304,"current_range_meters":10000,"station_id":"ce4bhmh2rcd13ifvqgmg","pricing_plan_id":"cebpf4jnsgd1na2vs0mg"},{"bike_id":"802f6e05-7249-407a-aac4-32d2041628b8","system_id":"levelo_inurba_marseille","lat":43.230494,"lon":5.354973,"is_reserved":false,"is_disabled":false,"rental_uris":{"android":"levelo://app?vid=802f6e05-7249-407a-aac4-32d2041628b8","ios":"levelo://app?vid=802f6e05-7249-407a-aac4-32d2041628b8"},"vehicle_type_id":"4","last_reported":1769603304,"current_range_meters":10000,"station_id":"cpo3342slgdg3j2ifvpg","pricing_plan_id":"cebpf4jnsgd1na2vs0mg"},{"bike_id":"a932292e-fb85-4fa4-bad3-f502dbfe00ed","system_id":"levelo_inurba_marseille","lat":43.289295,"lon":5.383923,"is_reserved":false,"is_disabled":false,"rental_uris":{"android":"levelo://app?vid=a932292e-fb85-4fa4-bad3-f502dbfe00ed","ios":"levelo://app?vid=a932292e-fb85-4fa4-bad3-f502dbfe00ed"},"vehicle_type_id":"4","last_reported":1769603304,"current_range_meters":10000,"station_id":"ce4bh612rcd13ifvqe6g","pricing_plan_id":"cebpf4jnsgd1na2vs0mg"},{"bike_id":"e236f0a6-2e87-48ed-94ce-e49f696f4842","system_id":"levelo_inurba_marseille","lat":43.26586,"lon":5.37514,"is_reserved":false,"is_disabled":false,"rental_uris":{"android":"levelo://app?vid=e236f0a6-2e87-48ed-94ce-e49f696f4842","ios":"levelo://app?vid=e236f0a6-2e87-48ed-94ce-e49f696f4842"},"vehicle_type_id":"4","last_reported":1769603304,"current_range_meters":10000,"station_id":"","pricing_plan_id":"cebpf4jnsgd1na2vs0mg"},{"bike_id":"054e919a-503d-4841-92a8-91040da79c48","system_id":"levelo_inurba_marseille","lat":43.3028,"lon":5.36879,"is_reserved":false,"is_disabled":false,"rental_uris":{"android":"levelo://app?vid=054e919a-503d-4841-92a8-91040da79c48","ios":"levelo://app?vid=054e919a-503d-4841-92a8-91040da79c48"},"vehicle_type_id":"4","last_reported":1769603304,"current_range_meters":10000,"station_id":"ce4bgqh2rcd13ifvqc5g","pricing_plan_id":"cebpf4jnsgd1na2vs0mg"},{"bike_id":"963c2162-d7a9-4bf4-8c9d-638ae75d44bd","system_id":"levelo_inurba_marseille","lat":43.24149,"lon":5.36412,"is_reserved":false,"is_disabled":false,"rental_uris":{"android":"levelo://app?vid=963c2162-d7a9-4bf4-8c9d-638ae75d44bd","ios":"levelo://app?vid=963c2162-d7a9-4bf4-8c9d-638ae75d44bd"},"vehicle_type_id":"4","last_reported":1769603304,"current_range_meters":10000,"station_id":"cpo36qri1sfpv3e86is0","pricing_plan_id":"cebpf4jnsgd1na2vs0mg"},{"bike_id":"3dd828a5-6a39-4727-89ca-f7087d6cd32f","system_id":"levelo_inurba_marseille","lat":43.25589,"lon":5.3824,"is_reserved":false,"is_disabled":false,"rental_uris":{"android":"levelo://app?vid=3dd828a5-6a39-4727-89ca-f7087d6cd32f","ios":"levelo://app?vid=3dd828a5-6a39-4727-89ca-f7087d6cd32f"},"vehicle_type_id":"4","last_reported":1769603304,"current_range_meters":10000,"station_id":"ce4bhih2rcd13ifvqfs0","pricing_plan_id":"cebpf4jnsgd1na2vs0mg"},{"bike_id":"0ce42f56-abee-4ad5-9699-4e7c895f88ab","system_id":"levelo_inurba_marseille","lat":43.31547,"lon":5.3803,"is_reserved":false,"is_disabled":false,"rental_uris":{"android":"levelo://app?vid=0ce42f56-abee-4ad5-9699-4e7c895f88ab","ios":"levelo://app?vid=0ce42f56-abee-4ad5-9699-4e7c895f88ab"},"vehicle_type_id":"4","last_reported":1769603304,"current_range_meters":10000,"station_id":"ce4bhsp2rcd13ifvqi50","pricing_plan_id":"cebpf4jnsgd1na2vs0mg"},{"bike_id":"d1b56c9e-98a7-431d-9a8c-c617c0205df7","system_id":"levelo_inurba_marseille","lat":43.29967,"lon":5.38498,"is_reserved":false,"is_disabled":false,"rental_uris":{"android":"levelo://app?vid=d1b56c9e-98a7-431d-9a8c-c617c0205df7","ios":"levelo://app?vid=d1b56c9e-98a7-431d-9a8c-c617c0205df7"},"vehicle_type_id":"4","last_reported":1769603304,"current_range_meters":10000,"station_id":"ce4bgj92rcd13ifvqbd0","pricing_plan_id":"cebpf4jnsgd1na2vs0mg"},{"bike_id":"ba94ad88-2d86-4f15-a70c-04c6ad4ea30f","system_id":"levelo_inurba_marseille","lat":43.33042,"lon":5.37809,"is_reserved":false,"is_disabled":false,"rental_uris":{"android":"levelo://app?vid=ba94ad88-2d86-4f15-a70c-04c6ad4ea30f","ios":"levelo://app?vid=ba94ad88-2d86-4f15-a70c-04c6ad4ea30f"},"vehicle_type_id":"4","last_reported":1769603304,"current_range_meters":10000,"station_id":"st_d46cu089ee8s73dldbu0","pricing_plan_id":"cebpf4jnsgd1na2vs0mg"},{"bike_id":"81b79309-6492-491c-9cb9-a7b29db4177e","system_id":"levelo_inurba_marseille","lat":43.275584,"lon":5.384391,"is_reserved":false,"is_disabled":false,"rental_uris":{"android":"levelo://app?vid=81b79309-6492-491c-9cb9-a7b29db4177e","ios":"levelo://app?vid=81b79309-6492-491c-9cb9-a7b29db4177e"},"vehicle_type_id":"4","last_reported":1769603304,"current_range_meters":10000,"station_id":"ce4bhh92rcd13ifvqfi0","pricing_plan_id":"cebpf4jnsgd1na2vs0mg"},{"bike_id":"8ad011a3-2e38-4d5e-9a5e-9e8438122aba","system_id":"levelo_inurba_marseille","lat":43.26679,"lon":5.38275,"is_reserved":false,"is_disabled":false,"rental_uris":{"android":"levelo://app?vid=8ad011a3-2e38-4d5e-9a5e-9e8438122aba","ios":"levelo://app?vid=8ad011a3-2e38-4d5e-9a5e-9e8438122aba"},"vehicle_type_id":"4","last_reported":1769603304,"current_range_meters":10000,"station_id":"ce4bhg92rcd13ifvqf90","pricing_plan_id":"cebpf4jnsgd1na2vs0mg"},{"bike_id":"4bd6cb39-f26e-431f-9c48-bc9838a79167","system_id":"levelo_inurba_marseille","lat":43.29811,"lon":5.44066,"is_reserved":false,"is_disabled":false,"rental_uris":{"android":"levelo://app?vid=4bd6cb39-f26e-431f-9c48-bc9838a79167","ios":"levelo://app?vid=4bd6cb39-f26e-431f-9c48-bc9838a79167"},"vehicle_type_id":"4","last_reported":1769603304,"current_range_meters":10000,"station_id":"st_d3jp68qikq2c7381ktn0","pricing_plan_id":"cebpf4jnsgd1na2vs0mg"},{"bike_id":"234c6217-4e3d-48e9-92b6-1b370adcc397","system_id":"levelo_inurba_marseille","lat":43.30306,"lon":5.39191,"is_reserved":false,"is_disabled":false,"rental_uris":{"android":"levelo://app?vid=234c6217-4e3d-48e9-92b6-1b370adcc397","ios":"levelo://app?vid=234c6217-4e3d-48e9-92b6-1b370adcc397"},"vehicle_type_id":"4","last_reported":1769603304,"current_range_meters":10800,"station_id":"ce4bgkh2rcd13ifvqbk0","pricing_plan_id":"cebpf4jnsgd1na2vs0mg"},{"bike_id":"7b6d8a8b-d351-4282-bf84-c6e7865bd8af","system_id":"levelo_inurba_marseille","lat":43.24631,"lon":5.38899,"is_reserved":false,"is_disabled":false,"rental_uris":{"android":"levelo://app?vid=7b6d8a8b-d351-4282-bf84-c6e7865bd8af","ios":"levelo://app?vid=7b6d8a8b-d351-4282-bf84-c6e7865bd8af"},"vehicle_type_id":"4","last_reported":1769603304,"current_range_meters":10800,"station_id":"ce4bhg12rcd13ifvqf60","pricing_plan_id":"cebpf4jnsgd1na2vs0mg"},{"bike_id":"47c8241e-3428-4faf-889c-4f0d761c4639","system_id":"levelo_inurba_marseille","lat":43.29976,"lon":5.385,"is_reserved":false,"is_disabled":false,"rental_uris":{"android":"levelo://app?vid=47c8241e-3428-4faf-889c-4f0d761c4639","ios":"levelo://app?vid=47c8241e-3428-4faf-889c-4f0d761c4639"},"vehicle_type_id":"4","last_reported":1769603304,"current_range_meters":10800,"station_id":"ce4bgj92rcd13ifvqbd0","pricing_plan_id":"cebpf4jnsgd1na2vs0mg"},{"bike_id":"bb6db0b0-a7e3-42a8-992e-e2e55dc89d52","system_id":"levelo_inurba_marseille","lat":43.33165,"lon":5.37679,"is_reserved":false,"is_disabled":false,"rental_uris":{"android":"levelo://app?vid=bb6db0b0-a7e3-42a8-992e-e2e55dc89d52","ios":"levelo://app?vid=bb6db0b0-a7e3-42a8-992e-e2e55dc89d52"},"vehicle_type_id":"4","last_reported":1769603304,"current_range_meters":10800,"station_id":"st_d46cu089ee8s73dldbu0","pricing_plan_id":"cebpf4jnsgd1na2vs0mg"},{"bike_id":"5ac42f77-e34f-41fe-bd32-78022533dad4","system_id":"levelo_inurba_marseille","lat":43.30154,"lon":5.38092,"is_reserved":false,"is_disabled":false,"rental_uris":{"android":"levelo://app?vid=5ac42f77-e34f-41fe-bd32-78022533dad4","ios":"levelo://app?vid=5ac42f77-e34f-41fe-bd32-78022533dad4"},"vehicle_type_id":"4","last_reported":1769603304,"current_range_meters":10800,"station_id":"ce4bgjp2rcd13ifvqbh0","pricing_plan_id":"cebpf4jnsgd1na2vs0mg"},{"bike_id":"65eb5cb0-a6f7-4de3-a9be-a5e0a4386045","system_id":"levelo_inurba_marseille","lat":43.33174,"lon":5.37621,"is_reserved":false,"is_disabled":false,"rental_uris":{"android":"levelo://app?vid=65eb5cb0-a6f7-4de3-a9be-a5e0a4386045","ios":"levelo://app?vid=65eb5cb0-a6f7-4de3-a9be-a5e0a4386045"},"vehicle_type_id":"4","last_reported":1769603304,"current_range_meters":10800,"station_id":"st_d46cu089ee8s73dldbu0","pricing_plan_id":"cebpf4jnsgd1na2vs0mg"},