{"last_updated":1737198367,"ttl":60,"version":"2.2","data":{"bikes":[{"bike_id":"6079b780-f3b4-463d-a4c5-83165224f3d9","system_id":"levelo_inurba_marseille","lat":43.32,"lon":5.38168,"is_reserved":false,"is_disabled":false,"rental_uris":{"android":"levelo://app?vid=6079b780-f3b4-463d-a4c5-83165224f3d9","ios":"levelo://app?vid=6079b780-f3b4-463d-a4c5-83165224f3d9"},"vehicle_type_id":"4","last_reported":1737198367,"current_range_meters":28000,"station_id":"ce4bhr12rcd13ifvqhpg","pricing_plan_id":"cebpf4jnsgd1na2vs0mg"},{"bike_id":"a1d179da-6724-48aa-a238-e3f81674ec1d","system_id":"levelo_inurba_marseille","lat":43.2846,"lon":5.35894,"is_reserved":false,"is_disabled":false,"rental_uris":{"android":"levelo://app?vid=a1d179da-6724-48aa-a238-e3f81674ec1d","ios":"levelo://app?vid=a1d179da-6724-48aa-a238-e3f81674ec1d"},"vehicle_type_id":"4","last_reported":1737198367,"current_range_meters":38800,"station_id":"ce4bhah2rcd13ifvqei0","pricing_plan_id":"cebpf4jnsgd1na2vs0mg"},{"bike_id":"aad025f6-15de-4628-b1ed-e036e00158b5","system_id":"levelo_inurba_marseille","lat":43.27202,"lon":5.3918,"is_reserved":false,"is_disabled":false,"rental_uris":{"android":"levelo://app?vid=aad025f6-15de-4628-b1ed-e036e00158b5","ios":"levelo://app?vid=aad025f6-15de-4628-b1ed-e036e00158b5"},"vehicle_type_id":"4","last_reported":1737198367,"current_range_meters":26800,"station_id":"ce4bhhp2rcd13ifvqfm0","pricing_plan_id":"cebpf4jnsgd1na2vs0mg"},{"bike_id":"83423ef3-b993-424a-99e2-60978295cc1a","system_id":"levelo_inurba_marseille","lat":43.27989,"lon":5.41659,"is_reserved":false,"is_disabled":false,"rental_uris":{"android":"levelo://app?vid=83423ef3-b993-424a-99e2-60978295cc1a","ios":"levelo://app?vid=83423ef3-b993-424a-99e2-60978295cc1a"},"vehicle_type_id":"4","last_reported":1737198367,"current_range_meters":10000,"station_id":"ce4bho12rcd13ifvqh1g","pricing_plan_id":"cebpf4jnsgd1na2vs0mg"},{"bike_id":"04f0eb48-3442-41a0-808e-9a739a5ee438","system_id":"levelo_inurba_marseille","lat":43.29981,"lon":5.3849,"is_reserved":false,"is_disabled":false,"rental_uris":{"android":"levelo://app?vid=04f0eb48-3442-41a0-808e-9a739a5ee438","ios":"levelo://app?vid=04f0eb48-3442-41a0-808e-9a739a5ee438"},"vehicle_type_id":"4","last_reported":1737198367,"current_range_meters":38800,"station_id":"ce4bgj92rcd13ifvqbd0","pricing_plan_id":"cebpf4jnsgd1na2vs0mg"},{"bike_id":"22ddd8c7-bfe0-4eb8-876b-f042b5368182","system_id":"levelo_inurba_marseille","lat":43.29009,"lon":5.37814,"is_reserved":false,"is_disabled":false,"rental_uris":{"android":"levelo://app?vid=22ddd8c7-bfe0-4eb8-876b-f042b5368182","ios":"levelo://app?vid=22ddd8c7-bfe0-4eb8-876b-f042b5368182"},"vehicle_type_id":"4","last_reported":1737198367,"current_range_meters":30000,"station_id":"ce4bh9p2rcd13ifvqed0","pricing_plan_id":"cebpf4jnsgd1na2vs0mg"},{"bike_id":"79a7f7f9-7fa5-4804-99a8-6e797a962f75","system_id":"levelo_inurba_marseille","lat":43.29495,"lon":5.37533,"is_reserved":false,"is_disabled":false,"rental_uris":{"android":"levelo://app?vid=79a7f7f9-7fa5-4804-99a8-6e797a962f75","ios":"levelo://app?vid=79a7f7f9-7fa5-4804-99a8-6e797a962f75"},"vehicle_type_id":"4","last_reported":1737198367,"current_range_meters":38800,"station_id":"ce4bgkp2rcd13ifvqbmg","pricing_plan_id":"cebpf4jnsgd1na2vs0mg"},{"bike_id":"b5f69fe0-a4a5-4828-bcfc-720b5636daf0","system_id":"levelo_inurba_marseille","lat":43.23964,"lon":5.36634,"is_reserved":false,"is_disabled":false,"rental_uris":{"android":"levelo://app?vid=b5f69fe0-a4a5-4828-bcfc-720b5636daf0","ios":"levelo://app?vid=b5f69fe0-a4a5-4828-bcfc-720b5636daf0"},"vehicle_type_id":"4","last_reported":1737198367,"current_range_meters":9200,"station_id":"ce4bhi12rcd13ifvqfp0","pricing_plan_id":"cebpf4jnsgd1na2vs0mg"},{"bike_id":"5ff1c1c1-92c2-43f7-8f5e-7f9a3f2cf9a0","system_id":"levelo_inurba_marseille","lat":43.24174,"lon":5.39714,"is_reserved":false,"is_disabled":false,"rental_uris":{"android":"levelo://app?vid=5ff1c1c1-92c2-43f7-8f5e-7f9a3f2cf9a0","ios":"levelo://app?vid=5ff1c1c1-92c2-43f7-8f5e-7f9a3f2cf9a0"},"vehicle_type_id":"4","last_reported":1737198367,"current_range_meters":38000,"station_id":"ce4bhn12rcd13ifvqgpg","pricing_plan_id":"cebpf4jnsgd1na2vs0mg"},{"bike_id":"a82809b2-d13d-48d6-9fbb-3108e170a942","system_id":"levelo_inurba_marseille","lat":43.26691,"lon":5.38257,"is_reserved":false,"is_disabled":false,"rental_uris":{"android":"levelo://app?vid=a82809b2-d13d-48d6-9fbb-3108e170a942","ios":"levelo://app?vid=a82809b2-d13d-48d6-9fbb-3108e170a942"},"vehicle_type_id":"4","last_reported":1737198367,"current_range_meters":37600,"station_id":"ce4bhg92rcd13ifvqf90","pricing_plan_id":"cebpf4jnsgd1na2vs0mg"},{"bike_id":"2facf60e-4b74-4408-be56-5e144c403151","system_id":"levelo_inurba_marseille","lat":43.3053,"lon":5.36707,"is_reserved":false,"is_disabled":false,"rental_uris":{"android":"levelo://app?vid=2facf60e-4b74-4408-be56-5e144c403151","ios":"levelo://app?vid=2facf60e-4b74-4408-be56-5e144c403151"},"vehicle_type_id":"4","last_reported":1737198367,"current_range_meters":38800,"station_id":"ce4bgrp2rcd13ifvqc9g","pricing_plan_id":"cebpf4jnsgd1na2vs0mg"},{"bike_id":"8619b879-39c2-4eab-a29d-2a9e5a0aa763","system_id":"levelo_inurba_marseille","lat":43.34145,"lon":5.40909,"is_reserved":false,"is_disabled":false,"rental_uris":{"android":"levelo://app?vid=8619b879-39c2-4eab-a29d-2a9e5a0aa763","ios":"levelo://app?vid=8619b879-39c2-4eab-a29d-2a9e5a0aa763"},"vehicle_type_id":"4","last_reported":1737198367,"current_range_meters":20800,"station_id":"ce4bhqh2rcd13ifvqhlg","pricing_plan_id":"cebpf4jnsgd1na2vs0mg"},{"bike_id":"c3e8a3da-56d6-46a0-9242-3c67a80126f8","system_id":"levelo_inurba_marseille","lat":43.3053,"lon":5.36531,"is_reserved":false,"is_disabled":false,"rental_uris":{"android":"levelo://app?vid=c3e8a3da-56d6-46a0-9242-3c67a80126f8","ios":"levelo://app?vid=c3e8a3da-56d6-46a0-9242-3c67a80126f8"},"vehicle_type_id":"4","last_reported":1737198367,"current_range_meters":38000,"station_id":"ce4bgs12rcd13ifvqcag","pricing_plan_id":"cebpf4jnsgd1na2vs0mg"},{"bike_id":"c717f2a7-de2a-4c46-a25b-711791478edc","system_id":"levelo_inurba_marseille","lat":43.25579,"lon":5.38241,"is_reserved":false,"is_disabled":false,"rental_uris":{"android":"levelo://app?vid=c717f2a7-de2a-4c46-a25b-711791478edc","ios":"levelo://app?vid=c717f2a7-de2a-4c46-a25b-711791478edc"},"vehicle_type_id":"4","last_reported":1737198367,"current_range_meters":29600,"station_id":"ce4bhih2rcd13ifvqfs0","pricing_plan_id":"cebpf4jnsgd1na2vs0mg"},{"bike_id":"d8876122-ff1e-42bb-a9ac-c66c39d72467","system_id":"levelo_inurba_marseille","lat":43.2438,"lon":5.37096,"is_reserved":false,"is_disabled":false,"rental_uris":{"android":"levelo://app?vid=d8876122-ff1e-42bb-a9ac-c66c39d72467","ios":"levelo://app?vid=d8876122-ff1e-42bb-a9ac-c66c39d72467"},"vehicle_type_id":"4","last_reported":1737198367,"current_range_meters":27600,"station_id":"ce4bhhh2rcd13ifvqfk0","pricing_plan_id":"cebpf4jnsgd1na2vs0mg"},{"bike_id":"e156ed18-2bec-48d9-9b50-3136bd9ce3dd","system_id":"levelo_inurba_marseille","lat":43.30541,"lon":5.36539,"is_reserved":false,"is_disabled":false,"rental_uris":{"android":"levelo://app?vid=e156ed18-2bec-48d9-9b50-3136bd9ce3dd","ios":"levelo://app?vid=e156ed18-2bec-48d9-9b50-3136bd9ce3dd"},"vehicle_type_id":"4","last_reported":1737198367,"current_range_meters":24800,"station_id":"ce4bgs12rcd13ifvqcag","pricing_plan_id":"cebpf4jnsgd1na2vs0mg"},{"bike_id":"49679155-4ac8-48c4-b9e1-e19a96772f95","system_id":"levelo_inurba_marseille","lat":43.241219,"lon":5.377082,"is_reserved":false,"is_disabled":false,"rental_uris":{"android":"levelo://app?vid=49679155-4ac8-48c4-b9e1-e19a96772f95","ios":"levelo://app?vid=49679155-4ac8-48c4-b9e1-e19a96772f95"},"vehicle_type_id":"4","last_reported":1737198367,"current_range_meters":28800,"station_id":"ce4bhnp2rcd13ifvqgvg","pricing_plan_id":"cebpf4jnsgd1na2vs0mg"},{"bike_id":"0bbfed84-aaea-446d-9091-9a8a8c37411e","system_id":"levelo_inurba_marseille","lat":43.31227,"lon":5.36866,"is_reserved":false,"is_disabled":false,"rental_uris":{"android":"levelo://app?vid=0bbfed84-aaea-446d-9091-9a8a8c37411e","ios":"levelo://app?vid=0bbfed84-aaea-446d-9091-9a8a8c37411e"},"vehicle_type_id":"4","last_reported":1737198367,"current_range_meters":26000,"station_id":"ce4bgl92rcd13ifvqbq0","pricing_plan_id":"cebpf4jnsgd1na2vs0mg"},{"bike_id":"607ab423-2eaa-4ae3-bd26-ca675f5968ff","system_id":"levelo_inurba_marseille","lat":43.28262,"lon":5.35073,"is_reserved":false,"is_disabled":false,"rental_uris":{"android":"levelo://app?vid=607ab423-2eaa-4ae3-bd26-ca675f5968ff","ios":"levelo://app?vid=607ab423-2eaa-4ae3-bd26-ca675f5968ff"},"vehicle_type_id":"4","last_reported":1737198367,"current_range_meters":38800,"station_id":"ce4bhbp2rcd13ifvqerg","pricing_plan_id":"cebpf4jnsgd1na2vs0mg"},{"bike_id":"b42d349b-8767-4500-922c-77c53d2c4648","system_id":"levelo_inurba_marseille","lat":43.26058,"lon":5.39393,"is_reserved":false,"is_disabled":false,"rental_uris":{"android":"levelo://app?vid=b42d349b-8767-4500-922c-77c53d2c4648","ios":"levelo://app?vid=b42d349b-8767-4500-922c-77c53d2c4648"},"vehicle_type_id":"4","last_reported":1737198367,"current_range_meters":23200,"station_id":"ce4bhh92rcd13ifvqfj0","pricing_plan_id":"cebpf4jnsgd1na2vs0mg"},{"bike_id":"b744261a-fdea-4f90-bcd8-bb7022c02aa6","system_id":"levelo_inurba_marseille","lat":43.28722,"lon":5.391897,"is_reserved":false,"is_disabled":false,"rental_uris":{"android":"levelo://app?vid=b744261a-fdea-4f90-bcd8-bb7022c02aa6","ios":"levelo://app?vid=b744261a-fdea-4f90-bcd8-bb7022c02aa6"},"vehicle_type_id":"4","last_reported":1737198367,"current_range_meters":2800,"station_id":"ce4bh2p2rcd13ifvqdi0","pricing_plan_id":"cebpf4jnsgd1na2vs0mg"},{"bike_id":"f3c94274-f861-4c89-8bb1-1ebe1a531935","system_id":"levelo_inurba_marseille","lat":43.25015,"lon":5.38908,"is_reserved":false,"is_disabled":true,"rental_uris":{"android":"levelo://app?vid=f3c94274-f861-4c89-8bb1-1ebe1a531935","ios":"levelo://app?vid=f3c94274-f861-4c89-8bb1-1ebe1a531935"},"vehicle_type_id":"4","last_reported":1737198367,"current_range_meters":800,"station_id":"ce4bhgp2rcd13ifvqfd0","pricing_plan_id":"cebpf4jnsgd1na2vs0mg"},{"bike_id":"666d62fc-f7b3-419f-9cf1-9c4cad817518","system_id":"levelo_inurba_marseille","lat":43.29107,"lon":5.3812,"is_reserved":false,"is_disabled":false,"rental_uris":{"android":"levelo://app?vid=666d62fc-f7b3-419f-9cf1-9c4cad817518","ios":"levelo://app?vid=666d62fc-f7b3-419f-9cf1-9c4cad817518"},"vehicle_type_id":"4","last_reported":1737198367,"current_range_meters":28000,"station_id":"ce4bh512rcd13ifvqe2g","pricing_plan_id":"cebpf4jnsgd1na2vs0mg"},{"bike_id":"ea820ade-d81d-428e-82b9-7f165f7e8e75","system_id":"levelo_inurba_marseille","lat":43.32355,"lon":5.36769,"is_reserved":false,"is_disabled":false,"rental_uris":{"android":"levelo://app?vid=ea820ade-d81d-428e-82b9-7f165f7e8e75","ios":"levelo://app?vid=ea820ade-d81d-428e-82b9-7f165f7e8e75"},"vehicle_type_id":"4","last_reported":1737198367,"current_range_meters":23200,"station_id":"ce4bhsh2rcd13ifvqi2g","pricing_plan_id":"cebpf4jnsgd1na2vs0mg"},{"bike_id":"ff4b68f1-ba61-49bc-bc42-1ee83da4c2ee","system_id":"levelo_inurba_marseille","lat":43.3089,"lon":5.39639,"is_reserved":false,"is_disabled":true,"rental_uris":{"android":"levelo://app?vid=ff4b68f1-ba61-49bc-bc42-1ee83da4c2ee","ios":"levelo://app?vid=ff4b68f1-ba61-49bc-bc42-1ee83da4c2ee"},"vehicle_type_id":"4","last_reported":1737198367,"current_range_meters":36400,"station_id":"ce4bh012rcd13ifvqcv0","pricing_plan_id":"cebpf4jnsgd1na2vs0mg"},{"bike_id":"40a84bb7-b298-41c9-9be3-6988c404f7ba","system_id":"levelo_inurba_marseille","lat":43.29524,"lon":5.39038,"is_reserved":false,"is_disabled":true,"rental_uris":{"android":"levelo://app?vid=40a84bb7-b298-41c9-9be3-6988c404f7ba","ios":"levelo://app?vid=40a84bb7-b298-41c9-9be3-6988c404f7ba"},"vehicle_type_id":"4","last_reported":1737198367,"current_range_meters":28800,"station_id":"ce4bh3p2rcd13ifvqdp0","pricing_plan_id":"cebpf4jnsgd1na2vs0mg"},{"bike_id":"a6f2a340-3afb-4553-b56d-ceb583ba3766","system_id":"levelo_inurba_marseille","lat":43.29939,"lon":5.36543,"is_reserved":false,"is_disabled":false,"rental_uris":{"android":"levelo://app?vid=a6f2a340-3afb-4553-b56d-ceb583ba3766","ios":"levelo://app?vid=a6f2a340-3afb-4553-b56d-ceb583ba3766"},"vehicle_type_id":"4","last_reported":1737198367,"current_range_meters":7200,"station_id":"ce4bgm92rcd13ifvqbr0","pricing_plan_id":"cebpf4jnsgd1na2vs0mg"},{"bike_id":"2e00ce67-d361-4edc-b2f6-0809ad451868","system_id":"levelo_inurba_marseille","lat":43.2318,"lon":5.39988,"is_reserved":false,"is_disabled":false,"rental_uris":{"android":"levelo://app?vid=2e00ce67-d361-4edc-b2f6-0809ad451868","ios":"levelo://app?vid=2e00ce67-d361-4edc-b2f6-0809ad451868"},"vehicle_type_id":"4","last_reported":1737198367,"current_range_meters":31200,"station_id":"ce4bhn12rcd13ifvqgqg","pricing_plan_id":"cebpf4jnsgd1na2vs0mg"},{"bike_id":"c8aac808-b9bc-4beb-9b63-e8977725d966","system_id":"levelo_inurba_marseille","lat":43.308031,"lon":5.381545,"is_reserved":false,"is_disabled":false,"rental_uris":{"android":"levelo://app?vid=c8aac808-b9bc-4beb-9b63-e8977725d966","ios":"levelo://app?vid=c8aac808-b9bc-4beb-9b63-e8977725d966"},"vehicle_type_id":"4","last_reported":1737198367,"current_range_meters":30400,"station_id":"ce4bgt12rcd13ifvqce0","pricing_plan_id":"cebpf4jnsgd1na2vs0mg"},{"bike_id":"b672b566-ae6e-4181-a2cb-0155be334a04","system_id":"levelo_inurba_marseille","lat":43.28969,"lon":5.36627,"is_reserved":false,"is_disabled":true,"rental_uris":{"android":"levelo://app?vid=b672b566-ae6e-4181-a2cb-0155be334a04","ios":"levelo://app?vid=b672b566-ae6e-4181-a2cb-0155be334a04"},"vehicle_type_id":"4","last_reported":1737198367,"current_range_meters":0,"station_id":"","pricing_plan_id":"cebpf4jnsgd1na2vs0mg"},{"bike_id":"d9e5908d-6263-4243-bbfd-c696d4476ec7","system_id":"levelo_inurba_marseille","lat":43.30122,"lon":5.37455,"is_reserved":false,"is_disabled":false,"rental_uris":{"android":"levelo://app?vid=d9e5908d-6263-4243-bbfd-c696d4476ec7","ios":"levelo://app?vid=d9e5908d-6263-4243-bbfd-c696d4476ec7"},"vehicle_type_id":"4","last_reported":1737198367,"current_range_meters":38800,"station_id":"ce4bgs92rcd13ifvqcc0","pricing_plan_id":"cebpf4jnsgd1na2vs0mg"},{"bike_id":"b56d7cfb-6d51-4fa5-ac98-edff26387e02","system_id":"levelo_inurba_marseille","lat":43.29015,"lon":5.38164,"is_reserved":false,"is_disabled":false,"rental_uris":{"android":"levelo://app?vid=b56d7cfb-6d51-4fa5-ac98-edff26387e02","ios":"levelo://app?vid=b56d7cfb-6d51-4fa5-ac98-edff26387e02"},"vehicle_type_id":"4","last_reported":1737198367,"current_range_meters":35200,"station_id":"ce4bh4p2rcd13ifvqe1g","pricing_plan_id":"cebpf4jnsgd1na2vs0mg"},{"bike_id":"b56c6cff-76b9-41e9-923c-24ce90c972b0","system_id":"levelo_inurba_marseille","lat":43.28926,"lon":5.38405,"is_reserved":false,"is_disabled":false,"rental_uris":{"android":"levelo://app?vid=b56c6cff-76b9-41e9-923c-24ce90c972b0","ios":"levelo://app?vid=b56c6cff-76b9-41e9-923c-24ce90c972b0"},"vehicle_type_id":"4","last_reported":1737198367,"current_range_meters":18000,"station_id":"ce4bh612rcd13ifvqe6g","pricing_plan_id":"cebpf4jnsgd1na2vs0mg"},{"bike_id":"5e143f2e-5809-48e3-af3c-832b93623f81","system_id":"levelo_inurba_marseille","lat":43.29788,"lon":5.40431,"is_reserved":false,"is_disabled":false,"rental_uris":{"android":"levelo://app?vid=5e143f2e-5809-48e3-af3c-832b93623f81","ios":"levelo://app?vid=5e143f2e-5809-48e3-af3c-832b93623f81"},"vehicle_type_id":"4","last_reported":1737198367,"current_range_meters":38800,"station_id":"ce4bh112rcd13ifvqd90","pricing_plan_id":"cebpf4jnsgd1na2vs0mg"},{"bike_id":"f0984860-e256-400f-a17a-f909190d755f","system_id":"levelo_inurba_marseille","lat":43.25717,"lon":5.41114,"is_reserved":false,"is_disabled":false,"rental_uris":{"android":"levelo://app?vid=f0984860-e256-400f-a17a-f909190d755f","ios":"levelo://app?vid=f0984860-e256-400f-a17a-f909190d755f"},"vehicle_type_id":"4","last_reported":1737198367,"current_range_meters":35200,"station_id":"ce4bhkp2rcd13ifvqgd0","pricing_plan_id":"cebpf4jnsgd1na2vs0mg"},{"bike_id":"6a1e5573-fc87-4b7e-bd9b-f375643902a6","system_id":"levelo_inurba_marseille","lat":43.25577,"lon":5.38246,"is_reserved":false,"is_disabled":false,"rental_uris":{"android":"levelo://app?vid=6a1e5573-fc87-4b7e-bd9b-f375643902a6","ios":"levelo://app?vid=6a1e5573-fc87-4b7e-bd9b-f375643902a6"},"vehicle_type_id":"4","last_reported":1737198367,"current_range_meters":8400,"station_id":"ce4bhih2rcd13ifvqfs0","pricing_plan_id":"cebpf4jnsgd1na2vs0mg"},{"bike_id":"699f9075-c5fb-4c2e-b1de-3e38057eaabe","system_id":"levelo_inurba_marseille","lat":43.25002,"lon":5.38943,"is_reserved":false,"is_disabled":false,"rental_uris":{"android":"levelo://app?vid=699f9075-c5fb-4c2e-b1de-3e38057eaabe","ios":"levelo://app?vid=699f9075-c5fb-4c2e-b1de-3e38057eaabe"},"vehicle_type_id":"4","last_reported":1737198367,"current_range_meters":24400,"station_id":"ce4bhgp2rcd13ifvqfd0","pricing_plan_id":"cebpf4jnsgd1na2vs0mg"},{"bike_id":"6783ed88-b503-4dfa-b253-29127064a8dd","system_id":"levelo_inurba_marseille","lat":43.30535,"lon":5.3654,"is_reserved":false,"is_disabled":false,"rental_uris":{"android":"levelo://app?vid=6783ed88-b503-4dfa-b253-29127064a8dd","ios":"levelo://app?vid=6783ed88-b503-4dfa-b253-29127064a8dd"},"vehicle_type_id":"4","last_reported":1737198367,"current_range_meters":27200,"station_id":"ce4bgs12rcd13ifvqcag","pricing_plan_id":"cebpf4jnsgd1na2vs0mg"},{"bike_id":"b54b7d36-63ad-4626-a0e3-0fedf3e24316","system_id":"levelo_inurba_marseille","lat":43.2668,"lon":5.38276,"is_reserved":false,"is_disabled":false,"rental_uris":{"android":"levelo://app?vid=b54b7d36-63ad-4626-a0e3-0fedf3e24316","ios":"levelo://app?vid=b54b7d36-63ad-4626-a0e3-0fedf3e24316"},"vehicle_type_id":"4","last_reported":1737198367,"current_range_meters":38400,"station_id":"ce4bhg92rcd13ifvqf90","pricing_plan_id":"cebpf4jnsgd1na2vs0mg"},{"bike_id":"f9bb04db-23af-40f1-80c7-0b7562d066b2","system_id":"levelo_inurba_marseille","lat":43.29415,"lon":5.38625,"is_reserved":false,"is_disabled":false,"rental_uris":{"android":"levelo://app?vid=f9bb04db-23af-40f1-80c7-0b7562d066b2","ios":"levelo://app?vid=f9bb04db-23af-40f1-80c7-0b7562d066b2"},"vehicle_type_id":"4","last_reported":1737198367,"current_range_meters":30800,"station_id":"ce4bh2h2rcd13ifvqdh0","pricing_plan_id":"cebpf4jnsgd1na2vs0mg"},{"bike_id":"385e017c-c7f2-4667-a239-8a8e58313616","system_id":"levelo_inurba_marseille","lat":43.28473,"lon":5.38392,"is_reserved":false,"is_disabled":false,"rental_uris":{"android":"levelo://app?vid=385e017c-c7f2-4667-a239-8a8e58313616","ios":"levelo://app?vid=385e017c-c7f2-4667-a239-8a8e58313616"},"vehicle_type_id":"4","last_reported":1737198367,"current_range_meters":14400,"station_id":"ce4bh512rcd13ifvqe3g","pricing_plan_id":"cebpf4jnsgd1na2vs0mg"},{"bike_id":"eae4938b-82ed-48a2-af5e-c6d7cb90fcde","system_id":"levelo_inurba_marseille","lat":43.24544,"lon":5.39525,"is_reserved":false,"is_disabled":false,"rental_uris":{"android":"levelo://app?vid=eae4938b-82ed-48a2-af5e-c6d7cb90fcde","ios":"levelo://app?vid=eae4938b-82ed-48a2-af5e-c6d7cb90fcde"},"vehicle_type_id":"4","last_reported":1737198367,"current_range_meters":30000,"station_id":"ce4bhlp2rcd13ifvqgjg","pricing_plan_id":"cebpf4jnsgd1na2vs0mg"},{"bike_id":"11854ff7-8188-4d1d-a4c6-3790dab1f10c","system_id":"levelo_inurba_marseille","lat":43.31934,"lon":5.41587,"is_reserved":false,"is_disabled":false,"rental_uris":{"android":"levelo://app?vid=11854ff7-8188-4d1d-a4c6-3790dab1f10c","ios":"levelo://app?vid=11854ff7-8188-4d1d-a4c6-3790dab1f10c"},"vehicle_type_id":"4","last_reported":1737198367,"current_range_meters":38800,"station_id":"ce4bhq92rcd13ifvqhkg","pricing_plan_id":"cebpf4jnsgd1na2vs0mg"},{"bike_id":"e5e2646b-3104-4014-8287-03c3a31d66e7","system_id":"levelo_inurba_marseille","lat":43.32338,"lon":5.40605,"is_reserved":false,"is_disabled":false,"rental_uris":{"android":"levelo://app?vid=e5e2646b-3104-4014-8287-03c3a31d66e7","ios":"levelo://app?vid=e5e2646b-3104-4014-8287-03c3a31d66e7"},"vehicle_type_id":"4","last_reported":1737198367,"current_range_meters":4000,"station_id":"ce4bhq92rcd13ifvqhjg","pricing_plan_id":"cebpf4jnsgd1na2vs0mg"},{"bike_id":"539b4fb0-cc4e-4769-b28a-3e0e9100b545","system_id":"levelo_inurba_marseille","lat":43.29299,"lon":5.37445,"is_reserved":false,"is_disabled":false,"rental_uris":{"android":"levelo://app?vid=539b4fb0-cc4e-4769-b28a-3e0e9100b545","ios":"levelo://app?vid=539b4fb0-cc4e-4769-b28a-3e0e9100b545"},"vehicle_type_id":"4","last_reported":1737198367,"current_range_meters":31200,"station_id":"ce4bgi12rcd13ifvqb70","pricing_plan_id":"cebpf4jnsgd1na2vs0mg"},{"bike_id":"fd1cd14b-2ec8-4976-944c-5189569f252c","system_id":"levelo_inurba_marseille","lat":43.29294,"lon":5.37148,"is_reserved":false,"is_disabled":false,"rental_uris":{"android":"levelo://app?vid=fd1cd14b-2ec8-4976-944c-5189569f252c","ios":"levelo://app?vid=fd1cd14b-2ec8-4976-944c-5189569f252c"},"vehicle_type_id":"4","last_reported":1737198367,"current_range_meters":38800,"station_id":"ce4bgh92rcd13ifvqb40","pricing_plan_id":"cebpf4jnsgd1na2vs0mg"},{"bike_id":"0bf02e6f-812e-478a-bb1d-802824a18f94","system_id":"levelo_inurba_marseille","lat":43.23183,"lon":5.39997,"is_reserved":false,"is_disabled":false,"rental_uris":{"android":"levelo://app?vid=0bf02e6f-812e-478a-bb1d-802824a18f94","ios":"levelo://app?vid=0bf02e6f-812e-478a-bb1d-802824a18f94"},"vehicle_type_id":"4","last_reported":1737198367,"current_range_meters":28800,"station_id":"ce4bhn12rcd13ifvqgqg","pricing_plan_id":"cebpf4jnsgd1na2vs0mg"},{"bike_id":"e47ce800-3fe4-4819-926c-1df2c03d0274","system_id":"levelo_inurba_marseille","lat":43.27676,"lon":5.38917,"is_reserved":false,"is_disabled":false,"rental_uris":{"android":"levelo://app?vid=e47ce800-3fe4-4819-926c-1df2c03d0274","ios":"levelo://app?vid=e47ce800-3fe4-4819-926c-1df2c03d0274"},"vehicle_type_id":"4","last_reported":1737198367,"current_range_meters":38400,"station_id":"ce4bhi12rcd13ifvqfo0","pricing_plan_id":"cebpf4jnsgd1na2vs0mg"},{"bike_id":"e44d3b46-7a6c-48a1-bfde-c63c43f92cf0","system_id":"levelo_inurba_marseille","lat":43.28622,"lon":5.351,"is_reserved":false,"is_disabled":false,"rental_uris":{"android":"levelo://app?vid=e44d3b46-7a6c-48a1-bfde-c63c43f92cf0","ios":"levelo://app?vid=e44d3b46-7a6c-48a1-bfde-c63c43f92cf0"},"vehicle_type_id":"4","last_reported":1737198367,"current_range_meters":29600,"station_id":"ce4bhch2rcd13ifvqeug","pricing_plan_id":"cebpf4jnsgd1na2vs0mg"},{"bike_id":"95f176bd-d57a-4d89-96ff-1b04f98e1490","system_id":"levelo_inurba_marseille","lat":43.29251,"lon":5.38447,"is_reserved":false,"is_disabled":false,"rental_uris":{"android":"levelo://app?vid=95f176bd-d57a-4d89-96ff-1b04f98e1490","ios":"levelo://app?vid=95f176bd-d57a-4d89-96ff-1b04f98e1490"},"vehicle_type_id":"4","last_reported":1737198367,"current_range_meters":8400,"station_id":"ce4bh692rcd13ifvqea0","pricing_plan_id":"cebpf4jnsgd1na2vs0mg"},{"bike_id":"ca8aa51d-4833-4c77-8009-59b7c07323a3","system_id":"levelo_inurba_marseille","lat":43.32352,"lon":5.36754,"is_reserved":false,"is_disabled":false,"rental_uris":{"android":"levelo://app?vid=ca8aa51d-4833-4c77-8009-59b7c07323a3","ios":"levelo://app?vid=ca8aa51d-4833-4c77-8009-59b7c07323a3"},"vehicle_type_id":"4","last_reported":1737198367,"current_range_meters":10000,"station_id":"ce4bhsh2rcd13ifvqi2g","pricing_plan_id":"cebpf4jnsgd1na2vs0mg"},{"bike_id":"5faa8c62-2ac8-41ab-93f0-47014fb93567","system_id":"levelo_inurba_marseille","lat":43.30123,"lon":5.39037,"is_reserved":false,"is_disabled":false,"rental_uris":{"android":"levelo://app?vid=5faa8c62-2ac8-41ab-93f0-47014fb93567","ios":"levelo://app?vid=5faa8c62-2ac8-41ab-93f0-47014fb93567"},"vehicle_type_id":"4","last_reported":1737198367,"current_range_meters":28800,"station_id":"","pricing_plan_id":"cebpf4jnsgd1na2vs0mg"},{"bike_id":"a8e68905-4196-41cc-90d8-ce6a1fbe0294","system_id":"levelo_inurba_marseille","lat":43.27886,"lon":5.38006,"is_reserved":false,"is_disabled":true,"rental_uris":{"android":"levelo://app?vid=a8e68905-4196-41cc-90d8-ce6a1fbe0294","ios":"levelo://app?vid=a8e68905-4196-41cc-90d8-ce6a1fbe0294"},"vehicle_type_id":"4","last_reported":1737198367,"current_range_meters":2000,"station_id":"ce4bhf92rcd13ifvqf50","pricing_plan_id":"cebpf4jnsgd1na2vs0mg"},{"bike_id":"fe6872e5-0c99-4fd2-a6ff-906d58eec1ac","system_id":"levelo_inurba_marseille","lat":43.26892,"lon":5.39397,"is_reserved":false,"is_disabled":false,"rental_uris":{"android":"levelo://app?vid=fe6872e5-0c99-4fd2-a6ff-906d58eec1ac","ios":"levelo://app?vid=fe6872e5-0c99-4fd2-a6ff-906d58eec1ac"},"vehicle_type_id":"4","last_reported":1737198367,"current_range_meters":12000,"station_id":"","pricing_plan_id":"cebpf4jnsgd1na2vs0mg"},{"bike_id":"c6b2298b-e3ea-4ff5-9aea-4dedd2e2a126","system_id":"levelo_inurba_marseille","lat":43.29543,"lon":5.39029,"is_reserved":false,"is_disabled":true,"rental_uris":{"android":"levelo://app?vid=c6b2298b-e3ea-4ff5-9aea-4dedd2e2a126","ios":"levelo://app?vid=c6b2298b-e3ea-4ff5-9aea-4dedd2e2a126"},"vehicle_type_id":"4","last_reported":1737198367,"current_range_meters":28400,"station_id":"ce4bh3p2rcd13ifvqdp0","pricing_plan_id":"cebpf4jnsgd1na2vs0mg"},{"bike_id":"84c52c55-2857-44ab-9663-b3bc870d97eb","system_id":"levelo_inurba_marseille","lat":43.29415,"lon":5.38628,"is_reserved":false,"is_disabled":false,"rental_uris":{"android":"levelo://app?vid=84c52c55-2857-44ab-9663-b3bc870d97eb","ios":"levelo://app?vid=84c52c55-2857-44ab-9663-b3bc870d97eb"},"vehicle_type_id":"4","last_reported":1737198367,"current_range_meters":24000,"station_id":"ce4bh2h2rcd13ifvqdh0","pricing_plan_id":"cebpf4jnsgd1na2vs0mg"},{"bike_id":"c9be01c1-c65a-4c98-8923-01889b467275","system_id":"levelo_inurba_marseille","lat":43.26552,"lon":5.37287,"is_reserved":false,"is_disabled":false,"rental_uris":{"android":"levelo://app?vid=c9be01c1-c65a-4c98-8923-01889b467275","ios":"levelo://app?vid=c9be01c1-c65a-4c98-8923-01889b467275"},"vehicle_type_id":"4","last_reported":1737198367,"current_range_meters":38800,"station_id":"ce4bhg12rcd13ifvqf70","pricing_plan_id":"cebpf4jnsgd1na2vs0mg"},{"bike_id":"c3e33ec7-202c-404a-ba09-a5072c1da0f1","system_id":"levelo_inurba_marseille","lat":43.28978,"lon":5.37833,"is_reserved":false,"is_disabled":false,"rental_uris":{"android":"levelo://app?vid=c3e33ec7-202c-404a-ba09-a5072c1da0f1","ios":"levelo://app?vid=c3e33ec7-202c-404a-ba09-a5072c1da0f1"},"vehicle_type_id":"4","last_reported":1737198367,"current_range_meters":35600,"station_id":"ce4bh9p2rcd13ifvqed0","pricing_plan_id":"cebpf4jnsgd1na2vs0mg"},{"bike_id":"d4f48d4a-1b2f-4917-b032-e3ea3abcce65","system_id":"levelo_inurba_marseille","lat":43.29355,"lon":5.37865,"is_reserved":false,"is_disabled":false,"rental_uris":{"android":"levelo://app?vid=d4f48d4a-1b2f-4917-b032-e3ea3abcce65","ios":"levelo://app?vid=d4f48d4a-1b2f-4917-b032-e3ea3abcce65"},"vehicle_type_id":"4","last_reported":1737198367,"current_range_meters":30800,"station_id":"ce4bgjh2rcd13ifvqbf0","pricing_plan_id":"cebpf4jnsgd1na2vs0mg"},{"bike_id":"6ea4d259-06b8-4e0f-9494-4eae2040b46d","system_id":"levelo_inurba_marseille","lat":43.24185,"lon":5.39707,"is_reserved":false,"is_disabled":false,"rental_uris":{"android":"levelo://app?vid=6ea4d259-06b8-4e0f-9494-4eae2040b46d","ios":"levelo://app?vid=6ea4d259-06b8-4e0f-9494-4eae2040b46d"},"vehicle_type_id":"4","last_reported":1737198367,"current_range_meters":25200,"station_id":"ce4bhn12rcd13ifvqgpg","pricing_plan_id":"cebpf4jnsgd1na2vs0mg"},{"bike_id":"23c1824a-a61e-44cf-8fba-c08caf637479","system_id":"levelo_inurba_marseille","lat":43.29743,"lon":5.37684,"is_reserved":false,"is_disabled":false,"rental_uris":{"android":"levelo://app?vid=23c1824a-a61e-44cf-8fba-c08caf637479","ios":"levelo://app?vid=23c1824a-a61e-44cf-8fba-c08caf637479"},"vehicle_type_id":"4","last_reported":1737198367,"current_range_meters":22800,"station_id":"ce4bgkh2rcd13ifvqbl0","pricing_plan_id":"cebpf4jnsgd1na2vs0mg"},{"bike_id":"8eaddf67-1ea5-48ba-bed3-583a76394419","system_id":"levelo_inurba_marseille","lat":43.25001,"lon":5.38933,"is_reserved":false,"is_disabled":false,"rental_uris":{"android":"levelo://app?vid=8eaddf67-1ea5-48ba-bed3-583a76394419","ios":"levelo://app?vid=8eaddf67-1ea5-48ba-bed3-583a76394419"},"vehicle_type_id":"4","last_reported":1737198367,"current_range_meters":18000,"station_id":"ce4bhgp2rcd13ifvqfd0","pricing_plan_id":"cebpf4jnsgd1na2vs0mg"},{"bike_id":"0aacbbb4-b4df-4112-9f3e-9c8b0c3a36b2","system_id":"levelo_inurba_marseille","lat":43.243851,"lon":5.370558,"is_reserved":false,"is_disabled":false,"rental_uris":{"android":"levelo://app?vid=0aacbbb4-b4df-4112-9f3e-9c8b0c3a36b2","ios":"levelo://app?vid=0aacbbb4-b4df-4112-9f3e-9c8b0c3a36b2"},"vehicle_type_id":"4","last_reported":1737198367,"current_range_meters":38800,"station_id":"ce4bhhh2rcd13ifvqfk0","pricing_plan_id":"cebpf4jnsgd1na2vs0mg"},{"bike_id":"4195a369-a7ca-4062-b0c4-11dcec0d9a33","system_id":"levelo_inurba_marseille","lat":43.30306,"lon":5.39248,"is_reserved":false,"is_disabled":true,"rental_uris":{"android":"levelo://app?vid=4195a369-a7ca-4062-b0c4-11dcec0d9a33","ios":"levelo://app?vid=4195a369-a7ca-4062-b0c4-11dcec0d9a33"},"vehicle_type_id":"4","last_reported":1737198367,"current_range_meters":36800,"station_id":"ce4bgkh2rcd13ifvqbk0","pricing_plan_id":"cebpf4jnsgd1na2vs0mg"},{"bike_id":"d423c96c-8122-45c6-b4f9-92ffc594bd27","system_id":"levelo_inurba_marseille","lat":43.25863,"lon":5.3991,"is_reserved":false,"is_disabled":false,"rental_uris":{"android":"levelo://app?vid=d423c96c-8122-45c6-b4f9-92ffc594bd27","ios":"levelo://app?vid=d423c96c-8122-45c6-b4f9-92ffc594bd27"},"vehicle_type_id":"4","last_reported":1737198367,"current_range_meters":30000,"station_id":"ce4bhl92rcd13ifvqghg","pricing_plan_id":"cebpf4jnsgd1na2vs0mg"},{"bike_id":"7b42a98f-a6d5-44c4-85b1-ac2cd91aafd3","system_id":"levelo_inurba_marseille","lat":43.27212,"lon":5.39196,"is_reserved":false,"is_disabled":true,"rental_uris":{"android":"levelo://app?vid=7b42a98f-a6d5-44c4-85b1-ac2cd91aafd3","ios":"levelo://app?vid=7b42a98f-a6d5-44c4-85b1-ac2cd91aafd3"},"vehicle_type_id":"4","last_reported":1737198367,"current_range_meters":0,"station_id":"ce4bhhp2rcd13ifvqfm0","pricing_plan_id":"cebpf4jnsgd1na2vs0mg"},{"bike_id":"891d5aa4-b1b0-4e0c-90ac-49e97bf9c382","system_id":"levelo_inurba_marseille","lat":43.23188,"lon":5.39994,"is_reserved":false,"is_disabled":false,"rental_uris":{"android":"levelo://app?vid=891d5aa4-b1b0-4e0c-90ac-49e97bf9c382","ios":"levelo://app?vid=891d5aa4-b1b0-4e0c-90ac-49e97bf9c382"},"vehicle_type_id":"4","last_reported":1737198367,"current_range_meters":30000,"station_id":"ce4bhn12rcd13ifvqgqg","pricing_plan_id":"cebpf4jnsgd1na2vs0mg"},{"bike_id":"56fd95d7-387f-4701-b2ed-67ccefca57fa","system_id":"levelo_inurba_marseille","lat":43.304703,"lon":5.37899,"is_reserved":false,"is_disabled":false,"rental_uris":{"android":"levelo://app?vid=56fd95d7-387f-4701-b2ed-67ccefca57fa","ios":"levelo://app?vid=56fd95d7-387f-4701-b2ed-67ccefca57fa"},"vehicle_type_id":"4","last_reported":1737198367,"current_range_meters":38800,"station_id":"ce4bgup2rcd13ifvqcn0","pricing_plan_id":"cebpf4jnsgd1na2vs0mg"},{"bike_id":"a1a2ccdf-1349-459a-b136-4bff2238b289","system_id":"levelo_inurba_marseille","lat":43.28002,"lon":5.40011,"is_reserved":false,"is_disabled":false,"rental_uris":{"android":"levelo://app?vid=a1a2ccdf-1349-459a-b136-4bff2238b289","ios":"levelo://app?vid=a1a2ccdf-1349-459a-b136-4bff2238b289"},"vehicle_type_id":"4","last_reported":1737198367,"current_range_meters":19600,"station_id":"ce4bho92rcd13ifvqh4g","pricing_plan_id":"cebpf4jnsgd1na2vs0mg"},{"bike_id":"22adcffd-600e-4bfc-9cda-a29c4cb2998c","system_id":"levelo_inurba_marseille","lat":43.2904,"lon":5.3756,"is_reserved":false,"is_disabled":false,"rental_uris":{"android":"levelo://app?vid=22adcffd-600e-4bfc-9cda-a29c4cb2998c","ios":"levelo://app?vid=22adcffd-600e-4bfc-9cda-a29c4cb2998c"},"vehicle_type_id":"4","last_reported":1737198367,"current_range_meters":38000,"station_id":"ce4bh692rcd13ifvqe90","pricing_plan_id":"cebpf4jnsgd1na2vs0mg"},{"bike_id":"357eaeda-fef2-41f2-9ad0-621ae2cc5c09","system_id":"levelo_inurba_marseille","lat":43.33768,"lon":5.37496,"is_reserved":false,"is_disabled":false,"rental_uris":{"android":"levelo://app?vid=357eaeda-fef2-41f2-9ad0-621ae2cc5c09","ios":"levelo://app?vid=357eaeda-fef2-41f2-9ad0-621ae2cc5c09"},"vehicle_type_id":"4","last_reported":1737198367,"current_range_meters":32000,"station_id":"","pricing_plan_id":"cebpf4jnsgd1na2vs0mg"},{"bike_id":"54c9f7de-8fe5-4fd6-a934-8372e9cad70a","system_id":"levelo_inurba_marseille","lat":43.288355,"lon":5.393318,"is_reserved":false,"is_disabled":true,"rental_uris":{"android":"levelo://app?vid=54c9f7de-8fe5-4fd6-a934-8372e9cad70a","ios":"levelo://app?vid=54c9f7de-8fe5-4fd6-a934-8372e9cad70a"},"vehicle_type_id":"4","last_reported":1737198367,"current_range_meters":22800,"station_id":"ce4bh2p2rcd13ifvqdi0","pricing_plan_id":"cebpf4jnsgd1na2vs0mg"},{"bike_id":"d2190693-b9c3-43fb-b96c-d622d6cca5f6","system_id":"levelo_inurba_marseille","lat":43.23194,"lon":5.35553,"is_reserved":false,"is_disabled":false,"rental_uris":{"android":"levelo://app?vid=d2190693-b9c3-43fb-b96c-d622d6cca5f6","ios":"levelo://app?vid=d2190693-b9c3-43fb-b96c-d622d6cca5f6"},"vehicle_type_id":"4","last_reported":1737198367,"current_range_meters":28000,"station_id":"ce4bhu92rcd13ifvqi70","pricing_plan_id":"cebpf4jnsgd1na2vs0mg"},{"bike_id":"c16af295-34ba-47e2-83f5-588ec70db48a","system_id":"levelo_inurba_marseille","lat":43.29042,"lon":5.40005,"is_reserved":false,"is_disabled":true,"rental_uris":{"android":"levelo://app?vid=c16af295-34ba-47e2-83f5-588ec70db48a","ios":"levelo://app?vid=c16af295-34ba-47e2-83f5-588ec70db48a"},"vehicle_type_id":"4","last_reported":1737198367,"current_range_meters":38000,"station_id":"ce4bh392rcd13ifvqdm0","pricing_plan_id":"cebpf4jnsgd1na2vs0mg"},{"bike_id":"0639aa93-8d73-4953-996d-5756e34b315b","system_id":"levelo_inurba_marseille","lat":43.27492,"lon":5.42472,"is_reserved":false,"is_disabled":false,"rental_uris":{"android":"levelo://app?vid=0639aa93-8d73-4953-996d-5756e34b315b","ios":"levelo://app?vid=0639aa93-8d73-4953-996d-5756e34b315b"},"vehicle_type_id":"4","last_reported":1737198367,"current_range_meters":16800,"station_id":"ce4bhn92rcd13ifvqgrg","pricing_plan_id":"cebpf4jnsgd1na2vs0mg"},{"bike_id":"6fa4492c-803e-4603-a2ad-25f8499d5639","system_id":"levelo_inurba_marseille","lat":43.26065,"lon":5.394,"is_reserved":false,"is_disabled":false,"rental_uris":{"android":"levelo://app?vid=6fa4492c-803e-4603-a2ad-25f8499d5639","ios":"levelo://app?vid=6fa4492c-803e-4603-a2ad-25f8499d5639"},"vehicle_type_id":"4","last_reported":1737198367,"current_range_meters":21600,"station_id":"ce4bhh92rcd13ifvqfj0","pricing_plan_id":"cebpf4jnsgd1na2vs0mg"},{"bike_id":"1d286ee4-8730-43d1-b062-3cef70256d46","system_id":"levelo_inurba_marseille","lat":43.29032,"lon":5.38121,"is_reserved":false,"is_disabled":false,"rental_uris":{"android":"levelo://app?vid=1d286ee4-8730-43d1-b062-3cef70256d46","ios":"levelo://app?vid=1d286ee4-8730-43d1-b062-3cef70256d46"},"vehicle_type_id":"4","last_reported":1737198367,"current_range_meters":28000,"station_id":"ce4bh4p2rcd13ifvqe1g","pricing_plan_id":"cebpf4jnsgd1na2vs0mg"},{"bike_id":"2169cf45-eac4-40d4-806b-6a3511278a1e","system_id":"levelo_inurba_marseille","lat":43.29515,"lon":5.37507,"is_reserved":false,"is_disabled":false,"rental_uris":{"android":"levelo://app?vid=2169cf45-eac4-40d4-806b-6a3511278a1e","ios":"levelo://app?vid=2169cf45-eac4-40d4-806b-6a3511278a1e"},"vehicle_type_id":"4","last_reported":1737198367,"current_range_meters":38400,"station_id":"ce4bgkp2rcd13ifvqbmg","pricing_plan_id":"cebpf4jnsgd1na2vs0mg"},{"bike_id":"41d9c9ee-e01c-41bf-a133-e1b16cf463c8","system_id":"levelo_inurba_marseille","lat":43.3014,"lon":5.38094,"is_reserved":false,"is_disabled":false,"rental_uris":{"android":"levelo://app?vid=41d9c9ee-e01c-41bf-a133-e1b16cf463c8","ios":"levelo://app?vid=41d9c9ee-e01c-41bf-a133-e1b16cf463c8"},"vehicle_type_id":"4","last_reported":1737198367,"current_range_meters":38800,"station_id":"ce4bgjp2rcd13ifvqbh0","pricing_plan_id":"cebpf4jnsgd1na2vs0mg"},{"bike_id":"bcd58053-bae7-45e1-88e2-378c4d0a6c9f","system_id":"levelo_inurba_marseille","lat":43.31685,"lon":5.4047,"is_reserved":false,"is_disabled":false,"rental_uris":{"android":"levelo://app?vid=bcd58053-bae7-45e1-88e2-378c4d0a6c9f","ios":"levelo://app?vid=bcd58053-bae7-45e1-88e2-378c4d0a6c9f"},"vehicle_type_id":"4","last_reported":1737198367,"current_range_meters":26800,"station_id":"ce4bh012rcd13ifvqd00","pricing_plan_id":"cebpf4jnsgd1na2vs0mg"},{"bike_id":"01a07bd9-36a1-4c19-a88b-7c9e3a6ee490","system_id":"levelo_inurba_marseille","lat":43.25106,"lon":5.3952,"is_reserved":false,"is_disabled":false,"rental_uris":{"android":"levelo://app?vid=01a07bd9-36a1-4c19-a88b-7c9e3a6ee490","ios":"levelo://app?vid=01a07bd9-36a1-4c19-a88b-7c9e3a6ee490"},"vehicle_type_id":"4","last_reported":1737198367,"current_range_meters":36800,"station_id":"ce4bhm12rcd13ifvqgkg","pricing_plan_id":"cebpf4jnsgd1na2vs0mg"},{"bike_id":"2a3b699b-a78d-4b73-b754-0a42dc395da3","system_id":"levelo_inurba_marseille","lat":43.30129,"lon":5.37424,"is_reserved":false,"is_disabled":false,"rental_uris":{"android":"levelo://app?vid=2a3b699b-a78d-4b73-b754-0a42dc395da3","ios":"levelo://app?vid=2a3b699b-a78d-4b73-b754-0a42dc395da3"},"vehicle_type_id":"4","last_reported":1737198367,"current_range_meters":38800,"station_id":"ce4bgs92rcd13ifvqcc0","pricing_plan_id":"cebpf4jnsgd1na2vs0mg"},{"bike_id":"d615d74e-143c-44d0-9a61-fef9d499e25b","system_id":"levelo_inurba_marseille","lat":43.26038,"lon":5.3755,"is_reserved":false,"is_disabled":false,"rental_uris":{"android":"levelo://app?vid=d615d74e-143c-44d0-9a61-fef9d499e25b","ios":"levelo://app?vid=d615d74e-143c-44d0-9a61-fef9d499e25b"},"vehicle_type_id":"4","last_reported":1737198367,"current_range_meters":39200,"station_id":"ce4bhgh2rcd13ifvqfa0","pricing_plan_id":"cebpf4jnsgd1na2vs0mg"},{"bike_id":"4ffb2fd7-5f5b-4f82-8ddf-9fe95e000c38","system_id":"levelo_inurba_marseille","lat":43.25385,"lon":5.4165,"is_reserved":false,"is_disabled":true,"rental_uris":{"android":"levelo://app?vid=4ffb2fd7-5f5b-4f82-8ddf-9fe95e000c38","ios":"levelo://app?vid=4ffb2fd7-5f5b-4f82-8ddf-9fe95e000c38"},"vehicle_type_id":"4","last_reported":1737198367,"current_range_meters":0,"station_id":"","pricing_plan_id":"cebpf4jnsgd1na2vs0mg"},{"bike_id":"9be957d2-26d1-49a4-9f85-b06ee3432064","system_id":"levelo_inurba_marseille","lat":43.33723,"lon":5.39216,"is_reserved":false,"is_disabled":false,"rental_uris":{"android":"levelo://app?vid=9be957d2-26d1-49a4-9f85-b06ee3432064","ios":"levelo://app?vid=9be957d2-26d1-49a4-9f85-b06ee3432064"},"vehicle_type_id":"4","last_reported":1737198367,"current_range_meters":27200,"station_id":"ce4bhr92rcd13ifvqhsg","pricing_plan_id":"cebpf4jnsgd1na2vs0mg"},{"bike_id":"e83b7bc8-7c7a-46a8-b205-12c39eae9892","system_id":"levelo_inurba_marseille","lat":43.30538,"lon":5.36533,"is_reserved":false,"is_disabled":false,"rental_uris":{"android":"levelo://app?vid=e83b7bc8-7c7a-46a8-b205-12c39eae9892","ios":"levelo://app?vid=e83b7bc8-7c7a-46a8-b205-12c39eae9892"},"vehicle_type_id":"4","last_reported":1737198367,"current_range_meters":32800,"station_id":"ce4bgs12rcd13ifvqcag","pricing_plan_id":"cebpf4jnsgd1na2vs0mg"},{"bike_id":"7474cf9f-a50a-4064-8ee9-625b0bfc2233","system_id":"levelo_inurba_marseille","lat":43.29158,"lon":5.37148,"is_reserved":false,"is_disabled":true,"rental_uris":{"android":"levelo://app?vid=7474cf9f-a50a-4064-8ee9-625b0bfc2233","ios":"levelo://app?vid=7474cf9f-a50a-4064-8ee9-625b0bfc2233"},"vehicle_type_id":"4","last_reported":1737198367,"current_range_meters":0,"station_id":"ce4bha92rcd13ifvqeh0","pricing_plan_id":"cebpf4jnsgd1na2vs0mg"},{"bike_id":"9d571973-919f-4d9a-8263-16469bc08d16","system_id":"levelo_inurba_marseille","lat":43.31321,"lon":5.3675,"is_reserved":false,"is_disabled":false,"rental_uris":{"android":"levelo://app?vid=9d571973-919f-4d9a-8263-16469bc08d16","ios":"levelo://app?vid=9d571973-919f-4d9a-8263-16469bc08d16"},"vehicle_type_id":"4","last_reported":1737198367,"current_range_meters":16000,"station_id":"ce4bgr92rcd13ifvqc6g","pricing_plan_id":"cebpf4jnsgd1na2vs0mg"},{"bike_id":"fd153fd4-8c71-4200-95f4-e02852c298c7","system_id":"levelo_inurba_marseille","lat":43.25084,"lon":5.39513,"is_reserved":false,"is_disabled":false,"rental_uris":{"android":"levelo://app?vid=fd153fd4-8c71-4200-95f4-e02852c298c7","ios":"levelo://app?vid=fd153fd4-8c71-4200-95f4-e02852c298c7"},"vehicle_type_id":"4","last_reported":1737198367,"current_range_meters":36400,"station_id":"ce4bhm12rcd13ifvqgkg","pricing_plan_id":"cebpf4jnsgd1na2vs0mg"},{"bike_id":"3a4204c8-9fba-4be7-9fa2-58a8cfd4d291","system_id":"levelo_inurba_marseille","lat":43.24551,"lon":5.39528,"is_reserved":false,"is_disabled":false,"rental_uris":{"android":"levelo://app?vid=3a4204c8-9fba-4be7-9fa2-58a8cfd4d291","ios":"levelo://app?vid=3a4204c8-9fba-4be7-9fa2-58a8cfd4d291"},"vehicle_type_id":"4","last_reported":1737198367,"current_range_meters":22400,"station_id":"ce4bhlp2rcd13ifvqgjg","pricing_plan_id":"cebpf4jnsgd1na2vs0mg"},{"bike_id":"2fa40be4-237a-4713-9b7d-7f32afaf1503","system_id":"levelo_inurba_marseille","lat":43.29798,"lon":5.38097,"is_reserved":false,"is_disabled":false,"rental_uris":{"android":"levelo://app?vid=2fa40be4-237a-4713-9b7d-7f32afaf1503","ios":"levelo://app?vid=2fa40be4-237a-4713-9b7d-7f32afaf1503"},"vehicle_type_id":"4","last_reported":1737198367,"current_range_meters":38800,"station_id":"ce4bgip2rcd13ifvqbb0","pricing_plan_id":"cebpf4jnsgd1na2vs0mg"},{"bike_id":"e0b439ea-5179-4033-986c-4262bb3dc84f","system_id":"levelo_inurba_marseille","lat":43.26683,"lon":5.38269,"is_reserved":false,"is_disabled":false,"rental_uris":{"android":"levelo://app?vid=e0b439ea-5179-4033-986c-4262bb3dc84f","ios":"levelo://app?vid=e0b439ea-5179-4033-986c-4262bb3dc84f"},"vehicle_type_id":"4","last_reported":1737198367,"current_range_meters":12000,"station_id":"ce4bhg92rcd13ifvqf90","pricing_plan_id":"cebpf4jnsgd1na2vs0mg"},{"bike_id":"2b06177c-21a4-4000-9872-a16383eb7f13","system_id":"levelo_inurba_marseille","lat":43.29789,"lon":5.40419,"is_reserved":false,"is_disabled":false,"rental_uris":{"android":"levelo://app?vid=2b06177c-21a4-4000-9872-a16383eb7f13","ios":"levelo://app?vid=2b06177c-21a4-4000-9872-a16383eb7f13"},"vehicle_type_id":"4","last_reported":1737198367,"current_range_meters":38800,"station_id":"ce4bh112rcd13ifvqd90","pricing_plan_id":"cebpf4jnsgd1na2vs0mg"},{"bike_id":"03f16ff7-1ccd-43e4-ae9b-7ff5b334c842","system_id":"levelo_inurba_marseille","lat":43.29028,"lon":5.38125,"is_reserved":false,"is_disabled":false,"rental_uris":{"android":"levelo://app?vid=03f16ff7-1ccd-43e4-ae9b-7ff5b334c842","ios":"levelo://app?vid=03f16ff7-1ccd-43e4-ae9b-7ff5b334c842"},"vehicle_type_id":"4","last_reported":1737198367,"current_range_meters":32800,"station_id":"ce4bh4p2rcd13ifvqe1g","pricing_plan_id":"cebpf4jnsgd1na2vs0mg"},{"bike_id":"41e66b43-81c2-4cc4-b4fc-989eb06aea62","system_id":"levelo_inurba_marseille","lat":43.25113,"lon":5.40329,"is_reserved":false,"is_disabled":false,"rental_uris":{"android":"levelo://app?vid=41e66b43-81c2-4cc4-b4fc-989eb06aea62","ios":"levelo://app?vid=41e66b43-81c2-4cc4-b4fc-989eb06aea62"},"vehicle_type_id":"4","last_reported":1737198367,"current_range_meters":18800,"station_id":"ce4bhlh2rcd13ifvqgig","pricing_plan_id":"cebpf4jnsgd1na2vs0mg"},{"bike_id":"aaf9b19d-0d21-4f60-bd85-a79491ea0c6f","system_id":"levelo_inurba_marseille","lat":43.26204,"lon":5.37444,"is_reserved":false,"is_disabled":false,"rental_uris":{"android":"levelo://app?vid=aaf9b19d-0d21-4f60-bd85-a79491ea0c6f","ios":"levelo://app?vid=aaf9b19d-0d21-4f60-bd85-a79491ea0c6f"},"vehicle_type_id":"4","last_reported":1737198367,"current_range_meters":36800,"station_id":"ce4bhgp2rcd13ifvqfc0","pricing_plan_id":"cebpf4jnsgd1na2vs0mg"},{"bike_id":"311713cc-8251-420e-bb11-e351c317cadc","system_id":"levelo_inurba_marseille","lat":43.2621,"lon":5.37933,"is_reserved":false,"is_disabled":false,"rental_uris":{"android":"levelo://app?vid=311713cc-8251-420e-bb11-e351c317cadc","ios":"levelo://app?vid=311713cc-8251-420e-bb11-e351c317cadc"},"vehicle_type_id":"4","last_reported":1737198367,"current_range_meters":38800,"station_id":"ce4bhjp2rcd13ifvqg90","pricing_plan_id":"cebpf4jnsgd1na2vs0mg"},{"bike_id":"d29beac8-a618-4bab-b648-f7daf71dd18c","system_id":"levelo_inurba_marseille","lat":43.26678,"lon":5.38269,"is_reserved":false,"is_disabled":false,"rental_uris":{"android":"levelo://app?vid=d29beac8-a618-4bab-b648-f7daf71dd18c","ios":"levelo://app?vid=d29beac8-a618-4bab-b648-f7daf71dd18c"},"vehicle_type_id":"4","last_reported":1737198367,"current_range_meters":20000,"station_id":"ce4bhg92rcd13ifvqf90","pricing_plan_id":"cebpf4jnsgd1na2vs0mg"},{"bike_id":"fae143cc-e0b7-42e0-ac41-6327643321d0","system_id":"levelo_inurba_marseille","lat":43.25826,"lon":5.39449,"is_reserved":false,"is_disabled":false,"rental_uris":{"android":"levelo://app?vid=fae143cc-e0b7-42e0-ac41-6327643321d0","ios":"levelo://app?vid=fae143cc-e0b7-42e0-ac41-6327643321d0"},"vehicle_type_id":"4","last_reported":1737198367,"current_range_meters":32400,"station_id":"ce4bhip2rcd13ifvqft0","pricing_plan_id":"cebpf4jnsgd1na2vs0mg"},{"bike_id":"ec11ae4d-2021-4294-bd30-e659b381e2c6","system_id":"levelo_inurba_marseille","lat":43.29272,"lon":5.37446,"is_reserved":false,"is_disabled":false,"rental_uris":{"android":"levelo://app?vid=ec11ae4d-2021-4294-bd30-e659b381e2c6","ios":"levelo://app?vid=ec11ae4d-2021-4294-bd30-e659b381e2c6"},"vehicle_type_id":"4","last_reported":1737198367,"current_range_meters":21600,"station_id":"ce4bgi12rcd13ifvqb70","pricing_plan_id":"cebpf4jnsgd1na2vs0mg"},{"bike_id":"decf1ed0-8342-431b-aaec-d39206e09e0e","system_id":"levelo_inurba_marseille","lat":43.28489,"lon":5.38414,"is_reserved":false,"is_disabled":false,"rental_uris":{"android":"levelo://app?vid=decf1ed0-8342-431b-aaec-d39206e09e0e","ios":"levelo://app?vid=decf1ed0-8342-431b-aaec-d39206e09e0e"},"vehicle_type_id":"4","last_reported":1737198367,"current_range_meters":8800,"station_id":"ce4bh512rcd13ifvqe3g","pricing_plan_id":"cebpf4jnsgd1na2vs0mg"},{"bike_id":"bbbb65ee-7bd9-45c8-9ae6-33a5e1e600b8","system_id":"levelo_inurba_marseille","lat":43.28615,"lon":5.35116,"is_reserved":false,"is_disabled":true,"rental_uris":{"android":"levelo://app?vid=bbbb65ee-7bd9-45c8-9ae6-33a5e1e600b8","ios":"levelo://app?vid=bbbb65ee-7bd9-45c8-9ae6-33a5e1e600b8"},"vehicle_type_id":"4","last_reported":1737198367,"current_range_meters":14000,"station_id":"ce4bhch2rcd13ifvqeug","pricing_plan_id":"cebpf4jnsgd1na2vs0mg"},{"bike_id":"0eb10582-0355-4f39-b7d7-8a0ce4c72079","system_id":"levelo_inurba_marseille","lat":43.2941,"lon":5.38637,"is_reserved":false,"is_disabled":false,"rental_uris":{"android":"levelo://app?vid=0eb10582-0355-4f39-b7d7-8a0ce4c72079","ios":"levelo://app?vid=0eb10582-0355-4f39-b7d7-8a0ce4c72079"},"vehicle_type_id":"4","last_reported":1737198367,"current_range_meters":36800,"station_id":"ce4bh2h2rcd13ifvqdh0","pricing_plan_id":"cebpf4jnsgd1na2vs0mg"},{"bike_id":"f4a4a406-b0a5-42fc-9236-32e93ac6f6b2","system_id":"levelo_inurba_marseille","lat":43.23155,"lon":5.43709,"is_reserved":false,"is_disabled":true,"rental_uris":{"android":"levelo://app?vid=f4a4a406-b0a5-42fc-9236-32e93ac6f6b2","ios":"levelo://app?vid=f4a4a406-b0a5-42fc-9236-32e93ac6f6b2"},"vehicle_type_id":"4","last_reported":1737198367,"current_range_meters":30000,"station_id":"ce4bhmp2rcd13ifvqgog","pricing_plan_id":"cebpf4jnsgd1na2vs0mg"},{"bike_id":"e41ae004-35f3-4a84-9470-334d3f185da1","system_id":"levelo_inurba_marseille","lat":43.31487,"lon":5.3725,"is_reserved":false,"is_disabled":false,"rental_uris":{"android":"levelo://app?vid=e41ae004-35f3-4a84-9470-334d3f185da1","ios":"levelo://app?vid=e41ae004-35f3-4a84-9470-334d3f185da1"},"vehicle_type_id":"4","last_reported":1737198367,"current_range_meters":38800,"station_id":"ce4bgt12rcd13ifvqcd0","pricing_plan_id":"cebpf4jnsgd1na2vs0mg"},{"bike_id":"5bcc50fe-051a-45c1-994f-e0f8f759c0f7","system_id":"levelo_inurba_marseille","lat":43.3056,"lon":5.36542,"is_reserved":false,"is_disabled":true,"rental_uris":{"android":"levelo://app?vid=5bcc50fe-051a-45c1-994f-e0f8f759c0f7","ios":"levelo://app?vid=5bcc50fe-051a-45c1-994f-e0f8f759c0f7"},"vehicle_type_id":"4","last_reported":1737198367,"current_range_meters":32400,"station_id":"ce4bgs12rcd13ifvqcag","pricing_plan_id":"cebpf4jnsgd1na2vs0mg"},{"bike_id":"78be2d9e-4337-439f-80ad-de5d7fb7fb9b","system_id":"levelo_inurba_marseille","lat":43.30138,"lon":5.39847,"is_reserved":false,"is_disabled":false,"rental_uris":{"android":"levelo://app?vid=78be2d9e-4337-439f-80ad-de5d7fb7fb9b","ios":"levelo://app?vid=78be2d9e-4337-439f-80ad-de5d7fb7fb9b"},"vehicle_type_id":"4","last_reported":1737198367,"current_range_meters":35200,"station_id":"ce4bh0h2rcd13ifvqd40","pricing_plan_id":"cebpf4jnsgd1na2vs0mg"},{"bike_id":"3a3db9cd-2cd5-4acb-ac23-4ae444e93480","system_id":"levelo_inurba_marseille","lat":43.2721,"lon":5.39185,"is_reserved":false,"is_disabled":false,"rental_uris":{"android":"levelo://app?vid=3a3db9cd-2cd5-4acb-ac23-4ae444e93480","ios":"levelo://app?vid=3a3db9cd-2cd5-4acb-ac23-4ae444e93480"},"vehicle_type_id":"4","last_reported":1737198367,"current_range_meters":4400,"station_id":"ce4bhhp2rcd13ifvqfm0","pricing_plan_id":"cebpf4jnsgd1na2vs0mg"},{"bike_id":"278a6ac0-9a71-4f00-9126-5f5bf2a8c2cf","system_id":"levelo_inurba_marseille","lat":43.29615,"lon":5.37734,"is_reserved":false,"is_disabled":false,"rental_uris":{"android":"levelo://app?vid=278a6ac0-9a71-4f00-9126-5f5bf2a8c2cf","ios":"levelo://app?vid=278a6ac0-9a71-4f00-9126-5f5bf2a8c2cf"},"vehicle_type_id":"4","last_reported":1737198367,"current_range_meters":38800,"station_id":"ce4bgi92rcd13ifvqb90","pricing_plan_id":"cebpf4jnsgd1na2vs0mg"},{"bike_id":"591ed0bd-f1c2-46bf-b8b0-2be5127e36bd","system_id":"levelo_inurba_marseille","lat":43.26681,"lon":5.38276,"is_reserved":false,"is_disabled":false,"rental_uris":{"android":"levelo://app?vid=591ed0bd-f1c2-46bf-b8b0-2be5127e36bd","ios":"levelo://app?vid=591ed0bd-f1c2-46bf-b8b0-2be5127e36bd"},"vehicle_type_id":"4","last_reported":1737198367,"current_range_meters":6400,"station_id":"ce4bhg92rcd13ifvqf90","pricing_plan_id":"cebpf4jnsgd1na2vs0mg"},{"bike_id":"67c549d5-ce81-408a-a146-d43915340e7f","system_id":"levelo_inurba_marseille","lat":43.3372,"lon":5.39188,"is_reserved":false,"is_disabled":false,"rental_uris":{"android":"levelo://app?vid=67c549d5-ce81-408a-a146-d43915340e7f","ios":"levelo://app?vid=67c549d5-ce81-408a-a146-d43915340e7f"},"vehicle_type_id":"4","last_reported":1737198367,"current_range_meters":38800,"station_id":"ce4bhr92rcd13ifvqhsg","pricing_plan_id":"cebpf4jnsgd1na2vs0mg"},{"bike_id":"b58dcef5-cab9-4732-933d-c18fb8a74b04","system_id":"levelo_inurba_marseille","lat":43.23147,"lon":5.43721,"is_reserved":false,"is_disabled":true,"rental_uris":{"android":"levelo://app?vid=b58dcef5-cab9-4732-933d-c18fb8a74b04","ios":"levelo://app?vid=b58dcef5-cab9-4732-933d-c18fb8a74b04"},"vehicle_type_id":"4","last_reported":1737198367,"current_range_meters":0,"station_id":"ce4bhmp2rcd13ifvqgog","pricing_plan_id":"cebpf4jnsgd1na2vs0mg"},{"bike_id":"0a30294d-26c8-4588-a23c-1a60a99e0bd7","system_id":"levelo_inurba_marseille","lat":43.29443,"lon":5.39746,"is_reserved":false,"is_disabled":false,"rental_uris":{"android":"levelo://app?vid=0a30294d-26c8-4588-a23c-1a60a99e0bd7","ios":"levelo://app?vid=0a30294d-26c8-4588-a23c-1a60a99e0bd7"},"vehicle_type_id":"4","last_reported":1737198367,"current_range_meters":22000,"station_id":"ce4bh3h2rcd13ifvqdo0","pricing_plan_id":"cebpf4jnsgd1na2vs0mg"},{"bike_id":"b936ffa6-9085-46b5-a0df-a1a2f8dd85b8","system_id":"levelo_inurba_marseille","lat":43.25003,"lon":5.38943,"is_reserved":false,"is_disabled":false,"rental_uris":{"android":"levelo://app?vid=b936ffa6-9085-46b5-a0df-a1a2f8dd85b8","ios":"levelo://app?vid=b936ffa6-9085-46b5-a0df-a1a2f8dd85b8"},"vehicle_type_id":"4","last_reported":1737198367,"current_range_meters":38000,"station_id":"ce4bhgp2rcd13ifvqfd0","pricing_plan_id":"cebpf4jnsgd1na2vs0mg"},{"bike_id":"98863b85-30ed-427c-87ac-f2872be22378","system_id":"levelo_inurba_marseille","lat":43.308995,"lon":5.368354,"is_reserved":false,"is_disabled":true,"rental_uris":{"android":"levelo://app?vid=98863b85-30ed-427c-87ac-f2872be22378","ios":"levelo://app?vid=98863b85-30ed-427c-87ac-f2872be22378"},"vehicle_type_id":"4","last_reported":1737198367,"current_range_meters":20800,"station_id":"ce4bgn92rcd13ifvqbvg","pricing_plan_id":"cebpf4jnsgd1na2vs0mg"},{"bike_id":"6e5e7057-82d6-477f-835d-fbe2b18afc5e","system_id":"levelo_inurba_marseille","lat":43.30397,"lon":5.41895,"is_reserved":false,"is_disabled":false,"rental_uris":{"android":"levelo://app?vid=6e5e7057-82d6-477f-835d-fbe2b18afc5e","ios":"levelo://app?vid=6e5e7057-82d6-477f-835d-fbe2b18afc5e"},"vehicle_type_id":"4","last_reported":1737198367,"current_range_meters":16400,"station_id":"ce4bhop2rcd13ifvqh7g","pricing_plan_id":"cebpf4jnsgd1na2vs0mg"},{"bike_id":"6ebe7920-5d53-42db-b618-6c2cf1d8ba4b","system_id":"levelo_inurba_marseille","lat":43.29862,"lon":5.39744,"is_reserved":false,"is_disabled":false,"rental_uris":{"android":"levelo://app?vid=6ebe7920-5d53-42db-b618-6c2cf1d8ba4b","ios":"levelo://app?vid=6ebe7920-5d53-42db-b618-6c2cf1d8ba4b"},"vehicle_type_id":"4","last_reported":1737198367,"current_range_meters":25600,"station_id":"ce4bh0h2rcd13ifvqd50","pricing_plan_id":"cebpf4jnsgd1na2vs0mg"},{"bike_id":"3ed306f5-0ab8-4e4a-aba2-700ff61fc158","system_id":"levelo_inurba_marseille","lat":43.29296,"lon":5.37421,"is_reserved":false,"is_disabled":false,"rental_uris":{"android":"levelo://app?vid=3ed306f5-0ab8-4e4a-aba2-700ff61fc158","ios":"levelo://app?vid=3ed306f5-0ab8-4e4a-aba2-700ff61fc158"},"vehicle_type_id":"4","last_reported":1737198367,"current_range_meters":38800,"station_id":"ce4bgi12rcd13ifvqb70","pricing_plan_id":"cebpf4jnsgd1na2vs0mg"},{"bike_id":"f7a96d39-98c6-4730-9d3b-ca6a5e6c6aab","system_id":"levelo_inurba_marseille","lat":43.270172,"lon":5.386438,"is_reserved":false,"is_disabled":false,"rental_uris":{"android":"levelo://app?vid=f7a96d39-98c6-4730-9d3b-ca6a5e6c6aab","ios":"levelo://app?vid=f7a96d39-98c6-4730-9d3b-ca6a5e6c6aab"},"vehicle_type_id":"4","last_reported":1737198367,"current_range_meters":19600,"station_id":"ce4bhg12rcd13ifvqf80","pricing_plan_id":"cebpf4jnsgd1na2vs0mg"},{"bike_id":"37feb261-44b2-4b27-b3ae-078664007b08","system_id":"levelo_inurba_marseille","lat":43.324719,"lon":5.365714,"is_reserved":false,"is_disabled":false,"rental_uris":{"android":"levelo://app?vid=37feb261-44b2-4b27-b3ae-078664007b08","ios":"levelo://app?vid=37feb261-44b2-4b27-b3ae-078664007b08"},"vehicle_type_id":"4","last_reported":1737198367,"current_range_meters":6400,"station_id":"ce4bhs12rcd13ifvqhvg","pricing_plan_id":"cebpf4jnsgd1na2vs0mg"},{"bike_id":"f349ef3c-5167-45c6-8952-c9f82df52a25","system_id":"levelo_inurba_marseille","lat":43.27685,"lon":5.38907,"is_reserved":false,"is_disabled":false,"rental_uris":{"android":"levelo://app?vid=f349ef3c-5167-45c6-8952-c9f82df52a25","ios":"levelo://app?vid=f349ef3c-5167-45c6-8952-c9f82df52a25"},"vehicle_type_id":"4","last_reported":1737198367,"current_range_meters":38800,"station_id":"ce4bhi12rcd13ifvqfo0","pricing_plan_id":"cebpf4jnsgd1na2vs0mg"},{"bike_id":"f8aad85d-54d6-4ca2-81ac-46c1a831eb57","system_id":"levelo_inurba_marseille","lat":43.28075,"lon":5.39641,"is_reserved":false,"is_disabled":false,"rental_uris":{"android":"levelo://app?vid=f8aad85d-54d6-4ca2-81ac-46c1a831eb57","ios":"levelo://app?vid=f8aad85d-54d6-4ca2-81ac-46c1a831eb57"},"vehicle_type_id":"4","last_reported":1737198367,"current_range_meters":32000,"station_id":"ce4bho12rcd13ifvqh2g","pricing_plan_id":"cebpf4jnsgd1na2vs0mg"},{"bike_id":"d9e34022-e8cf-4885-9380-f96bd00b9eed","system_id":"levelo_inurba_marseille","lat":43.29524,"lon":5.37511,"is_reserved":false,"is_disabled":false,"rental_uris":{"android":"levelo://app?vid=d9e34022-e8cf-4885-9380-f96bd00b9eed","ios":"levelo://app?vid=d9e34022-e8cf-4885-9380-f96bd00b9eed"},"vehicle_type_id":"4","last_reported":1737198367,"current_range_meters":23200,"station_id":"ce4bgkp2rcd13ifvqbmg","pricing_plan_id":"cebpf4jnsgd1na2vs0mg"},{"bike_id":"56b8e9bc-f750-4815-bc98-9098414d16db","system_id":"levelo_inurba_marseille","lat":43.232,"lon":5.35546,"is_reserved":false,"is_disabled":true,"rental_uris":{"android":"levelo://app?vid=56b8e9bc-f750-4815-bc98-9098414d16db","ios":"levelo://app?vid=56b8e9bc-f750-4815-bc98-9098414d16db"},"vehicle_type_id":"4","last_reported":1737198367,"current_range_meters":0,"station_id":"ce4bhu92rcd13ifvqi70","pricing_plan_id":"cebpf4jnsgd1na2vs0mg"},{"bike_id":"0e91b70c-1e42-4d65-a90a-72cbd40954b0","system_id":"levelo_inurba_marseille","lat":43.3235,"lon":5.36759,"is_reserved":false,"is_disabled":false,"rental_uris":{"android":"levelo://app?vid=0e91b70c-1e42-4d65-a90a-72cbd40954b0","ios":"levelo://app?vid=0e91b70c-1e42-4d65-a90a-72cbd40954b0"},"vehicle_type_id":"4","last_reported":1737198367,"current_range_meters":11200,"station_id":"ce4bhsh2rcd13ifvqi2g","pricing_plan_id":"cebpf4jnsgd1na2vs0mg"},{"bike_id":"ccfd2808-389c-405c-ad27-66c26fde5e1e","system_id":"levelo_inurba_marseille","lat":43.30122,"lon":5.38092,"is_reserved":false,"is_disabled":false,"rental_uris":{"android":"levelo://app?vid=ccfd2808-389c-405c-ad27-66c26fde5e1e","ios":"levelo://app?vid=ccfd2808-389c-405c-ad27-66c26fde5e1e"},"vehicle_type_id":"4","last_reported":1737198367,"current_range_meters":29600,"station_id":"ce4bgjp2rcd13ifvqbh0","pricing_plan_id":"cebpf4jnsgd1na2vs0mg"},{"bike_id":"3d7b0793-f713-4a02-9a9f-42c6f75f5fc0","system_id":"levelo_inurba_marseille","lat":43.26947,"lon":5.38641,"is_reserved":false,"is_disabled":false,"rental_uris":{"android":"levelo://app?vid=3d7b0793-f713-4a02-9a9f-42c6f75f5fc0","ios":"levelo://app?vid=3d7b0793-f713-4a02-9a9f-42c6f75f5fc0"},"vehicle_type_id":"4","last_reported":1737198367,"current_range_meters":34800,"station_id":"ce4bhh92rcd13ifvqfh0","pricing_plan_id":"cebpf4jnsgd1na2vs0mg"},{"bike_id":"b6f14aa2-9753-4a12-a8af-a5b4b09f668e","system_id":"levelo_inurba_marseille","lat":43.27674,"lon":5.38914,"is_reserved":false,"is_disabled":false,"rental_uris":{"android":"levelo://app?vid=b6f14aa2-9753-4a12-a8af-a5b4b09f668e","ios":"levelo://app?vid=b6f14aa2-9753-4a12-a8af-a5b4b09f668e"},"vehicle_type_id":"4","last_reported":1737198367,"current_range_meters":38000,"station_id":"ce4bhi12rcd13ifvqfo0","pricing_plan_id":"cebpf4jnsgd1na2vs0mg"},{"bike_id":"ae5aae92-5b4f-4c9f-8192-28f8ce79587e","system_id":"levelo_inurba_marseille","lat":43.30918,"lon":5.40161,"is_reserved":false,"is_disabled":true,"rental_uris":{"android":"levelo://app?vid=ae5aae92-5b4f-4c9f-8192-28f8ce79587e","ios":"levelo://app?vid=ae5aae92-5b4f-4c9f-8192-28f8ce79587e"},"vehicle_type_id":"4","last_reported":1737198367,"current_range_meters":35600,"station_id":"ce4bgvp2rcd13ifvqct0","pricing_plan_id":"cebpf4jnsgd1na2vs0mg"},{"bike_id":"8bbb4ba1-3f8b-4aaf-91e3-5601422bf88e","system_id":"levelo_inurba_marseille","lat":43.30532,"lon":5.36543,"is_reserved":false,"is_disabled":false,"rental_uris":{"android":"levelo://app?vid=8bbb4ba1-3f8b-4aaf-91e3-5601422bf88e","ios":"levelo://app?vid=8bbb4ba1-3f8b-4aaf-91e3-5601422bf88e"},"vehicle_type_id":"4","last_reported":1737198367,"current_range_meters":36000,"station_id":"ce4bgs12rcd13ifvqcag","pricing_plan_id":"cebpf4jnsgd1na2vs0mg"},{"bike_id":"5129d83e-b800-4dfa-a2f1-a522458c050c","system_id":"levelo_inurba_marseille","lat":43.29695,"lon":5.3769,"is_reserved":false,"is_disabled":false,"rental_uris":{"android":"levelo://app?vid=5129d83e-b800-4dfa-a2f1-a522458c050c","ios":"levelo://app?vid=5129d83e-b800-4dfa-a2f1-a522458c050c"},"vehicle_type_id":"4","last_reported":1737198367,"current_range_meters":38800,"station_id":"ce4bgkh2rcd13ifvqbl0","pricing_plan_id":"cebpf4jnsgd1na2vs0mg"},{"bike_id":"22465212-93af-4e0b-b803-6ee82bba56d5","system_id":"levelo_inurba_marseille","lat":43.33763,"lon":5.37492,"is_reserved":false,"is_disabled":false,"rental_uris":{"android":"levelo://app?vid=22465212-93af-4e0b-b803-6ee82bba56d5","ios":"levelo://app?vid=22465212-93af-4e0b-b803-6ee82bba56d5"},"vehicle_type_id":"4","last_reported":1737198367,"current_range_meters":29600,"station_id":"","pricing_plan_id":"cebpf4jnsgd1na2vs0mg"},{"bike_id":"275aed3e-104b-4ec9-ace4-af91fc180de6","system_id":"levelo_inurba_marseille","lat":43.31083,"lon":5.4243,"is_reserved":false,"is_disabled":false,"rental_uris":{"android":"levelo://app?vid=275aed3e-104b-4ec9-ace4-af91fc180de6","ios":"levelo://app?vid=275aed3e-104b-4ec9-ace4-af91fc180de6"},"vehicle_type_id":"4","last_reported":1737198367,"current_range_meters":25600,"station_id":"ce4bhp92rcd13ifvqhag","pricing_plan_id":"cebpf4jnsgd1na2vs0mg"},{"bike_id":"730df4ba-4772-4a0e-9e4a-bb6bde6caaeb","system_id":"levelo_inurba_marseille","lat":43.30137,"lon":5.39888,"is_reserved":false,"is_disabled":true,"rental_uris":{"android":"levelo://app?vid=730df4ba-4772-4a0e-9e4a-bb6bde6caaeb","ios":"levelo://app?vid=730df4ba-4772-4a0e-9e4a-bb6bde6caaeb"},"vehicle_type_id":"4","last_reported":1737198367,"current_range_meters":36000,"station_id":"ce4bh0h2rcd13ifvqd40","pricing_plan_id":"cebpf4jnsgd1na2vs0mg"},{"bike_id":"2669dc48-d52c-4df4-a185-3258641e3a0a","system_id":"levelo_inurba_marseille","lat":43.2796,"lon":5.3871,"is_reserved":false,"is_disabled":true,"rental_uris":{"android":"levelo://app?vid=2669dc48-d52c-4df4-a185-3258641e3a0a","ios":"levelo://app?vid=2669dc48-d52c-4df4-a185-3258641e3a0a"},"vehicle_type_id":"4","last_reported":1737198367,"current_range_meters":0,"station_id":"ce4bhg12rcd13ifvqf80","pricing_plan_id":"cebpf4jnsgd1na2vs0mg"},{"bike_id":"c26377c0-ec3a-4efa-87c5-8bbdf88db3a9","system_id":"levelo_inurba_marseille","lat":43.30868,"lon":5.39649,"is_reserved":false,"is_disabled":false,"rental_uris":{"android":"levelo://app?vid=c26377c0-ec3a-4efa-87c5-8bbdf88db3a9","ios":"levelo://app?vid=c26377c0-ec3a-4efa-87c5-8bbdf88db3a9"},"vehicle_type_id":"4","last_reported":1737198367,"current_range_meters":12000,"station_id":"ce4bh012rcd13ifvqcv0","pricing_plan_id":"cebpf4jnsgd1na2vs0mg"},{"bike_id":"492bb2a4-bb26-45e4-9edc-d3f9691e28d1","system_id":"levelo_inurba_marseille","lat":43.31769,"lon":5.39011,"is_reserved":false,"is_disabled":false,"rental_uris":{"android":"levelo://app?vid=492bb2a4-bb26-45e4-9edc-d3f9691e28d1","ios":"levelo://app?vid=492bb2a4-bb26-45e4-9edc-d3f9691e28d1"},"vehicle_type_id":"4","last_reported":1737198367,"current_range_meters":36800,"station_id":"ce4bhqp2rcd13ifvqhng","pricing_plan_id":"cebpf4jnsgd1na2vs0mg"},{"bike_id":"86b1129b-34c7-4cb1-acb7-46aa8942c62c","system_id":"levelo_inurba_marseille","lat":43.23154,"lon":5.4371,"is_reserved":false,"is_disabled":true,"rental_uris":{"android":"levelo://app?vid=86b1129b-34c7-4cb1-acb7-46aa8942c62c","ios":"levelo://app?vid=86b1129b-34c7-4cb1-acb7-46aa8942c62c"},"vehicle_type_id":"4","last_reported":1737198367,"current_range_meters":0,"station_id":"ce4bhmp2rcd13ifvqgog","pricing_plan_id":"cebpf4jnsgd1na2vs0mg"},{"bike_id":"ee0ffcb0-e972-47f1-bd1b-8f85c24a5347","system_id":"levelo_inurba_marseille","lat":43.28601,"lon":5.3708,"is_reserved":false,"is_disabled":false,"rental_uris":{"android":"levelo://app?vid=ee0ffcb0-e972-47f1-bd1b-8f85c24a5347","ios":"levelo://app?vid=ee0ffcb0-e972-47f1-bd1b-8f85c24a5347"},"vehicle_type_id":"4","last_reported":1737198367,"current_range_meters":20000,"station_id":"ce4bht12rcd13ifvqi60","pricing_plan_id":"cebpf4jnsgd1na2vs0mg"},{"bike_id":"b663f53e-1e42-4f0c-a05f-fde242cb0184","system_id":"levelo_inurba_marseille","lat":43.28602,"lon":5.35129,"is_reserved":false,"is_disabled":false,"rental_uris":{"android":"levelo://app?vid=b663f53e-1e42-4f0c-a05f-fde242cb0184","ios":"levelo://app?vid=b663f53e-1e42-4f0c-a05f-fde242cb0184"},"vehicle_type_id":"4","last_reported":1737198367,"current_range_meters":25600,"station_id":"ce4bhch2rcd13ifvqeug","pricing_plan_id":"cebpf4jnsgd1na2vs0mg"},{"bike_id":"82eafdac-bd81-479d-a7b0-05db8ca76c26","system_id":"levelo_inurba_marseille","lat":43.25829,"lon":5.39434,"is_reserved":false,"is_disabled":true,"rental_uris":{"android":"levelo://app?vid=82eafdac-bd81-479d-a7b0-05db8ca76c26","ios":"levelo://app?vid=82eafdac-bd81-479d-a7b0-05db8ca76c26"},"vehicle_type_id":"4","last_reported":1737198367,"current_range_meters":0,"station_id":"ce4bhip2rcd13ifvqft0","pricing_plan_id":"cebpf4jnsgd1na2vs0mg"},{"bike_id":"151e29be-8f5f-4155-8edb-d521f020a1aa","system_id":"levelo_inurba_marseille","lat":43.28452,"lon":5.35895,"is_reserved":false,"is_disabled":false,"rental_uris":{"android":"levelo://app?vid=151e29be-8f5f-4155-8edb-d521f020a1aa","ios":"levelo://app?vid=151e29be-8f5f-4155-8edb-d521f020a1aa"},"vehicle_type_id":"4","last_reported":1737198367,"current_range_meters":15200,"station_id":"ce4bhah2rcd13ifvqei0","pricing_plan_id":"cebpf4jnsgd1na2vs0mg"},{"bike_id":"58e615dd-6b4f-4327-9c3c-3a760079ba0a","system_id":"levelo_inurba_marseille","lat":43.23155,"lon":5.35607,"is_reserved":false,"is_disabled":false,"rental_uris":{"android":"levelo://app?vid=58e615dd-6b4f-4327-9c3c-3a760079ba0a","ios":"levelo://app?vid=58e615dd-6b4f-4327-9c3c-3a760079ba0a"},"vehicle_type_id":"4","last_reported":1737198367,"current_range_meters":37600,"station_id":"","pricing_plan_id":"cebpf4jnsgd1na2vs0mg"},{"bike_id":"6a7366d7-ed8c-4629-bf0c-70c2abcda36d","system_id":"levelo_inurba_marseille","lat":43.23203,"lon":5.35562,"is_reserved":false,"is_disabled":false,"rental_uris":{"android":"levelo://app?vid=6a7366d7-ed8c-4629-bf0c-70c2abcda36d","ios":"levelo://app?vid=6a7366d7-ed8c-4629-bf0c-70c2abcda36d"},"vehicle_type_id":"4","last_reported":1737198367,"current_range_meters":38800,"station_id":"ce4bhu92rcd13ifvqi70","pricing_plan_id":"cebpf4jnsgd1na2vs0mg"},{"bike_id":"8185feea-4a8c-4fac-8efd-8f41b34f88c9","system_id":"levelo_inurba_marseille","lat":43.31731,"lon":5.37765,"is_reserved":false,"is_disabled":false,"rental_uris":{"android":"levelo://app?vid=8185feea-4a8c-4fac-8efd-8f41b34f88c9","ios":"levelo://app?vid=8185feea-4a8c-4fac-8efd-8f41b34f88c9"},"vehicle_type_id":"4","last_reported":1737198367,"current_range_meters":24800,"station_id":"ce4bgth2rcd13ifvqch0","pricing_plan_id":"cebpf4jnsgd1na2vs0mg"},{"bike_id":"c5e9582c-f791-48cb-b29f-91f8675f074e","system_id":"levelo_inurba_marseille","lat":43.31993,"lon":5.38181,"is_reserved":false,"is_disabled":false,"rental_uris":{"android":"levelo://app?vid=c5e9582c-f791-48cb-b29f-91f8675f074e","ios":"levelo://app?vid=c5e9582c-f791-48cb-b29f-91f8675f074e"},"vehicle_type_id":"4","last_reported":1737198367,"current_range_meters":38800,"station_id":"ce4bhr12rcd13ifvqhpg","pricing_plan_id":"cebpf4jnsgd1na2vs0mg"},{"bike_id":"35deb437-7ef2-4ee7-9ea5-27ce0001ca7b","system_id":"levelo_inurba_marseille","lat":43.26065,"lon":5.39398,"is_reserved":false,"is_disabled":false,"rental_uris":{"android":"levelo://app?vid=35deb437-7ef2-4ee7-9ea5-27ce0001ca7b","ios":"levelo://app?vid=35deb437-7ef2-4ee7-9ea5-27ce0001ca7b"},"vehicle_type_id":"4","last_reported":1737198367,"current_range_meters":38000,"station_id":"ce4bhh92rcd13ifvqfj0","pricing_plan_id":"cebpf4jnsgd1na2vs0mg"},{"bike_id":"8950ad97-12b3-4231-a25a-a92e6e418d6d","system_id":"levelo_inurba_marseille","lat":43.286,"lon":5.3707,"is_reserved":false,"is_disabled":false,"rental_uris":{"android":"levelo://app?vid=8950ad97-12b3-4231-a25a-a92e6e418d6d","ios":"levelo://app?vid=8950ad97-12b3-4231-a25a-a92e6e418d6d"},"vehicle_type_id":"4","last_reported":1737198367,"current_range_meters":14800,"station_id":"ce4bht12rcd13ifvqi60","pricing_plan_id":"cebpf4jnsgd1na2vs0mg"},{"bike_id":"3fce34c4-5079-4df2-b032-21df5df94aa4","system_id":"levelo_inurba_marseille","lat":43.29882,"lon":5.38917,"is_reserved":false,"is_disabled":false,"rental_uris":{"android":"levelo://app?vid=3fce34c4-5079-4df2-b032-21df5df94aa4","ios":"levelo://app?vid=3fce34c4-5079-4df2-b032-21df5df94aa4"},"vehicle_type_id":"4","last_reported":1737198367,"current_range_meters":39200,"station_id":"ce4bh392rcd13ifvqdl0","pricing_plan_id":"cebpf4jnsgd1na2vs0mg"},{"bike_id":"f2390374-e060-4fe1-bcfa-cb2711193e58","system_id":"levelo_inurba_marseille","lat":43.25089,"lon":5.39525,"is_reserved":false,"is_disabled":false,"rental_uris":{"android":"levelo://app?vid=f2390374-e060-4fe1-bcfa-cb2711193e58","ios":"levelo://app?vid=f2390374-e060-4fe1-bcfa-cb2711193e58"},"vehicle_type_id":"4","last_reported":1737198367,"current_range_meters":10800,"station_id":"ce4bhm12rcd13ifvqgkg","pricing_plan_id":"cebpf4jnsgd1na2vs0mg"},{"bike_id":"1e7b8c82-845c-4da1-abc6-6dd4469866ae","system_id":"levelo_inurba_marseille","lat":43.29035,"lon":5.37558,"is_reserved":false,"is_disabled":false,"rental_uris":{"android":"levelo://app?vid=1e7b8c82-845c-4da1-abc6-6dd4469866ae","ios":"levelo://app?vid=1e7b8c82-845c-4da1-abc6-6dd4469866ae"},"vehicle_type_id":"4","last_reported":1737198367,"current_range_meters":27600,"station_id":"ce4bh692rcd13ifvqe90","pricing_plan_id":"cebpf4jnsgd1na2vs0mg"},{"bike_id":"8caece16-a274-4801-83ed-17227752ce06","system_id":"levelo_inurba_marseille","lat":43.23158,"lon":5.43705,"is_reserved":false,"is_disabled":false,"rental_uris":{"android":"levelo://app?vid=8caece16-a274-4801-83ed-17227752ce06","ios":"levelo://app?vid=8caece16-a274-4801-83ed-17227752ce06"},"vehicle_type_id":"4","last_reported":1737198367,"current_range_meters":16400,"station_id":"ce4bhmp2rcd13ifvqgog","pricing_plan_id":"cebpf4jnsgd1na2vs0mg"},{"bike_id":"280e9965-2687-44b3-b220-ea04c6e7f609","system_id":"levelo_inurba_marseille","lat":43.28385,"lon":5.37588,"is_reserved":false,"is_disabled":false,"rental_uris":{"android":"levelo://app?vid=280e9965-2687-44b3-b220-ea04c6e7f609","ios":"levelo://app?vid=280e9965-2687-44b3-b220-ea04c6e7f609"},"vehicle_type_id":"4","last_reported":1737198367,"current_range_meters":9200,"station_id":"ce4bh412rcd13ifvqds0","pricing_plan_id":"cebpf4jnsgd1na2vs0mg"},{"bike_id":"cd4a107c-2d72-46d4-9e07-4d6e3e144097","system_id":"levelo_inurba_marseille","lat":43.29547,"lon":5.42277,"is_reserved":false,"is_disabled":false,"rental_uris":{"android":"levelo://app?vid=cd4a107c-2d72-46d4-9e07-4d6e3e144097","ios":"levelo://app?vid=cd4a107c-2d72-46d4-9e07-4d6e3e144097"},"vehicle_type_id":"4","last_reported":1737198367,"current_range_meters":38800,"station_id":"ce4bhph2rcd13ifvqhdg","pricing_plan_id":"cebpf4jnsgd1na2vs0mg"},{"bike_id":"f5207152-cd69-48fb-a6c8-915313e8379b","system_id":"levelo_inurba_marseille","lat":43.30094,"lon":5.39096,"is_reserved":false,"is_disabled":false,"rental_uris":{"android":"levelo://app?vid=f5207152-cd69-48fb-a6c8-915313e8379b","ios":"levelo://app?vid=f5207152-cd69-48fb-a6c8-915313e8379b"},"vehicle_type_id":"4","last_reported":1737198367,"current_range_meters":22400,"station_id":"ce4bh192rcd13ifvqdb0","pricing_plan_id":"cebpf4jnsgd1na2vs0mg"},{"bike_id":"c4ab3838-1d61-4e29-a39f-fbac00aa12d4","system_id":"levelo_inurba_marseille","lat":43.3118,"lon":5.36862,"is_reserved":false,"is_disabled":false,"rental_uris":{"android":"levelo://app?vid=c4ab3838-1d61-4e29-a39f-fbac00aa12d4","ios":"levelo://app?vid=c4ab3838-1d61-4e29-a39f-fbac00aa12d4"},"vehicle_type_id":"4","last_reported":1737198367,"current_range_meters":36800,"station_id":"ce4bgl92rcd13ifvqbq0","pricing_plan_id":"cebpf4jnsgd1na2vs0mg"},{"bike_id":"4697b5a1-a9b5-4890-8123-a290b2fc91c7","system_id":"levelo_inurba_marseille","lat":43.32479,"lon":5.3656,"is_reserved":false,"is_disabled":false,"rental_uris":{"android":"levelo://app?vid=4697b5a1-a9b5-4890-8123-a290b2fc91c7","ios":"levelo://app?vid=4697b5a1-a9b5-4890-8123-a290b2fc91c7"},"vehicle_type_id":"4","last_reported":1737198367,"current_range_meters":13600,"station_id":"ce4bhs12rcd13ifvqhvg","pricing_plan_id":"cebpf4jnsgd1na2vs0mg"},{"bike_id":"cc10a2c0-cc60-4b9f-86cb-99757ce85e72","system_id":"levelo_inurba_marseille","lat":43.31888,"lon":5.40741,"is_reserved":false,"is_disabled":false,"rental_uris":{"android":"levelo://app?vid=cc10a2c0-cc60-4b9f-86cb-99757ce85e72","ios":"levelo://app?vid=cc10a2c0-cc60-4b9f-86cb-99757ce85e72"},"vehicle_type_id":"4","last_reported":1737198367,"current_range_meters":13600,"station_id":"ce4bhq12rcd13ifvqhig","pricing_plan_id":"cebpf4jnsgd1na2vs0mg"},{"bike_id":"246f2aa1-d855-40ee-b8e2-0e541013d632","system_id":"levelo_inurba_marseille","lat":43.27833,"lon":5.40746,"is_reserved":false,"is_disabled":true,"rental_uris":{"android":"levelo://app?vid=246f2aa1-d855-40ee-b8e2-0e541013d632","ios":"levelo://app?vid=246f2aa1-d855-40ee-b8e2-0e541013d632"},"vehicle_type_id":"4","last_reported":1737198367,"current_range_meters":800,"station_id":"ce4bhnh2rcd13ifvqgtg","pricing_plan_id":"cebpf4jnsgd1na2vs0mg"},{"bike_id":"99a6c1a0-67e9-4a5e-8c3b-5d12fae3dd76","system_id":"levelo_inurba_marseille","lat":43.29918,"lon":5.37463,"is_reserved":false,"is_disabled":false,"rental_uris":{"android":"levelo://app?vid=99a6c1a0-67e9-4a5e-8c3b-5d12fae3dd76","ios":"levelo://app?vid=99a6c1a0-67e9-4a5e-8c3b-5d12fae3dd76"},"vehicle_type_id":"4","last_reported":1737198367,"current_range_meters":10800,"station_id":"ce4bgjh2rcd13ifvqbg0","pricing_plan_id":"cebpf4jnsgd1na2vs0mg"},{"bike_id":"b3e010bb-c8dc-4243-b3a8-152964cd9b2e","system_id":"levelo_inurba_marseille","lat":43.26808,"lon":5.39424,"is_reserved":false,"is_disabled":false,"rental_uris":{"android":"levelo://app?vid=b3e010bb-c8dc-4243-b3a8-152964cd9b2e","ios":"levelo://app?vid=b3e010bb-c8dc-4243-b3a8-152964cd9b2e"},"vehicle_type_id":"4","last_reported":1737198367,"current_range_meters":24000,"station_id":"ce4bhh12rcd13ifvqfg0","pricing_plan_id":"cebpf4jnsgd1na2vs0mg"},{"bike_id":"80d4175e-4583-4ced-8d82-da44e4842667","system_id":"levelo_inurba_marseille","lat":43.33734,"lon":5.37452,"is_reserved":false,"is_disabled":false,"rental_uris":{"android":"levelo://app?vid=80d4175e-4583-4ced-8d82-da44e4842667","ios":"levelo://app?vid=80d4175e-4583-4ced-8d82-da44e4842667"},"vehicle_type_id":"4","last_reported":1737198367,"current_range_meters":38000,"station_id":"","pricing_plan_id":"cebpf4jnsgd1na2vs0mg"},{"bike_id":"1e2f115e-489f-4c45-b5ad-3280ad4c66fe","system_id":"levelo_inurba_marseille","lat":43.31703,"lon":5.4371,"is_reserved":false,"is_disabled":false,"rental_uris":{"android":"levelo://app?vid=1e2f115e-489f-4c45-b5ad-3280ad4c66fe","ios":"levelo://app?vid=1e2f115e-489f-4c45-b5ad-3280ad4c66fe"},"vehicle_type_id":"4","last_reported":1737198367,"current_range_meters":19600,"station_id":"ce4bhp92rcd13ifvqhcg","pricing_plan_id":"cebpf4jnsgd1na2vs0mg"},{"bike_id":"cd0ce9ec-4ff8-48fa-9335-769247808a6b","system_id":"levelo_inurba_marseille","lat":43.26947,"lon":5.40263,"is_reserved":false,"is_disabled":false,"rental_uris":{"android":"levelo://app?vid=cd0ce9ec-4ff8-48fa-9335-769247808a6b","ios":"levelo://app?vid=cd0ce9ec-4ff8-48fa-9335-769247808a6b"},"vehicle_type_id":"4","last_reported":1737198367,"current_range_meters":16800,"station_id":"cjm6bp8fraef2m0cb0m0","pricing_plan_id":"cebpf4jnsgd1na2vs0mg"},{"bike_id":"5ed39e30-6df6-4cb7-b9e5-8eddd4f008ab","system_id":"levelo_inurba_marseille","lat":43.30345,"lon":5.39107,"is_reserved":false,"is_disabled":true,"rental_uris":{"android":"levelo://app?vid=5ed39e30-6df6-4cb7-b9e5-8eddd4f008ab","ios":"levelo://app?vid=5ed39e30-6df6-4cb7-b9e5-8eddd4f008ab"},"vehicle_type_id":"4","last_reported":1737198367,"current_range_meters":0,"station_id":"ce4bgkh2rcd13ifvqbk0","pricing_plan_id":"cebpf4jnsgd1na2vs0mg"},{"bike_id":"028a4fc6-46eb-42b2-afe0-dc019cd71052","system_id":"levelo_inurba_marseille","lat":43.24387,"lon":5.37055,"is_reserved":false,"is_disabled":false,"rental_uris":{"android":"levelo://app?vid=028a4fc6-46eb-42b2-afe0-dc019cd71052","ios":"levelo://app?vid=028a4fc6-46eb-42b2-afe0-dc019cd71052"},"vehicle_type_id":"4","last_reported":1737198367,"current_range_meters":24400,"station_id":"ce4bhhh2rcd13ifvqfk0","pricing_plan_id":"cebpf4jnsgd1na2vs0mg"},{"bike_id":"0b938576-3591-451b-87bf-9390e1a3ed62","system_id":"levelo_inurba_marseille","lat":43.30642,"lon":5.40114,"is_reserved":false,"is_disabled":true,"rental_uris":{"android":"levelo://app?vid=0b938576-3591-451b-87bf-9390e1a3ed62","ios":"levelo://app?vid=0b938576-3591-451b-87bf-9390e1a3ed62"},"vehicle_type_id":"4","last_reported":1737198367,"current_range_meters":20400,"station_id":"ce4bh112rcd13ifvqda0","pricing_plan_id":"cebpf4jnsgd1na2vs0mg"},{"bike_id":"7383474c-b45a-4438-837c-99d7ae866fe7","system_id":"levelo_inurba_marseille","lat":43.26066,"lon":5.39407,"is_reserved":false,"is_disabled":false,"rental_uris":{"android":"levelo://app?vid=7383474c-b45a-4438-837c-99d7ae866fe7","ios":"levelo://app?vid=7383474c-b45a-4438-837c-99d7ae866fe7"},"vehicle_type_id":"4","last_reported":1737198367,"current_range_meters":38400,"station_id":"ce4bhh92rcd13ifvqfj0","pricing_plan_id":"cebpf4jnsgd1na2vs0mg"},{"bike_id":"62f2c233-676a-44a2-b149-ae0c7955ffe8","system_id":"levelo_inurba_marseille","lat":43.26686,"lon":5.38266,"is_reserved":false,"is_disabled":false,"rental_uris":{"android":"levelo://app?vid=62f2c233-676a-44a2-b149-ae0c7955ffe8","ios":"levelo://app?vid=62f2c233-676a-44a2-b149-ae0c7955ffe8"},"vehicle_type_id":"4","last_reported":1737198367,"current_range_meters":28000,"station_id":"ce4bhg92rcd13ifvqf90","pricing_plan_id":"cebpf4jnsgd1na2vs0mg"},{"bike_id":"e4c669a9-d856-4683-82f9-7be85d41bde0","system_id":"levelo_inurba_marseille","lat":43.28419,"lon":5.34977,"is_reserved":false,"is_disabled":false,"rental_uris":{"android":"levelo://app?vid=e4c669a9-d856-4683-82f9-7be85d41bde0","ios":"levelo://app?vid=e4c669a9-d856-4683-82f9-7be85d41bde0"},"vehicle_type_id":"4","last_reported":1737198367,"current_range_meters":28800,"station_id":"ce4bhbh2rcd13ifvqepg","pricing_plan_id":"cebpf4jnsgd1na2vs0mg"},{"bike_id":"a7f2f92e-6d35-4159-84bd-c5452527d9ac","system_id":"levelo_inurba_marseille","lat":43.32352,"lon":5.40618,"is_reserved":false,"is_disabled":false,"rental_uris":{"android":"levelo://app?vid=a7f2f92e-6d35-4159-84bd-c5452527d9ac","ios":"levelo://app?vid=a7f2f92e-6d35-4159-84bd-c5452527d9ac"},"vehicle_type_id":"4","last_reported":1737198367,"current_range_meters":28000,"station_id":"ce4bhq92rcd13ifvqhjg","pricing_plan_id":"cebpf4jnsgd1na2vs0mg"},{"bike_id":"86589f08-d600-4f74-8185-c23b8b775fc5","system_id":"levelo_inurba_marseille","lat":43.30955,"lon":5.39026,"is_reserved":false,"is_disabled":false,"rental_uris":{"android":"levelo://app?vid=86589f08-d600-4f74-8185-c23b8b775fc5","ios":"levelo://app?vid=86589f08-d600-4f74-8185-c23b8b775fc5"},"vehicle_type_id":"4","last_reported":1737198367,"current_range_meters":36800,"station_id":"ce4bgup2rcd13ifvqco0","pricing_plan_id":"cebpf4jnsgd1na2vs0mg"},{"bike_id":"44bccd7b-e954-4fef-a58a-1bfa0b432213","system_id":"levelo_inurba_marseille","lat":43.28265,"lon":5.35072,"is_reserved":false,"is_disabled":false,"rental_uris":{"android":"levelo://app?vid=44bccd7b-e954-4fef-a58a-1bfa0b432213","ios":"levelo://app?vid=44bccd7b-e954-4fef-a58a-1bfa0b432213"},"vehicle_type_id":"4","last_reported":1737198367,"current_range_meters":9600,"station_id":"ce4bhbp2rcd13ifvqerg","pricing_plan_id":"cebpf4jnsgd1na2vs0mg"},{"bike_id":"14231e40-e07c-47e2-b9c8-2d29c9f89140","system_id":"levelo_inurba_marseille","lat":43.31484,"lon":5.37319,"is_reserved":false,"is_disabled":false,"rental_uris":{"android":"levelo://app?vid=14231e40-e07c-47e2-b9c8-2d29c9f89140","ios":"levelo://app?vid=14231e40-e07c-47e2-b9c8-2d29c9f89140"},"vehicle_type_id":"4","last_reported":1737198367,"current_range_meters":14800,"station_id":"ce4bgt12rcd13ifvqcd0","pricing_plan_id":"cebpf4jnsgd1na2vs0mg"},{"bike_id":"9a590586-da62-4632-9864-378894561e71","system_id":"levelo_inurba_marseille","lat":43.25828,"lon":5.39434,"is_reserved":false,"is_disabled":false,"rental_uris":{"android":"levelo://app?vid=9a590586-da62-4632-9864-378894561e71","ios":"levelo://app?vid=9a590586-da62-4632-9864-378894561e71"},"vehicle_type_id":"4","last_reported":1737198367,"current_range_meters":33200,"station_id":"ce4bhip2rcd13ifvqft0","pricing_plan_id":"cebpf4jnsgd1na2vs0mg"},{"bike_id":"cc32e4c0-139e-4c61-ab08-5993b987526e","system_id":"levelo_inurba_marseille","lat":43.28262,"lon":5.35042,"is_reserved":false,"is_disabled":false,"rental_uris":{"android":"levelo://app?vid=cc32e4c0-139e-4c61-ab08-5993b987526e","ios":"levelo://app?vid=cc32e4c0-139e-4c61-ab08-5993b987526e"},"vehicle_type_id":"4","last_reported":1737198367,"current_range_meters":37600,"station_id":"ce4bhbp2rcd13ifvqerg","pricing_plan_id":"cebpf4jnsgd1na2vs0mg"},{"bike_id":"fe90f7a6-3920-456a-9451-50d213b7000f","system_id":"levelo_inurba_marseille","lat":43.28475,"lon":5.38459,"is_reserved":false,"is_disabled":true,"rental_uris":{"android":"levelo://app?vid=fe90f7a6-3920-456a-9451-50d213b7000f","ios":"levelo://app?vid=fe90f7a6-3920-456a-9451-50d213b7000f"},"vehicle_type_id":"4","last_reported":1737198367,"current_range_meters":0,"station_id":"ce4bh512rcd13ifvqe3g","pricing_plan_id":"cebpf4jnsgd1na2vs0mg"},{"bike_id":"3958b03d-b591-4d79-80a4-059614f22dc2","system_id":"levelo_inurba_marseille","lat":43.29897,"lon":5.43672,"is_reserved":false,"is_disabled":false,"rental_uris":{"android":"levelo://app?vid=3958b03d-b591-4d79-80a4-059614f22dc2","ios":"levelo://app?vid=3958b03d-b591-4d79-80a4-059614f22dc2"},"vehicle_type_id":"4","last_reported":1737198367,"current_range_meters":35200,"station_id":"ce4bhpp2rcd13ifvqhfg","pricing_plan_id":"cebpf4jnsgd1na2vs0mg"},{"bike_id":"910d1690-8e74-46e9-a779-620892417947","system_id":"levelo_inurba_marseille","lat":43.27087,"lon":5.42266,"is_reserved":false,"is_disabled":false,"rental_uris":{"android":"levelo://app?vid=910d1690-8e74-46e9-a779-620892417947","ios":"levelo://app?vid=910d1690-8e74-46e9-a779-620892417947"},"vehicle_type_id":"4","last_reported":1737198367,"current_range_meters":37600,"station_id":"ce4bhk92rcd13ifvqgb0","pricing_plan_id":"cebpf4jnsgd1na2vs0mg"},{"bike_id":"30c55592-5c2d-4766-9ae9-6f1e5192194b","system_id":"levelo_inurba_marseille","lat":43.30767,"lon":5.37667,"is_reserved":false,"is_disabled":true,"rental_uris":{"android":"levelo://app?vid=30c55592-5c2d-4766-9ae9-6f1e5192194b","ios":"levelo://app?vid=30c55592-5c2d-4766-9ae9-6f1e5192194b"},"vehicle_type_id":"4","last_reported":1737198367,"current_range_meters":0,"station_id":"","pricing_plan_id":"cebpf4jnsgd1na2vs0mg"},{"bike_id":"7252053a-5c68-45c3-bb6b-f5e7c6b31b2d","system_id":"levelo_inurba_marseille","lat":43.27611,"lon":5.36137,"is_reserved":false,"is_disabled":false,"rental_uris":{"android":"levelo://app?vid=7252053a-5c68-45c3-bb6b-f5e7c6b31b2d","ios":"levelo://app?vid=7252053a-5c68-45c3-bb6b-f5e7c6b31b2d"},"vehicle_type_id":"4","last_reported":1737198367,"current_range_meters":36400,"station_id":"ce4bgj92rcd13ifvqbe0","pricing_plan_id":"cebpf4jnsgd1na2vs0mg"},{"bike_id":"dbc84289-e424-421f-8922-80495ae94fa1","system_id":"levelo_inurba_marseille","lat":43.305988,"lon":5.393584,"is_reserved":false,"is_disabled":true,"rental_uris":{"android":"levelo://app?vid=dbc84289-e424-421f-8922-80495ae94fa1","ios":"levelo://app?vid=dbc84289-e424-421f-8922-80495ae94fa1"},"vehicle_type_id":"4","last_reported":1737198367,"current_range_meters":22800,"station_id":"ce4bh0p2rcd13ifvqd80","pricing_plan_id":"cebpf4jnsgd1na2vs0mg"},{"bike_id":"b205d6b8-894d-4fbe-b662-7e7cffdad903","system_id":"levelo_inurba_marseille","lat":43.305284,"lon":5.365336,"is_reserved":false,"is_disabled":false,"rental_uris":{"android":"levelo://app?vid=b205d6b8-894d-4fbe-b662-7e7cffdad903","ios":"levelo://app?vid=b205d6b8-894d-4fbe-b662-7e7cffdad903"},"vehicle_type_id":"4","last_reported":1737198367,"current_range_meters":38000,"station_id":"ce4bgs12rcd13ifvqcag","pricing_plan_id":"cebpf4jnsgd1na2vs0mg"},{"bike_id":"a9a0e60f-8e94-490a-988c-5a9cfc45d626","system_id":"levelo_inurba_marseille","lat":43.24172,"lon":5.36391,"is_reserved":false,"is_disabled":false,"rental_uris":{"android":"levelo://app?vid=a9a0e60f-8e94-490a-988c-5a9cfc45d626","ios":"levelo://app?vid=a9a0e60f-8e94-490a-988c-5a9cfc45d626"},"vehicle_type_id":"4","last_reported":1737198367,"current_range_meters":11200,"station_id":"cpo36qri1sfpv3e86is0","pricing_plan_id":"cebpf4jnsgd1na2vs0mg"},{"bike_id":"c8f901c8-f5ad-4f8e-9175-dea16fbf5df3","system_id":"levelo_inurba_marseille","lat":43.28477,"lon":5.38408,"is_reserved":false,"is_disabled":false,"rental_uris":{"android":"levelo://app?vid=c8f901c8-f5ad-4f8e-9175-dea16fbf5df3","ios":"levelo://app?vid=c8f901c8-f5ad-4f8e-9175-dea16fbf5df3"},"vehicle_type_id":"4","last_reported":1737198367,"current_range_meters":32400,"station_id":"ce4bh512rcd13ifvqe3g","pricing_plan_id":"cebpf4jnsgd1na2vs0mg"},{"bike_id":"829021dc-e723-416e-bff4-99b04b3fd258","system_id":"levelo_inurba_marseille","lat":43.33017,"lon":5.39042,"is_reserved":false,"is_disabled":false,"rental_uris":{"android":"levelo://app?vid=829021dc-e723-416e-bff4-99b04b3fd258","ios":"levelo://app?vid=829021dc-e723-416e-bff4-99b04b3fd258"},"vehicle_type_id":"4","last_reported":1737198367,"current_range_meters":20400,"station_id":"ce4bhr92rcd13ifvqhrg","pricing_plan_id":"cebpf4jnsgd1na2vs0mg"},{"bike_id":"11cd2222-dd89-422a-913d-4cdc05e996df","system_id":"levelo_inurba_marseille","lat":43.29377,"lon":5.37843,"is_reserved":false,"is_disabled":false,"rental_uris":{"android":"levelo://app?vid=11cd2222-dd89-422a-913d-4cdc05e996df","ios":"levelo://app?vid=11cd2222-dd89-422a-913d-4cdc05e996df"},"vehicle_type_id":"4","last_reported":1737198367,"current_range_meters":38800,"station_id":"ce4bgjh2rcd13ifvqbf0","pricing_plan_id":"cebpf4jnsgd1na2vs0mg"},{"bike_id":"822eee82-cb72-48f8-b4d9-5cbe8cd32a8a","system_id":"levelo_inurba_marseille","lat":43.299003,"lon":5.436735,"is_reserved":false,"is_disabled":false,"rental_uris":{"android":"levelo://app?vid=822eee82-cb72-48f8-b4d9-5cbe8cd32a8a","ios":"levelo://app?vid=822eee82-cb72-48f8-b4d9-5cbe8cd32a8a"},"vehicle_type_id":"4","last_reported":1737198367,"current_range_meters":21600,"station_id":"ce4bhpp2rcd13ifvqhfg","pricing_plan_id":"cebpf4jnsgd1na2vs0mg"},{"bike_id":"4b323b40-36e4-4141-884d-7a50463d007f","system_id":"levelo_inurba_marseille","lat":43.29627,"lon":5.4059,"is_reserved":false,"is_disabled":true,"rental_uris":{"android":"levelo://app?vid=4b323b40-36e4-4141-884d-7a50463d007f","ios":"levelo://app?vid=4b323b40-36e4-4141-884d-7a50463d007f"},"vehicle_type_id":"4","last_reported":1737198367,"current_range_meters":1600,"station_id":"ce4bh0h2rcd13ifvqd60","pricing_plan_id":"cebpf4jnsgd1na2vs0mg"},{"bike_id":"95d5fca7-dfda-4bcf-a78d-e81265e6be5f","system_id":"levelo_inurba_marseille","lat":43.3089,"lon":5.36859,"is_reserved":false,"is_disabled":false,"rental_uris":{"android":"levelo://app?vid=95d5fca7-dfda-4bcf-a78d-e81265e6be5f","ios":"levelo://app?vid=95d5fca7-dfda-4bcf-a78d-e81265e6be5f"},"vehicle_type_id":"4","last_reported":1737198367,"current_range_meters":37600,"station_id":"ce4bgn92rcd13ifvqbvg","pricing_plan_id":"cebpf4jnsgd1na2vs0mg"},{"bike_id":"5647759a-d72f-4e7c-aa0c-b39727d4b280","system_id":"levelo_inurba_marseille","lat":43.29851,"lon":5.36287,"is_reserved":false,"is_disabled":false,"rental_uris":{"android":"levelo://app?vid=5647759a-d72f-4e7c-aa0c-b39727d4b280","ios":"levelo://app?vid=5647759a-d72f-4e7c-aa0c-b39727d4b280"},"vehicle_type_id":"4","last_reported":1737198367,"current_range_meters":30800,"station_id":"ce4bgpp2rcd13ifvqc3g","pricing_plan_id":"cebpf4jnsgd1na2vs0mg"},{"bike_id":"d5cb211d-1292-48d4-a1a5-5b24da386341","system_id":"levelo_inurba_marseille","lat":43.27221,"lon":5.39188,"is_reserved":false,"is_disabled":false,"rental_uris":{"android":"levelo://app?vid=d5cb211d-1292-48d4-a1a5-5b24da386341","ios":"levelo://app?vid=d5cb211d-1292-48d4-a1a5-5b24da386341"},"vehicle_type_id":"4","last_reported":1737198367,"current_range_meters":34000,"station_id":"ce4bhhp2rcd13ifvqfm0","pricing_plan_id":"cebpf4jnsgd1na2vs0mg"},{"bike_id":"f5863b18-13a1-4c6e-92de-5668ea912ad3","system_id":"levelo_inurba_marseille","lat":43.26212,"lon":5.40482,"is_reserved":false,"is_disabled":true,"rental_uris":{"android":"levelo://app?vid=f5863b18-13a1-4c6e-92de-5668ea912ad3","ios":"levelo://app?vid=f5863b18-13a1-4c6e-92de-5668ea912ad3"},"vehicle_type_id":"4","last_reported":1737198367,"current_range_meters":0,"station_id":"","pricing_plan_id":"cebpf4jnsgd1na2vs0mg"},{"bike_id":"c7017022-aee1-4f65-a339-a13ada38d3d0","system_id":"levelo_inurba_marseille","lat":43.26051,"lon":5.37537,"is_reserved":false,"is_disabled":false,"rental_uris":{"android":"levelo://app?vid=c7017022-aee1-4f65-a339-a13ada38d3d0","ios":"levelo://app?vid=c7017022-aee1-4f65-a339-a13ada38d3d0"},"vehicle_type_id":"4","last_reported":1737198367,"current_range_meters":27600,"station_id":"ce4bhgh2rcd13ifvqfa0","pricing_plan_id":"cebpf4jnsgd1na2vs0mg"},{"bike_id":"e5f71037-c3e2-4a5c-b185-51bcddd625d8","system_id":"levelo_inurba_marseille","lat":43.23076,"lon":5.35488,"is_reserved":false,"is_disabled":false,"rental_uris":{"android":"levelo://app?vid=e5f71037-c3e2-4a5c-b185-51bcddd625d8","ios":"levelo://app?vid=e5f71037-c3e2-4a5c-b185-51bcddd625d8"},"vehicle_type_id":"4","last_reported":1737198367,"current_range_meters":37600,"station_id":"cpo3342slgdg3j2ifvpg","pricing_plan_id":"cebpf4jnsgd1na2vs0mg"},{"bike_id":"46686b70-f375-4947-b209-2f4548c2edcf","system_id":"levelo_inurba_marseille","lat":43.28868,"lon":5.39453,"is_reserved":false,"is_disabled":true,"rental_uris":{"android":"levelo://app?vid=46686b70-f375-4947-b209-2f4548c2edcf","ios":"levelo://app?vid=46686b70-f375-4947-b209-2f4548c2edcf"},"vehicle_type_id":"4","last_reported":1737198367,"current_range_meters":0,"station_id":"","pricing_plan_id":"cebpf4jnsgd1na2vs0mg"},{"bike_id":"ee7129e4-0dd6-4b09-9979-8a120e5f7d64","system_id":"levelo_inurba_marseille","lat":43.30535,"lon":5.36708,"is_reserved":false,"is_disabled":false,"rental_uris":{"android":"levelo://app?vid=ee7129e4-0dd6-4b09-9979-8a120e5f7d64","ios":"levelo://app?vid=ee7129e4-0dd6-4b09-9979-8a120e5f7d64"},"vehicle_type_id":"4","last_reported":1737198367,"current_range_meters":37600,"station_id":"ce4bgrp2rcd13ifvqc9g","pricing_plan_id":"cebpf4jnsgd1na2vs0mg"},{"bike_id":"48b6b806-1517-45ce-a245-e37ba43f477d","system_id":"levelo_inurba_marseille","lat":43.31714,"lon":5.3774,"is_reserved":false,"is_disabled":false,"rental_uris":{"android":"levelo://app?vid=48b6b806-1517-45ce-a245-e37ba43f477d","ios":"levelo://app?vid=48b6b806-1517-45ce-a245-e37ba43f477d"},"vehicle_type_id":"4","last_reported":1737198367,"current_range_meters":7200,"station_id":"ce4bgth2rcd13ifvqch0","pricing_plan_id":"cebpf4jnsgd1na2vs0mg"},{"bike_id":"cf88a916-8326-411c-8244-41e5d4275a6d","system_id":"levelo_inurba_marseille","lat":43.29359,"lon":5.37876,"is_reserved":false,"is_disabled":false,"rental_uris":{"android":"levelo://app?vid=cf88a916-8326-411c-8244-41e5d4275a6d","ios":"levelo://app?vid=cf88a916-8326-411c-8244-41e5d4275a6d"},"vehicle_type_id":"4","last_reported":1737198367,"current_range_meters":22400,"station_id":"ce4bgjh2rcd13ifvqbf0","pricing_plan_id":"cebpf4jnsgd1na2vs0mg"},{"bike_id":"982c5e56-6f26-48c1-aefd-d611c3ea6ec0","system_id":"levelo_inurba_marseille","lat":43.23145,"lon":5.43727,"is_reserved":false,"is_disabled":false,"rental_uris":{"android":"levelo://app?vid=982c5e56-6f26-48c1-aefd-d611c3ea6ec0","ios":"levelo://app?vid=982c5e56-6f26-48c1-aefd-d611c3ea6ec0"},"vehicle_type_id":"4","last_reported":1737198367,"current_range_meters":9600,"station_id":"ce4bhmp2rcd13ifvqgog","pricing_plan_id":"cebpf4jnsgd1na2vs0mg"},{"bike_id":"6e5ce8bc-0f63-4e4a-8f4b-3a83a897df0d","system_id":"levelo_inurba_marseille","lat":43.23155,"lon":5.43704,"is_reserved":false,"is_disabled":false,"rental_uris":{"android":"levelo://app?vid=6e5ce8bc-0f63-4e4a-8f4b-3a83a897df0d","ios":"levelo://app?vid=6e5ce8bc-0f63-4e4a-8f4b-3a83a897df0d"},"vehicle_type_id":"4","last_reported":1737198367,"current_range_meters":6000,"station_id":"ce4bhmp2rcd13ifvqgog","pricing_plan_id":"cebpf4jnsgd1na2vs0mg"},{"bike_id":"2fa19ccb-7785-48d0-b503-9bed9771bfb2","system_id":"levelo_inurba_marseille","lat":43.308,"lon":5.3816,"is_reserved":false,"is_disabled":false,"rental_uris":{"android":"levelo://app?vid=2fa19ccb-7785-48d0-b503-9bed9771bfb2","ios":"levelo://app?vid=2fa19ccb-7785-48d0-b503-9bed9771bfb2"},"vehicle_type_id":"4","last_reported":1737198367,"current_range_meters":6400,"station_id":"ce4bgt12rcd13ifvqce0","pricing_plan_id":"cebpf4jnsgd1na2vs0mg"},{"bike_id":"38e4098c-d4d9-4f97-a553-235d8301fae6","system_id":"levelo_inurba_marseille","lat":43.27832,"lon":5.39239,"is_reserved":false,"is_disabled":false,"rental_uris":{"android":"levelo://app?vid=38e4098c-d4d9-4f97-a553-235d8301fae6","ios":"levelo://app?vid=38e4098c-d4d9-4f97-a553-235d8301fae6"},"vehicle_type_id":"4","last_reported":1737198367,"current_range_meters":36800,"station_id":"ce4bhjp2rcd13ifvqga0","pricing_plan_id":"cebpf4jnsgd1na2vs0mg"},{"bike_id":"aee77450-e637-4195-bb0f-578307372c59","system_id":"levelo_inurba_marseille","lat":43.299,"lon":5.43658,"is_reserved":false,"is_disabled":false,"rental_uris":{"android":"levelo://app?vid=aee77450-e637-4195-bb0f-578307372c59","ios":"levelo://app?vid=aee77450-e637-4195-bb0f-578307372c59"},"vehicle_type_id":"4","last_reported":1737198367,"current_range_meters":38000,"station_id":"ce4bhpp2rcd13ifvqhfg","pricing_plan_id":"cebpf4jnsgd1na2vs0mg"},{"bike_id":"6f6f2137-ea85-482c-a1c4-144c872709c9","system_id":"levelo_inurba_marseille","lat":43.26548,"lon":5.39058,"is_reserved":false,"is_disabled":false,"rental_uris":{"android":"levelo://app?vid=6f6f2137-ea85-482c-a1c4-144c872709c9","ios":"levelo://app?vid=6f6f2137-ea85-482c-a1c4-144c872709c9"},"vehicle_type_id":"4","last_reported":1737198367,"current_range_meters":8400,"station_id":"ce4bhe12rcd13ifvqf30","pricing_plan_id":"cebpf4jnsgd1na2vs0mg"},{"bike_id":"1f5284ce-bbe4-4e59-8dcf-7eee652b3084","system_id":"levelo_inurba_marseille","lat":43.26682,"lon":5.38276,"is_reserved":false,"is_disabled":false,"rental_uris":{"android":"levelo://app?vid=1f5284ce-bbe4-4e59-8dcf-7eee652b3084","ios":"levelo://app?vid=1f5284ce-bbe4-4e59-8dcf-7eee652b3084"},"vehicle_type_id":"4","last_reported":1737198367,"current_range_meters":21600,"station_id":"ce4bhg92rcd13ifvqf90","pricing_plan_id":"cebpf4jnsgd1na2vs0mg"},{"bike_id":"6870a9e0-7988-452a-a0a6-84e136278682","system_id":"levelo_inurba_marseille","lat":43.26544,"lon":5.37309,"is_reserved":false,"is_disabled":false,"rental_uris":{"android":"levelo://app?vid=6870a9e0-7988-452a-a0a6-84e136278682","ios":"levelo://app?vid=6870a9e0-7988-452a-a0a6-84e136278682"},"vehicle_type_id":"4","last_reported":1737198367,"current_range_meters":38000,"station_id":"ce4bhg12rcd13ifvqf70","pricing_plan_id":"cebpf4jnsgd1na2vs0mg"},{"bike_id":"eca6b47e-66a5-44b3-b44c-80357e608f8d","system_id":"levelo_inurba_marseille","lat":43.31507,"lon":5.37355,"is_reserved":false,"is_disabled":false,"rental_uris":{"android":"levelo://app?vid=eca6b47e-66a5-44b3-b44c-80357e608f8d","ios":"levelo://app?vid=eca6b47e-66a5-44b3-b44c-80357e608f8d"},"vehicle_type_id":"4","last_reported":1737198367,"current_range_meters":35200,"station_id":"ce4bgt12rcd13ifvqcd0","pricing_plan_id":"cebpf4jnsgd1na2vs0mg"},{"bike_id":"f4b03e8f-370c-4696-bf18-15651a5ea3bf","system_id":"levelo_inurba_marseille","lat":43.25735,"lon":5.41108,"is_reserved":false,"is_disabled":false,"rental_uris":{"android":"levelo://app?vid=f4b03e8f-370c-4696-bf18-15651a5ea3bf","ios":"levelo://app?vid=f4b03e8f-370c-4696-bf18-15651a5ea3bf"},"vehicle_type_id":"4","last_reported":1737198367,"current_range_meters":27200,"station_id":"ce4bhkp2rcd13ifvqgd0","pricing_plan_id":"cebpf4jnsgd1na2vs0mg"},{"bike_id":"0eb3b221-d4be-4bec-a91c-85b629060561","system_id":"levelo_inurba_marseille","lat":43.29045,"lon":5.38161,"is_reserved":false,"is_disabled":false,"rental_uris":{"android":"levelo://app?vid=0eb3b221-d4be-4bec-a91c-85b629060561","ios":"levelo://app?vid=0eb3b221-d4be-4bec-a91c-85b629060561"},"vehicle_type_id":"4","last_reported":1737198367,"current_range_meters":38000,"station_id":"ce4bh512rcd13ifvqe2g","pricing_plan_id":"cebpf4jnsgd1na2vs0mg"},{"bike_id":"8ac172ae-ef1d-4057-899f-346eedea9bd7","system_id":"levelo_inurba_marseille","lat":43.29354,"lon":5.37865,"is_reserved":false,"is_disabled":false,"rental_uris":{"android":"levelo://app?vid=8ac172ae-ef1d-4057-899f-346eedea9bd7","ios":"levelo://app?vid=8ac172ae-ef1d-4057-899f-346eedea9bd7"},"vehicle_type_id":"4","last_reported":1737198367,"current_range_meters":24800,"station_id":"ce4bgjh2rcd13ifvqbf0","pricing_plan_id":"cebpf4jnsgd1na2vs0mg"},{"bike_id":"b2e3142b-3b1b-4d56-9872-73ee689f9ab7","system_id":"levelo_inurba_marseille","lat":43.26679,"lon":5.38264,"is_reserved":false,"is_disabled":false,"rental_uris":{"android":"levelo://app?vid=b2e3142b-3b1b-4d56-9872-73ee689f9ab7","ios":"levelo://app?vid=b2e3142b-3b1b-4d56-9872-73ee689f9ab7"},"vehicle_type_id":"4","last_reported":1737198367,"current_range_meters":32400,"station_id":"ce4bhg92rcd13ifvqf90","pricing_plan_id":"cebpf4jnsgd1na2vs0mg"},{"bike_id":"89e5abf9-db11-4176-8d87-4ded95733757","system_id":"levelo_inurba_marseille","lat":43.30478,"lon":5.3791,"is_reserved":false,"is_disabled":false,"rental_uris":{"android":"levelo://app?vid=89e5abf9-db11-4176-8d87-4ded95733757","ios":"levelo://app?vid=89e5abf9-db11-4176-8d87-4ded95733757"},"vehicle_type_id":"4","last_reported":1737198367,"current_range_meters":16400,"station_id":"ce4bgup2rcd13ifvqcn0","pricing_plan_id":"cebpf4jnsgd1na2vs0mg"},{"bike_id":"183ae67e-cb6f-43ef-bba6-57d1b437f18e","system_id":"levelo_inurba_marseille","lat":43.27195,"lon":5.39189,"is_reserved":false,"is_disabled":false,"rental_uris":{"android":"levelo://app?vid=183ae67e-cb6f-43ef-bba6-57d1b437f18e","ios":"levelo://app?vid=183ae67e-cb6f-43ef-bba6-57d1b437f18e"},"vehicle_type_id":"4","last_reported":1737198367,"current_range_meters":38800,"station_id":"ce4bhhp2rcd13ifvqfm0","pricing_plan_id":"cebpf4jnsgd1na2vs0mg"},{"bike_id":"e45f0089-e153-4269-9c35-d89c5e3f824a","system_id":"levelo_inurba_marseille","lat":43.28476,"lon":5.38552,"is_reserved":false,"is_disabled":false,"rental_uris":{"android":"levelo://app?vid=e45f0089-e153-4269-9c35-d89c5e3f824a","ios":"levelo://app?vid=e45f0089-e153-4269-9c35-d89c5e3f824a"},"vehicle_type_id":"4","last_reported":1737198367,"current_range_meters":38800,"station_id":"ce4bh8p2rcd13ifvqeb0","pricing_plan_id":"cebpf4jnsgd1na2vs0mg"},{"bike_id":"c73224c5-8662-473f-8844-f010af6d2952","system_id":"levelo_inurba_marseille","lat":43.27165,"lon":5.41041,"is_reserved":false,"is_disabled":true,"rental_uris":{"android":"levelo://app?vid=c73224c5-8662-473f-8844-f010af6d2952","ios":"levelo://app?vid=c73224c5-8662-473f-8844-f010af6d2952"},"vehicle_type_id":"4","last_reported":1737198367,"current_range_meters":24400,"station_id":"ce4bhl12rcd13ifvqgf0","pricing_plan_id":"cebpf4jnsgd1na2vs0mg"},{"bike_id":"791acac6-5ee6-4426-bbb7-7a21fc0cbf4f","system_id":"levelo_inurba_marseille","lat":43.24999,"lon":5.38933,"is_reserved":false,"is_disabled":false,"rental_uris":{"android":"levelo://app?vid=791acac6-5ee6-4426-bbb7-7a21fc0cbf4f","ios":"levelo://app?vid=791acac6-5ee6-4426-bbb7-7a21fc0cbf4f"},"vehicle_type_id":"4","last_reported":1737198367,"current_range_meters":30000,"station_id":"ce4bhgp2rcd13ifvqfd0","pricing_plan_id":"cebpf4jnsgd1na2vs0mg"},{"bike_id":"95b517d0-9dcf-47f9-8053-773bec6e6a69","system_id":"levelo_inurba_marseille","lat":43.26707,"lon":5.39517,"is_reserved":false,"is_disabled":false,"rental_uris":{"android":"levelo://app?vid=95b517d0-9dcf-47f9-8053-773bec6e6a69","ios":"levelo://app?vid=95b517d0-9dcf-47f9-8053-773bec6e6a69"},"vehicle_type_id":"4","last_reported":1737198367,"current_range_meters":17200,"station_id":"","pricing_plan_id":"cebpf4jnsgd1na2vs0mg"},{"bike_id":"88ecc350-98b7-4b79-9cc7-0ffeb6627ea6","system_id":"levelo_inurba_marseille","lat":43.24995,"lon":5.38938,"is_reserved":false,"is_disabled":false,"rental_uris":{"android":"levelo://app?vid=88ecc350-98b7-4b79-9cc7-0ffeb6627ea6","ios":"levelo://app?vid=88ecc350-98b7-4b79-9cc7-0ffeb6627ea6"},"vehicle_type_id":"4","last_reported":1737198367,"current_range_meters":31200,"station_id":"ce4bhgp2rcd13ifvqfd0","pricing_plan_id":"cebpf4jnsgd1na2vs0mg"},