{"last_updated":1770415951,"ttl":60,"version":"2.2","data":{"bikes":[{"bike_id":"b748efb1-36e8-4460-8c07-d63b16f089fc","system_id":"levelo_inurba_marseille","lat":43.27889,"lon":5.38022,"is_reserved":false,"is_disabled":false,"rental_uris":{"android":"levelo://app?vid=b748efb1-36e8-4460-8c07-d63b16f089fc","ios":"levelo://app?vid=b748efb1-36e8-4460-8c07-d63b16f089fc"},"vehicle_type_id":"4","last_reported":1770415951,"current_range_meters":2800,"station_id":"ce4bhf92rcd13ifvqf50","pricing_plan_id":"cebpf4jnsgd1na2vs0mg"},{"bike_id":"5309610c-bf76-4542-a232-389bbf17cbff","system_id":"levelo_inurba_marseille","lat":43.3354,"lon":5.37461,"is_reserved":false,"is_disabled":false,"rental_uris":{"android":"levelo://app?vid=5309610c-bf76-4542-a232-389bbf17cbff","ios":"levelo://app?vid=5309610c-bf76-4542-a232-389bbf17cbff"},"vehicle_type_id":"4","last_reported":1770415951,"current_range_meters":2800,"station_id":"st_d46tts09ee8s73dlu43g","pricing_plan_id":"cebpf4jnsgd1na2vs0mg"},{"bike_id":"f97cfa03-c4f4-43fd-ac7e-e8695c9c7516","system_id":"levelo_inurba_marseille","lat":43.25568,"lon":5.38255,"is_reserved":false,"is_disabled":false,"rental_uris":{"android":"levelo://app?vid=f97cfa03-c4f4-43fd-ac7e-e8695c9c7516","ios":"levelo://app?vid=f97cfa03-c4f4-43fd-ac7e-e8695c9c7516"},"vehicle_type_id":"4","last_reported":1770415951,"current_range_meters":2800,"station_id":"ce4bhih2rcd13ifvqfs0","pricing_plan_id":"cebpf4jnsgd1na2vs0mg"},{"bike_id":"a130d7b6-33ed-4fba-a208-0bdcc420ff10","system_id":"levelo_inurba_marseille","lat":43.30215,"lon":5.39454,"is_reserved":false,"is_disabled":false,"rental_uris":{"android":"levelo://app?vid=a130d7b6-33ed-4fba-a208-0bdcc420ff10","ios":"levelo://app?vid=a130d7b6-33ed-4fba-a208-0bdcc420ff10"},"vehicle_type_id":"4","last_reported":1770415951,"current_range_meters":2800,"station_id":"ce4bh0p2rcd13ifvqd70","pricing_plan_id":"cebpf4jnsgd1na2vs0mg"},{"bike_id":"96876c85-ba78-44f0-b657-3871e91b6a59","system_id":"levelo_inurba_marseille","lat":43.29526,"lon":5.39048,"is_reserved":false,"is_disabled":false,"rental_uris":{"android":"levelo://app?vid=96876c85-ba78-44f0-b657-3871e91b6a59","ios":"levelo://app?vid=96876c85-ba78-44f0-b657-3871e91b6a59"},"vehicle_type_id":"4","last_reported":1770415951,"current_range_meters":2800,"station_id":"ce4bh3p2rcd13ifvqdp0","pricing_plan_id":"cebpf4jnsgd1na2vs0mg"},{"bike_id":"aa269748-3e78-41b5-91cb-9577954fe8ae","system_id":"levelo_inurba_marseille","lat":43.26549,"lon":5.39037,"is_reserved":false,"is_disabled":false,"rental_uris":{"android":"levelo://app?vid=aa269748-3e78-41b5-91cb-9577954fe8ae","ios":"levelo://app?vid=aa269748-3e78-41b5-91cb-9577954fe8ae"},"vehicle_type_id":"4","last_reported":1770415951,"current_range_meters":2800,"station_id":"ce4bhe12rcd13ifvqf30","pricing_plan_id":"cebpf4jnsgd1na2vs0mg"},{"bike_id":"fee0750a-8d27-43e0-94f7-17675fd554cc","system_id":"levelo_inurba_marseille","lat":43.23202,"lon":5.35576,"is_reserved":false,"is_disabled":false,"rental_uris":{"android":"levelo://app?vid=fee0750a-8d27-43e0-94f7-17675fd554cc","ios":"levelo://app?vid=fee0750a-8d27-43e0-94f7-17675fd554cc"},"vehicle_type_id":"4","last_reported":1770415951,"current_range_meters":2800,"station_id":"ce4bhu92rcd13ifvqi70","pricing_plan_id":"cebpf4jnsgd1na2vs0mg"},{"bike_id":"d87998ee-99c7-41e0-a53f-7f9ac11cb81f","system_id":"levelo_inurba_marseille","lat":43.29547,"lon":5.38542,"is_reserved":false,"is_disabled":false,"rental_uris":{"android":"levelo://app?vid=d87998ee-99c7-41e0-a53f-7f9ac11cb81f","ios":"levelo://app?vid=d87998ee-99c7-41e0-a53f-7f9ac11cb81f"},"vehicle_type_id":"4","last_reported":1770415951,"current_range_meters":2800,"station_id":"ce4bgih2rcd13ifvqba0","pricing_plan_id":"cebpf4jnsgd1na2vs0mg"},{"bike_id":"5da19c60-8d18-4f89-9f34-861cb03ee1b3","system_id":"levelo_inurba_marseille","lat":43.24668,"lon":5.38166,"is_reserved":false,"is_disabled":false,"rental_uris":{"android":"levelo://app?vid=5da19c60-8d18-4f89-9f34-861cb03ee1b3","ios":"levelo://app?vid=5da19c60-8d18-4f89-9f34-861cb03ee1b3"},"vehicle_type_id":"4","last_reported":1770415951,"current_range_meters":2800,"station_id":"ce4bhih2rcd13ifvqfr0","pricing_plan_id":"cebpf4jnsgd1na2vs0mg"},{"bike_id":"345b03a9-e9bb-4be4-a77b-c5c6f0eaddf7","system_id":"levelo_inurba_marseille","lat":43.309509,"lon":5.390272,"is_reserved":false,"is_disabled":false,"rental_uris":{"android":"levelo://app?vid=345b03a9-e9bb-4be4-a77b-c5c6f0eaddf7","ios":"levelo://app?vid=345b03a9-e9bb-4be4-a77b-c5c6f0eaddf7"},"vehicle_type_id":"4","last_reported":1770415951,"current_range_meters":2800,"station_id":"ce4bgup2rcd13ifvqco0","pricing_plan_id":"cebpf4jnsgd1na2vs0mg"},{"bike_id":"da951794-ec6f-4946-b607-7e8b831a4f22","system_id":"levelo_inurba_marseille","lat":43.24648,"lon":5.38886,"is_reserved":false,"is_disabled":false,"rental_uris":{"android":"levelo://app?vid=da951794-ec6f-4946-b607-7e8b831a4f22","ios":"levelo://app?vid=da951794-ec6f-4946-b607-7e8b831a4f22"},"vehicle_type_id":"4","last_reported":1770415951,"current_range_meters":2800,"station_id":"ce4bhg12rcd13ifvqf60","pricing_plan_id":"cebpf4jnsgd1na2vs0mg"},{"bike_id":"924101be-bb77-4eb7-bc10-5946da5cfa5b","system_id":"levelo_inurba_marseille","lat":43.30947,"lon":5.39032,"is_reserved":false,"is_disabled":false,"rental_uris":{"android":"levelo://app?vid=924101be-bb77-4eb7-bc10-5946da5cfa5b","ios":"levelo://app?vid=924101be-bb77-4eb7-bc10-5946da5cfa5b"},"vehicle_type_id":"4","last_reported":1770415951,"current_range_meters":3200,"station_id":"ce4bgup2rcd13ifvqco0","pricing_plan_id":"cebpf4jnsgd1na2vs0mg"},{"bike_id":"24e18bc3-60f4-4f22-8411-08ca6d2228f2","system_id":"levelo_inurba_marseille","lat":43.305661,"lon":5.365531,"is_reserved":false,"is_disabled":true,"rental_uris":{"android":"levelo://app?vid=24e18bc3-60f4-4f22-8411-08ca6d2228f2","ios":"levelo://app?vid=24e18bc3-60f4-4f22-8411-08ca6d2228f2"},"vehicle_type_id":"4","last_reported":1770415951,"current_range_meters":3200,"station_id":"ce4bgs12rcd13ifvqcag","pricing_plan_id":"cebpf4jnsgd1na2vs0mg"},{"bike_id":"bf716aa5-5db6-4f44-aa24-9167a51e58ca","system_id":"levelo_inurba_marseille","lat":43.31721,"lon":5.42399,"is_reserved":false,"is_disabled":false,"rental_uris":{"android":"levelo://app?vid=bf716aa5-5db6-4f44-aa24-9167a51e58ca","ios":"levelo://app?vid=bf716aa5-5db6-4f44-aa24-9167a51e58ca"},"vehicle_type_id":"4","last_reported":1770415951,"current_range_meters":3200,"station_id":"ce4bhp92rcd13ifvqhbg","pricing_plan_id":"cebpf4jnsgd1na2vs0mg"},{"bike_id":"33b2027f-e695-4d46-8701-c84ef1f437b5","system_id":"levelo_inurba_marseille","lat":43.279775,"lon":5.400065,"is_reserved":false,"is_disabled":false,"rental_uris":{"android":"levelo://app?vid=33b2027f-e695-4d46-8701-c84ef1f437b5","ios":"levelo://app?vid=33b2027f-e695-4d46-8701-c84ef1f437b5"},"vehicle_type_id":"4","last_reported":1770415951,"current_range_meters":3200,"station_id":"ce4bho92rcd13ifvqh4g","pricing_plan_id":"cebpf4jnsgd1na2vs0mg"},{"bike_id":"3a5ad6bb-5967-4a43-8a3d-23934f4743ed","system_id":"levelo_inurba_marseille","lat":43.27995,"lon":5.40018,"is_reserved":false,"is_disabled":false,"rental_uris":{"android":"levelo://app?vid=3a5ad6bb-5967-4a43-8a3d-23934f4743ed","ios":"levelo://app?vid=3a5ad6bb-5967-4a43-8a3d-23934f4743ed"},"vehicle_type_id":"4","last_reported":1770415951,"current_range_meters":3200,"station_id":"ce4bho92rcd13ifvqh4g","pricing_plan_id":"cebpf4jnsgd1na2vs0mg"},{"bike_id":"7a9437dc-9620-4e4d-ac55-f97780f81760","system_id":"levelo_inurba_marseille","lat":43.24806,"lon":5.37456,"is_reserved":false,"is_disabled":false,"rental_uris":{"android":"levelo://app?vid=7a9437dc-9620-4e4d-ac55-f97780f81760","ios":"levelo://app?vid=7a9437dc-9620-4e4d-ac55-f97780f81760"},"vehicle_type_id":"4","last_reported":1770415951,"current_range_meters":3200,"station_id":"ce4bhgh2rcd13ifvqfb0","pricing_plan_id":"cebpf4jnsgd1na2vs0mg"},{"bike_id":"fa7ff620-7500-4d5f-ae14-721a55fbae70","system_id":"levelo_inurba_marseille","lat":43.24675,"lon":5.38165,"is_reserved":false,"is_disabled":false,"rental_uris":{"android":"levelo://app?vid=fa7ff620-7500-4d5f-ae14-721a55fbae70","ios":"levelo://app?vid=fa7ff620-7500-4d5f-ae14-721a55fbae70"},"vehicle_type_id":"4","last_reported":1770415951,"current_range_meters":3200,"station_id":"ce4bhih2rcd13ifvqfr0","pricing_plan_id":"cebpf4jnsgd1na2vs0mg"},{"bike_id":"b2457405-38b1-4c0a-8e44-af95ff5cc571","system_id":"levelo_inurba_marseille","lat":43.286987,"lon":5.373849,"is_reserved":false,"is_disabled":false,"rental_uris":{"android":"levelo://app?vid=b2457405-38b1-4c0a-8e44-af95ff5cc571","ios":"levelo://app?vid=b2457405-38b1-4c0a-8e44-af95ff5cc571"},"vehicle_type_id":"4","last_reported":1770415951,"current_range_meters":3200,"station_id":"ce4bh3p2rcd13ifvqdq0","pricing_plan_id":"cebpf4jnsgd1na2vs0mg"},{"bike_id":"aca6ea62-6cf8-4e32-a797-d9da48e9af3e","system_id":"levelo_inurba_marseille","lat":43.28002,"lon":5.40024,"is_reserved":false,"is_disabled":false,"rental_uris":{"android":"levelo://app?vid=aca6ea62-6cf8-4e32-a797-d9da48e9af3e","ios":"levelo://app?vid=aca6ea62-6cf8-4e32-a797-d9da48e9af3e"},"vehicle_type_id":"4","last_reported":1770415951,"current_range_meters":3200,"station_id":"ce4bho92rcd13ifvqh4g","pricing_plan_id":"cebpf4jnsgd1na2vs0mg"},{"bike_id":"cd71c00f-330e-48ec-bb26-2aef21e4133b","system_id":"levelo_inurba_marseille","lat":43.28444,"lon":5.3921,"is_reserved":false,"is_disabled":false,"rental_uris":{"android":"levelo://app?vid=cd71c00f-330e-48ec-bb26-2aef21e4133b","ios":"levelo://app?vid=cd71c00f-330e-48ec-bb26-2aef21e4133b"},"vehicle_type_id":"4","last_reported":1770415951,"current_range_meters":3200,"station_id":"ce4bhoh2rcd13ifvqh5g","pricing_plan_id":"cebpf4jnsgd1na2vs0mg"},{"bike_id":"0ff7d1fc-c942-4e04-bb24-6b30b880d197","system_id":"levelo_inurba_marseille","lat":43.31536,"lon":5.36894,"is_reserved":false,"is_disabled":false,"rental_uris":{"android":"levelo://app?vid=0ff7d1fc-c942-4e04-bb24-6b30b880d197","ios":"levelo://app?vid=0ff7d1fc-c942-4e04-bb24-6b30b880d197"},"vehicle_type_id":"4","last_reported":1770415951,"current_range_meters":3200,"station_id":"","pricing_plan_id":"cebpf4jnsgd1na2vs0mg"},{"bike_id":"45c4dd16-e2c4-43ff-bab0-de5aac825a55","system_id":"levelo_inurba_marseille","lat":43.27517,"lon":5.41584,"is_reserved":false,"is_disabled":false,"rental_uris":{"android":"levelo://app?vid=45c4dd16-e2c4-43ff-bab0-de5aac825a55","ios":"levelo://app?vid=45c4dd16-e2c4-43ff-bab0-de5aac825a55"},"vehicle_type_id":"4","last_reported":1770415951,"current_range_meters":3600,"station_id":"","pricing_plan_id":"cebpf4jnsgd1na2vs0mg"},{"bike_id":"b53f497c-0cdf-42a8-ab5a-d6dc45b07b09","system_id":"levelo_inurba_marseille","lat":43.2416,"lon":5.3641,"is_reserved":false,"is_disabled":false,"rental_uris":{"android":"levelo://app?vid=b53f497c-0cdf-42a8-ab5a-d6dc45b07b09","ios":"levelo://app?vid=b53f497c-0cdf-42a8-ab5a-d6dc45b07b09"},"vehicle_type_id":"4","last_reported":1770415951,"current_range_meters":3600,"station_id":"cpo36qri1sfpv3e86is0","pricing_plan_id":"cebpf4jnsgd1na2vs0mg"},{"bike_id":"e1ae38e0-9f14-4406-91cc-1b4515ca2de5","system_id":"levelo_inurba_marseille","lat":43.30885,"lon":5.39645,"is_reserved":false,"is_disabled":false,"rental_uris":{"android":"levelo://app?vid=e1ae38e0-9f14-4406-91cc-1b4515ca2de5","ios":"levelo://app?vid=e1ae38e0-9f14-4406-91cc-1b4515ca2de5"},"vehicle_type_id":"4","last_reported":1770415951,"current_range_meters":3600,"station_id":"ce4bh012rcd13ifvqcv0","pricing_plan_id":"cebpf4jnsgd1na2vs0mg"},{"bike_id":"c0bcc2b4-0c21-4712-82e8-d7d1de58590b","system_id":"levelo_inurba_marseille","lat":43.26379,"lon":5.41059,"is_reserved":false,"is_disabled":true,"rental_uris":{"android":"levelo://app?vid=c0bcc2b4-0c21-4712-82e8-d7d1de58590b","ios":"levelo://app?vid=c0bcc2b4-0c21-4712-82e8-d7d1de58590b"},"vehicle_type_id":"4","last_reported":1770415951,"current_range_meters":3600,"station_id":"","pricing_plan_id":"cebpf4jnsgd1na2vs0mg"},{"bike_id":"0b676a0a-6e0c-44a8-81c9-ca3513a2b69c","system_id":"levelo_inurba_marseille","lat":43.24069,"lon":5.37765,"is_reserved":false,"is_disabled":false,"rental_uris":{"android":"levelo://app?vid=0b676a0a-6e0c-44a8-81c9-ca3513a2b69c","ios":"levelo://app?vid=0b676a0a-6e0c-44a8-81c9-ca3513a2b69c"},"vehicle_type_id":"4","last_reported":1770415951,"current_range_meters":3600,"station_id":"ce4bhnp2rcd13ifvqgvg","pricing_plan_id":"cebpf4jnsgd1na2vs0mg"},{"bike_id":"e580c3a3-0f0d-4527-8426-af17331167f9","system_id":"levelo_inurba_marseille","lat":43.27932,"lon":5.41011,"is_reserved":false,"is_disabled":false,"rental_uris":{"android":"levelo://app?vid=e580c3a3-0f0d-4527-8426-af17331167f9","ios":"levelo://app?vid=e580c3a3-0f0d-4527-8426-af17331167f9"},"vehicle_type_id":"4","last_reported":1770415951,"current_range_meters":3600,"station_id":"ce4bhnp2rcd13ifvqh0g","pricing_plan_id":"cebpf4jnsgd1na2vs0mg"},{"bike_id":"7bb73185-8e0c-430f-a331-c4f733695b9f","system_id":"levelo_inurba_marseille","lat":43.278273,"lon":5.391973,"is_reserved":false,"is_disabled":false,"rental_uris":{"android":"levelo://app?vid=7bb73185-8e0c-430f-a331-c4f733695b9f","ios":"levelo://app?vid=7bb73185-8e0c-430f-a331-c4f733695b9f"},"vehicle_type_id":"4","last_reported":1770415951,"current_range_meters":3600,"station_id":"ce4bhjp2rcd13ifvqga0","pricing_plan_id":"cebpf4jnsgd1na2vs0mg"},{"bike_id":"cfc53fba-2e2f-4be7-ae83-01b9f7978989","system_id":"levelo_inurba_marseille","lat":43.288498,"lon":5.393103,"is_reserved":false,"is_disabled":false,"rental_uris":{"android":"levelo://app?vid=cfc53fba-2e2f-4be7-ae83-01b9f7978989","ios":"levelo://app?vid=cfc53fba-2e2f-4be7-ae83-01b9f7978989"},"vehicle_type_id":"4","last_reported":1770415951,"current_range_meters":3600,"station_id":"ce4bh2p2rcd13ifvqdi0","pricing_plan_id":"cebpf4jnsgd1na2vs0mg"},{"bike_id":"6c706595-1835-4ddf-8d94-5e35d4a0f5cb","system_id":"levelo_inurba_marseille","lat":43.31191,"lon":5.36891,"is_reserved":false,"is_disabled":false,"rental_uris":{"android":"levelo://app?vid=6c706595-1835-4ddf-8d94-5e35d4a0f5cb","ios":"levelo://app?vid=6c706595-1835-4ddf-8d94-5e35d4a0f5cb"},"vehicle_type_id":"4","last_reported":1770415951,"current_range_meters":4000,"station_id":"ce4bgl92rcd13ifvqbq0","pricing_plan_id":"cebpf4jnsgd1na2vs0mg"},{"bike_id":"7ce3271c-9e28-4d5e-b3b1-77311e5df5d7","system_id":"levelo_inurba_marseille","lat":43.31488,"lon":5.38089,"is_reserved":false,"is_disabled":false,"rental_uris":{"android":"levelo://app?vid=7ce3271c-9e28-4d5e-b3b1-77311e5df5d7","ios":"levelo://app?vid=7ce3271c-9e28-4d5e-b3b1-77311e5df5d7"},"vehicle_type_id":"4","last_reported":1770415951,"current_range_meters":4000,"station_id":"","pricing_plan_id":"cebpf4jnsgd1na2vs0mg"},{"bike_id":"f1bff026-bd99-4af5-9efa-17efa0f261ab","system_id":"levelo_inurba_marseille","lat":43.30522,"lon":5.36551,"is_reserved":false,"is_disabled":false,"rental_uris":{"android":"levelo://app?vid=f1bff026-bd99-4af5-9efa-17efa0f261ab","ios":"levelo://app?vid=f1bff026-bd99-4af5-9efa-17efa0f261ab"},"vehicle_type_id":"4","last_reported":1770415951,"current_range_meters":4000,"station_id":"ce4bgs12rcd13ifvqcag","pricing_plan_id":"cebpf4jnsgd1na2vs0mg"},{"bike_id":"ed0b7b07-9c38-4fb9-bc30-93ba90939795","system_id":"levelo_inurba_marseille","lat":43.33149,"lon":5.37711,"is_reserved":false,"is_disabled":false,"rental_uris":{"android":"levelo://app?vid=ed0b7b07-9c38-4fb9-bc30-93ba90939795","ios":"levelo://app?vid=ed0b7b07-9c38-4fb9-bc30-93ba90939795"},"vehicle_type_id":"4","last_reported":1770415951,"current_range_meters":4000,"station_id":"st_d46cu089ee8s73dldbu0","pricing_plan_id":"cebpf4jnsgd1na2vs0mg"},{"bike_id":"5005df1e-a5e0-4247-80e1-f8aff4acedfa","system_id":"levelo_inurba_marseille","lat":43.257214,"lon":5.411198,"is_reserved":false,"is_disabled":false,"rental_uris":{"android":"levelo://app?vid=5005df1e-a5e0-4247-80e1-f8aff4acedfa","ios":"levelo://app?vid=5005df1e-a5e0-4247-80e1-f8aff4acedfa"},"vehicle_type_id":"4","last_reported":1770415951,"current_range_meters":4000,"station_id":"ce4bhkp2rcd13ifvqgd0","pricing_plan_id":"cebpf4jnsgd1na2vs0mg"},{"bike_id":"0c761b47-f97e-46a4-baf9-3e10a77fa599","system_id":"levelo_inurba_marseille","lat":43.22539,"lon":5.34835,"is_reserved":false,"is_disabled":false,"rental_uris":{"android":"levelo://app?vid=0c761b47-f97e-46a4-baf9-3e10a77fa599","ios":"levelo://app?vid=0c761b47-f97e-46a4-baf9-3e10a77fa599"},"vehicle_type_id":"4","last_reported":1770415951,"current_range_meters":4000,"station_id":"st_cvj5dfep6f1abm77gieg","pricing_plan_id":"cebpf4jnsgd1na2vs0mg"},{"bike_id":"812430a0-952a-4ba5-b41b-bd37f61e0edd","system_id":"levelo_inurba_marseille","lat":43.3118,"lon":5.3872,"is_reserved":false,"is_disabled":false,"rental_uris":{"android":"levelo://app?vid=812430a0-952a-4ba5-b41b-bd37f61e0edd","ios":"levelo://app?vid=812430a0-952a-4ba5-b41b-bd37f61e0edd"},"vehicle_type_id":"4","last_reported":1770415951,"current_range_meters":4000,"station_id":"ce4bgv12rcd13ifvqcp0","pricing_plan_id":"cebpf4jnsgd1na2vs0mg"},{"bike_id":"6e841bf6-5397-4553-8cf2-e04c1ae59db0","system_id":"levelo_inurba_marseille","lat":43.28987,"lon":5.35589,"is_reserved":false,"is_disabled":true,"rental_uris":{"android":"levelo://app?vid=6e841bf6-5397-4553-8cf2-e04c1ae59db0","ios":"levelo://app?vid=6e841bf6-5397-4553-8cf2-e04c1ae59db0"},"vehicle_type_id":"4","last_reported":1770415951,"current_range_meters":4400,"station_id":"ce4bhb92rcd13ifvqen0","pricing_plan_id":"cebpf4jnsgd1na2vs0mg"},{"bike_id":"34c67446-cdbe-429a-9b46-6d8358f6a90f","system_id":"levelo_inurba_marseille","lat":43.30597,"lon":5.37214,"is_reserved":false,"is_disabled":false,"rental_uris":{"android":"levelo://app?vid=34c67446-cdbe-429a-9b46-6d8358f6a90f","ios":"levelo://app?vid=34c67446-cdbe-429a-9b46-6d8358f6a90f"},"vehicle_type_id":"4","last_reported":1770415951,"current_range_meters":4400,"station_id":"ce4bgqh2rcd13ifvqc4g","pricing_plan_id":"cebpf4jnsgd1na2vs0mg"},{"bike_id":"63b5e7ff-784a-44cb-b53d-dd43a84f5930","system_id":"levelo_inurba_marseille","lat":43.24161,"lon":5.36398,"is_reserved":false,"is_disabled":false,"rental_uris":{"android":"levelo://app?vid=63b5e7ff-784a-44cb-b53d-dd43a84f5930","ios":"levelo://app?vid=63b5e7ff-784a-44cb-b53d-dd43a84f5930"},"vehicle_type_id":"4","last_reported":1770415951,"current_range_meters":4400,"station_id":"cpo36qri1sfpv3e86is0","pricing_plan_id":"cebpf4jnsgd1na2vs0mg"},{"bike_id":"e734830b-41e4-4fbd-b76d-8b8158f113c9","system_id":"levelo_inurba_marseille","lat":43.24814,"lon":5.37462,"is_reserved":false,"is_disabled":false,"rental_uris":{"android":"levelo://app?vid=e734830b-41e4-4fbd-b76d-8b8158f113c9","ios":"levelo://app?vid=e734830b-41e4-4fbd-b76d-8b8158f113c9"},"vehicle_type_id":"4","last_reported":1770415951,"current_range_meters":4400,"station_id":"ce4bhgh2rcd13ifvqfb0","pricing_plan_id":"cebpf4jnsgd1na2vs0mg"},{"bike_id":"ac551100-dc22-4913-9a52-4829a5f95f35","system_id":"levelo_inurba_marseille","lat":43.2861,"lon":5.39843,"is_reserved":false,"is_disabled":true,"rental_uris":{"android":"levelo://app?vid=ac551100-dc22-4913-9a52-4829a5f95f35","ios":"levelo://app?vid=ac551100-dc22-4913-9a52-4829a5f95f35"},"vehicle_type_id":"4","last_reported":1770415951,"current_range_meters":4400,"station_id":"st_d4a7ka997mjs738ck50g","pricing_plan_id":"cebpf4jnsgd1na2vs0mg"},{"bike_id":"b0cec839-9044-416d-92eb-61b8dee05fdc","system_id":"levelo_inurba_marseille","lat":43.2805,"lon":5.36963,"is_reserved":false,"is_disabled":false,"rental_uris":{"android":"levelo://app?vid=b0cec839-9044-416d-92eb-61b8dee05fdc","ios":"levelo://app?vid=b0cec839-9044-416d-92eb-61b8dee05fdc"},"vehicle_type_id":"4","last_reported":1770415951,"current_range_meters":4400,"station_id":"ce4bha12rcd13ifvqef0","pricing_plan_id":"cebpf4jnsgd1na2vs0mg"},{"bike_id":"0388f24a-b566-45b1-a38a-12fb5d338f89","system_id":"levelo_inurba_marseille","lat":43.31652,"lon":5.37647,"is_reserved":false,"is_disabled":false,"rental_uris":{"android":"levelo://app?vid=0388f24a-b566-45b1-a38a-12fb5d338f89","ios":"levelo://app?vid=0388f24a-b566-45b1-a38a-12fb5d338f89"},"vehicle_type_id":"4","last_reported":1770415951,"current_range_meters":4400,"station_id":"","pricing_plan_id":"cebpf4jnsgd1na2vs0mg"},{"bike_id":"2b29221d-c3bf-4589-a712-626312f064d0","system_id":"levelo_inurba_marseille","lat":43.29274,"lon":5.3844,"is_reserved":false,"is_disabled":false,"rental_uris":{"android":"levelo://app?vid=2b29221d-c3bf-4589-a712-626312f064d0","ios":"levelo://app?vid=2b29221d-c3bf-4589-a712-626312f064d0"},"vehicle_type_id":"4","last_reported":1770415951,"current_range_meters":4400,"station_id":"ce4bh692rcd13ifvqea0","pricing_plan_id":"cebpf4jnsgd1na2vs0mg"},{"bike_id":"eb1aee22-66f7-40e1-8d42-129f37193ad0","system_id":"levelo_inurba_marseille","lat":43.2924,"lon":5.39951,"is_reserved":false,"is_disabled":false,"rental_uris":{"android":"levelo://app?vid=eb1aee22-66f7-40e1-8d42-129f37193ad0","ios":"levelo://app?vid=eb1aee22-66f7-40e1-8d42-129f37193ad0"},"vehicle_type_id":"4","last_reported":1770415951,"current_range_meters":4400,"station_id":"","pricing_plan_id":"cebpf4jnsgd1na2vs0mg"},{"bike_id":"0cc9c6d7-0f61-445c-965c-e73db718ba2a","system_id":"levelo_inurba_marseille","lat":43.292666,"lon":5.384336,"is_reserved":false,"is_disabled":false,"rental_uris":{"android":"levelo://app?vid=0cc9c6d7-0f61-445c-965c-e73db718ba2a","ios":"levelo://app?vid=0cc9c6d7-0f61-445c-965c-e73db718ba2a"},"vehicle_type_id":"4","last_reported":1770415951,"current_range_meters":4400,"station_id":"ce4bha12rcd13ifvqee0","pricing_plan_id":"cebpf4jnsgd1na2vs0mg"},{"bike_id":"f962822c-06bc-4486-a477-eaae1a981a6b","system_id":"levelo_inurba_marseille","lat":43.27563,"lon":5.38459,"is_reserved":false,"is_disabled":false,"rental_uris":{"android":"levelo://app?vid=f962822c-06bc-4486-a477-eaae1a981a6b","ios":"levelo://app?vid=f962822c-06bc-4486-a477-eaae1a981a6b"},"vehicle_type_id":"4","last_reported":1770415951,"current_range_meters":4400,"station_id":"ce4bhh92rcd13ifvqfi0","pricing_plan_id":"cebpf4jnsgd1na2vs0mg"},{"bike_id":"86ef6d29-a1ae-4ad3-85ee-72ede19038e6","system_id":"levelo_inurba_marseille","lat":43.32119,"lon":5.3677,"is_reserved":false,"is_disabled":false,"rental_uris":{"android":"levelo://app?vid=86ef6d29-a1ae-4ad3-85ee-72ede19038e6","ios":"levelo://app?vid=86ef6d29-a1ae-4ad3-85ee-72ede19038e6"},"vehicle_type_id":"4","last_reported":1770415951,"current_range_meters":4800,"station_id":"ce4bhrh2rcd13ifvqhug","pricing_plan_id":"cebpf4jnsgd1na2vs0mg"},{"bike_id":"ef79007e-ef6d-4e7f-a3ae-3ed5ead69e87","system_id":"levelo_inurba_marseille","lat":43.23188,"lon":5.35549,"is_reserved":false,"is_disabled":false,"rental_uris":{"android":"levelo://app?vid=ef79007e-ef6d-4e7f-a3ae-3ed5ead69e87","ios":"levelo://app?vid=ef79007e-ef6d-4e7f-a3ae-3ed5ead69e87"},"vehicle_type_id":"4","last_reported":1770415951,"current_range_meters":4800,"station_id":"ce4bhu92rcd13ifvqi70","pricing_plan_id":"cebpf4jnsgd1na2vs0mg"},{"bike_id":"2f69afc2-51d1-4223-b73c-f3e5d3ce5ca4","system_id":"levelo_inurba_marseille","lat":43.29606,"lon":5.38626,"is_reserved":false,"is_disabled":false,"rental_uris":{"android":"levelo://app?vid=2f69afc2-51d1-4223-b73c-f3e5d3ce5ca4","ios":"levelo://app?vid=2f69afc2-51d1-4223-b73c-f3e5d3ce5ca4"},"vehicle_type_id":"4","last_reported":1770415951,"current_range_meters":4800,"station_id":"","pricing_plan_id":"cebpf4jnsgd1na2vs0mg"},{"bike_id":"03ad2331-9143-4c56-8562-0bbdd2eecb49","system_id":"levelo_inurba_marseille","lat":43.29533,"lon":5.3904,"is_reserved":false,"is_disabled":false,"rental_uris":{"android":"levelo://app?vid=03ad2331-9143-4c56-8562-0bbdd2eecb49","ios":"levelo://app?vid=03ad2331-9143-4c56-8562-0bbdd2eecb49"},"vehicle_type_id":"4","last_reported":1770415951,"current_range_meters":4800,"station_id":"ce4bh3p2rcd13ifvqdp0","pricing_plan_id":"cebpf4jnsgd1na2vs0mg"},{"bike_id":"955606f0-8da8-4b79-8a0f-60c472cf1b45","system_id":"levelo_inurba_marseille","lat":43.29271,"lon":5.38438,"is_reserved":false,"is_disabled":false,"rental_uris":{"android":"levelo://app?vid=955606f0-8da8-4b79-8a0f-60c472cf1b45","ios":"levelo://app?vid=955606f0-8da8-4b79-8a0f-60c472cf1b45"},"vehicle_type_id":"4","last_reported":1770415951,"current_range_meters":4800,"station_id":"ce4bh692rcd13ifvqea0","pricing_plan_id":"cebpf4jnsgd1na2vs0mg"},{"bike_id":"90e59ac1-cd46-446b-b3a8-2b22481380d2","system_id":"levelo_inurba_marseille","lat":43.30887,"lon":5.37193,"is_reserved":false,"is_disabled":false,"rental_uris":{"android":"levelo://app?vid=90e59ac1-cd46-446b-b3a8-2b22481380d2","ios":"levelo://app?vid=90e59ac1-cd46-446b-b3a8-2b22481380d2"},"vehicle_type_id":"4","last_reported":1770415951,"current_range_meters":4800,"station_id":"ce4bguh2rcd13ifvqckg","pricing_plan_id":"cebpf4jnsgd1na2vs0mg"},{"bike_id":"b2674943-76ff-4114-b657-ce35c7be3811","system_id":"levelo_inurba_marseille","lat":43.27958,"lon":5.41061,"is_reserved":false,"is_disabled":false,"rental_uris":{"android":"levelo://app?vid=b2674943-76ff-4114-b657-ce35c7be3811","ios":"levelo://app?vid=b2674943-76ff-4114-b657-ce35c7be3811"},"vehicle_type_id":"4","last_reported":1770415951,"current_range_meters":4800,"station_id":"ce4bhnp2rcd13ifvqh0g","pricing_plan_id":"cebpf4jnsgd1na2vs0mg"},{"bike_id":"736bddce-2a84-45e5-b4c6-08b82f4f0da3","system_id":"levelo_inurba_marseille","lat":43.27387,"lon":5.36269,"is_reserved":false,"is_disabled":false,"rental_uris":{"android":"levelo://app?vid=736bddce-2a84-45e5-b4c6-08b82f4f0da3","ios":"levelo://app?vid=736bddce-2a84-45e5-b4c6-08b82f4f0da3"},"vehicle_type_id":"4","last_reported":1770415951,"current_range_meters":4800,"station_id":"ce4bhbh2rcd13ifvqeo0","pricing_plan_id":"cebpf4jnsgd1na2vs0mg"},{"bike_id":"0c0204e9-2e2c-4854-9498-c261c0135345","system_id":"levelo_inurba_marseille","lat":43.237821,"lon":5.366328,"is_reserved":false,"is_disabled":false,"rental_uris":{"android":"levelo://app?vid=0c0204e9-2e2c-4854-9498-c261c0135345","ios":"levelo://app?vid=0c0204e9-2e2c-4854-9498-c261c0135345"},"vehicle_type_id":"4","last_reported":1770415951,"current_range_meters":4800,"station_id":"st_d3nk18o9ro0c73en2l3g","pricing_plan_id":"cebpf4jnsgd1na2vs0mg"},{"bike_id":"90cd76a0-f0c8-4656-96c3-d2c3284c85e6","system_id":"levelo_inurba_marseille","lat":43.28275,"lon":5.35069,"is_reserved":false,"is_disabled":false,"rental_uris":{"android":"levelo://app?vid=90cd76a0-f0c8-4656-96c3-d2c3284c85e6","ios":"levelo://app?vid=90cd76a0-f0c8-4656-96c3-d2c3284c85e6"},"vehicle_type_id":"4","last_reported":1770415951,"current_range_meters":4800,"station_id":"ce4bhbp2rcd13ifvqerg","pricing_plan_id":"cebpf4jnsgd1na2vs0mg"},{"bike_id":"d7626061-42b3-48e7-b55b-85f624c7e85a","system_id":"levelo_inurba_marseille","lat":43.2846,"lon":5.35886,"is_reserved":false,"is_disabled":false,"rental_uris":{"android":"levelo://app?vid=d7626061-42b3-48e7-b55b-85f624c7e85a","ios":"levelo://app?vid=d7626061-42b3-48e7-b55b-85f624c7e85a"},"vehicle_type_id":"4","last_reported":1770415951,"current_range_meters":4800,"station_id":"ce4bhah2rcd13ifvqei0","pricing_plan_id":"cebpf4jnsgd1na2vs0mg"},{"bike_id":"8a2fb3f4-45c6-41a8-be01-425c40a513b5","system_id":"levelo_inurba_marseille","lat":43.29548,"lon":5.42271,"is_reserved":false,"is_disabled":false,"rental_uris":{"android":"levelo://app?vid=8a2fb3f4-45c6-41a8-be01-425c40a513b5","ios":"levelo://app?vid=8a2fb3f4-45c6-41a8-be01-425c40a513b5"},"vehicle_type_id":"4","last_reported":1770415951,"current_range_meters":4800,"station_id":"ce4bhph2rcd13ifvqhdg","pricing_plan_id":"cebpf4jnsgd1na2vs0mg"},{"bike_id":"578e58a8-1e56-47a1-a322-e983c6778cb9","system_id":"levelo_inurba_marseille","lat":43.237893,"lon":5.366256,"is_reserved":false,"is_disabled":false,"rental_uris":{"android":"levelo://app?vid=578e58a8-1e56-47a1-a322-e983c6778cb9","ios":"levelo://app?vid=578e58a8-1e56-47a1-a322-e983c6778cb9"},"vehicle_type_id":"4","last_reported":1770415951,"current_range_meters":5600,"station_id":"st_d3nk18o9ro0c73en2l3g","pricing_plan_id":"cebpf4jnsgd1na2vs0mg"},{"bike_id":"375e9bcb-b945-4768-82d3-b05471dcf5fd","system_id":"levelo_inurba_marseille","lat":43.28937,"lon":5.46056,"is_reserved":false,"is_disabled":false,"rental_uris":{"android":"levelo://app?vid=375e9bcb-b945-4768-82d3-b05471dcf5fd","ios":"levelo://app?vid=375e9bcb-b945-4768-82d3-b05471dcf5fd"},"vehicle_type_id":"4","last_reported":1770415951,"current_range_meters":5600,"station_id":"","pricing_plan_id":"cebpf4jnsgd1na2vs0mg"},{"bike_id":"8b3683af-7da9-4ef2-b4f6-c3e28584ec58","system_id":"levelo_inurba_marseille","lat":43.24967,"lon":5.40492,"is_reserved":false,"is_disabled":false,"rental_uris":{"android":"levelo://app?vid=8b3683af-7da9-4ef2-b4f6-c3e28584ec58","ios":"levelo://app?vid=8b3683af-7da9-4ef2-b4f6-c3e28584ec58"},"vehicle_type_id":"4","last_reported":1770415951,"current_range_meters":5600,"station_id":"st_d2ngiaodas8pm72gd1h0","pricing_plan_id":"cebpf4jnsgd1na2vs0mg"},{"bike_id":"733f0ff5-75ca-4c77-bbb2-e43b4255c9f8","system_id":"levelo_inurba_marseille","lat":43.29284,"lon":5.38455,"is_reserved":false,"is_disabled":false,"rental_uris":{"android":"levelo://app?vid=733f0ff5-75ca-4c77-bbb2-e43b4255c9f8","ios":"levelo://app?vid=733f0ff5-75ca-4c77-bbb2-e43b4255c9f8"},"vehicle_type_id":"4","last_reported":1770415951,"current_range_meters":5600,"station_id":"ce4bh692rcd13ifvqea0","pricing_plan_id":"cebpf4jnsgd1na2vs0mg"},{"bike_id":"ea394ce4-561e-40c3-b5d8-13958e8a40d6","system_id":"levelo_inurba_marseille","lat":43.23188,"lon":5.35557,"is_reserved":false,"is_disabled":false,"rental_uris":{"android":"levelo://app?vid=ea394ce4-561e-40c3-b5d8-13958e8a40d6","ios":"levelo://app?vid=ea394ce4-561e-40c3-b5d8-13958e8a40d6"},"vehicle_type_id":"4","last_reported":1770415951,"current_range_meters":5600,"station_id":"ce4bhu92rcd13ifvqi70","pricing_plan_id":"cebpf4jnsgd1na2vs0mg"},{"bike_id":"7f2cf31b-bee8-4ec3-bf91-98a412e4dab9","system_id":"levelo_inurba_marseille","lat":43.2176,"lon":5.34614,"is_reserved":false,"is_disabled":true,"rental_uris":{"android":"levelo://app?vid=7f2cf31b-bee8-4ec3-bf91-98a412e4dab9","ios":"levelo://app?vid=7f2cf31b-bee8-4ec3-bf91-98a412e4dab9"},"vehicle_type_id":"4","last_reported":1770415951,"current_range_meters":5600,"station_id":"st_cvj6r9ubvosntc0bgbag","pricing_plan_id":"cebpf4jnsgd1na2vs0mg"},{"bike_id":"8a8b8e72-9951-490e-8aaa-3c1625d2978c","system_id":"levelo_inurba_marseille","lat":43.28403,"lon":5.3501,"is_reserved":false,"is_disabled":false,"rental_uris":{"android":"levelo://app?vid=8a8b8e72-9951-490e-8aaa-3c1625d2978c","ios":"levelo://app?vid=8a8b8e72-9951-490e-8aaa-3c1625d2978c"},"vehicle_type_id":"4","last_reported":1770415951,"current_range_meters":5600,"station_id":"ce4bhbh2rcd13ifvqepg","pricing_plan_id":"cebpf4jnsgd1na2vs0mg"},{"bike_id":"09c36349-b12b-484c-ae19-34794876a083","system_id":"levelo_inurba_marseille","lat":43.31052,"lon":5.38333,"is_reserved":false,"is_disabled":false,"rental_uris":{"android":"levelo://app?vid=09c36349-b12b-484c-ae19-34794876a083","ios":"levelo://app?vid=09c36349-b12b-484c-ae19-34794876a083"},"vehicle_type_id":"4","last_reported":1770415951,"current_range_meters":5600,"station_id":"ce4bgv92rcd13ifvqcr0","pricing_plan_id":"cebpf4jnsgd1na2vs0mg"},{"bike_id":"14cec954-ecfc-4da7-94f7-381a0a1852fc","system_id":"levelo_inurba_marseille","lat":43.27555,"lon":5.35924,"is_reserved":false,"is_disabled":false,"rental_uris":{"android":"levelo://app?vid=14cec954-ecfc-4da7-94f7-381a0a1852fc","ios":"levelo://app?vid=14cec954-ecfc-4da7-94f7-381a0a1852fc"},"vehicle_type_id":"4","last_reported":1770415951,"current_range_meters":5600,"station_id":"","pricing_plan_id":"cebpf4jnsgd1na2vs0mg"},{"bike_id":"2d9b7179-82a1-455c-ab4a-7bba1fb285af","system_id":"levelo_inurba_marseille","lat":43.297999,"lon":5.380941,"is_reserved":false,"is_disabled":false,"rental_uris":{"android":"levelo://app?vid=2d9b7179-82a1-455c-ab4a-7bba1fb285af","ios":"levelo://app?vid=2d9b7179-82a1-455c-ab4a-7bba1fb285af"},"vehicle_type_id":"4","last_reported":1770415951,"current_range_meters":5600,"station_id":"ce4bgip2rcd13ifvqbb0","pricing_plan_id":"cebpf4jnsgd1na2vs0mg"},{"bike_id":"36af6b9c-3b6f-432b-8541-51b5e2f4a92f","system_id":"levelo_inurba_marseille","lat":43.25006,"lon":5.38916,"is_reserved":false,"is_disabled":false,"rental_uris":{"android":"levelo://app?vid=36af6b9c-3b6f-432b-8541-51b5e2f4a92f","ios":"levelo://app?vid=36af6b9c-3b6f-432b-8541-51b5e2f4a92f"},"vehicle_type_id":"4","last_reported":1770415951,"current_range_meters":5600,"station_id":"ce4bhgp2rcd13ifvqfd0","pricing_plan_id":"cebpf4jnsgd1na2vs0mg"},{"bike_id":"08be3812-5c31-4acf-8996-1e4f7b36a6d6","system_id":"levelo_inurba_marseille","lat":43.24498,"lon":5.42532,"is_reserved":false,"is_disabled":false,"rental_uris":{"android":"levelo://app?vid=08be3812-5c31-4acf-8996-1e4f7b36a6d6","ios":"levelo://app?vid=08be3812-5c31-4acf-8996-1e4f7b36a6d6"},"vehicle_type_id":"4","last_reported":1770415951,"current_range_meters":5600,"station_id":"st_d4a3vfp97mjs738cd8kg","pricing_plan_id":"cebpf4jnsgd1na2vs0mg"},{"bike_id":"9fb34492-d591-4453-bd3a-957bd11e3592","system_id":"levelo_inurba_marseille","lat":43.2957,"lon":5.39963,"is_reserved":false,"is_disabled":false,"rental_uris":{"android":"levelo://app?vid=9fb34492-d591-4453-bd3a-957bd11e3592","ios":"levelo://app?vid=9fb34492-d591-4453-bd3a-957bd11e3592"},"vehicle_type_id":"4","last_reported":1770415951,"current_range_meters":5600,"station_id":"ce4bh312rcd13ifvqdj0","pricing_plan_id":"cebpf4jnsgd1na2vs0mg"},{"bike_id":"15250344-db40-4db8-b0c9-19733389e808","system_id":"levelo_inurba_marseille","lat":43.27373,"lon":5.36248,"is_reserved":false,"is_disabled":false,"rental_uris":{"android":"levelo://app?vid=15250344-db40-4db8-b0c9-19733389e808","ios":"levelo://app?vid=15250344-db40-4db8-b0c9-19733389e808"},"vehicle_type_id":"4","last_reported":1770415951,"current_range_meters":5600,"station_id":"ce4bhbh2rcd13ifvqeo0","pricing_plan_id":"cebpf4jnsgd1na2vs0mg"},{"bike_id":"3b986d99-7b42-471f-993a-11fde28f3c51","system_id":"levelo_inurba_marseille","lat":43.22567,"lon":5.41631,"is_reserved":false,"is_disabled":false,"rental_uris":{"android":"levelo://app?vid=3b986d99-7b42-471f-993a-11fde28f3c51","ios":"levelo://app?vid=3b986d99-7b42-471f-993a-11fde28f3c51"},"vehicle_type_id":"4","last_reported":1770415951,"current_range_meters":5600,"station_id":"st_d2o4gvlbi1j2169b742g","pricing_plan_id":"cebpf4jnsgd1na2vs0mg"},{"bike_id":"2b358923-c030-4481-a0eb-830aa62ff249","system_id":"levelo_inurba_marseille","lat":43.27392,"lon":5.36262,"is_reserved":false,"is_disabled":false,"rental_uris":{"android":"levelo://app?vid=2b358923-c030-4481-a0eb-830aa62ff249","ios":"levelo://app?vid=2b358923-c030-4481-a0eb-830aa62ff249"},"vehicle_type_id":"4","last_reported":1770415951,"current_range_meters":5600,"station_id":"ce4bhbh2rcd13ifvqeo0","pricing_plan_id":"cebpf4jnsgd1na2vs0mg"},{"bike_id":"5ae8da2d-db70-4fc6-9f58-284cdc73c50c","system_id":"levelo_inurba_marseille","lat":43.31172,"lon":5.38715,"is_reserved":false,"is_disabled":false,"rental_uris":{"android":"levelo://app?vid=5ae8da2d-db70-4fc6-9f58-284cdc73c50c","ios":"levelo://app?vid=5ae8da2d-db70-4fc6-9f58-284cdc73c50c"},"vehicle_type_id":"4","last_reported":1770415951,"current_range_meters":5600,"station_id":"ce4bgv12rcd13ifvqcp0","pricing_plan_id":"cebpf4jnsgd1na2vs0mg"},{"bike_id":"6ea399dc-5917-4833-9a9c-0c6527aa49fe","system_id":"levelo_inurba_marseille","lat":43.28263,"lon":5.35088,"is_reserved":false,"is_disabled":false,"rental_uris":{"android":"levelo://app?vid=6ea399dc-5917-4833-9a9c-0c6527aa49fe","ios":"levelo://app?vid=6ea399dc-5917-4833-9a9c-0c6527aa49fe"},"vehicle_type_id":"4","last_reported":1770415951,"current_range_meters":5600,"station_id":"ce4bhbp2rcd13ifvqerg","pricing_plan_id":"cebpf4jnsgd1na2vs0mg"},{"bike_id":"9959034c-49e3-47c2-b4e8-52b24f2f688f","system_id":"levelo_inurba_marseille","lat":43.24647,"lon":5.38893,"is_reserved":false,"is_disabled":false,"rental_uris":{"android":"levelo://app?vid=9959034c-49e3-47c2-b4e8-52b24f2f688f","ios":"levelo://app?vid=9959034c-49e3-47c2-b4e8-52b24f2f688f"},"vehicle_type_id":"4","last_reported":1770415951,"current_range_meters":6000,"station_id":"ce4bhg12rcd13ifvqf60","pricing_plan_id":"cebpf4jnsgd1na2vs0mg"},{"bike_id":"b8d5c126-a49f-42bb-a06b-73e5424e7351","system_id":"levelo_inurba_marseille","lat":43.33156,"lon":5.37687,"is_reserved":false,"is_disabled":false,"rental_uris":{"android":"levelo://app?vid=b8d5c126-a49f-42bb-a06b-73e5424e7351","ios":"levelo://app?vid=b8d5c126-a49f-42bb-a06b-73e5424e7351"},"vehicle_type_id":"4","last_reported":1770415951,"current_range_meters":6000,"station_id":"st_d46cu089ee8s73dldbu0","pricing_plan_id":"cebpf4jnsgd1na2vs0mg"},{"bike_id":"d1637f9c-b515-44be-9270-b91684a11fd5","system_id":"levelo_inurba_marseille","lat":43.23399,"lon":5.41231,"is_reserved":false,"is_disabled":false,"rental_uris":{"android":"levelo://app?vid=d1637f9c-b515-44be-9270-b91684a11fd5","ios":"levelo://app?vid=d1637f9c-b515-44be-9270-b91684a11fd5"},"vehicle_type_id":"4","last_reported":1770415951,"current_range_meters":6000,"station_id":"","pricing_plan_id":"cebpf4jnsgd1na2vs0mg"},{"bike_id":"bce96462-befb-44b2-ae24-720764ad6438","system_id":"levelo_inurba_marseille","lat":43.27891,"lon":5.38803,"is_reserved":false,"is_disabled":false,"rental_uris":{"android":"levelo://app?vid=bce96462-befb-44b2-ae24-720764ad6438","ios":"levelo://app?vid=bce96462-befb-44b2-ae24-720764ad6438"},"vehicle_type_id":"4","last_reported":1770415951,"current_range_meters":6000,"station_id":"","pricing_plan_id":"cebpf4jnsgd1na2vs0mg"},{"bike_id":"661e5608-6549-4720-a5e8-0e1eeb33e31d","system_id":"levelo_inurba_marseille","lat":43.2794,"lon":5.41038,"is_reserved":false,"is_disabled":false,"rental_uris":{"android":"levelo://app?vid=661e5608-6549-4720-a5e8-0e1eeb33e31d","ios":"levelo://app?vid=661e5608-6549-4720-a5e8-0e1eeb33e31d"},"vehicle_type_id":"4","last_reported":1770415951,"current_range_meters":6000,"station_id":"ce4bhnp2rcd13ifvqh0g","pricing_plan_id":"cebpf4jnsgd1na2vs0mg"},{"bike_id":"7ed869a9-c02a-409e-b360-f50c11bb8b2f","system_id":"levelo_inurba_marseille","lat":43.28259,"lon":5.35093,"is_reserved":false,"is_disabled":false,"rental_uris":{"android":"levelo://app?vid=7ed869a9-c02a-409e-b360-f50c11bb8b2f","ios":"levelo://app?vid=7ed869a9-c02a-409e-b360-f50c11bb8b2f"},"vehicle_type_id":"4","last_reported":1770415951,"current_range_meters":6000,"station_id":"ce4bhbp2rcd13ifvqerg","pricing_plan_id":"cebpf4jnsgd1na2vs0mg"},{"bike_id":"a40d376e-c736-4001-bfd5-03a82bfa1617","system_id":"levelo_inurba_marseille","lat":43.29547,"lon":5.38542,"is_reserved":false,"is_disabled":false,"rental_uris":{"android":"levelo://app?vid=a40d376e-c736-4001-bfd5-03a82bfa1617","ios":"levelo://app?vid=a40d376e-c736-4001-bfd5-03a82bfa1617"},"vehicle_type_id":"4","last_reported":1770415951,"current_range_meters":6000,"station_id":"ce4bgih2rcd13ifvqba0","pricing_plan_id":"cebpf4jnsgd1na2vs0mg"},{"bike_id":"c22aeab0-6fd6-45fa-976b-23e2284b59fd","system_id":"levelo_inurba_marseille","lat":43.29313,"lon":5.38491,"is_reserved":false,"is_disabled":false,"rental_uris":{"android":"levelo://app?vid=c22aeab0-6fd6-45fa-976b-23e2284b59fd","ios":"levelo://app?vid=c22aeab0-6fd6-45fa-976b-23e2284b59fd"},"vehicle_type_id":"4","last_reported":1770415951,"current_range_meters":6000,"station_id":"","pricing_plan_id":"cebpf4jnsgd1na2vs0mg"},{"bike_id":"88de999f-78fd-498c-86b8-c0b83e9a1087","system_id":"levelo_inurba_marseille","lat":43.25957,"lon":5.40909,"is_reserved":false,"is_disabled":false,"rental_uris":{"android":"levelo://app?vid=88de999f-78fd-498c-86b8-c0b83e9a1087","ios":"levelo://app?vid=88de999f-78fd-498c-86b8-c0b83e9a1087"},"vehicle_type_id":"4","last_reported":1770415951,"current_range_meters":6000,"station_id":"ce4bhm92rcd13ifvqglg","pricing_plan_id":"cebpf4jnsgd1na2vs0mg"},{"bike_id":"735c03e4-d6e6-49f6-81ba-72ebbef9fba5","system_id":"levelo_inurba_marseille","lat":43.25097,"lon":5.39508,"is_reserved":false,"is_disabled":false,"rental_uris":{"android":"levelo://app?vid=735c03e4-d6e6-49f6-81ba-72ebbef9fba5","ios":"levelo://app?vid=735c03e4-d6e6-49f6-81ba-72ebbef9fba5"},"vehicle_type_id":"4","last_reported":1770415951,"current_range_meters":6000,"station_id":"ce4bhm12rcd13ifvqgkg","pricing_plan_id":"cebpf4jnsgd1na2vs0mg"},{"bike_id":"31187af9-c44b-44b9-86e6-81ceb0eb435c","system_id":"levelo_inurba_marseille","lat":43.27069,"lon":5.42239,"is_reserved":false,"is_disabled":false,"rental_uris":{"android":"levelo://app?vid=31187af9-c44b-44b9-86e6-81ceb0eb435c","ios":"levelo://app?vid=31187af9-c44b-44b9-86e6-81ceb0eb435c"},"vehicle_type_id":"4","last_reported":1770415951,"current_range_meters":6000,"station_id":"ce4bhk92rcd13ifvqgb0","pricing_plan_id":"cebpf4jnsgd1na2vs0mg"},{"bike_id":"ea97a2a4-cc5a-4d7f-bf38-8e94f201d189","system_id":"levelo_inurba_marseille","lat":43.2848,"lon":5.48407,"is_reserved":false,"is_disabled":false,"rental_uris":{"android":"levelo://app?vid=ea97a2a4-cc5a-4d7f-bf38-8e94f201d189","ios":"levelo://app?vid=ea97a2a4-cc5a-4d7f-bf38-8e94f201d189"},"vehicle_type_id":"4","last_reported":1770415951,"current_range_meters":6000,"station_id":"","pricing_plan_id":"cebpf4jnsgd1na2vs0mg"},{"bike_id":"5dea93d7-2b00-4423-81b5-9e768d42cacb","system_id":"levelo_inurba_marseille","lat":43.29038,"lon":5.38673,"is_reserved":false,"is_disabled":true,"rental_uris":{"android":"levelo://app?vid=5dea93d7-2b00-4423-81b5-9e768d42cacb","ios":"levelo://app?vid=5dea93d7-2b00-4423-81b5-9e768d42cacb"},"vehicle_type_id":"4","last_reported":1770415951,"current_range_meters":6400,"station_id":"ce4bh4p2rcd13ifvqe0g","pricing_plan_id":"cebpf4jnsgd1na2vs0mg"},{"bike_id":"1a0bce21-6c8f-4aea-aa73-fc78a15d533d","system_id":"levelo_inurba_marseille","lat":43.29532,"lon":5.38534,"is_reserved":false,"is_disabled":false,"rental_uris":{"android":"levelo://app?vid=1a0bce21-6c8f-4aea-aa73-fc78a15d533d","ios":"levelo://app?vid=1a0bce21-6c8f-4aea-aa73-fc78a15d533d"},"vehicle_type_id":"4","last_reported":1770415951,"current_range_meters":6400,"station_id":"ce4bgih2rcd13ifvqba0","pricing_plan_id":"cebpf4jnsgd1na2vs0mg"},{"bike_id":"7ad5b625-433d-40d1-85a2-020d0fac3afe","system_id":"levelo_inurba_marseille","lat":43.29893,"lon":5.37615,"is_reserved":false,"is_disabled":false,"rental_uris":{"android":"levelo://app?vid=7ad5b625-433d-40d1-85a2-020d0fac3afe","ios":"levelo://app?vid=7ad5b625-433d-40d1-85a2-020d0fac3afe"},"vehicle_type_id":"4","last_reported":1770415951,"current_range_meters":6400,"station_id":"","pricing_plan_id":"cebpf4jnsgd1na2vs0mg"},{"bike_id":"978d4176-ee2f-4cac-b739-e147a27c26bd","system_id":"levelo_inurba_marseille","lat":43.291715,"lon":5.371566,"is_reserved":false,"is_disabled":false,"rental_uris":{"android":"levelo://app?vid=978d4176-ee2f-4cac-b739-e147a27c26bd","ios":"levelo://app?vid=978d4176-ee2f-4cac-b739-e147a27c26bd"},"vehicle_type_id":"4","last_reported":1770415951,"current_range_meters":6400,"station_id":"ce4bha92rcd13ifvqeh0","pricing_plan_id":"cebpf4jnsgd1na2vs0mg"},{"bike_id":"e6136998-b2a7-4d26-bf56-9312edc5f30c","system_id":"levelo_inurba_marseille","lat":43.31419,"lon":5.39378,"is_reserved":false,"is_disabled":false,"rental_uris":{"android":"levelo://app?vid=e6136998-b2a7-4d26-bf56-9312edc5f30c","ios":"levelo://app?vid=e6136998-b2a7-4d26-bf56-9312edc5f30c"},"vehicle_type_id":"4","last_reported":1770415951,"current_range_meters":6400,"station_id":"","pricing_plan_id":"cebpf4jnsgd1na2vs0mg"},{"bike_id":"434d478f-a146-4dee-85b4-c5e9c2158366","system_id":"levelo_inurba_marseille","lat":43.28849,"lon":5.35854,"is_reserved":false,"is_disabled":false,"rental_uris":{"android":"levelo://app?vid=434d478f-a146-4dee-85b4-c5e9c2158366","ios":"levelo://app?vid=434d478f-a146-4dee-85b4-c5e9c2158366"},"vehicle_type_id":"4","last_reported":1770415951,"current_range_meters":6400,"station_id":"ce4bhb12rcd13ifvqem0","pricing_plan_id":"cebpf4jnsgd1na2vs0mg"},{"bike_id":"379685d2-9e90-4f9b-bb24-a80a4545550e","system_id":"levelo_inurba_marseille","lat":43.29816,"lon":5.4407,"is_reserved":false,"is_disabled":false,"rental_uris":{"android":"levelo://app?vid=379685d2-9e90-4f9b-bb24-a80a4545550e","ios":"levelo://app?vid=379685d2-9e90-4f9b-bb24-a80a4545550e"},"vehicle_type_id":"4","last_reported":1770415951,"current_range_meters":6400,"station_id":"st_d3jp68qikq2c7381ktn0","pricing_plan_id":"cebpf4jnsgd1na2vs0mg"},{"bike_id":"58d16e10-99ba-424c-8d7d-f247b1c47cde","system_id":"levelo_inurba_marseille","lat":43.28981,"lon":5.38379,"is_reserved":false,"is_disabled":false,"rental_uris":{"android":"levelo://app?vid=58d16e10-99ba-424c-8d7d-f247b1c47cde","ios":"levelo://app?vid=58d16e10-99ba-424c-8d7d-f247b1c47cde"},"vehicle_type_id":"4","last_reported":1770415951,"current_range_meters":6400,"station_id":"","pricing_plan_id":"cebpf4jnsgd1na2vs0mg"},{"bike_id":"66d4f07c-f956-4ddd-856d-10dc3144e894","system_id":"levelo_inurba_marseille","lat":43.305281,"lon":5.367001,"is_reserved":false,"is_disabled":false,"rental_uris":{"android":"levelo://app?vid=66d4f07c-f956-4ddd-856d-10dc3144e894","ios":"levelo://app?vid=66d4f07c-f956-4ddd-856d-10dc3144e894"},"vehicle_type_id":"4","last_reported":1770415951,"current_range_meters":6400,"station_id":"ce4bgrp2rcd13ifvqc9g","pricing_plan_id":"cebpf4jnsgd1na2vs0mg"},{"bike_id":"ef9a7355-ad35-46aa-a6cb-010fac317fd1","system_id":"levelo_inurba_marseille","lat":43.293,"lon":5.37451,"is_reserved":false,"is_disabled":false,"rental_uris":{"android":"levelo://app?vid=ef9a7355-ad35-46aa-a6cb-010fac317fd1","ios":"levelo://app?vid=ef9a7355-ad35-46aa-a6cb-010fac317fd1"},"vehicle_type_id":"4","last_reported":1770415951,"current_range_meters":6400,"station_id":"ce4bgi12rcd13ifvqb70","pricing_plan_id":"cebpf4jnsgd1na2vs0mg"},{"bike_id":"dcd75408-c48b-4237-a119-d8fde1503eb2","system_id":"levelo_inurba_marseille","lat":43.29632,"lon":5.38093,"is_reserved":false,"is_disabled":false,"rental_uris":{"android":"levelo://app?vid=dcd75408-c48b-4237-a119-d8fde1503eb2","ios":"levelo://app?vid=dcd75408-c48b-4237-a119-d8fde1503eb2"},"vehicle_type_id":"4","last_reported":1770415951,"current_range_meters":6400,"station_id":"ce4bgl12rcd13ifvqbo0","pricing_plan_id":"cebpf4jnsgd1na2vs0mg"},{"bike_id":"020c784a-f5ed-4edf-a17f-1c50e03e4de1","system_id":"levelo_inurba_marseille","lat":43.249448,"lon":5.404977,"is_reserved":false,"is_disabled":false,"rental_uris":{"android":"levelo://app?vid=020c784a-f5ed-4edf-a17f-1c50e03e4de1","ios":"levelo://app?vid=020c784a-f5ed-4edf-a17f-1c50e03e4de1"},"vehicle_type_id":"4","last_reported":1770415951,"current_range_meters":6400,"station_id":"st_d2ngiaodas8pm72gd1h0","pricing_plan_id":"cebpf4jnsgd1na2vs0mg"},{"bike_id":"ebe4c918-bcd1-4dee-9908-e004270eea08","system_id":"levelo_inurba_marseille","lat":43.29265,"lon":5.38445,"is_reserved":false,"is_disabled":false,"rental_uris":{"android":"levelo://app?vid=ebe4c918-bcd1-4dee-9908-e004270eea08","ios":"levelo://app?vid=ebe4c918-bcd1-4dee-9908-e004270eea08"},"vehicle_type_id":"4","last_reported":1770415951,"current_range_meters":6400,"station_id":"ce4bh692rcd13ifvqea0","pricing_plan_id":"cebpf4jnsgd1na2vs0mg"},{"bike_id":"17e35f94-3fec-45dd-96a9-f18976bedc1b","system_id":"levelo_inurba_marseille","lat":43.27939,"lon":5.41044,"is_reserved":false,"is_disabled":false,"rental_uris":{"android":"levelo://app?vid=17e35f94-3fec-45dd-96a9-f18976bedc1b","ios":"levelo://app?vid=17e35f94-3fec-45dd-96a9-f18976bedc1b"},"vehicle_type_id":"4","last_reported":1770415951,"current_range_meters":6400,"station_id":"ce4bhnp2rcd13ifvqh0g","pricing_plan_id":"cebpf4jnsgd1na2vs0mg"},{"bike_id":"36bac8f2-737f-4d23-9ff4-7678e5142d66","system_id":"levelo_inurba_marseille","lat":43.255115,"lon":5.376558,"is_reserved":false,"is_disabled":false,"rental_uris":{"android":"levelo://app?vid=36bac8f2-737f-4d23-9ff4-7678e5142d66","ios":"levelo://app?vid=36bac8f2-737f-4d23-9ff4-7678e5142d66"},"vehicle_type_id":"4","last_reported":1770415951,"current_range_meters":6400,"station_id":"ce4bhh12rcd13ifvqff0","pricing_plan_id":"cebpf4jnsgd1na2vs0mg"},{"bike_id":"1a470d1c-b752-4d34-a68b-84a2be46634b","system_id":"levelo_inurba_marseille","lat":43.28721,"lon":5.37933,"is_reserved":false,"is_disabled":false,"rental_uris":{"android":"levelo://app?vid=1a470d1c-b752-4d34-a68b-84a2be46634b","ios":"levelo://app?vid=1a470d1c-b752-4d34-a68b-84a2be46634b"},"vehicle_type_id":"4","last_reported":1770415951,"current_range_meters":6400,"station_id":"ce4bh9p2rcd13ifvqec0","pricing_plan_id":"cebpf4jnsgd1na2vs0mg"},{"bike_id":"968a1130-5ab4-497c-b27f-cb61b0d6cd96","system_id":"levelo_inurba_marseille","lat":43.30258,"lon":5.37726,"is_reserved":false,"is_disabled":false,"rental_uris":{"android":"levelo://app?vid=968a1130-5ab4-497c-b27f-cb61b0d6cd96","ios":"levelo://app?vid=968a1130-5ab4-497c-b27f-cb61b0d6cd96"},"vehicle_type_id":"4","last_reported":1770415951,"current_range_meters":6400,"station_id":"ce4bguh2rcd13ifvqcj0","pricing_plan_id":"cebpf4jnsgd1na2vs0mg"},{"bike_id":"7fe289d7-a40a-48e6-b71a-ee8c544f0123","system_id":"levelo_inurba_marseille","lat":43.2624,"lon":5.37904,"is_reserved":false,"is_disabled":false,"rental_uris":{"android":"levelo://app?vid=7fe289d7-a40a-48e6-b71a-ee8c544f0123","ios":"levelo://app?vid=7fe289d7-a40a-48e6-b71a-ee8c544f0123"},"vehicle_type_id":"4","last_reported":1770415951,"current_range_meters":6400,"station_id":"ce4bhjp2rcd13ifvqg90","pricing_plan_id":"cebpf4jnsgd1na2vs0mg"},{"bike_id":"1dd6f4de-6a4a-4fa1-b038-a756a6cbac96","system_id":"levelo_inurba_marseille","lat":43.231911,"lon":5.355421,"is_reserved":false,"is_disabled":false,"rental_uris":{"android":"levelo://app?vid=1dd6f4de-6a4a-4fa1-b038-a756a6cbac96","ios":"levelo://app?vid=1dd6f4de-6a4a-4fa1-b038-a756a6cbac96"},"vehicle_type_id":"4","last_reported":1770415951,"current_range_meters":6800,"station_id":"ce4bhu92rcd13ifvqi70","pricing_plan_id":"cebpf4jnsgd1na2vs0mg"},{"bike_id":"e40c6df9-93ca-4ce0-8ead-cbd393e4ffd7","system_id":"levelo_inurba_marseille","lat":43.296217,"lon":5.377543,"is_reserved":false,"is_disabled":false,"rental_uris":{"android":"levelo://app?vid=e40c6df9-93ca-4ce0-8ead-cbd393e4ffd7","ios":"levelo://app?vid=e40c6df9-93ca-4ce0-8ead-cbd393e4ffd7"},"vehicle_type_id":"4","last_reported":1770415951,"current_range_meters":6800,"station_id":"ce4bgi92rcd13ifvqb90","pricing_plan_id":"cebpf4jnsgd1na2vs0mg"},{"bike_id":"6e3fa389-f831-4aee-bce0-0eb9da8d7189","system_id":"levelo_inurba_marseille","lat":43.29308,"lon":5.37461,"is_reserved":false,"is_disabled":false,"rental_uris":{"android":"levelo://app?vid=6e3fa389-f831-4aee-bce0-0eb9da8d7189","ios":"levelo://app?vid=6e3fa389-f831-4aee-bce0-0eb9da8d7189"},"vehicle_type_id":"4","last_reported":1770415951,"current_range_meters":6800,"station_id":"ce4bgi12rcd13ifvqb70","pricing_plan_id":"cebpf4jnsgd1na2vs0mg"},{"bike_id":"4022598c-6605-421d-929f-d80b4ad79dcf","system_id":"levelo_inurba_marseille","lat":43.24687,"lon":5.38157,"is_reserved":false,"is_disabled":false,"rental_uris":{"android":"levelo://app?vid=4022598c-6605-421d-929f-d80b4ad79dcf","ios":"levelo://app?vid=4022598c-6605-421d-929f-d80b4ad79dcf"},"vehicle_type_id":"4","last_reported":1770415951,"current_range_meters":6800,"station_id":"ce4bhih2rcd13ifvqfr0","pricing_plan_id":"cebpf4jnsgd1na2vs0mg"},{"bike_id":"142a21c2-9a29-466a-92f6-5ab3ecc5b60d","system_id":"levelo_inurba_marseille","lat":43.23802,"lon":5.36641,"is_reserved":false,"is_disabled":false,"rental_uris":{"android":"levelo://app?vid=142a21c2-9a29-466a-92f6-5ab3ecc5b60d","ios":"levelo://app?vid=142a21c2-9a29-466a-92f6-5ab3ecc5b60d"},"vehicle_type_id":"4","last_reported":1770415951,"current_range_meters":6800,"station_id":"st_d3nk18o9ro0c73en2l3g","pricing_plan_id":"cebpf4jnsgd1na2vs0mg"},{"bike_id":"c57155d9-12b5-4d63-b1ef-c288098818cd","system_id":"levelo_inurba_marseille","lat":43.295277,"lon":5.390407,"is_reserved":false,"is_disabled":false,"rental_uris":{"android":"levelo://app?vid=c57155d9-12b5-4d63-b1ef-c288098818cd","ios":"levelo://app?vid=c57155d9-12b5-4d63-b1ef-c288098818cd"},"vehicle_type_id":"4","last_reported":1770415951,"current_range_meters":6800,"station_id":"ce4bh3p2rcd13ifvqdp0","pricing_plan_id":"cebpf4jnsgd1na2vs0mg"},{"bike_id":"34ce4070-8bf1-4f6c-90db-46999ff058d6","system_id":"levelo_inurba_marseille","lat":43.29268,"lon":5.3845,"is_reserved":false,"is_disabled":false,"rental_uris":{"android":"levelo://app?vid=34ce4070-8bf1-4f6c-90db-46999ff058d6","ios":"levelo://app?vid=34ce4070-8bf1-4f6c-90db-46999ff058d6"},"vehicle_type_id":"4","last_reported":1770415951,"current_range_meters":6800,"station_id":"ce4bh692rcd13ifvqea0","pricing_plan_id":"cebpf4jnsgd1na2vs0mg"},{"bike_id":"f086e6a6-7f96-42e4-96de-367ff3edfb33","system_id":"levelo_inurba_marseille","lat":43.25577,"lon":5.38231,"is_reserved":false,"is_disabled":false,"rental_uris":{"android":"levelo://app?vid=f086e6a6-7f96-42e4-96de-367ff3edfb33","ios":"levelo://app?vid=f086e6a6-7f96-42e4-96de-367ff3edfb33"},"vehicle_type_id":"4","last_reported":1770415951,"current_range_meters":6800,"station_id":"ce4bhih2rcd13ifvqfs0","pricing_plan_id":"cebpf4jnsgd1na2vs0mg"},{"bike_id":"f0d45e46-9d23-4329-92a4-e4ddc618e990","system_id":"levelo_inurba_marseille","lat":43.22932,"lon":5.35379,"is_reserved":false,"is_disabled":false,"rental_uris":{"android":"levelo://app?vid=f0d45e46-9d23-4329-92a4-e4ddc618e990","ios":"levelo://app?vid=f0d45e46-9d23-4329-92a4-e4ddc618e990"},"vehicle_type_id":"4","last_reported":1770415951,"current_range_meters":6800,"station_id":"cpo3532slgdg3j2ikp40","pricing_plan_id":"cebpf4jnsgd1na2vs0mg"},{"bike_id":"c6782d87-e485-4a2c-b62b-9a52105fb0ef","system_id":"levelo_inurba_marseille","lat":43.25016,"lon":5.38935,"is_reserved":false,"is_disabled":false,"rental_uris":{"android":"levelo://app?vid=c6782d87-e485-4a2c-b62b-9a52105fb0ef","ios":"levelo://app?vid=c6782d87-e485-4a2c-b62b-9a52105fb0ef"},"vehicle_type_id":"4","last_reported":1770415951,"current_range_meters":6800,"station_id":"ce4bhgp2rcd13ifvqfd0","pricing_plan_id":"cebpf4jnsgd1na2vs0mg"},{"bike_id":"bd830301-856a-4947-bbd9-0c9aae46f8c5","system_id":"levelo_inurba_marseille","lat":43.28862,"lon":5.42536,"is_reserved":false,"is_disabled":false,"rental_uris":{"android":"levelo://app?vid=bd830301-856a-4947-bbd9-0c9aae46f8c5","ios":"levelo://app?vid=bd830301-856a-4947-bbd9-0c9aae46f8c5"},"vehicle_type_id":"4","last_reported":1770415951,"current_range_meters":6800,"station_id":"st_d3b462108ojc7389ooeg","pricing_plan_id":"cebpf4jnsgd1na2vs0mg"},{"bike_id":"4f7d41e3-f9d8-470b-99d3-80dafc768b1e","system_id":"levelo_inurba_marseille","lat":43.29,"lon":5.3559,"is_reserved":false,"is_disabled":false,"rental_uris":{"android":"levelo://app?vid=4f7d41e3-f9d8-470b-99d3-80dafc768b1e","ios":"levelo://app?vid=4f7d41e3-f9d8-470b-99d3-80dafc768b1e"},"vehicle_type_id":"4","last_reported":1770415951,"current_range_meters":6800,"station_id":"ce4bhb92rcd13ifvqen0","pricing_plan_id":"cebpf4jnsgd1na2vs0mg"},{"bike_id":"28038112-793b-4a40-88c6-af51aa30dc6d","system_id":"levelo_inurba_marseille","lat":43.23188,"lon":5.3555,"is_reserved":false,"is_disabled":false,"rental_uris":{"android":"levelo://app?vid=28038112-793b-4a40-88c6-af51aa30dc6d","ios":"levelo://app?vid=28038112-793b-4a40-88c6-af51aa30dc6d"},"vehicle_type_id":"4","last_reported":1770415951,"current_range_meters":6800,"station_id":"ce4bhu92rcd13ifvqi70","pricing_plan_id":"cebpf4jnsgd1na2vs0mg"},{"bike_id":"0b0f5da6-7e0f-4c34-83d7-d18ce6723012","system_id":"levelo_inurba_marseille","lat":43.30948,"lon":5.39056,"is_reserved":false,"is_disabled":false,"rental_uris":{"android":"levelo://app?vid=0b0f5da6-7e0f-4c34-83d7-d18ce6723012","ios":"levelo://app?vid=0b0f5da6-7e0f-4c34-83d7-d18ce6723012"},"vehicle_type_id":"4","last_reported":1770415951,"current_range_meters":6800,"station_id":"ce4bgup2rcd13ifvqco0","pricing_plan_id":"cebpf4jnsgd1na2vs0mg"},{"bike_id":"6809d87e-7242-4772-8526-bd1f9e441f49","system_id":"levelo_inurba_marseille","lat":43.33734,"lon":5.39192,"is_reserved":false,"is_disabled":false,"rental_uris":{"android":"levelo://app?vid=6809d87e-7242-4772-8526-bd1f9e441f49","ios":"levelo://app?vid=6809d87e-7242-4772-8526-bd1f9e441f49"},"vehicle_type_id":"4","last_reported":1770415951,"current_range_meters":6800,"station_id":"ce4bhr92rcd13ifvqhsg","pricing_plan_id":"cebpf4jnsgd1na2vs0mg"},{"bike_id":"37e9c795-f53b-47bd-8c9b-e2c251d59572","system_id":"levelo_inurba_marseille","lat":43.26199,"lon":5.3745,"is_reserved":false,"is_disabled":false,"rental_uris":{"android":"levelo://app?vid=37e9c795-f53b-47bd-8c9b-e2c251d59572","ios":"levelo://app?vid=37e9c795-f53b-47bd-8c9b-e2c251d59572"},"vehicle_type_id":"4","last_reported":1770415951,"current_range_meters":6800,"station_id":"ce4bhgp2rcd13ifvqfc0","pricing_plan_id":"cebpf4jnsgd1na2vs0mg"},{"bike_id":"4573242e-b265-4331-b57e-964b4ba015f2","system_id":"levelo_inurba_marseille","lat":43.26208,"lon":5.37431,"is_reserved":false,"is_disabled":false,"rental_uris":{"android":"levelo://app?vid=4573242e-b265-4331-b57e-964b4ba015f2","ios":"levelo://app?vid=4573242e-b265-4331-b57e-964b4ba015f2"},"vehicle_type_id":"4","last_reported":1770415951,"current_range_meters":6800,"station_id":"ce4bhgp2rcd13ifvqfc0","pricing_plan_id":"cebpf4jnsgd1na2vs0mg"},{"bike_id":"b7fc64ee-0a1a-4639-af60-46d03219d45f","system_id":"levelo_inurba_marseille","lat":43.23201,"lon":5.35553,"is_reserved":false,"is_disabled":false,"rental_uris":{"android":"levelo://app?vid=b7fc64ee-0a1a-4639-af60-46d03219d45f","ios":"levelo://app?vid=b7fc64ee-0a1a-4639-af60-46d03219d45f"},"vehicle_type_id":"4","last_reported":1770415951,"current_range_meters":6800,"station_id":"ce4bhu92rcd13ifvqi70","pricing_plan_id":"cebpf4jnsgd1na2vs0mg"},{"bike_id":"cc21637e-36ac-4ec7-8629-0a5b399cddca","system_id":"levelo_inurba_marseille","lat":43.30393,"lon":5.42488,"is_reserved":false,"is_disabled":false,"rental_uris":{"android":"levelo://app?vid=cc21637e-36ac-4ec7-8629-0a5b399cddca","ios":"levelo://app?vid=cc21637e-36ac-4ec7-8629-0a5b399cddca"},"vehicle_type_id":"4","last_reported":1770415951,"current_range_meters":6800,"station_id":"ce4bhoh2rcd13ifvqh6g","pricing_plan_id":"cebpf4jnsgd1na2vs0mg"},{"bike_id":"7913ecf5-95cc-46db-ad1a-05494005e5b1","system_id":"levelo_inurba_marseille","lat":43.25692,"lon":5.41654,"is_reserved":false,"is_disabled":false,"rental_uris":{"android":"levelo://app?vid=7913ecf5-95cc-46db-ad1a-05494005e5b1","ios":"levelo://app?vid=7913ecf5-95cc-46db-ad1a-05494005e5b1"},"vehicle_type_id":"4","last_reported":1770415951,"current_range_meters":6800,"station_id":"","pricing_plan_id":"cebpf4jnsgd1na2vs0mg"},{"bike_id":"fb70c546-2c71-4eab-8987-e71f757386fe","system_id":"levelo_inurba_marseille","lat":43.29547,"lon":5.38569,"is_reserved":false,"is_disabled":false,"rental_uris":{"android":"levelo://app?vid=fb70c546-2c71-4eab-8987-e71f757386fe","ios":"levelo://app?vid=fb70c546-2c71-4eab-8987-e71f757386fe"},"vehicle_type_id":"4","last_reported":1770415951,"current_range_meters":6800,"station_id":"ce4bgih2rcd13ifvqba0","pricing_plan_id":"cebpf4jnsgd1na2vs0mg"},{"bike_id":"d2ce0404-c8bd-4371-911b-5f932d9881b8","system_id":"levelo_inurba_marseille","lat":43.2951,"lon":5.39051,"is_reserved":false,"is_disabled":false,"rental_uris":{"android":"levelo://app?vid=d2ce0404-c8bd-4371-911b-5f932d9881b8","ios":"levelo://app?vid=d2ce0404-c8bd-4371-911b-5f932d9881b8"},"vehicle_type_id":"4","last_reported":1770415951,"current_range_meters":6800,"station_id":"ce4bh3p2rcd13ifvqdp0","pricing_plan_id":"cebpf4jnsgd1na2vs0mg"},{"bike_id":"72e04a06-41f1-42cc-b523-538e0ceb7ea8","system_id":"levelo_inurba_marseille","lat":43.29262,"lon":5.38443,"is_reserved":false,"is_disabled":false,"rental_uris":{"android":"levelo://app?vid=72e04a06-41f1-42cc-b523-538e0ceb7ea8","ios":"levelo://app?vid=72e04a06-41f1-42cc-b523-538e0ceb7ea8"},"vehicle_type_id":"4","last_reported":1770415951,"current_range_meters":6800,"station_id":"ce4bh692rcd13ifvqea0","pricing_plan_id":"cebpf4jnsgd1na2vs0mg"},{"bike_id":"967cce7e-5662-42d8-a2b0-963824220044","system_id":"levelo_inurba_marseille","lat":43.276146,"lon":5.361064,"is_reserved":false,"is_disabled":false,"rental_uris":{"android":"levelo://app?vid=967cce7e-5662-42d8-a2b0-963824220044","ios":"levelo://app?vid=967cce7e-5662-42d8-a2b0-963824220044"},"vehicle_type_id":"4","last_reported":1770415951,"current_range_meters":6800,"station_id":"ce4bgj92rcd13ifvqbe0","pricing_plan_id":"cebpf4jnsgd1na2vs0mg"},{"bike_id":"58b75f9a-9109-4ad4-bff3-1796073efe92","system_id":"levelo_inurba_marseille","lat":43.24401,"lon":5.37056,"is_reserved":false,"is_disabled":false,"rental_uris":{"android":"levelo://app?vid=58b75f9a-9109-4ad4-bff3-1796073efe92","ios":"levelo://app?vid=58b75f9a-9109-4ad4-bff3-1796073efe92"},"vehicle_type_id":"4","last_reported":1770415951,"current_range_meters":7200,"station_id":"ce4bhhh2rcd13ifvqfk0","pricing_plan_id":"cebpf4jnsgd1na2vs0mg"},{"bike_id":"4cca9d63-46b2-45f5-9212-166715886038","system_id":"levelo_inurba_marseille","lat":43.30127,"lon":5.39853,"is_reserved":false,"is_disabled":false,"rental_uris":{"android":"levelo://app?vid=4cca9d63-46b2-45f5-9212-166715886038","ios":"levelo://app?vid=4cca9d63-46b2-45f5-9212-166715886038"},"vehicle_type_id":"4","last_reported":1770415951,"current_range_meters":7200,"station_id":"ce4bh0h2rcd13ifvqd40","pricing_plan_id":"cebpf4jnsgd1na2vs0mg"},{"bike_id":"9c73f167-0209-4b65-bfe4-6dcb19c28c58","system_id":"levelo_inurba_marseille","lat":43.29028,"lon":5.38641,"is_reserved":false,"is_disabled":false,"rental_uris":{"android":"levelo://app?vid=9c73f167-0209-4b65-bfe4-6dcb19c28c58","ios":"levelo://app?vid=9c73f167-0209-4b65-bfe4-6dcb19c28c58"},"vehicle_type_id":"4","last_reported":1770415951,"current_range_meters":7200,"station_id":"ce4bh4p2rcd13ifvqe0g","pricing_plan_id":"cebpf4jnsgd1na2vs0mg"},{"bike_id":"f80af0fc-206a-4ad4-9ce1-df5c67b5af5a","system_id":"levelo_inurba_marseille","lat":43.2917,"lon":5.37146,"is_reserved":false,"is_disabled":false,"rental_uris":{"android":"levelo://app?vid=f80af0fc-206a-4ad4-9ce1-df5c67b5af5a","ios":"levelo://app?vid=f80af0fc-206a-4ad4-9ce1-df5c67b5af5a"},"vehicle_type_id":"4","last_reported":1770415951,"current_range_meters":7200,"station_id":"ce4bha92rcd13ifvqeh0","pricing_plan_id":"cebpf4jnsgd1na2vs0mg"},{"bike_id":"d13cc862-d1fc-41d4-be4b-efb44f920c08","system_id":"levelo_inurba_marseille","lat":43.30988,"lon":5.39072,"is_reserved":false,"is_disabled":true,"rental_uris":{"android":"levelo://app?vid=d13cc862-d1fc-41d4-be4b-efb44f920c08","ios":"levelo://app?vid=d13cc862-d1fc-41d4-be4b-efb44f920c08"},"vehicle_type_id":"4","last_reported":1770415951,"current_range_meters":7200,"station_id":"ce4bgup2rcd13ifvqco0","pricing_plan_id":"cebpf4jnsgd1na2vs0mg"},{"bike_id":"5825814f-7023-4d5f-a20a-f996200a6f78","system_id":"levelo_inurba_marseille","lat":43.27968,"lon":5.41059,"is_reserved":false,"is_disabled":false,"rental_uris":{"android":"levelo://app?vid=5825814f-7023-4d5f-a20a-f996200a6f78","ios":"levelo://app?vid=5825814f-7023-4d5f-a20a-f996200a6f78"},"vehicle_type_id":"4","last_reported":1770415951,"current_range_meters":7200,"station_id":"ce4bhnp2rcd13ifvqh0g","pricing_plan_id":"cebpf4jnsgd1na2vs0mg"},{"bike_id":"5e9d7b89-ee8f-42bc-87df-a5a05a1d1db8","system_id":"levelo_inurba_marseille","lat":43.24262,"lon":5.39682,"is_reserved":false,"is_disabled":false,"rental_uris":{"android":"levelo://app?vid=5e9d7b89-ee8f-42bc-87df-a5a05a1d1db8","ios":"levelo://app?vid=5e9d7b89-ee8f-42bc-87df-a5a05a1d1db8"},"vehicle_type_id":"4","last_reported":1770415951,"current_range_meters":7200,"station_id":"","pricing_plan_id":"cebpf4jnsgd1na2vs0mg"},{"bike_id":"c6e25874-c646-4223-9fb1-4a2c71cb2059","system_id":"levelo_inurba_marseille","lat":43.31205,"lon":5.36878,"is_reserved":false,"is_disabled":false,"rental_uris":{"android":"levelo://app?vid=c6e25874-c646-4223-9fb1-4a2c71cb2059","ios":"levelo://app?vid=c6e25874-c646-4223-9fb1-4a2c71cb2059"},"vehicle_type_id":"4","last_reported":1770415951,"current_range_meters":7200,"station_id":"ce4bgl92rcd13ifvqbq0","pricing_plan_id":"cebpf4jnsgd1na2vs0mg"},{"bike_id":"d9966860-8e8f-47c3-b6f0-291a5804774f","system_id":"levelo_inurba_marseille","lat":43.2827,"lon":5.3508,"is_reserved":false,"is_disabled":false,"rental_uris":{"android":"levelo://app?vid=d9966860-8e8f-47c3-b6f0-291a5804774f","ios":"levelo://app?vid=d9966860-8e8f-47c3-b6f0-291a5804774f"},"vehicle_type_id":"4","last_reported":1770415951,"current_range_meters":7200,"station_id":"ce4bhbp2rcd13ifvqerg","pricing_plan_id":"cebpf4jnsgd1na2vs0mg"},{"bike_id":"5a35dbc2-e52e-4f75-b31d-527577f2107a","system_id":"levelo_inurba_marseille","lat":43.28264,"lon":5.35085,"is_reserved":false,"is_disabled":false,"rental_uris":{"android":"levelo://app?vid=5a35dbc2-e52e-4f75-b31d-527577f2107a","ios":"levelo://app?vid=5a35dbc2-e52e-4f75-b31d-527577f2107a"},"vehicle_type_id":"4","last_reported":1770415951,"current_range_meters":7200,"station_id":"ce4bhbp2rcd13ifvqerg","pricing_plan_id":"cebpf4jnsgd1na2vs0mg"},{"bike_id":"34b0e592-5a12-495a-a81b-b7a9e8350c09","system_id":"levelo_inurba_marseille","lat":43.284216,"lon":5.349886,"is_reserved":false,"is_disabled":false,"rental_uris":{"android":"levelo://app?vid=34b0e592-5a12-495a-a81b-b7a9e8350c09","ios":"levelo://app?vid=34b0e592-5a12-495a-a81b-b7a9e8350c09"},"vehicle_type_id":"4","last_reported":1770415951,"current_range_meters":7200,"station_id":"","pricing_plan_id":"cebpf4jnsgd1na2vs0mg"},{"bike_id":"576af193-e62d-499f-bac6-83067da3cb89","system_id":"levelo_inurba_marseille","lat":43.27996,"lon":5.40019,"is_reserved":false,"is_disabled":true,"rental_uris":{"android":"levelo://app?vid=576af193-e62d-499f-bac6-83067da3cb89","ios":"levelo://app?vid=576af193-e62d-499f-bac6-83067da3cb89"},"vehicle_type_id":"4","last_reported":1770415951,"current_range_meters":7200,"station_id":"ce4bho92rcd13ifvqh4g","pricing_plan_id":"cebpf4jnsgd1na2vs0mg"},{"bike_id":"05f87d83-24ff-447d-a611-6a5a7ced0ca3","system_id":"levelo_inurba_marseille","lat":43.28613,"lon":5.35141,"is_reserved":false,"is_disabled":false,"rental_uris":{"android":"levelo://app?vid=05f87d83-24ff-447d-a611-6a5a7ced0ca3","ios":"levelo://app?vid=05f87d83-24ff-447d-a611-6a5a7ced0ca3"},"vehicle_type_id":"4","last_reported":1770415951,"current_range_meters":7200,"station_id":"ce4bhch2rcd13ifvqeug","pricing_plan_id":"cebpf4jnsgd1na2vs0mg"},{"bike_id":"6c826141-83c8-450c-bb51-8b69baba0bf3","system_id":"levelo_inurba_marseille","lat":43.26694,"lon":5.40806,"is_reserved":false,"is_disabled":false,"rental_uris":{"android":"levelo://app?vid=6c826141-83c8-450c-bb51-8b69baba0bf3","ios":"levelo://app?vid=6c826141-83c8-450c-bb51-8b69baba0bf3"},"vehicle_type_id":"4","last_reported":1770415951,"current_range_meters":7200,"station_id":"","pricing_plan_id":"cebpf4jnsgd1na2vs0mg"},{"bike_id":"5514686a-b854-4db2-9779-3506b95972b1","system_id":"levelo_inurba_marseille","lat":43.23149,"lon":5.43718,"is_reserved":false,"is_disabled":false,"rental_uris":{"android":"levelo://app?vid=5514686a-b854-4db2-9779-3506b95972b1","ios":"levelo://app?vid=5514686a-b854-4db2-9779-3506b95972b1"},"vehicle_type_id":"4","last_reported":1770415951,"current_range_meters":7200,"station_id":"ce4bhmp2rcd13ifvqgog","pricing_plan_id":"cebpf4jnsgd1na2vs0mg"},{"bike_id":"675ec433-caf3-4517-83f9-75769cd57605","system_id":"levelo_inurba_marseille","lat":43.32106,"lon":5.36777,"is_reserved":false,"is_disabled":false,"rental_uris":{"android":"levelo://app?vid=675ec433-caf3-4517-83f9-75769cd57605","ios":"levelo://app?vid=675ec433-caf3-4517-83f9-75769cd57605"},"vehicle_type_id":"4","last_reported":1770415951,"current_range_meters":7200,"station_id":"ce4bhrh2rcd13ifvqhug","pricing_plan_id":"cebpf4jnsgd1na2vs0mg"},{"bike_id":"adfdce83-5160-451d-875c-3c98397c50af","system_id":"levelo_inurba_marseille","lat":43.28482,"lon":5.39068,"is_reserved":false,"is_disabled":false,"rental_uris":{"android":"levelo://app?vid=adfdce83-5160-451d-875c-3c98397c50af","ios":"levelo://app?vid=adfdce83-5160-451d-875c-3c98397c50af"},"vehicle_type_id":"4","last_reported":1770415951,"current_range_meters":7200,"station_id":"","pricing_plan_id":"cebpf4jnsgd1na2vs0mg"},{"bike_id":"98b89a63-b3c9-4748-8f93-0ccb5ab9560d","system_id":"levelo_inurba_marseille","lat":43.2652,"lon":5.37329,"is_reserved":false,"is_disabled":false,"rental_uris":{"android":"levelo://app?vid=98b89a63-b3c9-4748-8f93-0ccb5ab9560d","ios":"levelo://app?vid=98b89a63-b3c9-4748-8f93-0ccb5ab9560d"},"vehicle_type_id":"4","last_reported":1770415951,"current_range_meters":7200,"station_id":"ce4bhg12rcd13ifvqf70","pricing_plan_id":"cebpf4jnsgd1na2vs0mg"},{"bike_id":"731447a5-bd31-4208-aa2f-c0645944403a","system_id":"levelo_inurba_marseille","lat":43.24637,"lon":5.43171,"is_reserved":false,"is_disabled":false,"rental_uris":{"android":"levelo://app?vid=731447a5-bd31-4208-aa2f-c0645944403a","ios":"levelo://app?vid=731447a5-bd31-4208-aa2f-c0645944403a"},"vehicle_type_id":"4","last_reported":1770415951,"current_range_meters":7200,"station_id":"st_d2m6c4gdas8pm72e190g","pricing_plan_id":"cebpf4jnsgd1na2vs0mg"},{"bike_id":"fad63e9f-4937-440f-8e57-00b240287526","system_id":"levelo_inurba_marseille","lat":43.30955,"lon":5.39036,"is_reserved":false,"is_disabled":false,"rental_uris":{"android":"levelo://app?vid=fad63e9f-4937-440f-8e57-00b240287526","ios":"levelo://app?vid=fad63e9f-4937-440f-8e57-00b240287526"},"vehicle_type_id":"4","last_reported":1770415951,"current_range_meters":7200,"station_id":"ce4bgup2rcd13ifvqco0","pricing_plan_id":"cebpf4jnsgd1na2vs0mg"},{"bike_id":"8557b93f-99ee-4ff8-8cf9-3d65eb84928d","system_id":"levelo_inurba_marseille","lat":43.28693,"lon":5.37391,"is_reserved":false,"is_disabled":false,"rental_uris":{"android":"levelo://app?vid=8557b93f-99ee-4ff8-8cf9-3d65eb84928d","ios":"levelo://app?vid=8557b93f-99ee-4ff8-8cf9-3d65eb84928d"},"vehicle_type_id":"4","last_reported":1770415951,"current_range_meters":7200,"station_id":"ce4bh3p2rcd13ifvqdq0","pricing_plan_id":"cebpf4jnsgd1na2vs0mg"},{"bike_id":"43c535fc-7780-46dd-8901-20d00e0466e0","system_id":"levelo_inurba_marseille","lat":43.29542,"lon":5.38553,"is_reserved":false,"is_disabled":false,"rental_uris":{"android":"levelo://app?vid=43c535fc-7780-46dd-8901-20d00e0466e0","ios":"levelo://app?vid=43c535fc-7780-46dd-8901-20d00e0466e0"},"vehicle_type_id":"4","last_reported":1770415951,"current_range_meters":7200,"station_id":"ce4bgih2rcd13ifvqba0","pricing_plan_id":"cebpf4jnsgd1na2vs0mg"},{"bike_id":"3b0243a7-d2ce-4bc6-9d86-9216cc3b3554","system_id":"levelo_inurba_marseille","lat":43.24799,"lon":5.37458,"is_reserved":false,"is_disabled":false,"rental_uris":{"android":"levelo://app?vid=3b0243a7-d2ce-4bc6-9d86-9216cc3b3554","ios":"levelo://app?vid=3b0243a7-d2ce-4bc6-9d86-9216cc3b3554"},"vehicle_type_id":"4","last_reported":1770415951,"current_range_meters":7200,"station_id":"ce4bhgh2rcd13ifvqfb0","pricing_plan_id":"cebpf4jnsgd1na2vs0mg"},{"bike_id":"284013cf-19ac-4bd1-a042-82c10d364635","system_id":"levelo_inurba_marseille","lat":43.27911,"lon":5.39576,"is_reserved":false,"is_disabled":false,"rental_uris":{"android":"levelo://app?vid=284013cf-19ac-4bd1-a042-82c10d364635","ios":"levelo://app?vid=284013cf-19ac-4bd1-a042-82c10d364635"},"vehicle_type_id":"4","last_reported":1770415951,"current_range_meters":7200,"station_id":"ce4bhf92rcd13ifvqf40","pricing_plan_id":"cebpf4jnsgd1na2vs0mg"},{"bike_id":"b53a7d14-2e51-421a-988d-b8ea59b98909","system_id":"levelo_inurba_marseille","lat":43.27375,"lon":5.36248,"is_reserved":false,"is_disabled":false,"rental_uris":{"android":"levelo://app?vid=b53a7d14-2e51-421a-988d-b8ea59b98909","ios":"levelo://app?vid=b53a7d14-2e51-421a-988d-b8ea59b98909"},"vehicle_type_id":"4","last_reported":1770415951,"current_range_meters":7200,"station_id":"ce4bhbh2rcd13ifvqeo0","pricing_plan_id":"cebpf4jnsgd1na2vs0mg"},{"bike_id":"5c52ff99-cf96-4d3c-b47e-85043f37e86c","system_id":"levelo_inurba_marseille","lat":43.26222,"lon":5.37416,"is_reserved":false,"is_disabled":false,"rental_uris":{"android":"levelo://app?vid=5c52ff99-cf96-4d3c-b47e-85043f37e86c","ios":"levelo://app?vid=5c52ff99-cf96-4d3c-b47e-85043f37e86c"},"vehicle_type_id":"4","last_reported":1770415951,"current_range_meters":7200,"station_id":"ce4bhgp2rcd13ifvqfc0","pricing_plan_id":"cebpf4jnsgd1na2vs0mg"},{"bike_id":"2c93a42a-4cfa-4bcc-ae5d-919aa911761b","system_id":"levelo_inurba_marseille","lat":43.2928,"lon":5.38434,"is_reserved":false,"is_disabled":false,"rental_uris":{"android":"levelo://app?vid=2c93a42a-4cfa-4bcc-ae5d-919aa911761b","ios":"levelo://app?vid=2c93a42a-4cfa-4bcc-ae5d-919aa911761b"},"vehicle_type_id":"4","last_reported":1770415951,"current_range_meters":7200,"station_id":"ce4bh692rcd13ifvqea0","pricing_plan_id":"cebpf4jnsgd1na2vs0mg"},{"bike_id":"63c602c3-d230-440b-a9f3-7f914105abcb","system_id":"levelo_inurba_marseille","lat":43.29522,"lon":5.38531,"is_reserved":false,"is_disabled":false,"rental_uris":{"android":"levelo://app?vid=63c602c3-d230-440b-a9f3-7f914105abcb","ios":"levelo://app?vid=63c602c3-d230-440b-a9f3-7f914105abcb"},"vehicle_type_id":"4","last_reported":1770415951,"current_range_meters":7200,"station_id":"ce4bgih2rcd13ifvqba0","pricing_plan_id":"cebpf4jnsgd1na2vs0mg"},{"bike_id":"c65ee838-9f7d-4c27-9ebf-55f173988146","system_id":"levelo_inurba_marseille","lat":43.24823,"lon":5.37458,"is_reserved":false,"is_disabled":false,"rental_uris":{"android":"levelo://app?vid=c65ee838-9f7d-4c27-9ebf-55f173988146","ios":"levelo://app?vid=c65ee838-9f7d-4c27-9ebf-55f173988146"},"vehicle_type_id":"4","last_reported":1770415951,"current_range_meters":7200,"station_id":"ce4bhgh2rcd13ifvqfb0","pricing_plan_id":"cebpf4jnsgd1na2vs0mg"},{"bike_id":"be543e78-58ce-404a-a6cc-33aa07295cd3","system_id":"levelo_inurba_marseille","lat":43.24393,"lon":5.3704,"is_reserved":false,"is_disabled":false,"rental_uris":{"android":"levelo://app?vid=be543e78-58ce-404a-a6cc-33aa07295cd3","ios":"levelo://app?vid=be543e78-58ce-404a-a6cc-33aa07295cd3"},"vehicle_type_id":"4","last_reported":1770415951,"current_range_meters":7200,"station_id":"ce4bhhh2rcd13ifvqfk0","pricing_plan_id":"cebpf4jnsgd1na2vs0mg"},{"bike_id":"29464267-9962-4e36-b637-db87f6ed8cf3","system_id":"levelo_inurba_marseille","lat":43.278082,"lon":5.407044,"is_reserved":false,"is_disabled":false,"rental_uris":{"android":"levelo://app?vid=29464267-9962-4e36-b637-db87f6ed8cf3","ios":"levelo://app?vid=29464267-9962-4e36-b637-db87f6ed8cf3"},"vehicle_type_id":"4","last_reported":1770415951,"current_range_meters":7200,"station_id":"ce4bhnh2rcd13ifvqgtg","pricing_plan_id":"cebpf4jnsgd1na2vs0mg"},{"bike_id":"ae02c0fc-bb3a-441f-883a-97fbe0b35f28","system_id":"levelo_inurba_marseille","lat":43.29054,"lon":5.35924,"is_reserved":false,"is_disabled":false,"rental_uris":{"android":"levelo://app?vid=ae02c0fc-bb3a-441f-883a-97fbe0b35f28","ios":"levelo://app?vid=ae02c0fc-bb3a-441f-883a-97fbe0b35f28"},"vehicle_type_id":"4","last_reported":1770415951,"current_range_meters":7200,"station_id":"ce4bha92rcd13ifvqeg0","pricing_plan_id":"cebpf4jnsgd1na2vs0mg"},{"bike_id":"29554745-e0e5-4276-b587-71d331cae345","system_id":"levelo_inurba_marseille","lat":43.2954,"lon":5.39052,"is_reserved":false,"is_disabled":true,"rental_uris":{"android":"levelo://app?vid=29554745-e0e5-4276-b587-71d331cae345","ios":"levelo://app?vid=29554745-e0e5-4276-b587-71d331cae345"},"vehicle_type_id":"4","last_reported":1770415951,"current_range_meters":7200,"station_id":"ce4bh3p2rcd13ifvqdp0","pricing_plan_id":"cebpf4jnsgd1na2vs0mg"},{"bike_id":"66ac484a-7a0c-4d64-bcea-4a863811aeba","system_id":"levelo_inurba_marseille","lat":43.29916,"lon":5.43716,"is_reserved":false,"is_disabled":true,"rental_uris":{"android":"levelo://app?vid=66ac484a-7a0c-4d64-bcea-4a863811aeba","ios":"levelo://app?vid=66ac484a-7a0c-4d64-bcea-4a863811aeba"},"vehicle_type_id":"4","last_reported":1770415951,"current_range_meters":7200,"station_id":"","pricing_plan_id":"cebpf4jnsgd1na2vs0mg"},{"bike_id":"ecde9447-d2d8-4eed-be47-e39468252cc3","system_id":"levelo_inurba_marseille","lat":43.29811,"lon":5.38107,"is_reserved":false,"is_disabled":false,"rental_uris":{"android":"levelo://app?vid=ecde9447-d2d8-4eed-be47-e39468252cc3","ios":"levelo://app?vid=ecde9447-d2d8-4eed-be47-e39468252cc3"},"vehicle_type_id":"4","last_reported":1770415951,"current_range_meters":7200,"station_id":"ce4bgip2rcd13ifvqbb0","pricing_plan_id":"cebpf4jnsgd1na2vs0mg"},{"bike_id":"efbe792f-1198-41b4-852b-4a2323f0ee78","system_id":"levelo_inurba_marseille","lat":43.24993,"lon":5.38951,"is_reserved":false,"is_disabled":false,"rental_uris":{"android":"levelo://app?vid=efbe792f-1198-41b4-852b-4a2323f0ee78","ios":"levelo://app?vid=efbe792f-1198-41b4-852b-4a2323f0ee78"},"vehicle_type_id":"4","last_reported":1770415951,"current_range_meters":7200,"station_id":"ce4bhgp2rcd13ifvqfd0","pricing_plan_id":"cebpf4jnsgd1na2vs0mg"},{"bike_id":"db42cf65-60d7-4ba0-896a-925a91953562","system_id":"levelo_inurba_marseille","lat":43.27939,"lon":5.41045,"is_reserved":false,"is_disabled":false,"rental_uris":{"android":"levelo://app?vid=db42cf65-60d7-4ba0-896a-925a91953562","ios":"levelo://app?vid=db42cf65-60d7-4ba0-896a-925a91953562"},"vehicle_type_id":"4","last_reported":1770415951,"current_range_meters":8000,"station_id":"ce4bhnp2rcd13ifvqh0g","pricing_plan_id":"cebpf4jnsgd1na2vs0mg"},{"bike_id":"071937d3-6d39-428f-88a6-e135b0e61119","system_id":"levelo_inurba_marseille","lat":43.3106,"lon":5.37156,"is_reserved":false,"is_disabled":false,"rental_uris":{"android":"levelo://app?vid=071937d3-6d39-428f-88a6-e135b0e61119","ios":"levelo://app?vid=071937d3-6d39-428f-88a6-e135b0e61119"},"vehicle_type_id":"4","last_reported":1770415951,"current_range_meters":8000,"station_id":"st_d4kl2rp97mjs73e7tdfg","pricing_plan_id":"cebpf4jnsgd1na2vs0mg"},{"bike_id":"3e8f969f-f505-4cac-b453-01240a0ec1b8","system_id":"levelo_inurba_marseille","lat":43.330296,"lon":5.390351,"is_reserved":false,"is_disabled":false,"rental_uris":{"android":"levelo://app?vid=3e8f969f-f505-4cac-b453-01240a0ec1b8","ios":"levelo://app?vid=3e8f969f-f505-4cac-b453-01240a0ec1b8"},"vehicle_type_id":"4","last_reported":1770415951,"current_range_meters":8000,"station_id":"ce4bhr92rcd13ifvqhrg","pricing_plan_id":"cebpf4jnsgd1na2vs0mg"},{"bike_id":"ad619ee0-99a3-44ca-9244-1a662aeff669","system_id":"levelo_inurba_marseille","lat":43.29035,"lon":5.38663,"is_reserved":false,"is_disabled":false,"rental_uris":{"android":"levelo://app?vid=ad619ee0-99a3-44ca-9244-1a662aeff669","ios":"levelo://app?vid=ad619ee0-99a3-44ca-9244-1a662aeff669"},"vehicle_type_id":"4","last_reported":1770415951,"current_range_meters":8000,"station_id":"ce4bh4p2rcd13ifvqe0g","pricing_plan_id":"cebpf4jnsgd1na2vs0mg"},{"bike_id":"9ac16f6a-c93c-4c54-be11-0bb2a51c5a80","system_id":"levelo_inurba_marseille","lat":43.28727,"lon":5.3609,"is_reserved":false,"is_disabled":false,"rental_uris":{"android":"levelo://app?vid=9ac16f6a-c93c-4c54-be11-0bb2a51c5a80","ios":"levelo://app?vid=9ac16f6a-c93c-4c54-be11-0bb2a51c5a80"},"vehicle_type_id":"4","last_reported":1770415951,"current_range_meters":8000,"station_id":"cki0cbj6b192h4jlfktg","pricing_plan_id":"cebpf4jnsgd1na2vs0mg"},{"bike_id":"9d9ada7e-8bfb-4948-82e1-5314689a8b39","system_id":"levelo_inurba_marseille","lat":43.33541,"lon":5.37461,"is_reserved":false,"is_disabled":false,"rental_uris":{"android":"levelo://app?vid=9d9ada7e-8bfb-4948-82e1-5314689a8b39","ios":"levelo://app?vid=9d9ada7e-8bfb-4948-82e1-5314689a8b39"},"vehicle_type_id":"4","last_reported":1770415951,"current_range_meters":8000,"station_id":"st_d46tts09ee8s73dlu43g","pricing_plan_id":"cebpf4jnsgd1na2vs0mg"},{"bike_id":"7762d7e1-6e63-47b8-b38f-dee5fb5d6c60","system_id":"levelo_inurba_marseille","lat":43.2464,"lon":5.38919,"is_reserved":false,"is_disabled":false,"rental_uris":{"android":"levelo://app?vid=7762d7e1-6e63-47b8-b38f-dee5fb5d6c60","ios":"levelo://app?vid=7762d7e1-6e63-47b8-b38f-dee5fb5d6c60"},"vehicle_type_id":"4","last_reported":1770415951,"current_range_meters":8000,"station_id":"ce4bhg12rcd13ifvqf60","pricing_plan_id":"cebpf4jnsgd1na2vs0mg"},{"bike_id":"a5faf7a6-7f2f-419a-b628-e8f939b70083","system_id":"levelo_inurba_marseille","lat":43.28536,"lon":5.4411,"is_reserved":false,"is_disabled":false,"rental_uris":{"android":"levelo://app?vid=a5faf7a6-7f2f-419a-b628-e8f939b70083","ios":"levelo://app?vid=a5faf7a6-7f2f-419a-b628-e8f939b70083"},"vehicle_type_id":"4","last_reported":1770415951,"current_range_meters":8000,"station_id":"st_d3j3df2ikq2c7380ej80","pricing_plan_id":"cebpf4jnsgd1na2vs0mg"},{"bike_id":"eef7d0ae-7f39-41bf-867c-8a8e8d2a2015","system_id":"levelo_inurba_marseille","lat":43.30418,"lon":5.39763,"is_reserved":false,"is_disabled":true,"rental_uris":{"android":"levelo://app?vid=eef7d0ae-7f39-41bf-867c-8a8e8d2a2015","ios":"levelo://app?vid=eef7d0ae-7f39-41bf-867c-8a8e8d2a2015"},"vehicle_type_id":"4","last_reported":1770415951,"current_range_meters":8000,"station_id":"ce4bh092rcd13ifvqd20","pricing_plan_id":"cebpf4jnsgd1na2vs0mg"},{"bike_id":"651a1f03-9041-47f3-9a0b-971a8399b544","system_id":"levelo_inurba_marseille","lat":43.311881,"lon":5.387062,"is_reserved":false,"is_disabled":true,"rental_uris":{"android":"levelo://app?vid=651a1f03-9041-47f3-9a0b-971a8399b544","ios":"levelo://app?vid=651a1f03-9041-47f3-9a0b-971a8399b544"},"vehicle_type_id":"4","last_reported":1770415951,"current_range_meters":8000,"station_id":"ce4bgv12rcd13ifvqcp0","pricing_plan_id":"cebpf4jnsgd1na2vs0mg"},{"bike_id":"2913c79c-b7eb-4321-8997-bab0de7ccb14","system_id":"levelo_inurba_marseille","lat":43.31699,"lon":5.40451,"is_reserved":false,"is_disabled":false,"rental_uris":{"android":"levelo://app?vid=2913c79c-b7eb-4321-8997-bab0de7ccb14","ios":"levelo://app?vid=2913c79c-b7eb-4321-8997-bab0de7ccb14"},"vehicle_type_id":"4","last_reported":1770415951,"current_range_meters":8000,"station_id":"ce4bh012rcd13ifvqd00","pricing_plan_id":"cebpf4jnsgd1na2vs0mg"},{"bike_id":"f5da9401-db7e-426f-9a0f-2330a30b8658","system_id":"levelo_inurba_marseille","lat":43.24396,"lon":5.37079,"is_reserved":false,"is_disabled":true,"rental_uris":{"android":"levelo://app?vid=f5da9401-db7e-426f-9a0f-2330a30b8658","ios":"levelo://app?vid=f5da9401-db7e-426f-9a0f-2330a30b8658"},"vehicle_type_id":"4","last_reported":1770415951,"current_range_meters":8000,"station_id":"ce4bhhh2rcd13ifvqfk0","pricing_plan_id":"cebpf4jnsgd1na2vs0mg"},{"bike_id":"0c612691-dc2e-4b8c-a828-2dec429e0473","system_id":"levelo_inurba_marseille","lat":43.22911,"lon":5.35427,"is_reserved":false,"is_disabled":false,"rental_uris":{"android":"levelo://app?vid=0c612691-dc2e-4b8c-a828-2dec429e0473","ios":"levelo://app?vid=0c612691-dc2e-4b8c-a828-2dec429e0473"},"vehicle_type_id":"4","last_reported":1770415951,"current_range_meters":8000,"station_id":"cpo3532slgdg3j2ikp40","pricing_plan_id":"cebpf4jnsgd1na2vs0mg"},{"bike_id":"695a138c-9117-4798-9030-e462ffee3fe5","system_id":"levelo_inurba_marseille","lat":43.24812,"lon":5.37459,"is_reserved":false,"is_disabled":false,"rental_uris":{"android":"levelo://app?vid=695a138c-9117-4798-9030-e462ffee3fe5","ios":"levelo://app?vid=695a138c-9117-4798-9030-e462ffee3fe5"},"vehicle_type_id":"4","last_reported":1770415951,"current_range_meters":8000,"station_id":"ce4bhgh2rcd13ifvqfb0","pricing_plan_id":"cebpf4jnsgd1na2vs0mg"},{"bike_id":"2645d702-9780-4155-954e-9ff091dcb668","system_id":"levelo_inurba_marseille","lat":43.24403,"lon":5.37069,"is_reserved":false,"is_disabled":false,"rental_uris":{"android":"levelo://app?vid=2645d702-9780-4155-954e-9ff091dcb668","ios":"levelo://app?vid=2645d702-9780-4155-954e-9ff091dcb668"},"vehicle_type_id":"4","last_reported":1770415951,"current_range_meters":8000,"station_id":"ce4bhhh2rcd13ifvqfk0","pricing_plan_id":"cebpf4jnsgd1na2vs0mg"},{"bike_id":"346787f4-b208-43b3-a13c-6d535139ef57","system_id":"levelo_inurba_marseille","lat":43.29903,"lon":5.43663,"is_reserved":false,"is_disabled":false,"rental_uris":{"android":"levelo://app?vid=346787f4-b208-43b3-a13c-6d535139ef57","ios":"levelo://app?vid=346787f4-b208-43b3-a13c-6d535139ef57"},"vehicle_type_id":"4","last_reported":1770415951,"current_range_meters":8400,"station_id":"ce4bhpp2rcd13ifvqhfg","pricing_plan_id":"cebpf4jnsgd1na2vs0mg"},{"bike_id":"a974f125-46b6-492b-a0bb-f810fede54b4","system_id":"levelo_inurba_marseille","lat":43.28945,"lon":5.36394,"is_reserved":false,"is_disabled":false,"rental_uris":{"android":"levelo://app?vid=a974f125-46b6-492b-a0bb-f810fede54b4","ios":"levelo://app?vid=a974f125-46b6-492b-a0bb-f810fede54b4"},"vehicle_type_id":"4","last_reported":1770415951,"current_range_meters":8400,"station_id":"ce4bhc92rcd13ifvqetg","pricing_plan_id":"cebpf4jnsgd1na2vs0mg"},{"bike_id":"c83db4e2-15a7-4fa6-a03a-6d3ac9b5fffa","system_id":"levelo_inurba_marseille","lat":43.29289,"lon":5.368451,"is_reserved":false,"is_disabled":false,"rental_uris":{"android":"levelo://app?vid=c83db4e2-15a7-4fa6-a03a-6d3ac9b5fffa","ios":"levelo://app?vid=c83db4e2-15a7-4fa6-a03a-6d3ac9b5fffa"},"vehicle_type_id":"4","last_reported":1770415951,"current_range_meters":8400,"station_id":"ce4bhbp2rcd13ifvqesg","pricing_plan_id":"cebpf4jnsgd1na2vs0mg"},{"bike_id":"b452312e-737f-434c-b769-ea0fe5fddd6b","system_id":"levelo_inurba_marseille","lat":43.30922,"lon":5.40145,"is_reserved":false,"is_disabled":false,"rental_uris":{"android":"levelo://app?vid=b452312e-737f-434c-b769-ea0fe5fddd6b","ios":"levelo://app?vid=b452312e-737f-434c-b769-ea0fe5fddd6b"},"vehicle_type_id":"4","last_reported":1770415951,"current_range_meters":8400,"station_id":"ce4bgvp2rcd13ifvqct0","pricing_plan_id":"cebpf4jnsgd1na2vs0mg"},{"bike_id":"47043057-0306-45df-a6a6-65b83d02c38c","system_id":"levelo_inurba_marseille","lat":43.295282,"lon":5.38532,"is_reserved":false,"is_disabled":false,"rental_uris":{"android":"levelo://app?vid=47043057-0306-45df-a6a6-65b83d02c38c","ios":"levelo://app?vid=47043057-0306-45df-a6a6-65b83d02c38c"},"vehicle_type_id":"4","last_reported":1770415951,"current_range_meters":8400,"station_id":"ce4bgih2rcd13ifvqba0","pricing_plan_id":"cebpf4jnsgd1na2vs0mg"},{"bike_id":"1d0ef12e-4bb8-4d8d-9509-0260b1aa5347","system_id":"levelo_inurba_marseille","lat":43.24391,"lon":5.37056,"is_reserved":false,"is_disabled":false,"rental_uris":{"android":"levelo://app?vid=1d0ef12e-4bb8-4d8d-9509-0260b1aa5347","ios":"levelo://app?vid=1d0ef12e-4bb8-4d8d-9509-0260b1aa5347"},"vehicle_type_id":"4","last_reported":1770415951,"current_range_meters":8400,"station_id":"ce4bhhh2rcd13ifvqfk0","pricing_plan_id":"cebpf4jnsgd1na2vs0mg"},{"bike_id":"9c6a8984-8ee8-4ae5-a2ee-ca73b9867831","system_id":"levelo_inurba_marseille","lat":43.29936,"lon":5.36533,"is_reserved":false,"is_disabled":false,"rental_uris":{"android":"levelo://app?vid=9c6a8984-8ee8-4ae5-a2ee-ca73b9867831","ios":"levelo://app?vid=9c6a8984-8ee8-4ae5-a2ee-ca73b9867831"},"vehicle_type_id":"4","last_reported":1770415951,"current_range_meters":8400,"station_id":"ce4bgm92rcd13ifvqbr0","pricing_plan_id":"cebpf4jnsgd1na2vs0mg"},{"bike_id":"0787aab0-cce8-4a0e-abb2-fb72550373e2","system_id":"levelo_inurba_marseille","lat":43.295271,"lon":5.385444,"is_reserved":false,"is_disabled":false,"rental_uris":{"android":"levelo://app?vid=0787aab0-cce8-4a0e-abb2-fb72550373e2","ios":"levelo://app?vid=0787aab0-cce8-4a0e-abb2-fb72550373e2"},"vehicle_type_id":"4","last_reported":1770415951,"current_range_meters":8400,"station_id":"ce4bgih2rcd13ifvqba0","pricing_plan_id":"cebpf4jnsgd1na2vs0mg"},{"bike_id":"435bebd3-85eb-48e8-a27c-47cf8c020b08","system_id":"levelo_inurba_marseille","lat":43.28962,"lon":5.3841,"is_reserved":false,"is_disabled":false,"rental_uris":{"android":"levelo://app?vid=435bebd3-85eb-48e8-a27c-47cf8c020b08","ios":"levelo://app?vid=435bebd3-85eb-48e8-a27c-47cf8c020b08"},"vehicle_type_id":"4","last_reported":1770415951,"current_range_meters":8400,"station_id":"ce4bh612rcd13ifvqe6g","pricing_plan_id":"cebpf4jnsgd1na2vs0mg"},{"bike_id":"c6f3c761-de0f-456d-aad1-843601547135","system_id":"levelo_inurba_marseille","lat":43.28404,"lon":5.34961,"is_reserved":false,"is_disabled":false,"rental_uris":{"android":"levelo://app?vid=c6f3c761-de0f-456d-aad1-843601547135","ios":"levelo://app?vid=c6f3c761-de0f-456d-aad1-843601547135"},"vehicle_type_id":"4","last_reported":1770415951,"current_range_meters":8400,"station_id":"ce4bhbh2rcd13ifvqepg","pricing_plan_id":"cebpf4jnsgd1na2vs0mg"},{"bike_id":"b7017113-de85-4ca5-821f-65650781faf2","system_id":"levelo_inurba_marseille","lat":43.291667,"lon":5.371552,"is_reserved":false,"is_disabled":false,"rental_uris":{"android":"levelo://app?vid=b7017113-de85-4ca5-821f-65650781faf2","ios":"levelo://app?vid=b7017113-de85-4ca5-821f-65650781faf2"},"vehicle_type_id":"4","last_reported":1770415951,"current_range_meters":8400,"station_id":"ce4bha92rcd13ifvqeh0","pricing_plan_id":"cebpf4jnsgd1na2vs0mg"},{"bike_id":"e23ca2c4-052c-4fbb-b451-6d946b140f42","system_id":"levelo_inurba_marseille","lat":43.27943,"lon":5.41043,"is_reserved":false,"is_disabled":false,"rental_uris":{"android":"levelo://app?vid=e23ca2c4-052c-4fbb-b451-6d946b140f42","ios":"levelo://app?vid=e23ca2c4-052c-4fbb-b451-6d946b140f42"},"vehicle_type_id":"4","last_reported":1770415951,"current_range_meters":8400,"station_id":"ce4bhnp2rcd13ifvqh0g","pricing_plan_id":"cebpf4jnsgd1na2vs0mg"},{"bike_id":"94902299-c5ab-4602-a698-1ca4498122f1","system_id":"levelo_inurba_marseille","lat":43.279938,"lon":5.400015,"is_reserved":false,"is_disabled":false,"rental_uris":{"android":"levelo://app?vid=94902299-c5ab-4602-a698-1ca4498122f1","ios":"levelo://app?vid=94902299-c5ab-4602-a698-1ca4498122f1"},"vehicle_type_id":"4","last_reported":1770415951,"current_range_meters":8400,"station_id":"ce4bho92rcd13ifvqh4g","pricing_plan_id":"cebpf4jnsgd1na2vs0mg"},{"bike_id":"b0c3d441-fa9a-4312-858a-e0f5eaf46fd5","system_id":"levelo_inurba_marseille","lat":43.321,"lon":5.36771,"is_reserved":false,"is_disabled":false,"rental_uris":{"android":"levelo://app?vid=b0c3d441-fa9a-4312-858a-e0f5eaf46fd5","ios":"levelo://app?vid=b0c3d441-fa9a-4312-858a-e0f5eaf46fd5"},"vehicle_type_id":"4","last_reported":1770415951,"current_range_meters":8400,"station_id":"ce4bhrh2rcd13ifvqhug","pricing_plan_id":"cebpf4jnsgd1na2vs0mg"},{"bike_id":"cda2ace2-3282-4f4f-a051-3f7a3fad5177","system_id":"levelo_inurba_marseille","lat":43.239763,"lon":5.366505,"is_reserved":false,"is_disabled":false,"rental_uris":{"android":"levelo://app?vid=cda2ace2-3282-4f4f-a051-3f7a3fad5177","ios":"levelo://app?vid=cda2ace2-3282-4f4f-a051-3f7a3fad5177"},"vehicle_type_id":"4","last_reported":1770415951,"current_range_meters":8400,"station_id":"ce4bhi12rcd13ifvqfp0","pricing_plan_id":"cebpf4jnsgd1na2vs0mg"},{"bike_id":"4c2b4b6a-a466-45ed-8a84-7e0dbc6887b9","system_id":"levelo_inurba_marseille","lat":43.310393,"lon":5.371737,"is_reserved":false,"is_disabled":false,"rental_uris":{"android":"levelo://app?vid=4c2b4b6a-a466-45ed-8a84-7e0dbc6887b9","ios":"levelo://app?vid=4c2b4b6a-a466-45ed-8a84-7e0dbc6887b9"},"vehicle_type_id":"4","last_reported":1770415951,"current_range_meters":8400,"station_id":"st_d4kl2rp97mjs73e7tdfg","pricing_plan_id":"cebpf4jnsgd1na2vs0mg"},{"bike_id":"cc0854c4-2846-4cf0-a9d4-c9e172cfb417","system_id":"levelo_inurba_marseille","lat":43.28278,"lon":5.35103,"is_reserved":false,"is_disabled":false,"rental_uris":{"android":"levelo://app?vid=cc0854c4-2846-4cf0-a9d4-c9e172cfb417","ios":"levelo://app?vid=cc0854c4-2846-4cf0-a9d4-c9e172cfb417"},"vehicle_type_id":"4","last_reported":1770415951,"current_range_meters":8400,"station_id":"ce4bhbp2rcd13ifvqerg","pricing_plan_id":"cebpf4jnsgd1na2vs0mg"},{"bike_id":"201f6352-371e-467b-893f-40336ddb443b","system_id":"levelo_inurba_marseille","lat":43.29286,"lon":5.38444,"is_reserved":false,"is_disabled":false,"rental_uris":{"android":"levelo://app?vid=201f6352-371e-467b-893f-40336ddb443b","ios":"levelo://app?vid=201f6352-371e-467b-893f-40336ddb443b"},"vehicle_type_id":"4","last_reported":1770415951,"current_range_meters":8400,"station_id":"ce4bh692rcd13ifvqea0","pricing_plan_id":"cebpf4jnsgd1na2vs0mg"},{"bike_id":"036b20d6-cc47-401d-8019-59279affa9e2","system_id":"levelo_inurba_marseille","lat":43.299647,"lon":5.384902,"is_reserved":false,"is_disabled":true,"rental_uris":{"android":"levelo://app?vid=036b20d6-cc47-401d-8019-59279affa9e2","ios":"levelo://app?vid=036b20d6-cc47-401d-8019-59279affa9e2"},"vehicle_type_id":"4","last_reported":1770415951,"current_range_meters":8400,"station_id":"","pricing_plan_id":"cebpf4jnsgd1na2vs0mg"},{"bike_id":"ca56e68f-7e24-4681-a422-a463b8716c7e","system_id":"levelo_inurba_marseille","lat":43.28604,"lon":5.37062,"is_reserved":false,"is_disabled":false,"rental_uris":{"android":"levelo://app?vid=ca56e68f-7e24-4681-a422-a463b8716c7e","ios":"levelo://app?vid=ca56e68f-7e24-4681-a422-a463b8716c7e"},"vehicle_type_id":"4","last_reported":1770415951,"current_range_meters":8400,"station_id":"ce4bht12rcd13ifvqi60","pricing_plan_id":"cebpf4jnsgd1na2vs0mg"},{"bike_id":"596e8b7d-7cb7-4bce-bed5-c069c5df7df0","system_id":"levelo_inurba_marseille","lat":43.24177,"lon":5.36403,"is_reserved":false,"is_disabled":false,"rental_uris":{"android":"levelo://app?vid=596e8b7d-7cb7-4bce-bed5-c069c5df7df0","ios":"levelo://app?vid=596e8b7d-7cb7-4bce-bed5-c069c5df7df0"},"vehicle_type_id":"4","last_reported":1770415951,"current_range_meters":8400,"station_id":"cpo36qri1sfpv3e86is0","pricing_plan_id":"cebpf4jnsgd1na2vs0mg"},{"bike_id":"f03e6b25-e7f3-4f2b-a805-6821fd5164b7","system_id":"levelo_inurba_marseille","lat":43.28467,"lon":5.38433,"is_reserved":false,"is_disabled":true,"rental_uris":{"android":"levelo://app?vid=f03e6b25-e7f3-4f2b-a805-6821fd5164b7","ios":"levelo://app?vid=f03e6b25-e7f3-4f2b-a805-6821fd5164b7"},"vehicle_type_id":"4","last_reported":1770415951,"current_range_meters":8400,"station_id":"ce4bh512rcd13ifvqe3g","pricing_plan_id":"cebpf4jnsgd1na2vs0mg"},{"bike_id":"22a18f5a-e84b-4706-acdf-fdede8aeea20","system_id":"levelo_inurba_marseille","lat":43.2587,"lon":5.39909,"is_reserved":false,"is_disabled":false,"rental_uris":{"android":"levelo://app?vid=22a18f5a-e84b-4706-acdf-fdede8aeea20","ios":"levelo://app?vid=22a18f5a-e84b-4706-acdf-fdede8aeea20"},"vehicle_type_id":"4","last_reported":1770415951,"current_range_meters":8400,"station_id":"ce4bhl92rcd13ifvqghg","pricing_plan_id":"cebpf4jnsgd1na2vs0mg"},{"bike_id":"4e768b9d-ac09-4aa9-91e9-f26739b610c9","system_id":"levelo_inurba_marseille","lat":43.23797,"lon":5.36638,"is_reserved":false,"is_disabled":false,"rental_uris":{"android":"levelo://app?vid=4e768b9d-ac09-4aa9-91e9-f26739b610c9","ios":"levelo://app?vid=4e768b9d-ac09-4aa9-91e9-f26739b610c9"},"vehicle_type_id":"4","last_reported":1770415951,"current_range_meters":8400,"station_id":"st_d3nk18o9ro0c73en2l3g","pricing_plan_id":"cebpf4jnsgd1na2vs0mg"},{"bike_id":"bb454300-9af5-4f97-bf20-719b8c1f1b1e","system_id":"levelo_inurba_marseille","lat":43.29033,"lon":5.38654,"is_reserved":false,"is_disabled":false,"rental_uris":{"android":"levelo://app?vid=bb454300-9af5-4f97-bf20-719b8c1f1b1e","ios":"levelo://app?vid=bb454300-9af5-4f97-bf20-719b8c1f1b1e"},"vehicle_type_id":"4","last_reported":1770415951,"current_range_meters":8400,"station_id":"ce4bh4p2rcd13ifvqe0g","pricing_plan_id":"cebpf4jnsgd1na2vs0mg"},{"bike_id":"762d17af-af27-45ae-8011-3c290ff80fd9","system_id":"levelo_inurba_marseille","lat":43.24156,"lon":5.36448,"is_reserved":false,"is_disabled":false,"rental_uris":{"android":"levelo://app?vid=762d17af-af27-45ae-8011-3c290ff80fd9","ios":"levelo://app?vid=762d17af-af27-45ae-8011-3c290ff80fd9"},"vehicle_type_id":"4","last_reported":1770415951,"current_range_meters":8400,"station_id":"cpo36qri1sfpv3e86is0","pricing_plan_id":"cebpf4jnsgd1na2vs0mg"},{"bike_id":"07569cbf-2a7a-4124-bac7-d7124dc408c4","system_id":"levelo_inurba_marseille","lat":43.28032,"lon":5.36935,"is_reserved":false,"is_disabled":false,"rental_uris":{"android":"levelo://app?vid=07569cbf-2a7a-4124-bac7-d7124dc408c4","ios":"levelo://app?vid=07569cbf-2a7a-4124-bac7-d7124dc408c4"},"vehicle_type_id":"4","last_reported":1770415951,"current_range_meters":8800,"station_id":"ce4bha12rcd13ifvqef0","pricing_plan_id":"cebpf4jnsgd1na2vs0mg"},{"bike_id":"2e03d4d7-88ca-4991-bee2-f08d03270792","system_id":"levelo_inurba_marseille","lat":43.24634,"lon":5.43151,"is_reserved":false,"is_disabled":false,"rental_uris":{"android":"levelo://app?vid=2e03d4d7-88ca-4991-bee2-f08d03270792","ios":"levelo://app?vid=2e03d4d7-88ca-4991-bee2-f08d03270792"},"vehicle_type_id":"4","last_reported":1770415951,"current_range_meters":8800,"station_id":"st_d2m6c4gdas8pm72e190g","pricing_plan_id":"cebpf4jnsgd1na2vs0mg"},{"bike_id":"b8b2022f-ad53-43bd-a0da-20d6c0c24249","system_id":"levelo_inurba_marseille","lat":43.262085,"lon":5.374292,"is_reserved":false,"is_disabled":false,"rental_uris":{"android":"levelo://app?vid=b8b2022f-ad53-43bd-a0da-20d6c0c24249","ios":"levelo://app?vid=b8b2022f-ad53-43bd-a0da-20d6c0c24249"},"vehicle_type_id":"4","last_reported":1770415951,"current_range_meters":8800,"station_id":"ce4bhgp2rcd13ifvqfc0","pricing_plan_id":"cebpf4jnsgd1na2vs0mg"},{"bike_id":"07fe9fa6-8ba5-4426-9dc7-81b5cb2cb051","system_id":"levelo_inurba_marseille","lat":43.26571,"lon":5.40317,"is_reserved":false,"is_disabled":false,"rental_uris":{"android":"levelo://app?vid=07fe9fa6-8ba5-4426-9dc7-81b5cb2cb051","ios":"levelo://app?vid=07fe9fa6-8ba5-4426-9dc7-81b5cb2cb051"},"vehicle_type_id":"4","last_reported":1770415951,"current_range_meters":8800,"station_id":"ce4bhmp2rcd13ifvqgng","pricing_plan_id":"cebpf4jnsgd1na2vs0mg"},{"bike_id":"2b5917d1-eccd-4894-95da-44529f2fefa8","system_id":"levelo_inurba_marseille","lat":43.28661,"lon":5.38633,"is_reserved":false,"is_disabled":false,"rental_uris":{"android":"levelo://app?vid=2b5917d1-eccd-4894-95da-44529f2fefa8","ios":"levelo://app?vid=2b5917d1-eccd-4894-95da-44529f2fefa8"},"vehicle_type_id":"4","last_reported":1770415951,"current_range_meters":8800,"station_id":"ce4bh492rcd13ifvqdug","pricing_plan_id":"cebpf4jnsgd1na2vs0mg"},{"bike_id":"1d300b7f-3017-48d2-939a-4f62cc472f6f","system_id":"levelo_inurba_marseille","lat":43.30469,"lon":5.37892,"is_reserved":false,"is_disabled":false,"rental_uris":{"android":"levelo://app?vid=1d300b7f-3017-48d2-939a-4f62cc472f6f","ios":"levelo://app?vid=1d300b7f-3017-48d2-939a-4f62cc472f6f"},"vehicle_type_id":"4","last_reported":1770415951,"current_range_meters":8800,"station_id":"ce4bgup2rcd13ifvqcn0","pricing_plan_id":"cebpf4jnsgd1na2vs0mg"},{"bike_id":"b19876aa-88fe-4c52-b3cb-d5483e8e513e","system_id":"levelo_inurba_marseille","lat":43.31189,"lon":5.38724,"is_reserved":false,"is_disabled":false,"rental_uris":{"android":"levelo://app?vid=b19876aa-88fe-4c52-b3cb-d5483e8e513e","ios":"levelo://app?vid=b19876aa-88fe-4c52-b3cb-d5483e8e513e"},"vehicle_type_id":"4","last_reported":1770415951,"current_range_meters":8800,"station_id":"ce4bgv12rcd13ifvqcp0","pricing_plan_id":"cebpf4jnsgd1na2vs0mg"},{"bike_id":"4553b9ae-95be-4d03-9d86-2a4c79a4ffcc","system_id":"levelo_inurba_marseille","lat":43.28911,"lon":5.39844,"is_reserved":false,"is_disabled":false,"rental_uris":{"android":"levelo://app?vid=4553b9ae-95be-4d03-9d86-2a4c79a4ffcc","ios":"levelo://app?vid=4553b9ae-95be-4d03-9d86-2a4c79a4ffcc"},"vehicle_type_id":"4","last_reported":1770415951,"current_range_meters":8800,"station_id":"","pricing_plan_id":"cebpf4jnsgd1na2vs0mg"},{"bike_id":"073c695c-03e3-41c0-bbc8-7b47aac572e6","system_id":"levelo_inurba_marseille","lat":43.29269,"lon":5.40127,"is_reserved":false,"is_disabled":false,"rental_uris":{"android":"levelo://app?vid=073c695c-03e3-41c0-bbc8-7b47aac572e6","ios":"levelo://app?vid=073c695c-03e3-41c0-bbc8-7b47aac572e6"},"vehicle_type_id":"4","last_reported":1770415951,"current_range_meters":8800,"station_id":"ce4bh312rcd13ifvqdk0","pricing_plan_id":"cebpf4jnsgd1na2vs0mg"},{"bike_id":"b805cbda-0bcb-43b5-8f11-56fc15ee2f84","system_id":"levelo_inurba_marseille","lat":43.26199,"lon":5.37433,"is_reserved":false,"is_disabled":false,"rental_uris":{"android":"levelo://app?vid=b805cbda-0bcb-43b5-8f11-56fc15ee2f84","ios":"levelo://app?vid=b805cbda-0bcb-43b5-8f11-56fc15ee2f84"},"vehicle_type_id":"4","last_reported":1770415951,"current_range_meters":8800,"station_id":"ce4bhgp2rcd13ifvqfc0","pricing_plan_id":"cebpf4jnsgd1na2vs0mg"},{"bike_id":"d3ddcb74-836d-4429-ae73-de68cc7dfa2e","system_id":"levelo_inurba_marseille","lat":43.29535,"lon":5.38534,"is_reserved":false,"is_disabled":false,"rental_uris":{"android":"levelo://app?vid=d3ddcb74-836d-4429-ae73-de68cc7dfa2e","ios":"levelo://app?vid=d3ddcb74-836d-4429-ae73-de68cc7dfa2e"},"vehicle_type_id":"4","last_reported":1770415951,"current_range_meters":8800,"station_id":"ce4bgih2rcd13ifvqba0","pricing_plan_id":"cebpf4jnsgd1na2vs0mg"},