{"last_updated":1702717571,"ttl":30,"version":"2.2","data":{"bikes":[{"bike_id":"49cac485-5c8f-4da3-ade9-bf9c51ece19b","system_id":"levelo_inurba_marseille","lat":43.312239,"lon":5.368562,"is_reserved":false,"is_disabled":false,"rental_uris":{"android":"levelo://app?vid=49cac485-5c8f-4da3-ade9-bf9c51ece19b","ios":"levelo://app?vid=49cac485-5c8f-4da3-ade9-bf9c51ece19b"},"vehicle_type_id":"4","last_reported":1702717571,"current_range_meters":19600,"station_id":"ce4bgl92rcd13ifvqbq0","pricing_plan_id":"free"},{"bike_id":"8417bed0-f08b-4048-a4ee-10626c71eb9b","system_id":"levelo_inurba_marseille","lat":43.312239,"lon":5.368562,"is_reserved":false,"is_disabled":false,"rental_uris":{"android":"levelo://app?vid=8417bed0-f08b-4048-a4ee-10626c71eb9b","ios":"levelo://app?vid=8417bed0-f08b-4048-a4ee-10626c71eb9b"},"vehicle_type_id":"4","last_reported":1702717571,"current_range_meters":26400,"station_id":"ce4bgl92rcd13ifvqbq0","pricing_plan_id":"free"},{"bike_id":"1d93e301-3337-44fe-b9c0-7cef80eb0e8f","system_id":"levelo_inurba_marseille","lat":43.309076,"lon":5.368465,"is_reserved":false,"is_disabled":false,"rental_uris":{"android":"levelo://app?vid=1d93e301-3337-44fe-b9c0-7cef80eb0e8f","ios":"levelo://app?vid=1d93e301-3337-44fe-b9c0-7cef80eb0e8f"},"vehicle_type_id":"4","last_reported":1702717571,"current_range_meters":25600,"station_id":"ce4bgn92rcd13ifvqbvg","pricing_plan_id":"free"},{"bike_id":"d33f367f-c488-4341-a51b-59fdf8e6519e","system_id":"levelo_inurba_marseille","lat":43.314811,"lon":5.373103,"is_reserved":false,"is_disabled":false,"rental_uris":{"android":"levelo://app?vid=d33f367f-c488-4341-a51b-59fdf8e6519e","ios":"levelo://app?vid=d33f367f-c488-4341-a51b-59fdf8e6519e"},"vehicle_type_id":"4","last_reported":1702717571,"current_range_meters":27200,"station_id":"ce4bgt12rcd13ifvqcd0","pricing_plan_id":"free"},{"bike_id":"2628431f-da41-45b9-bb5b-b864794506d1","system_id":"levelo_inurba_marseille","lat":43.314297,"lon":5.373373,"is_reserved":false,"is_disabled":false,"rental_uris":{"android":"levelo://app?vid=2628431f-da41-45b9-bb5b-b864794506d1","ios":"levelo://app?vid=2628431f-da41-45b9-bb5b-b864794506d1"},"vehicle_type_id":"4","last_reported":1702717571,"current_range_meters":3200,"station_id":"","pricing_plan_id":"free"},{"bike_id":"da30b174-1c4f-4e80-89a2-49c33406886a","system_id":"levelo_inurba_marseille","lat":43.309039,"lon":5.371797,"is_reserved":false,"is_disabled":false,"rental_uris":{"android":"levelo://app?vid=da30b174-1c4f-4e80-89a2-49c33406886a","ios":"levelo://app?vid=da30b174-1c4f-4e80-89a2-49c33406886a"},"vehicle_type_id":"4","last_reported":1702717571,"current_range_meters":25200,"station_id":"ce4bguh2rcd13ifvqckg","pricing_plan_id":"free"},{"bike_id":"115225e0-b2c3-48fd-9ecf-55f4100d1bfc","system_id":"levelo_inurba_marseille","lat":43.309039,"lon":5.371797,"is_reserved":false,"is_disabled":false,"rental_uris":{"android":"levelo://app?vid=115225e0-b2c3-48fd-9ecf-55f4100d1bfc","ios":"levelo://app?vid=115225e0-b2c3-48fd-9ecf-55f4100d1bfc"},"vehicle_type_id":"4","last_reported":1702717571,"current_range_meters":31600,"station_id":"ce4bguh2rcd13ifvqckg","pricing_plan_id":"free"},{"bike_id":"3f8b821f-e430-4a35-bf14-f8b6e777ea11","system_id":"levelo_inurba_marseille","lat":43.313939,"lon":5.375306,"is_reserved":false,"is_disabled":false,"rental_uris":{"android":"levelo://app?vid=3f8b821f-e430-4a35-bf14-f8b6e777ea11","ios":"levelo://app?vid=3f8b821f-e430-4a35-bf14-f8b6e777ea11"},"vehicle_type_id":"4","last_reported":1702717571,"current_range_meters":0,"station_id":"","pricing_plan_id":"free"},{"bike_id":"890dd802-02d4-4f5a-8cf0-aaa1e75ad0ea","system_id":"levelo_inurba_marseille","lat":43.305712,"lon":5.365641,"is_reserved":false,"is_disabled":false,"rental_uris":{"android":"levelo://app?vid=890dd802-02d4-4f5a-8cf0-aaa1e75ad0ea","ios":"levelo://app?vid=890dd802-02d4-4f5a-8cf0-aaa1e75ad0ea"},"vehicle_type_id":"4","last_reported":1702717571,"current_range_meters":28000,"station_id":"ce4bgs12rcd13ifvqcag","pricing_plan_id":"free"},{"bike_id":"48a8644b-4648-4c6b-a49b-1f4356fd700f","system_id":"levelo_inurba_marseille","lat":43.305712,"lon":5.365641,"is_reserved":false,"is_disabled":false,"rental_uris":{"android":"levelo://app?vid=48a8644b-4648-4c6b-a49b-1f4356fd700f","ios":"levelo://app?vid=48a8644b-4648-4c6b-a49b-1f4356fd700f"},"vehicle_type_id":"4","last_reported":1702717571,"current_range_meters":29200,"station_id":"ce4bgs12rcd13ifvqcag","pricing_plan_id":"free"},{"bike_id":"e37e23b7-7834-4c2d-91eb-9a8e5af24a55","system_id":"levelo_inurba_marseille","lat":43.305712,"lon":5.365641,"is_reserved":false,"is_disabled":false,"rental_uris":{"android":"levelo://app?vid=e37e23b7-7834-4c2d-91eb-9a8e5af24a55","ios":"levelo://app?vid=e37e23b7-7834-4c2d-91eb-9a8e5af24a55"},"vehicle_type_id":"4","last_reported":1702717571,"current_range_meters":29200,"station_id":"ce4bgs12rcd13ifvqcag","pricing_plan_id":"free"},{"bike_id":"12c32355-7746-4f4c-b404-f7aa9cc47f6c","system_id":"levelo_inurba_marseille","lat":43.30537,"lon":5.367,"is_reserved":false,"is_disabled":false,"rental_uris":{"android":"levelo://app?vid=12c32355-7746-4f4c-b404-f7aa9cc47f6c","ios":"levelo://app?vid=12c32355-7746-4f4c-b404-f7aa9cc47f6c"},"vehicle_type_id":"4","last_reported":1702717571,"current_range_meters":28800,"station_id":"ce4bgrp2rcd13ifvqc9g","pricing_plan_id":"free"},{"bike_id":"2386b78f-fa6a-47c4-aafe-2f9c837df8bb","system_id":"levelo_inurba_marseille","lat":43.305706,"lon":5.365654,"is_reserved":false,"is_disabled":false,"rental_uris":{"android":"levelo://app?vid=2386b78f-fa6a-47c4-aafe-2f9c837df8bb","ios":"levelo://app?vid=2386b78f-fa6a-47c4-aafe-2f9c837df8bb"},"vehicle_type_id":"4","last_reported":1702717571,"current_range_meters":28400,"station_id":"ce4bgs12rcd13ifvqcag","pricing_plan_id":"free"},{"bike_id":"17bd3303-aa02-4013-82af-58f2652162c1","system_id":"levelo_inurba_marseille","lat":43.305706,"lon":5.365654,"is_reserved":false,"is_disabled":false,"rental_uris":{"android":"levelo://app?vid=17bd3303-aa02-4013-82af-58f2652162c1","ios":"levelo://app?vid=17bd3303-aa02-4013-82af-58f2652162c1"},"vehicle_type_id":"4","last_reported":1702717571,"current_range_meters":28800,"station_id":"ce4bgs12rcd13ifvqcag","pricing_plan_id":"free"},{"bike_id":"7cd97a8f-948a-43b9-8b30-8710a955902f","system_id":"levelo_inurba_marseille","lat":43.3054,"lon":5.36528,"is_reserved":false,"is_disabled":false,"rental_uris":{"android":"levelo://app?vid=7cd97a8f-948a-43b9-8b30-8710a955902f","ios":"levelo://app?vid=7cd97a8f-948a-43b9-8b30-8710a955902f"},"vehicle_type_id":"4","last_reported":1702717571,"current_range_meters":30000,"station_id":"ce4bgs12rcd13ifvqcag","pricing_plan_id":"free"},{"bike_id":"955e4ab2-16e5-44e8-a986-a2f50ff96c06","system_id":"levelo_inurba_marseille","lat":43.305382,"lon":5.365389,"is_reserved":false,"is_disabled":false,"rental_uris":{"android":"levelo://app?vid=955e4ab2-16e5-44e8-a986-a2f50ff96c06","ios":"levelo://app?vid=955e4ab2-16e5-44e8-a986-a2f50ff96c06"},"vehicle_type_id":"4","last_reported":1702717571,"current_range_meters":16000,"station_id":"","pricing_plan_id":"free"},{"bike_id":"d8a37f33-0757-4c8f-a447-804073f02918","system_id":"levelo_inurba_marseille","lat":43.305706,"lon":5.365654,"is_reserved":false,"is_disabled":false,"rental_uris":{"android":"levelo://app?vid=d8a37f33-0757-4c8f-a447-804073f02918","ios":"levelo://app?vid=d8a37f33-0757-4c8f-a447-804073f02918"},"vehicle_type_id":"4","last_reported":1702717571,"current_range_meters":15200,"station_id":"ce4bgs12rcd13ifvqcag","pricing_plan_id":"free"},{"bike_id":"439d7f52-2b84-454c-a8fb-59d19036981b","system_id":"levelo_inurba_marseille","lat":43.305706,"lon":5.365654,"is_reserved":false,"is_disabled":false,"rental_uris":{"android":"levelo://app?vid=439d7f52-2b84-454c-a8fb-59d19036981b","ios":"levelo://app?vid=439d7f52-2b84-454c-a8fb-59d19036981b"},"vehicle_type_id":"4","last_reported":1702717571,"current_range_meters":22400,"station_id":"ce4bgs12rcd13ifvqcag","pricing_plan_id":"free"},{"bike_id":"2cf38736-5162-4ed8-8ba6-39709262172a","system_id":"levelo_inurba_marseille","lat":43.305706,"lon":5.365654,"is_reserved":false,"is_disabled":false,"rental_uris":{"android":"levelo://app?vid=2cf38736-5162-4ed8-8ba6-39709262172a","ios":"levelo://app?vid=2cf38736-5162-4ed8-8ba6-39709262172a"},"vehicle_type_id":"4","last_reported":1702717571,"current_range_meters":30000,"station_id":"ce4bgs12rcd13ifvqcag","pricing_plan_id":"free"},{"bike_id":"77bb4192-0079-476c-82f6-7c18e34e71e4","system_id":"levelo_inurba_marseille","lat":43.305706,"lon":5.365654,"is_reserved":false,"is_disabled":false,"rental_uris":{"android":"levelo://app?vid=77bb4192-0079-476c-82f6-7c18e34e71e4","ios":"levelo://app?vid=77bb4192-0079-476c-82f6-7c18e34e71e4"},"vehicle_type_id":"4","last_reported":1702717571,"current_range_meters":31200,"station_id":"ce4bgs12rcd13ifvqcag","pricing_plan_id":"free"},{"bike_id":"8ab71366-54ca-4726-9b32-f34a44413829","system_id":"levelo_inurba_marseille","lat":43.305989,"lon":5.37225,"is_reserved":false,"is_disabled":false,"rental_uris":{"android":"levelo://app?vid=8ab71366-54ca-4726-9b32-f34a44413829","ios":"levelo://app?vid=8ab71366-54ca-4726-9b32-f34a44413829"},"vehicle_type_id":"4","last_reported":1702717571,"current_range_meters":30000,"station_id":"ce4bgqh2rcd13ifvqc4g","pricing_plan_id":"free"},{"bike_id":"37480a4d-1ce9-421b-8587-12d2f7ed17e2","system_id":"levelo_inurba_marseille","lat":43.305989,"lon":5.37225,"is_reserved":false,"is_disabled":false,"rental_uris":{"android":"levelo://app?vid=37480a4d-1ce9-421b-8587-12d2f7ed17e2","ios":"levelo://app?vid=37480a4d-1ce9-421b-8587-12d2f7ed17e2"},"vehicle_type_id":"4","last_reported":1702717571,"current_range_meters":30000,"station_id":"ce4bgqh2rcd13ifvqc4g","pricing_plan_id":"free"},{"bike_id":"e172c963-750d-4c43-8d62-81cc7d1a450b","system_id":"levelo_inurba_marseille","lat":43.31121,"lon":5.377636,"is_reserved":false,"is_disabled":false,"rental_uris":{"android":"levelo://app?vid=e172c963-750d-4c43-8d62-81cc7d1a450b","ios":"levelo://app?vid=e172c963-750d-4c43-8d62-81cc7d1a450b"},"vehicle_type_id":"4","last_reported":1702717571,"current_range_meters":29600,"station_id":"ce4bgt92rcd13ifvqcg0","pricing_plan_id":"free"},{"bike_id":"1fe5e966-96db-4e8c-a4be-30533dd70df6","system_id":"levelo_inurba_marseille","lat":43.307895,"lon":5.376445,"is_reserved":false,"is_disabled":false,"rental_uris":{"android":"levelo://app?vid=1fe5e966-96db-4e8c-a4be-30533dd70df6","ios":"levelo://app?vid=1fe5e966-96db-4e8c-a4be-30533dd70df6"},"vehicle_type_id":"4","last_reported":1702717571,"current_range_meters":13600,"station_id":"ce4bgv92rcd13ifvqcq0","pricing_plan_id":"free"},{"bike_id":"64b875e9-8014-4720-8f36-19ba9cf363eb","system_id":"levelo_inurba_marseille","lat":43.307795,"lon":5.376455,"is_reserved":false,"is_disabled":false,"rental_uris":{"android":"levelo://app?vid=64b875e9-8014-4720-8f36-19ba9cf363eb","ios":"levelo://app?vid=64b875e9-8014-4720-8f36-19ba9cf363eb"},"vehicle_type_id":"4","last_reported":1702717571,"current_range_meters":25600,"station_id":"ce4bgv92rcd13ifvqcq0","pricing_plan_id":"free"},{"bike_id":"8f2f2472-686d-4d1b-bd99-8d9acdd0522f","system_id":"levelo_inurba_marseille","lat":43.30781,"lon":5.3765,"is_reserved":false,"is_disabled":false,"rental_uris":{"android":"levelo://app?vid=8f2f2472-686d-4d1b-bd99-8d9acdd0522f","ios":"levelo://app?vid=8f2f2472-686d-4d1b-bd99-8d9acdd0522f"},"vehicle_type_id":"4","last_reported":1702717571,"current_range_meters":23200,"station_id":"ce4bgv92rcd13ifvqcq0","pricing_plan_id":"free"},{"bike_id":"1cac14e1-4099-455b-ab55-73d699c3e506","system_id":"levelo_inurba_marseille","lat":43.307945,"lon":5.376487,"is_reserved":false,"is_disabled":false,"rental_uris":{"android":"levelo://app?vid=1cac14e1-4099-455b-ab55-73d699c3e506","ios":"levelo://app?vid=1cac14e1-4099-455b-ab55-73d699c3e506"},"vehicle_type_id":"4","last_reported":1702717571,"current_range_meters":27200,"station_id":"ce4bgv92rcd13ifvqcq0","pricing_plan_id":"free"},{"bike_id":"9a557d8f-d5f1-4bc5-8063-680898b9e532","system_id":"levelo_inurba_marseille","lat":43.307945,"lon":5.376487,"is_reserved":false,"is_disabled":false,"rental_uris":{"android":"levelo://app?vid=9a557d8f-d5f1-4bc5-8063-680898b9e532","ios":"levelo://app?vid=9a557d8f-d5f1-4bc5-8063-680898b9e532"},"vehicle_type_id":"4","last_reported":1702717571,"current_range_meters":30400,"station_id":"ce4bgv92rcd13ifvqcq0","pricing_plan_id":"free"},{"bike_id":"e80b0dce-ff66-4d99-b5a3-df1e3fc4a4b1","system_id":"levelo_inurba_marseille","lat":43.303046,"lon":5.368981,"is_reserved":false,"is_disabled":false,"rental_uris":{"android":"levelo://app?vid=e80b0dce-ff66-4d99-b5a3-df1e3fc4a4b1","ios":"levelo://app?vid=e80b0dce-ff66-4d99-b5a3-df1e3fc4a4b1"},"vehicle_type_id":"4","last_reported":1702717571,"current_range_meters":30000,"station_id":"ce4bgqh2rcd13ifvqc5g","pricing_plan_id":"free"},{"bike_id":"4e7a18c7-b0dc-44c3-aec1-7d810dee88ca","system_id":"levelo_inurba_marseille","lat":43.30312,"lon":5.36894,"is_reserved":false,"is_disabled":false,"rental_uris":{"android":"levelo://app?vid=4e7a18c7-b0dc-44c3-aec1-7d810dee88ca","ios":"levelo://app?vid=4e7a18c7-b0dc-44c3-aec1-7d810dee88ca"},"vehicle_type_id":"4","last_reported":1702717571,"current_range_meters":26400,"station_id":"ce4bgqh2rcd13ifvqc5g","pricing_plan_id":"free"},{"bike_id":"e47059a2-8fcd-46a3-9ce1-4289f64fe0ff","system_id":"levelo_inurba_marseille","lat":43.30304,"lon":5.368987,"is_reserved":false,"is_disabled":false,"rental_uris":{"android":"levelo://app?vid=e47059a2-8fcd-46a3-9ce1-4289f64fe0ff","ios":"levelo://app?vid=e47059a2-8fcd-46a3-9ce1-4289f64fe0ff"},"vehicle_type_id":"4","last_reported":1702717571,"current_range_meters":30000,"station_id":"ce4bgqh2rcd13ifvqc5g","pricing_plan_id":"free"},{"bike_id":"112889bc-8d0f-431d-9767-314715ea602b","system_id":"levelo_inurba_marseille","lat":43.315559,"lon":5.380075,"is_reserved":false,"is_disabled":false,"rental_uris":{"android":"levelo://app?vid=112889bc-8d0f-431d-9767-314715ea602b","ios":"levelo://app?vid=112889bc-8d0f-431d-9767-314715ea602b"},"vehicle_type_id":"4","last_reported":1702717571,"current_range_meters":16800,"station_id":"ce4bhsp2rcd13ifvqi50","pricing_plan_id":"free"},{"bike_id":"8d0764f7-c6ec-46ef-9112-b98e0cf7975f","system_id":"levelo_inurba_marseille","lat":43.304606,"lon":5.379026,"is_reserved":false,"is_disabled":false,"rental_uris":{"android":"levelo://app?vid=8d0764f7-c6ec-46ef-9112-b98e0cf7975f","ios":"levelo://app?vid=8d0764f7-c6ec-46ef-9112-b98e0cf7975f"},"vehicle_type_id":"4","last_reported":1702717571,"current_range_meters":13200,"station_id":"ce4bgup2rcd13ifvqcn0","pricing_plan_id":"free"},{"bike_id":"749f180b-6ebf-43b0-9adc-d6096713153b","system_id":"levelo_inurba_marseille","lat":43.304606,"lon":5.379026,"is_reserved":false,"is_disabled":false,"rental_uris":{"android":"levelo://app?vid=749f180b-6ebf-43b0-9adc-d6096713153b","ios":"levelo://app?vid=749f180b-6ebf-43b0-9adc-d6096713153b"},"vehicle_type_id":"4","last_reported":1702717571,"current_range_meters":20400,"station_id":"ce4bgup2rcd13ifvqcn0","pricing_plan_id":"free"},{"bike_id":"a5b876e7-cddc-4a09-86af-507e6df4bb42","system_id":"levelo_inurba_marseille","lat":43.304606,"lon":5.379026,"is_reserved":false,"is_disabled":false,"rental_uris":{"android":"levelo://app?vid=a5b876e7-cddc-4a09-86af-507e6df4bb42","ios":"levelo://app?vid=a5b876e7-cddc-4a09-86af-507e6df4bb42"},"vehicle_type_id":"4","last_reported":1702717571,"current_range_meters":26000,"station_id":"ce4bgup2rcd13ifvqcn0","pricing_plan_id":"free"},{"bike_id":"9c248663-03d1-415b-88d2-6bfbc9175a63","system_id":"levelo_inurba_marseille","lat":43.304606,"lon":5.379026,"is_reserved":false,"is_disabled":false,"rental_uris":{"android":"levelo://app?vid=9c248663-03d1-415b-88d2-6bfbc9175a63","ios":"levelo://app?vid=9c248663-03d1-415b-88d2-6bfbc9175a63"},"vehicle_type_id":"4","last_reported":1702717571,"current_range_meters":28000,"station_id":"ce4bgup2rcd13ifvqcn0","pricing_plan_id":"free"},{"bike_id":"ff22a7f5-e6c2-45e5-b067-48d8fb909076","system_id":"levelo_inurba_marseille","lat":43.304606,"lon":5.379026,"is_reserved":false,"is_disabled":false,"rental_uris":{"android":"levelo://app?vid=ff22a7f5-e6c2-45e5-b067-48d8fb909076","ios":"levelo://app?vid=ff22a7f5-e6c2-45e5-b067-48d8fb909076"},"vehicle_type_id":"4","last_reported":1702717571,"current_range_meters":23600,"station_id":"ce4bgup2rcd13ifvqcn0","pricing_plan_id":"free"},{"bike_id":"e3c53d49-cf48-407c-b2a4-f4810ee52a2f","system_id":"levelo_inurba_marseille","lat":43.304606,"lon":5.379026,"is_reserved":false,"is_disabled":false,"rental_uris":{"android":"levelo://app?vid=e3c53d49-cf48-407c-b2a4-f4810ee52a2f","ios":"levelo://app?vid=e3c53d49-cf48-407c-b2a4-f4810ee52a2f"},"vehicle_type_id":"4","last_reported":1702717571,"current_range_meters":15600,"station_id":"ce4bgup2rcd13ifvqcn0","pricing_plan_id":"free"},{"bike_id":"59c69b7b-d415-4ac3-b7a7-e7939df95624","system_id":"levelo_inurba_marseille","lat":43.304606,"lon":5.379026,"is_reserved":false,"is_disabled":false,"rental_uris":{"android":"levelo://app?vid=59c69b7b-d415-4ac3-b7a7-e7939df95624","ios":"levelo://app?vid=59c69b7b-d415-4ac3-b7a7-e7939df95624"},"vehicle_type_id":"4","last_reported":1702717571,"current_range_meters":26400,"station_id":"ce4bgup2rcd13ifvqcn0","pricing_plan_id":"free"},{"bike_id":"168a273a-c36a-41ab-986f-d9b0427e55e7","system_id":"levelo_inurba_marseille","lat":43.304606,"lon":5.379026,"is_reserved":false,"is_disabled":false,"rental_uris":{"android":"levelo://app?vid=168a273a-c36a-41ab-986f-d9b0427e55e7","ios":"levelo://app?vid=168a273a-c36a-41ab-986f-d9b0427e55e7"},"vehicle_type_id":"4","last_reported":1702717571,"current_range_meters":30400,"station_id":"ce4bgup2rcd13ifvqcn0","pricing_plan_id":"free"},{"bike_id":"8e43974e-05d5-4a33-86e4-62a3e3537359","system_id":"levelo_inurba_marseille","lat":43.304606,"lon":5.379026,"is_reserved":false,"is_disabled":false,"rental_uris":{"android":"levelo://app?vid=8e43974e-05d5-4a33-86e4-62a3e3537359","ios":"levelo://app?vid=8e43974e-05d5-4a33-86e4-62a3e3537359"},"vehicle_type_id":"4","last_reported":1702717571,"current_range_meters":28000,"station_id":"ce4bgup2rcd13ifvqcn0","pricing_plan_id":"free"},{"bike_id":"13aa9d0e-58cc-4fec-a94a-ab3f7b882878","system_id":"levelo_inurba_marseille","lat":43.304606,"lon":5.379026,"is_reserved":false,"is_disabled":false,"rental_uris":{"android":"levelo://app?vid=13aa9d0e-58cc-4fec-a94a-ab3f7b882878","ios":"levelo://app?vid=13aa9d0e-58cc-4fec-a94a-ab3f7b882878"},"vehicle_type_id":"4","last_reported":1702717571,"current_range_meters":31200,"station_id":"ce4bgup2rcd13ifvqcn0","pricing_plan_id":"free"},{"bike_id":"b9017615-d4ec-4cea-9969-ab56fede6521","system_id":"levelo_inurba_marseille","lat":43.304606,"lon":5.379026,"is_reserved":false,"is_disabled":false,"rental_uris":{"android":"levelo://app?vid=b9017615-d4ec-4cea-9969-ab56fede6521","ios":"levelo://app?vid=b9017615-d4ec-4cea-9969-ab56fede6521"},"vehicle_type_id":"4","last_reported":1702717571,"current_range_meters":20800,"station_id":"ce4bgup2rcd13ifvqcn0","pricing_plan_id":"free"},{"bike_id":"3fc14349-ff7e-4c8c-8a67-43206deb9329","system_id":"levelo_inurba_marseille","lat":43.304606,"lon":5.379026,"is_reserved":false,"is_disabled":false,"rental_uris":{"android":"levelo://app?vid=3fc14349-ff7e-4c8c-8a67-43206deb9329","ios":"levelo://app?vid=3fc14349-ff7e-4c8c-8a67-43206deb9329"},"vehicle_type_id":"4","last_reported":1702717571,"current_range_meters":29200,"station_id":"ce4bgup2rcd13ifvqcn0","pricing_plan_id":"free"},{"bike_id":"871abac8-2d0e-409c-95d2-3638d2d8e181","system_id":"levelo_inurba_marseille","lat":43.304606,"lon":5.379026,"is_reserved":false,"is_disabled":false,"rental_uris":{"android":"levelo://app?vid=871abac8-2d0e-409c-95d2-3638d2d8e181","ios":"levelo://app?vid=871abac8-2d0e-409c-95d2-3638d2d8e181"},"vehicle_type_id":"4","last_reported":1702717571,"current_range_meters":18400,"station_id":"ce4bgup2rcd13ifvqcn0","pricing_plan_id":"free"},{"bike_id":"3ec6da86-b6f8-43fb-a36f-5b0aa8c723a9","system_id":"levelo_inurba_marseille","lat":43.304606,"lon":5.379026,"is_reserved":false,"is_disabled":false,"rental_uris":{"android":"levelo://app?vid=3ec6da86-b6f8-43fb-a36f-5b0aa8c723a9","ios":"levelo://app?vid=3ec6da86-b6f8-43fb-a36f-5b0aa8c723a9"},"vehicle_type_id":"4","last_reported":1702717571,"current_range_meters":31600,"station_id":"ce4bgup2rcd13ifvqcn0","pricing_plan_id":"free"},{"bike_id":"f1cde3ff-6cd4-4e86-99bc-06e7a73fc0a0","system_id":"levelo_inurba_marseille","lat":43.324771,"lon":5.36557,"is_reserved":false,"is_disabled":false,"rental_uris":{"android":"levelo://app?vid=f1cde3ff-6cd4-4e86-99bc-06e7a73fc0a0","ios":"levelo://app?vid=f1cde3ff-6cd4-4e86-99bc-06e7a73fc0a0"},"vehicle_type_id":"4","last_reported":1702717571,"current_range_meters":17600,"station_id":"ce4bhs12rcd13ifvqhvg","pricing_plan_id":"free"},{"bike_id":"dfe62985-6f65-471f-8bdb-4e96693a7937","system_id":"levelo_inurba_marseille","lat":43.32483,"lon":5.365673,"is_reserved":false,"is_disabled":false,"rental_uris":{"android":"levelo://app?vid=dfe62985-6f65-471f-8bdb-4e96693a7937","ios":"levelo://app?vid=dfe62985-6f65-471f-8bdb-4e96693a7937"},"vehicle_type_id":"4","last_reported":1702717571,"current_range_meters":18800,"station_id":"ce4bhs12rcd13ifvqhvg","pricing_plan_id":"free"},{"bike_id":"88f7ea2a-62f7-4a88-9e9d-900940b4d7e5","system_id":"levelo_inurba_marseille","lat":43.324771,"lon":5.36557,"is_reserved":false,"is_disabled":false,"rental_uris":{"android":"levelo://app?vid=88f7ea2a-62f7-4a88-9e9d-900940b4d7e5","ios":"levelo://app?vid=88f7ea2a-62f7-4a88-9e9d-900940b4d7e5"},"vehicle_type_id":"4","last_reported":1702717571,"current_range_meters":17200,"station_id":"ce4bhs12rcd13ifvqhvg","pricing_plan_id":"free"},{"bike_id":"bae35c7a-4a97-4af1-8e9f-dcedf04f5262","system_id":"levelo_inurba_marseille","lat":43.302784,"lon":5.377158,"is_reserved":false,"is_disabled":false,"rental_uris":{"android":"levelo://app?vid=bae35c7a-4a97-4af1-8e9f-dcedf04f5262","ios":"levelo://app?vid=bae35c7a-4a97-4af1-8e9f-dcedf04f5262"},"vehicle_type_id":"4","last_reported":1702717571,"current_range_meters":27600,"station_id":"ce4bguh2rcd13ifvqcj0","pricing_plan_id":"free"},{"bike_id":"62e9817c-5791-445c-88a7-549da1674117","system_id":"levelo_inurba_marseille","lat":43.301429,"lon":5.37413,"is_reserved":false,"is_disabled":false,"rental_uris":{"android":"levelo://app?vid=62e9817c-5791-445c-88a7-549da1674117","ios":"levelo://app?vid=62e9817c-5791-445c-88a7-549da1674117"},"vehicle_type_id":"4","last_reported":1702717571,"current_range_meters":28400,"station_id":"ce4bgs92rcd13ifvqcc0","pricing_plan_id":"free"},{"bike_id":"ee7ee9ad-50e7-426a-9d50-8069bc82fd4d","system_id":"levelo_inurba_marseille","lat":43.2993,"lon":5.36547,"is_reserved":false,"is_disabled":false,"rental_uris":{"android":"levelo://app?vid=ee7ee9ad-50e7-426a-9d50-8069bc82fd4d","ios":"levelo://app?vid=ee7ee9ad-50e7-426a-9d50-8069bc82fd4d"},"vehicle_type_id":"4","last_reported":1702717571,"current_range_meters":24400,"station_id":"ce4bgm92rcd13ifvqbr0","pricing_plan_id":"free"},{"bike_id":"36ad9c63-4a81-4db2-8f4b-0bc23707d037","system_id":"levelo_inurba_marseille","lat":43.298433,"lon":5.362774,"is_reserved":false,"is_disabled":false,"rental_uris":{"android":"levelo://app?vid=36ad9c63-4a81-4db2-8f4b-0bc23707d037","ios":"levelo://app?vid=36ad9c63-4a81-4db2-8f4b-0bc23707d037"},"vehicle_type_id":"4","last_reported":1702717571,"current_range_meters":27200,"station_id":"ce4bgpp2rcd13ifvqc3g","pricing_plan_id":"free"},{"bike_id":"420a4b1b-5d5c-46bb-ae69-5cf27bd32f1a","system_id":"levelo_inurba_marseille","lat":43.298433,"lon":5.362774,"is_reserved":false,"is_disabled":false,"rental_uris":{"android":"levelo://app?vid=420a4b1b-5d5c-46bb-ae69-5cf27bd32f1a","ios":"levelo://app?vid=420a4b1b-5d5c-46bb-ae69-5cf27bd32f1a"},"vehicle_type_id":"4","last_reported":1702717571,"current_range_meters":31200,"station_id":"ce4bgpp2rcd13ifvqc3g","pricing_plan_id":"free"},{"bike_id":"886c09fa-d468-4065-a549-0ecd50c3f551","system_id":"levelo_inurba_marseille","lat":43.298433,"lon":5.362774,"is_reserved":false,"is_disabled":false,"rental_uris":{"android":"levelo://app?vid=886c09fa-d468-4065-a549-0ecd50c3f551","ios":"levelo://app?vid=886c09fa-d468-4065-a549-0ecd50c3f551"},"vehicle_type_id":"4","last_reported":1702717571,"current_range_meters":26000,"station_id":"ce4bgpp2rcd13ifvqc3g","pricing_plan_id":"free"},{"bike_id":"c4e77394-aef9-4077-b745-e99148625344","system_id":"levelo_inurba_marseille","lat":43.32733,"lon":5.36707,"is_reserved":false,"is_disabled":false,"rental_uris":{"android":"levelo://app?vid=c4e77394-aef9-4077-b745-e99148625344","ios":"levelo://app?vid=c4e77394-aef9-4077-b745-e99148625344"},"vehicle_type_id":"4","last_reported":1702717571,"current_range_meters":23200,"station_id":"","pricing_plan_id":"free"},{"bike_id":"3ca816d2-eff9-49af-aa44-ca93382468e5","system_id":"levelo_inurba_marseille","lat":43.299243,"lon":5.37481,"is_reserved":false,"is_disabled":false,"rental_uris":{"android":"levelo://app?vid=3ca816d2-eff9-49af-aa44-ca93382468e5","ios":"levelo://app?vid=3ca816d2-eff9-49af-aa44-ca93382468e5"},"vehicle_type_id":"4","last_reported":1702717571,"current_range_meters":28800,"station_id":"ce4bgjh2rcd13ifvqbg0","pricing_plan_id":"free"},{"bike_id":"819cb438-2e9c-4e0b-902b-5e19ef554d5c","system_id":"levelo_inurba_marseille","lat":43.305456,"lon":5.384379,"is_reserved":false,"is_disabled":false,"rental_uris":{"android":"levelo://app?vid=819cb438-2e9c-4e0b-902b-5e19ef554d5c","ios":"levelo://app?vid=819cb438-2e9c-4e0b-902b-5e19ef554d5c"},"vehicle_type_id":"4","last_reported":1702717571,"current_range_meters":17600,"station_id":"ce4bgg92rcd13ifvqb30","pricing_plan_id":"free"},{"bike_id":"1af341fc-09a8-4874-83bd-b8194107905f","system_id":"levelo_inurba_marseille","lat":43.298433,"lon":5.362774,"is_reserved":false,"is_disabled":false,"rental_uris":{"android":"levelo://app?vid=1af341fc-09a8-4874-83bd-b8194107905f","ios":"levelo://app?vid=1af341fc-09a8-4874-83bd-b8194107905f"},"vehicle_type_id":"4","last_reported":1702717571,"current_range_meters":25600,"station_id":"ce4bgpp2rcd13ifvqc3g","pricing_plan_id":"free"},{"bike_id":"1737724e-cb2c-4de9-82f2-77dd2021971f","system_id":"levelo_inurba_marseille","lat":43.32832,"lon":5.36689,"is_reserved":false,"is_disabled":false,"rental_uris":{"android":"levelo://app?vid=1737724e-cb2c-4de9-82f2-77dd2021971f","ios":"levelo://app?vid=1737724e-cb2c-4de9-82f2-77dd2021971f"},"vehicle_type_id":"4","last_reported":1702717571,"current_range_meters":17600,"station_id":"ce4bhs92rcd13ifvqi0g","pricing_plan_id":"free"},{"bike_id":"43b4d081-605e-4328-a87b-ccc51adc0ac8","system_id":"levelo_inurba_marseille","lat":43.297163,"lon":5.365866,"is_reserved":false,"is_disabled":false,"rental_uris":{"android":"levelo://app?vid=43b4d081-605e-4328-a87b-ccc51adc0ac8","ios":"levelo://app?vid=43b4d081-605e-4328-a87b-ccc51adc0ac8"},"vehicle_type_id":"4","last_reported":1702717571,"current_range_meters":21200,"station_id":"ce4bgn12rcd13ifvqbt0","pricing_plan_id":"free"},{"bike_id":"7641fd56-c595-4a08-b22c-98431b79f274","system_id":"levelo_inurba_marseille","lat":43.29573,"lon":5.367355,"is_reserved":false,"is_disabled":false,"rental_uris":{"android":"levelo://app?vid=7641fd56-c595-4a08-b22c-98431b79f274","ios":"levelo://app?vid=7641fd56-c595-4a08-b22c-98431b79f274"},"vehicle_type_id":"4","last_reported":1702717571,"current_range_meters":27200,"station_id":"ce4bgph2rcd13ifvqc2g","pricing_plan_id":"free"},{"bike_id":"25907433-ef9f-48fe-b1b9-7035239e3847","system_id":"levelo_inurba_marseille","lat":43.29573,"lon":5.367355,"is_reserved":false,"is_disabled":false,"rental_uris":{"android":"levelo://app?vid=25907433-ef9f-48fe-b1b9-7035239e3847","ios":"levelo://app?vid=25907433-ef9f-48fe-b1b9-7035239e3847"},"vehicle_type_id":"4","last_reported":1702717571,"current_range_meters":27600,"station_id":"ce4bgph2rcd13ifvqc2g","pricing_plan_id":"free"},{"bike_id":"fc7e472f-d4d0-43ba-b16f-d2ee5aac5431","system_id":"levelo_inurba_marseille","lat":43.29573,"lon":5.367355,"is_reserved":false,"is_disabled":false,"rental_uris":{"android":"levelo://app?vid=fc7e472f-d4d0-43ba-b16f-d2ee5aac5431","ios":"levelo://app?vid=fc7e472f-d4d0-43ba-b16f-d2ee5aac5431"},"vehicle_type_id":"4","last_reported":1702717571,"current_range_meters":26000,"station_id":"ce4bgph2rcd13ifvqc2g","pricing_plan_id":"free"},{"bike_id":"09c3d4dd-fd52-4e55-b64f-623e251036b5","system_id":"levelo_inurba_marseille","lat":43.29573,"lon":5.367355,"is_reserved":false,"is_disabled":false,"rental_uris":{"android":"levelo://app?vid=09c3d4dd-fd52-4e55-b64f-623e251036b5","ios":"levelo://app?vid=09c3d4dd-fd52-4e55-b64f-623e251036b5"},"vehicle_type_id":"4","last_reported":1702717571,"current_range_meters":24800,"station_id":"ce4bgph2rcd13ifvqc2g","pricing_plan_id":"free"},{"bike_id":"1f74adab-2eff-4ac8-acbc-1987af78edfd","system_id":"levelo_inurba_marseille","lat":43.29573,"lon":5.367355,"is_reserved":false,"is_disabled":false,"rental_uris":{"android":"levelo://app?vid=1f74adab-2eff-4ac8-acbc-1987af78edfd","ios":"levelo://app?vid=1f74adab-2eff-4ac8-acbc-1987af78edfd"},"vehicle_type_id":"4","last_reported":1702717571,"current_range_meters":27600,"station_id":"ce4bgph2rcd13ifvqc2g","pricing_plan_id":"free"},{"bike_id":"b45e5fc2-cb4f-4860-90a8-f5cc0ff7b436","system_id":"levelo_inurba_marseille","lat":43.295754,"lon":5.367344,"is_reserved":false,"is_disabled":false,"rental_uris":{"android":"levelo://app?vid=b45e5fc2-cb4f-4860-90a8-f5cc0ff7b436","ios":"levelo://app?vid=b45e5fc2-cb4f-4860-90a8-f5cc0ff7b436"},"vehicle_type_id":"4","last_reported":1702717571,"current_range_meters":25200,"station_id":"","pricing_plan_id":"free"},{"bike_id":"81d5adca-bd81-4c79-8b6e-274c99deefed","system_id":"levelo_inurba_marseille","lat":43.309589,"lon":5.390258,"is_reserved":false,"is_disabled":false,"rental_uris":{"android":"levelo://app?vid=81d5adca-bd81-4c79-8b6e-274c99deefed","ios":"levelo://app?vid=81d5adca-bd81-4c79-8b6e-274c99deefed"},"vehicle_type_id":"4","last_reported":1702717571,"current_range_meters":31200,"station_id":"ce4bgup2rcd13ifvqco0","pricing_plan_id":"free"},{"bike_id":"8e5cd4a4-0ce4-44b6-9360-536e819b3c12","system_id":"levelo_inurba_marseille","lat":43.304278,"lon":5.388868,"is_reserved":false,"is_disabled":false,"rental_uris":{"android":"levelo://app?vid=8e5cd4a4-0ce4-44b6-9360-536e819b3c12","ios":"levelo://app?vid=8e5cd4a4-0ce4-44b6-9360-536e819b3c12"},"vehicle_type_id":"4","last_reported":1702717571,"current_range_meters":25600,"station_id":"ce4bgk12rcd13ifvqbi0","pricing_plan_id":"free"},{"bike_id":"92a90025-2df1-463f-a5c2-4abf4e7bcf50","system_id":"levelo_inurba_marseille","lat":43.299717,"lon":5.384845,"is_reserved":false,"is_disabled":false,"rental_uris":{"android":"levelo://app?vid=92a90025-2df1-463f-a5c2-4abf4e7bcf50","ios":"levelo://app?vid=92a90025-2df1-463f-a5c2-4abf4e7bcf50"},"vehicle_type_id":"4","last_reported":1702717571,"current_range_meters":28000,"station_id":"ce4bgj92rcd13ifvqbd0","pricing_plan_id":"free"},{"bike_id":"f5acca18-626b-4f04-8239-9cfa865f39b4","system_id":"levelo_inurba_marseille","lat":43.299717,"lon":5.384845,"is_reserved":false,"is_disabled":false,"rental_uris":{"android":"levelo://app?vid=f5acca18-626b-4f04-8239-9cfa865f39b4","ios":"levelo://app?vid=f5acca18-626b-4f04-8239-9cfa865f39b4"},"vehicle_type_id":"4","last_reported":1702717571,"current_range_meters":24000,"station_id":"ce4bgj92rcd13ifvqbd0","pricing_plan_id":"free"},{"bike_id":"84263ff1-8ea2-4f05-85b6-dc50edc11385","system_id":"levelo_inurba_marseille","lat":43.32365,"lon":5.38881,"is_reserved":false,"is_disabled":false,"rental_uris":{"android":"levelo://app?vid=84263ff1-8ea2-4f05-85b6-dc50edc11385","ios":"levelo://app?vid=84263ff1-8ea2-4f05-85b6-dc50edc11385"},"vehicle_type_id":"4","last_reported":1702717571,"current_range_meters":21200,"station_id":"ce4bhqp2rcd13ifvqhog","pricing_plan_id":"free"},{"bike_id":"24c19684-28c7-4ae4-b6ac-1840f97117bb","system_id":"levelo_inurba_marseille","lat":43.32367,"lon":5.388836,"is_reserved":false,"is_disabled":false,"rental_uris":{"android":"levelo://app?vid=24c19684-28c7-4ae4-b6ac-1840f97117bb","ios":"levelo://app?vid=24c19684-28c7-4ae4-b6ac-1840f97117bb"},"vehicle_type_id":"4","last_reported":1702717571,"current_range_meters":800,"station_id":"ce4bhqp2rcd13ifvqhog","pricing_plan_id":"free"},{"bike_id":"23483833-7647-4091-91ac-ede8de7eab3c","system_id":"levelo_inurba_marseille","lat":43.32367,"lon":5.388836,"is_reserved":false,"is_disabled":false,"rental_uris":{"android":"levelo://app?vid=23483833-7647-4091-91ac-ede8de7eab3c","ios":"levelo://app?vid=23483833-7647-4091-91ac-ede8de7eab3c"},"vehicle_type_id":"4","last_reported":1702717571,"current_range_meters":12400,"station_id":"ce4bhqp2rcd13ifvqhog","pricing_plan_id":"free"},{"bike_id":"e8d53061-ae4c-40c2-9468-8a912896cf73","system_id":"levelo_inurba_marseille","lat":43.29601,"lon":5.381084,"is_reserved":false,"is_disabled":false,"rental_uris":{"android":"levelo://app?vid=e8d53061-ae4c-40c2-9468-8a912896cf73","ios":"levelo://app?vid=e8d53061-ae4c-40c2-9468-8a912896cf73"},"vehicle_type_id":"4","last_reported":1702717571,"current_range_meters":11200,"station_id":"ce4bgl12rcd13ifvqbo0","pricing_plan_id":"free"},{"bike_id":"f8f463b7-d3f4-4efc-bb44-4a0a84e58881","system_id":"levelo_inurba_marseille","lat":43.29308,"lon":5.37186,"is_reserved":false,"is_disabled":false,"rental_uris":{"android":"levelo://app?vid=f8f463b7-d3f4-4efc-bb44-4a0a84e58881","ios":"levelo://app?vid=f8f463b7-d3f4-4efc-bb44-4a0a84e58881"},"vehicle_type_id":"4","last_reported":1702717571,"current_range_meters":22400,"station_id":"ce4bgh92rcd13ifvqb40","pricing_plan_id":"free"},{"bike_id":"f3044421-a97b-470c-9c3c-b4704db411db","system_id":"levelo_inurba_marseille","lat":43.293009,"lon":5.374584,"is_reserved":false,"is_disabled":false,"rental_uris":{"android":"levelo://app?vid=f3044421-a97b-470c-9c3c-b4704db411db","ios":"levelo://app?vid=f3044421-a97b-470c-9c3c-b4704db411db"},"vehicle_type_id":"4","last_reported":1702717571,"current_range_meters":28800,"station_id":"ce4bgi12rcd13ifvqb70","pricing_plan_id":"free"},{"bike_id":"9107ffac-ad3f-407e-85f6-c991ef56b96a","system_id":"levelo_inurba_marseille","lat":43.300852,"lon":5.390859,"is_reserved":false,"is_disabled":false,"rental_uris":{"android":"levelo://app?vid=9107ffac-ad3f-407e-85f6-c991ef56b96a","ios":"levelo://app?vid=9107ffac-ad3f-407e-85f6-c991ef56b96a"},"vehicle_type_id":"4","last_reported":1702717571,"current_range_meters":31600,"station_id":"ce4bh192rcd13ifvqdb0","pricing_plan_id":"free"},{"bike_id":"dfd3274d-dd4b-4c5d-81d1-3612ba0f37ba","system_id":"levelo_inurba_marseille","lat":43.292311,"lon":5.360731,"is_reserved":false,"is_disabled":false,"rental_uris":{"android":"levelo://app?vid=dfd3274d-dd4b-4c5d-81d1-3612ba0f37ba","ios":"levelo://app?vid=dfd3274d-dd4b-4c5d-81d1-3612ba0f37ba"},"vehicle_type_id":"4","last_reported":1702717571,"current_range_meters":26800,"station_id":"ce4bhbh2rcd13ifvqeqg","pricing_plan_id":"free"},{"bike_id":"fdec5a4c-49a3-4317-9409-4f87bd2cac2a","system_id":"levelo_inurba_marseille","lat":43.292311,"lon":5.360731,"is_reserved":false,"is_disabled":false,"rental_uris":{"android":"levelo://app?vid=fdec5a4c-49a3-4317-9409-4f87bd2cac2a","ios":"levelo://app?vid=fdec5a4c-49a3-4317-9409-4f87bd2cac2a"},"vehicle_type_id":"4","last_reported":1702717571,"current_range_meters":21200,"station_id":"ce4bhbh2rcd13ifvqeqg","pricing_plan_id":"free"},{"bike_id":"111119ae-6688-4a0e-946e-810929bd81de","system_id":"levelo_inurba_marseille","lat":43.298766,"lon":5.389062,"is_reserved":false,"is_disabled":false,"rental_uris":{"android":"levelo://app?vid=111119ae-6688-4a0e-946e-810929bd81de","ios":"levelo://app?vid=111119ae-6688-4a0e-946e-810929bd81de"},"vehicle_type_id":"4","last_reported":1702717571,"current_range_meters":5200,"station_id":"","pricing_plan_id":"free"},{"bike_id":"1d9b020f-c20f-41cd-b5f0-bfc479c9d141","system_id":"levelo_inurba_marseille","lat":43.291671,"lon":5.371575,"is_reserved":false,"is_disabled":false,"rental_uris":{"android":"levelo://app?vid=1d9b020f-c20f-41cd-b5f0-bfc479c9d141","ios":"levelo://app?vid=1d9b020f-c20f-41cd-b5f0-bfc479c9d141"},"vehicle_type_id":"4","last_reported":1702717571,"current_range_meters":31200,"station_id":"ce4bha92rcd13ifvqeh0","pricing_plan_id":"free"},{"bike_id":"d195ec21-de91-44fd-a501-11abffbab2cc","system_id":"levelo_inurba_marseille","lat":43.309038,"lon":5.396546,"is_reserved":false,"is_disabled":false,"rental_uris":{"android":"levelo://app?vid=d195ec21-de91-44fd-a501-11abffbab2cc","ios":"levelo://app?vid=d195ec21-de91-44fd-a501-11abffbab2cc"},"vehicle_type_id":"4","last_reported":1702717571,"current_range_meters":31200,"station_id":"ce4bh012rcd13ifvqcv0","pricing_plan_id":"free"},{"bike_id":"5d8f4c0a-1894-4784-9947-4c7cec0be9bc","system_id":"levelo_inurba_marseille","lat":43.313291,"lon":5.396838,"is_reserved":false,"is_disabled":false,"rental_uris":{"android":"levelo://app?vid=5d8f4c0a-1894-4784-9947-4c7cec0be9bc","ios":"levelo://app?vid=5d8f4c0a-1894-4784-9947-4c7cec0be9bc"},"vehicle_type_id":"4","last_reported":1702717571,"current_range_meters":31200,"station_id":"ce4bgvp2rcd13ifvqcu0","pricing_plan_id":"free"},{"bike_id":"d6589bf1-53ac-4632-9df9-93fa3c4e523a","system_id":"levelo_inurba_marseille","lat":43.313291,"lon":5.396838,"is_reserved":false,"is_disabled":false,"rental_uris":{"android":"levelo://app?vid=d6589bf1-53ac-4632-9df9-93fa3c4e523a","ios":"levelo://app?vid=d6589bf1-53ac-4632-9df9-93fa3c4e523a"},"vehicle_type_id":"4","last_reported":1702717571,"current_range_meters":30400,"station_id":"ce4bgvp2rcd13ifvqcu0","pricing_plan_id":"free"},{"bike_id":"58c026a2-2a6d-437b-abe0-a068f539fff9","system_id":"levelo_inurba_marseille","lat":43.30887,"lon":5.39653,"is_reserved":false,"is_disabled":false,"rental_uris":{"android":"levelo://app?vid=58c026a2-2a6d-437b-abe0-a068f539fff9","ios":"levelo://app?vid=58c026a2-2a6d-437b-abe0-a068f539fff9"},"vehicle_type_id":"4","last_reported":1702717571,"current_range_meters":20800,"station_id":"ce4bh012rcd13ifvqcv0","pricing_plan_id":"free"},{"bike_id":"ed4c7e14-330c-49e7-97e3-28124dbd2b52","system_id":"levelo_inurba_marseille","lat":43.309038,"lon":5.396546,"is_reserved":false,"is_disabled":false,"rental_uris":{"android":"levelo://app?vid=ed4c7e14-330c-49e7-97e3-28124dbd2b52","ios":"levelo://app?vid=ed4c7e14-330c-49e7-97e3-28124dbd2b52"},"vehicle_type_id":"4","last_reported":1702717571,"current_range_meters":28800,"station_id":"ce4bh012rcd13ifvqcv0","pricing_plan_id":"free"},{"bike_id":"86510f1d-93ca-404f-a655-64ed135d7145","system_id":"levelo_inurba_marseille","lat":43.3089,"lon":5.3966,"is_reserved":false,"is_disabled":false,"rental_uris":{"android":"levelo://app?vid=86510f1d-93ca-404f-a655-64ed135d7145","ios":"levelo://app?vid=86510f1d-93ca-404f-a655-64ed135d7145"},"vehicle_type_id":"4","last_reported":1702717571,"current_range_meters":27200,"station_id":"ce4bh012rcd13ifvqcv0","pricing_plan_id":"free"},{"bike_id":"24a6699d-add7-4ad1-a192-598414e5e7cb","system_id":"levelo_inurba_marseille","lat":43.29549,"lon":5.38603,"is_reserved":false,"is_disabled":false,"rental_uris":{"android":"levelo://app?vid=24a6699d-add7-4ad1-a192-598414e5e7cb","ios":"levelo://app?vid=24a6699d-add7-4ad1-a192-598414e5e7cb"},"vehicle_type_id":"4","last_reported":1702717571,"current_range_meters":15200,"station_id":"ce4bgih2rcd13ifvqba0","pricing_plan_id":"free"},{"bike_id":"907567c4-f295-4efc-b72c-c1e936c85b55","system_id":"levelo_inurba_marseille","lat":43.290779,"lon":5.371482,"is_reserved":false,"is_disabled":false,"rental_uris":{"android":"levelo://app?vid=907567c4-f295-4efc-b72c-c1e936c85b55","ios":"levelo://app?vid=907567c4-f295-4efc-b72c-c1e936c85b55"},"vehicle_type_id":"4","last_reported":1702717571,"current_range_meters":26800,"station_id":"ce4bh5p2rcd13ifvqe4g","pricing_plan_id":"free"},{"bike_id":"dc1a1e5d-fb52-4028-a5d2-a55eefe69d14","system_id":"levelo_inurba_marseille","lat":43.302008,"lon":5.394694,"is_reserved":false,"is_disabled":false,"rental_uris":{"android":"levelo://app?vid=dc1a1e5d-fb52-4028-a5d2-a55eefe69d14","ios":"levelo://app?vid=dc1a1e5d-fb52-4028-a5d2-a55eefe69d14"},"vehicle_type_id":"4","last_reported":1702717571,"current_range_meters":23600,"station_id":"ce4bh0p2rcd13ifvqd70","pricing_plan_id":"free"},{"bike_id":"0b90a8d6-160c-46e4-a1dd-2736f69a80e1","system_id":"levelo_inurba_marseille","lat":43.302008,"lon":5.394694,"is_reserved":false,"is_disabled":false,"rental_uris":{"android":"levelo://app?vid=0b90a8d6-160c-46e4-a1dd-2736f69a80e1","ios":"levelo://app?vid=0b90a8d6-160c-46e4-a1dd-2736f69a80e1"},"vehicle_type_id":"4","last_reported":1702717571,"current_range_meters":27200,"station_id":"ce4bh0p2rcd13ifvqd70","pricing_plan_id":"free"},{"bike_id":"2ee458a6-4c93-4f5d-92f8-020dfb92d6ee","system_id":"levelo_inurba_marseille","lat":43.294162,"lon":5.386292,"is_reserved":false,"is_disabled":false,"rental_uris":{"android":"levelo://app?vid=2ee458a6-4c93-4f5d-92f8-020dfb92d6ee","ios":"levelo://app?vid=2ee458a6-4c93-4f5d-92f8-020dfb92d6ee"},"vehicle_type_id":"4","last_reported":1702717571,"current_range_meters":22800,"station_id":"ce4bh2h2rcd13ifvqdh0","pricing_plan_id":"free"},{"bike_id":"558c6d35-fbaf-4e2b-a7a8-432a750166b6","system_id":"levelo_inurba_marseille","lat":43.304353,"lon":5.397484,"is_reserved":false,"is_disabled":false,"rental_uris":{"android":"levelo://app?vid=558c6d35-fbaf-4e2b-a7a8-432a750166b6","ios":"levelo://app?vid=558c6d35-fbaf-4e2b-a7a8-432a750166b6"},"vehicle_type_id":"4","last_reported":1702717571,"current_range_meters":29200,"station_id":"","pricing_plan_id":"free"},{"bike_id":"69988235-cffb-4d87-9bcd-c9a3795662f1","system_id":"levelo_inurba_marseille","lat":43.304274,"lon":5.397513,"is_reserved":false,"is_disabled":false,"rental_uris":{"android":"levelo://app?vid=69988235-cffb-4d87-9bcd-c9a3795662f1","ios":"levelo://app?vid=69988235-cffb-4d87-9bcd-c9a3795662f1"},"vehicle_type_id":"4","last_reported":1702717571,"current_range_meters":31200,"station_id":"ce4bh092rcd13ifvqd20","pricing_plan_id":"free"},{"bike_id":"26cd9751-2124-49d4-a8cd-d9c1a2c06da0","system_id":"levelo_inurba_marseille","lat":43.292585,"lon":5.384435,"is_reserved":false,"is_disabled":false,"rental_uris":{"android":"levelo://app?vid=26cd9751-2124-49d4-a8cd-d9c1a2c06da0","ios":"levelo://app?vid=26cd9751-2124-49d4-a8cd-d9c1a2c06da0"},"vehicle_type_id":"4","last_reported":1702717571,"current_range_meters":6800,"station_id":"ce4bh692rcd13ifvqea0","pricing_plan_id":"free"},{"bike_id":"a812cc1f-d1d4-4cff-ae4c-3618afe6b015","system_id":"levelo_inurba_marseille","lat":43.330442,"lon":5.389148,"is_reserved":false,"is_disabled":false,"rental_uris":{"android":"levelo://app?vid=a812cc1f-d1d4-4cff-ae4c-3618afe6b015","ios":"levelo://app?vid=a812cc1f-d1d4-4cff-ae4c-3618afe6b015"},"vehicle_type_id":"4","last_reported":1702717571,"current_range_meters":27200,"station_id":"ce4bhr92rcd13ifvqhrg","pricing_plan_id":"free"},{"bike_id":"2af1ec1d-db50-4675-b168-902ca134119a","system_id":"levelo_inurba_marseille","lat":43.33044,"lon":5.38918,"is_reserved":false,"is_disabled":false,"rental_uris":{"android":"levelo://app?vid=2af1ec1d-db50-4675-b168-902ca134119a","ios":"levelo://app?vid=2af1ec1d-db50-4675-b168-902ca134119a"},"vehicle_type_id":"4","last_reported":1702717571,"current_range_meters":0,"station_id":"ce4bhr92rcd13ifvqhrg","pricing_plan_id":"free"},{"bike_id":"6eebef9e-68f9-4804-8082-3e6c2c304641","system_id":"levelo_inurba_marseille","lat":43.290104,"lon":5.356111,"is_reserved":false,"is_disabled":false,"rental_uris":{"android":"levelo://app?vid=6eebef9e-68f9-4804-8082-3e6c2c304641","ios":"levelo://app?vid=6eebef9e-68f9-4804-8082-3e6c2c304641"},"vehicle_type_id":"4","last_reported":1702717571,"current_range_meters":16000,"station_id":"ce4bhb92rcd13ifvqen0","pricing_plan_id":"free"},{"bike_id":"9f2db28a-17d0-4c13-859f-f310a21a81fb","system_id":"levelo_inurba_marseille","lat":43.289743,"lon":5.378304,"is_reserved":false,"is_disabled":false,"rental_uris":{"android":"levelo://app?vid=9f2db28a-17d0-4c13-859f-f310a21a81fb","ios":"levelo://app?vid=9f2db28a-17d0-4c13-859f-f310a21a81fb"},"vehicle_type_id":"4","last_reported":1702717571,"current_range_meters":27200,"station_id":"ce4bh9p2rcd13ifvqed0","pricing_plan_id":"free"},{"bike_id":"cb10159f-40a9-49eb-9bfc-e1723a0b6a2f","system_id":"levelo_inurba_marseille","lat":43.289741,"lon":5.378306,"is_reserved":false,"is_disabled":false,"rental_uris":{"android":"levelo://app?vid=cb10159f-40a9-49eb-9bfc-e1723a0b6a2f","ios":"levelo://app?vid=cb10159f-40a9-49eb-9bfc-e1723a0b6a2f"},"vehicle_type_id":"4","last_reported":1702717571,"current_range_meters":30800,"station_id":"ce4bh9p2rcd13ifvqed0","pricing_plan_id":"free"},{"bike_id":"763d58d6-fa5b-4e2f-9e51-5f56b510625c","system_id":"levelo_inurba_marseille","lat":43.30939,"lon":5.401425,"is_reserved":false,"is_disabled":false,"rental_uris":{"android":"levelo://app?vid=763d58d6-fa5b-4e2f-9e51-5f56b510625c","ios":"levelo://app?vid=763d58d6-fa5b-4e2f-9e51-5f56b510625c"},"vehicle_type_id":"4","last_reported":1702717571,"current_range_meters":29200,"station_id":"ce4bgvp2rcd13ifvqct0","pricing_plan_id":"free"},{"bike_id":"f0cd831c-cfb9-44c7-9487-103b6df223ca","system_id":"levelo_inurba_marseille","lat":43.337445,"lon":5.374592,"is_reserved":false,"is_disabled":false,"rental_uris":{"android":"levelo://app?vid=f0cd831c-cfb9-44c7-9487-103b6df223ca","ios":"levelo://app?vid=f0cd831c-cfb9-44c7-9487-103b6df223ca"},"vehicle_type_id":"4","last_reported":1702717571,"current_range_meters":28800,"station_id":"","pricing_plan_id":"free"},{"bike_id":"ea29608f-017d-4da7-8d9b-6adb24624885","system_id":"levelo_inurba_marseille","lat":43.30933,"lon":5.40143,"is_reserved":false,"is_disabled":false,"rental_uris":{"android":"levelo://app?vid=ea29608f-017d-4da7-8d9b-6adb24624885","ios":"levelo://app?vid=ea29608f-017d-4da7-8d9b-6adb24624885"},"vehicle_type_id":"4","last_reported":1702717571,"current_range_meters":22000,"station_id":"ce4bgvp2rcd13ifvqct0","pricing_plan_id":"free"},{"bike_id":"9e4741cf-970a-4d37-b042-b933ca1e72cd","system_id":"levelo_inurba_marseille","lat":43.3094,"lon":5.40145,"is_reserved":false,"is_disabled":false,"rental_uris":{"android":"levelo://app?vid=9e4741cf-970a-4d37-b042-b933ca1e72cd","ios":"levelo://app?vid=9e4741cf-970a-4d37-b042-b933ca1e72cd"},"vehicle_type_id":"4","last_reported":1702717571,"current_range_meters":13600,"station_id":"ce4bgvp2rcd13ifvqct0","pricing_plan_id":"free"},{"bike_id":"04e08174-077d-406e-9800-126d71351cb7","system_id":"levelo_inurba_marseille","lat":43.309258,"lon":5.401441,"is_reserved":false,"is_disabled":false,"rental_uris":{"android":"levelo://app?vid=04e08174-077d-406e-9800-126d71351cb7","ios":"levelo://app?vid=04e08174-077d-406e-9800-126d71351cb7"},"vehicle_type_id":"4","last_reported":1702717571,"current_range_meters":7200,"station_id":"ce4bgvp2rcd13ifvqct0","pricing_plan_id":"free"},{"bike_id":"e3c05e88-380c-41dc-9e90-0a95befc201d","system_id":"levelo_inurba_marseille","lat":43.30645,"lon":5.40072,"is_reserved":false,"is_disabled":false,"rental_uris":{"android":"levelo://app?vid=e3c05e88-380c-41dc-9e90-0a95befc201d","ios":"levelo://app?vid=e3c05e88-380c-41dc-9e90-0a95befc201d"},"vehicle_type_id":"4","last_reported":1702717571,"current_range_meters":20400,"station_id":"ce4bh112rcd13ifvqda0","pricing_plan_id":"free"},{"bike_id":"a15a6f31-d26a-498f-aab0-fad2629bd007","system_id":"levelo_inurba_marseille","lat":43.337535,"lon":5.37446,"is_reserved":false,"is_disabled":false,"rental_uris":{"android":"levelo://app?vid=a15a6f31-d26a-498f-aab0-fad2629bd007","ios":"levelo://app?vid=a15a6f31-d26a-498f-aab0-fad2629bd007"},"vehicle_type_id":"4","last_reported":1702717571,"current_range_meters":0,"station_id":"","pricing_plan_id":"free"},{"bike_id":"ef80ceab-dc9f-4b6c-8f52-707d5177f481","system_id":"levelo_inurba_marseille","lat":43.33752,"lon":5.37466,"is_reserved":false,"is_disabled":false,"rental_uris":{"android":"levelo://app?vid=ef80ceab-dc9f-4b6c-8f52-707d5177f481","ios":"levelo://app?vid=ef80ceab-dc9f-4b6c-8f52-707d5177f481"},"vehicle_type_id":"4","last_reported":1702717571,"current_range_meters":29200,"station_id":"","pricing_plan_id":"free"},{"bike_id":"597b3b0d-46be-434c-a32a-d7e9f399292d","system_id":"levelo_inurba_marseille","lat":43.30642,"lon":5.401031,"is_reserved":false,"is_disabled":false,"rental_uris":{"android":"levelo://app?vid=597b3b0d-46be-434c-a32a-d7e9f399292d","ios":"levelo://app?vid=597b3b0d-46be-434c-a32a-d7e9f399292d"},"vehicle_type_id":"4","last_reported":1702717571,"current_range_meters":18400,"station_id":"ce4bh112rcd13ifvqda0","pricing_plan_id":"free"},{"bike_id":"1b1bd80c-92ec-4f8e-8e80-a125315f4b22","system_id":"levelo_inurba_marseille","lat":43.337587,"lon":5.37431,"is_reserved":false,"is_disabled":false,"rental_uris":{"android":"levelo://app?vid=1b1bd80c-92ec-4f8e-8e80-a125315f4b22","ios":"levelo://app?vid=1b1bd80c-92ec-4f8e-8e80-a125315f4b22"},"vehicle_type_id":"4","last_reported":1702717571,"current_range_meters":4800,"station_id":"","pricing_plan_id":"free"},{"bike_id":"930bba3a-4350-44cf-bb9b-310a6cbdb5ef","system_id":"levelo_inurba_marseille","lat":43.33758,"lon":5.37468,"is_reserved":false,"is_disabled":false,"rental_uris":{"android":"levelo://app?vid=930bba3a-4350-44cf-bb9b-310a6cbdb5ef","ios":"levelo://app?vid=930bba3a-4350-44cf-bb9b-310a6cbdb5ef"},"vehicle_type_id":"4","last_reported":1702717571,"current_range_meters":24400,"station_id":"","pricing_plan_id":"free"},{"bike_id":"811eac48-7c36-4ce9-9a27-879aa1e1514e","system_id":"levelo_inurba_marseille","lat":43.33766,"lon":5.37456,"is_reserved":false,"is_disabled":false,"rental_uris":{"android":"levelo://app?vid=811eac48-7c36-4ce9-9a27-879aa1e1514e","ios":"levelo://app?vid=811eac48-7c36-4ce9-9a27-879aa1e1514e"},"vehicle_type_id":"4","last_reported":1702717571,"current_range_meters":24000,"station_id":"","pricing_plan_id":"free"},{"bike_id":"0589af4e-8c39-441f-bcf3-a2b62c003b9e","system_id":"levelo_inurba_marseille","lat":43.301117,"lon":5.398795,"is_reserved":false,"is_disabled":false,"rental_uris":{"android":"levelo://app?vid=0589af4e-8c39-441f-bcf3-a2b62c003b9e","ios":"levelo://app?vid=0589af4e-8c39-441f-bcf3-a2b62c003b9e"},"vehicle_type_id":"4","last_reported":1702717571,"current_range_meters":15600,"station_id":"ce4bh0h2rcd13ifvqd40","pricing_plan_id":"free"},{"bike_id":"3f70c0b3-304a-406e-971b-d8c2767f1556","system_id":"levelo_inurba_marseille","lat":43.289307,"lon":5.38406,"is_reserved":false,"is_disabled":false,"rental_uris":{"android":"levelo://app?vid=3f70c0b3-304a-406e-971b-d8c2767f1556","ios":"levelo://app?vid=3f70c0b3-304a-406e-971b-d8c2767f1556"},"vehicle_type_id":"4","last_reported":1702717571,"current_range_meters":23200,"station_id":"ce4bh612rcd13ifvqe6g","pricing_plan_id":"free"},{"bike_id":"46937d05-36c2-495a-9b30-7603f646a5e5","system_id":"levelo_inurba_marseille","lat":43.307524,"lon":5.402722,"is_reserved":false,"is_disabled":false,"rental_uris":{"android":"levelo://app?vid=46937d05-36c2-495a-9b30-7603f646a5e5","ios":"levelo://app?vid=46937d05-36c2-495a-9b30-7603f646a5e5"},"vehicle_type_id":"4","last_reported":1702717571,"current_range_meters":14400,"station_id":"","pricing_plan_id":"free"},{"bike_id":"246d5fa5-c550-48ea-a6ec-41b624ab5d9f","system_id":"levelo_inurba_marseille","lat":43.286039,"lon":5.370679,"is_reserved":false,"is_disabled":false,"rental_uris":{"android":"levelo://app?vid=246d5fa5-c550-48ea-a6ec-41b624ab5d9f","ios":"levelo://app?vid=246d5fa5-c550-48ea-a6ec-41b624ab5d9f"},"vehicle_type_id":"4","last_reported":1702717571,"current_range_meters":29600,"station_id":"ce4bht12rcd13ifvqi60","pricing_plan_id":"free"},{"bike_id":"487896aa-3617-4efa-9391-1f96988efa64","system_id":"levelo_inurba_marseille","lat":43.301429,"lon":5.37413,"is_reserved":false,"is_disabled":false,"rental_uris":{"android":"levelo://app?vid=487896aa-3617-4efa-9391-1f96988efa64","ios":"levelo://app?vid=487896aa-3617-4efa-9391-1f96988efa64"},"vehicle_type_id":"4","last_reported":1702717571,"current_range_meters":11600,"station_id":"ce4bgs92rcd13ifvqcc0","pricing_plan_id":"free"},{"bike_id":"15e43c5c-45e9-4cf0-8cb1-213ee8167c83","system_id":"levelo_inurba_marseille","lat":43.31692,"lon":5.40457,"is_reserved":false,"is_disabled":false,"rental_uris":{"android":"levelo://app?vid=15e43c5c-45e9-4cf0-8cb1-213ee8167c83","ios":"levelo://app?vid=15e43c5c-45e9-4cf0-8cb1-213ee8167c83"},"vehicle_type_id":"4","last_reported":1702717571,"current_range_meters":31200,"station_id":"ce4bh012rcd13ifvqd00","pricing_plan_id":"free"},{"bike_id":"8fe2ce97-fea6-4d3a-bbd1-6da7a56bb1d4","system_id":"levelo_inurba_marseille","lat":43.316828,"lon":5.404723,"is_reserved":false,"is_disabled":false,"rental_uris":{"android":"levelo://app?vid=8fe2ce97-fea6-4d3a-bbd1-6da7a56bb1d4","ios":"levelo://app?vid=8fe2ce97-fea6-4d3a-bbd1-6da7a56bb1d4"},"vehicle_type_id":"4","last_reported":1702717571,"current_range_meters":29200,"station_id":"ce4bh012rcd13ifvqd00","pricing_plan_id":"free"},{"bike_id":"6fe0db6b-cb73-4a1a-81c5-de7421a7cc3f","system_id":"levelo_inurba_marseille","lat":43.316859,"lon":5.404713,"is_reserved":false,"is_disabled":false,"rental_uris":{"android":"levelo://app?vid=6fe0db6b-cb73-4a1a-81c5-de7421a7cc3f","ios":"levelo://app?vid=6fe0db6b-cb73-4a1a-81c5-de7421a7cc3f"},"vehicle_type_id":"4","last_reported":1702717571,"current_range_meters":19200,"station_id":"ce4bh012rcd13ifvqd00","pricing_plan_id":"free"},{"bike_id":"70846cb5-3948-4958-a7db-55150a19c35a","system_id":"levelo_inurba_marseille","lat":43.284534,"lon":5.358662,"is_reserved":false,"is_disabled":false,"rental_uris":{"android":"levelo://app?vid=70846cb5-3948-4958-a7db-55150a19c35a","ios":"levelo://app?vid=70846cb5-3948-4958-a7db-55150a19c35a"},"vehicle_type_id":"4","last_reported":1702717571,"current_range_meters":27600,"station_id":"ce4bhah2rcd13ifvqei0","pricing_plan_id":"free"},{"bike_id":"1dc688ff-b84f-4e04-9b9d-e6d9a6525d77","system_id":"levelo_inurba_marseille","lat":43.284534,"lon":5.358662,"is_reserved":false,"is_disabled":false,"rental_uris":{"android":"levelo://app?vid=1dc688ff-b84f-4e04-9b9d-e6d9a6525d77","ios":"levelo://app?vid=1dc688ff-b84f-4e04-9b9d-e6d9a6525d77"},"vehicle_type_id":"4","last_reported":1702717571,"current_range_meters":30400,"station_id":"ce4bhah2rcd13ifvqei0","pricing_plan_id":"free"},{"bike_id":"70c7f5b1-c995-49a0-b3b6-d84dd688dbae","system_id":"levelo_inurba_marseille","lat":43.28617,"lon":5.3511,"is_reserved":false,"is_disabled":false,"rental_uris":{"android":"levelo://app?vid=70c7f5b1-c995-49a0-b3b6-d84dd688dbae","ios":"levelo://app?vid=70c7f5b1-c995-49a0-b3b6-d84dd688dbae"},"vehicle_type_id":"4","last_reported":1702717571,"current_range_meters":21600,"station_id":"ce4bhch2rcd13ifvqeug","pricing_plan_id":"free"},{"bike_id":"f8538bc6-294a-459d-a6fa-1bb9f1dd290a","system_id":"levelo_inurba_marseille","lat":43.28616,"lon":5.35107,"is_reserved":false,"is_disabled":false,"rental_uris":{"android":"levelo://app?vid=f8538bc6-294a-459d-a6fa-1bb9f1dd290a","ios":"levelo://app?vid=f8538bc6-294a-459d-a6fa-1bb9f1dd290a"},"vehicle_type_id":"4","last_reported":1702717571,"current_range_meters":24400,"station_id":"ce4bhch2rcd13ifvqeug","pricing_plan_id":"free"},{"bike_id":"5ce61ab0-1a95-42ac-836a-54a34637049c","system_id":"levelo_inurba_marseille","lat":43.286595,"lon":5.386795,"is_reserved":false,"is_disabled":false,"rental_uris":{"android":"levelo://app?vid=5ce61ab0-1a95-42ac-836a-54a34637049c","ios":"levelo://app?vid=5ce61ab0-1a95-42ac-836a-54a34637049c"},"vehicle_type_id":"4","last_reported":1702717571,"current_range_meters":20400,"station_id":"ce4bh492rcd13ifvqdug","pricing_plan_id":"free"},{"bike_id":"4e7f35df-b5be-41f8-a088-b359fd0719b0","system_id":"levelo_inurba_marseille","lat":43.323464,"lon":5.406297,"is_reserved":false,"is_disabled":false,"rental_uris":{"android":"levelo://app?vid=4e7f35df-b5be-41f8-a088-b359fd0719b0","ios":"levelo://app?vid=4e7f35df-b5be-41f8-a088-b359fd0719b0"},"vehicle_type_id":"4","last_reported":1702717571,"current_range_meters":27200,"station_id":"ce4bhq92rcd13ifvqhjg","pricing_plan_id":"free"},{"bike_id":"16373837-b161-407f-b0fa-3d0f27559010","system_id":"levelo_inurba_marseille","lat":43.323464,"lon":5.406297,"is_reserved":false,"is_disabled":false,"rental_uris":{"android":"levelo://app?vid=16373837-b161-407f-b0fa-3d0f27559010","ios":"levelo://app?vid=16373837-b161-407f-b0fa-3d0f27559010"},"vehicle_type_id":"4","last_reported":1702717571,"current_range_meters":31200,"station_id":"ce4bhq92rcd13ifvqhjg","pricing_plan_id":"free"},{"bike_id":"8debdffb-3341-4fbf-8457-ea9053dea745","system_id":"levelo_inurba_marseille","lat":43.284787,"lon":5.384116,"is_reserved":false,"is_disabled":false,"rental_uris":{"android":"levelo://app?vid=8debdffb-3341-4fbf-8457-ea9053dea745","ios":"levelo://app?vid=8debdffb-3341-4fbf-8457-ea9053dea745"},"vehicle_type_id":"4","last_reported":1702717571,"current_range_meters":10000,"station_id":"ce4bh512rcd13ifvqe3g","pricing_plan_id":"free"},{"bike_id":"07a27b17-3e39-4fed-90a2-f6b84abe0322","system_id":"levelo_inurba_marseille","lat":43.28831,"lon":5.39317,"is_reserved":false,"is_disabled":false,"rental_uris":{"android":"levelo://app?vid=07a27b17-3e39-4fed-90a2-f6b84abe0322","ios":"levelo://app?vid=07a27b17-3e39-4fed-90a2-f6b84abe0322"},"vehicle_type_id":"4","last_reported":1702717571,"current_range_meters":0,"station_id":"ce4bh2p2rcd13ifvqdi0","pricing_plan_id":"free"},{"bike_id":"ec904e76-873d-4fa6-bc93-9cc6179eae6c","system_id":"levelo_inurba_marseille","lat":43.284219,"lon":5.3497,"is_reserved":false,"is_disabled":false,"rental_uris":{"android":"levelo://app?vid=ec904e76-873d-4fa6-bc93-9cc6179eae6c","ios":"levelo://app?vid=ec904e76-873d-4fa6-bc93-9cc6179eae6c"},"vehicle_type_id":"4","last_reported":1702717571,"current_range_meters":22000,"station_id":"ce4bhbh2rcd13ifvqepg","pricing_plan_id":"free"},{"bike_id":"89872705-f24d-42cc-b4dc-de142866359e","system_id":"levelo_inurba_marseille","lat":43.2479,"lon":5.374457,"is_reserved":false,"is_disabled":false,"rental_uris":{"android":"levelo://app?vid=89872705-f24d-42cc-b4dc-de142866359e","ios":"levelo://app?vid=89872705-f24d-42cc-b4dc-de142866359e"},"vehicle_type_id":"4","last_reported":1702717571,"current_range_meters":9200,"station_id":"ce4bhgh2rcd13ifvqfb0","pricing_plan_id":"free"},{"bike_id":"2bacdef7-c77f-4916-97d7-3d2d83de6693","system_id":"levelo_inurba_marseille","lat":43.292645,"lon":5.401203,"is_reserved":false,"is_disabled":false,"rental_uris":{"android":"levelo://app?vid=2bacdef7-c77f-4916-97d7-3d2d83de6693","ios":"levelo://app?vid=2bacdef7-c77f-4916-97d7-3d2d83de6693"},"vehicle_type_id":"4","last_reported":1702717571,"current_range_meters":30000,"station_id":"ce4bh312rcd13ifvqdk0","pricing_plan_id":"free"},{"bike_id":"62c32a41-5c85-445e-a62d-27f8a6e615c9","system_id":"levelo_inurba_marseille","lat":43.280382,"lon":5.369291,"is_reserved":false,"is_disabled":false,"rental_uris":{"android":"levelo://app?vid=62c32a41-5c85-445e-a62d-27f8a6e615c9","ios":"levelo://app?vid=62c32a41-5c85-445e-a62d-27f8a6e615c9"},"vehicle_type_id":"4","last_reported":1702717571,"current_range_meters":28400,"station_id":"ce4bha12rcd13ifvqef0","pricing_plan_id":"free"},{"bike_id":"51c67930-0f81-4e81-8ba2-97e5f5bf98b2","system_id":"levelo_inurba_marseille","lat":43.28034,"lon":5.36951,"is_reserved":false,"is_disabled":false,"rental_uris":{"android":"levelo://app?vid=51c67930-0f81-4e81-8ba2-97e5f5bf98b2","ios":"levelo://app?vid=51c67930-0f81-4e81-8ba2-97e5f5bf98b2"},"vehicle_type_id":"4","last_reported":1702717571,"current_range_meters":31200,"station_id":"ce4bha12rcd13ifvqef0","pricing_plan_id":"free"},{"bike_id":"e04d024f-d664-423c-b963-3e21ecbf2e8d","system_id":"levelo_inurba_marseille","lat":43.2803,"lon":5.36949,"is_reserved":false,"is_disabled":false,"rental_uris":{"android":"levelo://app?vid=e04d024f-d664-423c-b963-3e21ecbf2e8d","ios":"levelo://app?vid=e04d024f-d664-423c-b963-3e21ecbf2e8d"},"vehicle_type_id":"4","last_reported":1702717571,"current_range_meters":23200,"station_id":"ce4bha12rcd13ifvqef0","pricing_plan_id":"free"},{"bike_id":"e748062d-c3c0-413d-be54-8be980ed94c8","system_id":"levelo_inurba_marseille","lat":43.281044,"lon":5.378308,"is_reserved":false,"is_disabled":false,"rental_uris":{"android":"levelo://app?vid=e748062d-c3c0-413d-be54-8be980ed94c8","ios":"levelo://app?vid=e748062d-c3c0-413d-be54-8be980ed94c8"},"vehicle_type_id":"4","last_reported":1702717571,"current_range_meters":26400,"station_id":"ce4bha12rcd13ifvqee0","pricing_plan_id":"free"},{"bike_id":"5d7bea2f-6661-46a8-9ee9-b5716536bb43","system_id":"levelo_inurba_marseille","lat":43.296263,"lon":5.40601,"is_reserved":false,"is_disabled":false,"rental_uris":{"android":"levelo://app?vid=5d7bea2f-6661-46a8-9ee9-b5716536bb43","ios":"levelo://app?vid=5d7bea2f-6661-46a8-9ee9-b5716536bb43"},"vehicle_type_id":"4","last_reported":1702717571,"current_range_meters":27600,"station_id":"ce4bh0h2rcd13ifvqd60","pricing_plan_id":"free"},{"bike_id":"957909a1-8942-42df-be69-e5124932ce4a","system_id":"levelo_inurba_marseille","lat":43.304188,"lon":5.412904,"is_reserved":false,"is_disabled":false,"rental_uris":{"android":"levelo://app?vid=957909a1-8942-42df-be69-e5124932ce4a","ios":"levelo://app?vid=957909a1-8942-42df-be69-e5124932ce4a"},"vehicle_type_id":"4","last_reported":1702717571,"current_range_meters":30000,"station_id":"ce4bhop2rcd13ifvqh8g","pricing_plan_id":"free"},{"bike_id":"39e1f3b9-6491-4f6d-b448-50f375a06476","system_id":"levelo_inurba_marseille","lat":43.320045,"lon":5.415046,"is_reserved":false,"is_disabled":false,"rental_uris":{"android":"levelo://app?vid=39e1f3b9-6491-4f6d-b448-50f375a06476","ios":"levelo://app?vid=39e1f3b9-6491-4f6d-b448-50f375a06476"},"vehicle_type_id":"4","last_reported":1702717571,"current_range_meters":27600,"station_id":"ce4bhq92rcd13ifvqhkg","pricing_plan_id":"free"},{"bike_id":"1651cfc2-bb0f-4738-aed0-b2466eada4c7","system_id":"levelo_inurba_marseille","lat":43.320045,"lon":5.415046,"is_reserved":false,"is_disabled":false,"rental_uris":{"android":"levelo://app?vid=1651cfc2-bb0f-4738-aed0-b2466eada4c7","ios":"levelo://app?vid=1651cfc2-bb0f-4738-aed0-b2466eada4c7"},"vehicle_type_id":"4","last_reported":1702717571,"current_range_meters":26400,"station_id":"ce4bhq92rcd13ifvqhkg","pricing_plan_id":"free"},{"bike_id":"77003e33-0070-4d21-bc8b-d304fc4f0ad4","system_id":"levelo_inurba_marseille","lat":43.320045,"lon":5.415048,"is_reserved":false,"is_disabled":false,"rental_uris":{"android":"levelo://app?vid=77003e33-0070-4d21-bc8b-d304fc4f0ad4","ios":"levelo://app?vid=77003e33-0070-4d21-bc8b-d304fc4f0ad4"},"vehicle_type_id":"4","last_reported":1702717571,"current_range_meters":24800,"station_id":"ce4bhq92rcd13ifvqhkg","pricing_plan_id":"free"},{"bike_id":"9952a1ae-0ab5-490c-b77e-504b52b942b2","system_id":"levelo_inurba_marseille","lat":43.27618,"lon":5.361009,"is_reserved":false,"is_disabled":false,"rental_uris":{"android":"levelo://app?vid=9952a1ae-0ab5-490c-b77e-504b52b942b2","ios":"levelo://app?vid=9952a1ae-0ab5-490c-b77e-504b52b942b2"},"vehicle_type_id":"4","last_reported":1702717571,"current_range_meters":12000,"station_id":"ce4bgj92rcd13ifvqbe0","pricing_plan_id":"free"},{"bike_id":"4c007817-2544-4793-8d53-d6f7096c27d5","system_id":"levelo_inurba_marseille","lat":43.27618,"lon":5.361009,"is_reserved":false,"is_disabled":false,"rental_uris":{"android":"levelo://app?vid=4c007817-2544-4793-8d53-d6f7096c27d5","ios":"levelo://app?vid=4c007817-2544-4793-8d53-d6f7096c27d5"},"vehicle_type_id":"4","last_reported":1702717571,"current_range_meters":19600,"station_id":"ce4bgj92rcd13ifvqbe0","pricing_plan_id":"free"},{"bike_id":"e893d083-1305-4087-b1e2-85456bd1e812","system_id":"levelo_inurba_marseille","lat":43.276157,"lon":5.361113,"is_reserved":false,"is_disabled":false,"rental_uris":{"android":"levelo://app?vid=e893d083-1305-4087-b1e2-85456bd1e812","ios":"levelo://app?vid=e893d083-1305-4087-b1e2-85456bd1e812"},"vehicle_type_id":"4","last_reported":1702717571,"current_range_meters":16800,"station_id":"ce4bgj92rcd13ifvqbe0","pricing_plan_id":"free"},{"bike_id":"c4501f43-dd49-4980-8097-14646dbf78c0","system_id":"levelo_inurba_marseille","lat":43.303837,"lon":5.418724,"is_reserved":false,"is_disabled":false,"rental_uris":{"android":"levelo://app?vid=c4501f43-dd49-4980-8097-14646dbf78c0","ios":"levelo://app?vid=c4501f43-dd49-4980-8097-14646dbf78c0"},"vehicle_type_id":"4","last_reported":1702717571,"current_range_meters":26800,"station_id":"ce4bhop2rcd13ifvqh7g","pricing_plan_id":"free"},{"bike_id":"6e5354e9-808a-46aa-a367-f7473c5da546","system_id":"levelo_inurba_marseille","lat":43.278399,"lon":5.392139,"is_reserved":false,"is_disabled":false,"rental_uris":{"android":"levelo://app?vid=6e5354e9-808a-46aa-a367-f7473c5da546","ios":"levelo://app?vid=6e5354e9-808a-46aa-a367-f7473c5da546"},"vehicle_type_id":"4","last_reported":1702717571,"current_range_meters":4400,"station_id":"ce4bhjp2rcd13ifvqga0","pricing_plan_id":"free"},{"bike_id":"ef98bf92-9e1c-46c5-a5b5-2cda60e67176","system_id":"levelo_inurba_marseille","lat":43.278399,"lon":5.392139,"is_reserved":false,"is_disabled":false,"rental_uris":{"android":"levelo://app?vid=ef98bf92-9e1c-46c5-a5b5-2cda60e67176","ios":"levelo://app?vid=ef98bf92-9e1c-46c5-a5b5-2cda60e67176"},"vehicle_type_id":"4","last_reported":1702717571,"current_range_meters":9600,"station_id":"ce4bhjp2rcd13ifvqga0","pricing_plan_id":"free"},{"bike_id":"133bac45-f8b9-492b-b090-649e5b2319fb","system_id":"levelo_inurba_marseille","lat":43.275625,"lon":5.384392,"is_reserved":false,"is_disabled":false,"rental_uris":{"android":"levelo://app?vid=133bac45-f8b9-492b-b090-649e5b2319fb","ios":"levelo://app?vid=133bac45-f8b9-492b-b090-649e5b2319fb"},"vehicle_type_id":"4","last_reported":1702717571,"current_range_meters":25200,"station_id":"ce4bhh92rcd13ifvqfi0","pricing_plan_id":"free"},{"bike_id":"f0f36ef9-2814-48f7-8d9a-71a61345e6d3","system_id":"levelo_inurba_marseille","lat":43.273613,"lon":5.362705,"is_reserved":false,"is_disabled":false,"rental_uris":{"android":"levelo://app?vid=f0f36ef9-2814-48f7-8d9a-71a61345e6d3","ios":"levelo://app?vid=f0f36ef9-2814-48f7-8d9a-71a61345e6d3"},"vehicle_type_id":"4","last_reported":1702717571,"current_range_meters":16400,"station_id":"ce4bhbh2rcd13ifvqeo0","pricing_plan_id":"free"},{"bike_id":"72f0edd2-be51-4a0c-976f-3b0f69fc9980","system_id":"levelo_inurba_marseille","lat":43.275625,"lon":5.384392,"is_reserved":false,"is_disabled":false,"rental_uris":{"android":"levelo://app?vid=72f0edd2-be51-4a0c-976f-3b0f69fc9980","ios":"levelo://app?vid=72f0edd2-be51-4a0c-976f-3b0f69fc9980"},"vehicle_type_id":"4","last_reported":1702717571,"current_range_meters":30400,"station_id":"ce4bhh92rcd13ifvqfi0","pricing_plan_id":"free"},{"bike_id":"b5b41553-0ea1-4310-b821-596fea1ce655","system_id":"levelo_inurba_marseille","lat":43.273609,"lon":5.362708,"is_reserved":false,"is_disabled":false,"rental_uris":{"android":"levelo://app?vid=b5b41553-0ea1-4310-b821-596fea1ce655","ios":"levelo://app?vid=b5b41553-0ea1-4310-b821-596fea1ce655"},"vehicle_type_id":"4","last_reported":1702717571,"current_range_meters":22400,"station_id":"ce4bhbh2rcd13ifvqeo0","pricing_plan_id":"free"},{"bike_id":"10eadedf-b2e9-4bb9-a1f0-77df69175439","system_id":"levelo_inurba_marseille","lat":43.28437,"lon":5.408533,"is_reserved":false,"is_disabled":false,"rental_uris":{"android":"levelo://app?vid=10eadedf-b2e9-4bb9-a1f0-77df69175439","ios":"levelo://app?vid=10eadedf-b2e9-4bb9-a1f0-77df69175439"},"vehicle_type_id":"4","last_reported":1702717571,"current_range_meters":12800,"station_id":"","pricing_plan_id":"free"},{"bike_id":"7b7bfaee-0e53-4459-bbde-886e6805f2a5","system_id":"levelo_inurba_marseille","lat":43.317121,"lon":5.423936,"is_reserved":false,"is_disabled":false,"rental_uris":{"android":"levelo://app?vid=7b7bfaee-0e53-4459-bbde-886e6805f2a5","ios":"levelo://app?vid=7b7bfaee-0e53-4459-bbde-886e6805f2a5"},"vehicle_type_id":"4","last_reported":1702717571,"current_range_meters":28400,"station_id":"ce4bhp92rcd13ifvqhbg","pricing_plan_id":"free"},{"bike_id":"e7f3199b-16c7-4ec8-844a-fb3b2f233e43","system_id":"levelo_inurba_marseille","lat":43.317121,"lon":5.423936,"is_reserved":false,"is_disabled":false,"rental_uris":{"android":"levelo://app?vid=e7f3199b-16c7-4ec8-844a-fb3b2f233e43","ios":"levelo://app?vid=e7f3199b-16c7-4ec8-844a-fb3b2f233e43"},"vehicle_type_id":"4","last_reported":1702717571,"current_range_meters":31600,"station_id":"ce4bhp92rcd13ifvqhbg","pricing_plan_id":"free"},{"bike_id":"13b63d08-aaa3-4985-bf57-1f32727c58d1","system_id":"levelo_inurba_marseille","lat":43.310785,"lon":5.424305,"is_reserved":false,"is_disabled":false,"rental_uris":{"android":"levelo://app?vid=13b63d08-aaa3-4985-bf57-1f32727c58d1","ios":"levelo://app?vid=13b63d08-aaa3-4985-bf57-1f32727c58d1"},"vehicle_type_id":"4","last_reported":1702717571,"current_range_meters":30000,"station_id":"ce4bhp92rcd13ifvqhag","pricing_plan_id":"free"},{"bike_id":"93a9a0b0-f09a-4679-973e-f3ebca0caf36","system_id":"levelo_inurba_marseille","lat":43.310785,"lon":5.424305,"is_reserved":false,"is_disabled":false,"rental_uris":{"android":"levelo://app?vid=93a9a0b0-f09a-4679-973e-f3ebca0caf36","ios":"levelo://app?vid=93a9a0b0-f09a-4679-973e-f3ebca0caf36"},"vehicle_type_id":"4","last_reported":1702717571,"current_range_meters":31200,"station_id":"ce4bhp92rcd13ifvqhag","pricing_plan_id":"free"},{"bike_id":"88d21734-a1ec-434c-836c-b0fde0b8c8e9","system_id":"levelo_inurba_marseille","lat":43.310785,"lon":5.424305,"is_reserved":false,"is_disabled":false,"rental_uris":{"android":"levelo://app?vid=88d21734-a1ec-434c-836c-b0fde0b8c8e9","ios":"levelo://app?vid=88d21734-a1ec-434c-836c-b0fde0b8c8e9"},"vehicle_type_id":"4","last_reported":1702717571,"current_range_meters":28800,"station_id":"ce4bhp92rcd13ifvqhag","pricing_plan_id":"free"},{"bike_id":"cdc69067-dad5-415d-b4f3-0a438e350196","system_id":"levelo_inurba_marseille","lat":43.317121,"lon":5.423936,"is_reserved":false,"is_disabled":false,"rental_uris":{"android":"levelo://app?vid=cdc69067-dad5-415d-b4f3-0a438e350196","ios":"levelo://app?vid=cdc69067-dad5-415d-b4f3-0a438e350196"},"vehicle_type_id":"4","last_reported":1702717571,"current_range_meters":26800,"station_id":"ce4bhp92rcd13ifvqhbg","pricing_plan_id":"free"},{"bike_id":"9fd98958-12f3-4062-a784-cd245cbf37c6","system_id":"levelo_inurba_marseille","lat":43.340804,"lon":5.410219,"is_reserved":false,"is_disabled":false,"rental_uris":{"android":"levelo://app?vid=9fd98958-12f3-4062-a784-cd245cbf37c6","ios":"levelo://app?vid=9fd98958-12f3-4062-a784-cd245cbf37c6"},"vehicle_type_id":"4","last_reported":1702717571,"current_range_meters":31600,"station_id":"ce4bhqh2rcd13ifvqhlg","pricing_plan_id":"free"},{"bike_id":"5bfd1a40-b0e4-41f3-a861-bd72abc8764c","system_id":"levelo_inurba_marseille","lat":43.340804,"lon":5.410219,"is_reserved":false,"is_disabled":false,"rental_uris":{"android":"levelo://app?vid=5bfd1a40-b0e4-41f3-a861-bd72abc8764c","ios":"levelo://app?vid=5bfd1a40-b0e4-41f3-a861-bd72abc8764c"},"vehicle_type_id":"4","last_reported":1702717571,"current_range_meters":12000,"station_id":"ce4bhqh2rcd13ifvqhlg","pricing_plan_id":"free"},{"bike_id":"fca8008a-37f2-44f6-8524-0b617ad370e9","system_id":"levelo_inurba_marseille","lat":43.3414,"lon":5.409031,"is_reserved":false,"is_disabled":false,"rental_uris":{"android":"levelo://app?vid=fca8008a-37f2-44f6-8524-0b617ad370e9","ios":"levelo://app?vid=fca8008a-37f2-44f6-8524-0b617ad370e9"},"vehicle_type_id":"4","last_reported":1702717571,"current_range_meters":30400,"station_id":"ce4bhqh2rcd13ifvqhlg","pricing_plan_id":"free"},{"bike_id":"3ca2c2d2-99b0-4aa6-a05d-e30f02e6a7fb","system_id":"levelo_inurba_marseille","lat":43.276092,"lon":5.395289,"is_reserved":false,"is_disabled":false,"rental_uris":{"android":"levelo://app?vid=3ca2c2d2-99b0-4aa6-a05d-e30f02e6a7fb","ios":"levelo://app?vid=3ca2c2d2-99b0-4aa6-a05d-e30f02e6a7fb"},"vehicle_type_id":"4","last_reported":1702717571,"current_range_meters":23200,"station_id":"","pricing_plan_id":"free"},{"bike_id":"7a869fc6-1e65-40d8-92b0-bdb5a54e5fb5","system_id":"levelo_inurba_marseille","lat":43.273125,"lon":5.390731,"is_reserved":false,"is_disabled":false,"rental_uris":{"android":"levelo://app?vid=7a869fc6-1e65-40d8-92b0-bdb5a54e5fb5","ios":"levelo://app?vid=7a869fc6-1e65-40d8-92b0-bdb5a54e5fb5"},"vehicle_type_id":"4","last_reported":1702717571,"current_range_meters":24000,"station_id":"ce4bhgp2rcd13ifvqfe0","pricing_plan_id":"free"},{"bike_id":"97d5c326-63bb-45ff-a744-1660aa45df95","system_id":"levelo_inurba_marseille","lat":43.273125,"lon":5.390731,"is_reserved":false,"is_disabled":false,"rental_uris":{"android":"levelo://app?vid=97d5c326-63bb-45ff-a744-1660aa45df95","ios":"levelo://app?vid=97d5c326-63bb-45ff-a744-1660aa45df95"},"vehicle_type_id":"4","last_reported":1702717571,"current_range_meters":30000,"station_id":"ce4bhgp2rcd13ifvqfe0","pricing_plan_id":"free"},{"bike_id":"99bcb4da-9698-4512-a158-470244d69d6c","system_id":"levelo_inurba_marseille","lat":43.304096,"lon":5.425385,"is_reserved":false,"is_disabled":false,"rental_uris":{"android":"levelo://app?vid=99bcb4da-9698-4512-a158-470244d69d6c","ios":"levelo://app?vid=99bcb4da-9698-4512-a158-470244d69d6c"},"vehicle_type_id":"4","last_reported":1702717571,"current_range_meters":28800,"station_id":"ce4bhoh2rcd13ifvqh6g","pricing_plan_id":"free"},{"bike_id":"549600fb-47b9-4312-8242-de53dbdf980c","system_id":"levelo_inurba_marseille","lat":43.30417,"lon":5.42539,"is_reserved":false,"is_disabled":false,"rental_uris":{"android":"levelo://app?vid=549600fb-47b9-4312-8242-de53dbdf980c","ios":"levelo://app?vid=549600fb-47b9-4312-8242-de53dbdf980c"},"vehicle_type_id":"4","last_reported":1702717571,"current_range_meters":7200,"station_id":"ce4bhoh2rcd13ifvqh6g","pricing_plan_id":"free"},{"bike_id":"5112c37e-405b-4748-b9b1-f11d1d41cf7f","system_id":"levelo_inurba_marseille","lat":43.30414,"lon":5.4254,"is_reserved":false,"is_disabled":false,"rental_uris":{"android":"levelo://app?vid=5112c37e-405b-4748-b9b1-f11d1d41cf7f","ios":"levelo://app?vid=5112c37e-405b-4748-b9b1-f11d1d41cf7f"},"vehicle_type_id":"4","last_reported":1702717571,"current_range_meters":16400,"station_id":"ce4bhoh2rcd13ifvqh6g","pricing_plan_id":"free"},{"bike_id":"127120c9-2a95-4892-91e0-d0f0a2b77fe5","system_id":"levelo_inurba_marseille","lat":43.30411,"lon":5.42541,"is_reserved":false,"is_disabled":false,"rental_uris":{"android":"levelo://app?vid=127120c9-2a95-4892-91e0-d0f0a2b77fe5","ios":"levelo://app?vid=127120c9-2a95-4892-91e0-d0f0a2b77fe5"},"vehicle_type_id":"4","last_reported":1702717571,"current_range_meters":27600,"station_id":"ce4bhoh2rcd13ifvqh6g","pricing_plan_id":"free"},{"bike_id":"9fa6895d-0e68-493e-b1fb-bfed75b1d89e","system_id":"levelo_inurba_marseille","lat":43.304088,"lon":5.425388,"is_reserved":false,"is_disabled":false,"rental_uris":{"android":"levelo://app?vid=9fa6895d-0e68-493e-b1fb-bfed75b1d89e","ios":"levelo://app?vid=9fa6895d-0e68-493e-b1fb-bfed75b1d89e"},"vehicle_type_id":"4","last_reported":1702717571,"current_range_meters":14000,"station_id":"ce4bhoh2rcd13ifvqh6g","pricing_plan_id":"free"},{"bike_id":"087230b3-ae12-46fc-8650-d840a066a359","system_id":"levelo_inurba_marseille","lat":43.272124,"lon":5.391768,"is_reserved":false,"is_disabled":false,"rental_uris":{"android":"levelo://app?vid=087230b3-ae12-46fc-8650-d840a066a359","ios":"levelo://app?vid=087230b3-ae12-46fc-8650-d840a066a359"},"vehicle_type_id":"4","last_reported":1702717571,"current_range_meters":31600,"station_id":"ce4bhhp2rcd13ifvqfm0","pricing_plan_id":"free"},{"bike_id":"f1893e08-ab0a-46d8-a16f-65b7dbffc6d9","system_id":"levelo_inurba_marseille","lat":43.272116,"lon":5.391747,"is_reserved":false,"is_disabled":false,"rental_uris":{"android":"levelo://app?vid=f1893e08-ab0a-46d8-a16f-65b7dbffc6d9","ios":"levelo://app?vid=f1893e08-ab0a-46d8-a16f-65b7dbffc6d9"},"vehicle_type_id":"4","last_reported":1702717571,"current_range_meters":31200,"station_id":"ce4bhhp2rcd13ifvqfm0","pricing_plan_id":"free"},{"bike_id":"1bf6ab99-d9aa-4d42-b630-8b2444ef4514","system_id":"levelo_inurba_marseille","lat":43.272116,"lon":5.391763,"is_reserved":false,"is_disabled":false,"rental_uris":{"android":"levelo://app?vid=1bf6ab99-d9aa-4d42-b630-8b2444ef4514","ios":"levelo://app?vid=1bf6ab99-d9aa-4d42-b630-8b2444ef4514"},"vehicle_type_id":"4","last_reported":1702717571,"current_range_meters":31200,"station_id":"ce4bhhp2rcd13ifvqfm0","pricing_plan_id":"free"},{"bike_id":"c0b24288-057e-4daa-878a-7bf5f51fdc58","system_id":"levelo_inurba_marseille","lat":43.272118,"lon":5.391758,"is_reserved":false,"is_disabled":false,"rental_uris":{"android":"levelo://app?vid=c0b24288-057e-4daa-878a-7bf5f51fdc58","ios":"levelo://app?vid=c0b24288-057e-4daa-878a-7bf5f51fdc58"},"vehicle_type_id":"4","last_reported":1702717571,"current_range_meters":31200,"station_id":"ce4bhhp2rcd13ifvqfm0","pricing_plan_id":"free"},{"bike_id":"a3bf02da-bc85-4b08-84b2-6bc10fb48dd0","system_id":"levelo_inurba_marseille","lat":43.272116,"lon":5.391747,"is_reserved":false,"is_disabled":false,"rental_uris":{"android":"levelo://app?vid=a3bf02da-bc85-4b08-84b2-6bc10fb48dd0","ios":"levelo://app?vid=a3bf02da-bc85-4b08-84b2-6bc10fb48dd0"},"vehicle_type_id":"4","last_reported":1702717571,"current_range_meters":24800,"station_id":"ce4bhhp2rcd13ifvqfm0","pricing_plan_id":"free"},{"bike_id":"673e4143-2791-4d60-af90-41dd459eca86","system_id":"levelo_inurba_marseille","lat":43.272116,"lon":5.391763,"is_reserved":false,"is_disabled":false,"rental_uris":{"android":"levelo://app?vid=673e4143-2791-4d60-af90-41dd459eca86","ios":"levelo://app?vid=673e4143-2791-4d60-af90-41dd459eca86"},"vehicle_type_id":"4","last_reported":1702717571,"current_range_meters":28400,"station_id":"ce4bhhp2rcd13ifvqfm0","pricing_plan_id":"free"},{"bike_id":"ada57737-7a79-44c0-8f3e-ecbad75f6298","system_id":"levelo_inurba_marseille","lat":43.272124,"lon":5.391768,"is_reserved":false,"is_disabled":false,"rental_uris":{"android":"levelo://app?vid=ada57737-7a79-44c0-8f3e-ecbad75f6298","ios":"levelo://app?vid=ada57737-7a79-44c0-8f3e-ecbad75f6298"},"vehicle_type_id":"4","last_reported":1702717571,"current_range_meters":31600,"station_id":"ce4bhhp2rcd13ifvqfm0","pricing_plan_id":"free"},{"bike_id":"7c5e5a9a-9f39-4a14-9573-d5b8ab599dd5","system_id":"levelo_inurba_marseille","lat":43.27191,"lon":5.39229,"is_reserved":false,"is_disabled":false,"rental_uris":{"android":"levelo://app?vid=7c5e5a9a-9f39-4a14-9573-d5b8ab599dd5","ios":"levelo://app?vid=7c5e5a9a-9f39-4a14-9573-d5b8ab599dd5"},"vehicle_type_id":"4","last_reported":1702717571,"current_range_meters":19600,"station_id":"ce4bhhp2rcd13ifvqfm0","pricing_plan_id":"free"},{"bike_id":"a30d1f85-051b-42c9-98b7-82db948b1493","system_id":"levelo_inurba_marseille","lat":43.278128,"lon":5.407195,"is_reserved":false,"is_disabled":false,"rental_uris":{"android":"levelo://app?vid=a30d1f85-051b-42c9-98b7-82db948b1493","ios":"levelo://app?vid=a30d1f85-051b-42c9-98b7-82db948b1493"},"vehicle_type_id":"4","last_reported":1702717571,"current_range_meters":1200,"station_id":"ce4bhnh2rcd13ifvqgtg","pricing_plan_id":"free"},{"bike_id":"8c66db32-5257-4678-9245-874b7358f60f","system_id":"levelo_inurba_marseille","lat":43.269467,"lon":5.386439,"is_reserved":false,"is_disabled":false,"rental_uris":{"android":"levelo://app?vid=8c66db32-5257-4678-9245-874b7358f60f","ios":"levelo://app?vid=8c66db32-5257-4678-9245-874b7358f60f"},"vehicle_type_id":"4","last_reported":1702717571,"current_range_meters":3600,"station_id":"ce4bhh92rcd13ifvqfh0","pricing_plan_id":"free"},{"bike_id":"ae51e324-50c1-4c60-b9bc-20c325739d7e","system_id":"levelo_inurba_marseille","lat":43.269467,"lon":5.386439,"is_reserved":false,"is_disabled":false,"rental_uris":{"android":"levelo://app?vid=ae51e324-50c1-4c60-b9bc-20c325739d7e","ios":"levelo://app?vid=ae51e324-50c1-4c60-b9bc-20c325739d7e"},"vehicle_type_id":"4","last_reported":1702717571,"current_range_meters":30000,"station_id":"ce4bhh92rcd13ifvqfh0","pricing_plan_id":"free"},{"bike_id":"92535914-a3b1-4ff2-a6f9-24ccf63e155c","system_id":"levelo_inurba_marseille","lat":43.269319,"lon":5.389397,"is_reserved":false,"is_disabled":false,"rental_uris":{"android":"levelo://app?vid=92535914-a3b1-4ff2-a6f9-24ccf63e155c","ios":"levelo://app?vid=92535914-a3b1-4ff2-a6f9-24ccf63e155c"},"vehicle_type_id":"4","last_reported":1702717571,"current_range_meters":21200,"station_id":"ce4bhhh2rcd13ifvqfl0","pricing_plan_id":"free"},{"bike_id":"db774753-4382-453e-a138-c32d538f9839","system_id":"levelo_inurba_marseille","lat":43.35866,"lon":5.356728,"is_reserved":false,"is_disabled":false,"rental_uris":{"android":"levelo://app?vid=db774753-4382-453e-a138-c32d538f9839","ios":"levelo://app?vid=db774753-4382-453e-a138-c32d538f9839"},"vehicle_type_id":"4","last_reported":1702717571,"current_range_meters":10800,"station_id":"","pricing_plan_id":"free"},{"bike_id":"584daf60-db60-4cbd-849a-0678bafa0905","system_id":"levelo_inurba_marseille","lat":43.2656,"lon":5.37285,"is_reserved":false,"is_disabled":false,"rental_uris":{"android":"levelo://app?vid=584daf60-db60-4cbd-849a-0678bafa0905","ios":"levelo://app?vid=584daf60-db60-4cbd-849a-0678bafa0905"},"vehicle_type_id":"4","last_reported":1702717571,"current_range_meters":18000,"station_id":"ce4bhg12rcd13ifvqf70","pricing_plan_id":"free"},{"bike_id":"16d02cb6-cdd6-4884-918e-9bf602ec7a8d","system_id":"levelo_inurba_marseille","lat":43.265714,"lon":5.372891,"is_reserved":false,"is_disabled":false,"rental_uris":{"android":"levelo://app?vid=16d02cb6-cdd6-4884-918e-9bf602ec7a8d","ios":"levelo://app?vid=16d02cb6-cdd6-4884-918e-9bf602ec7a8d"},"vehicle_type_id":"4","last_reported":1702717571,"current_range_meters":23200,"station_id":"ce4bhg12rcd13ifvqf70","pricing_plan_id":"free"},{"bike_id":"7c03e8fc-b137-4d8c-af0c-e9dc47aa35dd","system_id":"levelo_inurba_marseille","lat":43.267966,"lon":5.393976,"is_reserved":false,"is_disabled":false,"rental_uris":{"android":"levelo://app?vid=7c03e8fc-b137-4d8c-af0c-e9dc47aa35dd","ios":"levelo://app?vid=7c03e8fc-b137-4d8c-af0c-e9dc47aa35dd"},"vehicle_type_id":"4","last_reported":1702717571,"current_range_meters":0,"station_id":"ce4bhh12rcd13ifvqfg0","pricing_plan_id":"free"},{"bike_id":"95e9dd1f-f2f5-405d-b720-08fe860b3dcc","system_id":"levelo_inurba_marseille","lat":43.307983,"lon":5.435216,"is_reserved":false,"is_disabled":false,"rental_uris":{"android":"levelo://app?vid=95e9dd1f-f2f5-405d-b720-08fe860b3dcc","ios":"levelo://app?vid=95e9dd1f-f2f5-405d-b720-08fe860b3dcc"},"vehicle_type_id":"4","last_reported":1702717571,"current_range_meters":28800,"station_id":"ce4bhph2rcd13ifvqheg","pricing_plan_id":"free"},{"bike_id":"ccf7cc97-5061-4aef-baa8-e01b26d54ea3","system_id":"levelo_inurba_marseille","lat":43.26571,"lon":5.39013,"is_reserved":false,"is_disabled":false,"rental_uris":{"android":"levelo://app?vid=ccf7cc97-5061-4aef-baa8-e01b26d54ea3","ios":"levelo://app?vid=ccf7cc97-5061-4aef-baa8-e01b26d54ea3"},"vehicle_type_id":"4","last_reported":1702717571,"current_range_meters":25200,"station_id":"ce4bhe12rcd13ifvqf30","pricing_plan_id":"free"},{"bike_id":"762f3283-1c31-4ebc-ba0b-4061bbd29cc7","system_id":"levelo_inurba_marseille","lat":43.26565,"lon":5.389989,"is_reserved":false,"is_disabled":false,"rental_uris":{"android":"levelo://app?vid=762f3283-1c31-4ebc-ba0b-4061bbd29cc7","ios":"levelo://app?vid=762f3283-1c31-4ebc-ba0b-4061bbd29cc7"},"vehicle_type_id":"4","last_reported":1702717571,"current_range_meters":30800,"station_id":"ce4bhe12rcd13ifvqf30","pricing_plan_id":"free"},{"bike_id":"3e13c916-c104-4899-9a23-3478669bfaba","system_id":"levelo_inurba_marseille","lat":43.26567,"lon":5.3901,"is_reserved":false,"is_disabled":false,"rental_uris":{"android":"levelo://app?vid=3e13c916-c104-4899-9a23-3478669bfaba","ios":"levelo://app?vid=3e13c916-c104-4899-9a23-3478669bfaba"},"vehicle_type_id":"4","last_reported":1702717571,"current_range_meters":31200,"station_id":"ce4bhe12rcd13ifvqf30","pricing_plan_id":"free"},{"bike_id":"4d7814af-614d-4cfc-8a33-66f621e8db47","system_id":"levelo_inurba_marseille","lat":43.26933,"lon":5.40255,"is_reserved":false,"is_disabled":false,"rental_uris":{"android":"levelo://app?vid=4d7814af-614d-4cfc-8a33-66f621e8db47","ios":"levelo://app?vid=4d7814af-614d-4cfc-8a33-66f621e8db47"},"vehicle_type_id":"4","last_reported":1702717571,"current_range_meters":31200,"station_id":"cjm6bp8fraef2m0cb0m0","pricing_plan_id":"free"},{"bike_id":"bb286dab-a9f9-4b55-bbff-da1ba8206b47","system_id":"levelo_inurba_marseille","lat":43.261782,"lon":5.374515,"is_reserved":false,"is_disabled":false,"rental_uris":{"android":"levelo://app?vid=bb286dab-a9f9-4b55-bbff-da1ba8206b47","ios":"levelo://app?vid=bb286dab-a9f9-4b55-bbff-da1ba8206b47"},"vehicle_type_id":"4","last_reported":1702717571,"current_range_meters":28000,"station_id":"ce4bhgp2rcd13ifvqfc0","pricing_plan_id":"free"},{"bike_id":"2e54b5eb-86d4-42b0-b58c-6213048bdfc5","system_id":"levelo_inurba_marseille","lat":43.261782,"lon":5.374515,"is_reserved":false,"is_disabled":false,"rental_uris":{"android":"levelo://app?vid=2e54b5eb-86d4-42b0-b58c-6213048bdfc5","ios":"levelo://app?vid=2e54b5eb-86d4-42b0-b58c-6213048bdfc5"},"vehicle_type_id":"4","last_reported":1702717571,"current_range_meters":28400,"station_id":"ce4bhgp2rcd13ifvqfc0","pricing_plan_id":"free"},{"bike_id":"6672fbaa-2b31-42be-aa3f-35ae0e92538a","system_id":"levelo_inurba_marseille","lat":43.261782,"lon":5.374515,"is_reserved":false,"is_disabled":false,"rental_uris":{"android":"levelo://app?vid=6672fbaa-2b31-42be-aa3f-35ae0e92538a","ios":"levelo://app?vid=6672fbaa-2b31-42be-aa3f-35ae0e92538a"},"vehicle_type_id":"4","last_reported":1702717571,"current_range_meters":31200,"station_id":"ce4bhgp2rcd13ifvqfc0","pricing_plan_id":"free"},{"bike_id":"924dd0b6-11bb-4688-9962-d909c563de41","system_id":"levelo_inurba_marseille","lat":43.26184,"lon":5.37442,"is_reserved":false,"is_disabled":false,"rental_uris":{"android":"levelo://app?vid=924dd0b6-11bb-4688-9962-d909c563de41","ios":"levelo://app?vid=924dd0b6-11bb-4688-9962-d909c563de41"},"vehicle_type_id":"4","last_reported":1702717571,"current_range_meters":18800,"station_id":"ce4bhgp2rcd13ifvqfc0","pricing_plan_id":"free"},{"bike_id":"4dc0e6e3-8a35-452d-90f5-2c022ecd845c","system_id":"levelo_inurba_marseille","lat":43.261782,"lon":5.374515,"is_reserved":false,"is_disabled":false,"rental_uris":{"android":"levelo://app?vid=4dc0e6e3-8a35-452d-90f5-2c022ecd845c","ios":"levelo://app?vid=4dc0e6e3-8a35-452d-90f5-2c022ecd845c"},"vehicle_type_id":"4","last_reported":1702717571,"current_range_meters":30000,"station_id":"ce4bhgp2rcd13ifvqfc0","pricing_plan_id":"free"},{"bike_id":"30223ffb-949e-4b1b-9e9c-ed7fa5e91e6b","system_id":"levelo_inurba_marseille","lat":43.26182,"lon":5.37443,"is_reserved":false,"is_disabled":false,"rental_uris":{"android":"levelo://app?vid=30223ffb-949e-4b1b-9e9c-ed7fa5e91e6b","ios":"levelo://app?vid=30223ffb-949e-4b1b-9e9c-ed7fa5e91e6b"},"vehicle_type_id":"4","last_reported":1702717571,"current_range_meters":21600,"station_id":"ce4bhgp2rcd13ifvqfc0","pricing_plan_id":"free"},{"bike_id":"3f89a02b-bdc2-4eb0-bdc8-f06806993e8a","system_id":"levelo_inurba_marseille","lat":43.317104,"lon":5.436818,"is_reserved":false,"is_disabled":false,"rental_uris":{"android":"levelo://app?vid=3f89a02b-bdc2-4eb0-bdc8-f06806993e8a","ios":"levelo://app?vid=3f89a02b-bdc2-4eb0-bdc8-f06806993e8a"},"vehicle_type_id":"4","last_reported":1702717571,"current_range_meters":22000,"station_id":"ce4bhp92rcd13ifvqhcg","pricing_plan_id":"free"},{"bike_id":"fafcb3c1-52e3-401d-b07d-765f8555be8b","system_id":"levelo_inurba_marseille","lat":43.271368,"lon":5.40928,"is_reserved":false,"is_disabled":false,"rental_uris":{"android":"levelo://app?vid=fafcb3c1-52e3-401d-b07d-765f8555be8b","ios":"levelo://app?vid=fafcb3c1-52e3-401d-b07d-765f8555be8b"},"vehicle_type_id":"4","last_reported":1702717571,"current_range_meters":25600,"station_id":"ce4bhl12rcd13ifvqgf0","pricing_plan_id":"free"},{"bike_id":"5c656223-948f-494d-afab-6544f9fd8225","system_id":"levelo_inurba_marseille","lat":43.26202,"lon":5.379299,"is_reserved":false,"is_disabled":false,"rental_uris":{"android":"levelo://app?vid=5c656223-948f-494d-afab-6544f9fd8225","ios":"levelo://app?vid=5c656223-948f-494d-afab-6544f9fd8225"},"vehicle_type_id":"4","last_reported":1702717571,"current_range_meters":29200,"station_id":"ce4bhjp2rcd13ifvqg90","pricing_plan_id":"free"},{"bike_id":"bf1315bd-ba0d-4705-95f9-4d9076723994","system_id":"levelo_inurba_marseille","lat":43.262012,"lon":5.379307,"is_reserved":false,"is_disabled":false,"rental_uris":{"android":"levelo://app?vid=bf1315bd-ba0d-4705-95f9-4d9076723994","ios":"levelo://app?vid=bf1315bd-ba0d-4705-95f9-4d9076723994"},"vehicle_type_id":"4","last_reported":1702717571,"current_range_meters":11600,"station_id":"ce4bhjp2rcd13ifvqg90","pricing_plan_id":"free"},{"bike_id":"dd56b8c8-65e0-491e-8f20-9ee5b66ffaa9","system_id":"levelo_inurba_marseille","lat":43.298768,"lon":5.43643,"is_reserved":false,"is_disabled":false,"rental_uris":{"android":"levelo://app?vid=dd56b8c8-65e0-491e-8f20-9ee5b66ffaa9","ios":"levelo://app?vid=dd56b8c8-65e0-491e-8f20-9ee5b66ffaa9"},"vehicle_type_id":"4","last_reported":1702717571,"current_range_meters":30000,"station_id":"ce4bhpp2rcd13ifvqhfg","pricing_plan_id":"free"},{"bike_id":"0d0846a5-da9c-4e14-a6a7-2d974fd25282","system_id":"levelo_inurba_marseille","lat":43.260219,"lon":5.37546,"is_reserved":false,"is_disabled":false,"rental_uris":{"android":"levelo://app?vid=0d0846a5-da9c-4e14-a6a7-2d974fd25282","ios":"levelo://app?vid=0d0846a5-da9c-4e14-a6a7-2d974fd25282"},"vehicle_type_id":"4","last_reported":1702717571,"current_range_meters":26400,"station_id":"ce4bhgh2rcd13ifvqfa0","pricing_plan_id":"free"},{"bike_id":"31998b13-745f-4f17-b3ac-6cc5ccee1f4f","system_id":"levelo_inurba_marseille","lat":43.281548,"lon":5.42643,"is_reserved":false,"is_disabled":false,"rental_uris":{"android":"levelo://app?vid=31998b13-745f-4f17-b3ac-6cc5ccee1f4f","ios":"levelo://app?vid=31998b13-745f-4f17-b3ac-6cc5ccee1f4f"},"vehicle_type_id":"4","last_reported":1702717571,"current_range_meters":26400,"station_id":"ce4bhnh2rcd13ifvqgug","pricing_plan_id":"free"},{"bike_id":"b5b95e05-4fc7-41d3-89b2-cd5619b26808","system_id":"levelo_inurba_marseille","lat":43.2607,"lon":5.393983,"is_reserved":false,"is_disabled":false,"rental_uris":{"android":"levelo://app?vid=b5b95e05-4fc7-41d3-89b2-cd5619b26808","ios":"levelo://app?vid=b5b95e05-4fc7-41d3-89b2-cd5619b26808"},"vehicle_type_id":"4","last_reported":1702717571,"current_range_meters":23600,"station_id":"ce4bhh92rcd13ifvqfj0","pricing_plan_id":"free"},{"bike_id":"5d60bc90-8f99-4e98-b2f6-5bf596f34f7c","system_id":"levelo_inurba_marseille","lat":43.2607,"lon":5.393983,"is_reserved":false,"is_disabled":false,"rental_uris":{"android":"levelo://app?vid=5d60bc90-8f99-4e98-b2f6-5bf596f34f7c","ios":"levelo://app?vid=5d60bc90-8f99-4e98-b2f6-5bf596f34f7c"},"vehicle_type_id":"4","last_reported":1702717571,"current_range_meters":31200,"station_id":"ce4bhh92rcd13ifvqfj0","pricing_plan_id":"free"},{"bike_id":"407de52b-e231-47b1-8325-f6fab784ea23","system_id":"levelo_inurba_marseille","lat":43.2607,"lon":5.393983,"is_reserved":false,"is_disabled":false,"rental_uris":{"android":"levelo://app?vid=407de52b-e231-47b1-8325-f6fab784ea23","ios":"levelo://app?vid=407de52b-e231-47b1-8325-f6fab784ea23"},"vehicle_type_id":"4","last_reported":1702717571,"current_range_meters":30000,"station_id":"ce4bhh92rcd13ifvqfj0","pricing_plan_id":"free"},{"bike_id":"0f46f0e8-3eb4-45df-b3ff-63a01897fadd","system_id":"levelo_inurba_marseille","lat":43.275028,"lon":5.424534,"is_reserved":false,"is_disabled":false,"rental_uris":{"android":"levelo://app?vid=0f46f0e8-3eb4-45df-b3ff-63a01897fadd","ios":"levelo://app?vid=0f46f0e8-3eb4-45df-b3ff-63a01897fadd"},"vehicle_type_id":"4","last_reported":1702717571,"current_range_meters":21600,"station_id":"ce4bhn92rcd13ifvqgrg","pricing_plan_id":"free"},{"bike_id":"12454bed-0e67-4352-b29e-c06618713b6a","system_id":"levelo_inurba_marseille","lat":43.275028,"lon":5.424534,"is_reserved":false,"is_disabled":false,"rental_uris":{"android":"levelo://app?vid=12454bed-0e67-4352-b29e-c06618713b6a","ios":"levelo://app?vid=12454bed-0e67-4352-b29e-c06618713b6a"},"vehicle_type_id":"4","last_reported":1702717571,"current_range_meters":20000,"station_id":"ce4bhn92rcd13ifvqgrg","pricing_plan_id":"free"},{"bike_id":"1168f14e-c3fd-4078-a726-414d5cb0e76a","system_id":"levelo_inurba_marseille","lat":43.275028,"lon":5.424534,"is_reserved":false,"is_disabled":false,"rental_uris":{"android":"levelo://app?vid=1168f14e-c3fd-4078-a726-414d5cb0e76a","ios":"levelo://app?vid=1168f14e-c3fd-4078-a726-414d5cb0e76a"},"vehicle_type_id":"4","last_reported":1702717571,"current_range_meters":7600,"station_id":"ce4bhn92rcd13ifvqgrg","pricing_plan_id":"free"},{"bike_id":"f4b2f07e-f903-4d4a-a248-e6cf94f99938","system_id":"levelo_inurba_marseille","lat":43.275028,"lon":5.424534,"is_reserved":false,"is_disabled":false,"rental_uris":{"android":"levelo://app?vid=f4b2f07e-f903-4d4a-a248-e6cf94f99938","ios":"levelo://app?vid=f4b2f07e-f903-4d4a-a248-e6cf94f99938"},"vehicle_type_id":"4","last_reported":1702717571,"current_range_meters":17200,"station_id":"ce4bhn92rcd13ifvqgrg","pricing_plan_id":"free"},{"bike_id":"b76e4b50-f6f0-431f-a6f8-b141c06663a4","system_id":"levelo_inurba_marseille","lat":43.275028,"lon":5.424534,"is_reserved":false,"is_disabled":false,"rental_uris":{"android":"levelo://app?vid=b76e4b50-f6f0-431f-a6f8-b141c06663a4","ios":"levelo://app?vid=b76e4b50-f6f0-431f-a6f8-b141c06663a4"},"vehicle_type_id":"4","last_reported":1702717571,"current_range_meters":15600,"station_id":"ce4bhn92rcd13ifvqgrg","pricing_plan_id":"free"},{"bike_id":"cc5d76b0-a393-4a4c-baa6-a656fc269eb7","system_id":"levelo_inurba_marseille","lat":43.275028,"lon":5.424534,"is_reserved":false,"is_disabled":false,"rental_uris":{"android":"levelo://app?vid=cc5d76b0-a393-4a4c-baa6-a656fc269eb7","ios":"levelo://app?vid=cc5d76b0-a393-4a4c-baa6-a656fc269eb7"},"vehicle_type_id":"4","last_reported":1702717571,"current_range_meters":30000,"station_id":"ce4bhn92rcd13ifvqgrg","pricing_plan_id":"free"},{"bike_id":"87b0066f-ecaf-479d-aa40-df36db6bdfa8","system_id":"levelo_inurba_marseille","lat":43.275028,"lon":5.424534,"is_reserved":false,"is_disabled":false,"rental_uris":{"android":"levelo://app?vid=87b0066f-ecaf-479d-aa40-df36db6bdfa8","ios":"levelo://app?vid=87b0066f-ecaf-479d-aa40-df36db6bdfa8"},"vehicle_type_id":"4","last_reported":1702717571,"current_range_meters":23200,"station_id":"ce4bhn92rcd13ifvqgrg","pricing_plan_id":"free"},{"bike_id":"4a436564-a1e8-41f0-94ce-946bc6833290","system_id":"levelo_inurba_marseille","lat":43.258224,"lon":5.394369,"is_reserved":false,"is_disabled":false,"rental_uris":{"android":"levelo://app?vid=4a436564-a1e8-41f0-94ce-946bc6833290","ios":"levelo://app?vid=4a436564-a1e8-41f0-94ce-946bc6833290"},"vehicle_type_id":"4","last_reported":1702717571,"current_range_meters":29600,"station_id":"ce4bhip2rcd13ifvqft0","pricing_plan_id":"free"},{"bike_id":"2ecae49b-9e6e-4af1-b744-4b6eeb8f1ceb","system_id":"levelo_inurba_marseille","lat":43.258224,"lon":5.394369,"is_reserved":false,"is_disabled":false,"rental_uris":{"android":"levelo://app?vid=2ecae49b-9e6e-4af1-b744-4b6eeb8f1ceb","ios":"levelo://app?vid=2ecae49b-9e6e-4af1-b744-4b6eeb8f1ceb"},"vehicle_type_id":"4","last_reported":1702717571,"current_range_meters":18800,"station_id":"ce4bhip2rcd13ifvqft0","pricing_plan_id":"free"},{"bike_id":"d49c822c-39f5-4a5d-be91-a7e3c6be2340","system_id":"levelo_inurba_marseille","lat":43.255756,"lon":5.382303,"is_reserved":false,"is_disabled":false,"rental_uris":{"android":"levelo://app?vid=d49c822c-39f5-4a5d-be91-a7e3c6be2340","ios":"levelo://app?vid=d49c822c-39f5-4a5d-be91-a7e3c6be2340"},"vehicle_type_id":"4","last_reported":1702717571,"current_range_meters":13600,"station_id":"ce4bhih2rcd13ifvqfs0","pricing_plan_id":"free"},{"bike_id":"ce2a0380-4839-49cb-a35a-f1dd2d58c862","system_id":"levelo_inurba_marseille","lat":43.258224,"lon":5.394369,"is_reserved":false,"is_disabled":false,"rental_uris":{"android":"levelo://app?vid=ce2a0380-4839-49cb-a35a-f1dd2d58c862","ios":"levelo://app?vid=ce2a0380-4839-49cb-a35a-f1dd2d58c862"},"vehicle_type_id":"4","last_reported":1702717571,"current_range_meters":24400,"station_id":"ce4bhip2rcd13ifvqft0","pricing_plan_id":"free"},{"bike_id":"8339bbaf-c1ff-4a65-950d-ccf5ab22c373","system_id":"levelo_inurba_marseille","lat":43.25502,"lon":5.37648,"is_reserved":false,"is_disabled":false,"rental_uris":{"android":"levelo://app?vid=8339bbaf-c1ff-4a65-950d-ccf5ab22c373","ios":"levelo://app?vid=8339bbaf-c1ff-4a65-950d-ccf5ab22c373"},"vehicle_type_id":"4","last_reported":1702717571,"current_range_meters":31200,"station_id":"ce4bhh12rcd13ifvqff0","pricing_plan_id":"free"},{"bike_id":"152f0b5f-2e6b-49d7-9e6c-7e17f0f4350b","system_id":"levelo_inurba_marseille","lat":43.270721,"lon":5.422764,"is_reserved":false,"is_disabled":false,"rental_uris":{"android":"levelo://app?vid=152f0b5f-2e6b-49d7-9e6c-7e17f0f4350b","ios":"levelo://app?vid=152f0b5f-2e6b-49d7-9e6c-7e17f0f4350b"},"vehicle_type_id":"4","last_reported":1702717571,"current_range_meters":18000,"station_id":"ce4bhk92rcd13ifvqgb0","pricing_plan_id":"free"},{"bike_id":"d80e9aeb-ee42-4689-98ac-80b68def8b3f","system_id":"levelo_inurba_marseille","lat":43.270721,"lon":5.422764,"is_reserved":false,"is_disabled":false,"rental_uris":{"android":"levelo://app?vid=d80e9aeb-ee42-4689-98ac-80b68def8b3f","ios":"levelo://app?vid=d80e9aeb-ee42-4689-98ac-80b68def8b3f"},"vehicle_type_id":"4","last_reported":1702717571,"current_range_meters":31200,"station_id":"ce4bhk92rcd13ifvqgb0","pricing_plan_id":"free"},{"bike_id":"9f23c4fe-2b8e-4fa6-aeed-63e5db4fbaf9","system_id":"levelo_inurba_marseille","lat":43.27068,"lon":5.42279,"is_reserved":false,"is_disabled":false,"rental_uris":{"android":"levelo://app?vid=9f23c4fe-2b8e-4fa6-aeed-63e5db4fbaf9","ios":"levelo://app?vid=9f23c4fe-2b8e-4fa6-aeed-63e5db4fbaf9"},"vehicle_type_id":"4","last_reported":1702717571,"current_range_meters":9600,"station_id":"ce4bhk92rcd13ifvqgb0","pricing_plan_id":"free"},{"bike_id":"1e1fea81-c3da-44de-a110-d5840a7bcf3b","system_id":"levelo_inurba_marseille","lat":43.25857,"lon":5.39899,"is_reserved":false,"is_disabled":false,"rental_uris":{"android":"levelo://app?vid=1e1fea81-c3da-44de-a110-d5840a7bcf3b","ios":"levelo://app?vid=1e1fea81-c3da-44de-a110-d5840a7bcf3b"},"vehicle_type_id":"4","last_reported":1702717571,"current_range_meters":21600,"station_id":"ce4bhl92rcd13ifvqghg","pricing_plan_id":"free"},{"bike_id":"b1f63a6a-b115-4c25-9a8f-84eb606e95df","system_id":"levelo_inurba_marseille","lat":43.259009,"lon":5.40929,"is_reserved":false,"is_disabled":false,"rental_uris":{"android":"levelo://app?vid=b1f63a6a-b115-4c25-9a8f-84eb606e95df","ios":"levelo://app?vid=b1f63a6a-b115-4c25-9a8f-84eb606e95df"},"vehicle_type_id":"4","last_reported":1702717571,"current_range_meters":22400,"station_id":"ce4bhm92rcd13ifvqglg","pricing_plan_id":"free"},{"bike_id":"2386440a-b837-41d7-96b1-ba2e2d56aea6","system_id":"levelo_inurba_marseille","lat":43.25933,"lon":5.4091,"is_reserved":false,"is_disabled":false,"rental_uris":{"android":"levelo://app?vid=2386440a-b837-41d7-96b1-ba2e2d56aea6","ios":"levelo://app?vid=2386440a-b837-41d7-96b1-ba2e2d56aea6"},"vehicle_type_id":"4","last_reported":1702717571,"current_range_meters":20400,"station_id":"ce4bhm92rcd13ifvqglg","pricing_plan_id":"free"},{"bike_id":"9e9c1ace-693b-4f7b-8f16-ab8c2f2f9236","system_id":"levelo_inurba_marseille","lat":43.25929,"lon":5.40908,"is_reserved":false,"is_disabled":false,"rental_uris":{"android":"levelo://app?vid=9e9c1ace-693b-4f7b-8f16-ab8c2f2f9236","ios":"levelo://app?vid=9e9c1ace-693b-4f7b-8f16-ab8c2f2f9236"},"vehicle_type_id":"4","last_reported":1702717571,"current_range_meters":30400,"station_id":"ce4bhm92rcd13ifvqglg","pricing_plan_id":"free"},{"bike_id":"07e99022-3a40-4b83-a840-d9fbbc83b647","system_id":"levelo_inurba_marseille","lat":43.259013,"lon":5.409301,"is_reserved":false,"is_disabled":false,"rental_uris":{"android":"levelo://app?vid=07e99022-3a40-4b83-a840-d9fbbc83b647","ios":"levelo://app?vid=07e99022-3a40-4b83-a840-d9fbbc83b647"},