{"last_updated":1741183727,"ttl":60,"version":"2.2","data":{"bikes":[{"bike_id":"de8d4ea0-6d36-4836-9890-57cd6c20e85e","system_id":"levelo_inurba_marseille","lat":43.25105,"lon":5.40328,"is_reserved":false,"is_disabled":false,"rental_uris":{"android":"levelo://app?vid=de8d4ea0-6d36-4836-9890-57cd6c20e85e","ios":"levelo://app?vid=de8d4ea0-6d36-4836-9890-57cd6c20e85e"},"vehicle_type_id":"4","last_reported":1741183728,"current_range_meters":2800,"station_id":"ce4bhlh2rcd13ifvqgig","pricing_plan_id":"cebpf4jnsgd1na2vs0mg"},{"bike_id":"f19c6740-8296-45bf-b5c0-5ed3e5caf1e6","system_id":"levelo_inurba_marseille","lat":43.283914,"lon":5.384007,"is_reserved":false,"is_disabled":false,"rental_uris":{"android":"levelo://app?vid=f19c6740-8296-45bf-b5c0-5ed3e5caf1e6","ios":"levelo://app?vid=f19c6740-8296-45bf-b5c0-5ed3e5caf1e6"},"vehicle_type_id":"4","last_reported":1741183728,"current_range_meters":2000,"station_id":"ce4bh512rcd13ifvqe3g","pricing_plan_id":"cebpf4jnsgd1na2vs0mg"},{"bike_id":"0f2c274c-f98a-4eac-8d29-5119d965642f","system_id":"levelo_inurba_marseille","lat":43.29844,"lon":5.36275,"is_reserved":false,"is_disabled":false,"rental_uris":{"android":"levelo://app?vid=0f2c274c-f98a-4eac-8d29-5119d965642f","ios":"levelo://app?vid=0f2c274c-f98a-4eac-8d29-5119d965642f"},"vehicle_type_id":"4","last_reported":1741183728,"current_range_meters":2000,"station_id":"ce4bgpp2rcd13ifvqc3g","pricing_plan_id":"cebpf4jnsgd1na2vs0mg"},{"bike_id":"f721f885-ccff-4d83-a5e0-e18ca2b2a250","system_id":"levelo_inurba_marseille","lat":43.28425,"lon":5.34977,"is_reserved":false,"is_disabled":true,"rental_uris":{"android":"levelo://app?vid=f721f885-ccff-4d83-a5e0-e18ca2b2a250","ios":"levelo://app?vid=f721f885-ccff-4d83-a5e0-e18ca2b2a250"},"vehicle_type_id":"4","last_reported":1741183728,"current_range_meters":2800,"station_id":"ce4bhbh2rcd13ifvqepg","pricing_plan_id":"cebpf4jnsgd1na2vs0mg"},{"bike_id":"a73e4396-8d0b-42e0-ab46-3f12a25af06f","system_id":"levelo_inurba_marseille","lat":43.309567,"lon":5.390297,"is_reserved":false,"is_disabled":false,"rental_uris":{"android":"levelo://app?vid=a73e4396-8d0b-42e0-ab46-3f12a25af06f","ios":"levelo://app?vid=a73e4396-8d0b-42e0-ab46-3f12a25af06f"},"vehicle_type_id":"4","last_reported":1741183728,"current_range_meters":2800,"station_id":"ce4bgup2rcd13ifvqco0","pricing_plan_id":"cebpf4jnsgd1na2vs0mg"},{"bike_id":"ef472b7d-20ea-4f63-86c1-4eb34bb687a5","system_id":"levelo_inurba_marseille","lat":43.283109,"lon":5.373758,"is_reserved":false,"is_disabled":false,"rental_uris":{"android":"levelo://app?vid=ef472b7d-20ea-4f63-86c1-4eb34bb687a5","ios":"levelo://app?vid=ef472b7d-20ea-4f63-86c1-4eb34bb687a5"},"vehicle_type_id":"4","last_reported":1741183728,"current_range_meters":2800,"station_id":"ce4bha12rcd13ifvqef0","pricing_plan_id":"cebpf4jnsgd1na2vs0mg"},{"bike_id":"6c84e1f9-12fa-470f-a60a-952ad29b2d5e","system_id":"levelo_inurba_marseille","lat":43.32503,"lon":5.41482,"is_reserved":false,"is_disabled":false,"rental_uris":{"android":"levelo://app?vid=6c84e1f9-12fa-470f-a60a-952ad29b2d5e","ios":"levelo://app?vid=6c84e1f9-12fa-470f-a60a-952ad29b2d5e"},"vehicle_type_id":"4","last_reported":1741183728,"current_range_meters":3200,"station_id":"ce4bhq12rcd13ifvqhhg","pricing_plan_id":"cebpf4jnsgd1na2vs0mg"},{"bike_id":"d2866ede-b948-4f08-884c-c2aadc310ec7","system_id":"levelo_inurba_marseille","lat":43.23149,"lon":5.43716,"is_reserved":false,"is_disabled":false,"rental_uris":{"android":"levelo://app?vid=d2866ede-b948-4f08-884c-c2aadc310ec7","ios":"levelo://app?vid=d2866ede-b948-4f08-884c-c2aadc310ec7"},"vehicle_type_id":"4","last_reported":1741183728,"current_range_meters":3200,"station_id":"ce4bhmp2rcd13ifvqgog","pricing_plan_id":"cebpf4jnsgd1na2vs0mg"},{"bike_id":"016344ef-8bb3-4523-9375-d3d6fb6607af","system_id":"levelo_inurba_marseille","lat":43.23192,"lon":5.3555,"is_reserved":false,"is_disabled":false,"rental_uris":{"android":"levelo://app?vid=016344ef-8bb3-4523-9375-d3d6fb6607af","ios":"levelo://app?vid=016344ef-8bb3-4523-9375-d3d6fb6607af"},"vehicle_type_id":"4","last_reported":1741183728,"current_range_meters":3200,"station_id":"ce4bhu92rcd13ifvqi70","pricing_plan_id":"cebpf4jnsgd1na2vs0mg"},{"bike_id":"874dfecc-02df-44a8-8ee0-553086db8534","system_id":"levelo_inurba_marseille","lat":43.284465,"lon":5.35884,"is_reserved":false,"is_disabled":false,"rental_uris":{"android":"levelo://app?vid=874dfecc-02df-44a8-8ee0-553086db8534","ios":"levelo://app?vid=874dfecc-02df-44a8-8ee0-553086db8534"},"vehicle_type_id":"4","last_reported":1741183728,"current_range_meters":3600,"station_id":"ce4bhah2rcd13ifvqei0","pricing_plan_id":"cebpf4jnsgd1na2vs0mg"},{"bike_id":"58e5910f-368c-400d-9eaa-da41b512eb6b","system_id":"levelo_inurba_marseille","lat":43.29005,"lon":5.3562,"is_reserved":false,"is_disabled":true,"rental_uris":{"android":"levelo://app?vid=58e5910f-368c-400d-9eaa-da41b512eb6b","ios":"levelo://app?vid=58e5910f-368c-400d-9eaa-da41b512eb6b"},"vehicle_type_id":"4","last_reported":1741183728,"current_range_meters":3600,"station_id":"ce4bhb92rcd13ifvqen0","pricing_plan_id":"cebpf4jnsgd1na2vs0mg"},{"bike_id":"9f62503a-7dbe-451b-8210-fbef40adef2b","system_id":"levelo_inurba_marseille","lat":43.31189,"lon":5.38719,"is_reserved":false,"is_disabled":false,"rental_uris":{"android":"levelo://app?vid=9f62503a-7dbe-451b-8210-fbef40adef2b","ios":"levelo://app?vid=9f62503a-7dbe-451b-8210-fbef40adef2b"},"vehicle_type_id":"4","last_reported":1741183728,"current_range_meters":3600,"station_id":"ce4bgv12rcd13ifvqcp0","pricing_plan_id":"cebpf4jnsgd1na2vs0mg"},{"bike_id":"c5bacb55-d7af-472b-bf96-4d487921dc77","system_id":"levelo_inurba_marseille","lat":43.33611,"lon":5.41031,"is_reserved":false,"is_disabled":false,"rental_uris":{"android":"levelo://app?vid=c5bacb55-d7af-472b-bf96-4d487921dc77","ios":"levelo://app?vid=c5bacb55-d7af-472b-bf96-4d487921dc77"},"vehicle_type_id":"4","last_reported":1741183728,"current_range_meters":4000,"station_id":"ce4bhqh2rcd13ifvqhmg","pricing_plan_id":"cebpf4jnsgd1na2vs0mg"},{"bike_id":"d109470e-5c1e-48c9-9726-bacaa587da37","system_id":"levelo_inurba_marseille","lat":43.28035,"lon":5.36944,"is_reserved":false,"is_disabled":true,"rental_uris":{"android":"levelo://app?vid=d109470e-5c1e-48c9-9726-bacaa587da37","ios":"levelo://app?vid=d109470e-5c1e-48c9-9726-bacaa587da37"},"vehicle_type_id":"4","last_reported":1741183728,"current_range_meters":4000,"station_id":"ce4bha12rcd13ifvqef0","pricing_plan_id":"cebpf4jnsgd1na2vs0mg"},{"bike_id":"2ef55637-ae99-4236-919e-a52f4180da8e","system_id":"levelo_inurba_marseille","lat":43.28671,"lon":5.38656,"is_reserved":false,"is_disabled":false,"rental_uris":{"android":"levelo://app?vid=2ef55637-ae99-4236-919e-a52f4180da8e","ios":"levelo://app?vid=2ef55637-ae99-4236-919e-a52f4180da8e"},"vehicle_type_id":"4","last_reported":1741183728,"current_range_meters":3600,"station_id":"ce4bh492rcd13ifvqdug","pricing_plan_id":"cebpf4jnsgd1na2vs0mg"},{"bike_id":"29046509-128a-4309-9d7a-a38034fa7bd8","system_id":"levelo_inurba_marseille","lat":43.33612,"lon":5.4102,"is_reserved":false,"is_disabled":false,"rental_uris":{"android":"levelo://app?vid=29046509-128a-4309-9d7a-a38034fa7bd8","ios":"levelo://app?vid=29046509-128a-4309-9d7a-a38034fa7bd8"},"vehicle_type_id":"4","last_reported":1741183728,"current_range_meters":4000,"station_id":"ce4bhqh2rcd13ifvqhmg","pricing_plan_id":"cebpf4jnsgd1na2vs0mg"},{"bike_id":"cd037331-8da8-4c31-80bf-ca2ffa2839a4","system_id":"levelo_inurba_marseille","lat":43.30967,"lon":5.3903,"is_reserved":false,"is_disabled":true,"rental_uris":{"android":"levelo://app?vid=cd037331-8da8-4c31-80bf-ca2ffa2839a4","ios":"levelo://app?vid=cd037331-8da8-4c31-80bf-ca2ffa2839a4"},"vehicle_type_id":"4","last_reported":1741183728,"current_range_meters":4000,"station_id":"ce4bgup2rcd13ifvqco0","pricing_plan_id":"cebpf4jnsgd1na2vs0mg"},{"bike_id":"d3cbdd86-aa6d-491f-9e31-42bb3d27f281","system_id":"levelo_inurba_marseille","lat":43.26224,"lon":5.37435,"is_reserved":false,"is_disabled":false,"rental_uris":{"android":"levelo://app?vid=d3cbdd86-aa6d-491f-9e31-42bb3d27f281","ios":"levelo://app?vid=d3cbdd86-aa6d-491f-9e31-42bb3d27f281"},"vehicle_type_id":"4","last_reported":1741183728,"current_range_meters":4000,"station_id":"","pricing_plan_id":"cebpf4jnsgd1na2vs0mg"},{"bike_id":"c072f669-adc0-46a8-a4fc-ff5ec71c34a7","system_id":"levelo_inurba_marseille","lat":43.2991,"lon":5.38149,"is_reserved":false,"is_disabled":false,"rental_uris":{"android":"levelo://app?vid=c072f669-adc0-46a8-a4fc-ff5ec71c34a7","ios":"levelo://app?vid=c072f669-adc0-46a8-a4fc-ff5ec71c34a7"},"vehicle_type_id":"4","last_reported":1741183728,"current_range_meters":4400,"station_id":"ce4bgj12rcd13ifvqbc0","pricing_plan_id":"cebpf4jnsgd1na2vs0mg"},{"bike_id":"f99ca2ba-cc4d-4372-8543-b9b3a2793c9c","system_id":"levelo_inurba_marseille","lat":43.22943,"lon":5.35373,"is_reserved":false,"is_disabled":false,"rental_uris":{"android":"levelo://app?vid=f99ca2ba-cc4d-4372-8543-b9b3a2793c9c","ios":"levelo://app?vid=f99ca2ba-cc4d-4372-8543-b9b3a2793c9c"},"vehicle_type_id":"4","last_reported":1741183728,"current_range_meters":4400,"station_id":"cpo3532slgdg3j2ikp40","pricing_plan_id":"cebpf4jnsgd1na2vs0mg"},{"bike_id":"dbd5cc36-9514-472c-972a-5f36b8bc684b","system_id":"levelo_inurba_marseille","lat":43.29794,"lon":5.40398,"is_reserved":false,"is_disabled":false,"rental_uris":{"android":"levelo://app?vid=dbd5cc36-9514-472c-972a-5f36b8bc684b","ios":"levelo://app?vid=dbd5cc36-9514-472c-972a-5f36b8bc684b"},"vehicle_type_id":"4","last_reported":1741183728,"current_range_meters":4400,"station_id":"ce4bh112rcd13ifvqd90","pricing_plan_id":"cebpf4jnsgd1na2vs0mg"},{"bike_id":"274e53b9-52d4-4068-bafb-3eed813636e2","system_id":"levelo_inurba_marseille","lat":43.25933,"lon":5.40902,"is_reserved":false,"is_disabled":false,"rental_uris":{"android":"levelo://app?vid=274e53b9-52d4-4068-bafb-3eed813636e2","ios":"levelo://app?vid=274e53b9-52d4-4068-bafb-3eed813636e2"},"vehicle_type_id":"4","last_reported":1741183728,"current_range_meters":4400,"station_id":"ce4bhm92rcd13ifvqglg","pricing_plan_id":"cebpf4jnsgd1na2vs0mg"},{"bike_id":"70f09331-ffec-402a-b68a-b1e3ece46b4a","system_id":"levelo_inurba_marseille","lat":43.23137,"lon":5.43724,"is_reserved":false,"is_disabled":false,"rental_uris":{"android":"levelo://app?vid=70f09331-ffec-402a-b68a-b1e3ece46b4a","ios":"levelo://app?vid=70f09331-ffec-402a-b68a-b1e3ece46b4a"},"vehicle_type_id":"4","last_reported":1741183728,"current_range_meters":4400,"station_id":"ce4bhmp2rcd13ifvqgog","pricing_plan_id":"cebpf4jnsgd1na2vs0mg"},{"bike_id":"2f932698-cf21-4455-8444-5743cdb76ab1","system_id":"levelo_inurba_marseille","lat":43.33726,"lon":5.3919,"is_reserved":false,"is_disabled":false,"rental_uris":{"android":"levelo://app?vid=2f932698-cf21-4455-8444-5743cdb76ab1","ios":"levelo://app?vid=2f932698-cf21-4455-8444-5743cdb76ab1"},"vehicle_type_id":"4","last_reported":1741183728,"current_range_meters":4800,"station_id":"ce4bhr92rcd13ifvqhsg","pricing_plan_id":"cebpf4jnsgd1na2vs0mg"},{"bike_id":"3f9fae04-f1f3-4869-8154-8b5321664179","system_id":"levelo_inurba_marseille","lat":43.23068,"lon":5.35485,"is_reserved":false,"is_disabled":false,"rental_uris":{"android":"levelo://app?vid=3f9fae04-f1f3-4869-8154-8b5321664179","ios":"levelo://app?vid=3f9fae04-f1f3-4869-8154-8b5321664179"},"vehicle_type_id":"4","last_reported":1741183728,"current_range_meters":4800,"station_id":"cpo3342slgdg3j2ifvpg","pricing_plan_id":"cebpf4jnsgd1na2vs0mg"},{"bike_id":"26cd7f29-99f6-46a2-a5d8-e1f367c4e1a6","system_id":"levelo_inurba_marseille","lat":43.23153,"lon":5.43723,"is_reserved":false,"is_disabled":false,"rental_uris":{"android":"levelo://app?vid=26cd7f29-99f6-46a2-a5d8-e1f367c4e1a6","ios":"levelo://app?vid=26cd7f29-99f6-46a2-a5d8-e1f367c4e1a6"},"vehicle_type_id":"4","last_reported":1741183728,"current_range_meters":4800,"station_id":"ce4bhmp2rcd13ifvqgog","pricing_plan_id":"cebpf4jnsgd1na2vs0mg"},{"bike_id":"9cb522a7-043b-4913-a658-b375c285bba4","system_id":"levelo_inurba_marseille","lat":43.291007,"lon":5.368191,"is_reserved":false,"is_disabled":false,"rental_uris":{"android":"levelo://app?vid=9cb522a7-043b-4913-a658-b375c285bba4","ios":"levelo://app?vid=9cb522a7-043b-4913-a658-b375c285bba4"},"vehicle_type_id":"4","last_reported":1741183728,"current_range_meters":4400,"station_id":"ce4bhap2rcd13ifvqek0","pricing_plan_id":"cebpf4jnsgd1na2vs0mg"},{"bike_id":"50078e76-ac2f-4e72-8040-8a79ccca3138","system_id":"levelo_inurba_marseille","lat":43.25108,"lon":5.40325,"is_reserved":false,"is_disabled":false,"rental_uris":{"android":"levelo://app?vid=50078e76-ac2f-4e72-8040-8a79ccca3138","ios":"levelo://app?vid=50078e76-ac2f-4e72-8040-8a79ccca3138"},"vehicle_type_id":"4","last_reported":1741183728,"current_range_meters":4800,"station_id":"ce4bhlh2rcd13ifvqgig","pricing_plan_id":"cebpf4jnsgd1na2vs0mg"},{"bike_id":"91e4e33f-dfba-480d-82e2-096419454712","system_id":"levelo_inurba_marseille","lat":43.28162,"lon":5.42636,"is_reserved":false,"is_disabled":false,"rental_uris":{"android":"levelo://app?vid=91e4e33f-dfba-480d-82e2-096419454712","ios":"levelo://app?vid=91e4e33f-dfba-480d-82e2-096419454712"},"vehicle_type_id":"4","last_reported":1741183728,"current_range_meters":5600,"station_id":"ce4bhnh2rcd13ifvqgug","pricing_plan_id":"cebpf4jnsgd1na2vs0mg"},{"bike_id":"cccf723c-6b04-4fa0-a0d8-3d67bd186a8a","system_id":"levelo_inurba_marseille","lat":43.25504,"lon":5.37652,"is_reserved":false,"is_disabled":false,"rental_uris":{"android":"levelo://app?vid=cccf723c-6b04-4fa0-a0d8-3d67bd186a8a","ios":"levelo://app?vid=cccf723c-6b04-4fa0-a0d8-3d67bd186a8a"},"vehicle_type_id":"4","last_reported":1741183728,"current_range_meters":6000,"station_id":"ce4bhh12rcd13ifvqff0","pricing_plan_id":"cebpf4jnsgd1na2vs0mg"},{"bike_id":"bc0361c7-d588-46bf-a127-f09755f4333a","system_id":"levelo_inurba_marseille","lat":43.27373,"lon":5.36258,"is_reserved":false,"is_disabled":false,"rental_uris":{"android":"levelo://app?vid=bc0361c7-d588-46bf-a127-f09755f4333a","ios":"levelo://app?vid=bc0361c7-d588-46bf-a127-f09755f4333a"},"vehicle_type_id":"4","last_reported":1741183728,"current_range_meters":6000,"station_id":"ce4bhbh2rcd13ifvqeo0","pricing_plan_id":"cebpf4jnsgd1na2vs0mg"},{"bike_id":"bd1771a9-c8c7-4618-8b49-3c5d2db5bdaf","system_id":"levelo_inurba_marseille","lat":43.30135,"lon":5.3988,"is_reserved":false,"is_disabled":false,"rental_uris":{"android":"levelo://app?vid=bd1771a9-c8c7-4618-8b49-3c5d2db5bdaf","ios":"levelo://app?vid=bd1771a9-c8c7-4618-8b49-3c5d2db5bdaf"},"vehicle_type_id":"4","last_reported":1741183728,"current_range_meters":6000,"station_id":"ce4bh0h2rcd13ifvqd40","pricing_plan_id":"cebpf4jnsgd1na2vs0mg"},{"bike_id":"a76f21ac-6872-4ede-baea-a6733aa0272c","system_id":"levelo_inurba_marseille","lat":43.25503,"lon":5.37646,"is_reserved":false,"is_disabled":false,"rental_uris":{"android":"levelo://app?vid=a76f21ac-6872-4ede-baea-a6733aa0272c","ios":"levelo://app?vid=a76f21ac-6872-4ede-baea-a6733aa0272c"},"vehicle_type_id":"4","last_reported":1741183728,"current_range_meters":6400,"station_id":"ce4bhh12rcd13ifvqff0","pricing_plan_id":"cebpf4jnsgd1na2vs0mg"},{"bike_id":"dbf19b49-9fb1-48cb-9393-1f39fece9e33","system_id":"levelo_inurba_marseille","lat":43.24173,"lon":5.39729,"is_reserved":false,"is_disabled":false,"rental_uris":{"android":"levelo://app?vid=dbf19b49-9fb1-48cb-9393-1f39fece9e33","ios":"levelo://app?vid=dbf19b49-9fb1-48cb-9393-1f39fece9e33"},"vehicle_type_id":"4","last_reported":1741183728,"current_range_meters":6400,"station_id":"ce4bhn12rcd13ifvqgpg","pricing_plan_id":"cebpf4jnsgd1na2vs0mg"},{"bike_id":"be16354b-53a7-4078-8a45-2936d035964f","system_id":"levelo_inurba_marseille","lat":43.24993,"lon":5.3892,"is_reserved":false,"is_disabled":false,"rental_uris":{"android":"levelo://app?vid=be16354b-53a7-4078-8a45-2936d035964f","ios":"levelo://app?vid=be16354b-53a7-4078-8a45-2936d035964f"},"vehicle_type_id":"4","last_reported":1741183728,"current_range_meters":6400,"station_id":"ce4bhgp2rcd13ifvqfd0","pricing_plan_id":"cebpf4jnsgd1na2vs0mg"},{"bike_id":"eaf16725-d0d1-403e-b3bf-8ee996e1da2e","system_id":"levelo_inurba_marseille","lat":43.31517,"lon":5.3724,"is_reserved":false,"is_disabled":false,"rental_uris":{"android":"levelo://app?vid=eaf16725-d0d1-403e-b3bf-8ee996e1da2e","ios":"levelo://app?vid=eaf16725-d0d1-403e-b3bf-8ee996e1da2e"},"vehicle_type_id":"4","last_reported":1741183728,"current_range_meters":6400,"station_id":"ce4bgt12rcd13ifvqcd0","pricing_plan_id":"cebpf4jnsgd1na2vs0mg"},{"bike_id":"a88c142e-d928-4561-88fe-ca6968b4c6c1","system_id":"levelo_inurba_marseille","lat":43.26243,"lon":5.40452,"is_reserved":false,"is_disabled":false,"rental_uris":{"android":"levelo://app?vid=a88c142e-d928-4561-88fe-ca6968b4c6c1","ios":"levelo://app?vid=a88c142e-d928-4561-88fe-ca6968b4c6c1"},"vehicle_type_id":"4","last_reported":1741183728,"current_range_meters":6400,"station_id":"ce4bhmh2rcd13ifvqgmg","pricing_plan_id":"cebpf4jnsgd1na2vs0mg"},{"bike_id":"997217d4-9110-4f1d-bb92-525e0e2d4061","system_id":"levelo_inurba_marseille","lat":43.23172,"lon":5.43685,"is_reserved":false,"is_disabled":false,"rental_uris":{"android":"levelo://app?vid=997217d4-9110-4f1d-bb92-525e0e2d4061","ios":"levelo://app?vid=997217d4-9110-4f1d-bb92-525e0e2d4061"},"vehicle_type_id":"4","last_reported":1741183728,"current_range_meters":6400,"station_id":"ce4bhmp2rcd13ifvqgog","pricing_plan_id":"cebpf4jnsgd1na2vs0mg"},{"bike_id":"21b19842-9ad9-4db0-bc46-3d2827c0069e","system_id":"levelo_inurba_marseille","lat":43.23188,"lon":5.35559,"is_reserved":false,"is_disabled":false,"rental_uris":{"android":"levelo://app?vid=21b19842-9ad9-4db0-bc46-3d2827c0069e","ios":"levelo://app?vid=21b19842-9ad9-4db0-bc46-3d2827c0069e"},"vehicle_type_id":"4","last_reported":1741183728,"current_range_meters":6400,"station_id":"ce4bhu92rcd13ifvqi70","pricing_plan_id":"cebpf4jnsgd1na2vs0mg"},{"bike_id":"daf35a3a-d5ac-4a60-95c6-79108af84c74","system_id":"levelo_inurba_marseille","lat":43.25588,"lon":5.38229,"is_reserved":false,"is_disabled":false,"rental_uris":{"android":"levelo://app?vid=daf35a3a-d5ac-4a60-95c6-79108af84c74","ios":"levelo://app?vid=daf35a3a-d5ac-4a60-95c6-79108af84c74"},"vehicle_type_id":"4","last_reported":1741183728,"current_range_meters":6800,"station_id":"ce4bhih2rcd13ifvqfs0","pricing_plan_id":"cebpf4jnsgd1na2vs0mg"},{"bike_id":"0edb36e9-8f92-4452-adb1-969e5bbbcc5c","system_id":"levelo_inurba_marseille","lat":43.27186,"lon":5.40996,"is_reserved":false,"is_disabled":false,"rental_uris":{"android":"levelo://app?vid=0edb36e9-8f92-4452-adb1-969e5bbbcc5c","ios":"levelo://app?vid=0edb36e9-8f92-4452-adb1-969e5bbbcc5c"},"vehicle_type_id":"4","last_reported":1741183728,"current_range_meters":6800,"station_id":"ce4bhl12rcd13ifvqgf0","pricing_plan_id":"cebpf4jnsgd1na2vs0mg"},{"bike_id":"9c2994a3-21a6-4ac3-8afc-29aef973c860","system_id":"levelo_inurba_marseille","lat":43.28717,"lon":5.37888,"is_reserved":false,"is_disabled":false,"rental_uris":{"android":"levelo://app?vid=9c2994a3-21a6-4ac3-8afc-29aef973c860","ios":"levelo://app?vid=9c2994a3-21a6-4ac3-8afc-29aef973c860"},"vehicle_type_id":"4","last_reported":1741183728,"current_range_meters":6800,"station_id":"ce4bh9p2rcd13ifvqec0","pricing_plan_id":"cebpf4jnsgd1na2vs0mg"},{"bike_id":"ecc30ea9-1004-4384-b8d8-5b8d5258c7ba","system_id":"levelo_inurba_marseille","lat":43.28489,"lon":5.38407,"is_reserved":false,"is_disabled":false,"rental_uris":{"android":"levelo://app?vid=ecc30ea9-1004-4384-b8d8-5b8d5258c7ba","ios":"levelo://app?vid=ecc30ea9-1004-4384-b8d8-5b8d5258c7ba"},"vehicle_type_id":"4","last_reported":1741183728,"current_range_meters":6800,"station_id":"ce4bh512rcd13ifvqe3g","pricing_plan_id":"cebpf4jnsgd1na2vs0mg"},{"bike_id":"093c8de4-7f8f-4b32-97ae-00e1d459376c","system_id":"levelo_inurba_marseille","lat":43.28874,"lon":5.35839,"is_reserved":false,"is_disabled":false,"rental_uris":{"android":"levelo://app?vid=093c8de4-7f8f-4b32-97ae-00e1d459376c","ios":"levelo://app?vid=093c8de4-7f8f-4b32-97ae-00e1d459376c"},"vehicle_type_id":"4","last_reported":1741183728,"current_range_meters":6800,"station_id":"ce4bhb12rcd13ifvqem0","pricing_plan_id":"cebpf4jnsgd1na2vs0mg"},{"bike_id":"f8ce6365-0ca5-4bb4-b8bb-09392fed751a","system_id":"levelo_inurba_marseille","lat":43.27436,"lon":5.39412,"is_reserved":false,"is_disabled":false,"rental_uris":{"android":"levelo://app?vid=f8ce6365-0ca5-4bb4-b8bb-09392fed751a","ios":"levelo://app?vid=f8ce6365-0ca5-4bb4-b8bb-09392fed751a"},"vehicle_type_id":"4","last_reported":1741183728,"current_range_meters":6800,"station_id":"ce4bhdp2rcd13ifvqf20","pricing_plan_id":"cebpf4jnsgd1na2vs0mg"},{"bike_id":"5a6f6465-c6c2-41f4-954c-6c9f3e199226","system_id":"levelo_inurba_marseille","lat":43.26555,"lon":5.37282,"is_reserved":false,"is_disabled":false,"rental_uris":{"android":"levelo://app?vid=5a6f6465-c6c2-41f4-954c-6c9f3e199226","ios":"levelo://app?vid=5a6f6465-c6c2-41f4-954c-6c9f3e199226"},"vehicle_type_id":"4","last_reported":1741183728,"current_range_meters":6800,"station_id":"ce4bhg12rcd13ifvqf70","pricing_plan_id":"cebpf4jnsgd1na2vs0mg"},{"bike_id":"4d96a45d-8e1d-4f5c-846e-3a9ab83111fb","system_id":"levelo_inurba_marseille","lat":43.32356,"lon":5.36745,"is_reserved":false,"is_disabled":false,"rental_uris":{"android":"levelo://app?vid=4d96a45d-8e1d-4f5c-846e-3a9ab83111fb","ios":"levelo://app?vid=4d96a45d-8e1d-4f5c-846e-3a9ab83111fb"},"vehicle_type_id":"4","last_reported":1741183728,"current_range_meters":6800,"station_id":"ce4bhsh2rcd13ifvqi2g","pricing_plan_id":"cebpf4jnsgd1na2vs0mg"},{"bike_id":"1792509b-6a57-49cf-897c-c9ecf58ce674","system_id":"levelo_inurba_marseille","lat":43.28283,"lon":5.35059,"is_reserved":false,"is_disabled":false,"rental_uris":{"android":"levelo://app?vid=1792509b-6a57-49cf-897c-c9ecf58ce674","ios":"levelo://app?vid=1792509b-6a57-49cf-897c-c9ecf58ce674"},"vehicle_type_id":"4","last_reported":1741183728,"current_range_meters":6800,"station_id":"ce4bhbp2rcd13ifvqerg","pricing_plan_id":"cebpf4jnsgd1na2vs0mg"},{"bike_id":"ea156dfa-6496-4251-8745-169554d846f1","system_id":"levelo_inurba_marseille","lat":43.25723,"lon":5.41107,"is_reserved":false,"is_disabled":false,"rental_uris":{"android":"levelo://app?vid=ea156dfa-6496-4251-8745-169554d846f1","ios":"levelo://app?vid=ea156dfa-6496-4251-8745-169554d846f1"},"vehicle_type_id":"4","last_reported":1741183728,"current_range_meters":7200,"station_id":"ce4bhkp2rcd13ifvqgd0","pricing_plan_id":"cebpf4jnsgd1na2vs0mg"},{"bike_id":"3933f930-4bbd-452e-96f8-f64948f87b1b","system_id":"levelo_inurba_marseille","lat":43.30539,"lon":5.36544,"is_reserved":false,"is_disabled":false,"rental_uris":{"android":"levelo://app?vid=3933f930-4bbd-452e-96f8-f64948f87b1b","ios":"levelo://app?vid=3933f930-4bbd-452e-96f8-f64948f87b1b"},"vehicle_type_id":"4","last_reported":1741183728,"current_range_meters":7200,"station_id":"ce4bgs12rcd13ifvqcag","pricing_plan_id":"cebpf4jnsgd1na2vs0mg"},{"bike_id":"ee1d2ad1-36ca-49dd-a328-f2a9a9994ecb","system_id":"levelo_inurba_marseille","lat":43.3108,"lon":5.38106,"is_reserved":false,"is_disabled":false,"rental_uris":{"android":"levelo://app?vid=ee1d2ad1-36ca-49dd-a328-f2a9a9994ecb","ios":"levelo://app?vid=ee1d2ad1-36ca-49dd-a328-f2a9a9994ecb"},"vehicle_type_id":"4","last_reported":1741183728,"current_range_meters":7200,"station_id":"","pricing_plan_id":"cebpf4jnsgd1na2vs0mg"},{"bike_id":"6e390c50-376f-4905-89c7-b232dc1f1640","system_id":"levelo_inurba_marseille","lat":43.24754,"lon":5.40018,"is_reserved":false,"is_disabled":false,"rental_uris":{"android":"levelo://app?vid=6e390c50-376f-4905-89c7-b232dc1f1640","ios":"levelo://app?vid=6e390c50-376f-4905-89c7-b232dc1f1640"},"vehicle_type_id":"4","last_reported":1741183728,"current_range_meters":7200,"station_id":"","pricing_plan_id":"cebpf4jnsgd1na2vs0mg"},{"bike_id":"62c07d2e-0275-4169-9d01-787a0e7089a4","system_id":"levelo_inurba_marseille","lat":43.29934,"lon":5.36534,"is_reserved":false,"is_disabled":false,"rental_uris":{"android":"levelo://app?vid=62c07d2e-0275-4169-9d01-787a0e7089a4","ios":"levelo://app?vid=62c07d2e-0275-4169-9d01-787a0e7089a4"},"vehicle_type_id":"4","last_reported":1741183728,"current_range_meters":7200,"station_id":"ce4bgm92rcd13ifvqbr0","pricing_plan_id":"cebpf4jnsgd1na2vs0mg"},{"bike_id":"26a91546-7643-4a1f-8ce8-5b3220f6e1ac","system_id":"levelo_inurba_marseille","lat":43.28425,"lon":5.34984,"is_reserved":false,"is_disabled":false,"rental_uris":{"android":"levelo://app?vid=26a91546-7643-4a1f-8ce8-5b3220f6e1ac","ios":"levelo://app?vid=26a91546-7643-4a1f-8ce8-5b3220f6e1ac"},"vehicle_type_id":"4","last_reported":1741183728,"current_range_meters":7200,"station_id":"ce4bhbh2rcd13ifvqepg","pricing_plan_id":"cebpf4jnsgd1na2vs0mg"},{"bike_id":"5259c561-fdff-45e4-b300-9239edc9950c","system_id":"levelo_inurba_marseille","lat":43.26229,"lon":5.40441,"is_reserved":false,"is_disabled":false,"rental_uris":{"android":"levelo://app?vid=5259c561-fdff-45e4-b300-9239edc9950c","ios":"levelo://app?vid=5259c561-fdff-45e4-b300-9239edc9950c"},"vehicle_type_id":"4","last_reported":1741183728,"current_range_meters":7200,"station_id":"ce4bhmh2rcd13ifvqgmg","pricing_plan_id":"cebpf4jnsgd1na2vs0mg"},{"bike_id":"4ad5376b-c5a0-445d-b2ad-e25962d6fac1","system_id":"levelo_inurba_marseille","lat":43.24168,"lon":5.36397,"is_reserved":false,"is_disabled":false,"rental_uris":{"android":"levelo://app?vid=4ad5376b-c5a0-445d-b2ad-e25962d6fac1","ios":"levelo://app?vid=4ad5376b-c5a0-445d-b2ad-e25962d6fac1"},"vehicle_type_id":"4","last_reported":1741183728,"current_range_meters":7200,"station_id":"cpo36qri1sfpv3e86is0","pricing_plan_id":"cebpf4jnsgd1na2vs0mg"},{"bike_id":"9963b732-e7cc-4ea5-b313-0f01d9fe9045","system_id":"levelo_inurba_marseille","lat":43.28105,"lon":5.39891,"is_reserved":false,"is_disabled":false,"rental_uris":{"android":"levelo://app?vid=9963b732-e7cc-4ea5-b313-0f01d9fe9045","ios":"levelo://app?vid=9963b732-e7cc-4ea5-b313-0f01d9fe9045"},"vehicle_type_id":"4","last_reported":1741183728,"current_range_meters":7200,"station_id":"","pricing_plan_id":"cebpf4jnsgd1na2vs0mg"},{"bike_id":"7931da41-08d3-4758-aa78-f18822b81d9a","system_id":"levelo_inurba_marseille","lat":43.27056,"lon":5.40246,"is_reserved":false,"is_disabled":false,"rental_uris":{"android":"levelo://app?vid=7931da41-08d3-4758-aa78-f18822b81d9a","ios":"levelo://app?vid=7931da41-08d3-4758-aa78-f18822b81d9a"},"vehicle_type_id":"4","last_reported":1741183728,"current_range_meters":7200,"station_id":"ce4bhk92rcd13ifvqgc0","pricing_plan_id":"cebpf4jnsgd1na2vs0mg"},{"bike_id":"74d503f5-4b69-4ec8-9f4d-e420134a493c","system_id":"levelo_inurba_marseille","lat":43.28937,"lon":5.36641,"is_reserved":false,"is_disabled":false,"rental_uris":{"android":"levelo://app?vid=74d503f5-4b69-4ec8-9f4d-e420134a493c","ios":"levelo://app?vid=74d503f5-4b69-4ec8-9f4d-e420134a493c"},"vehicle_type_id":"4","last_reported":1741183728,"current_range_meters":7200,"station_id":"ce4bhap2rcd13ifvqek0","pricing_plan_id":"cebpf4jnsgd1na2vs0mg"},{"bike_id":"dae721b9-3d6d-4db6-9eec-1cb4081dbd74","system_id":"levelo_inurba_marseille","lat":43.26213,"lon":5.37437,"is_reserved":false,"is_disabled":false,"rental_uris":{"android":"levelo://app?vid=dae721b9-3d6d-4db6-9eec-1cb4081dbd74","ios":"levelo://app?vid=dae721b9-3d6d-4db6-9eec-1cb4081dbd74"},"vehicle_type_id":"4","last_reported":1741183728,"current_range_meters":7200,"station_id":"ce4bhgp2rcd13ifvqfc0","pricing_plan_id":"cebpf4jnsgd1na2vs0mg"},{"bike_id":"969e4177-85e9-4658-9394-f61f4ac6e859","system_id":"levelo_inurba_marseille","lat":43.26213,"lon":5.37443,"is_reserved":false,"is_disabled":false,"rental_uris":{"android":"levelo://app?vid=969e4177-85e9-4658-9394-f61f4ac6e859","ios":"levelo://app?vid=969e4177-85e9-4658-9394-f61f4ac6e859"},"vehicle_type_id":"4","last_reported":1741183728,"current_range_meters":7200,"station_id":"ce4bhgp2rcd13ifvqfc0","pricing_plan_id":"cebpf4jnsgd1na2vs0mg"},{"bike_id":"acc909e7-3836-42b3-b51d-082940d4d9ec","system_id":"levelo_inurba_marseille","lat":43.26233,"lon":5.40456,"is_reserved":false,"is_disabled":false,"rental_uris":{"android":"levelo://app?vid=acc909e7-3836-42b3-b51d-082940d4d9ec","ios":"levelo://app?vid=acc909e7-3836-42b3-b51d-082940d4d9ec"},"vehicle_type_id":"4","last_reported":1741183728,"current_range_meters":7200,"station_id":"ce4bhmh2rcd13ifvqgmg","pricing_plan_id":"cebpf4jnsgd1na2vs0mg"},{"bike_id":"bf7fb475-dff5-4c1e-a3bf-e2e4168e8ec2","system_id":"levelo_inurba_marseille","lat":43.28854,"lon":5.35862,"is_reserved":false,"is_disabled":false,"rental_uris":{"android":"levelo://app?vid=bf7fb475-dff5-4c1e-a3bf-e2e4168e8ec2","ios":"levelo://app?vid=bf7fb475-dff5-4c1e-a3bf-e2e4168e8ec2"},"vehicle_type_id":"4","last_reported":1741183728,"current_range_meters":8000,"station_id":"ce4bhb12rcd13ifvqem0","pricing_plan_id":"cebpf4jnsgd1na2vs0mg"},{"bike_id":"eeb82a61-4a15-4dc2-bc9f-fea1e30cc427","system_id":"levelo_inurba_marseille","lat":43.26207,"lon":5.37447,"is_reserved":false,"is_disabled":false,"rental_uris":{"android":"levelo://app?vid=eeb82a61-4a15-4dc2-bc9f-fea1e30cc427","ios":"levelo://app?vid=eeb82a61-4a15-4dc2-bc9f-fea1e30cc427"},"vehicle_type_id":"4","last_reported":1741183728,"current_range_meters":8000,"station_id":"ce4bhgp2rcd13ifvqfc0","pricing_plan_id":"cebpf4jnsgd1na2vs0mg"},{"bike_id":"d4b1b587-cdfc-497a-825f-6d26e6c7709a","system_id":"levelo_inurba_marseille","lat":43.28462,"lon":5.3589,"is_reserved":false,"is_disabled":false,"rental_uris":{"android":"levelo://app?vid=d4b1b587-cdfc-497a-825f-6d26e6c7709a","ios":"levelo://app?vid=d4b1b587-cdfc-497a-825f-6d26e6c7709a"},"vehicle_type_id":"4","last_reported":1741183728,"current_range_meters":8000,"station_id":"ce4bhah2rcd13ifvqei0","pricing_plan_id":"cebpf4jnsgd1na2vs0mg"},{"bike_id":"e6a4f953-5895-4fa8-ac31-a0a59838afae","system_id":"levelo_inurba_marseille","lat":43.25914,"lon":5.40886,"is_reserved":false,"is_disabled":false,"rental_uris":{"android":"levelo://app?vid=e6a4f953-5895-4fa8-ac31-a0a59838afae","ios":"levelo://app?vid=e6a4f953-5895-4fa8-ac31-a0a59838afae"},"vehicle_type_id":"4","last_reported":1741183728,"current_range_meters":8000,"station_id":"ce4bhm92rcd13ifvqglg","pricing_plan_id":"cebpf4jnsgd1na2vs0mg"},{"bike_id":"41da4b56-604c-4398-a7b9-104be2ad83f3","system_id":"levelo_inurba_marseille","lat":43.23159,"lon":5.43723,"is_reserved":false,"is_disabled":false,"rental_uris":{"android":"levelo://app?vid=41da4b56-604c-4398-a7b9-104be2ad83f3","ios":"levelo://app?vid=41da4b56-604c-4398-a7b9-104be2ad83f3"},"vehicle_type_id":"4","last_reported":1741183728,"current_range_meters":8000,"station_id":"ce4bhmp2rcd13ifvqgog","pricing_plan_id":"cebpf4jnsgd1na2vs0mg"},{"bike_id":"807e1ba7-b9c0-467a-933d-f847d446cc7c","system_id":"levelo_inurba_marseille","lat":43.28466,"lon":5.35893,"is_reserved":false,"is_disabled":false,"rental_uris":{"android":"levelo://app?vid=807e1ba7-b9c0-467a-933d-f847d446cc7c","ios":"levelo://app?vid=807e1ba7-b9c0-467a-933d-f847d446cc7c"},"vehicle_type_id":"4","last_reported":1741183728,"current_range_meters":7200,"station_id":"ce4bhah2rcd13ifvqei0","pricing_plan_id":"cebpf4jnsgd1na2vs0mg"},{"bike_id":"5a38d7d7-eb7c-4377-8c32-7fa4bb9a5ff2","system_id":"levelo_inurba_marseille","lat":43.29539,"lon":5.38543,"is_reserved":false,"is_disabled":false,"rental_uris":{"android":"levelo://app?vid=5a38d7d7-eb7c-4377-8c32-7fa4bb9a5ff2","ios":"levelo://app?vid=5a38d7d7-eb7c-4377-8c32-7fa4bb9a5ff2"},"vehicle_type_id":"4","last_reported":1741183728,"current_range_meters":8000,"station_id":"ce4bgih2rcd13ifvqba0","pricing_plan_id":"cebpf4jnsgd1na2vs0mg"},{"bike_id":"136bb51c-d012-4916-adf9-aed8533144cf","system_id":"levelo_inurba_marseille","lat":43.30471,"lon":5.36559,"is_reserved":false,"is_disabled":false,"rental_uris":{"android":"levelo://app?vid=136bb51c-d012-4916-adf9-aed8533144cf","ios":"levelo://app?vid=136bb51c-d012-4916-adf9-aed8533144cf"},"vehicle_type_id":"4","last_reported":1741183728,"current_range_meters":8000,"station_id":"","pricing_plan_id":"cebpf4jnsgd1na2vs0mg"},{"bike_id":"dd78ee39-2304-498e-9349-ef2f418ec150","system_id":"levelo_inurba_marseille","lat":43.25859,"lon":5.399,"is_reserved":false,"is_disabled":false,"rental_uris":{"android":"levelo://app?vid=dd78ee39-2304-498e-9349-ef2f418ec150","ios":"levelo://app?vid=dd78ee39-2304-498e-9349-ef2f418ec150"},"vehicle_type_id":"4","last_reported":1741183728,"current_range_meters":8000,"station_id":"ce4bhl92rcd13ifvqghg","pricing_plan_id":"cebpf4jnsgd1na2vs0mg"},{"bike_id":"6b4ccd0a-d8d4-47e8-a23e-db23c42b230c","system_id":"levelo_inurba_marseille","lat":43.25005,"lon":5.38933,"is_reserved":false,"is_disabled":false,"rental_uris":{"android":"levelo://app?vid=6b4ccd0a-d8d4-47e8-a23e-db23c42b230c","ios":"levelo://app?vid=6b4ccd0a-d8d4-47e8-a23e-db23c42b230c"},"vehicle_type_id":"4","last_reported":1741183728,"current_range_meters":8000,"station_id":"ce4bhgp2rcd13ifvqfd0","pricing_plan_id":"cebpf4jnsgd1na2vs0mg"},{"bike_id":"072b2689-b5f1-4eaa-9b6b-df288c5194c5","system_id":"levelo_inurba_marseille","lat":43.28698,"lon":5.37385,"is_reserved":false,"is_disabled":false,"rental_uris":{"android":"levelo://app?vid=072b2689-b5f1-4eaa-9b6b-df288c5194c5","ios":"levelo://app?vid=072b2689-b5f1-4eaa-9b6b-df288c5194c5"},"vehicle_type_id":"4","last_reported":1741183728,"current_range_meters":7200,"station_id":"ce4bh3p2rcd13ifvqdq0","pricing_plan_id":"cebpf4jnsgd1na2vs0mg"},{"bike_id":"37ff8e3b-d7b6-4f06-9e05-81d0e3f0f080","system_id":"levelo_inurba_marseille","lat":43.30141,"lon":5.38779,"is_reserved":false,"is_disabled":false,"rental_uris":{"android":"levelo://app?vid=37ff8e3b-d7b6-4f06-9e05-81d0e3f0f080","ios":"levelo://app?vid=37ff8e3b-d7b6-4f06-9e05-81d0e3f0f080"},"vehicle_type_id":"4","last_reported":1741183728,"current_range_meters":8000,"station_id":"ce4bghh2rcd13ifvqb60","pricing_plan_id":"cebpf4jnsgd1na2vs0mg"},{"bike_id":"2d166388-389c-4239-b69f-d0d123c5e5da","system_id":"levelo_inurba_marseille","lat":43.29772,"lon":5.37076,"is_reserved":false,"is_disabled":false,"rental_uris":{"android":"levelo://app?vid=2d166388-389c-4239-b69f-d0d123c5e5da","ios":"levelo://app?vid=2d166388-389c-4239-b69f-d0d123c5e5da"},"vehicle_type_id":"4","last_reported":1741183728,"current_range_meters":7200,"station_id":"ce4bgop2rcd13ifvqc1g","pricing_plan_id":"cebpf4jnsgd1na2vs0mg"},{"bike_id":"1251622a-c93e-431e-90d0-4106b158ac93","system_id":"levelo_inurba_marseille","lat":43.28412,"lon":5.3499,"is_reserved":false,"is_disabled":false,"rental_uris":{"android":"levelo://app?vid=1251622a-c93e-431e-90d0-4106b158ac93","ios":"levelo://app?vid=1251622a-c93e-431e-90d0-4106b158ac93"},"vehicle_type_id":"4","last_reported":1741183728,"current_range_meters":8000,"station_id":"ce4bhbh2rcd13ifvqepg","pricing_plan_id":"cebpf4jnsgd1na2vs0mg"},{"bike_id":"44a7153b-0fd7-4509-836b-676bbf84fb06","system_id":"levelo_inurba_marseille","lat":43.23198,"lon":5.35545,"is_reserved":false,"is_disabled":false,"rental_uris":{"android":"levelo://app?vid=44a7153b-0fd7-4509-836b-676bbf84fb06","ios":"levelo://app?vid=44a7153b-0fd7-4509-836b-676bbf84fb06"},"vehicle_type_id":"4","last_reported":1741183728,"current_range_meters":8000,"station_id":"ce4bhu92rcd13ifvqi70","pricing_plan_id":"cebpf4jnsgd1na2vs0mg"},{"bike_id":"ff7d0048-50ee-45d1-b2bf-4dee74129e9f","system_id":"levelo_inurba_marseille","lat":43.28266,"lon":5.35061,"is_reserved":false,"is_disabled":false,"rental_uris":{"android":"levelo://app?vid=ff7d0048-50ee-45d1-b2bf-4dee74129e9f","ios":"levelo://app?vid=ff7d0048-50ee-45d1-b2bf-4dee74129e9f"},"vehicle_type_id":"4","last_reported":1741183728,"current_range_meters":8400,"station_id":"ce4bhbp2rcd13ifvqerg","pricing_plan_id":"cebpf4jnsgd1na2vs0mg"},{"bike_id":"332abda5-2296-4955-8d29-1593f717e1c9","system_id":"levelo_inurba_marseille","lat":43.27967,"lon":5.41586,"is_reserved":false,"is_disabled":false,"rental_uris":{"android":"levelo://app?vid=332abda5-2296-4955-8d29-1593f717e1c9","ios":"levelo://app?vid=332abda5-2296-4955-8d29-1593f717e1c9"},"vehicle_type_id":"4","last_reported":1741183728,"current_range_meters":8400,"station_id":"","pricing_plan_id":"cebpf4jnsgd1na2vs0mg"},{"bike_id":"e54adfdb-5954-4fdb-a377-1eebf9af18ee","system_id":"levelo_inurba_marseille","lat":43.31686,"lon":5.40473,"is_reserved":false,"is_disabled":false,"rental_uris":{"android":"levelo://app?vid=e54adfdb-5954-4fdb-a377-1eebf9af18ee","ios":"levelo://app?vid=e54adfdb-5954-4fdb-a377-1eebf9af18ee"},"vehicle_type_id":"4","last_reported":1741183728,"current_range_meters":8400,"station_id":"ce4bh012rcd13ifvqd00","pricing_plan_id":"cebpf4jnsgd1na2vs0mg"},{"bike_id":"853ff174-72f2-477f-810b-807bab6be12c","system_id":"levelo_inurba_marseille","lat":43.28725,"lon":5.36079,"is_reserved":false,"is_disabled":false,"rental_uris":{"android":"levelo://app?vid=853ff174-72f2-477f-810b-807bab6be12c","ios":"levelo://app?vid=853ff174-72f2-477f-810b-807bab6be12c"},"vehicle_type_id":"4","last_reported":1741183728,"current_range_meters":8400,"station_id":"cki0cbj6b192h4jlfktg","pricing_plan_id":"cebpf4jnsgd1na2vs0mg"},{"bike_id":"06c88c36-5b7b-474f-8d13-d4bdbe28d516","system_id":"levelo_inurba_marseille","lat":43.31229,"lon":5.36854,"is_reserved":false,"is_disabled":false,"rental_uris":{"android":"levelo://app?vid=06c88c36-5b7b-474f-8d13-d4bdbe28d516","ios":"levelo://app?vid=06c88c36-5b7b-474f-8d13-d4bdbe28d516"},"vehicle_type_id":"4","last_reported":1741183728,"current_range_meters":8400,"station_id":"ce4bgl92rcd13ifvqbq0","pricing_plan_id":"cebpf4jnsgd1na2vs0mg"},{"bike_id":"5a68f299-b73d-479e-a400-ae831aa3218e","system_id":"levelo_inurba_marseille","lat":43.3019,"lon":5.36618,"is_reserved":false,"is_disabled":false,"rental_uris":{"android":"levelo://app?vid=5a68f299-b73d-479e-a400-ae831aa3218e","ios":"levelo://app?vid=5a68f299-b73d-479e-a400-ae831aa3218e"},"vehicle_type_id":"4","last_reported":1741183728,"current_range_meters":8400,"station_id":"","pricing_plan_id":"cebpf4jnsgd1na2vs0mg"},{"bike_id":"de44d09a-d4db-4ce3-a2dd-62f4dc2e96ab","system_id":"levelo_inurba_marseille","lat":43.28165,"lon":5.42787,"is_reserved":false,"is_disabled":false,"rental_uris":{"android":"levelo://app?vid=de44d09a-d4db-4ce3-a2dd-62f4dc2e96ab","ios":"levelo://app?vid=de44d09a-d4db-4ce3-a2dd-62f4dc2e96ab"},"vehicle_type_id":"4","last_reported":1741183728,"current_range_meters":8400,"station_id":"","pricing_plan_id":"cebpf4jnsgd1na2vs0mg"},{"bike_id":"346c5faf-5c6d-40f5-b832-4598b852a63c","system_id":"levelo_inurba_marseille","lat":43.26572,"lon":5.37269,"is_reserved":false,"is_disabled":false,"rental_uris":{"android":"levelo://app?vid=346c5faf-5c6d-40f5-b832-4598b852a63c","ios":"levelo://app?vid=346c5faf-5c6d-40f5-b832-4598b852a63c"},"vehicle_type_id":"4","last_reported":1741183728,"current_range_meters":8400,"station_id":"ce4bhg12rcd13ifvqf70","pricing_plan_id":"cebpf4jnsgd1na2vs0mg"},{"bike_id":"d5846449-7219-4265-90f9-a2ede6b6465f","system_id":"levelo_inurba_marseille","lat":43.24171,"lon":5.39714,"is_reserved":false,"is_disabled":false,"rental_uris":{"android":"levelo://app?vid=d5846449-7219-4265-90f9-a2ede6b6465f","ios":"levelo://app?vid=d5846449-7219-4265-90f9-a2ede6b6465f"},"vehicle_type_id":"4","last_reported":1741183728,"current_range_meters":8400,"station_id":"ce4bhn12rcd13ifvqgpg","pricing_plan_id":"cebpf4jnsgd1na2vs0mg"},{"bike_id":"bbad65b6-cd2f-4c26-9ae8-d06860971a70","system_id":"levelo_inurba_marseille","lat":43.25869,"lon":5.39903,"is_reserved":false,"is_disabled":false,"rental_uris":{"android":"levelo://app?vid=bbad65b6-cd2f-4c26-9ae8-d06860971a70","ios":"levelo://app?vid=bbad65b6-cd2f-4c26-9ae8-d06860971a70"},"vehicle_type_id":"4","last_reported":1741183728,"current_range_meters":8400,"station_id":"ce4bhl92rcd13ifvqghg","pricing_plan_id":"cebpf4jnsgd1na2vs0mg"},{"bike_id":"43b27d74-fe0a-4ffe-b0e1-4d8b528f4e21","system_id":"levelo_inurba_marseille","lat":43.31228,"lon":5.36845,"is_reserved":false,"is_disabled":false,"rental_uris":{"android":"levelo://app?vid=43b27d74-fe0a-4ffe-b0e1-4d8b528f4e21","ios":"levelo://app?vid=43b27d74-fe0a-4ffe-b0e1-4d8b528f4e21"},"vehicle_type_id":"4","last_reported":1741183728,"current_range_meters":8400,"station_id":"ce4bgl92rcd13ifvqbq0","pricing_plan_id":"cebpf4jnsgd1na2vs0mg"},{"bike_id":"f3b61f2c-c784-4f65-a209-2e3cc1ad3c62","system_id":"levelo_inurba_marseille","lat":43.31481,"lon":5.37309,"is_reserved":false,"is_disabled":false,"rental_uris":{"android":"levelo://app?vid=f3b61f2c-c784-4f65-a209-2e3cc1ad3c62","ios":"levelo://app?vid=f3b61f2c-c784-4f65-a209-2e3cc1ad3c62"},"vehicle_type_id":"4","last_reported":1741183728,"current_range_meters":8800,"station_id":"ce4bgt12rcd13ifvqcd0","pricing_plan_id":"cebpf4jnsgd1na2vs0mg"},{"bike_id":"96794ea4-770a-4927-923a-493e9670ecf8","system_id":"levelo_inurba_marseille","lat":43.28423,"lon":5.34979,"is_reserved":false,"is_disabled":false,"rental_uris":{"android":"levelo://app?vid=96794ea4-770a-4927-923a-493e9670ecf8","ios":"levelo://app?vid=96794ea4-770a-4927-923a-493e9670ecf8"},"vehicle_type_id":"4","last_reported":1741183728,"current_range_meters":8800,"station_id":"ce4bhbh2rcd13ifvqepg","pricing_plan_id":"cebpf4jnsgd1na2vs0mg"},{"bike_id":"0f1e5f2d-856b-4c67-8421-1178852c94b9","system_id":"levelo_inurba_marseille","lat":43.3053,"lon":5.36715,"is_reserved":false,"is_disabled":false,"rental_uris":{"android":"levelo://app?vid=0f1e5f2d-856b-4c67-8421-1178852c94b9","ios":"levelo://app?vid=0f1e5f2d-856b-4c67-8421-1178852c94b9"},"vehicle_type_id":"4","last_reported":1741183728,"current_range_meters":8800,"station_id":"ce4bgrp2rcd13ifvqc9g","pricing_plan_id":"cebpf4jnsgd1na2vs0mg"},{"bike_id":"6196714a-ed09-4abe-aae4-0fa555633c72","system_id":"levelo_inurba_marseille","lat":43.24183,"lon":5.36383,"is_reserved":false,"is_disabled":false,"rental_uris":{"android":"levelo://app?vid=6196714a-ed09-4abe-aae4-0fa555633c72","ios":"levelo://app?vid=6196714a-ed09-4abe-aae4-0fa555633c72"},"vehicle_type_id":"4","last_reported":1741183728,"current_range_meters":8800,"station_id":"cpo36qri1sfpv3e86is0","pricing_plan_id":"cebpf4jnsgd1na2vs0mg"},{"bike_id":"017a401a-e2dd-42af-b9e1-5e499d8c4ed9","system_id":"levelo_inurba_marseille","lat":43.24176,"lon":5.39717,"is_reserved":false,"is_disabled":false,"rental_uris":{"android":"levelo://app?vid=017a401a-e2dd-42af-b9e1-5e499d8c4ed9","ios":"levelo://app?vid=017a401a-e2dd-42af-b9e1-5e499d8c4ed9"},"vehicle_type_id":"4","last_reported":1741183728,"current_range_meters":8800,"station_id":"ce4bhn12rcd13ifvqgpg","pricing_plan_id":"cebpf4jnsgd1na2vs0mg"},{"bike_id":"5650a716-c35b-4656-9919-39b835609686","system_id":"levelo_inurba_marseille","lat":43.289824,"lon":5.378311,"is_reserved":false,"is_disabled":false,"rental_uris":{"android":"levelo://app?vid=5650a716-c35b-4656-9919-39b835609686","ios":"levelo://app?vid=5650a716-c35b-4656-9919-39b835609686"},"vehicle_type_id":"4","last_reported":1741183728,"current_range_meters":8800,"station_id":"","pricing_plan_id":"cebpf4jnsgd1na2vs0mg"},{"bike_id":"2b5a8b61-d669-4ae5-a6ac-4553add05cfb","system_id":"levelo_inurba_marseille","lat":43.2902,"lon":5.3813,"is_reserved":false,"is_disabled":false,"rental_uris":{"android":"levelo://app?vid=2b5a8b61-d669-4ae5-a6ac-4553add05cfb","ios":"levelo://app?vid=2b5a8b61-d669-4ae5-a6ac-4553add05cfb"},"vehicle_type_id":"4","last_reported":1741183728,"current_range_meters":8800,"station_id":"ce4bh4p2rcd13ifvqe1g","pricing_plan_id":"cebpf4jnsgd1na2vs0mg"},{"bike_id":"187ecd8a-d75b-4775-85e8-0c588afbf768","system_id":"levelo_inurba_marseille","lat":43.2417,"lon":5.39693,"is_reserved":false,"is_disabled":false,"rental_uris":{"android":"levelo://app?vid=187ecd8a-d75b-4775-85e8-0c588afbf768","ios":"levelo://app?vid=187ecd8a-d75b-4775-85e8-0c588afbf768"},"vehicle_type_id":"4","last_reported":1741183728,"current_range_meters":8800,"station_id":"ce4bhn12rcd13ifvqgpg","pricing_plan_id":"cebpf4jnsgd1na2vs0mg"},{"bike_id":"44496a03-40b1-4460-b08b-a05c7159e542","system_id":"levelo_inurba_marseille","lat":43.29705,"lon":5.36598,"is_reserved":false,"is_disabled":false,"rental_uris":{"android":"levelo://app?vid=44496a03-40b1-4460-b08b-a05c7159e542","ios":"levelo://app?vid=44496a03-40b1-4460-b08b-a05c7159e542"},"vehicle_type_id":"4","last_reported":1741183728,"current_range_meters":8800,"station_id":"ce4bgn12rcd13ifvqbt0","pricing_plan_id":"cebpf4jnsgd1na2vs0mg"},{"bike_id":"5cf05763-241a-49eb-9988-29a7d88aa767","system_id":"levelo_inurba_marseille","lat":43.3169,"lon":5.40466,"is_reserved":false,"is_disabled":false,"rental_uris":{"android":"levelo://app?vid=5cf05763-241a-49eb-9988-29a7d88aa767","ios":"levelo://app?vid=5cf05763-241a-49eb-9988-29a7d88aa767"},"vehicle_type_id":"4","last_reported":1741183728,"current_range_meters":9200,"station_id":"ce4bh012rcd13ifvqd00","pricing_plan_id":"cebpf4jnsgd1na2vs0mg"},{"bike_id":"44185587-b72b-4d3b-a0d0-a9ef0f9b8adc","system_id":"levelo_inurba_marseille","lat":43.262747,"lon":5.374196,"is_reserved":false,"is_disabled":false,"rental_uris":{"android":"levelo://app?vid=44185587-b72b-4d3b-a0d0-a9ef0f9b8adc","ios":"levelo://app?vid=44185587-b72b-4d3b-a0d0-a9ef0f9b8adc"},"vehicle_type_id":"4","last_reported":1741183728,"current_range_meters":9200,"station_id":"ce4bhbh2rcd13ifvqeo0","pricing_plan_id":"cebpf4jnsgd1na2vs0mg"},{"bike_id":"288c2b4f-d2b4-4058-b8aa-eafea19047cf","system_id":"levelo_inurba_marseille","lat":43.31168,"lon":5.38721,"is_reserved":false,"is_disabled":false,"rental_uris":{"android":"levelo://app?vid=288c2b4f-d2b4-4058-b8aa-eafea19047cf","ios":"levelo://app?vid=288c2b4f-d2b4-4058-b8aa-eafea19047cf"},"vehicle_type_id":"4","last_reported":1741183728,"current_range_meters":9200,"station_id":"ce4bgv12rcd13ifvqcp0","pricing_plan_id":"cebpf4jnsgd1na2vs0mg"},{"bike_id":"a69dbcdc-5558-47bb-a155-a201a0072669","system_id":"levelo_inurba_marseille","lat":43.27945,"lon":5.41054,"is_reserved":false,"is_disabled":false,"rental_uris":{"android":"levelo://app?vid=a69dbcdc-5558-47bb-a155-a201a0072669","ios":"levelo://app?vid=a69dbcdc-5558-47bb-a155-a201a0072669"},"vehicle_type_id":"4","last_reported":1741183728,"current_range_meters":9200,"station_id":"ce4bhnp2rcd13ifvqh0g","pricing_plan_id":"cebpf4jnsgd1na2vs0mg"},{"bike_id":"a8f00c53-7a32-4924-be6a-6f49ff58e5a4","system_id":"levelo_inurba_marseille","lat":43.23149,"lon":5.43716,"is_reserved":false,"is_disabled":false,"rental_uris":{"android":"levelo://app?vid=a8f00c53-7a32-4924-be6a-6f49ff58e5a4","ios":"levelo://app?vid=a8f00c53-7a32-4924-be6a-6f49ff58e5a4"},"vehicle_type_id":"4","last_reported":1741183728,"current_range_meters":9200,"station_id":"ce4bhmp2rcd13ifvqgog","pricing_plan_id":"cebpf4jnsgd1na2vs0mg"},{"bike_id":"babae8d8-6a0c-4359-b054-23f6aadfb956","system_id":"levelo_inurba_marseille","lat":43.30296,"lon":5.37696,"is_reserved":false,"is_disabled":false,"rental_uris":{"android":"levelo://app?vid=babae8d8-6a0c-4359-b054-23f6aadfb956","ios":"levelo://app?vid=babae8d8-6a0c-4359-b054-23f6aadfb956"},"vehicle_type_id":"4","last_reported":1741183728,"current_range_meters":8800,"station_id":"ce4bguh2rcd13ifvqcj0","pricing_plan_id":"cebpf4jnsgd1na2vs0mg"},{"bike_id":"51f6f578-8898-487a-9da7-ff3d6d379d1b","system_id":"levelo_inurba_marseille","lat":43.32111,"lon":5.36778,"is_reserved":false,"is_disabled":false,"rental_uris":{"android":"levelo://app?vid=51f6f578-8898-487a-9da7-ff3d6d379d1b","ios":"levelo://app?vid=51f6f578-8898-487a-9da7-ff3d6d379d1b"},"vehicle_type_id":"4","last_reported":1741183728,"current_range_meters":9200,"station_id":"ce4bhrh2rcd13ifvqhug","pricing_plan_id":"cebpf4jnsgd1na2vs0mg"},{"bike_id":"4c0e314a-87e2-48f0-a7b0-ec6605046de8","system_id":"levelo_inurba_marseille","lat":43.32108,"lon":5.3677,"is_reserved":false,"is_disabled":false,"rental_uris":{"android":"levelo://app?vid=4c0e314a-87e2-48f0-a7b0-ec6605046de8","ios":"levelo://app?vid=4c0e314a-87e2-48f0-a7b0-ec6605046de8"},"vehicle_type_id":"4","last_reported":1741183728,"current_range_meters":9200,"station_id":"ce4bhrh2rcd13ifvqhug","pricing_plan_id":"cebpf4jnsgd1na2vs0mg"},{"bike_id":"53a32a36-0a29-44b9-83bf-98b37f95e037","system_id":"levelo_inurba_marseille","lat":43.2657,"lon":5.37298,"is_reserved":false,"is_disabled":false,"rental_uris":{"android":"levelo://app?vid=53a32a36-0a29-44b9-83bf-98b37f95e037","ios":"levelo://app?vid=53a32a36-0a29-44b9-83bf-98b37f95e037"},"vehicle_type_id":"4","last_reported":1741183728,"current_range_meters":9200,"station_id":"ce4bhg12rcd13ifvqf70","pricing_plan_id":"cebpf4jnsgd1na2vs0mg"},{"bike_id":"8a063e9f-9134-4ec1-b779-b962315f16db","system_id":"levelo_inurba_marseille","lat":43.23188,"lon":5.39983,"is_reserved":false,"is_disabled":false,"rental_uris":{"android":"levelo://app?vid=8a063e9f-9134-4ec1-b779-b962315f16db","ios":"levelo://app?vid=8a063e9f-9134-4ec1-b779-b962315f16db"},"vehicle_type_id":"4","last_reported":1741183728,"current_range_meters":9600,"station_id":"ce4bhn12rcd13ifvqgqg","pricing_plan_id":"cebpf4jnsgd1na2vs0mg"},{"bike_id":"818e83bd-d382-4e8c-bb23-be908a7e9d0b","system_id":"levelo_inurba_marseille","lat":43.31347,"lon":5.36703,"is_reserved":false,"is_disabled":false,"rental_uris":{"android":"levelo://app?vid=818e83bd-d382-4e8c-bb23-be908a7e9d0b","ios":"levelo://app?vid=818e83bd-d382-4e8c-bb23-be908a7e9d0b"},"vehicle_type_id":"4","last_reported":1741183728,"current_range_meters":9600,"station_id":"ce4bgr92rcd13ifvqc6g","pricing_plan_id":"cebpf4jnsgd1na2vs0mg"},{"bike_id":"d2663c83-d4b2-4f50-a3cd-9b4bc5a8f741","system_id":"levelo_inurba_marseille","lat":43.28077,"lon":5.39657,"is_reserved":false,"is_disabled":false,"rental_uris":{"android":"levelo://app?vid=d2663c83-d4b2-4f50-a3cd-9b4bc5a8f741","ios":"levelo://app?vid=d2663c83-d4b2-4f50-a3cd-9b4bc5a8f741"},"vehicle_type_id":"4","last_reported":1741183728,"current_range_meters":9600,"station_id":"ce4bho12rcd13ifvqh2g","pricing_plan_id":"cebpf4jnsgd1na2vs0mg"},{"bike_id":"100d91a7-8797-44dd-bebd-568c06f1e9fb","system_id":"levelo_inurba_marseille","lat":43.26034,"lon":5.37552,"is_reserved":false,"is_disabled":false,"rental_uris":{"android":"levelo://app?vid=100d91a7-8797-44dd-bebd-568c06f1e9fb","ios":"levelo://app?vid=100d91a7-8797-44dd-bebd-568c06f1e9fb"},"vehicle_type_id":"4","last_reported":1741183728,"current_range_meters":9600,"station_id":"ce4bhgh2rcd13ifvqfa0","pricing_plan_id":"cebpf4jnsgd1na2vs0mg"},{"bike_id":"3de42499-332f-4f37-855f-942539a949a7","system_id":"levelo_inurba_marseille","lat":43.29764,"lon":5.37139,"is_reserved":false,"is_disabled":false,"rental_uris":{"android":"levelo://app?vid=3de42499-332f-4f37-855f-942539a949a7","ios":"levelo://app?vid=3de42499-332f-4f37-855f-942539a949a7"},"vehicle_type_id":"4","last_reported":1741183728,"current_range_meters":9600,"station_id":"ce4bgop2rcd13ifvqc1g","pricing_plan_id":"cebpf4jnsgd1na2vs0mg"},{"bike_id":"5144b9c8-c4df-4ccc-8d10-8a21030b87de","system_id":"levelo_inurba_marseille","lat":43.25901,"lon":5.40895,"is_reserved":false,"is_disabled":false,"rental_uris":{"android":"levelo://app?vid=5144b9c8-c4df-4ccc-8d10-8a21030b87de","ios":"levelo://app?vid=5144b9c8-c4df-4ccc-8d10-8a21030b87de"},"vehicle_type_id":"4","last_reported":1741183728,"current_range_meters":9600,"station_id":"ce4bhm92rcd13ifvqglg","pricing_plan_id":"cebpf4jnsgd1na2vs0mg"},{"bike_id":"29f52ebf-e577-41e1-b694-308a1b9a9ca7","system_id":"levelo_inurba_marseille","lat":43.2964,"lon":5.37713,"is_reserved":false,"is_disabled":false,"rental_uris":{"android":"levelo://app?vid=29f52ebf-e577-41e1-b694-308a1b9a9ca7","ios":"levelo://app?vid=29f52ebf-e577-41e1-b694-308a1b9a9ca7"},"vehicle_type_id":"4","last_reported":1741183728,"current_range_meters":9600,"station_id":"ce4bgi92rcd13ifvqb90","pricing_plan_id":"cebpf4jnsgd1na2vs0mg"},{"bike_id":"ff22ac5f-4107-4c43-91dd-83932ff30650","system_id":"levelo_inurba_marseille","lat":43.26687,"lon":5.38275,"is_reserved":false,"is_disabled":true,"rental_uris":{"android":"levelo://app?vid=ff22ac5f-4107-4c43-91dd-83932ff30650","ios":"levelo://app?vid=ff22ac5f-4107-4c43-91dd-83932ff30650"},"vehicle_type_id":"4","last_reported":1741183728,"current_range_meters":9600,"station_id":"ce4bhg92rcd13ifvqf90","pricing_plan_id":"cebpf4jnsgd1na2vs0mg"},{"bike_id":"161fbd3b-bfd0-4a04-8ab2-d5dfca9c410b","system_id":"levelo_inurba_marseille","lat":43.33603,"lon":5.41017,"is_reserved":false,"is_disabled":false,"rental_uris":{"android":"levelo://app?vid=161fbd3b-bfd0-4a04-8ab2-d5dfca9c410b","ios":"levelo://app?vid=161fbd3b-bfd0-4a04-8ab2-d5dfca9c410b"},"vehicle_type_id":"4","last_reported":1741183728,"current_range_meters":9600,"station_id":"ce4bhqh2rcd13ifvqhmg","pricing_plan_id":"cebpf4jnsgd1na2vs0mg"},{"bike_id":"91a1ee83-54b8-4fad-90b0-b60f1de63a24","system_id":"levelo_inurba_marseille","lat":43.28423,"lon":5.3499,"is_reserved":false,"is_disabled":false,"rental_uris":{"android":"levelo://app?vid=91a1ee83-54b8-4fad-90b0-b60f1de63a24","ios":"levelo://app?vid=91a1ee83-54b8-4fad-90b0-b60f1de63a24"},"vehicle_type_id":"4","last_reported":1741183728,"current_range_meters":9600,"station_id":"ce4bhbh2rcd13ifvqepg","pricing_plan_id":"cebpf4jnsgd1na2vs0mg"},{"bike_id":"1ffd3e6f-da20-4dc2-83d6-76082a4ceaf9","system_id":"levelo_inurba_marseille","lat":43.27833,"lon":5.39218,"is_reserved":false,"is_disabled":false,"rental_uris":{"android":"levelo://app?vid=1ffd3e6f-da20-4dc2-83d6-76082a4ceaf9","ios":"levelo://app?vid=1ffd3e6f-da20-4dc2-83d6-76082a4ceaf9"},"vehicle_type_id":"4","last_reported":1741183728,"current_range_meters":9600,"station_id":"ce4bhjp2rcd13ifvqga0","pricing_plan_id":"cebpf4jnsgd1na2vs0mg"},{"bike_id":"da012e55-56aa-4836-97eb-401c7578f569","system_id":"levelo_inurba_marseille","lat":43.25938,"lon":5.40919,"is_reserved":false,"is_disabled":false,"rental_uris":{"android":"levelo://app?vid=da012e55-56aa-4836-97eb-401c7578f569","ios":"levelo://app?vid=da012e55-56aa-4836-97eb-401c7578f569"},"vehicle_type_id":"4","last_reported":1741183728,"current_range_meters":9600,"station_id":"ce4bhm92rcd13ifvqglg","pricing_plan_id":"cebpf4jnsgd1na2vs0mg"},{"bike_id":"c55557ad-1ed5-4997-aee7-ac92107f14b6","system_id":"levelo_inurba_marseille","lat":43.26489,"lon":5.37499,"is_reserved":false,"is_disabled":false,"rental_uris":{"android":"levelo://app?vid=c55557ad-1ed5-4997-aee7-ac92107f14b6","ios":"levelo://app?vid=c55557ad-1ed5-4997-aee7-ac92107f14b6"},"vehicle_type_id":"4","last_reported":1741183728,"current_range_meters":10000,"station_id":"","pricing_plan_id":"cebpf4jnsgd1na2vs0mg"},{"bike_id":"6d8337a5-40b8-4c62-acdb-5e6862a4d081","system_id":"levelo_inurba_marseille","lat":43.30782,"lon":5.37653,"is_reserved":false,"is_disabled":false,"rental_uris":{"android":"levelo://app?vid=6d8337a5-40b8-4c62-acdb-5e6862a4d081","ios":"levelo://app?vid=6d8337a5-40b8-4c62-acdb-5e6862a4d081"},"vehicle_type_id":"4","last_reported":1741183728,"current_range_meters":10000,"station_id":"ce4bgv92rcd13ifvqcq0","pricing_plan_id":"cebpf4jnsgd1na2vs0mg"},{"bike_id":"949aecfe-0292-4e50-9443-0fe36e21fad2","system_id":"levelo_inurba_marseille","lat":43.30542,"lon":5.36664,"is_reserved":false,"is_disabled":false,"rental_uris":{"android":"levelo://app?vid=949aecfe-0292-4e50-9443-0fe36e21fad2","ios":"levelo://app?vid=949aecfe-0292-4e50-9443-0fe36e21fad2"},"vehicle_type_id":"4","last_reported":1741183728,"current_range_meters":10000,"station_id":"","pricing_plan_id":"cebpf4jnsgd1na2vs0mg"},{"bike_id":"e4b23e1a-f517-4813-873e-7093378c893f","system_id":"levelo_inurba_marseille","lat":43.305977,"lon":5.372342,"is_reserved":false,"is_disabled":false,"rental_uris":{"android":"levelo://app?vid=e4b23e1a-f517-4813-873e-7093378c893f","ios":"levelo://app?vid=e4b23e1a-f517-4813-873e-7093378c893f"},"vehicle_type_id":"4","last_reported":1741183728,"current_range_meters":10000,"station_id":"ce4bha92rcd13ifvqeg0","pricing_plan_id":"cebpf4jnsgd1na2vs0mg"},{"bike_id":"e0049a7b-9e77-4db0-8ea6-e4ce1388b798","system_id":"levelo_inurba_marseille","lat":43.29615,"lon":5.37718,"is_reserved":false,"is_disabled":false,"rental_uris":{"android":"levelo://app?vid=e0049a7b-9e77-4db0-8ea6-e4ce1388b798","ios":"levelo://app?vid=e0049a7b-9e77-4db0-8ea6-e4ce1388b798"},"vehicle_type_id":"4","last_reported":1741183728,"current_range_meters":10000,"station_id":"ce4bgi92rcd13ifvqb90","pricing_plan_id":"cebpf4jnsgd1na2vs0mg"},{"bike_id":"7cd5e07c-ad2a-4af8-99d9-77c41335ce79","system_id":"levelo_inurba_marseille","lat":43.24172,"lon":5.36392,"is_reserved":false,"is_disabled":false,"rental_uris":{"android":"levelo://app?vid=7cd5e07c-ad2a-4af8-99d9-77c41335ce79","ios":"levelo://app?vid=7cd5e07c-ad2a-4af8-99d9-77c41335ce79"},"vehicle_type_id":"4","last_reported":1741183728,"current_range_meters":10000,"station_id":"cpo36qri1sfpv3e86is0","pricing_plan_id":"cebpf4jnsgd1na2vs0mg"},{"bike_id":"e3d7bc68-e1c3-463f-8323-6b168c27cfde","system_id":"levelo_inurba_marseille","lat":43.23143,"lon":5.4372,"is_reserved":false,"is_disabled":false,"rental_uris":{"android":"levelo://app?vid=e3d7bc68-e1c3-463f-8323-6b168c27cfde","ios":"levelo://app?vid=e3d7bc68-e1c3-463f-8323-6b168c27cfde"},"vehicle_type_id":"4","last_reported":1741183728,"current_range_meters":10000,"station_id":"ce4bhmp2rcd13ifvqgog","pricing_plan_id":"cebpf4jnsgd1na2vs0mg"},{"bike_id":"d571166c-77a4-4a91-b051-9cc34ad31336","system_id":"levelo_inurba_marseille","lat":43.30217,"lon":5.39307,"is_reserved":false,"is_disabled":false,"rental_uris":{"android":"levelo://app?vid=d571166c-77a4-4a91-b051-9cc34ad31336","ios":"levelo://app?vid=d571166c-77a4-4a91-b051-9cc34ad31336"},"vehicle_type_id":"4","last_reported":1741183728,"current_range_meters":10000,"station_id":"","pricing_plan_id":"cebpf4jnsgd1na2vs0mg"},{"bike_id":"c9ed15b4-49bd-497b-af4e-de9877f3d01d","system_id":"levelo_inurba_marseille","lat":43.28161,"lon":5.42653,"is_reserved":false,"is_disabled":false,"rental_uris":{"android":"levelo://app?vid=c9ed15b4-49bd-497b-af4e-de9877f3d01d","ios":"levelo://app?vid=c9ed15b4-49bd-497b-af4e-de9877f3d01d"},"vehicle_type_id":"4","last_reported":1741183728,"current_range_meters":10000,"station_id":"","pricing_plan_id":"cebpf4jnsgd1na2vs0mg"},{"bike_id":"3b219114-afa7-412a-84e6-60bc704150c0","system_id":"levelo_inurba_marseille","lat":43.23151,"lon":5.43707,"is_reserved":false,"is_disabled":false,"rental_uris":{"android":"levelo://app?vid=3b219114-afa7-412a-84e6-60bc704150c0","ios":"levelo://app?vid=3b219114-afa7-412a-84e6-60bc704150c0"},"vehicle_type_id":"4","last_reported":1741183728,"current_range_meters":10000,"station_id":"ce4bhmp2rcd13ifvqgog","pricing_plan_id":"cebpf4jnsgd1na2vs0mg"},{"bike_id":"a78978ba-53b1-4faa-9a35-dbb67443cb73","system_id":"levelo_inurba_marseille","lat":43.23142,"lon":5.43714,"is_reserved":false,"is_disabled":false,"rental_uris":{"android":"levelo://app?vid=a78978ba-53b1-4faa-9a35-dbb67443cb73","ios":"levelo://app?vid=a78978ba-53b1-4faa-9a35-dbb67443cb73"},"vehicle_type_id":"4","last_reported":1741183728,"current_range_meters":10000,"station_id":"ce4bhmp2rcd13ifvqgog","pricing_plan_id":"cebpf4jnsgd1na2vs0mg"},{"bike_id":"3a596ab9-9103-4f48-9700-a5a62e1fc109","system_id":"levelo_inurba_marseille","lat":43.33616,"lon":5.40995,"is_reserved":false,"is_disabled":false,"rental_uris":{"android":"levelo://app?vid=3a596ab9-9103-4f48-9700-a5a62e1fc109","ios":"levelo://app?vid=3a596ab9-9103-4f48-9700-a5a62e1fc109"},"vehicle_type_id":"4","last_reported":1741183728,"current_range_meters":10000,"station_id":"ce4bhqh2rcd13ifvqhmg","pricing_plan_id":"cebpf4jnsgd1na2vs0mg"},{"bike_id":"e62a8ea1-b90a-4d78-8826-c486dc110bf8","system_id":"levelo_inurba_marseille","lat":43.30293,"lon":5.37702,"is_reserved":false,"is_disabled":false,"rental_uris":{"android":"levelo://app?vid=e62a8ea1-b90a-4d78-8826-c486dc110bf8","ios":"levelo://app?vid=e62a8ea1-b90a-4d78-8826-c486dc110bf8"},"vehicle_type_id":"4","last_reported":1741183728,"current_range_meters":10800,"station_id":"ce4bguh2rcd13ifvqcj0","pricing_plan_id":"cebpf4jnsgd1na2vs0mg"},{"bike_id":"d4e835eb-bc3e-4d7b-892a-7c170cfff632","system_id":"levelo_inurba_marseille","lat":43.31267,"lon":5.4017,"is_reserved":false,"is_disabled":false,"rental_uris":{"android":"levelo://app?vid=d4e835eb-bc3e-4d7b-892a-7c170cfff632","ios":"levelo://app?vid=d4e835eb-bc3e-4d7b-892a-7c170cfff632"},"vehicle_type_id":"4","last_reported":1741183728,"current_range_meters":10800,"station_id":"ce4bh092rcd13ifvqd30","pricing_plan_id":"cebpf4jnsgd1na2vs0mg"},{"bike_id":"4658bb86-ff55-4502-b846-5c136404e88c","system_id":"levelo_inurba_marseille","lat":43.287277,"lon":5.379513,"is_reserved":false,"is_disabled":false,"rental_uris":{"android":"levelo://app?vid=4658bb86-ff55-4502-b846-5c136404e88c","ios":"levelo://app?vid=4658bb86-ff55-4502-b846-5c136404e88c"},"vehicle_type_id":"4","last_reported":1741183728,"current_range_meters":10800,"station_id":"ce4bh9p2rcd13ifvqec0","pricing_plan_id":"cebpf4jnsgd1na2vs0mg"},{"bike_id":"123bf396-08a6-409a-9f1f-2b7035f48e55","system_id":"levelo_inurba_marseille","lat":43.3046,"lon":5.37902,"is_reserved":false,"is_disabled":false,"rental_uris":{"android":"levelo://app?vid=123bf396-08a6-409a-9f1f-2b7035f48e55","ios":"levelo://app?vid=123bf396-08a6-409a-9f1f-2b7035f48e55"},"vehicle_type_id":"4","last_reported":1741183728,"current_range_meters":10800,"station_id":"ce4bgup2rcd13ifvqcn0","pricing_plan_id":"cebpf4jnsgd1na2vs0mg"},{"bike_id":"6dcd7069-97e1-4c34-83b8-ce6f544a9361","system_id":"levelo_inurba_marseille","lat":43.265537,"lon":5.37289,"is_reserved":false,"is_disabled":false,"rental_uris":{"android":"levelo://app?vid=6dcd7069-97e1-4c34-83b8-ce6f544a9361","ios":"levelo://app?vid=6dcd7069-97e1-4c34-83b8-ce6f544a9361"},"vehicle_type_id":"4","last_reported":1741183728,"current_range_meters":10800,"station_id":"ce4bhg12rcd13ifvqf70","pricing_plan_id":"cebpf4jnsgd1na2vs0mg"},{"bike_id":"9bcd5365-5462-45ed-aadf-820542cfb0da","system_id":"levelo_inurba_marseille","lat":43.29418,"lon":5.38618,"is_reserved":false,"is_disabled":false,"rental_uris":{"android":"levelo://app?vid=9bcd5365-5462-45ed-aadf-820542cfb0da","ios":"levelo://app?vid=9bcd5365-5462-45ed-aadf-820542cfb0da"},"vehicle_type_id":"4","last_reported":1741183728,"current_range_meters":11200,"station_id":"ce4bh2h2rcd13ifvqdh0","pricing_plan_id":"cebpf4jnsgd1na2vs0mg"},{"bike_id":"414cacaa-b827-4748-9179-3fc1a6b854ee","system_id":"levelo_inurba_marseille","lat":43.33604,"lon":5.41001,"is_reserved":false,"is_disabled":false,"rental_uris":{"android":"levelo://app?vid=414cacaa-b827-4748-9179-3fc1a6b854ee","ios":"levelo://app?vid=414cacaa-b827-4748-9179-3fc1a6b854ee"},"vehicle_type_id":"4","last_reported":1741183728,"current_range_meters":11200,"station_id":"ce4bhqh2rcd13ifvqhmg","pricing_plan_id":"cebpf4jnsgd1na2vs0mg"},{"bike_id":"937702d5-6154-4fc3-bf81-3949d0be8423","system_id":"levelo_inurba_marseille","lat":43.25002,"lon":5.38926,"is_reserved":false,"is_disabled":false,"rental_uris":{"android":"levelo://app?vid=937702d5-6154-4fc3-bf81-3949d0be8423","ios":"levelo://app?vid=937702d5-6154-4fc3-bf81-3949d0be8423"},"vehicle_type_id":"4","last_reported":1741183728,"current_range_meters":11600,"station_id":"ce4bhgp2rcd13ifvqfd0","pricing_plan_id":"cebpf4jnsgd1na2vs0mg"},{"bike_id":"0d2283cd-5e8a-474a-bf96-46ff34d52316","system_id":"levelo_inurba_marseille","lat":43.30142,"lon":5.37413,"is_reserved":false,"is_disabled":false,"rental_uris":{"android":"levelo://app?vid=0d2283cd-5e8a-474a-bf96-46ff34d52316","ios":"levelo://app?vid=0d2283cd-5e8a-474a-bf96-46ff34d52316"},"vehicle_type_id":"4","last_reported":1741183728,"current_range_meters":11600,"station_id":"ce4bgs92rcd13ifvqcc0","pricing_plan_id":"cebpf4jnsgd1na2vs0mg"},{"bike_id":"7c3a5c39-1544-4b80-8ba5-399f54635cce","system_id":"levelo_inurba_marseille","lat":43.294015,"lon":5.38563,"is_reserved":false,"is_disabled":false,"rental_uris":{"android":"levelo://app?vid=7c3a5c39-1544-4b80-8ba5-399f54635cce","ios":"levelo://app?vid=7c3a5c39-1544-4b80-8ba5-399f54635cce"},"vehicle_type_id":"4","last_reported":1741183728,"current_range_meters":11600,"station_id":"ce4bh2h2rcd13ifvqdh0","pricing_plan_id":"cebpf4jnsgd1na2vs0mg"},{"bike_id":"b68f056f-2ffd-4a10-b467-0e7927db620f","system_id":"levelo_inurba_marseille","lat":43.23153,"lon":5.43733,"is_reserved":false,"is_disabled":false,"rental_uris":{"android":"levelo://app?vid=b68f056f-2ffd-4a10-b467-0e7927db620f","ios":"levelo://app?vid=b68f056f-2ffd-4a10-b467-0e7927db620f"},"vehicle_type_id":"4","last_reported":1741183728,"current_range_meters":11600,"station_id":"ce4bhmp2rcd13ifvqgog","pricing_plan_id":"cebpf4jnsgd1na2vs0mg"},{"bike_id":"e1dc38b0-1e6e-4ed3-a0dd-4a3a31ca8b39","system_id":"levelo_inurba_marseille","lat":43.26942,"lon":5.38896,"is_reserved":false,"is_disabled":false,"rental_uris":{"android":"levelo://app?vid=e1dc38b0-1e6e-4ed3-a0dd-4a3a31ca8b39","ios":"levelo://app?vid=e1dc38b0-1e6e-4ed3-a0dd-4a3a31ca8b39"},"vehicle_type_id":"4","last_reported":1741183728,"current_range_meters":11600,"station_id":"ce4bhhh2rcd13ifvqfl0","pricing_plan_id":"cebpf4jnsgd1na2vs0mg"},{"bike_id":"8fdc13ce-d7e2-4a78-8ca5-bbd8be246b6d","system_id":"levelo_inurba_marseille","lat":43.23154,"lon":5.43703,"is_reserved":false,"is_disabled":false,"rental_uris":{"android":"levelo://app?vid=8fdc13ce-d7e2-4a78-8ca5-bbd8be246b6d","ios":"levelo://app?vid=8fdc13ce-d7e2-4a78-8ca5-bbd8be246b6d"},"vehicle_type_id":"4","last_reported":1741183728,"current_range_meters":11600,"station_id":"ce4bhmp2rcd13ifvqgog","pricing_plan_id":"cebpf4jnsgd1na2vs0mg"},{"bike_id":"a92c2cec-2eb9-47f1-9bc7-31b5d7ea7adf","system_id":"levelo_inurba_marseille","lat":43.31233,"lon":5.3686,"is_reserved":false,"is_disabled":false,"rental_uris":{"android":"levelo://app?vid=a92c2cec-2eb9-47f1-9bc7-31b5d7ea7adf","ios":"levelo://app?vid=a92c2cec-2eb9-47f1-9bc7-31b5d7ea7adf"},"vehicle_type_id":"4","last_reported":1741183728,"current_range_meters":12000,"station_id":"ce4bgl92rcd13ifvqbq0","pricing_plan_id":"cebpf4jnsgd1na2vs0mg"},{"bike_id":"88a22b1d-d9d1-4f92-ba32-0732f4e154bc","system_id":"levelo_inurba_marseille","lat":43.23153,"lon":5.43702,"is_reserved":false,"is_disabled":false,"rental_uris":{"android":"levelo://app?vid=88a22b1d-d9d1-4f92-ba32-0732f4e154bc","ios":"levelo://app?vid=88a22b1d-d9d1-4f92-ba32-0732f4e154bc"},"vehicle_type_id":"4","last_reported":1741183728,"current_range_meters":12000,"station_id":"ce4bhmp2rcd13ifvqgog","pricing_plan_id":"cebpf4jnsgd1na2vs0mg"},{"bike_id":"82ef671e-c0b3-4412-ac6f-0f7d08c58a95","system_id":"levelo_inurba_marseille","lat":43.30599,"lon":5.37241,"is_reserved":false,"is_disabled":false,"rental_uris":{"android":"levelo://app?vid=82ef671e-c0b3-4412-ac6f-0f7d08c58a95","ios":"levelo://app?vid=82ef671e-c0b3-4412-ac6f-0f7d08c58a95"},"vehicle_type_id":"4","last_reported":1741183728,"current_range_meters":11600,"station_id":"ce4bgqh2rcd13ifvqc4g","pricing_plan_id":"cebpf4jnsgd1na2vs0mg"},{"bike_id":"8e67c6c2-1f86-420e-855b-676e159ed831","system_id":"levelo_inurba_marseille","lat":43.23072,"lon":5.3549,"is_reserved":false,"is_disabled":false,"rental_uris":{"android":"levelo://app?vid=8e67c6c2-1f86-420e-855b-676e159ed831","ios":"levelo://app?vid=8e67c6c2-1f86-420e-855b-676e159ed831"},"vehicle_type_id":"4","last_reported":1741183728,"current_range_meters":12400,"station_id":"cpo3342slgdg3j2ifvpg","pricing_plan_id":"cebpf4jnsgd1na2vs0mg"},{"bike_id":"cba6a766-3158-4fdc-849a-5887af830bdc","system_id":"levelo_inurba_marseille","lat":43.29245,"lon":5.38212,"is_reserved":false,"is_disabled":false,"rental_uris":{"android":"levelo://app?vid=cba6a766-3158-4fdc-849a-5887af830bdc","ios":"levelo://app?vid=cba6a766-3158-4fdc-849a-5887af830bdc"},"vehicle_type_id":"4","last_reported":1741183728,"current_range_meters":12400,"station_id":"","pricing_plan_id":"cebpf4jnsgd1na2vs0mg"},{"bike_id":"7e141603-5076-446b-a90d-8e44d6246006","system_id":"levelo_inurba_marseille","lat":43.31226,"lon":5.3686,"is_reserved":false,"is_disabled":false,"rental_uris":{"android":"levelo://app?vid=7e141603-5076-446b-a90d-8e44d6246006","ios":"levelo://app?vid=7e141603-5076-446b-a90d-8e44d6246006"},"vehicle_type_id":"4","last_reported":1741183728,"current_range_meters":12400,"station_id":"ce4bgl92rcd13ifvqbq0","pricing_plan_id":"cebpf4jnsgd1na2vs0mg"},{"bike_id":"e4420a4d-7211-46fe-bdcf-f7f283fbe829","system_id":"levelo_inurba_marseille","lat":43.2849,"lon":5.38415,"is_reserved":false,"is_disabled":false,"rental_uris":{"android":"levelo://app?vid=e4420a4d-7211-46fe-bdcf-f7f283fbe829","ios":"levelo://app?vid=e4420a4d-7211-46fe-bdcf-f7f283fbe829"},"vehicle_type_id":"4","last_reported":1741183728,"current_range_meters":12400,"station_id":"ce4bh512rcd13ifvqe3g","pricing_plan_id":"cebpf4jnsgd1na2vs0mg"},{"bike_id":"32383aac-e9f5-42a8-95e4-cf6dce8cac85","system_id":"levelo_inurba_marseille","lat":43.29001,"lon":5.35609,"is_reserved":false,"is_disabled":false,"rental_uris":{"android":"levelo://app?vid=32383aac-e9f5-42a8-95e4-cf6dce8cac85","ios":"levelo://app?vid=32383aac-e9f5-42a8-95e4-cf6dce8cac85"},"vehicle_type_id":"4","last_reported":1741183728,"current_range_meters":12800,"station_id":"ce4bhb92rcd13ifvqen0","pricing_plan_id":"cebpf4jnsgd1na2vs0mg"},{"bike_id":"89793f9c-9010-4d75-9cdd-d3c9b0d5a4ee","system_id":"levelo_inurba_marseille","lat":43.24179,"lon":5.39711,"is_reserved":false,"is_disabled":false,"rental_uris":{"android":"levelo://app?vid=89793f9c-9010-4d75-9cdd-d3c9b0d5a4ee","ios":"levelo://app?vid=89793f9c-9010-4d75-9cdd-d3c9b0d5a4ee"},"vehicle_type_id":"4","last_reported":1741183728,"current_range_meters":12800,"station_id":"ce4bhn12rcd13ifvqgpg","pricing_plan_id":"cebpf4jnsgd1na2vs0mg"},{"bike_id":"ee59b3a3-0f87-489f-91b5-15c91569f1b2","system_id":"levelo_inurba_marseille","lat":43.241561,"lon":5.36403,"is_reserved":false,"is_disabled":false,"rental_uris":{"android":"levelo://app?vid=ee59b3a3-0f87-489f-91b5-15c91569f1b2","ios":"levelo://app?vid=ee59b3a3-0f87-489f-91b5-15c91569f1b2"},"vehicle_type_id":"4","last_reported":1741183728,"current_range_meters":12800,"station_id":"cpo36qri1sfpv3e86is0","pricing_plan_id":"cebpf4jnsgd1na2vs0mg"},{"bike_id":"330426bc-0af9-4c3e-8e4c-6ec10833df11","system_id":"levelo_inurba_marseille","lat":43.299049,"lon":5.436706,"is_reserved":false,"is_disabled":false,"rental_uris":{"android":"levelo://app?vid=330426bc-0af9-4c3e-8e4c-6ec10833df11","ios":"levelo://app?vid=330426bc-0af9-4c3e-8e4c-6ec10833df11"},"vehicle_type_id":"4","last_reported":1741183728,"current_range_meters":12800,"station_id":"ce4bhpp2rcd13ifvqhfg","pricing_plan_id":"cebpf4jnsgd1na2vs0mg"},{"bike_id":"3686df06-9788-4822-8a7c-046a1fc3e622","system_id":"levelo_inurba_marseille","lat":43.25587,"lon":5.38228,"is_reserved":false,"is_disabled":false,"rental_uris":{"android":"levelo://app?vid=3686df06-9788-4822-8a7c-046a1fc3e622","ios":"levelo://app?vid=3686df06-9788-4822-8a7c-046a1fc3e622"},"vehicle_type_id":"4","last_reported":1741183728,"current_range_meters":12800,"station_id":"ce4bhih2rcd13ifvqfs0","pricing_plan_id":"cebpf4jnsgd1na2vs0mg"},{"bike_id":"f9ba3212-afcc-4e66-a650-559ac2af04a9","system_id":"levelo_inurba_marseille","lat":43.26063,"lon":5.39373,"is_reserved":false,"is_disabled":false,"rental_uris":{"android":"levelo://app?vid=f9ba3212-afcc-4e66-a650-559ac2af04a9","ios":"levelo://app?vid=f9ba3212-afcc-4e66-a650-559ac2af04a9"},"vehicle_type_id":"4","last_reported":1741183728,"current_range_meters":12800,"station_id":"ce4bhh92rcd13ifvqfj0","pricing_plan_id":"cebpf4jnsgd1na2vs0mg"},{"bike_id":"fa98af60-ad58-4ccc-a5a0-6ebd1ae22394","system_id":"levelo_inurba_marseille","lat":43.28115,"lon":5.37836,"is_reserved":false,"is_disabled":false,"rental_uris":{"android":"levelo://app?vid=fa98af60-ad58-4ccc-a5a0-6ebd1ae22394","ios":"levelo://app?vid=fa98af60-ad58-4ccc-a5a0-6ebd1ae22394"},"vehicle_type_id":"4","last_reported":1741183728,"current_range_meters":12800,"station_id":"ce4bha12rcd13ifvqee0","pricing_plan_id":"cebpf4jnsgd1na2vs0mg"},{"bike_id":"95a7f661-84a3-41c8-b322-371de73d76ec","system_id":"levelo_inurba_marseille","lat":43.25912,"lon":5.40889,"is_reserved":false,"is_disabled":false,"rental_uris":{"android":"levelo://app?vid=95a7f661-84a3-41c8-b322-371de73d76ec","ios":"levelo://app?vid=95a7f661-84a3-41c8-b322-371de73d76ec"},"vehicle_type_id":"4","last_reported":1741183728,"current_range_meters":13600,"station_id":"ce4bhm92rcd13ifvqglg","pricing_plan_id":"cebpf4jnsgd1na2vs0mg"},{"bike_id":"fdc969eb-cd8e-4ce9-ac67-a9f5ef1a9ce3","system_id":"levelo_inurba_marseille","lat":43.2827,"lon":5.35073,"is_reserved":false,"is_disabled":false,"rental_uris":{"android":"levelo://app?vid=fdc969eb-cd8e-4ce9-ac67-a9f5ef1a9ce3","ios":"levelo://app?vid=fdc969eb-cd8e-4ce9-ac67-a9f5ef1a9ce3"},"vehicle_type_id":"4","last_reported":1741183728,"current_range_meters":13600,"station_id":"ce4bhbp2rcd13ifvqerg","pricing_plan_id":"cebpf4jnsgd1na2vs0mg"},{"bike_id":"f7277aa0-4a6c-490d-9490-cd1ed3a99f63","system_id":"levelo_inurba_marseille","lat":43.2737,"lon":5.36258,"is_reserved":false,"is_disabled":false,"rental_uris":{"android":"levelo://app?vid=f7277aa0-4a6c-490d-9490-cd1ed3a99f63","ios":"levelo://app?vid=f7277aa0-4a6c-490d-9490-cd1ed3a99f63"},"vehicle_type_id":"4","last_reported":1741183728,"current_range_meters":13600,"station_id":"ce4bhbh2rcd13ifvqeo0","pricing_plan_id":"cebpf4jnsgd1na2vs0mg"},{"bike_id":"32cbc2c0-55e5-4fbf-a795-71fbcea30cb5","system_id":"levelo_inurba_marseille","lat":43.29627,"lon":5.37159,"is_reserved":false,"is_disabled":false,"rental_uris":{"android":"levelo://app?vid=32cbc2c0-55e5-4fbf-a795-71fbcea30cb5","ios":"levelo://app?vid=32cbc2c0-55e5-4fbf-a795-71fbcea30cb5"},"vehicle_type_id":"4","last_reported":1741183728,"current_range_meters":13600,"station_id":"ce4bgnh2rcd13ifvqc0g","pricing_plan_id":"cebpf4jnsgd1na2vs0mg"},{"bike_id":"5cb3e475-d1c3-4bea-bb58-71ceaca27c06","system_id":"levelo_inurba_marseille","lat":43.28434,"lon":5.35006,"is_reserved":false,"is_disabled":false,"rental_uris":{"android":"levelo://app?vid=5cb3e475-d1c3-4bea-bb58-71ceaca27c06","ios":"levelo://app?vid=5cb3e475-d1c3-4bea-bb58-71ceaca27c06"},"vehicle_type_id":"4","last_reported":1741183728,"current_range_meters":14000,"station_id":"ce4bhbh2rcd13ifvqepg","pricing_plan_id":"cebpf4jnsgd1na2vs0mg"},{"bike_id":"cd0adcec-a5f9-435e-b965-9859e3b773ec","system_id":"levelo_inurba_marseille","lat":43.27371,"lon":5.36259,"is_reserved":false,"is_disabled":false,"rental_uris":{"android":"levelo://app?vid=cd0adcec-a5f9-435e-b965-9859e3b773ec","ios":"levelo://app?vid=cd0adcec-a5f9-435e-b965-9859e3b773ec"},"vehicle_type_id":"4","last_reported":1741183728,"current_range_meters":14000,"station_id":"ce4bhbh2rcd13ifvqeo0","pricing_plan_id":"cebpf4jnsgd1na2vs0mg"},{"bike_id":"c11f530c-99ab-49c1-bdcc-785cd598698f","system_id":"levelo_inurba_marseille","lat":43.32539,"lon":5.41449,"is_reserved":false,"is_disabled":false,"rental_uris":{"android":"levelo://app?vid=c11f530c-99ab-49c1-bdcc-785cd598698f","ios":"levelo://app?vid=c11f530c-99ab-49c1-bdcc-785cd598698f"},"vehicle_type_id":"4","last_reported":1741183728,"current_range_meters":14000,"station_id":"ce4bhq12rcd13ifvqhhg","pricing_plan_id":"cebpf4jnsgd1na2vs0mg"},{"bike_id":"1cf7ca02-4b9c-4989-b1b2-898e1e1529fc","system_id":"levelo_inurba_marseille","lat":43.26037,"lon":5.37547,"is_reserved":false,"is_disabled":false,"rental_uris":{"android":"levelo://app?vid=1cf7ca02-4b9c-4989-b1b2-898e1e1529fc","ios":"levelo://app?vid=1cf7ca02-4b9c-4989-b1b2-898e1e1529fc"},"vehicle_type_id":"4","last_reported":1741183728,"current_range_meters":14000,"station_id":"ce4bhgh2rcd13ifvqfa0","pricing_plan_id":"cebpf4jnsgd1na2vs0mg"},{"bike_id":"11fe9f17-96bb-4c3e-a194-89b161d7eded","system_id":"levelo_inurba_marseille","lat":43.26557,"lon":5.37281,"is_reserved":false,"is_disabled":false,"rental_uris":{"android":"levelo://app?vid=11fe9f17-96bb-4c3e-a194-89b161d7eded","ios":"levelo://app?vid=11fe9f17-96bb-4c3e-a194-89b161d7eded"},"vehicle_type_id":"4","last_reported":1741183728,"current_range_meters":14000,"station_id":"ce4bhg12rcd13ifvqf70","pricing_plan_id":"cebpf4jnsgd1na2vs0mg"},{"bike_id":"332b57c6-ba4c-476d-a31b-c6a87d750425","system_id":"levelo_inurba_marseille","lat":43.30129,"lon":5.39867,"is_reserved":false,"is_disabled":false,"rental_uris":{"android":"levelo://app?vid=332b57c6-ba4c-476d-a31b-c6a87d750425","ios":"levelo://app?vid=332b57c6-ba4c-476d-a31b-c6a87d750425"},"vehicle_type_id":"4","last_reported":1741183728,"current_range_meters":13600,"station_id":"ce4bh0h2rcd13ifvqd40","pricing_plan_id":"cebpf4jnsgd1na2vs0mg"},{"bike_id":"28423a58-f2e5-4826-accc-bf0af1fcf4d6","system_id":"levelo_inurba_marseille","lat":43.30242,"lon":5.40058,"is_reserved":false,"is_disabled":false,"rental_uris":{"android":"levelo://app?vid=28423a58-f2e5-4826-accc-bf0af1fcf4d6","ios":"levelo://app?vid=28423a58-f2e5-4826-accc-bf0af1fcf4d6"},"vehicle_type_id":"4","last_reported":1741183728,"current_range_meters":14000,"station_id":"ce4bgvh2rcd13ifvqcs0","pricing_plan_id":"cebpf4jnsgd1na2vs0mg"},{"bike_id":"0dbad763-3a14-4b0c-8cd0-7cb3ab196e97","system_id":"levelo_inurba_marseille","lat":43.2624,"lon":5.40441,"is_reserved":false,"is_disabled":false,"rental_uris":{"android":"levelo://app?vid=0dbad763-3a14-4b0c-8cd0-7cb3ab196e97","ios":"levelo://app?vid=0dbad763-3a14-4b0c-8cd0-7cb3ab196e97"},"vehicle_type_id":"4","last_reported":1741183728,"current_range_meters":14400,"station_id":"ce4bhmh2rcd13ifvqgmg","pricing_plan_id":"cebpf4jnsgd1na2vs0mg"},{"bike_id":"19707f4e-57a0-487d-a0fd-b6e158a12fa5","system_id":"levelo_inurba_marseille","lat":43.28105,"lon":5.3783,"is_reserved":false,"is_disabled":false,"rental_uris":{"android":"levelo://app?vid=19707f4e-57a0-487d-a0fd-b6e158a12fa5","ios":"levelo://app?vid=19707f4e-57a0-487d-a0fd-b6e158a12fa5"},"vehicle_type_id":"4","last_reported":1741183728,"current_range_meters":14400,"station_id":"ce4bha12rcd13ifvqee0","pricing_plan_id":"cebpf4jnsgd1na2vs0mg"},{"bike_id":"6f9d8078-728e-4ff1-8a47-7be185906c83","system_id":"levelo_inurba_marseille","lat":43.27173,"lon":5.40996,"is_reserved":false,"is_disabled":false,"rental_uris":{"android":"levelo://app?vid=6f9d8078-728e-4ff1-8a47-7be185906c83","ios":"levelo://app?vid=6f9d8078-728e-4ff1-8a47-7be185906c83"},"vehicle_type_id":"4","last_reported":1741183728,"current_range_meters":14400,"station_id":"ce4bhl12rcd13ifvqgf0","pricing_plan_id":"cebpf4jnsgd1na2vs0mg"},{"bike_id":"654c41e3-6bc1-44b2-bbc8-9175276856fe","system_id":"levelo_inurba_marseille","lat":43.29229,"lon":5.36063,"is_reserved":false,"is_disabled":false,"rental_uris":{"android":"levelo://app?vid=654c41e3-6bc1-44b2-bbc8-9175276856fe","ios":"levelo://app?vid=654c41e3-6bc1-44b2-bbc8-9175276856fe"},"vehicle_type_id":"4","last_reported":1741183728,"current_range_meters":14400,"station_id":"ce4bhbh2rcd13ifvqeqg","pricing_plan_id":"cebpf4jnsgd1na2vs0mg"},{"bike_id":"6a78d4b8-b99d-41ea-abad-64b5ba339e56","system_id":"levelo_inurba_marseille","lat":43.29849,"lon":5.36278,"is_reserved":false,"is_disabled":false,"rental_uris":{"android":"levelo://app?vid=6a78d4b8-b99d-41ea-abad-64b5ba339e56","ios":"levelo://app?vid=6a78d4b8-b99d-41ea-abad-64b5ba339e56"},"vehicle_type_id":"4","last_reported":1741183728,"current_range_meters":14800,"station_id":"ce4bgpp2rcd13ifvqc3g","pricing_plan_id":"cebpf4jnsgd1na2vs0mg"},{"bike_id":"ec7ba40b-bc48-498c-9862-263501e39f96","system_id":"levelo_inurba_marseille","lat":43.28263,"lon":5.35082,"is_reserved":false,"is_disabled":false,"rental_uris":{"android":"levelo://app?vid=ec7ba40b-bc48-498c-9862-263501e39f96","ios":"levelo://app?vid=ec7ba40b-bc48-498c-9862-263501e39f96"},"vehicle_type_id":"4","last_reported":1741183728,"current_range_meters":14800,"station_id":"ce4bhbp2rcd13ifvqerg","pricing_plan_id":"cebpf4jnsgd1na2vs0mg"},{"bike_id":"a048cc8d-4a68-455f-a39f-6cb25fc94485","system_id":"levelo_inurba_marseille","lat":43.28267,"lon":5.35059,"is_reserved":false,"is_disabled":false,"rental_uris":{"android":"levelo://app?vid=a048cc8d-4a68-455f-a39f-6cb25fc94485","ios":"levelo://app?vid=a048cc8d-4a68-455f-a39f-6cb25fc94485"},"vehicle_type_id":"4","last_reported":1741183728,"current_range_meters":14800,"station_id":"ce4bhbp2rcd13ifvqerg","pricing_plan_id":"cebpf4jnsgd1na2vs0mg"},{"bike_id":"1cfc9c5f-54af-40e6-8245-4f580f3f70f1","system_id":"levelo_inurba_marseille","lat":43.33022,"lon":5.39041,"is_reserved":false,"is_disabled":false,"rental_uris":{"android":"levelo://app?vid=1cfc9c5f-54af-40e6-8245-4f580f3f70f1","ios":"levelo://app?vid=1cfc9c5f-54af-40e6-8245-4f580f3f70f1"},"vehicle_type_id":"4","last_reported":1741183728,"current_range_meters":14800,"station_id":"ce4bhr92rcd13ifvqhrg","pricing_plan_id":"cebpf4jnsgd1na2vs0mg"},{"bike_id":"408535f1-9918-4a6d-af3c-8faceed3e01e","system_id":"levelo_inurba_marseille","lat":43.3266,"lon":5.4099,"is_reserved":false,"is_disabled":false,"rental_uris":{"android":"levelo://app?vid=408535f1-9918-4a6d-af3c-8faceed3e01e","ios":"levelo://app?vid=408535f1-9918-4a6d-af3c-8faceed3e01e"},"vehicle_type_id":"4","last_reported":1741183728,"current_range_meters":14800,"station_id":"ce4bhpp2rcd13ifvqhgg","pricing_plan_id":"cebpf4jnsgd1na2vs0mg"},{"bike_id":"24ce815e-160a-4084-84b9-3113224dceee","system_id":"levelo_inurba_marseille","lat":43.29585,"lon":5.3751,"is_reserved":false,"is_disabled":false,"rental_uris":{"android":"levelo://app?vid=24ce815e-160a-4084-84b9-3113224dceee","ios":"levelo://app?vid=24ce815e-160a-4084-84b9-3113224dceee"},"vehicle_type_id":"4","last_reported":1741183728,"current_range_meters":14800,"station_id":"ce4bgh92rcd13ifvqb50","pricing_plan_id":"cebpf4jnsgd1na2vs0mg"},{"bike_id":"56fcd40d-750c-416a-a422-8823a84cdae6","system_id":"levelo_inurba_marseille","lat":43.23152,"lon":5.43715,"is_reserved":false,"is_disabled":false,"rental_uris":{"android":"levelo://app?vid=56fcd40d-750c-416a-a422-8823a84cdae6","ios":"levelo://app?vid=56fcd40d-750c-416a-a422-8823a84cdae6"},"vehicle_type_id":"4","last_reported":1741183728,"current_range_meters":15200,"station_id":"ce4bhmp2rcd13ifvqgog","pricing_plan_id":"cebpf4jnsgd1na2vs0mg"},{"bike_id":"50fa0ea4-345a-4b90-a144-997e7a9e2117","system_id":"levelo_inurba_marseille","lat":43.30106,"lon":5.39064,"is_reserved":false,"is_disabled":false,"rental_uris":{"android":"levelo://app?vid=50fa0ea4-345a-4b90-a144-997e7a9e2117","ios":"levelo://app?vid=50fa0ea4-345a-4b90-a144-997e7a9e2117"},"vehicle_type_id":"4","last_reported":1741183728,"current_range_meters":15200,"station_id":"ce4bh192rcd13ifvqdb0","pricing_plan_id":"cebpf4jnsgd1na2vs0mg"},{"bike_id":"f8edeb39-e774-485b-9758-8955d30fe399","system_id":"levelo_inurba_marseille","lat":43.31713,"lon":5.37751,"is_reserved":false,"is_disabled":false,"rental_uris":{"android":"levelo://app?vid=f8edeb39-e774-485b-9758-8955d30fe399","ios":"levelo://app?vid=f8edeb39-e774-485b-9758-8955d30fe399"},"vehicle_type_id":"4","last_reported":1741183728,"current_range_meters":15200,"station_id":"ce4bgth2rcd13ifvqch0","pricing_plan_id":"cebpf4jnsgd1na2vs0mg"},{"bike_id":"070f0b28-933a-491f-9593-eed632e613d2","system_id":"levelo_inurba_marseille","lat":43.33728,"lon":5.39183,"is_reserved":false,"is_disabled":false,"rental_uris":{"android":"levelo://app?vid=070f0b28-933a-491f-9593-eed632e613d2","ios":"levelo://app?vid=070f0b28-933a-491f-9593-eed632e613d2"},"vehicle_type_id":"4","last_reported":1741183728,"current_range_meters":15200,"station_id":"ce4bhr92rcd13ifvqhsg","pricing_plan_id":"cebpf4jnsgd1na2vs0mg"},{"bike_id":"8c13b638-f777-4c1f-9565-5f03698141cb","system_id":"levelo_inurba_marseille","lat":43.30155,"lon":5.37389,"is_reserved":false,"is_disabled":false,"rental_uris":{"android":"levelo://app?vid=8c13b638-f777-4c1f-9565-5f03698141cb","ios":"levelo://app?vid=8c13b638-f777-4c1f-9565-5f03698141cb"},"vehicle_type_id":"4","last_reported":1741183728,"current_range_meters":15200,"station_id":"ce4bgs92rcd13ifvqcc0","pricing_plan_id":"cebpf4jnsgd1na2vs0mg"},{"bike_id":"1864bfcf-7e00-43b0-9422-0785540cba9a","system_id":"levelo_inurba_marseille","lat":43.2953,"lon":5.3855,"is_reserved":false,"is_disabled":false,"rental_uris":{"android":"levelo://app?vid=1864bfcf-7e00-43b0-9422-0785540cba9a","ios":"levelo://app?vid=1864bfcf-7e00-43b0-9422-0785540cba9a"},"vehicle_type_id":"4","last_reported":1741183728,"current_range_meters":15200,"station_id":"ce4bgih2rcd13ifvqba0","pricing_plan_id":"cebpf4jnsgd1na2vs0mg"},{"bike_id":"5cccd927-e86b-4020-9894-5f1ad718832a","system_id":"levelo_inurba_marseille","lat":43.28413,"lon":5.34978,"is_reserved":false,"is_disabled":false,"rental_uris":{"android":"levelo://app?vid=5cccd927-e86b-4020-9894-5f1ad718832a","ios":"levelo://app?vid=5cccd927-e86b-4020-9894-5f1ad718832a"},"vehicle_type_id":"4","last_reported":1741183728,"current_range_meters":15200,"station_id":"ce4bhbh2rcd13ifvqepg","pricing_plan_id":"cebpf4jnsgd1na2vs0mg"},{"bike_id":"0b3cb245-c1ab-4265-9e03-36f6b9bfa685","system_id":"levelo_inurba_marseille","lat":43.23064,"lon":5.35492,"is_reserved":false,"is_disabled":false,"rental_uris":{"android":"levelo://app?vid=0b3cb245-c1ab-4265-9e03-36f6b9bfa685","ios":"levelo://app?vid=0b3cb245-c1ab-4265-9e03-36f6b9bfa685"},"vehicle_type_id":"4","last_reported":1741183728,"current_range_meters":15200,"station_id":"cpo3342slgdg3j2ifvpg","pricing_plan_id":"cebpf4jnsgd1na2vs0mg"},{"bike_id":"cbd36e49-97ba-40a7-b091-ed593be2ecc9","system_id":"levelo_inurba_marseille","lat":43.29967,"lon":5.37164,"is_reserved":false,"is_disabled":false,"rental_uris":{"android":"levelo://app?vid=cbd36e49-97ba-40a7-b091-ed593be2ecc9","ios":"levelo://app?vid=cbd36e49-97ba-40a7-b091-ed593be2ecc9"},"vehicle_type_id":"4","last_reported":1741183728,"current_range_meters":15200,"station_id":"ce4bgr92rcd13ifvqc7g","pricing_plan_id":"cebpf4jnsgd1na2vs0mg"},{"bike_id":"ba9d4a82-0ce6-487f-bc4b-86c56883a8c8","system_id":"levelo_inurba_marseille","lat":43.313,"lon":5.3689,"is_reserved":false,"is_disabled":false,"rental_uris":{"android":"levelo://app?vid=ba9d4a82-0ce6-487f-bc4b-86c56883a8c8","ios":"levelo://app?vid=ba9d4a82-0ce6-487f-bc4b-86c56883a8c8"},"vehicle_type_id":"4","last_reported":1741183728,"current_range_meters":16000,"station_id":"ce4bgl92rcd13ifvqbq0","pricing_plan_id":"cebpf4jnsgd1na2vs0mg"},{"bike_id":"c5e46d82-d9a0-452c-a125-bbbee3eb847e","system_id":"levelo_inurba_marseille","lat":43.28267,"lon":5.35082,"is_reserved":false,"is_disabled":false,"rental_uris":{"android":"levelo://app?vid=c5e46d82-d9a0-452c-a125-bbbee3eb847e","ios":"levelo://app?vid=c5e46d82-d9a0-452c-a125-bbbee3eb847e"},"vehicle_type_id":"4","last_reported":1741183728,"current_range_meters":16000,"station_id":"ce4bhbp2rcd13ifvqerg","pricing_plan_id":"cebpf4jnsgd1na2vs0mg"},{"bike_id":"7f1905bf-da4d-4f13-af14-c5d46804e585","system_id":"levelo_inurba_marseille","lat":43.23207,"lon":5.35534,"is_reserved":false,"is_disabled":false,"rental_uris":{"android":"levelo://app?vid=7f1905bf-da4d-4f13-af14-c5d46804e585","ios":"levelo://app?vid=7f1905bf-da4d-4f13-af14-c5d46804e585"},"vehicle_type_id":"4","last_reported":1741183728,"current_range_meters":16000,"station_id":"ce4bhu92rcd13ifvqi70","pricing_plan_id":"cebpf4jnsgd1na2vs0mg"},{"bike_id":"c3fd0348-525e-4860-b549-232df855c845","system_id":"levelo_inurba_marseille","lat":43.30147,"lon":5.3808,"is_reserved":false,"is_disabled":false,"rental_uris":{"android":"levelo://app?vid=c3fd0348-525e-4860-b549-232df855c845","ios":"levelo://app?vid=c3fd0348-525e-4860-b549-232df855c845"},"vehicle_type_id":"4","last_reported":1741183728,"current_range_meters":15200,"station_id":"ce4bgjp2rcd13ifvqbh0","pricing_plan_id":"cebpf4jnsgd1na2vs0mg"},{"bike_id":"a2c6c6ee-6573-49c2-8de9-0b50ef603f6d","system_id":"levelo_inurba_marseille","lat":43.28454,"lon":5.35894,"is_reserved":false,"is_disabled":false,"rental_uris":{"android":"levelo://app?vid=a2c6c6ee-6573-49c2-8de9-0b50ef603f6d","ios":"levelo://app?vid=a2c6c6ee-6573-49c2-8de9-0b50ef603f6d"},"vehicle_type_id":"4","last_reported":1741183728,"current_range_meters":16000,"station_id":"ce4bhah2rcd13ifvqei0","pricing_plan_id":"cebpf4jnsgd1na2vs0mg"},{"bike_id":"002c5d64-010d-481c-aebc-685c04821c05","system_id":"levelo_inurba_marseille","lat":43.2623,"lon":5.37452,"is_reserved":false,"is_disabled":false,"rental_uris":{"android":"levelo://app?vid=002c5d64-010d-481c-aebc-685c04821c05","ios":"levelo://app?vid=002c5d64-010d-481c-aebc-685c04821c05"},"vehicle_type_id":"4","last_reported":1741183728,"current_range_meters":16000,"station_id":"ce4bhgp2rcd13ifvqfc0","pricing_plan_id":"cebpf4jnsgd1na2vs0mg"},{"bike_id":"251bd015-2f2d-44bf-bf30-72ae0664024a","system_id":"levelo_inurba_marseille","lat":43.24177,"lon":5.39728,"is_reserved":false,"is_disabled":false,"rental_uris":{"android":"levelo://app?vid=251bd015-2f2d-44bf-bf30-72ae0664024a","ios":"levelo://app?vid=251bd015-2f2d-44bf-bf30-72ae0664024a"},"vehicle_type_id":"4","last_reported":1741183728,"current_range_meters":16000,"station_id":"ce4bhn12rcd13ifvqgpg","pricing_plan_id":"cebpf4jnsgd1na2vs0mg"},{"bike_id":"b7d46c19-8fbd-4d11-994c-f336dd0acbae","system_id":"levelo_inurba_marseille","lat":43.25008,"lon":5.38935,"is_reserved":false,"is_disabled":false,"rental_uris":{"android":"levelo://app?vid=b7d46c19-8fbd-4d11-994c-f336dd0acbae","ios":"levelo://app?vid=b7d46c19-8fbd-4d11-994c-f336dd0acbae"},"vehicle_type_id":"4","last_reported":1741183728,"current_range_meters":16400,"station_id":"ce4bhgp2rcd13ifvqfd0","pricing_plan_id":"cebpf4jnsgd1na2vs0mg"},{"bike_id":"48dd4a66-c4e0-4334-8dbe-e71a1ce9eb4d","system_id":"levelo_inurba_marseille","lat":43.28107,"lon":5.3781,"is_reserved":false,"is_disabled":false,"rental_uris":{"android":"levelo://app?vid=48dd4a66-c4e0-4334-8dbe-e71a1ce9eb4d","ios":"levelo://app?vid=48dd4a66-c4e0-4334-8dbe-e71a1ce9eb4d"},"vehicle_type_id":"4","last_reported":1741183728,"current_range_meters":16400,"station_id":"ce4bha12rcd13ifvqee0","pricing_plan_id":"cebpf4jnsgd1na2vs0mg"},{"bike_id":"5981e5fd-8ca3-4e17-921d-10437ee17d35","system_id":"levelo_inurba_marseille","lat":43.24156,"lon":5.36407,"is_reserved":false,"is_disabled":false,"rental_uris":{"android":"levelo://app?vid=5981e5fd-8ca3-4e17-921d-10437ee17d35","ios":"levelo://app?vid=5981e5fd-8ca3-4e17-921d-10437ee17d35"},"vehicle_type_id":"4","last_reported":1741183728,"current_range_meters":16400,"station_id":"cpo36qri1sfpv3e86is0","pricing_plan_id":"cebpf4jnsgd1na2vs0mg"},{"bike_id":"b4dbc2f8-3715-4259-a1ce-8afae83e3cdc","system_id":"levelo_inurba_marseille","lat":43.30468,"lon":5.37889,"is_reserved":false,"is_disabled":false,"rental_uris":{"android":"levelo://app?vid=b4dbc2f8-3715-4259-a1ce-8afae83e3cdc","ios":"levelo://app?vid=b4dbc2f8-3715-4259-a1ce-8afae83e3cdc"},"vehicle_type_id":"4","last_reported":1741183728,"current_range_meters":16400,"station_id":"ce4bgup2rcd13ifvqcn0","pricing_plan_id":"cebpf4jnsgd1na2vs0mg"},{"bike_id":"127f3e76-f732-455b-b629-1edc14646948","system_id":"levelo_inurba_marseille","lat":43.28269,"lon":5.35064,"is_reserved":false,"is_disabled":false,"rental_uris":{"android":"levelo://app?vid=127f3e76-f732-455b-b629-1edc14646948","ios":"levelo://app?vid=127f3e76-f732-455b-b629-1edc14646948"},"vehicle_type_id":"4","last_reported":1741183728,"current_range_meters":16400,"station_id":"ce4bhbp2rcd13ifvqerg","pricing_plan_id":"cebpf4jnsgd1na2vs0mg"},{"bike_id":"ecd52ca5-00d0-4ce7-bcc7-3898d621c5a1","system_id":"levelo_inurba_marseille","lat":43.33604,"lon":5.41023,"is_reserved":false,"is_disabled":false,"rental_uris":{"android":"levelo://app?vid=ecd52ca5-00d0-4ce7-bcc7-3898d621c5a1","ios":"levelo://app?vid=ecd52ca5-00d0-4ce7-bcc7-3898d621c5a1"},"vehicle_type_id":"4","last_reported":1741183728,"current_range_meters":16400,"station_id":"ce4bhqh2rcd13ifvqhmg","pricing_plan_id":"cebpf4jnsgd1na2vs0mg"},{"bike_id":"10c4fdc1-57cc-4428-afd3-4b74c20d0075","system_id":"levelo_inurba_marseille","lat":43.27376,"lon":5.36255,"is_reserved":false,"is_disabled":false,"rental_uris":{"android":"levelo://app?vid=10c4fdc1-57cc-4428-afd3-4b74c20d0075","ios":"levelo://app?vid=10c4fdc1-57cc-4428-afd3-4b74c20d0075"},"vehicle_type_id":"4","last_reported":1741183728,"current_range_meters":16800,"station_id":"ce4bhbh2rcd13ifvqeo0","pricing_plan_id":"cebpf4jnsgd1na2vs0mg"},{"bike_id":"04b66606-5433-4ec4-ae15-12f701df6e79","system_id":"levelo_inurba_marseille","lat":43.2979,"lon":5.39347,"is_reserved":false,"is_disabled":false,"rental_uris":{"android":"levelo://app?vid=04b66606-5433-4ec4-ae15-12f701df6e79","ios":"levelo://app?vid=04b66606-5433-4ec4-ae15-12f701df6e79"},"vehicle_type_id":"4","last_reported":1741183728,"current_range_meters":16800,"station_id":"chh1huq6cuj3fo74tm60","pricing_plan_id":"cebpf4jnsgd1na2vs0mg"},{"bike_id":"b5eb10f9-c5de-435f-b1fc-f277cd338604","system_id":"levelo_inurba_marseille","lat":43.28933,"lon":5.36641,"is_reserved":false,"is_disabled":false,"rental_uris":{"android":"levelo://app?vid=b5eb10f9-c5de-435f-b1fc-f277cd338604","ios":"levelo://app?vid=b5eb10f9-c5de-435f-b1fc-f277cd338604"},"vehicle_type_id":"4","last_reported":1741183728,"current_range_meters":16800,"station_id":"ce4bhap2rcd13ifvqek0","pricing_plan_id":"cebpf4jnsgd1na2vs0mg"},{"bike_id":"fec41063-132e-42fc-b9d3-bb8288f18b96","system_id":"levelo_inurba_marseille","lat":43.30435,"lon":5.37989,"is_reserved":false,"is_disabled":false,"rental_uris":{"android":"levelo://app?vid=fec41063-132e-42fc-b9d3-bb8288f18b96","ios":"levelo://app?vid=fec41063-132e-42fc-b9d3-bb8288f18b96"},"vehicle_type_id":"4","last_reported":1741183728,"current_range_meters":16800,"station_id":"ce4bgup2rcd13ifvqcn0","pricing_plan_id":"cebpf4jnsgd1na2vs0mg"},{"bike_id":"764d29c0-acc6-4b3d-94e6-686cf2b240dc","system_id":"levelo_inurba_marseille","lat":43.241703,"lon":5.39731,"is_reserved":false,"is_disabled":false,"rental_uris":{"android":"levelo://app?vid=764d29c0-acc6-4b3d-94e6-686cf2b240dc","ios":"levelo://app?vid=764d29c0-acc6-4b3d-94e6-686cf2b240dc"},"vehicle_type_id":"4","last_reported":1741183728,"current_range_meters":16800,"station_id":"ce4bhn12rcd13ifvqgpg","pricing_plan_id":"cebpf4jnsgd1na2vs0mg"},{"bike_id":"2b5f9044-b354-41d3-a856-f135d5ccbb97","system_id":"levelo_inurba_marseille","lat":43.23184,"lon":5.39982,"is_reserved":false,"is_disabled":false,"rental_uris":{"android":"levelo://app?vid=2b5f9044-b354-41d3-a856-f135d5ccbb97","ios":"levelo://app?vid=2b5f9044-b354-41d3-a856-f135d5ccbb97"},"vehicle_type_id":"4","last_reported":1741183728,"current_range_meters":16800,"station_id":"ce4bhn12rcd13ifvqgqg","pricing_plan_id":"cebpf4jnsgd1na2vs0mg"},{"bike_id":"9629035d-cf03-4aad-8275-8098781a7900","system_id":"levelo_inurba_marseille","lat":43.31313,"lon":5.39706,"is_reserved":false,"is_disabled":false,"rental_uris":{"android":"levelo://app?vid=9629035d-cf03-4aad-8275-8098781a7900","ios":"levelo://app?vid=9629035d-cf03-4aad-8275-8098781a7900"},"vehicle_type_id":"4","last_reported":1741183728,"current_range_meters":16800,"station_id":"ce4bgvp2rcd13ifvqcu0","pricing_plan_id":"cebpf4jnsgd1na2vs0mg"},{"bike_id":"0e25af53-18d9-4d5e-8149-3b5ffa39f7ae","system_id":"levelo_inurba_marseille","lat":43.29605,"lon":5.38118,"is_reserved":false,"is_disabled":false,"rental_uris":{"android":"levelo://app?vid=0e25af53-18d9-4d5e-8149-3b5ffa39f7ae","ios":"levelo://app?vid=0e25af53-18d9-4d5e-8149-3b5ffa39f7ae"},"vehicle_type_id":"4","last_reported":1741183728,"current_range_meters":16800,"station_id":"ce4bgl12rcd13ifvqbo0","pricing_plan_id":"cebpf4jnsgd1na2vs0mg"},{"bike_id":"3d145f56-63fe-4aeb-9546-d87104f46ce9","system_id":"levelo_inurba_marseille","lat":43.3255,"lon":5.41433,"is_reserved":false,"is_disabled":false,"rental_uris":{"android":"levelo://app?vid=3d145f56-63fe-4aeb-9546-d87104f46ce9","ios":"levelo://app?vid=3d145f56-63fe-4aeb-9546-d87104f46ce9"},"vehicle_type_id":"4","last_reported":1741183728,"current_range_meters":17200,"station_id":"ce4bhq12rcd13ifvqhhg","pricing_plan_id":"cebpf4jnsgd1na2vs0mg"},{"bike_id":"a240c9e9-00c9-4392-91c9-f0ca685b1654","system_id":"levelo_inurba_marseille","lat":43.30142,"lon":5.38071,"is_reserved":false,"is_disabled":false,"rental_uris":{"android":"levelo://app?vid=a240c9e9-00c9-4392-91c9-f0ca685b1654","ios":"levelo://app?vid=a240c9e9-00c9-4392-91c9-f0ca685b1654"},"vehicle_type_id":"4","last_reported":1741183728,"current_range_meters":17200,"station_id":"ce4bgjp2rcd13ifvqbh0","pricing_plan_id":"cebpf4jnsgd1na2vs0mg"},{"bike_id":"369874df-f6c7-4fbc-8c91-0017888e0c67","system_id":"levelo_inurba_marseille","lat":43.24808,"lon":5.37457,"is_reserved":false,"is_disabled":false,"rental_uris":{"android":"levelo://app?vid=369874df-f6c7-4fbc-8c91-0017888e0c67","ios":"levelo://app?vid=369874df-f6c7-4fbc-8c91-0017888e0c67"},"vehicle_type_id":"4","last_reported":1741183728,"current_range_meters":17600,"station_id":"ce4bhgh2rcd13ifvqfb0","pricing_plan_id":"cebpf4jnsgd1na2vs0mg"},{"bike_id":"6526273e-6da8-4dd7-bdc4-525325662e58","system_id":"levelo_inurba_marseille","lat":43.25486,"lon":5.3765,"is_reserved":false,"is_disabled":false,"rental_uris":{"android":"levelo://app?vid=6526273e-6da8-4dd7-bdc4-525325662e58","ios":"levelo://app?vid=6526273e-6da8-4dd7-bdc4-525325662e58"},"vehicle_type_id":"4","last_reported":1741183728,"current_range_meters":17600,"station_id":"ce4bhh12rcd13ifvqff0","pricing_plan_id":"cebpf4jnsgd1na2vs0mg"},{"bike_id":"23dafe3d-e720-4d5c-b85a-3f10a163b4f0","system_id":"levelo_inurba_marseille","lat":43.2656,"lon":5.37289,"is_reserved":false,"is_disabled":false,"rental_uris":{"android":"levelo://app?vid=23dafe3d-e720-4d5c-b85a-3f10a163b4f0","ios":"levelo://app?vid=23dafe3d-e720-4d5c-b85a-3f10a163b4f0"},"vehicle_type_id":"4","last_reported":1741183728,"current_range_meters":17600,"station_id":"ce4bhg12rcd13ifvqf70","pricing_plan_id":"cebpf4jnsgd1na2vs0mg"},{"bike_id":"5c3ed66f-7620-412d-a698-d6bf1340a913","system_id":"levelo_inurba_marseille","lat":43.25,"lon":5.38926,"is_reserved":false,"is_disabled":false,"rental_uris":{"android":"levelo://app?vid=5c3ed66f-7620-412d-a698-d6bf1340a913","ios":"levelo://app?vid=5c3ed66f-7620-412d-a698-d6bf1340a913"},"vehicle_type_id":"4","last_reported":1741183728,"current_range_meters":17600,"station_id":"ce4bhgp2rcd13ifvqfd0","pricing_plan_id":"cebpf4jnsgd1na2vs0mg"},{"bike_id":"c61c7642-c45b-406c-8d87-5c99c023d3aa","system_id":"levelo_inurba_marseille","lat":43.27911,"lon":5.38022,"is_reserved":false,"is_disabled":false,"rental_uris":{"android":"levelo://app?vid=c61c7642-c45b-406c-8d87-5c99c023d3aa","ios":"levelo://app?vid=c61c7642-c45b-406c-8d87-5c99c023d3aa"},"vehicle_type_id":"4","last_reported":1741183728,"current_range_meters":17600,"station_id":"ce4bhf92rcd13ifvqf50","pricing_plan_id":"cebpf4jnsgd1na2vs0mg"},{"bike_id":"356a1309-3319-431c-ba96-f3f6713ef3c0","system_id":"levelo_inurba_marseille","lat":43.33669,"lon":5.41031,"is_reserved":false,"is_disabled":false,"rental_uris":{"android":"levelo://app?vid=356a1309-3319-431c-ba96-f3f6713ef3c0","ios":"levelo://app?vid=356a1309-3319-431c-ba96-f3f6713ef3c0"},"vehicle_type_id":"4","last_reported":1741183728,"current_range_meters":17600,"station_id":"ce4bhqh2rcd13ifvqhmg","pricing_plan_id":"cebpf4jnsgd1na2vs0mg"},{"bike_id":"61631f3e-8349-4ca2-9e9f-bf291304017a","system_id":"levelo_inurba_marseille","lat":43.31201,"lon":5.36883,"is_reserved":false,"is_disabled":false,"rental_uris":{"android":"levelo://app?vid=61631f3e-8349-4ca2-9e9f-bf291304017a","ios":"levelo://app?vid=61631f3e-8349-4ca2-9e9f-bf291304017a"},"vehicle_type_id":"4","last_reported":1741183728,"current_range_meters":17600,"station_id":"ce4bgl92rcd13ifvqbq0","pricing_plan_id":"cebpf4jnsgd1na2vs0mg"},{"bike_id":"4e45e371-a278-4780-b0b3-6acbfa1ca813","system_id":"levelo_inurba_marseille","lat":43.26925,"lon":5.40249,"is_reserved":false,"is_disabled":false,"rental_uris":{"android":"levelo://app?vid=4e45e371-a278-4780-b0b3-6acbfa1ca813","ios":"levelo://app?vid=4e45e371-a278-4780-b0b3-6acbfa1ca813"},"vehicle_type_id":"4","last_reported":1741183728,"current_range_meters":17600,"station_id":"cjm6bp8fraef2m0cb0m0","pricing_plan_id":"cebpf4jnsgd1na2vs0mg"},{"bike_id":"e1a4748e-dad2-4877-96d4-c7810f0f2ab6","system_id":"levelo_inurba_marseille","lat":43.301415,"lon":5.374155,"is_reserved":false,"is_disabled":false,"rental_uris":{"android":"levelo://app?vid=e1a4748e-dad2-4877-96d4-c7810f0f2ab6","ios":"levelo://app?vid=e1a4748e-dad2-4877-96d4-c7810f0f2ab6"},"vehicle_type_id":"4","last_reported":1741183728,"current_range_meters":17600,"station_id":"ce4bgs92rcd13ifvqcc0","pricing_plan_id":"cebpf4jnsgd1na2vs0mg"},