{"last_updated":1745046523,"ttl":60,"version":"2.2","data":{"bikes":[{"bike_id":"2a297b53-e6c9-4a44-8832-a1535085da75","system_id":"levelo_inurba_marseille","lat":43.319882,"lon":5.381567,"is_reserved":false,"is_disabled":false,"rental_uris":{"android":"levelo://app?vid=2a297b53-e6c9-4a44-8832-a1535085da75","ios":"levelo://app?vid=2a297b53-e6c9-4a44-8832-a1535085da75"},"vehicle_type_id":"4","last_reported":1745046524,"current_range_meters":2800,"station_id":"ce4bhr12rcd13ifvqhpg","pricing_plan_id":"cebpf4jnsgd1na2vs0mg"},{"bike_id":"4992d484-a546-455f-8433-2cde287c477e","system_id":"levelo_inurba_marseille","lat":43.30329,"lon":5.40445,"is_reserved":false,"is_disabled":true,"rental_uris":{"android":"levelo://app?vid=4992d484-a546-455f-8433-2cde287c477e","ios":"levelo://app?vid=4992d484-a546-455f-8433-2cde287c477e"},"vehicle_type_id":"4","last_reported":1745046524,"current_range_meters":2800,"station_id":"ce4bh012rcd13ifvqd10","pricing_plan_id":"cebpf4jnsgd1na2vs0mg"},{"bike_id":"7c44e025-a33b-4ced-a118-8538bdb543bc","system_id":"levelo_inurba_marseille","lat":43.28945,"lon":5.396387,"is_reserved":false,"is_disabled":false,"rental_uris":{"android":"levelo://app?vid=7c44e025-a33b-4ced-a118-8538bdb543bc","ios":"levelo://app?vid=7c44e025-a33b-4ced-a118-8538bdb543bc"},"vehicle_type_id":"4","last_reported":1745046524,"current_range_meters":3200,"station_id":"ce4bh3h2rcd13ifvqdn0","pricing_plan_id":"cebpf4jnsgd1na2vs0mg"},{"bike_id":"6f568c50-6f17-47d2-bbba-2c6ecfbc9644","system_id":"levelo_inurba_marseille","lat":43.2919,"lon":5.36932,"is_reserved":false,"is_disabled":false,"rental_uris":{"android":"levelo://app?vid=6f568c50-6f17-47d2-bbba-2c6ecfbc9644","ios":"levelo://app?vid=6f568c50-6f17-47d2-bbba-2c6ecfbc9644"},"vehicle_type_id":"4","last_reported":1745046524,"current_range_meters":3200,"station_id":"","pricing_plan_id":"cebpf4jnsgd1na2vs0mg"},{"bike_id":"ecf650c9-a3a6-42b9-9e14-b74cff0330e1","system_id":"levelo_inurba_marseille","lat":43.262129,"lon":5.374402,"is_reserved":false,"is_disabled":false,"rental_uris":{"android":"levelo://app?vid=ecf650c9-a3a6-42b9-9e14-b74cff0330e1","ios":"levelo://app?vid=ecf650c9-a3a6-42b9-9e14-b74cff0330e1"},"vehicle_type_id":"4","last_reported":1745046524,"current_range_meters":3600,"station_id":"ce4bhgp2rcd13ifvqfc0","pricing_plan_id":"cebpf4jnsgd1na2vs0mg"},{"bike_id":"5741aebf-1467-4f18-b08a-e660f9dd364f","system_id":"levelo_inurba_marseille","lat":43.30118,"lon":5.39874,"is_reserved":false,"is_disabled":false,"rental_uris":{"android":"levelo://app?vid=5741aebf-1467-4f18-b08a-e660f9dd364f","ios":"levelo://app?vid=5741aebf-1467-4f18-b08a-e660f9dd364f"},"vehicle_type_id":"4","last_reported":1745046524,"current_range_meters":3600,"station_id":"ce4bh0h2rcd13ifvqd40","pricing_plan_id":"cebpf4jnsgd1na2vs0mg"},{"bike_id":"7b45ff1d-3fbd-4137-8fe0-93117a8b966d","system_id":"levelo_inurba_marseille","lat":43.29543,"lon":5.37542,"is_reserved":false,"is_disabled":false,"rental_uris":{"android":"levelo://app?vid=7b45ff1d-3fbd-4137-8fe0-93117a8b966d","ios":"levelo://app?vid=7b45ff1d-3fbd-4137-8fe0-93117a8b966d"},"vehicle_type_id":"4","last_reported":1745046524,"current_range_meters":3600,"station_id":"ce4bgh92rcd13ifvqb50","pricing_plan_id":"cebpf4jnsgd1na2vs0mg"},{"bike_id":"f87076be-d4e7-4fd3-a636-0ae2e807833f","system_id":"levelo_inurba_marseille","lat":43.28655,"lon":5.38683,"is_reserved":false,"is_disabled":false,"rental_uris":{"android":"levelo://app?vid=f87076be-d4e7-4fd3-a636-0ae2e807833f","ios":"levelo://app?vid=f87076be-d4e7-4fd3-a636-0ae2e807833f"},"vehicle_type_id":"4","last_reported":1745046524,"current_range_meters":4400,"station_id":"ce4bh492rcd13ifvqdug","pricing_plan_id":"cebpf4jnsgd1na2vs0mg"},{"bike_id":"20b10e20-daa3-4c8d-99a3-204ba679a932","system_id":"levelo_inurba_marseille","lat":43.28465,"lon":5.35887,"is_reserved":false,"is_disabled":false,"rental_uris":{"android":"levelo://app?vid=20b10e20-daa3-4c8d-99a3-204ba679a932","ios":"levelo://app?vid=20b10e20-daa3-4c8d-99a3-204ba679a932"},"vehicle_type_id":"4","last_reported":1745046524,"current_range_meters":4400,"station_id":"ce4bhah2rcd13ifvqei0","pricing_plan_id":"cebpf4jnsgd1na2vs0mg"},{"bike_id":"a9eb962f-7d8b-4c1e-8c65-8047073e3592","system_id":"levelo_inurba_marseille","lat":43.24168,"lon":5.36404,"is_reserved":false,"is_disabled":false,"rental_uris":{"android":"levelo://app?vid=a9eb962f-7d8b-4c1e-8c65-8047073e3592","ios":"levelo://app?vid=a9eb962f-7d8b-4c1e-8c65-8047073e3592"},"vehicle_type_id":"4","last_reported":1745046524,"current_range_meters":4400,"station_id":"cpo36qri1sfpv3e86is0","pricing_plan_id":"cebpf4jnsgd1na2vs0mg"},{"bike_id":"12e61b61-a165-4320-af5e-d9d6c29090fc","system_id":"levelo_inurba_marseille","lat":43.22973,"lon":5.35435,"is_reserved":false,"is_disabled":false,"rental_uris":{"android":"levelo://app?vid=12e61b61-a165-4320-af5e-d9d6c29090fc","ios":"levelo://app?vid=12e61b61-a165-4320-af5e-d9d6c29090fc"},"vehicle_type_id":"4","last_reported":1745046524,"current_range_meters":4400,"station_id":"","pricing_plan_id":"cebpf4jnsgd1na2vs0mg"},{"bike_id":"65ec13a0-b6c9-4a64-a021-8c2cd6f8a26c","system_id":"levelo_inurba_marseille","lat":43.28379,"lon":5.38647,"is_reserved":false,"is_disabled":false,"rental_uris":{"android":"levelo://app?vid=65ec13a0-b6c9-4a64-a021-8c2cd6f8a26c","ios":"levelo://app?vid=65ec13a0-b6c9-4a64-a021-8c2cd6f8a26c"},"vehicle_type_id":"4","last_reported":1745046524,"current_range_meters":4800,"station_id":"ce4bh492rcd13ifvqdvg","pricing_plan_id":"cebpf4jnsgd1na2vs0mg"},{"bike_id":"5583a1cb-ef8e-4930-b38d-8d47fac1b289","system_id":"levelo_inurba_marseille","lat":43.27819,"lon":5.40717,"is_reserved":false,"is_disabled":false,"rental_uris":{"android":"levelo://app?vid=5583a1cb-ef8e-4930-b38d-8d47fac1b289","ios":"levelo://app?vid=5583a1cb-ef8e-4930-b38d-8d47fac1b289"},"vehicle_type_id":"4","last_reported":1745046524,"current_range_meters":4800,"station_id":"ce4bhnh2rcd13ifvqgtg","pricing_plan_id":"cebpf4jnsgd1na2vs0mg"},{"bike_id":"ac258475-3a4a-4554-aa8c-ba192de9f574","system_id":"levelo_inurba_marseille","lat":43.33595,"lon":5.40995,"is_reserved":false,"is_disabled":false,"rental_uris":{"android":"levelo://app?vid=ac258475-3a4a-4554-aa8c-ba192de9f574","ios":"levelo://app?vid=ac258475-3a4a-4554-aa8c-ba192de9f574"},"vehicle_type_id":"4","last_reported":1745046524,"current_range_meters":5600,"station_id":"ce4bhqh2rcd13ifvqhmg","pricing_plan_id":"cebpf4jnsgd1na2vs0mg"},{"bike_id":"b3b82863-a2fc-41d2-bccd-5becece4b492","system_id":"levelo_inurba_marseille","lat":43.31505,"lon":5.3725,"is_reserved":false,"is_disabled":false,"rental_uris":{"android":"levelo://app?vid=b3b82863-a2fc-41d2-bccd-5becece4b492","ios":"levelo://app?vid=b3b82863-a2fc-41d2-bccd-5becece4b492"},"vehicle_type_id":"4","last_reported":1745046524,"current_range_meters":5600,"station_id":"ce4bgt12rcd13ifvqcd0","pricing_plan_id":"cebpf4jnsgd1na2vs0mg"},{"bike_id":"84e49312-ac99-4ef9-99d2-031114a019a8","system_id":"levelo_inurba_marseille","lat":43.32092,"lon":5.36794,"is_reserved":false,"is_disabled":true,"rental_uris":{"android":"levelo://app?vid=84e49312-ac99-4ef9-99d2-031114a019a8","ios":"levelo://app?vid=84e49312-ac99-4ef9-99d2-031114a019a8"},"vehicle_type_id":"4","last_reported":1745046524,"current_range_meters":5600,"station_id":"ce4bhrh2rcd13ifvqhug","pricing_plan_id":"cebpf4jnsgd1na2vs0mg"},{"bike_id":"ae6a026c-314b-4466-8ffa-cc4d4d3b4ac5","system_id":"levelo_inurba_marseille","lat":43.27378,"lon":5.36252,"is_reserved":false,"is_disabled":false,"rental_uris":{"android":"levelo://app?vid=ae6a026c-314b-4466-8ffa-cc4d4d3b4ac5","ios":"levelo://app?vid=ae6a026c-314b-4466-8ffa-cc4d4d3b4ac5"},"vehicle_type_id":"4","last_reported":1745046524,"current_range_meters":5600,"station_id":"ce4bhbh2rcd13ifvqeo0","pricing_plan_id":"cebpf4jnsgd1na2vs0mg"},{"bike_id":"bc361a36-5c6c-4af8-a9e6-22fee141b78a","system_id":"levelo_inurba_marseille","lat":43.335865,"lon":5.409782,"is_reserved":false,"is_disabled":true,"rental_uris":{"android":"levelo://app?vid=bc361a36-5c6c-4af8-a9e6-22fee141b78a","ios":"levelo://app?vid=bc361a36-5c6c-4af8-a9e6-22fee141b78a"},"vehicle_type_id":"4","last_reported":1745046524,"current_range_meters":6000,"station_id":"ce4bhqh2rcd13ifvqhmg","pricing_plan_id":"cebpf4jnsgd1na2vs0mg"},{"bike_id":"cf4db056-d3f7-4001-aa54-c43d57090a49","system_id":"levelo_inurba_marseille","lat":43.23193,"lon":5.3557,"is_reserved":false,"is_disabled":false,"rental_uris":{"android":"levelo://app?vid=cf4db056-d3f7-4001-aa54-c43d57090a49","ios":"levelo://app?vid=cf4db056-d3f7-4001-aa54-c43d57090a49"},"vehicle_type_id":"4","last_reported":1745046524,"current_range_meters":6000,"station_id":"ce4bhu92rcd13ifvqi70","pricing_plan_id":"cebpf4jnsgd1na2vs0mg"},{"bike_id":"6cc1e5a0-610e-4ca5-9ae7-6d16ff207d58","system_id":"levelo_inurba_marseille","lat":43.31858,"lon":5.40742,"is_reserved":false,"is_disabled":false,"rental_uris":{"android":"levelo://app?vid=6cc1e5a0-610e-4ca5-9ae7-6d16ff207d58","ios":"levelo://app?vid=6cc1e5a0-610e-4ca5-9ae7-6d16ff207d58"},"vehicle_type_id":"4","last_reported":1745046524,"current_range_meters":6000,"station_id":"ce4bhq12rcd13ifvqhig","pricing_plan_id":"cebpf4jnsgd1na2vs0mg"},{"bike_id":"c415b972-8ead-4e78-8d80-7a091746c0aa","system_id":"levelo_inurba_marseille","lat":43.24394,"lon":5.37073,"is_reserved":false,"is_disabled":false,"rental_uris":{"android":"levelo://app?vid=c415b972-8ead-4e78-8d80-7a091746c0aa","ios":"levelo://app?vid=c415b972-8ead-4e78-8d80-7a091746c0aa"},"vehicle_type_id":"4","last_reported":1745046524,"current_range_meters":6400,"station_id":"ce4bhhh2rcd13ifvqfk0","pricing_plan_id":"cebpf4jnsgd1na2vs0mg"},{"bike_id":"cea6fc84-3c57-46ab-bbde-f86996234328","system_id":"levelo_inurba_marseille","lat":43.30976,"lon":5.39048,"is_reserved":false,"is_disabled":false,"rental_uris":{"android":"levelo://app?vid=cea6fc84-3c57-46ab-bbde-f86996234328","ios":"levelo://app?vid=cea6fc84-3c57-46ab-bbde-f86996234328"},"vehicle_type_id":"4","last_reported":1745046524,"current_range_meters":6000,"station_id":"ce4bgup2rcd13ifvqco0","pricing_plan_id":"cebpf4jnsgd1na2vs0mg"},{"bike_id":"a744e6fc-71f4-4361-9531-5d5d5dea5d82","system_id":"levelo_inurba_marseille","lat":43.30501,"lon":5.3791,"is_reserved":false,"is_disabled":true,"rental_uris":{"android":"levelo://app?vid=a744e6fc-71f4-4361-9531-5d5d5dea5d82","ios":"levelo://app?vid=a744e6fc-71f4-4361-9531-5d5d5dea5d82"},"vehicle_type_id":"4","last_reported":1745046524,"current_range_meters":6400,"station_id":"ce4bgup2rcd13ifvqcn0","pricing_plan_id":"cebpf4jnsgd1na2vs0mg"},{"bike_id":"0bf759ac-1ef0-4cd1-9bd0-3a765382832f","system_id":"levelo_inurba_marseille","lat":43.23148,"lon":5.43718,"is_reserved":false,"is_disabled":false,"rental_uris":{"android":"levelo://app?vid=0bf759ac-1ef0-4cd1-9bd0-3a765382832f","ios":"levelo://app?vid=0bf759ac-1ef0-4cd1-9bd0-3a765382832f"},"vehicle_type_id":"4","last_reported":1745046524,"current_range_meters":6400,"station_id":"ce4bhmp2rcd13ifvqgog","pricing_plan_id":"cebpf4jnsgd1na2vs0mg"},{"bike_id":"70b6b133-6705-4dfd-b4a7-6e88067904e8","system_id":"levelo_inurba_marseille","lat":43.24155,"lon":5.36443,"is_reserved":false,"is_disabled":false,"rental_uris":{"android":"levelo://app?vid=70b6b133-6705-4dfd-b4a7-6e88067904e8","ios":"levelo://app?vid=70b6b133-6705-4dfd-b4a7-6e88067904e8"},"vehicle_type_id":"4","last_reported":1745046524,"current_range_meters":6400,"station_id":"cpo36qri1sfpv3e86is0","pricing_plan_id":"cebpf4jnsgd1na2vs0mg"},{"bike_id":"70c97c69-ee9d-4fff-827c-537c7b12f7bc","system_id":"levelo_inurba_marseille","lat":43.29577,"lon":5.36739,"is_reserved":false,"is_disabled":false,"rental_uris":{"android":"levelo://app?vid=70c97c69-ee9d-4fff-827c-537c7b12f7bc","ios":"levelo://app?vid=70c97c69-ee9d-4fff-827c-537c7b12f7bc"},"vehicle_type_id":"4","last_reported":1745046524,"current_range_meters":6400,"station_id":"ce4bgph2rcd13ifvqc2g","pricing_plan_id":"cebpf4jnsgd1na2vs0mg"},{"bike_id":"3287305e-dc20-444a-9949-00d7352f401a","system_id":"levelo_inurba_marseille","lat":43.24179,"lon":5.36398,"is_reserved":false,"is_disabled":false,"rental_uris":{"android":"levelo://app?vid=3287305e-dc20-444a-9949-00d7352f401a","ios":"levelo://app?vid=3287305e-dc20-444a-9949-00d7352f401a"},"vehicle_type_id":"4","last_reported":1745046524,"current_range_meters":6400,"station_id":"cpo36qri1sfpv3e86is0","pricing_plan_id":"cebpf4jnsgd1na2vs0mg"},{"bike_id":"5f45d412-da62-4b2d-b407-6eb2602c6e52","system_id":"levelo_inurba_marseille","lat":43.28608,"lon":5.37073,"is_reserved":false,"is_disabled":false,"rental_uris":{"android":"levelo://app?vid=5f45d412-da62-4b2d-b407-6eb2602c6e52","ios":"levelo://app?vid=5f45d412-da62-4b2d-b407-6eb2602c6e52"},"vehicle_type_id":"4","last_reported":1745046524,"current_range_meters":6400,"station_id":"ce4bht12rcd13ifvqi60","pricing_plan_id":"cebpf4jnsgd1na2vs0mg"},{"bike_id":"95bad018-0037-41c0-b8c7-0a7c9f9fa577","system_id":"levelo_inurba_marseille","lat":43.302,"lon":5.39476,"is_reserved":false,"is_disabled":false,"rental_uris":{"android":"levelo://app?vid=95bad018-0037-41c0-b8c7-0a7c9f9fa577","ios":"levelo://app?vid=95bad018-0037-41c0-b8c7-0a7c9f9fa577"},"vehicle_type_id":"4","last_reported":1745046524,"current_range_meters":6400,"station_id":"ce4bh0p2rcd13ifvqd70","pricing_plan_id":"cebpf4jnsgd1na2vs0mg"},{"bike_id":"fe603162-9e89-4df8-9ff6-b2da950e8cb3","system_id":"levelo_inurba_marseille","lat":43.24996,"lon":5.38945,"is_reserved":false,"is_disabled":false,"rental_uris":{"android":"levelo://app?vid=fe603162-9e89-4df8-9ff6-b2da950e8cb3","ios":"levelo://app?vid=fe603162-9e89-4df8-9ff6-b2da950e8cb3"},"vehicle_type_id":"4","last_reported":1745046524,"current_range_meters":6400,"station_id":"ce4bhgp2rcd13ifvqfd0","pricing_plan_id":"cebpf4jnsgd1na2vs0mg"},{"bike_id":"9f4e5c72-054b-4523-9439-16878db5b8e7","system_id":"levelo_inurba_marseille","lat":43.26565,"lon":5.37264,"is_reserved":false,"is_disabled":false,"rental_uris":{"android":"levelo://app?vid=9f4e5c72-054b-4523-9439-16878db5b8e7","ios":"levelo://app?vid=9f4e5c72-054b-4523-9439-16878db5b8e7"},"vehicle_type_id":"4","last_reported":1745046524,"current_range_meters":6400,"station_id":"ce4bhg12rcd13ifvqf70","pricing_plan_id":"cebpf4jnsgd1na2vs0mg"},{"bike_id":"a9f5f0bc-8026-49a5-a645-ac7b387ec5d4","system_id":"levelo_inurba_marseille","lat":43.24677,"lon":5.3815,"is_reserved":false,"is_disabled":false,"rental_uris":{"android":"levelo://app?vid=a9f5f0bc-8026-49a5-a645-ac7b387ec5d4","ios":"levelo://app?vid=a9f5f0bc-8026-49a5-a645-ac7b387ec5d4"},"vehicle_type_id":"4","last_reported":1745046524,"current_range_meters":6400,"station_id":"ce4bhih2rcd13ifvqfr0","pricing_plan_id":"cebpf4jnsgd1na2vs0mg"},{"bike_id":"6987c513-b50c-45b1-80e3-356055d982d5","system_id":"levelo_inurba_marseille","lat":43.29968,"lon":5.37739,"is_reserved":false,"is_disabled":true,"rental_uris":{"android":"levelo://app?vid=6987c513-b50c-45b1-80e3-356055d982d5","ios":"levelo://app?vid=6987c513-b50c-45b1-80e3-356055d982d5"},"vehicle_type_id":"4","last_reported":1745046524,"current_range_meters":6800,"station_id":"","pricing_plan_id":"cebpf4jnsgd1na2vs0mg"},{"bike_id":"163ae193-1956-4708-9a9f-e75528a51829","system_id":"levelo_inurba_marseille","lat":43.30883,"lon":5.39641,"is_reserved":false,"is_disabled":false,"rental_uris":{"android":"levelo://app?vid=163ae193-1956-4708-9a9f-e75528a51829","ios":"levelo://app?vid=163ae193-1956-4708-9a9f-e75528a51829"},"vehicle_type_id":"4","last_reported":1745046524,"current_range_meters":6800,"station_id":"ce4bh012rcd13ifvqcv0","pricing_plan_id":"cebpf4jnsgd1na2vs0mg"},{"bike_id":"36028acb-1986-4460-84fe-b2aca491647c","system_id":"levelo_inurba_marseille","lat":43.26782,"lon":5.39428,"is_reserved":false,"is_disabled":true,"rental_uris":{"android":"levelo://app?vid=36028acb-1986-4460-84fe-b2aca491647c","ios":"levelo://app?vid=36028acb-1986-4460-84fe-b2aca491647c"},"vehicle_type_id":"4","last_reported":1745046524,"current_range_meters":6800,"station_id":"ce4bhh12rcd13ifvqfg0","pricing_plan_id":"cebpf4jnsgd1na2vs0mg"},{"bike_id":"fcb16b8d-7b53-48c4-9b9d-daed86c760ad","system_id":"levelo_inurba_marseille","lat":43.28871,"lon":5.35859,"is_reserved":false,"is_disabled":true,"rental_uris":{"android":"levelo://app?vid=fcb16b8d-7b53-48c4-9b9d-daed86c760ad","ios":"levelo://app?vid=fcb16b8d-7b53-48c4-9b9d-daed86c760ad"},"vehicle_type_id":"4","last_reported":1745046524,"current_range_meters":6800,"station_id":"ce4bhb12rcd13ifvqem0","pricing_plan_id":"cebpf4jnsgd1na2vs0mg"},{"bike_id":"dc20ec95-bb08-43c3-8a9e-7b926d993d06","system_id":"levelo_inurba_marseille","lat":43.3076,"lon":5.42439,"is_reserved":false,"is_disabled":false,"rental_uris":{"android":"levelo://app?vid=dc20ec95-bb08-43c3-8a9e-7b926d993d06","ios":"levelo://app?vid=dc20ec95-bb08-43c3-8a9e-7b926d993d06"},"vehicle_type_id":"4","last_reported":1745046524,"current_range_meters":6800,"station_id":"st_cvj6ca6bvosntc0bfgr0","pricing_plan_id":"cebpf4jnsgd1na2vs0mg"},{"bike_id":"815760a6-7b9e-4044-9b3b-9d5a7dceda21","system_id":"levelo_inurba_marseille","lat":43.3117,"lon":5.38711,"is_reserved":false,"is_disabled":false,"rental_uris":{"android":"levelo://app?vid=815760a6-7b9e-4044-9b3b-9d5a7dceda21","ios":"levelo://app?vid=815760a6-7b9e-4044-9b3b-9d5a7dceda21"},"vehicle_type_id":"4","last_reported":1745046524,"current_range_meters":6800,"station_id":"ce4bgv12rcd13ifvqcp0","pricing_plan_id":"cebpf4jnsgd1na2vs0mg"},{"bike_id":"c09d605c-d5d3-42f8-9be2-d2e1dcde23bd","system_id":"levelo_inurba_marseille","lat":43.2465,"lon":5.38911,"is_reserved":false,"is_disabled":false,"rental_uris":{"android":"levelo://app?vid=c09d605c-d5d3-42f8-9be2-d2e1dcde23bd","ios":"levelo://app?vid=c09d605c-d5d3-42f8-9be2-d2e1dcde23bd"},"vehicle_type_id":"4","last_reported":1745046524,"current_range_meters":6800,"station_id":"ce4bhg12rcd13ifvqf60","pricing_plan_id":"cebpf4jnsgd1na2vs0mg"},{"bike_id":"ccb424c1-c649-44dc-a41a-19431c6b74f5","system_id":"levelo_inurba_marseille","lat":43.31667,"lon":5.37822,"is_reserved":false,"is_disabled":false,"rental_uris":{"android":"levelo://app?vid=ccb424c1-c649-44dc-a41a-19431c6b74f5","ios":"levelo://app?vid=ccb424c1-c649-44dc-a41a-19431c6b74f5"},"vehicle_type_id":"4","last_reported":1745046524,"current_range_meters":6800,"station_id":"","pricing_plan_id":"cebpf4jnsgd1na2vs0mg"},{"bike_id":"d4d9b665-d4f4-49cf-9dcd-00e920a45b50","system_id":"levelo_inurba_marseille","lat":43.25835,"lon":5.39413,"is_reserved":false,"is_disabled":false,"rental_uris":{"android":"levelo://app?vid=d4d9b665-d4f4-49cf-9dcd-00e920a45b50","ios":"levelo://app?vid=d4d9b665-d4f4-49cf-9dcd-00e920a45b50"},"vehicle_type_id":"4","last_reported":1745046524,"current_range_meters":6800,"station_id":"ce4bhip2rcd13ifvqft0","pricing_plan_id":"cebpf4jnsgd1na2vs0mg"},{"bike_id":"271c8c79-7ca6-4367-80fb-8a0efc84181c","system_id":"levelo_inurba_marseille","lat":43.2319,"lon":5.355676,"is_reserved":false,"is_disabled":false,"rental_uris":{"android":"levelo://app?vid=271c8c79-7ca6-4367-80fb-8a0efc84181c","ios":"levelo://app?vid=271c8c79-7ca6-4367-80fb-8a0efc84181c"},"vehicle_type_id":"4","last_reported":1745046524,"current_range_meters":6800,"station_id":"ce4bhu92rcd13ifvqi70","pricing_plan_id":"cebpf4jnsgd1na2vs0mg"},{"bike_id":"ca8d9f01-ab92-4f7c-9280-7e06093856f1","system_id":"levelo_inurba_marseille","lat":43.24559,"lon":5.3954,"is_reserved":false,"is_disabled":false,"rental_uris":{"android":"levelo://app?vid=ca8d9f01-ab92-4f7c-9280-7e06093856f1","ios":"levelo://app?vid=ca8d9f01-ab92-4f7c-9280-7e06093856f1"},"vehicle_type_id":"4","last_reported":1745046524,"current_range_meters":6800,"station_id":"ce4bhlp2rcd13ifvqgjg","pricing_plan_id":"cebpf4jnsgd1na2vs0mg"},{"bike_id":"7364fd10-5c32-4ec1-97dc-9a40265b3325","system_id":"levelo_inurba_marseille","lat":43.28418,"lon":5.37522,"is_reserved":false,"is_disabled":false,"rental_uris":{"android":"levelo://app?vid=7364fd10-5c32-4ec1-97dc-9a40265b3325","ios":"levelo://app?vid=7364fd10-5c32-4ec1-97dc-9a40265b3325"},"vehicle_type_id":"4","last_reported":1745046524,"current_range_meters":7200,"station_id":"ce4bh412rcd13ifvqds0","pricing_plan_id":"cebpf4jnsgd1na2vs0mg"},{"bike_id":"d0693017-3219-4f2c-9252-be27486404d3","system_id":"levelo_inurba_marseille","lat":43.24679,"lon":5.3815,"is_reserved":false,"is_disabled":false,"rental_uris":{"android":"levelo://app?vid=d0693017-3219-4f2c-9252-be27486404d3","ios":"levelo://app?vid=d0693017-3219-4f2c-9252-be27486404d3"},"vehicle_type_id":"4","last_reported":1745046524,"current_range_meters":7200,"station_id":"ce4bhih2rcd13ifvqfr0","pricing_plan_id":"cebpf4jnsgd1na2vs0mg"},{"bike_id":"22209dda-afa5-4a31-9c25-a5d94a331926","system_id":"levelo_inurba_marseille","lat":43.240784,"lon":5.377411,"is_reserved":false,"is_disabled":true,"rental_uris":{"android":"levelo://app?vid=22209dda-afa5-4a31-9c25-a5d94a331926","ios":"levelo://app?vid=22209dda-afa5-4a31-9c25-a5d94a331926"},"vehicle_type_id":"4","last_reported":1745046524,"current_range_meters":7200,"station_id":"ce4bhnp2rcd13ifvqgvg","pricing_plan_id":"cebpf4jnsgd1na2vs0mg"},{"bike_id":"5109957a-0fbd-4149-9e2d-2799ea1379ee","system_id":"levelo_inurba_marseille","lat":43.30149,"lon":5.380945,"is_reserved":false,"is_disabled":true,"rental_uris":{"android":"levelo://app?vid=5109957a-0fbd-4149-9e2d-2799ea1379ee","ios":"levelo://app?vid=5109957a-0fbd-4149-9e2d-2799ea1379ee"},"vehicle_type_id":"4","last_reported":1745046524,"current_range_meters":7200,"station_id":"ce4bgjp2rcd13ifvqbh0","pricing_plan_id":"cebpf4jnsgd1na2vs0mg"},{"bike_id":"456a7bdf-cf39-47e9-859c-4fc3260c404a","system_id":"levelo_inurba_marseille","lat":43.28416,"lon":5.37519,"is_reserved":false,"is_disabled":false,"rental_uris":{"android":"levelo://app?vid=456a7bdf-cf39-47e9-859c-4fc3260c404a","ios":"levelo://app?vid=456a7bdf-cf39-47e9-859c-4fc3260c404a"},"vehicle_type_id":"4","last_reported":1745046524,"current_range_meters":7200,"station_id":"ce4bh412rcd13ifvqds0","pricing_plan_id":"cebpf4jnsgd1na2vs0mg"},{"bike_id":"3bc0b23e-ddd6-4067-94ce-dd8c73f7de91","system_id":"levelo_inurba_marseille","lat":43.30817,"lon":5.43528,"is_reserved":false,"is_disabled":false,"rental_uris":{"android":"levelo://app?vid=3bc0b23e-ddd6-4067-94ce-dd8c73f7de91","ios":"levelo://app?vid=3bc0b23e-ddd6-4067-94ce-dd8c73f7de91"},"vehicle_type_id":"4","last_reported":1745046524,"current_range_meters":7200,"station_id":"ce4bhph2rcd13ifvqheg","pricing_plan_id":"cebpf4jnsgd1na2vs0mg"},{"bike_id":"678d1aa7-dc7f-4ee1-a950-5a4f554ad695","system_id":"levelo_inurba_marseille","lat":43.297896,"lon":5.393564,"is_reserved":false,"is_disabled":true,"rental_uris":{"android":"levelo://app?vid=678d1aa7-dc7f-4ee1-a950-5a4f554ad695","ios":"levelo://app?vid=678d1aa7-dc7f-4ee1-a950-5a4f554ad695"},"vehicle_type_id":"4","last_reported":1745046524,"current_range_meters":7200,"station_id":"chh1huq6cuj3fo74tm60","pricing_plan_id":"cebpf4jnsgd1na2vs0mg"},{"bike_id":"fcbf26f2-8823-4568-9067-686c42521d2f","system_id":"levelo_inurba_marseille","lat":43.301492,"lon":5.380978,"is_reserved":false,"is_disabled":true,"rental_uris":{"android":"levelo://app?vid=fcbf26f2-8823-4568-9067-686c42521d2f","ios":"levelo://app?vid=fcbf26f2-8823-4568-9067-686c42521d2f"},"vehicle_type_id":"4","last_reported":1745046524,"current_range_meters":7200,"station_id":"","pricing_plan_id":"cebpf4jnsgd1na2vs0mg"},{"bike_id":"f2d09a49-02ca-41b9-870e-fdff640473d6","system_id":"levelo_inurba_marseille","lat":43.24179,"lon":5.36423,"is_reserved":false,"is_disabled":false,"rental_uris":{"android":"levelo://app?vid=f2d09a49-02ca-41b9-870e-fdff640473d6","ios":"levelo://app?vid=f2d09a49-02ca-41b9-870e-fdff640473d6"},"vehicle_type_id":"4","last_reported":1745046524,"current_range_meters":8000,"station_id":"cpo36qri1sfpv3e86is0","pricing_plan_id":"cebpf4jnsgd1na2vs0mg"},{"bike_id":"3793d003-f994-43cd-89fb-abf2c2913fb9","system_id":"levelo_inurba_marseille","lat":43.33612,"lon":5.41028,"is_reserved":false,"is_disabled":false,"rental_uris":{"android":"levelo://app?vid=3793d003-f994-43cd-89fb-abf2c2913fb9","ios":"levelo://app?vid=3793d003-f994-43cd-89fb-abf2c2913fb9"},"vehicle_type_id":"4","last_reported":1745046524,"current_range_meters":8000,"station_id":"ce4bhqh2rcd13ifvqhmg","pricing_plan_id":"cebpf4jnsgd1na2vs0mg"},{"bike_id":"1210dc72-37b8-49f7-b249-6faa54daba28","system_id":"levelo_inurba_marseille","lat":43.32362,"lon":5.36782,"is_reserved":false,"is_disabled":false,"rental_uris":{"android":"levelo://app?vid=1210dc72-37b8-49f7-b249-6faa54daba28","ios":"levelo://app?vid=1210dc72-37b8-49f7-b249-6faa54daba28"},"vehicle_type_id":"4","last_reported":1745046524,"current_range_meters":8000,"station_id":"ce4bhsh2rcd13ifvqi2g","pricing_plan_id":"cebpf4jnsgd1na2vs0mg"},{"bike_id":"91b0f96d-1a6e-4e28-98b9-2c86f2485aee","system_id":"levelo_inurba_marseille","lat":43.32416,"lon":5.39048,"is_reserved":false,"is_disabled":true,"rental_uris":{"android":"levelo://app?vid=91b0f96d-1a6e-4e28-98b9-2c86f2485aee","ios":"levelo://app?vid=91b0f96d-1a6e-4e28-98b9-2c86f2485aee"},"vehicle_type_id":"4","last_reported":1745046524,"current_range_meters":8000,"station_id":"","pricing_plan_id":"cebpf4jnsgd1na2vs0mg"},{"bike_id":"0f0c2c9d-c11a-480f-8137-c5315e4ded3a","system_id":"levelo_inurba_marseille","lat":43.23185,"lon":5.35547,"is_reserved":false,"is_disabled":false,"rental_uris":{"android":"levelo://app?vid=0f0c2c9d-c11a-480f-8137-c5315e4ded3a","ios":"levelo://app?vid=0f0c2c9d-c11a-480f-8137-c5315e4ded3a"},"vehicle_type_id":"4","last_reported":1745046524,"current_range_meters":8000,"station_id":"ce4bhu92rcd13ifvqi70","pricing_plan_id":"cebpf4jnsgd1na2vs0mg"},{"bike_id":"782da538-2223-4ccd-8232-244cda12462d","system_id":"levelo_inurba_marseille","lat":43.231933,"lon":5.399822,"is_reserved":false,"is_disabled":false,"rental_uris":{"android":"levelo://app?vid=782da538-2223-4ccd-8232-244cda12462d","ios":"levelo://app?vid=782da538-2223-4ccd-8232-244cda12462d"},"vehicle_type_id":"4","last_reported":1745046524,"current_range_meters":8000,"station_id":"ce4bhn12rcd13ifvqgqg","pricing_plan_id":"cebpf4jnsgd1na2vs0mg"},{"bike_id":"19e17d6e-8b73-4ba8-9fce-d1b809d59519","system_id":"levelo_inurba_marseille","lat":43.29045,"lon":5.39962,"is_reserved":false,"is_disabled":false,"rental_uris":{"android":"levelo://app?vid=19e17d6e-8b73-4ba8-9fce-d1b809d59519","ios":"levelo://app?vid=19e17d6e-8b73-4ba8-9fce-d1b809d59519"},"vehicle_type_id":"4","last_reported":1745046524,"current_range_meters":8000,"station_id":"ce4bh392rcd13ifvqdm0","pricing_plan_id":"cebpf4jnsgd1na2vs0mg"},{"bike_id":"38d71541-39fa-44bc-b9fa-dad7cbdc7434","system_id":"levelo_inurba_marseille","lat":43.28777,"lon":5.38657,"is_reserved":false,"is_disabled":false,"rental_uris":{"android":"levelo://app?vid=38d71541-39fa-44bc-b9fa-dad7cbdc7434","ios":"levelo://app?vid=38d71541-39fa-44bc-b9fa-dad7cbdc7434"},"vehicle_type_id":"4","last_reported":1745046524,"current_range_meters":8000,"station_id":"","pricing_plan_id":"cebpf4jnsgd1na2vs0mg"},{"bike_id":"7c83599a-5eac-4830-af25-9ddb7a5d3258","system_id":"levelo_inurba_marseille","lat":43.30935,"lon":5.40156,"is_reserved":false,"is_disabled":false,"rental_uris":{"android":"levelo://app?vid=7c83599a-5eac-4830-af25-9ddb7a5d3258","ios":"levelo://app?vid=7c83599a-5eac-4830-af25-9ddb7a5d3258"},"vehicle_type_id":"4","last_reported":1745046524,"current_range_meters":8400,"station_id":"ce4bgvp2rcd13ifvqct0","pricing_plan_id":"cebpf4jnsgd1na2vs0mg"},{"bike_id":"4bcaca61-be58-49cf-89c9-274b98e3c699","system_id":"levelo_inurba_marseille","lat":43.31998,"lon":5.38157,"is_reserved":false,"is_disabled":false,"rental_uris":{"android":"levelo://app?vid=4bcaca61-be58-49cf-89c9-274b98e3c699","ios":"levelo://app?vid=4bcaca61-be58-49cf-89c9-274b98e3c699"},"vehicle_type_id":"4","last_reported":1745046524,"current_range_meters":8400,"station_id":"ce4bhr12rcd13ifvqhpg","pricing_plan_id":"cebpf4jnsgd1na2vs0mg"},{"bike_id":"ee45d3b2-e8a1-4166-92e0-42002aca85ac","system_id":"levelo_inurba_marseille","lat":43.31328,"lon":5.39745,"is_reserved":false,"is_disabled":false,"rental_uris":{"android":"levelo://app?vid=ee45d3b2-e8a1-4166-92e0-42002aca85ac","ios":"levelo://app?vid=ee45d3b2-e8a1-4166-92e0-42002aca85ac"},"vehicle_type_id":"4","last_reported":1745046524,"current_range_meters":8400,"station_id":"ce4bgvp2rcd13ifvqcu0","pricing_plan_id":"cebpf4jnsgd1na2vs0mg"},{"bike_id":"ab0a8077-4242-4166-b0f9-a816f1854fd0","system_id":"levelo_inurba_marseille","lat":43.28643,"lon":5.36352,"is_reserved":false,"is_disabled":false,"rental_uris":{"android":"levelo://app?vid=ab0a8077-4242-4166-b0f9-a816f1854fd0","ios":"levelo://app?vid=ab0a8077-4242-4166-b0f9-a816f1854fd0"},"vehicle_type_id":"4","last_reported":1745046524,"current_range_meters":8400,"station_id":"ce4bhah2rcd13ifvqej0","pricing_plan_id":"cebpf4jnsgd1na2vs0mg"},{"bike_id":"7f174117-e5d9-4e09-9d71-4a11ef6882f7","system_id":"levelo_inurba_marseille","lat":43.24644,"lon":5.38172,"is_reserved":false,"is_disabled":true,"rental_uris":{"android":"levelo://app?vid=7f174117-e5d9-4e09-9d71-4a11ef6882f7","ios":"levelo://app?vid=7f174117-e5d9-4e09-9d71-4a11ef6882f7"},"vehicle_type_id":"4","last_reported":1745046524,"current_range_meters":8400,"station_id":"ce4bhih2rcd13ifvqfr0","pricing_plan_id":"cebpf4jnsgd1na2vs0mg"},{"bike_id":"9b4d5e07-bf1a-4418-b544-e78b0d83a1c0","system_id":"levelo_inurba_marseille","lat":43.262211,"lon":5.404724,"is_reserved":false,"is_disabled":false,"rental_uris":{"android":"levelo://app?vid=9b4d5e07-bf1a-4418-b544-e78b0d83a1c0","ios":"levelo://app?vid=9b4d5e07-bf1a-4418-b544-e78b0d83a1c0"},"vehicle_type_id":"4","last_reported":1745046524,"current_range_meters":8400,"station_id":"ce4bhmh2rcd13ifvqgmg","pricing_plan_id":"cebpf4jnsgd1na2vs0mg"},{"bike_id":"4affa1cf-896e-4b35-92a9-9624470d1083","system_id":"levelo_inurba_marseille","lat":43.29273,"lon":5.401325,"is_reserved":false,"is_disabled":true,"rental_uris":{"android":"levelo://app?vid=4affa1cf-896e-4b35-92a9-9624470d1083","ios":"levelo://app?vid=4affa1cf-896e-4b35-92a9-9624470d1083"},"vehicle_type_id":"4","last_reported":1745046524,"current_range_meters":8400,"station_id":"ce4bh312rcd13ifvqdk0","pricing_plan_id":"cebpf4jnsgd1na2vs0mg"},{"bike_id":"b5a2aefc-21ff-41aa-ab3c-42db990114a5","system_id":"levelo_inurba_marseille","lat":43.3148,"lon":5.373485,"is_reserved":false,"is_disabled":false,"rental_uris":{"android":"levelo://app?vid=b5a2aefc-21ff-41aa-ab3c-42db990114a5","ios":"levelo://app?vid=b5a2aefc-21ff-41aa-ab3c-42db990114a5"},"vehicle_type_id":"4","last_reported":1745046524,"current_range_meters":8800,"station_id":"ce4bgth2rcd13ifvqch0","pricing_plan_id":"cebpf4jnsgd1na2vs0mg"},{"bike_id":"35bd4225-1aac-46ed-be5d-06c9589642ef","system_id":"levelo_inurba_marseille","lat":43.30601,"lon":5.37222,"is_reserved":false,"is_disabled":false,"rental_uris":{"android":"levelo://app?vid=35bd4225-1aac-46ed-be5d-06c9589642ef","ios":"levelo://app?vid=35bd4225-1aac-46ed-be5d-06c9589642ef"},"vehicle_type_id":"4","last_reported":1745046524,"current_range_meters":8800,"station_id":"ce4bgqh2rcd13ifvqc4g","pricing_plan_id":"cebpf4jnsgd1na2vs0mg"},{"bike_id":"c42c97dc-851b-476d-ba23-67d0582febc0","system_id":"levelo_inurba_marseille","lat":43.30329,"lon":5.40448,"is_reserved":false,"is_disabled":true,"rental_uris":{"android":"levelo://app?vid=c42c97dc-851b-476d-ba23-67d0582febc0","ios":"levelo://app?vid=c42c97dc-851b-476d-ba23-67d0582febc0"},"vehicle_type_id":"4","last_reported":1745046524,"current_range_meters":8800,"station_id":"ce4bh012rcd13ifvqd10","pricing_plan_id":"cebpf4jnsgd1na2vs0mg"},{"bike_id":"db683e79-1939-434e-b081-b9990fd856fe","system_id":"levelo_inurba_marseille","lat":43.22955,"lon":5.35391,"is_reserved":false,"is_disabled":true,"rental_uris":{"android":"levelo://app?vid=db683e79-1939-434e-b081-b9990fd856fe","ios":"levelo://app?vid=db683e79-1939-434e-b081-b9990fd856fe"},"vehicle_type_id":"4","last_reported":1745046524,"current_range_meters":8800,"station_id":"cpo3532slgdg3j2ikp40","pricing_plan_id":"cebpf4jnsgd1na2vs0mg"},{"bike_id":"934a8fc0-98f8-4aaf-a145-d485dee937c7","system_id":"levelo_inurba_marseille","lat":43.323601,"lon":5.367598,"is_reserved":false,"is_disabled":false,"rental_uris":{"android":"levelo://app?vid=934a8fc0-98f8-4aaf-a145-d485dee937c7","ios":"levelo://app?vid=934a8fc0-98f8-4aaf-a145-d485dee937c7"},"vehicle_type_id":"4","last_reported":1745046524,"current_range_meters":8800,"station_id":"ce4bhsh2rcd13ifvqi2g","pricing_plan_id":"cebpf4jnsgd1na2vs0mg"},{"bike_id":"c2bf54a8-2415-4380-afdf-b9516f2cd164","system_id":"levelo_inurba_marseille","lat":43.29372,"lon":5.37835,"is_reserved":false,"is_disabled":false,"rental_uris":{"android":"levelo://app?vid=c2bf54a8-2415-4380-afdf-b9516f2cd164","ios":"levelo://app?vid=c2bf54a8-2415-4380-afdf-b9516f2cd164"},"vehicle_type_id":"4","last_reported":1745046524,"current_range_meters":8800,"station_id":"ce4bgjh2rcd13ifvqbf0","pricing_plan_id":"cebpf4jnsgd1na2vs0mg"},{"bike_id":"5ab4a80e-364b-48b0-a070-906bb9e16755","system_id":"levelo_inurba_marseille","lat":43.31987,"lon":5.38135,"is_reserved":false,"is_disabled":true,"rental_uris":{"android":"levelo://app?vid=5ab4a80e-364b-48b0-a070-906bb9e16755","ios":"levelo://app?vid=5ab4a80e-364b-48b0-a070-906bb9e16755"},"vehicle_type_id":"4","last_reported":1745046524,"current_range_meters":9200,"station_id":"","pricing_plan_id":"cebpf4jnsgd1na2vs0mg"},{"bike_id":"b8a785f7-fe23-4c1f-8a9b-62bbbd08b152","system_id":"levelo_inurba_marseille","lat":43.30934,"lon":5.40178,"is_reserved":false,"is_disabled":false,"rental_uris":{"android":"levelo://app?vid=b8a785f7-fe23-4c1f-8a9b-62bbbd08b152","ios":"levelo://app?vid=b8a785f7-fe23-4c1f-8a9b-62bbbd08b152"},"vehicle_type_id":"4","last_reported":1745046524,"current_range_meters":9200,"station_id":"ce4bgvp2rcd13ifvqct0","pricing_plan_id":"cebpf4jnsgd1na2vs0mg"},{"bike_id":"1e304385-a349-4c73-9093-19ef60147df7","system_id":"levelo_inurba_marseille","lat":43.28454,"lon":5.35886,"is_reserved":false,"is_disabled":false,"rental_uris":{"android":"levelo://app?vid=1e304385-a349-4c73-9093-19ef60147df7","ios":"levelo://app?vid=1e304385-a349-4c73-9093-19ef60147df7"},"vehicle_type_id":"4","last_reported":1745046524,"current_range_meters":9200,"station_id":"ce4bhah2rcd13ifvqei0","pricing_plan_id":"cebpf4jnsgd1na2vs0mg"},{"bike_id":"90e903d2-34b6-47e1-930e-acbe25fa18ab","system_id":"levelo_inurba_marseille","lat":43.30435,"lon":5.38905,"is_reserved":false,"is_disabled":true,"rental_uris":{"android":"levelo://app?vid=90e903d2-34b6-47e1-930e-acbe25fa18ab","ios":"levelo://app?vid=90e903d2-34b6-47e1-930e-acbe25fa18ab"},"vehicle_type_id":"4","last_reported":1745046524,"current_range_meters":9200,"station_id":"ce4bgk12rcd13ifvqbi0","pricing_plan_id":"cebpf4jnsgd1na2vs0mg"},{"bike_id":"3abcd8a1-bc4b-4780-96f7-c41259227a65","system_id":"levelo_inurba_marseille","lat":43.298784,"lon":5.384202,"is_reserved":false,"is_disabled":false,"rental_uris":{"android":"levelo://app?vid=3abcd8a1-bc4b-4780-96f7-c41259227a65","ios":"levelo://app?vid=3abcd8a1-bc4b-4780-96f7-c41259227a65"},"vehicle_type_id":"4","last_reported":1745046524,"current_range_meters":9200,"station_id":"","pricing_plan_id":"cebpf4jnsgd1na2vs0mg"},{"bike_id":"1d222e9f-44d5-4163-97f8-e473ee263069","system_id":"levelo_inurba_marseille","lat":43.29641,"lon":5.40615,"is_reserved":false,"is_disabled":false,"rental_uris":{"android":"levelo://app?vid=1d222e9f-44d5-4163-97f8-e473ee263069","ios":"levelo://app?vid=1d222e9f-44d5-4163-97f8-e473ee263069"},"vehicle_type_id":"4","last_reported":1745046524,"current_range_meters":9200,"station_id":"ce4bh0h2rcd13ifvqd60","pricing_plan_id":"cebpf4jnsgd1na2vs0mg"},{"bike_id":"e7e9f7db-0c6b-442c-baa3-a51804f6795d","system_id":"levelo_inurba_marseille","lat":43.262069,"lon":5.374393,"is_reserved":false,"is_disabled":false,"rental_uris":{"android":"levelo://app?vid=e7e9f7db-0c6b-442c-baa3-a51804f6795d","ios":"levelo://app?vid=e7e9f7db-0c6b-442c-baa3-a51804f6795d"},"vehicle_type_id":"4","last_reported":1745046524,"current_range_meters":9200,"station_id":"","pricing_plan_id":"cebpf4jnsgd1na2vs0mg"},{"bike_id":"bbfdf557-4301-4a67-b9bf-198f07f58d13","system_id":"levelo_inurba_marseille","lat":43.31081,"lon":5.38353,"is_reserved":false,"is_disabled":false,"rental_uris":{"android":"levelo://app?vid=bbfdf557-4301-4a67-b9bf-198f07f58d13","ios":"levelo://app?vid=bbfdf557-4301-4a67-b9bf-198f07f58d13"},"vehicle_type_id":"4","last_reported":1745046524,"current_range_meters":9200,"station_id":"ce4bgv92rcd13ifvqcr0","pricing_plan_id":"cebpf4jnsgd1na2vs0mg"},{"bike_id":"12b394c6-fd59-4eb1-9ee1-01ad07d9f662","system_id":"levelo_inurba_marseille","lat":43.30364,"lon":5.42496,"is_reserved":false,"is_disabled":false,"rental_uris":{"android":"levelo://app?vid=12b394c6-fd59-4eb1-9ee1-01ad07d9f662","ios":"levelo://app?vid=12b394c6-fd59-4eb1-9ee1-01ad07d9f662"},"vehicle_type_id":"4","last_reported":1745046524,"current_range_meters":9200,"station_id":"ce4bhoh2rcd13ifvqh6g","pricing_plan_id":"cebpf4jnsgd1na2vs0mg"},{"bike_id":"77f2f4df-a4bd-4cfb-9c18-d6247b3c58ee","system_id":"levelo_inurba_marseille","lat":43.231981,"lon":5.355509,"is_reserved":false,"is_disabled":true,"rental_uris":{"android":"levelo://app?vid=77f2f4df-a4bd-4cfb-9c18-d6247b3c58ee","ios":"levelo://app?vid=77f2f4df-a4bd-4cfb-9c18-d6247b3c58ee"},"vehicle_type_id":"4","last_reported":1745046524,"current_range_meters":9600,"station_id":"","pricing_plan_id":"cebpf4jnsgd1na2vs0mg"},{"bike_id":"e8065a5a-7d89-4217-ba06-b2c12aee1519","system_id":"levelo_inurba_marseille","lat":43.28489,"lon":5.38527,"is_reserved":false,"is_disabled":false,"rental_uris":{"android":"levelo://app?vid=e8065a5a-7d89-4217-ba06-b2c12aee1519","ios":"levelo://app?vid=e8065a5a-7d89-4217-ba06-b2c12aee1519"},"vehicle_type_id":"4","last_reported":1745046524,"current_range_meters":9600,"station_id":"ce4bh8p2rcd13ifvqeb0","pricing_plan_id":"cebpf4jnsgd1na2vs0mg"},{"bike_id":"ef871c8e-2013-4622-a683-0ab17a74d870","system_id":"levelo_inurba_marseille","lat":43.23203,"lon":5.35553,"is_reserved":false,"is_disabled":false,"rental_uris":{"android":"levelo://app?vid=ef871c8e-2013-4622-a683-0ab17a74d870","ios":"levelo://app?vid=ef871c8e-2013-4622-a683-0ab17a74d870"},"vehicle_type_id":"4","last_reported":1745046524,"current_range_meters":9600,"station_id":"ce4bhu92rcd13ifvqi70","pricing_plan_id":"cebpf4jnsgd1na2vs0mg"},{"bike_id":"e8ea4f71-f9bc-4069-9d4b-c148fc560222","system_id":"levelo_inurba_marseille","lat":43.304298,"lon":5.38887,"is_reserved":false,"is_disabled":false,"rental_uris":{"android":"levelo://app?vid=e8ea4f71-f9bc-4069-9d4b-c148fc560222","ios":"levelo://app?vid=e8ea4f71-f9bc-4069-9d4b-c148fc560222"},"vehicle_type_id":"4","last_reported":1745046524,"current_range_meters":9600,"station_id":"ce4bgk12rcd13ifvqbi0","pricing_plan_id":"cebpf4jnsgd1na2vs0mg"},{"bike_id":"aa3e78a4-6d31-41b6-8224-e85124b1f14d","system_id":"levelo_inurba_marseille","lat":43.31332,"lon":5.39704,"is_reserved":false,"is_disabled":false,"rental_uris":{"android":"levelo://app?vid=aa3e78a4-6d31-41b6-8224-e85124b1f14d","ios":"levelo://app?vid=aa3e78a4-6d31-41b6-8224-e85124b1f14d"},"vehicle_type_id":"4","last_reported":1745046524,"current_range_meters":9600,"station_id":"ce4bgvp2rcd13ifvqcu0","pricing_plan_id":"cebpf4jnsgd1na2vs0mg"},{"bike_id":"272a699a-1338-4817-b43f-f3a545f75518","system_id":"levelo_inurba_marseille","lat":43.24071,"lon":5.37775,"is_reserved":false,"is_disabled":false,"rental_uris":{"android":"levelo://app?vid=272a699a-1338-4817-b43f-f3a545f75518","ios":"levelo://app?vid=272a699a-1338-4817-b43f-f3a545f75518"},"vehicle_type_id":"4","last_reported":1745046524,"current_range_meters":9600,"station_id":"ce4bhnp2rcd13ifvqgvg","pricing_plan_id":"cebpf4jnsgd1na2vs0mg"},{"bike_id":"a0ddb0a5-f7f0-4281-aa27-9e82747cc573","system_id":"levelo_inurba_marseille","lat":43.33754,"lon":5.37491,"is_reserved":false,"is_disabled":false,"rental_uris":{"android":"levelo://app?vid=a0ddb0a5-f7f0-4281-aa27-9e82747cc573","ios":"levelo://app?vid=a0ddb0a5-f7f0-4281-aa27-9e82747cc573"},"vehicle_type_id":"4","last_reported":1745046524,"current_range_meters":9600,"station_id":"","pricing_plan_id":"cebpf4jnsgd1na2vs0mg"},{"bike_id":"da54d534-cdfc-4dbf-9f0d-6cfc2a37323d","system_id":"levelo_inurba_marseille","lat":43.233319,"lon":5.361571,"is_reserved":false,"is_disabled":false,"rental_uris":{"android":"levelo://app?vid=da54d534-cdfc-4dbf-9f0d-6cfc2a37323d","ios":"levelo://app?vid=da54d534-cdfc-4dbf-9f0d-6cfc2a37323d"},"vehicle_type_id":"4","last_reported":1745046524,"current_range_meters":9600,"station_id":"","pricing_plan_id":"cebpf4jnsgd1na2vs0mg"},{"bike_id":"e18ee3c3-1639-4152-b0fe-39f72e453b50","system_id":"levelo_inurba_marseille","lat":43.31373,"lon":5.39679,"is_reserved":false,"is_disabled":false,"rental_uris":{"android":"levelo://app?vid=e18ee3c3-1639-4152-b0fe-39f72e453b50","ios":"levelo://app?vid=e18ee3c3-1639-4152-b0fe-39f72e453b50"},"vehicle_type_id":"4","last_reported":1745046524,"current_range_meters":10000,"station_id":"ce4bgvp2rcd13ifvqcu0","pricing_plan_id":"cebpf4jnsgd1na2vs0mg"},{"bike_id":"33efbe4e-e642-4271-be29-4926b421ca5b","system_id":"levelo_inurba_marseille","lat":43.241644,"lon":5.36395,"is_reserved":false,"is_disabled":false,"rental_uris":{"android":"levelo://app?vid=33efbe4e-e642-4271-be29-4926b421ca5b","ios":"levelo://app?vid=33efbe4e-e642-4271-be29-4926b421ca5b"},"vehicle_type_id":"4","last_reported":1745046524,"current_range_meters":10000,"station_id":"cpo36qri1sfpv3e86is0","pricing_plan_id":"cebpf4jnsgd1na2vs0mg"},{"bike_id":"434bff1a-200c-40d9-aeec-aea1a5371c9c","system_id":"levelo_inurba_marseille","lat":43.30319,"lon":5.40447,"is_reserved":false,"is_disabled":false,"rental_uris":{"android":"levelo://app?vid=434bff1a-200c-40d9-aeec-aea1a5371c9c","ios":"levelo://app?vid=434bff1a-200c-40d9-aeec-aea1a5371c9c"},"vehicle_type_id":"4","last_reported":1745046524,"current_range_meters":10000,"station_id":"ce4bh012rcd13ifvqd10","pricing_plan_id":"cebpf4jnsgd1na2vs0mg"},{"bike_id":"84cf32ce-de0f-4700-89f3-151cf63311a2","system_id":"levelo_inurba_marseille","lat":43.30126,"lon":5.39835,"is_reserved":false,"is_disabled":false,"rental_uris":{"android":"levelo://app?vid=84cf32ce-de0f-4700-89f3-151cf63311a2","ios":"levelo://app?vid=84cf32ce-de0f-4700-89f3-151cf63311a2"},"vehicle_type_id":"4","last_reported":1745046524,"current_range_meters":10000,"station_id":"ce4bh0h2rcd13ifvqd40","pricing_plan_id":"cebpf4jnsgd1na2vs0mg"},{"bike_id":"6cd98a68-dfc0-4aef-a25d-03e1f7826476","system_id":"levelo_inurba_marseille","lat":43.23674,"lon":5.377765,"is_reserved":false,"is_disabled":false,"rental_uris":{"android":"levelo://app?vid=6cd98a68-dfc0-4aef-a25d-03e1f7826476","ios":"levelo://app?vid=6cd98a68-dfc0-4aef-a25d-03e1f7826476"},"vehicle_type_id":"4","last_reported":1745046524,"current_range_meters":10800,"station_id":"","pricing_plan_id":"cebpf4jnsgd1na2vs0mg"},{"bike_id":"6748dd24-ca17-4156-9bff-157e0bdf8b06","system_id":"levelo_inurba_marseille","lat":43.299053,"lon":5.37483,"is_reserved":false,"is_disabled":false,"rental_uris":{"android":"levelo://app?vid=6748dd24-ca17-4156-9bff-157e0bdf8b06","ios":"levelo://app?vid=6748dd24-ca17-4156-9bff-157e0bdf8b06"},"vehicle_type_id":"4","last_reported":1745046524,"current_range_meters":10800,"station_id":"ce4bgjh2rcd13ifvqbg0","pricing_plan_id":"cebpf4jnsgd1na2vs0mg"},{"bike_id":"68342d9f-f0b6-47e7-b690-b27078e67a77","system_id":"levelo_inurba_marseille","lat":43.241606,"lon":5.364021,"is_reserved":false,"is_disabled":false,"rental_uris":{"android":"levelo://app?vid=68342d9f-f0b6-47e7-b690-b27078e67a77","ios":"levelo://app?vid=68342d9f-f0b6-47e7-b690-b27078e67a77"},"vehicle_type_id":"4","last_reported":1745046524,"current_range_meters":10800,"station_id":"cpo36qri1sfpv3e86is0","pricing_plan_id":"cebpf4jnsgd1na2vs0mg"},{"bike_id":"e6dd6ae1-3bcb-4010-8c4f-946f95c5cd66","system_id":"levelo_inurba_marseille","lat":43.28852,"lon":5.3584,"is_reserved":false,"is_disabled":true,"rental_uris":{"android":"levelo://app?vid=e6dd6ae1-3bcb-4010-8c4f-946f95c5cd66","ios":"levelo://app?vid=e6dd6ae1-3bcb-4010-8c4f-946f95c5cd66"},"vehicle_type_id":"4","last_reported":1745046524,"current_range_meters":10800,"station_id":"ce4bhb12rcd13ifvqem0","pricing_plan_id":"cebpf4jnsgd1na2vs0mg"},{"bike_id":"67a2aa0e-44b2-482c-88ae-6154a9a4b689","system_id":"levelo_inurba_marseille","lat":43.28609,"lon":5.37061,"is_reserved":false,"is_disabled":false,"rental_uris":{"android":"levelo://app?vid=67a2aa0e-44b2-482c-88ae-6154a9a4b689","ios":"levelo://app?vid=67a2aa0e-44b2-482c-88ae-6154a9a4b689"},"vehicle_type_id":"4","last_reported":1745046524,"current_range_meters":10800,"station_id":"ce4bht12rcd13ifvqi60","pricing_plan_id":"cebpf4jnsgd1na2vs0mg"},{"bike_id":"7e22db83-b908-4f3a-830d-98dde06665e2","system_id":"levelo_inurba_marseille","lat":43.303223,"lon":5.404413,"is_reserved":false,"is_disabled":false,"rental_uris":{"android":"levelo://app?vid=7e22db83-b908-4f3a-830d-98dde06665e2","ios":"levelo://app?vid=7e22db83-b908-4f3a-830d-98dde06665e2"},"vehicle_type_id":"4","last_reported":1745046524,"current_range_meters":10000,"station_id":"ce4bhop2rcd13ifvqh7g","pricing_plan_id":"cebpf4jnsgd1na2vs0mg"},{"bike_id":"6f523da1-5f60-475c-93df-7a5b709bcac9","system_id":"levelo_inurba_marseille","lat":43.2321,"lon":5.35553,"is_reserved":false,"is_disabled":false,"rental_uris":{"android":"levelo://app?vid=6f523da1-5f60-475c-93df-7a5b709bcac9","ios":"levelo://app?vid=6f523da1-5f60-475c-93df-7a5b709bcac9"},"vehicle_type_id":"4","last_reported":1745046524,"current_range_meters":10800,"station_id":"ce4bhu92rcd13ifvqi70","pricing_plan_id":"cebpf4jnsgd1na2vs0mg"},{"bike_id":"5d4c9cc0-56a3-468c-9bfd-437b9498da8b","system_id":"levelo_inurba_marseille","lat":43.28353,"lon":5.38112,"is_reserved":false,"is_disabled":false,"rental_uris":{"android":"levelo://app?vid=5d4c9cc0-56a3-468c-9bfd-437b9498da8b","ios":"levelo://app?vid=5d4c9cc0-56a3-468c-9bfd-437b9498da8b"},"vehicle_type_id":"4","last_reported":1745046524,"current_range_meters":10800,"station_id":"ce4bh412rcd13ifvqdr0","pricing_plan_id":"cebpf4jnsgd1na2vs0mg"},{"bike_id":"e01403ae-8c8a-4317-828d-39241f5a962c","system_id":"levelo_inurba_marseille","lat":43.30424,"lon":5.38905,"is_reserved":false,"is_disabled":false,"rental_uris":{"android":"levelo://app?vid=e01403ae-8c8a-4317-828d-39241f5a962c","ios":"levelo://app?vid=e01403ae-8c8a-4317-828d-39241f5a962c"},"vehicle_type_id":"4","last_reported":1745046524,"current_range_meters":10800,"station_id":"ce4bgk12rcd13ifvqbi0","pricing_plan_id":"cebpf4jnsgd1na2vs0mg"},{"bike_id":"37d249f4-6386-4fb4-a5f1-e1ba14814164","system_id":"levelo_inurba_marseille","lat":43.25117,"lon":5.4032,"is_reserved":false,"is_disabled":true,"rental_uris":{"android":"levelo://app?vid=37d249f4-6386-4fb4-a5f1-e1ba14814164","ios":"levelo://app?vid=37d249f4-6386-4fb4-a5f1-e1ba14814164"},"vehicle_type_id":"4","last_reported":1745046524,"current_range_meters":10800,"station_id":"ce4bhlh2rcd13ifvqgig","pricing_plan_id":"cebpf4jnsgd1na2vs0mg"},{"bike_id":"1eaca8f5-0017-418a-9bfc-52185bf67513","system_id":"levelo_inurba_marseille","lat":43.3372,"lon":5.39175,"is_reserved":false,"is_disabled":false,"rental_uris":{"android":"levelo://app?vid=1eaca8f5-0017-418a-9bfc-52185bf67513","ios":"levelo://app?vid=1eaca8f5-0017-418a-9bfc-52185bf67513"},"vehicle_type_id":"4","last_reported":1745046524,"current_range_meters":11200,"station_id":"ce4bhr92rcd13ifvqhsg","pricing_plan_id":"cebpf4jnsgd1na2vs0mg"},{"bike_id":"709594ef-4d5a-43e4-8bb0-c482c9fa12f8","system_id":"levelo_inurba_marseille","lat":43.30873,"lon":5.396383,"is_reserved":false,"is_disabled":false,"rental_uris":{"android":"levelo://app?vid=709594ef-4d5a-43e4-8bb0-c482c9fa12f8","ios":"levelo://app?vid=709594ef-4d5a-43e4-8bb0-c482c9fa12f8"},"vehicle_type_id":"4","last_reported":1745046524,"current_range_meters":11200,"station_id":"ce4bh012rcd13ifvqcv0","pricing_plan_id":"cebpf4jnsgd1na2vs0mg"},{"bike_id":"bd252512-7aef-49a5-b319-c1c41d41e1eb","system_id":"levelo_inurba_marseille","lat":43.27496,"lon":5.42465,"is_reserved":false,"is_disabled":false,"rental_uris":{"android":"levelo://app?vid=bd252512-7aef-49a5-b319-c1c41d41e1eb","ios":"levelo://app?vid=bd252512-7aef-49a5-b319-c1c41d41e1eb"},"vehicle_type_id":"4","last_reported":1745046524,"current_range_meters":11200,"station_id":"ce4bhn92rcd13ifvqgrg","pricing_plan_id":"cebpf4jnsgd1na2vs0mg"},{"bike_id":"ed96664b-be68-4d8e-885b-88ee1ce7b22c","system_id":"levelo_inurba_marseille","lat":43.288355,"lon":5.358545,"is_reserved":false,"is_disabled":true,"rental_uris":{"android":"levelo://app?vid=ed96664b-be68-4d8e-885b-88ee1ce7b22c","ios":"levelo://app?vid=ed96664b-be68-4d8e-885b-88ee1ce7b22c"},"vehicle_type_id":"4","last_reported":1745046524,"current_range_meters":11200,"station_id":"ce4bhb12rcd13ifvqem0","pricing_plan_id":"cebpf4jnsgd1na2vs0mg"},{"bike_id":"de08492d-ffa5-4976-a30b-573408cffcfb","system_id":"levelo_inurba_marseille","lat":43.262069,"lon":5.374428,"is_reserved":false,"is_disabled":false,"rental_uris":{"android":"levelo://app?vid=de08492d-ffa5-4976-a30b-573408cffcfb","ios":"levelo://app?vid=de08492d-ffa5-4976-a30b-573408cffcfb"},"vehicle_type_id":"4","last_reported":1745046524,"current_range_meters":11200,"station_id":"ce4bhgp2rcd13ifvqfc0","pricing_plan_id":"cebpf4jnsgd1na2vs0mg"},{"bike_id":"7eb8853e-3665-40f5-8308-1299f0674652","system_id":"levelo_inurba_marseille","lat":43.30372,"lon":5.4249,"is_reserved":false,"is_disabled":false,"rental_uris":{"android":"levelo://app?vid=7eb8853e-3665-40f5-8308-1299f0674652","ios":"levelo://app?vid=7eb8853e-3665-40f5-8308-1299f0674652"},"vehicle_type_id":"4","last_reported":1745046524,"current_range_meters":11200,"station_id":"ce4bhoh2rcd13ifvqh6g","pricing_plan_id":"cebpf4jnsgd1na2vs0mg"},{"bike_id":"110c4abb-ffb8-4fd0-ba35-0e68e73379e5","system_id":"levelo_inurba_marseille","lat":43.22931,"lon":5.35381,"is_reserved":false,"is_disabled":true,"rental_uris":{"android":"levelo://app?vid=110c4abb-ffb8-4fd0-ba35-0e68e73379e5","ios":"levelo://app?vid=110c4abb-ffb8-4fd0-ba35-0e68e73379e5"},"vehicle_type_id":"4","last_reported":1745046524,"current_range_meters":11200,"station_id":"cpo3532slgdg3j2ikp40","pricing_plan_id":"cebpf4jnsgd1na2vs0mg"},{"bike_id":"052501f8-b282-4839-9c32-b0a156012fac","system_id":"levelo_inurba_marseille","lat":43.31081,"lon":5.42428,"is_reserved":false,"is_disabled":false,"rental_uris":{"android":"levelo://app?vid=052501f8-b282-4839-9c32-b0a156012fac","ios":"levelo://app?vid=052501f8-b282-4839-9c32-b0a156012fac"},"vehicle_type_id":"4","last_reported":1745046524,"current_range_meters":11600,"station_id":"ce4bhp92rcd13ifvqhag","pricing_plan_id":"cebpf4jnsgd1na2vs0mg"},{"bike_id":"186380b9-3dab-457b-b648-71d123fa0368","system_id":"levelo_inurba_marseille","lat":43.25118,"lon":5.40323,"is_reserved":false,"is_disabled":true,"rental_uris":{"android":"levelo://app?vid=186380b9-3dab-457b-b648-71d123fa0368","ios":"levelo://app?vid=186380b9-3dab-457b-b648-71d123fa0368"},"vehicle_type_id":"4","last_reported":1745046524,"current_range_meters":11600,"station_id":"ce4bhlh2rcd13ifvqgig","pricing_plan_id":"cebpf4jnsgd1na2vs0mg"},{"bike_id":"ab083597-4025-42a7-9355-4053d7f1cf8d","system_id":"levelo_inurba_marseille","lat":43.28836,"lon":5.35847,"is_reserved":false,"is_disabled":false,"rental_uris":{"android":"levelo://app?vid=ab083597-4025-42a7-9355-4053d7f1cf8d","ios":"levelo://app?vid=ab083597-4025-42a7-9355-4053d7f1cf8d"},"vehicle_type_id":"4","last_reported":1745046524,"current_range_meters":12000,"station_id":"ce4bhb12rcd13ifvqem0","pricing_plan_id":"cebpf4jnsgd1na2vs0mg"},{"bike_id":"81d07084-66a1-44dc-ae08-3b708e7b5eb3","system_id":"levelo_inurba_marseille","lat":43.2502,"lon":5.38915,"is_reserved":false,"is_disabled":false,"rental_uris":{"android":"levelo://app?vid=81d07084-66a1-44dc-ae08-3b708e7b5eb3","ios":"levelo://app?vid=81d07084-66a1-44dc-ae08-3b708e7b5eb3"},"vehicle_type_id":"4","last_reported":1745046524,"current_range_meters":12000,"station_id":"ce4bhgp2rcd13ifvqfd0","pricing_plan_id":"cebpf4jnsgd1na2vs0mg"},{"bike_id":"dbf610d2-693f-4f8e-91fc-a7ae80981b0f","system_id":"levelo_inurba_marseille","lat":43.28658,"lon":5.36341,"is_reserved":false,"is_disabled":false,"rental_uris":{"android":"levelo://app?vid=dbf610d2-693f-4f8e-91fc-a7ae80981b0f","ios":"levelo://app?vid=dbf610d2-693f-4f8e-91fc-a7ae80981b0f"},"vehicle_type_id":"4","last_reported":1745046524,"current_range_meters":12000,"station_id":"ce4bhah2rcd13ifvqej0","pricing_plan_id":"cebpf4jnsgd1na2vs0mg"},{"bike_id":"abe69b17-5349-45ba-b83e-1bc9dc9c6c45","system_id":"levelo_inurba_marseille","lat":43.2962,"lon":5.37158,"is_reserved":false,"is_disabled":false,"rental_uris":{"android":"levelo://app?vid=abe69b17-5349-45ba-b83e-1bc9dc9c6c45","ios":"levelo://app?vid=abe69b17-5349-45ba-b83e-1bc9dc9c6c45"},"vehicle_type_id":"4","last_reported":1745046524,"current_range_meters":12400,"station_id":"ce4bgnh2rcd13ifvqc0g","pricing_plan_id":"cebpf4jnsgd1na2vs0mg"},{"bike_id":"48c38bae-454f-405f-948e-f78fb891e7d5","system_id":"levelo_inurba_marseille","lat":43.28712,"lon":5.39977,"is_reserved":false,"is_disabled":false,"rental_uris":{"android":"levelo://app?vid=48c38bae-454f-405f-948e-f78fb891e7d5","ios":"levelo://app?vid=48c38bae-454f-405f-948e-f78fb891e7d5"},"vehicle_type_id":"4","last_reported":1745046524,"current_range_meters":12400,"station_id":"ce4bho92rcd13ifvqh3g","pricing_plan_id":"cebpf4jnsgd1na2vs0mg"},{"bike_id":"165c9427-8a52-4d6c-a8c7-65e604da6a4f","system_id":"levelo_inurba_marseille","lat":43.24817,"lon":5.37444,"is_reserved":false,"is_disabled":true,"rental_uris":{"android":"levelo://app?vid=165c9427-8a52-4d6c-a8c7-65e604da6a4f","ios":"levelo://app?vid=165c9427-8a52-4d6c-a8c7-65e604da6a4f"},"vehicle_type_id":"4","last_reported":1745046524,"current_range_meters":12400,"station_id":"ce4bhgh2rcd13ifvqfb0","pricing_plan_id":"cebpf4jnsgd1na2vs0mg"},{"bike_id":"b6821e5f-2b42-4cde-8784-0fb0fe3fb2be","system_id":"levelo_inurba_marseille","lat":43.24703,"lon":5.38139,"is_reserved":false,"is_disabled":false,"rental_uris":{"android":"levelo://app?vid=b6821e5f-2b42-4cde-8784-0fb0fe3fb2be","ios":"levelo://app?vid=b6821e5f-2b42-4cde-8784-0fb0fe3fb2be"},"vehicle_type_id":"4","last_reported":1745046524,"current_range_meters":12400,"station_id":"ce4bhih2rcd13ifvqfr0","pricing_plan_id":"cebpf4jnsgd1na2vs0mg"},{"bike_id":"baebd87a-d533-41df-8d1c-1a8e62d3b4e8","system_id":"levelo_inurba_marseille","lat":43.29824,"lon":5.36527,"is_reserved":false,"is_disabled":false,"rental_uris":{"android":"levelo://app?vid=baebd87a-d533-41df-8d1c-1a8e62d3b4e8","ios":"levelo://app?vid=baebd87a-d533-41df-8d1c-1a8e62d3b4e8"},"vehicle_type_id":"4","last_reported":1745046524,"current_range_meters":12400,"station_id":"","pricing_plan_id":"cebpf4jnsgd1na2vs0mg"},{"bike_id":"97e50bb0-9a70-481b-b370-e509345e710a","system_id":"levelo_inurba_marseille","lat":43.28027,"lon":5.36939,"is_reserved":false,"is_disabled":true,"rental_uris":{"android":"levelo://app?vid=97e50bb0-9a70-481b-b370-e509345e710a","ios":"levelo://app?vid=97e50bb0-9a70-481b-b370-e509345e710a"},"vehicle_type_id":"4","last_reported":1745046524,"current_range_meters":12800,"station_id":"ce4bha12rcd13ifvqef0","pricing_plan_id":"cebpf4jnsgd1na2vs0mg"},{"bike_id":"789c3822-56ca-4769-bcd4-8845bdea2fda","system_id":"levelo_inurba_marseille","lat":43.24161,"lon":5.36405,"is_reserved":false,"is_disabled":false,"rental_uris":{"android":"levelo://app?vid=789c3822-56ca-4769-bcd4-8845bdea2fda","ios":"levelo://app?vid=789c3822-56ca-4769-bcd4-8845bdea2fda"},"vehicle_type_id":"4","last_reported":1745046524,"current_range_meters":12800,"station_id":"cpo36qri1sfpv3e86is0","pricing_plan_id":"cebpf4jnsgd1na2vs0mg"},{"bike_id":"0c2750a9-0ab1-4fa2-bd82-cb372ac22cf3","system_id":"levelo_inurba_marseille","lat":43.30771,"lon":5.37648,"is_reserved":false,"is_disabled":false,"rental_uris":{"android":"levelo://app?vid=0c2750a9-0ab1-4fa2-bd82-cb372ac22cf3","ios":"levelo://app?vid=0c2750a9-0ab1-4fa2-bd82-cb372ac22cf3"},"vehicle_type_id":"4","last_reported":1745046524,"current_range_meters":12800,"station_id":"ce4bgv92rcd13ifvqcq0","pricing_plan_id":"cebpf4jnsgd1na2vs0mg"},{"bike_id":"c99eee79-ef05-4f36-b87c-c8a0c5e304bb","system_id":"levelo_inurba_marseille","lat":43.28362,"lon":5.38108,"is_reserved":false,"is_disabled":true,"rental_uris":{"android":"levelo://app?vid=c99eee79-ef05-4f36-b87c-c8a0c5e304bb","ios":"levelo://app?vid=c99eee79-ef05-4f36-b87c-c8a0c5e304bb"},"vehicle_type_id":"4","last_reported":1745046524,"current_range_meters":12800,"station_id":"ce4bh412rcd13ifvqdr0","pricing_plan_id":"cebpf4jnsgd1na2vs0mg"},{"bike_id":"3ba57987-65f9-44e7-aced-55971ee8b9a5","system_id":"levelo_inurba_marseille","lat":43.29309,"lon":5.37178,"is_reserved":false,"is_disabled":false,"rental_uris":{"android":"levelo://app?vid=3ba57987-65f9-44e7-aced-55971ee8b9a5","ios":"levelo://app?vid=3ba57987-65f9-44e7-aced-55971ee8b9a5"},"vehicle_type_id":"4","last_reported":1745046524,"current_range_meters":12800,"station_id":"ce4bgh92rcd13ifvqb40","pricing_plan_id":"cebpf4jnsgd1na2vs0mg"},{"bike_id":"f7219bfb-3d05-4a16-933d-f63b1fb8fdb4","system_id":"levelo_inurba_marseille","lat":43.27058,"lon":5.40255,"is_reserved":false,"is_disabled":false,"rental_uris":{"android":"levelo://app?vid=f7219bfb-3d05-4a16-933d-f63b1fb8fdb4","ios":"levelo://app?vid=f7219bfb-3d05-4a16-933d-f63b1fb8fdb4"},"vehicle_type_id":"4","last_reported":1745046524,"current_range_meters":12800,"station_id":"ce4bhk92rcd13ifvqgc0","pricing_plan_id":"cebpf4jnsgd1na2vs0mg"},{"bike_id":"7f44b622-fe66-4447-98b6-d7912a7c91a6","system_id":"levelo_inurba_marseille","lat":43.252338,"lon":5.394617,"is_reserved":false,"is_disabled":false,"rental_uris":{"android":"levelo://app?vid=7f44b622-fe66-4447-98b6-d7912a7c91a6","ios":"levelo://app?vid=7f44b622-fe66-4447-98b6-d7912a7c91a6"},"vehicle_type_id":"4","last_reported":1745046524,"current_range_meters":12800,"station_id":"ce4bhm12rcd13ifvqgkg","pricing_plan_id":"cebpf4jnsgd1na2vs0mg"},{"bike_id":"7465727d-29ee-461e-b202-0c9d97082ce5","system_id":"levelo_inurba_marseille","lat":43.30948,"lon":5.39041,"is_reserved":false,"is_disabled":false,"rental_uris":{"android":"levelo://app?vid=7465727d-29ee-461e-b202-0c9d97082ce5","ios":"levelo://app?vid=7465727d-29ee-461e-b202-0c9d97082ce5"},"vehicle_type_id":"4","last_reported":1745046524,"current_range_meters":12800,"station_id":"ce4bgup2rcd13ifvqco0","pricing_plan_id":"cebpf4jnsgd1na2vs0mg"},{"bike_id":"57823249-708d-4f60-a74c-9d62a7e8f760","system_id":"levelo_inurba_marseille","lat":43.33769,"lon":5.37423,"is_reserved":false,"is_disabled":false,"rental_uris":{"android":"levelo://app?vid=57823249-708d-4f60-a74c-9d62a7e8f760","ios":"levelo://app?vid=57823249-708d-4f60-a74c-9d62a7e8f760"},"vehicle_type_id":"4","last_reported":1745046524,"current_range_meters":12800,"station_id":"","pricing_plan_id":"cebpf4jnsgd1na2vs0mg"},{"bike_id":"cb45350e-0e1f-42b0-85cb-ffd652a74a75","system_id":"levelo_inurba_marseille","lat":43.23201,"lon":5.35565,"is_reserved":false,"is_disabled":false,"rental_uris":{"android":"levelo://app?vid=cb45350e-0e1f-42b0-85cb-ffd652a74a75","ios":"levelo://app?vid=cb45350e-0e1f-42b0-85cb-ffd652a74a75"},"vehicle_type_id":"4","last_reported":1745046524,"current_range_meters":13600,"station_id":"ce4bhu92rcd13ifvqi70","pricing_plan_id":"cebpf4jnsgd1na2vs0mg"},{"bike_id":"ce3fee90-b321-4105-971f-27349ec005fb","system_id":"levelo_inurba_marseille","lat":43.2294,"lon":5.35372,"is_reserved":false,"is_disabled":false,"rental_uris":{"android":"levelo://app?vid=ce3fee90-b321-4105-971f-27349ec005fb","ios":"levelo://app?vid=ce3fee90-b321-4105-971f-27349ec005fb"},"vehicle_type_id":"4","last_reported":1745046524,"current_range_meters":13600,"station_id":"cpo3532slgdg3j2ikp40","pricing_plan_id":"cebpf4jnsgd1na2vs0mg"},{"bike_id":"b6c3499a-415c-4534-9db3-37550ecba7e2","system_id":"levelo_inurba_marseille","lat":43.24155,"lon":5.36419,"is_reserved":false,"is_disabled":false,"rental_uris":{"android":"levelo://app?vid=b6c3499a-415c-4534-9db3-37550ecba7e2","ios":"levelo://app?vid=b6c3499a-415c-4534-9db3-37550ecba7e2"},"vehicle_type_id":"4","last_reported":1745046524,"current_range_meters":13600,"station_id":"cpo36qri1sfpv3e86is0","pricing_plan_id":"cebpf4jnsgd1na2vs0mg"},{"bike_id":"372c5d58-0de3-4fac-bc02-7152f85cfe93","system_id":"levelo_inurba_marseille","lat":43.2467,"lon":5.3815,"is_reserved":false,"is_disabled":false,"rental_uris":{"android":"levelo://app?vid=372c5d58-0de3-4fac-bc02-7152f85cfe93","ios":"levelo://app?vid=372c5d58-0de3-4fac-bc02-7152f85cfe93"},"vehicle_type_id":"4","last_reported":1745046524,"current_range_meters":13600,"station_id":"ce4bhih2rcd13ifvqfr0","pricing_plan_id":"cebpf4jnsgd1na2vs0mg"},{"bike_id":"124cc1fa-422c-42e6-a66e-f9628f99f3a2","system_id":"levelo_inurba_marseille","lat":43.26548,"lon":5.37299,"is_reserved":false,"is_disabled":true,"rental_uris":{"android":"levelo://app?vid=124cc1fa-422c-42e6-a66e-f9628f99f3a2","ios":"levelo://app?vid=124cc1fa-422c-42e6-a66e-f9628f99f3a2"},"vehicle_type_id":"4","last_reported":1745046524,"current_range_meters":13600,"station_id":"ce4bhg12rcd13ifvqf70","pricing_plan_id":"cebpf4jnsgd1na2vs0mg"},{"bike_id":"327196b9-7b72-44be-becb-f429158bbe9c","system_id":"levelo_inurba_marseille","lat":43.30875,"lon":5.39667,"is_reserved":false,"is_disabled":false,"rental_uris":{"android":"levelo://app?vid=327196b9-7b72-44be-becb-f429158bbe9c","ios":"levelo://app?vid=327196b9-7b72-44be-becb-f429158bbe9c"},"vehicle_type_id":"4","last_reported":1745046524,"current_range_meters":14000,"station_id":"ce4bh012rcd13ifvqcv0","pricing_plan_id":"cebpf4jnsgd1na2vs0mg"},{"bike_id":"5f79ace5-a3eb-4e4a-a3e5-7ba6ac09fa4f","system_id":"levelo_inurba_marseille","lat":43.2481,"lon":5.37459,"is_reserved":false,"is_disabled":false,"rental_uris":{"android":"levelo://app?vid=5f79ace5-a3eb-4e4a-a3e5-7ba6ac09fa4f","ios":"levelo://app?vid=5f79ace5-a3eb-4e4a-a3e5-7ba6ac09fa4f"},"vehicle_type_id":"4","last_reported":1745046524,"current_range_meters":14000,"station_id":"ce4bhgh2rcd13ifvqfb0","pricing_plan_id":"cebpf4jnsgd1na2vs0mg"},{"bike_id":"343406d9-08d9-46fe-b35a-6f875b542c07","system_id":"levelo_inurba_marseille","lat":43.23044,"lon":5.35496,"is_reserved":false,"is_disabled":true,"rental_uris":{"android":"levelo://app?vid=343406d9-08d9-46fe-b35a-6f875b542c07","ios":"levelo://app?vid=343406d9-08d9-46fe-b35a-6f875b542c07"},"vehicle_type_id":"4","last_reported":1745046524,"current_range_meters":14400,"station_id":"cpo3342slgdg3j2ifvpg","pricing_plan_id":"cebpf4jnsgd1na2vs0mg"},{"bike_id":"e46233d8-86b5-4b6c-a79f-094405695e54","system_id":"levelo_inurba_marseille","lat":43.24801,"lon":5.37452,"is_reserved":false,"is_disabled":false,"rental_uris":{"android":"levelo://app?vid=e46233d8-86b5-4b6c-a79f-094405695e54","ios":"levelo://app?vid=e46233d8-86b5-4b6c-a79f-094405695e54"},"vehicle_type_id":"4","last_reported":1745046524,"current_range_meters":14400,"station_id":"ce4bhgh2rcd13ifvqfb0","pricing_plan_id":"cebpf4jnsgd1na2vs0mg"},{"bike_id":"5c87a66e-a468-4c06-bf6a-016059f2b476","system_id":"levelo_inurba_marseille","lat":43.22956,"lon":5.35369,"is_reserved":false,"is_disabled":false,"rental_uris":{"android":"levelo://app?vid=5c87a66e-a468-4c06-bf6a-016059f2b476","ios":"levelo://app?vid=5c87a66e-a468-4c06-bf6a-016059f2b476"},"vehicle_type_id":"4","last_reported":1745046524,"current_range_meters":14400,"station_id":"cpo3532slgdg3j2ikp40","pricing_plan_id":"cebpf4jnsgd1na2vs0mg"},{"bike_id":"340a85ee-e915-4d51-b86a-86da7e8129e7","system_id":"levelo_inurba_marseille","lat":43.2418,"lon":5.39731,"is_reserved":false,"is_disabled":false,"rental_uris":{"android":"levelo://app?vid=340a85ee-e915-4d51-b86a-86da7e8129e7","ios":"levelo://app?vid=340a85ee-e915-4d51-b86a-86da7e8129e7"},"vehicle_type_id":"4","last_reported":1745046524,"current_range_meters":14400,"station_id":"ce4bhn12rcd13ifvqgpg","pricing_plan_id":"cebpf4jnsgd1na2vs0mg"},{"bike_id":"86578676-4ea1-4948-8a01-f1830610bb68","system_id":"levelo_inurba_marseille","lat":43.24056,"lon":5.3782,"is_reserved":false,"is_disabled":false,"rental_uris":{"android":"levelo://app?vid=86578676-4ea1-4948-8a01-f1830610bb68","ios":"levelo://app?vid=86578676-4ea1-4948-8a01-f1830610bb68"},"vehicle_type_id":"4","last_reported":1745046524,"current_range_meters":14400,"station_id":"ce4bhnp2rcd13ifvqgvg","pricing_plan_id":"cebpf4jnsgd1na2vs0mg"},{"bike_id":"f58e9ea8-538c-4628-919b-442ba24886f7","system_id":"levelo_inurba_marseille","lat":43.24091,"lon":5.37753,"is_reserved":false,"is_disabled":false,"rental_uris":{"android":"levelo://app?vid=f58e9ea8-538c-4628-919b-442ba24886f7","ios":"levelo://app?vid=f58e9ea8-538c-4628-919b-442ba24886f7"},"vehicle_type_id":"4","last_reported":1745046524,"current_range_meters":14800,"station_id":"ce4bhnp2rcd13ifvqgvg","pricing_plan_id":"cebpf4jnsgd1na2vs0mg"},{"bike_id":"b2f08c4c-65a0-4096-a667-21c7b39e913d","system_id":"levelo_inurba_marseille","lat":43.3066,"lon":5.40077,"is_reserved":false,"is_disabled":false,"rental_uris":{"android":"levelo://app?vid=b2f08c4c-65a0-4096-a667-21c7b39e913d","ios":"levelo://app?vid=b2f08c4c-65a0-4096-a667-21c7b39e913d"},"vehicle_type_id":"4","last_reported":1745046524,"current_range_meters":15200,"station_id":"ce4bh112rcd13ifvqda0","pricing_plan_id":"cebpf4jnsgd1na2vs0mg"},{"bike_id":"d4c6d0c3-0202-41a5-a694-44290daeb0e7","system_id":"levelo_inurba_marseille","lat":43.29526,"lon":5.37508,"is_reserved":false,"is_disabled":false,"rental_uris":{"android":"levelo://app?vid=d4c6d0c3-0202-41a5-a694-44290daeb0e7","ios":"levelo://app?vid=d4c6d0c3-0202-41a5-a694-44290daeb0e7"},"vehicle_type_id":"4","last_reported":1745046524,"current_range_meters":14800,"station_id":"ce4bgkp2rcd13ifvqbmg","pricing_plan_id":"cebpf4jnsgd1na2vs0mg"},{"bike_id":"a860d99e-1058-48b6-8863-1e15350a5cc0","system_id":"levelo_inurba_marseille","lat":43.30738,"lon":5.42433,"is_reserved":false,"is_disabled":false,"rental_uris":{"android":"levelo://app?vid=a860d99e-1058-48b6-8863-1e15350a5cc0","ios":"levelo://app?vid=a860d99e-1058-48b6-8863-1e15350a5cc0"},"vehicle_type_id":"4","last_reported":1745046524,"current_range_meters":15200,"station_id":"st_cvj6ca6bvosntc0bfgr0","pricing_plan_id":"cebpf4jnsgd1na2vs0mg"},{"bike_id":"24213b37-b766-4d9c-a174-f6bf34920497","system_id":"levelo_inurba_marseille","lat":43.28469,"lon":5.384178,"is_reserved":false,"is_disabled":false,"rental_uris":{"android":"levelo://app?vid=24213b37-b766-4d9c-a174-f6bf34920497","ios":"levelo://app?vid=24213b37-b766-4d9c-a174-f6bf34920497"},"vehicle_type_id":"4","last_reported":1745046524,"current_range_meters":15200,"station_id":"ce4bh512rcd13ifvqe3g","pricing_plan_id":"cebpf4jnsgd1na2vs0mg"},{"bike_id":"1c4957af-863d-481b-a0a1-ea06d389e63f","system_id":"levelo_inurba_marseille","lat":43.27819,"lon":5.40733,"is_reserved":false,"is_disabled":false,"rental_uris":{"android":"levelo://app?vid=1c4957af-863d-481b-a0a1-ea06d389e63f","ios":"levelo://app?vid=1c4957af-863d-481b-a0a1-ea06d389e63f"},"vehicle_type_id":"4","last_reported":1745046524,"current_range_meters":15200,"station_id":"ce4bhnh2rcd13ifvqgtg","pricing_plan_id":"cebpf4jnsgd1na2vs0mg"},{"bike_id":"47ac6340-419b-4a6b-952b-6ac47dd90b8b","system_id":"levelo_inurba_marseille","lat":43.2987,"lon":5.39728,"is_reserved":false,"is_disabled":false,"rental_uris":{"android":"levelo://app?vid=47ac6340-419b-4a6b-952b-6ac47dd90b8b","ios":"levelo://app?vid=47ac6340-419b-4a6b-952b-6ac47dd90b8b"},"vehicle_type_id":"4","last_reported":1745046524,"current_range_meters":15200,"station_id":"ce4bh0h2rcd13ifvqd50","pricing_plan_id":"cebpf4jnsgd1na2vs0mg"},{"bike_id":"e9d81045-e1ac-44d6-bc13-fa0862c81052","system_id":"levelo_inurba_marseille","lat":43.295719,"lon":5.375061,"is_reserved":false,"is_disabled":true,"rental_uris":{"android":"levelo://app?vid=e9d81045-e1ac-44d6-bc13-fa0862c81052","ios":"levelo://app?vid=e9d81045-e1ac-44d6-bc13-fa0862c81052"},"vehicle_type_id":"4","last_reported":1745046524,"current_range_meters":15200,"station_id":"","pricing_plan_id":"cebpf4jnsgd1na2vs0mg"},{"bike_id":"4e6892ef-dbe3-43e4-bc69-b2da5d802c90","system_id":"levelo_inurba_marseille","lat":43.27377,"lon":5.36256,"is_reserved":false,"is_disabled":true,"rental_uris":{"android":"levelo://app?vid=4e6892ef-dbe3-43e4-bc69-b2da5d802c90","ios":"levelo://app?vid=4e6892ef-dbe3-43e4-bc69-b2da5d802c90"},"vehicle_type_id":"4","last_reported":1745046524,"current_range_meters":16000,"station_id":"ce4bhbh2rcd13ifvqeo0","pricing_plan_id":"cebpf4jnsgd1na2vs0mg"},{"bike_id":"9f45b2bf-53d1-4e39-9a64-fb391bdbd395","system_id":"levelo_inurba_marseille","lat":43.3372,"lon":5.39184,"is_reserved":false,"is_disabled":false,"rental_uris":{"android":"levelo://app?vid=9f45b2bf-53d1-4e39-9a64-fb391bdbd395","ios":"levelo://app?vid=9f45b2bf-53d1-4e39-9a64-fb391bdbd395"},"vehicle_type_id":"4","last_reported":1745046524,"current_range_meters":16000,"station_id":"ce4bhr92rcd13ifvqhsg","pricing_plan_id":"cebpf4jnsgd1na2vs0mg"},{"bike_id":"b7974e0c-2fc7-4c70-b248-039a4c339752","system_id":"levelo_inurba_marseille","lat":43.24185,"lon":5.39729,"is_reserved":false,"is_disabled":false,"rental_uris":{"android":"levelo://app?vid=b7974e0c-2fc7-4c70-b248-039a4c339752","ios":"levelo://app?vid=b7974e0c-2fc7-4c70-b248-039a4c339752"},"vehicle_type_id":"4","last_reported":1745046524,"current_range_meters":16000,"station_id":"ce4bhn12rcd13ifvqgpg","pricing_plan_id":"cebpf4jnsgd1na2vs0mg"},{"bike_id":"c04c6069-9b86-4c3e-a37c-da5c30a5550f","system_id":"levelo_inurba_marseille","lat":43.295756,"lon":5.399651,"is_reserved":false,"is_disabled":false,"rental_uris":{"android":"levelo://app?vid=c04c6069-9b86-4c3e-a37c-da5c30a5550f","ios":"levelo://app?vid=c04c6069-9b86-4c3e-a37c-da5c30a5550f"},"vehicle_type_id":"4","last_reported":1745046524,"current_range_meters":16000,"station_id":"ce4bh312rcd13ifvqdj0","pricing_plan_id":"cebpf4jnsgd1na2vs0mg"},{"bike_id":"c0880bb8-23bb-4be6-a64d-333bd751e77f","system_id":"levelo_inurba_marseille","lat":43.303175,"lon":5.404449,"is_reserved":false,"is_disabled":false,"rental_uris":{"android":"levelo://app?vid=c0880bb8-23bb-4be6-a64d-333bd751e77f","ios":"levelo://app?vid=c0880bb8-23bb-4be6-a64d-333bd751e77f"},"vehicle_type_id":"4","last_reported":1745046524,"current_range_meters":16000,"station_id":"ce4bh012rcd13ifvqd10","pricing_plan_id":"cebpf4jnsgd1na2vs0mg"},{"bike_id":"d05b7cc4-f88b-4d02-ae6c-c344f22c0e5c","system_id":"levelo_inurba_marseille","lat":43.2977,"lon":5.36517,"is_reserved":false,"is_disabled":false,"rental_uris":{"android":"levelo://app?vid=d05b7cc4-f88b-4d02-ae6c-c344f22c0e5c","ios":"levelo://app?vid=d05b7cc4-f88b-4d02-ae6c-c344f22c0e5c"},"vehicle_type_id":"4","last_reported":1745046524,"current_range_meters":16400,"station_id":"","pricing_plan_id":"cebpf4jnsgd1na2vs0mg"},{"bike_id":"acf656cd-7596-4222-af63-4a12788d4e76","system_id":"levelo_inurba_marseille","lat":43.29263,"lon":5.40914,"is_reserved":false,"is_disabled":false,"rental_uris":{"android":"levelo://app?vid=acf656cd-7596-4222-af63-4a12788d4e76","ios":"levelo://app?vid=acf656cd-7596-4222-af63-4a12788d4e76"},"vehicle_type_id":"4","last_reported":1745046524,"current_range_meters":16400,"station_id":"ce4bh192rcd13ifvqdc0","pricing_plan_id":"cebpf4jnsgd1na2vs0mg"},{"bike_id":"8b386a13-d7ce-4797-850b-d66b405de4c3","system_id":"levelo_inurba_marseille","lat":43.29601,"lon":5.37584,"is_reserved":false,"is_disabled":false,"rental_uris":{"android":"levelo://app?vid=8b386a13-d7ce-4797-850b-d66b405de4c3","ios":"levelo://app?vid=8b386a13-d7ce-4797-850b-d66b405de4c3"},"vehicle_type_id":"4","last_reported":1745046524,"current_range_meters":16400,"station_id":"","pricing_plan_id":"cebpf4jnsgd1na2vs0mg"},{"bike_id":"1fad1949-da2d-4b93-9386-de1f3dc78d1f","system_id":"levelo_inurba_marseille","lat":43.305925,"lon":5.393615,"is_reserved":false,"is_disabled":true,"rental_uris":{"android":"levelo://app?vid=1fad1949-da2d-4b93-9386-de1f3dc78d1f","ios":"levelo://app?vid=1fad1949-da2d-4b93-9386-de1f3dc78d1f"},"vehicle_type_id":"4","last_reported":1745046524,"current_range_meters":16400,"station_id":"ce4bh0p2rcd13ifvqd80","pricing_plan_id":"cebpf4jnsgd1na2vs0mg"},{"bike_id":"b075c115-a3f9-4f40-83ed-cbc1e8e5f84e","system_id":"levelo_inurba_marseille","lat":43.305342,"lon":5.367024,"is_reserved":false,"is_disabled":true,"rental_uris":{"android":"levelo://app?vid=b075c115-a3f9-4f40-83ed-cbc1e8e5f84e","ios":"levelo://app?vid=b075c115-a3f9-4f40-83ed-cbc1e8e5f84e"},"vehicle_type_id":"4","last_reported":1745046524,"current_range_meters":16400,"station_id":"ce4bgrp2rcd13ifvqc9g","pricing_plan_id":"cebpf4jnsgd1na2vs0mg"},{"bike_id":"1c46e1ef-ecc2-40e9-bb84-3560d46edbc0","system_id":"levelo_inurba_marseille","lat":43.229263,"lon":5.353787,"is_reserved":false,"is_disabled":false,"rental_uris":{"android":"levelo://app?vid=1c46e1ef-ecc2-40e9-bb84-3560d46edbc0","ios":"levelo://app?vid=1c46e1ef-ecc2-40e9-bb84-3560d46edbc0"},"vehicle_type_id":"4","last_reported":1745046524,"current_range_meters":16400,"station_id":"cpo3532slgdg3j2ikp40","pricing_plan_id":"cebpf4jnsgd1na2vs0mg"},{"bike_id":"13b31f8f-095e-4302-ac35-4cfd47f60cb0","system_id":"levelo_inurba_marseille","lat":43.29865,"lon":5.38896,"is_reserved":false,"is_disabled":true,"rental_uris":{"android":"levelo://app?vid=13b31f8f-095e-4302-ac35-4cfd47f60cb0","ios":"levelo://app?vid=13b31f8f-095e-4302-ac35-4cfd47f60cb0"},"vehicle_type_id":"4","last_reported":1745046524,"current_range_meters":16400,"station_id":"ce4bh392rcd13ifvqdl0","pricing_plan_id":"cebpf4jnsgd1na2vs0mg"},{"bike_id":"d0399850-f7a8-4b91-82e0-71d98db1ca05","system_id":"levelo_inurba_marseille","lat":43.31075,"lon":5.38352,"is_reserved":false,"is_disabled":false,"rental_uris":{"android":"levelo://app?vid=d0399850-f7a8-4b91-82e0-71d98db1ca05","ios":"levelo://app?vid=d0399850-f7a8-4b91-82e0-71d98db1ca05"},"vehicle_type_id":"4","last_reported":1745046524,"current_range_meters":16400,"station_id":"ce4bgv92rcd13ifvqcr0","pricing_plan_id":"cebpf4jnsgd1na2vs0mg"},{"bike_id":"91de8706-e2bc-4d69-90d0-ff04ff3ca694","system_id":"levelo_inurba_marseille","lat":43.246472,"lon":5.388865,"is_reserved":false,"is_disabled":false,"rental_uris":{"android":"levelo://app?vid=91de8706-e2bc-4d69-90d0-ff04ff3ca694","ios":"levelo://app?vid=91de8706-e2bc-4d69-90d0-ff04ff3ca694"},"vehicle_type_id":"4","last_reported":1745046524,"current_range_meters":16400,"station_id":"ce4bhg12rcd13ifvqf60","pricing_plan_id":"cebpf4jnsgd1na2vs0mg"},{"bike_id":"c00bd5aa-603b-48d4-b8ed-490d21cb9549","system_id":"levelo_inurba_marseille","lat":43.31079,"lon":5.38331,"is_reserved":false,"is_disabled":true,"rental_uris":{"android":"levelo://app?vid=c00bd5aa-603b-48d4-b8ed-490d21cb9549","ios":"levelo://app?vid=c00bd5aa-603b-48d4-b8ed-490d21cb9549"},"vehicle_type_id":"4","last_reported":1745046524,"current_range_meters":16800,"station_id":"","pricing_plan_id":"cebpf4jnsgd1na2vs0mg"},{"bike_id":"0886c839-6192-440b-95c0-a0278bc273d2","system_id":"levelo_inurba_marseille","lat":43.30797,"lon":5.43526,"is_reserved":false,"is_disabled":false,"rental_uris":{"android":"levelo://app?vid=0886c839-6192-440b-95c0-a0278bc273d2","ios":"levelo://app?vid=0886c839-6192-440b-95c0-a0278bc273d2"},"vehicle_type_id":"4","last_reported":1745046524,"current_range_meters":16800,"station_id":"ce4bhph2rcd13ifvqheg","pricing_plan_id":"cebpf4jnsgd1na2vs0mg"},{"bike_id":"15572984-94dd-404c-b34b-0eba775da91a","system_id":"levelo_inurba_marseille","lat":43.25004,"lon":5.38924,"is_reserved":false,"is_disabled":false,"rental_uris":{"android":"levelo://app?vid=15572984-94dd-404c-b34b-0eba775da91a","ios":"levelo://app?vid=15572984-94dd-404c-b34b-0eba775da91a"},"vehicle_type_id":"4","last_reported":1745046524,"current_range_meters":16800,"station_id":"ce4bhgp2rcd13ifvqfd0","pricing_plan_id":"cebpf4jnsgd1na2vs0mg"},{"bike_id":"8a967336-045f-4c1f-84bc-75b15c61e5a3","system_id":"levelo_inurba_marseille","lat":43.24073,"lon":5.37779,"is_reserved":false,"is_disabled":false,"rental_uris":{"android":"levelo://app?vid=8a967336-045f-4c1f-84bc-75b15c61e5a3","ios":"levelo://app?vid=8a967336-045f-4c1f-84bc-75b15c61e5a3"},"vehicle_type_id":"4","last_reported":1745046524,"current_range_meters":16800,"station_id":"ce4bhnp2rcd13ifvqgvg","pricing_plan_id":"cebpf4jnsgd1na2vs0mg"},{"bike_id":"e3a27ad6-8d49-451b-8ff4-e8c67c307516","system_id":"levelo_inurba_marseille","lat":43.29276,"lon":5.36845,"is_reserved":false,"is_disabled":false,"rental_uris":{"android":"levelo://app?vid=e3a27ad6-8d49-451b-8ff4-e8c67c307516","ios":"levelo://app?vid=e3a27ad6-8d49-451b-8ff4-e8c67c307516"},"vehicle_type_id":"4","last_reported":1745046524,"current_range_meters":16800,"station_id":"ce4bhbp2rcd13ifvqesg","pricing_plan_id":"cebpf4jnsgd1na2vs0mg"},{"bike_id":"5b96d262-2324-498f-9121-7665d01a853d","system_id":"levelo_inurba_marseille","lat":43.28947,"lon":5.3963,"is_reserved":false,"is_disabled":false,"rental_uris":{"android":"levelo://app?vid=5b96d262-2324-498f-9121-7665d01a853d","ios":"levelo://app?vid=5b96d262-2324-498f-9121-7665d01a853d"},"vehicle_type_id":"4","last_reported":1745046524,"current_range_meters":16800,"station_id":"ce4bh3h2rcd13ifvqdn0","pricing_plan_id":"cebpf4jnsgd1na2vs0mg"},{"bike_id":"1eaddd85-b36e-4360-9633-aa2090f67e17","system_id":"levelo_inurba_marseille","lat":43.29975,"lon":5.38511,"is_reserved":false,"is_disabled":false,"rental_uris":{"android":"levelo://app?vid=1eaddd85-b36e-4360-9633-aa2090f67e17","ios":"levelo://app?vid=1eaddd85-b36e-4360-9633-aa2090f67e17"},"vehicle_type_id":"4","last_reported":1745046524,"current_range_meters":16800,"station_id":"ce4bgj92rcd13ifvqbd0","pricing_plan_id":"cebpf4jnsgd1na2vs0mg"},{"bike_id":"6d2c542b-7061-4bba-9bdf-461e291f90d5","system_id":"levelo_inurba_marseille","lat":43.3092,"lon":5.39633,"is_reserved":false,"is_disabled":false,"rental_uris":{"android":"levelo://app?vid=6d2c542b-7061-4bba-9bdf-461e291f90d5","ios":"levelo://app?vid=6d2c542b-7061-4bba-9bdf-461e291f90d5"},"vehicle_type_id":"4","last_reported":1745046524,"current_range_meters":16800,"station_id":"ce4bh012rcd13ifvqcv0","pricing_plan_id":"cebpf4jnsgd1na2vs0mg"},{"bike_id":"0fabe441-18a7-4ca5-b3d6-02a723f7cf99","system_id":"levelo_inurba_marseille","lat":43.229322,"lon":5.353824,"is_reserved":false,"is_disabled":false,"rental_uris":{"android":"levelo://app?vid=0fabe441-18a7-4ca5-b3d6-02a723f7cf99","ios":"levelo://app?vid=0fabe441-18a7-4ca5-b3d6-02a723f7cf99"},"vehicle_type_id":"4","last_reported":1745046524,"current_range_meters":16800,"station_id":"cpo3532slgdg3j2ikp40","pricing_plan_id":"cebpf4jnsgd1na2vs0mg"},{"bike_id":"bb4170fb-2aee-44c9-a8e2-041417bf6973","system_id":"levelo_inurba_marseille","lat":43.24057,"lon":5.37751,"is_reserved":false,"is_disabled":false,"rental_uris":{"android":"levelo://app?vid=bb4170fb-2aee-44c9-a8e2-041417bf6973","ios":"levelo://app?vid=bb4170fb-2aee-44c9-a8e2-041417bf6973"},"vehicle_type_id":"4","last_reported":1745046524,"current_range_meters":17200,"station_id":"ce4bhnp2rcd13ifvqgvg","pricing_plan_id":"cebpf4jnsgd1na2vs0mg"},{"bike_id":"c28ea96e-8609-4f86-abff-2bd4c97bc80b","system_id":"levelo_inurba_marseille","lat":43.30735,"lon":5.42438,"is_reserved":false,"is_disabled":false,"rental_uris":{"android":"levelo://app?vid=c28ea96e-8609-4f86-abff-2bd4c97bc80b","ios":"levelo://app?vid=c28ea96e-8609-4f86-abff-2bd4c97bc80b"},"vehicle_type_id":"4","last_reported":1745046524,"current_range_meters":17200,"station_id":"st_cvj6ca6bvosntc0bfgr0","pricing_plan_id":"cebpf4jnsgd1na2vs0mg"},{"bike_id":"86c5fdb1-3a1c-43c2-a4a3-10604e171396","system_id":"levelo_inurba_marseille","lat":43.262064,"lon":5.374427,"is_reserved":false,"is_disabled":false,"rental_uris":{"android":"levelo://app?vid=86c5fdb1-3a1c-43c2-a4a3-10604e171396","ios":"levelo://app?vid=86c5fdb1-3a1c-43c2-a4a3-10604e171396"},"vehicle_type_id":"4","last_reported":1745046524,"current_range_meters":17200,"station_id":"ce4bhgp2rcd13ifvqfc0","pricing_plan_id":"cebpf4jnsgd1na2vs0mg"},{"bike_id":"48e6d673-88f0-425c-aebc-e0e95b813aa3","system_id":"levelo_inurba_marseille","lat":43.31118,"lon":5.37764,"is_reserved":false,"is_disabled":false,"rental_uris":{"android":"levelo://app?vid=48e6d673-88f0-425c-aebc-e0e95b813aa3","ios":"levelo://app?vid=48e6d673-88f0-425c-aebc-e0e95b813aa3"},"vehicle_type_id":"4","last_reported":1745046524,"current_range_meters":17200,"station_id":"ce4bgt92rcd13ifvqcg0","pricing_plan_id":"cebpf4jnsgd1na2vs0mg"},{"bike_id":"e2104665-0928-4d65-a1ba-6d0d513bf18a","system_id":"levelo_inurba_marseille","lat":43.24169,"lon":5.36389,"is_reserved":false,"is_disabled":false,"rental_uris":{"android":"levelo://app?vid=e2104665-0928-4d65-a1ba-6d0d513bf18a","ios":"levelo://app?vid=e2104665-0928-4d65-a1ba-6d0d513bf18a"},"vehicle_type_id":"4","last_reported":1745046524,"current_range_meters":17200,"station_id":"cpo36qri1sfpv3e86is0","pricing_plan_id":"cebpf4jnsgd1na2vs0mg"},{"bike_id":"00879c1d-a962-4133-ba5d-8de0f524e6f5","system_id":"levelo_inurba_marseille","lat":43.27498,"lon":5.424649,"is_reserved":false,"is_disabled":false,"rental_uris":{"android":"levelo://app?vid=00879c1d-a962-4133-ba5d-8de0f524e6f5","ios":"levelo://app?vid=00879c1d-a962-4133-ba5d-8de0f524e6f5"},"vehicle_type_id":"4","last_reported":1745046524,"current_range_meters":17200,"station_id":"ce4bhn92rcd13ifvqgrg","pricing_plan_id":"cebpf4jnsgd1na2vs0mg"},{"bike_id":"f528136a-6c8d-4220-beba-8137b07f246a","system_id":"levelo_inurba_marseille","lat":43.30744,"lon":5.42435,"is_reserved":false,"is_disabled":false,"rental_uris":{"android":"levelo://app?vid=f528136a-6c8d-4220-beba-8137b07f246a","ios":"levelo://app?vid=f528136a-6c8d-4220-beba-8137b07f246a"},"vehicle_type_id":"4","last_reported":1745046524,"current_range_meters":17600,"station_id":"st_cvj6ca6bvosntc0bfgr0","pricing_plan_id":"cebpf4jnsgd1na2vs0mg"},{"bike_id":"c2500621-3e82-4d86-9ef4-42dda3558591","system_id":"levelo_inurba_marseille","lat":43.24651,"lon":5.38891,"is_reserved":false,"is_disabled":false,"rental_uris":{"android":"levelo://app?vid=c2500621-3e82-4d86-9ef4-42dda3558591","ios":"levelo://app?vid=c2500621-3e82-4d86-9ef4-42dda3558591"},"vehicle_type_id":"4","last_reported":1745046524,"current_range_meters":17600,"station_id":"ce4bhg12rcd13ifvqf60","pricing_plan_id":"cebpf4jnsgd1na2vs0mg"},{"bike_id":"3c301e88-55cb-4368-8ea9-112cb3dfd836","system_id":"levelo_inurba_marseille","lat":43.30878,"lon":5.39643,"is_reserved":false,"is_disabled":false,"rental_uris":{"android":"levelo://app?vid=3c301e88-55cb-4368-8ea9-112cb3dfd836","ios":"levelo://app?vid=3c301e88-55cb-4368-8ea9-112cb3dfd836"},"vehicle_type_id":"4","last_reported":1745046524,"current_range_meters":17600,"station_id":"ce4bh012rcd13ifvqcv0","pricing_plan_id":"cebpf4jnsgd1na2vs0mg"},{"bike_id":"a87073ea-586e-4cef-9095-a1585e145007","system_id":"levelo_inurba_marseille","lat":43.29203,"lon":5.36071,"is_reserved":false,"is_disabled":true,"rental_uris":{"android":"levelo://app?vid=a87073ea-586e-4cef-9095-a1585e145007","ios":"levelo://app?vid=a87073ea-586e-4cef-9095-a1585e145007"},"vehicle_type_id":"4","last_reported":1745046524,"current_range_meters":17200,"station_id":"ce4bhbh2rcd13ifvqeqg","pricing_plan_id":"cebpf4jnsgd1na2vs0mg"},{"bike_id":"b1fbdecd-628d-456e-8ff5-65379f464c6d","system_id":"levelo_inurba_marseille","lat":43.30119,"lon":5.39871,"is_reserved":false,"is_disabled":false,"rental_uris":{"android":"levelo://app?vid=b1fbdecd-628d-456e-8ff5-65379f464c6d","ios":"levelo://app?vid=b1fbdecd-628d-456e-8ff5-65379f464c6d"},"vehicle_type_id":"4","last_reported":1745046524,"current_range_meters":17600,"station_id":"ce4bh0h2rcd13ifvqd40","pricing_plan_id":"cebpf4jnsgd1na2vs0mg"},{"bike_id":"09d6ceab-ad9f-4b31-a7e1-5978518264d9","system_id":"levelo_inurba_marseille","lat":43.2695,"lon":5.38627,"is_reserved":false,"is_disabled":false,"rental_uris":{"android":"levelo://app?vid=09d6ceab-ad9f-4b31-a7e1-5978518264d9","ios":"levelo://app?vid=09d6ceab-ad9f-4b31-a7e1-5978518264d9"},"vehicle_type_id":"4","last_reported":1745046524,"current_range_meters":17600,"station_id":"ce4bhh92rcd13ifvqfh0","pricing_plan_id":"cebpf4jnsgd1na2vs0mg"},{"bike_id":"a8a5d61c-36b6-466e-b35e-420a6e8765de","system_id":"levelo_inurba_marseille","lat":43.30923,"lon":5.40165,"is_reserved":false,"is_disabled":false,"rental_uris":{"android":"levelo://app?vid=a8a5d61c-36b6-466e-b35e-420a6e8765de","ios":"levelo://app?vid=a8a5d61c-36b6-466e-b35e-420a6e8765de"},"vehicle_type_id":"4","last_reported":1745046524,"current_range_meters":18800,"station_id":"ce4bgvp2rcd13ifvqct0","pricing_plan_id":"cebpf4jnsgd1na2vs0mg"},{"bike_id":"c0f5e4f3-3aab-48bd-afce-ce47388832b1","system_id":"levelo_inurba_marseille","lat":43.22935,"lon":5.35375,"is_reserved":false,"is_disabled":false,"rental_uris":{"android":"levelo://app?vid=c0f5e4f3-3aab-48bd-afce-ce47388832b1","ios":"levelo://app?vid=c0f5e4f3-3aab-48bd-afce-ce47388832b1"},"vehicle_type_id":"4","last_reported":1745046524,"current_range_meters":18800,"station_id":"cpo3532slgdg3j2ikp40","pricing_plan_id":"cebpf4jnsgd1na2vs0mg"},{"bike_id":"06e2bd15-f5fe-4f0c-bc67-f62badb2019b","system_id":"levelo_inurba_marseille","lat":43.25123,"lon":5.40336,"is_reserved":false,"is_disabled":false,"rental_uris":{"android":"levelo://app?vid=06e2bd15-f5fe-4f0c-bc67-f62badb2019b","ios":"levelo://app?vid=06e2bd15-f5fe-4f0c-bc67-f62badb2019b"},"vehicle_type_id":"4","last_reported":1745046524,"current_range_meters":18800,"station_id":"ce4bhlh2rcd13ifvqgig","pricing_plan_id":"cebpf4jnsgd1na2vs0mg"},{"bike_id":"d9fd32d7-3cda-4c2f-8802-a58eaf159ea1","system_id":"levelo_inurba_marseille","lat":43.26554,"lon":5.37295,"is_reserved":false,"is_disabled":false,"rental_uris":{"android":"levelo://app?vid=d9fd32d7-3cda-4c2f-8802-a58eaf159ea1","ios":"levelo://app?vid=d9fd32d7-3cda-4c2f-8802-a58eaf159ea1"},"vehicle_type_id":"4","last_reported":1745046524,"current_range_meters":18800,"station_id":"ce4bhg12rcd13ifvqf70","pricing_plan_id":"cebpf4jnsgd1na2vs0mg"},{"bike_id":"9fb14216-fbf8-4ae0-9e0e-6c8ded0f24b5","system_id":"levelo_inurba_marseille","lat":43.30544,"lon":5.36695,"is_reserved":false,"is_disabled":false,"rental_uris":{"android":"levelo://app?vid=9fb14216-fbf8-4ae0-9e0e-6c8ded0f24b5","ios":"levelo://app?vid=9fb14216-fbf8-4ae0-9e0e-6c8ded0f24b5"},"vehicle_type_id":"4","last_reported":1745046524,"current_range_meters":18800,"station_id":"ce4bgrp2rcd13ifvqc9g","pricing_plan_id":"cebpf4jnsgd1na2vs0mg"},{"bike_id":"bb89e80b-d4ed-4ba1-9ea8-de0a8b8d90df","system_id":"levelo_inurba_marseille","lat":43.31332,"lon":5.39712,"is_reserved":false,"is_disabled":false,"rental_uris":{"android":"levelo://app?vid=bb89e80b-d4ed-4ba1-9ea8-de0a8b8d90df","ios":"levelo://app?vid=bb89e80b-d4ed-4ba1-9ea8-de0a8b8d90df"},"vehicle_type_id":"4","last_reported":1745046524,"current_range_meters":18800,"station_id":"ce4bgvp2rcd13ifvqcu0","pricing_plan_id":"cebpf4jnsgd1na2vs0mg"},{"bike_id":"a2c548ce-e567-45fd-91e2-6a9379f6614c","system_id":"levelo_inurba_marseille","lat":43.30878,"lon":5.39633,"is_reserved":false,"is_disabled":false,"rental_uris":{"android":"levelo://app?vid=a2c548ce-e567-45fd-91e2-6a9379f6614c","ios":"levelo://app?vid=a2c548ce-e567-45fd-91e2-6a9379f6614c"},"vehicle_type_id":"4","last_reported":1745046524,"current_range_meters":18800,"station_id":"ce4bh012rcd13ifvqcv0","pricing_plan_id":"cebpf4jnsgd1na2vs0mg"},{"bike_id":"fe0d906c-18a4-47fa-96e1-6c88b9eb5396","system_id":"levelo_inurba_marseille","lat":43.24173,"lon":5.39744,"is_reserved":false,"is_disabled":false,"rental_uris":{"android":"levelo://app?vid=fe0d906c-18a4-47fa-96e1-6c88b9eb5396","ios":"levelo://app?vid=fe0d906c-18a4-47fa-96e1-6c88b9eb5396"},"vehicle_type_id":"4","last_reported":1745046524,"current_range_meters":18800,"station_id":"ce4bhn12rcd13ifvqgpg","pricing_plan_id":"cebpf4jnsgd1na2vs0mg"},{"bike_id":"05772e29-e28d-4de5-8dce-055a765d636f","system_id":"levelo_inurba_marseille","lat":43.29018,"lon":5.40003,"is_reserved":false,"is_disabled":false,"rental_uris":{"android":"levelo://app?vid=05772e29-e28d-4de5-8dce-055a765d636f","ios":"levelo://app?vid=05772e29-e28d-4de5-8dce-055a765d636f"},"vehicle_type_id":"4","last_reported":1745046524,"current_range_meters":19200,"station_id":"ce4bh392rcd13ifvqdm0","pricing_plan_id":"cebpf4jnsgd1na2vs0mg"},{"bike_id":"b71bb904-421e-4c4e-b38c-fa08e6c93681","system_id":"levelo_inurba_marseille","lat":43.30921,"lon":5.40149,"is_reserved":false,"is_disabled":false,"rental_uris":{"android":"levelo://app?vid=b71bb904-421e-4c4e-b38c-fa08e6c93681","ios":"levelo://app?vid=b71bb904-421e-4c4e-b38c-fa08e6c93681"},"vehicle_type_id":"4","last_reported":1745046524,"current_range_meters":19200,"station_id":"ce4bgvp2rcd13ifvqct0","pricing_plan_id":"cebpf4jnsgd1na2vs0mg"},{"bike_id":"bc13e988-5248-4aa1-83de-ba0e22e6793d","system_id":"levelo_inurba_marseille","lat":43.27504,"lon":5.42468,"is_reserved":false,"is_disabled":false,"rental_uris":{"android":"levelo://app?vid=bc13e988-5248-4aa1-83de-ba0e22e6793d","ios":"levelo://app?vid=bc13e988-5248-4aa1-83de-ba0e22e6793d"},"vehicle_type_id":"4","last_reported":1745046524,"current_range_meters":19200,"station_id":"ce4bhn92rcd13ifvqgrg","pricing_plan_id":"cebpf4jnsgd1na2vs0mg"},{"bike_id":"73a8b830-d4e7-4037-9366-31c718dfa471","system_id":"levelo_inurba_marseille","lat":43.30317,"lon":5.40445,"is_reserved":false,"is_disabled":false,"rental_uris":{"android":"levelo://app?vid=73a8b830-d4e7-4037-9366-31c718dfa471","ios":"levelo://app?vid=73a8b830-d4e7-4037-9366-31c718dfa471"},"vehicle_type_id":"4","last_reported":1745046524,"current_range_meters":19200,"station_id":"ce4bh012rcd13ifvqd10","pricing_plan_id":"cebpf4jnsgd1na2vs0mg"},{"bike_id":"7950eaac-afe9-4584-b033-5fdbe20b4285","system_id":"levelo_inurba_marseille","lat":43.304641,"lon":5.379094,"is_reserved":false,"is_disabled":false,"rental_uris":{"android":"levelo://app?vid=7950eaac-afe9-4584-b033-5fdbe20b4285","ios":"levelo://app?vid=7950eaac-afe9-4584-b033-5fdbe20b4285"},"vehicle_type_id":"4","last_reported":1745046524,"current_range_meters":19600,"station_id":"ce4bgup2rcd13ifvqcn0","pricing_plan_id":"cebpf4jnsgd1na2vs0mg"},{"bike_id":"34f2c12f-3b0e-4964-916f-eefce08f8038","system_id":"levelo_inurba_marseille","lat":43.28413,"lon":5.37522,"is_reserved":false,"is_disabled":false,"rental_uris":{"android":"levelo://app?vid=34f2c12f-3b0e-4964-916f-eefce08f8038","ios":"levelo://app?vid=34f2c12f-3b0e-4964-916f-eefce08f8038"},"vehicle_type_id":"4","last_reported":1745046524,"current_range_meters":19600,"station_id":"ce4bh412rcd13ifvqds0","pricing_plan_id":"cebpf4jnsgd1na2vs0mg"},{"bike_id":"d35d0f85-f00c-4a65-b550-2fb004a0ef99","system_id":"levelo_inurba_marseille","lat":43.23964,"lon":5.36634,"is_reserved":false,"is_disabled":false,"rental_uris":{"android":"levelo://app?vid=d35d0f85-f00c-4a65-b550-2fb004a0ef99","ios":"levelo://app?vid=d35d0f85-f00c-4a65-b550-2fb004a0ef99"},"vehicle_type_id":"4","last_reported":1745046524,"current_range_meters":19600,"station_id":"ce4bhi12rcd13ifvqfp0","pricing_plan_id":"cebpf4jnsgd1na2vs0mg"},{"bike_id":"dd84f6b2-ea82-4101-abd9-8bdb257eccd4","system_id":"levelo_inurba_marseille","lat":43.30144,"lon":5.3808,"is_reserved":false,"is_disabled":false,"rental_uris":{"android":"levelo://app?vid=dd84f6b2-ea82-4101-abd9-8bdb257eccd4","ios":"levelo://app?vid=dd84f6b2-ea82-4101-abd9-8bdb257eccd4"},"vehicle_type_id":"4","last_reported":1745046524,"current_range_meters":20000,"station_id":"ce4bgjp2rcd13ifvqbh0","pricing_plan_id":"cebpf4jnsgd1na2vs0mg"},{"bike_id":"a990fbef-a79c-4de2-80ec-a50af02f9ac4","system_id":"levelo_inurba_marseille","lat":43.23965,"lon":5.36631,"is_reserved":false,"is_disabled":false,"rental_uris":{"android":"levelo://app?vid=a990fbef-a79c-4de2-80ec-a50af02f9ac4","ios":"levelo://app?vid=a990fbef-a79c-4de2-80ec-a50af02f9ac4"},"vehicle_type_id":"4","last_reported":1745046524,"current_range_meters":20000,"station_id":"ce4bhi12rcd13ifvqfp0","pricing_plan_id":"cebpf4jnsgd1na2vs0mg"},{"bike_id":"83510f2d-a462-4223-b415-98f80d4880ab","system_id":"levelo_inurba_marseille","lat":43.30603,"lon":5.37233,"is_reserved":false,"is_disabled":false,"rental_uris":{"android":"levelo://app?vid=83510f2d-a462-4223-b415-98f80d4880ab","ios":"levelo://app?vid=83510f2d-a462-4223-b415-98f80d4880ab"},"vehicle_type_id":"4","last_reported":1745046524,"current_range_meters":20000,"station_id":"ce4bgqh2rcd13ifvqc4g","pricing_plan_id":"cebpf4jnsgd1na2vs0mg"},{"bike_id":"f8442109-c8ef-48a4-b568-31abb28ea87c","system_id":"levelo_inurba_marseille","lat":43.23188,"lon":5.39985,"is_reserved":false,"is_disabled":false,"rental_uris":{"android":"levelo://app?vid=f8442109-c8ef-48a4-b568-31abb28ea87c","ios":"levelo://app?vid=f8442109-c8ef-48a4-b568-31abb28ea87c"},"vehicle_type_id":"4","last_reported":1745046524,"current_range_meters":20000,"station_id":"ce4bhn12rcd13ifvqgqg","pricing_plan_id":"cebpf4jnsgd1na2vs0mg"},{"bike_id":"c61220d2-10db-4b02-8176-d41ad55eaf4a","system_id":"levelo_inurba_marseille","lat":43.265527,"lon":5.372879,"is_reserved":false,"is_disabled":false,"rental_uris":{"android":"levelo://app?vid=c61220d2-10db-4b02-8176-d41ad55eaf4a","ios":"levelo://app?vid=c61220d2-10db-4b02-8176-d41ad55eaf4a"},"vehicle_type_id":"4","last_reported":1745046524,"current_range_meters":20000,"station_id":"ce4bhg12rcd13ifvqf70","pricing_plan_id":"cebpf4jnsgd1na2vs0mg"},{"bike_id":"ff0fcd5f-048b-4bad-bd4f-46b393bd40e7","system_id":"levelo_inurba_marseille","lat":43.28405,"lon":5.37507,"is_reserved":false,"is_disabled":false,"rental_uris":{"android":"levelo://app?vid=ff0fcd5f-048b-4bad-bd4f-46b393bd40e7","ios":"levelo://app?vid=ff0fcd5f-048b-4bad-bd4f-46b393bd40e7"},"vehicle_type_id":"4","last_reported":1745046524,"current_range_meters":20400,"station_id":"ce4bh412rcd13ifvqds0","pricing_plan_id":"cebpf4jnsgd1na2vs0mg"},{"bike_id":"0aa07bd1-a67a-41a6-a78d-173980d8faa9","system_id":"levelo_inurba_marseille","lat":43.27316,"lon":5.39063,"is_reserved":false,"is_disabled":false,"rental_uris":{"android":"levelo://app?vid=0aa07bd1-a67a-41a6-a78d-173980d8faa9","ios":"levelo://app?vid=0aa07bd1-a67a-41a6-a78d-173980d8faa9"},"vehicle_type_id":"4","last_reported":1745046524,"current_range_meters":20400,"station_id":"ce4bhgp2rcd13ifvqfe0","pricing_plan_id":"cebpf4jnsgd1na2vs0mg"},{"bike_id":"db10471d-775d-432c-bf40-e064185c84f9","system_id":"levelo_inurba_marseille","lat":43.24657,"lon":5.38165,"is_reserved":false,"is_disabled":false,"rental_uris":{"android":"levelo://app?vid=db10471d-775d-432c-bf40-e064185c84f9","ios":"levelo://app?vid=db10471d-775d-432c-bf40-e064185c84f9"},"vehicle_type_id":"4","last_reported":1745046524,"current_range_meters":20400,"station_id":"ce4bhih2rcd13ifvqfr0","pricing_plan_id":"cebpf4jnsgd1na2vs0mg"},{"bike_id":"a285b101-f230-4350-981d-0b8bb4bda59b","system_id":"levelo_inurba_marseille","lat":43.229283,"lon":5.353893,"is_reserved":false,"is_disabled":false,"rental_uris":{"android":"levelo://app?vid=a285b101-f230-4350-981d-0b8bb4bda59b","ios":"levelo://app?vid=a285b101-f230-4350-981d-0b8bb4bda59b"},"vehicle_type_id":"4","last_reported":1745046524,"current_range_meters":20400,"station_id":"cpo3532slgdg3j2ikp40","pricing_plan_id":"cebpf4jnsgd1na2vs0mg"},{"bike_id":"6898d253-8ff5-425c-889c-341aa6285edd","system_id":"levelo_inurba_marseille","lat":43.28848,"lon":5.358551,"is_reserved":false,"is_disabled":false,"rental_uris":{"android":"levelo://app?vid=6898d253-8ff5-425c-889c-341aa6285edd","ios":"levelo://app?vid=6898d253-8ff5-425c-889c-341aa6285edd"},"vehicle_type_id":"4","last_reported":1745046524,"current_range_meters":20400,"station_id":"ce4bhb12rcd13ifvqem0","pricing_plan_id":"cebpf4jnsgd1na2vs0mg"},{"bike_id":"77e7708f-50e2-4da4-9704-d7330bced8de","system_id":"levelo_inurba_marseille","lat":43.31534,"lon":5.38039,"is_reserved":false,"is_disabled":false,"rental_uris":{"android":"levelo://app?vid=77e7708f-50e2-4da4-9704-d7330bced8de","ios":"levelo://app?vid=77e7708f-50e2-4da4-9704-d7330bced8de"},"vehicle_type_id":"4","last_reported":1745046524,"current_range_meters":20400,"station_id":"ce4bhsp2rcd13ifvqi50","pricing_plan_id":"cebpf4jnsgd1na2vs0mg"},{"bike_id":"9ab40f21-3028-4abd-bfd1-d5184d5bcea3","system_id":"levelo_inurba_marseille","lat":43.27285,"lon":5.39136,"is_reserved":false,"is_disabled":false,"rental_uris":{"android":"levelo://app?vid=9ab40f21-3028-4abd-bfd1-d5184d5bcea3","ios":"levelo://app?vid=9ab40f21-3028-4abd-bfd1-d5184d5bcea3"},"vehicle_type_id":"4","last_reported":1745046524,"current_range_meters":20800,"station_id":"ce4bhgp2rcd13ifvqfe0","pricing_plan_id":"cebpf4jnsgd1na2vs0mg"},{"bike_id":"73ab19d4-7a9e-4c1a-8047-cad56243ef38","system_id":"levelo_inurba_marseille","lat":43.26589,"lon":5.39083,"is_reserved":false,"is_disabled":false,"rental_uris":{"android":"levelo://app?vid=73ab19d4-7a9e-4c1a-8047-cad56243ef38","ios":"levelo://app?vid=73ab19d4-7a9e-4c1a-8047-cad56243ef38"},"vehicle_type_id":"4","last_reported":1745046524,"current_range_meters":20800,"station_id":"ce4bhe12rcd13ifvqf30","pricing_plan_id":"cebpf4jnsgd1na2vs0mg"},{"bike_id":"4f008b4d-24b3-4277-8dcb-ba4509e4bc02","system_id":"levelo_inurba_marseille","lat":43.23189,"lon":5.35574,"is_reserved":false,"is_disabled":false,"rental_uris":{"android":"levelo://app?vid=4f008b4d-24b3-4277-8dcb-ba4509e4bc02","ios":"levelo://app?vid=4f008b4d-24b3-4277-8dcb-ba4509e4bc02"},"vehicle_type_id":"4","last_reported":1745046524,"current_range_meters":20800,"station_id":"ce4bhu92rcd13ifvqi70","pricing_plan_id":"cebpf4jnsgd1na2vs0mg"},{"bike_id":"1ea4551e-afc0-40d5-a4ae-37be1eec7141","system_id":"levelo_inurba_marseille","lat":43.30885,"lon":5.37197,"is_reserved":false,"is_disabled":false,"rental_uris":{"android":"levelo://app?vid=1ea4551e-afc0-40d5-a4ae-37be1eec7141","ios":"levelo://app?vid=1ea4551e-afc0-40d5-a4ae-37be1eec7141"},"vehicle_type_id":"4","last_reported":1745046524,"current_range_meters":20800,"station_id":"ce4bguh2rcd13ifvqckg","pricing_plan_id":"cebpf4jnsgd1na2vs0mg"},{"bike_id":"f7027e6a-48d2-4cae-b50c-97b01f670552","system_id":"levelo_inurba_marseille","lat":43.239632,"lon":5.36635,"is_reserved":false,"is_disabled":false,"rental_uris":{"android":"levelo://app?vid=f7027e6a-48d2-4cae-b50c-97b01f670552","ios":"levelo://app?vid=f7027e6a-48d2-4cae-b50c-97b01f670552"},"vehicle_type_id":"4","last_reported":1745046524,"current_range_meters":20800,"station_id":"ce4bhi12rcd13ifvqfp0","pricing_plan_id":"cebpf4jnsgd1na2vs0mg"},{"bike_id":"d53e964c-f934-484c-a259-3e8f23cdd819","system_id":"levelo_inurba_marseille","lat":43.33724,"lon":5.39169,"is_reserved":false,"is_disabled":false,"rental_uris":{"android":"levelo://app?vid=d53e964c-f934-484c-a259-3e8f23cdd819","ios":"levelo://app?vid=d53e964c-f934-484c-a259-3e8f23cdd819"},"vehicle_type_id":"4","last_reported":1745046524,"current_range_meters":21600,"station_id":"ce4bhr92rcd13ifvqhsg","pricing_plan_id":"cebpf4jnsgd1na2vs0mg"},{"bike_id":"917e9149-8ba9-4e48-b0e2-eaa76daf2cea","system_id":"levelo_inurba_marseille","lat":43.29614,"lon":5.40609,"is_reserved":false,"is_disabled":true,"rental_uris":{"android":"levelo://app?vid=917e9149-8ba9-4e48-b0e2-eaa76daf2cea","ios":"levelo://app?vid=917e9149-8ba9-4e48-b0e2-eaa76daf2cea"},"vehicle_type_id":"4","last_reported":1745046524,"current_range_meters":21600,"station_id":"ce4bh0h2rcd13ifvqd60","pricing_plan_id":"cebpf4jnsgd1na2vs0mg"},{"bike_id":"b9f3e09e-2118-4fba-8c51-c027c392a36d","system_id":"levelo_inurba_marseille","lat":43.296274,"lon":5.405898,"is_reserved":false,"is_disabled":false,"rental_uris":{"android":"levelo://app?vid=b9f3e09e-2118-4fba-8c51-c027c392a36d","ios":"levelo://app?vid=b9f3e09e-2118-4fba-8c51-c027c392a36d"},"vehicle_type_id":"4","last_reported":1745046524,"current_range_meters":21600,"station_id":"ce4bh0h2rcd13ifvqd60","pricing_plan_id":"cebpf4jnsgd1na2vs0mg"},{"bike_id":"f08d2eb0-d8a1-4bf8-9efa-7026ae4d2b85","system_id":"levelo_inurba_marseille","lat":43.29039,"lon":5.39963,"is_reserved":false,"is_disabled":false,"rental_uris":{"android":"levelo://app?vid=f08d2eb0-d8a1-4bf8-9efa-7026ae4d2b85","ios":"levelo://app?vid=f08d2eb0-d8a1-4bf8-9efa-7026ae4d2b85"},"vehicle_type_id":"4","last_reported":1745046524,"current_range_meters":21600,"station_id":"ce4bh392rcd13ifvqdm0","pricing_plan_id":"cebpf4jnsgd1na2vs0mg"},{"bike_id":"b8808bd5-b66c-42b1-8122-616501d1d082","system_id":"levelo_inurba_marseille","lat":43.21757,"lon":5.34597,"is_reserved":false,"is_disabled":true,"rental_uris":{"android":"levelo://app?vid=b8808bd5-b66c-42b1-8122-616501d1d082","ios":"levelo://app?vid=b8808bd5-b66c-42b1-8122-616501d1d082"},