{"last_updated":1749938920,"ttl":60,"version":"2.2","data":{"bikes":[{"bike_id":"b31f0139-170f-4194-984f-4386218a1e9d","system_id":"levelo_inurba_marseille","lat":43.33771,"lon":5.37424,"is_reserved":false,"is_disabled":true,"rental_uris":{"android":"levelo://app?vid=b31f0139-170f-4194-984f-4386218a1e9d","ios":"levelo://app?vid=b31f0139-170f-4194-984f-4386218a1e9d"},"vehicle_type_id":"4","last_reported":1749938920,"current_range_meters":0,"station_id":"","pricing_plan_id":"cebpf4jnsgd1na2vs0mg"},{"bike_id":"1acfb620-cad7-48c0-8901-d7a5b74a5b65","system_id":"levelo_inurba_marseille","lat":43.33751,"lon":5.37456,"is_reserved":false,"is_disabled":true,"rental_uris":{"android":"levelo://app?vid=1acfb620-cad7-48c0-8901-d7a5b74a5b65","ios":"levelo://app?vid=1acfb620-cad7-48c0-8901-d7a5b74a5b65"},"vehicle_type_id":"4","last_reported":1749938920,"current_range_meters":0,"station_id":"","pricing_plan_id":"cebpf4jnsgd1na2vs0mg"},{"bike_id":"590fca8e-c69e-4ea9-ac36-4274b0a55e09","system_id":"levelo_inurba_marseille","lat":43.303228,"lon":5.392359,"is_reserved":false,"is_disabled":true,"rental_uris":{"android":"levelo://app?vid=590fca8e-c69e-4ea9-ac36-4274b0a55e09","ios":"levelo://app?vid=590fca8e-c69e-4ea9-ac36-4274b0a55e09"},"vehicle_type_id":"4","last_reported":1749938920,"current_range_meters":0,"station_id":"","pricing_plan_id":"cebpf4jnsgd1na2vs0mg"},{"bike_id":"bf89d78c-eb96-40d5-beb0-f402ef102cc1","system_id":"levelo_inurba_marseille","lat":43.337444,"lon":5.374475,"is_reserved":false,"is_disabled":true,"rental_uris":{"android":"levelo://app?vid=bf89d78c-eb96-40d5-beb0-f402ef102cc1","ios":"levelo://app?vid=bf89d78c-eb96-40d5-beb0-f402ef102cc1"},"vehicle_type_id":"4","last_reported":1749938920,"current_range_meters":0,"station_id":"","pricing_plan_id":"cebpf4jnsgd1na2vs0mg"},{"bike_id":"684f4e0c-56e1-4f68-9d5c-52873241ab72","system_id":"levelo_inurba_marseille","lat":43.32047,"lon":5.38998,"is_reserved":false,"is_disabled":true,"rental_uris":{"android":"levelo://app?vid=684f4e0c-56e1-4f68-9d5c-52873241ab72","ios":"levelo://app?vid=684f4e0c-56e1-4f68-9d5c-52873241ab72"},"vehicle_type_id":"4","last_reported":1749938920,"current_range_meters":0,"station_id":"","pricing_plan_id":"cebpf4jnsgd1na2vs0mg"},{"bike_id":"5077581b-cebb-46fc-ba69-4fa8272d4810","system_id":"levelo_inurba_marseille","lat":43.21361,"lon":5.35516,"is_reserved":false,"is_disabled":true,"rental_uris":{"android":"levelo://app?vid=5077581b-cebb-46fc-ba69-4fa8272d4810","ios":"levelo://app?vid=5077581b-cebb-46fc-ba69-4fa8272d4810"},"vehicle_type_id":"4","last_reported":1749938920,"current_range_meters":0,"station_id":"","pricing_plan_id":"cebpf4jnsgd1na2vs0mg"},{"bike_id":"b700b739-d84e-40eb-a0b6-5cbfa9485ee2","system_id":"levelo_inurba_marseille","lat":43.27838,"lon":5.42185,"is_reserved":false,"is_disabled":true,"rental_uris":{"android":"levelo://app?vid=b700b739-d84e-40eb-a0b6-5cbfa9485ee2","ios":"levelo://app?vid=b700b739-d84e-40eb-a0b6-5cbfa9485ee2"},"vehicle_type_id":"4","last_reported":1749938920,"current_range_meters":0,"station_id":"","pricing_plan_id":"cebpf4jnsgd1na2vs0mg"},{"bike_id":"ebf89cec-3e1a-4275-9cd0-a3d19d69b5cf","system_id":"levelo_inurba_marseille","lat":43.279765,"lon":5.38485,"is_reserved":false,"is_disabled":true,"rental_uris":{"android":"levelo://app?vid=ebf89cec-3e1a-4275-9cd0-a3d19d69b5cf","ios":"levelo://app?vid=ebf89cec-3e1a-4275-9cd0-a3d19d69b5cf"},"vehicle_type_id":"4","last_reported":1749938920,"current_range_meters":0,"station_id":"","pricing_plan_id":"cebpf4jnsgd1na2vs0mg"},{"bike_id":"b0cf35af-18fc-4f40-a20e-1cdf56e1742e","system_id":"levelo_inurba_marseille","lat":43.295254,"lon":5.385458,"is_reserved":false,"is_disabled":true,"rental_uris":{"android":"levelo://app?vid=b0cf35af-18fc-4f40-a20e-1cdf56e1742e","ios":"levelo://app?vid=b0cf35af-18fc-4f40-a20e-1cdf56e1742e"},"vehicle_type_id":"4","last_reported":1749938920,"current_range_meters":0,"station_id":"","pricing_plan_id":"cebpf4jnsgd1na2vs0mg"},{"bike_id":"8d60347d-541c-40fb-90ca-203bf6bd520a","system_id":"levelo_inurba_marseille","lat":43.27131,"lon":5.36421,"is_reserved":false,"is_disabled":true,"rental_uris":{"android":"levelo://app?vid=8d60347d-541c-40fb-90ca-203bf6bd520a","ios":"levelo://app?vid=8d60347d-541c-40fb-90ca-203bf6bd520a"},"vehicle_type_id":"4","last_reported":1749938920,"current_range_meters":0,"station_id":"","pricing_plan_id":"cebpf4jnsgd1na2vs0mg"},{"bike_id":"492f4bbd-1190-4ef2-b66a-479ffe91b09b","system_id":"levelo_inurba_marseille","lat":43.337444,"lon":5.374475,"is_reserved":false,"is_disabled":true,"rental_uris":{"android":"levelo://app?vid=492f4bbd-1190-4ef2-b66a-479ffe91b09b","ios":"levelo://app?vid=492f4bbd-1190-4ef2-b66a-479ffe91b09b"},"vehicle_type_id":"4","last_reported":1749938920,"current_range_meters":0,"station_id":"","pricing_plan_id":"cebpf4jnsgd1na2vs0mg"},{"bike_id":"05be4d55-79c4-4041-9bfa-07752692e32c","system_id":"levelo_inurba_marseille","lat":43.29729,"lon":5.35933,"is_reserved":false,"is_disabled":true,"rental_uris":{"android":"levelo://app?vid=05be4d55-79c4-4041-9bfa-07752692e32c","ios":"levelo://app?vid=05be4d55-79c4-4041-9bfa-07752692e32c"},"vehicle_type_id":"4","last_reported":1749938920,"current_range_meters":0,"station_id":"","pricing_plan_id":"cebpf4jnsgd1na2vs0mg"},{"bike_id":"a9b6bf99-4070-4437-bb20-72962ae30b90","system_id":"levelo_inurba_marseille","lat":43.27476,"lon":5.36389,"is_reserved":false,"is_disabled":true,"rental_uris":{"android":"levelo://app?vid=a9b6bf99-4070-4437-bb20-72962ae30b90","ios":"levelo://app?vid=a9b6bf99-4070-4437-bb20-72962ae30b90"},"vehicle_type_id":"4","last_reported":1749938920,"current_range_meters":0,"station_id":"","pricing_plan_id":"cebpf4jnsgd1na2vs0mg"},{"bike_id":"de4b7df0-6687-44bd-91ba-538ecc19b097","system_id":"levelo_inurba_marseille","lat":43.29964,"lon":5.37181,"is_reserved":false,"is_disabled":true,"rental_uris":{"android":"levelo://app?vid=de4b7df0-6687-44bd-91ba-538ecc19b097","ios":"levelo://app?vid=de4b7df0-6687-44bd-91ba-538ecc19b097"},"vehicle_type_id":"4","last_reported":1749938920,"current_range_meters":0,"station_id":"ce4bgr92rcd13ifvqc7g","pricing_plan_id":"cebpf4jnsgd1na2vs0mg"},{"bike_id":"baa430cc-6926-4ae9-8e4d-305335939bde","system_id":"levelo_inurba_marseille","lat":43.30417,"lon":5.39748,"is_reserved":false,"is_disabled":true,"rental_uris":{"android":"levelo://app?vid=baa430cc-6926-4ae9-8e4d-305335939bde","ios":"levelo://app?vid=baa430cc-6926-4ae9-8e4d-305335939bde"},"vehicle_type_id":"4","last_reported":1749938920,"current_range_meters":0,"station_id":"ce4bh092rcd13ifvqd20","pricing_plan_id":"cebpf4jnsgd1na2vs0mg"},{"bike_id":"f963078c-9d63-448d-a533-0acc36de606e","system_id":"levelo_inurba_marseille","lat":43.29274,"lon":5.40115,"is_reserved":false,"is_disabled":true,"rental_uris":{"android":"levelo://app?vid=f963078c-9d63-448d-a533-0acc36de606e","ios":"levelo://app?vid=f963078c-9d63-448d-a533-0acc36de606e"},"vehicle_type_id":"4","last_reported":1749938920,"current_range_meters":0,"station_id":"ce4bh312rcd13ifvqdk0","pricing_plan_id":"cebpf4jnsgd1na2vs0mg"},{"bike_id":"6a4286c7-3ceb-4573-9e2d-669d801c2568","system_id":"levelo_inurba_marseille","lat":43.282695,"lon":5.350542,"is_reserved":false,"is_disabled":true,"rental_uris":{"android":"levelo://app?vid=6a4286c7-3ceb-4573-9e2d-669d801c2568","ios":"levelo://app?vid=6a4286c7-3ceb-4573-9e2d-669d801c2568"},"vehicle_type_id":"4","last_reported":1749938920,"current_range_meters":0,"station_id":"ce4bhbp2rcd13ifvqerg","pricing_plan_id":"cebpf4jnsgd1na2vs0mg"},{"bike_id":"1348c599-0b09-4daa-a93f-9a0a99878d05","system_id":"levelo_inurba_marseille","lat":43.2668,"lon":5.38228,"is_reserved":false,"is_disabled":true,"rental_uris":{"android":"levelo://app?vid=1348c599-0b09-4daa-a93f-9a0a99878d05","ios":"levelo://app?vid=1348c599-0b09-4daa-a93f-9a0a99878d05"},"vehicle_type_id":"4","last_reported":1749938920,"current_range_meters":0,"station_id":"ce4bhg92rcd13ifvqf90","pricing_plan_id":"cebpf4jnsgd1na2vs0mg"},{"bike_id":"c5aff4af-137e-478d-ba0c-539bf55ed037","system_id":"levelo_inurba_marseille","lat":43.26214,"lon":5.37446,"is_reserved":false,"is_disabled":true,"rental_uris":{"android":"levelo://app?vid=c5aff4af-137e-478d-ba0c-539bf55ed037","ios":"levelo://app?vid=c5aff4af-137e-478d-ba0c-539bf55ed037"},"vehicle_type_id":"4","last_reported":1749938920,"current_range_meters":0,"station_id":"ce4bhgp2rcd13ifvqfc0","pricing_plan_id":"cebpf4jnsgd1na2vs0mg"},{"bike_id":"c5df55a2-e759-4570-973d-4ac4126798dd","system_id":"levelo_inurba_marseille","lat":43.27043,"lon":5.40206,"is_reserved":false,"is_disabled":true,"rental_uris":{"android":"levelo://app?vid=c5df55a2-e759-4570-973d-4ac4126798dd","ios":"levelo://app?vid=c5df55a2-e759-4570-973d-4ac4126798dd"},"vehicle_type_id":"4","last_reported":1749938920,"current_range_meters":0,"station_id":"ce4bhk92rcd13ifvqgc0","pricing_plan_id":"cebpf4jnsgd1na2vs0mg"},{"bike_id":"04005531-52ef-4a8c-a6d8-546a39325ee5","system_id":"levelo_inurba_marseille","lat":43.22507,"lon":5.34777,"is_reserved":false,"is_disabled":true,"rental_uris":{"android":"levelo://app?vid=04005531-52ef-4a8c-a6d8-546a39325ee5","ios":"levelo://app?vid=04005531-52ef-4a8c-a6d8-546a39325ee5"},"vehicle_type_id":"4","last_reported":1749938920,"current_range_meters":0,"station_id":"st_cvj5dfep6f1abm77gieg","pricing_plan_id":"cebpf4jnsgd1na2vs0mg"},{"bike_id":"0f50c2eb-d288-4d90-a9a3-cd0743222590","system_id":"levelo_inurba_marseille","lat":43.22489,"lon":5.3479,"is_reserved":false,"is_disabled":true,"rental_uris":{"android":"levelo://app?vid=0f50c2eb-d288-4d90-a9a3-cd0743222590","ios":"levelo://app?vid=0f50c2eb-d288-4d90-a9a3-cd0743222590"},"vehicle_type_id":"4","last_reported":1749938920,"current_range_meters":0,"station_id":"st_cvj5dfep6f1abm77gieg","pricing_plan_id":"cebpf4jnsgd1na2vs0mg"},{"bike_id":"77e1b72a-e412-4bf7-b26d-9074f78abf68","system_id":"levelo_inurba_marseille","lat":43.22494,"lon":5.34777,"is_reserved":false,"is_disabled":true,"rental_uris":{"android":"levelo://app?vid=77e1b72a-e412-4bf7-b26d-9074f78abf68","ios":"levelo://app?vid=77e1b72a-e412-4bf7-b26d-9074f78abf68"},"vehicle_type_id":"4","last_reported":1749938920,"current_range_meters":0,"station_id":"st_cvj5dfep6f1abm77gieg","pricing_plan_id":"cebpf4jnsgd1na2vs0mg"},{"bike_id":"c59f710e-a568-48ee-b718-470006db13cd","system_id":"levelo_inurba_marseille","lat":43.21734,"lon":5.34616,"is_reserved":false,"is_disabled":true,"rental_uris":{"android":"levelo://app?vid=c59f710e-a568-48ee-b718-470006db13cd","ios":"levelo://app?vid=c59f710e-a568-48ee-b718-470006db13cd"},"vehicle_type_id":"4","last_reported":1749938920,"current_range_meters":0,"station_id":"st_cvj6r9ubvosntc0bgbag","pricing_plan_id":"cebpf4jnsgd1na2vs0mg"},{"bike_id":"fe5a9aaf-2d36-4b9d-abdd-dc360a59de38","system_id":"levelo_inurba_marseille","lat":43.21725,"lon":5.34619,"is_reserved":false,"is_disabled":true,"rental_uris":{"android":"levelo://app?vid=fe5a9aaf-2d36-4b9d-abdd-dc360a59de38","ios":"levelo://app?vid=fe5a9aaf-2d36-4b9d-abdd-dc360a59de38"},"vehicle_type_id":"4","last_reported":1749938920,"current_range_meters":0,"station_id":"st_cvj6r9ubvosntc0bgbag","pricing_plan_id":"cebpf4jnsgd1na2vs0mg"},{"bike_id":"ceed8e49-424f-4eba-95a3-d0aed3600067","system_id":"levelo_inurba_marseille","lat":43.21216,"lon":5.3514,"is_reserved":false,"is_disabled":true,"rental_uris":{"android":"levelo://app?vid=ceed8e49-424f-4eba-95a3-d0aed3600067","ios":"levelo://app?vid=ceed8e49-424f-4eba-95a3-d0aed3600067"},"vehicle_type_id":"4","last_reported":1749938920,"current_range_meters":0,"station_id":"st_cvj6sg6p6f1abm77japg","pricing_plan_id":"cebpf4jnsgd1na2vs0mg"},{"bike_id":"aedb974f-1014-42b7-8dd4-7c8f55661c40","system_id":"levelo_inurba_marseille","lat":43.26619,"lon":5.38332,"is_reserved":false,"is_disabled":true,"rental_uris":{"android":"levelo://app?vid=aedb974f-1014-42b7-8dd4-7c8f55661c40","ios":"levelo://app?vid=aedb974f-1014-42b7-8dd4-7c8f55661c40"},"vehicle_type_id":"4","last_reported":1749938920,"current_range_meters":400,"station_id":"","pricing_plan_id":"cebpf4jnsgd1na2vs0mg"},{"bike_id":"73ca7f7b-26f9-41d5-8f54-c28896d5b894","system_id":"levelo_inurba_marseille","lat":43.26193,"lon":5.37448,"is_reserved":false,"is_disabled":true,"rental_uris":{"android":"levelo://app?vid=73ca7f7b-26f9-41d5-8f54-c28896d5b894","ios":"levelo://app?vid=73ca7f7b-26f9-41d5-8f54-c28896d5b894"},"vehicle_type_id":"4","last_reported":1749938920,"current_range_meters":400,"station_id":"ce4bhgp2rcd13ifvqfc0","pricing_plan_id":"cebpf4jnsgd1na2vs0mg"},{"bike_id":"c97104d2-e5d6-47c3-afd0-bebd57865cf9","system_id":"levelo_inurba_marseille","lat":43.31166,"lon":5.38726,"is_reserved":false,"is_disabled":true,"rental_uris":{"android":"levelo://app?vid=c97104d2-e5d6-47c3-afd0-bebd57865cf9","ios":"levelo://app?vid=c97104d2-e5d6-47c3-afd0-bebd57865cf9"},"vehicle_type_id":"4","last_reported":1749938920,"current_range_meters":800,"station_id":"ce4bgv12rcd13ifvqcp0","pricing_plan_id":"cebpf4jnsgd1na2vs0mg"},{"bike_id":"0975fc91-0921-4784-90fb-c4d13d8dd350","system_id":"levelo_inurba_marseille","lat":43.30594,"lon":5.3936,"is_reserved":false,"is_disabled":true,"rental_uris":{"android":"levelo://app?vid=0975fc91-0921-4784-90fb-c4d13d8dd350","ios":"levelo://app?vid=0975fc91-0921-4784-90fb-c4d13d8dd350"},"vehicle_type_id":"4","last_reported":1749938920,"current_range_meters":1600,"station_id":"ce4bh0p2rcd13ifvqd80","pricing_plan_id":"cebpf4jnsgd1na2vs0mg"},{"bike_id":"a61d1df3-52af-4c0d-b191-91f25eacb705","system_id":"levelo_inurba_marseille","lat":43.29264,"lon":5.38459,"is_reserved":false,"is_disabled":true,"rental_uris":{"android":"levelo://app?vid=a61d1df3-52af-4c0d-b191-91f25eacb705","ios":"levelo://app?vid=a61d1df3-52af-4c0d-b191-91f25eacb705"},"vehicle_type_id":"4","last_reported":1749938920,"current_range_meters":1600,"station_id":"ce4bh692rcd13ifvqea0","pricing_plan_id":"cebpf4jnsgd1na2vs0mg"},{"bike_id":"5cf82ba1-6d4e-4510-ad1f-eea8a5d7ab7b","system_id":"levelo_inurba_marseille","lat":43.270601,"lon":5.407601,"is_reserved":false,"is_disabled":true,"rental_uris":{"android":"levelo://app?vid=5cf82ba1-6d4e-4510-ad1f-eea8a5d7ab7b","ios":"levelo://app?vid=5cf82ba1-6d4e-4510-ad1f-eea8a5d7ab7b"},"vehicle_type_id":"4","last_reported":1749938920,"current_range_meters":1600,"station_id":"ce4bhl12rcd13ifvqgf0","pricing_plan_id":"cebpf4jnsgd1na2vs0mg"},{"bike_id":"c8e9c58f-a9f0-4a49-8d73-2683b841f82e","system_id":"levelo_inurba_marseille","lat":43.28697,"lon":5.39992,"is_reserved":false,"is_disabled":true,"rental_uris":{"android":"levelo://app?vid=c8e9c58f-a9f0-4a49-8d73-2683b841f82e","ios":"levelo://app?vid=c8e9c58f-a9f0-4a49-8d73-2683b841f82e"},"vehicle_type_id":"4","last_reported":1749938920,"current_range_meters":1600,"station_id":"ce4bho92rcd13ifvqh3g","pricing_plan_id":"cebpf4jnsgd1na2vs0mg"},{"bike_id":"97421c04-2630-4fc1-9da9-b17d88602c5f","system_id":"levelo_inurba_marseille","lat":43.337682,"lon":5.374519,"is_reserved":false,"is_disabled":true,"rental_uris":{"android":"levelo://app?vid=97421c04-2630-4fc1-9da9-b17d88602c5f","ios":"levelo://app?vid=97421c04-2630-4fc1-9da9-b17d88602c5f"},"vehicle_type_id":"4","last_reported":1749938920,"current_range_meters":2000,"station_id":"","pricing_plan_id":"cebpf4jnsgd1na2vs0mg"},{"bike_id":"4158cdea-5581-4c88-8dac-5996a74f08c2","system_id":"levelo_inurba_marseille","lat":43.29264,"lon":5.38454,"is_reserved":false,"is_disabled":true,"rental_uris":{"android":"levelo://app?vid=4158cdea-5581-4c88-8dac-5996a74f08c2","ios":"levelo://app?vid=4158cdea-5581-4c88-8dac-5996a74f08c2"},"vehicle_type_id":"4","last_reported":1749938920,"current_range_meters":2000,"station_id":"ce4bh692rcd13ifvqea0","pricing_plan_id":"cebpf4jnsgd1na2vs0mg"},{"bike_id":"d1266d57-7865-46ba-b4d9-669832a837ff","system_id":"levelo_inurba_marseille","lat":43.23144,"lon":5.43718,"is_reserved":false,"is_disabled":true,"rental_uris":{"android":"levelo://app?vid=d1266d57-7865-46ba-b4d9-669832a837ff","ios":"levelo://app?vid=d1266d57-7865-46ba-b4d9-669832a837ff"},"vehicle_type_id":"4","last_reported":1749938920,"current_range_meters":2000,"station_id":"ce4bhmp2rcd13ifvqgog","pricing_plan_id":"cebpf4jnsgd1na2vs0mg"},{"bike_id":"3d6ef34c-1ec6-4ed3-88e4-07359f729c42","system_id":"levelo_inurba_marseille","lat":43.27576,"lon":5.43369,"is_reserved":false,"is_disabled":false,"rental_uris":{"android":"levelo://app?vid=3d6ef34c-1ec6-4ed3-88e4-07359f729c42","ios":"levelo://app?vid=3d6ef34c-1ec6-4ed3-88e4-07359f729c42"},"vehicle_type_id":"4","last_reported":1749938920,"current_range_meters":2800,"station_id":"","pricing_plan_id":"cebpf4jnsgd1na2vs0mg"},{"bike_id":"98afa141-26c5-45c8-a0a6-15fd54ac73ab","system_id":"levelo_inurba_marseille","lat":43.21505,"lon":5.34774,"is_reserved":false,"is_disabled":false,"rental_uris":{"android":"levelo://app?vid=98afa141-26c5-45c8-a0a6-15fd54ac73ab","ios":"levelo://app?vid=98afa141-26c5-45c8-a0a6-15fd54ac73ab"},"vehicle_type_id":"4","last_reported":1749938920,"current_range_meters":2800,"station_id":"","pricing_plan_id":"cebpf4jnsgd1na2vs0mg"},{"bike_id":"97a685ee-9e8a-4db5-acf8-bc4e2e2fa702","system_id":"levelo_inurba_marseille","lat":43.307996,"lon":5.381554,"is_reserved":false,"is_disabled":false,"rental_uris":{"android":"levelo://app?vid=97a685ee-9e8a-4db5-acf8-bc4e2e2fa702","ios":"levelo://app?vid=97a685ee-9e8a-4db5-acf8-bc4e2e2fa702"},"vehicle_type_id":"4","last_reported":1749938920,"current_range_meters":2800,"station_id":"ce4bgt12rcd13ifvqce0","pricing_plan_id":"cebpf4jnsgd1na2vs0mg"},{"bike_id":"c151e08f-1ddd-421f-bb64-50e51ac584c8","system_id":"levelo_inurba_marseille","lat":43.30298,"lon":5.39209,"is_reserved":false,"is_disabled":false,"rental_uris":{"android":"levelo://app?vid=c151e08f-1ddd-421f-bb64-50e51ac584c8","ios":"levelo://app?vid=c151e08f-1ddd-421f-bb64-50e51ac584c8"},"vehicle_type_id":"4","last_reported":1749938920,"current_range_meters":3200,"station_id":"ce4bgkh2rcd13ifvqbk0","pricing_plan_id":"cebpf4jnsgd1na2vs0mg"},{"bike_id":"e69973e9-7901-4ef8-81cc-05a9a13205be","system_id":"levelo_inurba_marseille","lat":43.24658,"lon":5.38162,"is_reserved":false,"is_disabled":false,"rental_uris":{"android":"levelo://app?vid=e69973e9-7901-4ef8-81cc-05a9a13205be","ios":"levelo://app?vid=e69973e9-7901-4ef8-81cc-05a9a13205be"},"vehicle_type_id":"4","last_reported":1749938920,"current_range_meters":3200,"station_id":"ce4bhih2rcd13ifvqfr0","pricing_plan_id":"cebpf4jnsgd1na2vs0mg"},{"bike_id":"056b86c0-50c1-46a4-8589-26d2fcf38e3b","system_id":"levelo_inurba_marseille","lat":43.29576,"lon":5.39959,"is_reserved":false,"is_disabled":false,"rental_uris":{"android":"levelo://app?vid=056b86c0-50c1-46a4-8589-26d2fcf38e3b","ios":"levelo://app?vid=056b86c0-50c1-46a4-8589-26d2fcf38e3b"},"vehicle_type_id":"4","last_reported":1749938920,"current_range_meters":3600,"station_id":"ce4bh312rcd13ifvqdj0","pricing_plan_id":"cebpf4jnsgd1na2vs0mg"},{"bike_id":"1b40e136-3bd0-4bec-8714-1bdce5db8597","system_id":"levelo_inurba_marseille","lat":43.29033,"lon":5.39957,"is_reserved":false,"is_disabled":false,"rental_uris":{"android":"levelo://app?vid=1b40e136-3bd0-4bec-8714-1bdce5db8597","ios":"levelo://app?vid=1b40e136-3bd0-4bec-8714-1bdce5db8597"},"vehicle_type_id":"4","last_reported":1749938920,"current_range_meters":3600,"station_id":"ce4bh392rcd13ifvqdm0","pricing_plan_id":"cebpf4jnsgd1na2vs0mg"},{"bike_id":"f053ee2f-b0a9-4944-9983-ac7f640159db","system_id":"levelo_inurba_marseille","lat":43.2674,"lon":5.427458,"is_reserved":false,"is_disabled":false,"rental_uris":{"android":"levelo://app?vid=f053ee2f-b0a9-4944-9983-ac7f640159db","ios":"levelo://app?vid=f053ee2f-b0a9-4944-9983-ac7f640159db"},"vehicle_type_id":"4","last_reported":1749938920,"current_range_meters":4400,"station_id":"","pricing_plan_id":"cebpf4jnsgd1na2vs0mg"},{"bike_id":"7f800170-d6cd-4812-b1d2-548c5247ddb3","system_id":"levelo_inurba_marseille","lat":43.30885,"lon":5.39654,"is_reserved":false,"is_disabled":false,"rental_uris":{"android":"levelo://app?vid=7f800170-d6cd-4812-b1d2-548c5247ddb3","ios":"levelo://app?vid=7f800170-d6cd-4812-b1d2-548c5247ddb3"},"vehicle_type_id":"4","last_reported":1749938920,"current_range_meters":4400,"station_id":"ce4bh012rcd13ifvqcv0","pricing_plan_id":"cebpf4jnsgd1na2vs0mg"},{"bike_id":"055e8d04-a266-45bd-b35d-4d43a09c656f","system_id":"levelo_inurba_marseille","lat":43.24175,"lon":5.39725,"is_reserved":false,"is_disabled":false,"rental_uris":{"android":"levelo://app?vid=055e8d04-a266-45bd-b35d-4d43a09c656f","ios":"levelo://app?vid=055e8d04-a266-45bd-b35d-4d43a09c656f"},"vehicle_type_id":"4","last_reported":1749938920,"current_range_meters":4400,"station_id":"ce4bhn12rcd13ifvqgpg","pricing_plan_id":"cebpf4jnsgd1na2vs0mg"},{"bike_id":"f4aa47b6-d1e2-4f6a-b8d8-3f3e607d353b","system_id":"levelo_inurba_marseille","lat":43.30786,"lon":5.37647,"is_reserved":false,"is_disabled":false,"rental_uris":{"android":"levelo://app?vid=f4aa47b6-d1e2-4f6a-b8d8-3f3e607d353b","ios":"levelo://app?vid=f4aa47b6-d1e2-4f6a-b8d8-3f3e607d353b"},"vehicle_type_id":"4","last_reported":1749938920,"current_range_meters":4800,"station_id":"ce4bgv92rcd13ifvqcq0","pricing_plan_id":"cebpf4jnsgd1na2vs0mg"},{"bike_id":"f4671957-0f8a-4a0a-8f9c-e6c969ba90c9","system_id":"levelo_inurba_marseille","lat":43.28157,"lon":5.42636,"is_reserved":false,"is_disabled":false,"rental_uris":{"android":"levelo://app?vid=f4671957-0f8a-4a0a-8f9c-e6c969ba90c9","ios":"levelo://app?vid=f4671957-0f8a-4a0a-8f9c-e6c969ba90c9"},"vehicle_type_id":"4","last_reported":1749938920,"current_range_meters":4800,"station_id":"ce4bhnh2rcd13ifvqgug","pricing_plan_id":"cebpf4jnsgd1na2vs0mg"},{"bike_id":"837510cd-217d-401b-b47f-415fa94bcb05","system_id":"levelo_inurba_marseille","lat":43.29708,"lon":5.36607,"is_reserved":false,"is_disabled":false,"rental_uris":{"android":"levelo://app?vid=837510cd-217d-401b-b47f-415fa94bcb05","ios":"levelo://app?vid=837510cd-217d-401b-b47f-415fa94bcb05"},"vehicle_type_id":"4","last_reported":1749938920,"current_range_meters":6000,"station_id":"ce4bgn12rcd13ifvqbt0","pricing_plan_id":"cebpf4jnsgd1na2vs0mg"},{"bike_id":"421720d0-5433-4f51-a54d-ec454c7fedbc","system_id":"levelo_inurba_marseille","lat":43.26227,"lon":5.4045,"is_reserved":false,"is_disabled":false,"rental_uris":{"android":"levelo://app?vid=421720d0-5433-4f51-a54d-ec454c7fedbc","ios":"levelo://app?vid=421720d0-5433-4f51-a54d-ec454c7fedbc"},"vehicle_type_id":"4","last_reported":1749938920,"current_range_meters":6000,"station_id":"ce4bhmh2rcd13ifvqgmg","pricing_plan_id":"cebpf4jnsgd1na2vs0mg"},{"bike_id":"3ebcb526-9195-4257-ae10-ca7e45e1829a","system_id":"levelo_inurba_marseille","lat":43.23197,"lon":5.39985,"is_reserved":false,"is_disabled":false,"rental_uris":{"android":"levelo://app?vid=3ebcb526-9195-4257-ae10-ca7e45e1829a","ios":"levelo://app?vid=3ebcb526-9195-4257-ae10-ca7e45e1829a"},"vehicle_type_id":"4","last_reported":1749938920,"current_range_meters":6000,"station_id":"ce4bhn12rcd13ifvqgqg","pricing_plan_id":"cebpf4jnsgd1na2vs0mg"},{"bike_id":"c2b612ed-e451-4a90-a158-fd967ad6f1c3","system_id":"levelo_inurba_marseille","lat":43.31883,"lon":5.40737,"is_reserved":false,"is_disabled":false,"rental_uris":{"android":"levelo://app?vid=c2b612ed-e451-4a90-a158-fd967ad6f1c3","ios":"levelo://app?vid=c2b612ed-e451-4a90-a158-fd967ad6f1c3"},"vehicle_type_id":"4","last_reported":1749938920,"current_range_meters":6000,"station_id":"ce4bhq12rcd13ifvqhig","pricing_plan_id":"cebpf4jnsgd1na2vs0mg"},{"bike_id":"2b9dc343-fedb-428e-8b31-834ea4d39765","system_id":"levelo_inurba_marseille","lat":43.31256,"lon":5.36864,"is_reserved":false,"is_disabled":false,"rental_uris":{"android":"levelo://app?vid=2b9dc343-fedb-428e-8b31-834ea4d39765","ios":"levelo://app?vid=2b9dc343-fedb-428e-8b31-834ea4d39765"},"vehicle_type_id":"4","last_reported":1749938920,"current_range_meters":6400,"station_id":"ce4bgl92rcd13ifvqbq0","pricing_plan_id":"cebpf4jnsgd1na2vs0mg"},{"bike_id":"978b574b-60e1-44db-92eb-5d21d612d5d3","system_id":"levelo_inurba_marseille","lat":43.30083,"lon":5.39075,"is_reserved":false,"is_disabled":false,"rental_uris":{"android":"levelo://app?vid=978b574b-60e1-44db-92eb-5d21d612d5d3","ios":"levelo://app?vid=978b574b-60e1-44db-92eb-5d21d612d5d3"},"vehicle_type_id":"4","last_reported":1749938920,"current_range_meters":6400,"station_id":"ce4bh192rcd13ifvqdb0","pricing_plan_id":"cebpf4jnsgd1na2vs0mg"},{"bike_id":"97bb7578-c267-4640-a98d-31ca8e7d75f4","system_id":"levelo_inurba_marseille","lat":43.27177,"lon":5.40989,"is_reserved":false,"is_disabled":false,"rental_uris":{"android":"levelo://app?vid=97bb7578-c267-4640-a98d-31ca8e7d75f4","ios":"levelo://app?vid=97bb7578-c267-4640-a98d-31ca8e7d75f4"},"vehicle_type_id":"4","last_reported":1749938920,"current_range_meters":6400,"station_id":"ce4bhl12rcd13ifvqgf0","pricing_plan_id":"cebpf4jnsgd1na2vs0mg"},{"bike_id":"6d21c11b-dfc1-476f-adae-f1fe3d427b69","system_id":"levelo_inurba_marseille","lat":43.21535,"lon":5.34745,"is_reserved":false,"is_disabled":false,"rental_uris":{"android":"levelo://app?vid=6d21c11b-dfc1-476f-adae-f1fe3d427b69","ios":"levelo://app?vid=6d21c11b-dfc1-476f-adae-f1fe3d427b69"},"vehicle_type_id":"4","last_reported":1749938920,"current_range_meters":6800,"station_id":"","pricing_plan_id":"cebpf4jnsgd1na2vs0mg"},{"bike_id":"8cc8668c-1436-494e-a001-db5c0d0c2292","system_id":"levelo_inurba_marseille","lat":43.266845,"lon":5.382795,"is_reserved":false,"is_disabled":false,"rental_uris":{"android":"levelo://app?vid=8cc8668c-1436-494e-a001-db5c0d0c2292","ios":"levelo://app?vid=8cc8668c-1436-494e-a001-db5c0d0c2292"},"vehicle_type_id":"4","last_reported":1749938920,"current_range_meters":6800,"station_id":"ce4bhg92rcd13ifvqf90","pricing_plan_id":"cebpf4jnsgd1na2vs0mg"},{"bike_id":"33414517-a82b-4dab-8b67-15ae648adaa5","system_id":"levelo_inurba_marseille","lat":43.28438,"lon":5.39207,"is_reserved":false,"is_disabled":false,"rental_uris":{"android":"levelo://app?vid=33414517-a82b-4dab-8b67-15ae648adaa5","ios":"levelo://app?vid=33414517-a82b-4dab-8b67-15ae648adaa5"},"vehicle_type_id":"4","last_reported":1749938920,"current_range_meters":6800,"station_id":"ce4bhoh2rcd13ifvqh5g","pricing_plan_id":"cebpf4jnsgd1na2vs0mg"},{"bike_id":"8412a9e5-495c-4e7e-aee4-97aadcc6e241","system_id":"levelo_inurba_marseille","lat":43.29549,"lon":5.4003,"is_reserved":false,"is_disabled":false,"rental_uris":{"android":"levelo://app?vid=8412a9e5-495c-4e7e-aee4-97aadcc6e241","ios":"levelo://app?vid=8412a9e5-495c-4e7e-aee4-97aadcc6e241"},"vehicle_type_id":"4","last_reported":1749938920,"current_range_meters":7200,"station_id":"","pricing_plan_id":"cebpf4jnsgd1na2vs0mg"},{"bike_id":"fa891472-275d-4b03-a5b4-58ab6515bf63","system_id":"levelo_inurba_marseille","lat":43.29527,"lon":5.38553,"is_reserved":false,"is_disabled":false,"rental_uris":{"android":"levelo://app?vid=fa891472-275d-4b03-a5b4-58ab6515bf63","ios":"levelo://app?vid=fa891472-275d-4b03-a5b4-58ab6515bf63"},"vehicle_type_id":"4","last_reported":1749938920,"current_range_meters":7200,"station_id":"ce4bgih2rcd13ifvqba0","pricing_plan_id":"cebpf4jnsgd1na2vs0mg"},{"bike_id":"b5b6c51a-f858-4bdf-b81d-64b4ddf06013","system_id":"levelo_inurba_marseille","lat":43.30462,"lon":5.37896,"is_reserved":false,"is_disabled":false,"rental_uris":{"android":"levelo://app?vid=b5b6c51a-f858-4bdf-b81d-64b4ddf06013","ios":"levelo://app?vid=b5b6c51a-f858-4bdf-b81d-64b4ddf06013"},"vehicle_type_id":"4","last_reported":1749938920,"current_range_meters":7200,"station_id":"ce4bgup2rcd13ifvqcn0","pricing_plan_id":"cebpf4jnsgd1na2vs0mg"},{"bike_id":"d01b7a03-1602-485d-ad5c-c188f6e24284","system_id":"levelo_inurba_marseille","lat":43.31165,"lon":5.38723,"is_reserved":false,"is_disabled":false,"rental_uris":{"android":"levelo://app?vid=d01b7a03-1602-485d-ad5c-c188f6e24284","ios":"levelo://app?vid=d01b7a03-1602-485d-ad5c-c188f6e24284"},"vehicle_type_id":"4","last_reported":1749938920,"current_range_meters":7200,"station_id":"ce4bgv12rcd13ifvqcp0","pricing_plan_id":"cebpf4jnsgd1na2vs0mg"},{"bike_id":"93224d35-1cfc-45e2-affd-e7375adb8d1c","system_id":"levelo_inurba_marseille","lat":43.29272,"lon":5.40116,"is_reserved":false,"is_disabled":false,"rental_uris":{"android":"levelo://app?vid=93224d35-1cfc-45e2-affd-e7375adb8d1c","ios":"levelo://app?vid=93224d35-1cfc-45e2-affd-e7375adb8d1c"},"vehicle_type_id":"4","last_reported":1749938920,"current_range_meters":7200,"station_id":"ce4bh312rcd13ifvqdk0","pricing_plan_id":"cebpf4jnsgd1na2vs0mg"},{"bike_id":"df912130-3d81-4fd7-80db-86e3c305b1cf","system_id":"levelo_inurba_marseille","lat":43.29069,"lon":5.37163,"is_reserved":false,"is_disabled":false,"rental_uris":{"android":"levelo://app?vid=df912130-3d81-4fd7-80db-86e3c305b1cf","ios":"levelo://app?vid=df912130-3d81-4fd7-80db-86e3c305b1cf"},"vehicle_type_id":"4","last_reported":1749938920,"current_range_meters":7200,"station_id":"ce4bh5p2rcd13ifvqe4g","pricing_plan_id":"cebpf4jnsgd1na2vs0mg"},{"bike_id":"3b9f8c42-7825-42cd-9483-efb23afbb4dd","system_id":"levelo_inurba_marseille","lat":43.25116,"lon":5.40321,"is_reserved":false,"is_disabled":false,"rental_uris":{"android":"levelo://app?vid=3b9f8c42-7825-42cd-9483-efb23afbb4dd","ios":"levelo://app?vid=3b9f8c42-7825-42cd-9483-efb23afbb4dd"},"vehicle_type_id":"4","last_reported":1749938920,"current_range_meters":7200,"station_id":"ce4bhlh2rcd13ifvqgig","pricing_plan_id":"cebpf4jnsgd1na2vs0mg"},{"bike_id":"f353de31-9b5e-40ca-8d8c-c308bc21d938","system_id":"levelo_inurba_marseille","lat":43.26222,"lon":5.40449,"is_reserved":false,"is_disabled":false,"rental_uris":{"android":"levelo://app?vid=f353de31-9b5e-40ca-8d8c-c308bc21d938","ios":"levelo://app?vid=f353de31-9b5e-40ca-8d8c-c308bc21d938"},"vehicle_type_id":"4","last_reported":1749938920,"current_range_meters":7200,"station_id":"ce4bhmh2rcd13ifvqgmg","pricing_plan_id":"cebpf4jnsgd1na2vs0mg"},{"bike_id":"2b49fd3f-1f5a-42a7-a2ea-5c1cc34e1dea","system_id":"levelo_inurba_marseille","lat":43.30249,"lon":5.40073,"is_reserved":false,"is_disabled":false,"rental_uris":{"android":"levelo://app?vid=2b49fd3f-1f5a-42a7-a2ea-5c1cc34e1dea","ios":"levelo://app?vid=2b49fd3f-1f5a-42a7-a2ea-5c1cc34e1dea"},"vehicle_type_id":"4","last_reported":1749938920,"current_range_meters":8000,"station_id":"ce4bgvh2rcd13ifvqcs0","pricing_plan_id":"cebpf4jnsgd1na2vs0mg"},{"bike_id":"72423142-6efa-482d-85ae-e0888be46eaf","system_id":"levelo_inurba_marseille","lat":43.24662,"lon":5.38168,"is_reserved":false,"is_disabled":false,"rental_uris":{"android":"levelo://app?vid=72423142-6efa-482d-85ae-e0888be46eaf","ios":"levelo://app?vid=72423142-6efa-482d-85ae-e0888be46eaf"},"vehicle_type_id":"4","last_reported":1749938920,"current_range_meters":8000,"station_id":"ce4bhih2rcd13ifvqfr0","pricing_plan_id":"cebpf4jnsgd1na2vs0mg"},{"bike_id":"035f19eb-4313-4510-8d67-cf8b8acc8e3f","system_id":"levelo_inurba_marseille","lat":43.26805,"lon":5.40267,"is_reserved":false,"is_disabled":false,"rental_uris":{"android":"levelo://app?vid=035f19eb-4313-4510-8d67-cf8b8acc8e3f","ios":"levelo://app?vid=035f19eb-4313-4510-8d67-cf8b8acc8e3f"},"vehicle_type_id":"4","last_reported":1749938920,"current_range_meters":8000,"station_id":"ce501612rcd8frsf0b60","pricing_plan_id":"cebpf4jnsgd1na2vs0mg"},{"bike_id":"ad4d588a-8ad5-43e5-bdb4-8b8c781d10aa","system_id":"levelo_inurba_marseille","lat":43.28944,"lon":5.36634,"is_reserved":false,"is_disabled":false,"rental_uris":{"android":"levelo://app?vid=ad4d588a-8ad5-43e5-bdb4-8b8c781d10aa","ios":"levelo://app?vid=ad4d588a-8ad5-43e5-bdb4-8b8c781d10aa"},"vehicle_type_id":"4","last_reported":1749938920,"current_range_meters":8400,"station_id":"","pricing_plan_id":"cebpf4jnsgd1na2vs0mg"},{"bike_id":"c30303e8-348d-4017-a32e-68fc44a04228","system_id":"levelo_inurba_marseille","lat":43.24663,"lon":5.38167,"is_reserved":false,"is_disabled":false,"rental_uris":{"android":"levelo://app?vid=c30303e8-348d-4017-a32e-68fc44a04228","ios":"levelo://app?vid=c30303e8-348d-4017-a32e-68fc44a04228"},"vehicle_type_id":"4","last_reported":1749938920,"current_range_meters":8400,"station_id":"ce4bhih2rcd13ifvqfr0","pricing_plan_id":"cebpf4jnsgd1na2vs0mg"},{"bike_id":"ac9daff0-9141-4550-bfcf-52b4a421181e","system_id":"levelo_inurba_marseille","lat":43.32331,"lon":5.4062,"is_reserved":false,"is_disabled":false,"rental_uris":{"android":"levelo://app?vid=ac9daff0-9141-4550-bfcf-52b4a421181e","ios":"levelo://app?vid=ac9daff0-9141-4550-bfcf-52b4a421181e"},"vehicle_type_id":"4","last_reported":1749938920,"current_range_meters":8400,"station_id":"ce4bhq92rcd13ifvqhjg","pricing_plan_id":"cebpf4jnsgd1na2vs0mg"},{"bike_id":"2ab31527-f915-4286-b3a0-0beafd2cdd50","system_id":"levelo_inurba_marseille","lat":43.30005,"lon":5.36994,"is_reserved":false,"is_disabled":false,"rental_uris":{"android":"levelo://app?vid=2ab31527-f915-4286-b3a0-0beafd2cdd50","ios":"levelo://app?vid=2ab31527-f915-4286-b3a0-0beafd2cdd50"},"vehicle_type_id":"4","last_reported":1749938920,"current_range_meters":9200,"station_id":"","pricing_plan_id":"cebpf4jnsgd1na2vs0mg"},{"bike_id":"87c270dc-4fcf-4263-8f57-a07ca944f869","system_id":"levelo_inurba_marseille","lat":43.31246,"lon":5.39503,"is_reserved":false,"is_disabled":false,"rental_uris":{"android":"levelo://app?vid=87c270dc-4fcf-4263-8f57-a07ca944f869","ios":"levelo://app?vid=87c270dc-4fcf-4263-8f57-a07ca944f869"},"vehicle_type_id":"4","last_reported":1749938920,"current_range_meters":9200,"station_id":"","pricing_plan_id":"cebpf4jnsgd1na2vs0mg"},{"bike_id":"f4b4a1a4-5829-4de1-b0db-fec6458cb51c","system_id":"levelo_inurba_marseille","lat":43.29263,"lon":5.38445,"is_reserved":false,"is_disabled":false,"rental_uris":{"android":"levelo://app?vid=f4b4a1a4-5829-4de1-b0db-fec6458cb51c","ios":"levelo://app?vid=f4b4a1a4-5829-4de1-b0db-fec6458cb51c"},"vehicle_type_id":"4","last_reported":1749938920,"current_range_meters":9200,"station_id":"ce4bh692rcd13ifvqea0","pricing_plan_id":"cebpf4jnsgd1na2vs0mg"},{"bike_id":"0a176c0c-78a3-474b-b917-3fc9a4ed2ff7","system_id":"levelo_inurba_marseille","lat":43.25572,"lon":5.38227,"is_reserved":false,"is_disabled":false,"rental_uris":{"android":"levelo://app?vid=0a176c0c-78a3-474b-b917-3fc9a4ed2ff7","ios":"levelo://app?vid=0a176c0c-78a3-474b-b917-3fc9a4ed2ff7"},"vehicle_type_id":"4","last_reported":1749938920,"current_range_meters":9200,"station_id":"ce4bhih2rcd13ifvqfs0","pricing_plan_id":"cebpf4jnsgd1na2vs0mg"},{"bike_id":"21847605-cefb-460f-ade6-20d950314624","system_id":"levelo_inurba_marseille","lat":43.30537,"lon":5.3843,"is_reserved":false,"is_disabled":false,"rental_uris":{"android":"levelo://app?vid=21847605-cefb-460f-ade6-20d950314624","ios":"levelo://app?vid=21847605-cefb-460f-ade6-20d950314624"},"vehicle_type_id":"4","last_reported":1749938920,"current_range_meters":9600,"station_id":"ce4bgg92rcd13ifvqb30","pricing_plan_id":"cebpf4jnsgd1na2vs0mg"},{"bike_id":"3e75c0f7-55f6-484e-b822-346998e7cb02","system_id":"levelo_inurba_marseille","lat":43.29747,"lon":5.37093,"is_reserved":false,"is_disabled":false,"rental_uris":{"android":"levelo://app?vid=3e75c0f7-55f6-484e-b822-346998e7cb02","ios":"levelo://app?vid=3e75c0f7-55f6-484e-b822-346998e7cb02"},"vehicle_type_id":"4","last_reported":1749938920,"current_range_meters":9600,"station_id":"ce4bgop2rcd13ifvqc1g","pricing_plan_id":"cebpf4jnsgd1na2vs0mg"},{"bike_id":"7f3a60c0-0971-4538-9b06-fb77d68a29f7","system_id":"levelo_inurba_marseille","lat":43.29262,"lon":5.40904,"is_reserved":false,"is_disabled":false,"rental_uris":{"android":"levelo://app?vid=7f3a60c0-0971-4538-9b06-fb77d68a29f7","ios":"levelo://app?vid=7f3a60c0-0971-4538-9b06-fb77d68a29f7"},"vehicle_type_id":"4","last_reported":1749938920,"current_range_meters":9600,"station_id":"ce4bh192rcd13ifvqdc0","pricing_plan_id":"cebpf4jnsgd1na2vs0mg"},{"bike_id":"6a73f3c2-c907-48a2-a815-db4561403d38","system_id":"levelo_inurba_marseille","lat":43.29269,"lon":5.38425,"is_reserved":false,"is_disabled":false,"rental_uris":{"android":"levelo://app?vid=6a73f3c2-c907-48a2-a815-db4561403d38","ios":"levelo://app?vid=6a73f3c2-c907-48a2-a815-db4561403d38"},"vehicle_type_id":"4","last_reported":1749938920,"current_range_meters":9600,"station_id":"ce4bh692rcd13ifvqea0","pricing_plan_id":"cebpf4jnsgd1na2vs0mg"},{"bike_id":"69eb094f-12a1-4afd-8e3d-956b497479b8","system_id":"levelo_inurba_marseille","lat":43.25094,"lon":5.40329,"is_reserved":false,"is_disabled":false,"rental_uris":{"android":"levelo://app?vid=69eb094f-12a1-4afd-8e3d-956b497479b8","ios":"levelo://app?vid=69eb094f-12a1-4afd-8e3d-956b497479b8"},"vehicle_type_id":"4","last_reported":1749938920,"current_range_meters":9600,"station_id":"ce4bhlh2rcd13ifvqgig","pricing_plan_id":"cebpf4jnsgd1na2vs0mg"},{"bike_id":"a2f36015-21f2-481d-bdf5-2ff7bc0351b0","system_id":"levelo_inurba_marseille","lat":43.26799,"lon":5.40288,"is_reserved":false,"is_disabled":false,"rental_uris":{"android":"levelo://app?vid=a2f36015-21f2-481d-bdf5-2ff7bc0351b0","ios":"levelo://app?vid=a2f36015-21f2-481d-bdf5-2ff7bc0351b0"},"vehicle_type_id":"4","last_reported":1749938920,"current_range_meters":9600,"station_id":"ce501612rcd8frsf0b60","pricing_plan_id":"cebpf4jnsgd1na2vs0mg"},{"bike_id":"795898a4-1785-4a2d-9b10-ed0f78cd456a","system_id":"levelo_inurba_marseille","lat":43.29244,"lon":5.38453,"is_reserved":false,"is_disabled":false,"rental_uris":{"android":"levelo://app?vid=795898a4-1785-4a2d-9b10-ed0f78cd456a","ios":"levelo://app?vid=795898a4-1785-4a2d-9b10-ed0f78cd456a"},"vehicle_type_id":"4","last_reported":1749938920,"current_range_meters":10000,"station_id":"ce4bh692rcd13ifvqea0","pricing_plan_id":"cebpf4jnsgd1na2vs0mg"},{"bike_id":"573f4d37-3f28-4b28-bbcb-1c080428515a","system_id":"levelo_inurba_marseille","lat":43.29261,"lon":5.3845,"is_reserved":false,"is_disabled":false,"rental_uris":{"android":"levelo://app?vid=573f4d37-3f28-4b28-bbcb-1c080428515a","ios":"levelo://app?vid=573f4d37-3f28-4b28-bbcb-1c080428515a"},"vehicle_type_id":"4","last_reported":1749938920,"current_range_meters":10000,"station_id":"ce4bh692rcd13ifvqea0","pricing_plan_id":"cebpf4jnsgd1na2vs0mg"},{"bike_id":"d4891e73-7cb9-42ca-afbe-0b67f2b610a3","system_id":"levelo_inurba_marseille","lat":43.2619,"lon":5.37449,"is_reserved":false,"is_disabled":false,"rental_uris":{"android":"levelo://app?vid=d4891e73-7cb9-42ca-afbe-0b67f2b610a3","ios":"levelo://app?vid=d4891e73-7cb9-42ca-afbe-0b67f2b610a3"},"vehicle_type_id":"4","last_reported":1749938920,"current_range_meters":10000,"station_id":"ce4bhgp2rcd13ifvqfc0","pricing_plan_id":"cebpf4jnsgd1na2vs0mg"},{"bike_id":"82a1cf45-3f47-47a6-b575-87de361efeb7","system_id":"levelo_inurba_marseille","lat":43.30264,"lon":5.37705,"is_reserved":false,"is_disabled":false,"rental_uris":{"android":"levelo://app?vid=82a1cf45-3f47-47a6-b575-87de361efeb7","ios":"levelo://app?vid=82a1cf45-3f47-47a6-b575-87de361efeb7"},"vehicle_type_id":"4","last_reported":1749938920,"current_range_meters":10800,"station_id":"ce4bguh2rcd13ifvqcj0","pricing_plan_id":"cebpf4jnsgd1na2vs0mg"},{"bike_id":"9ee985ce-f48c-432a-8b2f-49f83f9daab7","system_id":"levelo_inurba_marseille","lat":43.30212,"lon":5.39464,"is_reserved":false,"is_disabled":false,"rental_uris":{"android":"levelo://app?vid=9ee985ce-f48c-432a-8b2f-49f83f9daab7","ios":"levelo://app?vid=9ee985ce-f48c-432a-8b2f-49f83f9daab7"},"vehicle_type_id":"4","last_reported":1749938920,"current_range_meters":10800,"station_id":"ce4bh0p2rcd13ifvqd70","pricing_plan_id":"cebpf4jnsgd1na2vs0mg"},{"bike_id":"14366b26-bc72-4e41-8f17-757feedb0cae","system_id":"levelo_inurba_marseille","lat":43.29092,"lon":5.38148,"is_reserved":false,"is_disabled":false,"rental_uris":{"android":"levelo://app?vid=14366b26-bc72-4e41-8f17-757feedb0cae","ios":"levelo://app?vid=14366b26-bc72-4e41-8f17-757feedb0cae"},"vehicle_type_id":"4","last_reported":1749938920,"current_range_meters":10800,"station_id":"ce4bh512rcd13ifvqe2g","pricing_plan_id":"cebpf4jnsgd1na2vs0mg"},{"bike_id":"a1e3c796-d0ce-44fb-957a-cff5ec21e82d","system_id":"levelo_inurba_marseille","lat":43.29046,"lon":5.37594,"is_reserved":false,"is_disabled":false,"rental_uris":{"android":"levelo://app?vid=a1e3c796-d0ce-44fb-957a-cff5ec21e82d","ios":"levelo://app?vid=a1e3c796-d0ce-44fb-957a-cff5ec21e82d"},"vehicle_type_id":"4","last_reported":1749938920,"current_range_meters":10800,"station_id":"ce4bh692rcd13ifvqe90","pricing_plan_id":"cebpf4jnsgd1na2vs0mg"},{"bike_id":"bbad299f-6560-45a4-a127-f0ca2d416202","system_id":"levelo_inurba_marseille","lat":43.26568,"lon":5.39012,"is_reserved":false,"is_disabled":false,"rental_uris":{"android":"levelo://app?vid=bbad299f-6560-45a4-a127-f0ca2d416202","ios":"levelo://app?vid=bbad299f-6560-45a4-a127-f0ca2d416202"},"vehicle_type_id":"4","last_reported":1749938920,"current_range_meters":10800,"station_id":"ce4bhe12rcd13ifvqf30","pricing_plan_id":"cebpf4jnsgd1na2vs0mg"},{"bike_id":"19ac3b02-8c2c-4fee-918f-3c693852e9fe","system_id":"levelo_inurba_marseille","lat":43.267104,"lon":5.3824,"is_reserved":false,"is_disabled":false,"rental_uris":{"android":"levelo://app?vid=19ac3b02-8c2c-4fee-918f-3c693852e9fe","ios":"levelo://app?vid=19ac3b02-8c2c-4fee-918f-3c693852e9fe"},"vehicle_type_id":"4","last_reported":1749938920,"current_range_meters":10800,"station_id":"ce4bhgp2rcd13ifvqfc0","pricing_plan_id":"cebpf4jnsgd1na2vs0mg"},{"bike_id":"33a5ae76-fedf-41f8-94fe-0f03745d1877","system_id":"levelo_inurba_marseille","lat":43.25544,"lon":5.38247,"is_reserved":false,"is_disabled":false,"rental_uris":{"android":"levelo://app?vid=33a5ae76-fedf-41f8-94fe-0f03745d1877","ios":"levelo://app?vid=33a5ae76-fedf-41f8-94fe-0f03745d1877"},"vehicle_type_id":"4","last_reported":1749938920,"current_range_meters":10800,"station_id":"ce4bhih2rcd13ifvqfs0","pricing_plan_id":"cebpf4jnsgd1na2vs0mg"},{"bike_id":"611f6ca4-7883-40b1-86fd-4773ca6853a3","system_id":"levelo_inurba_marseille","lat":43.25111,"lon":5.40325,"is_reserved":false,"is_disabled":false,"rental_uris":{"android":"levelo://app?vid=611f6ca4-7883-40b1-86fd-4773ca6853a3","ios":"levelo://app?vid=611f6ca4-7883-40b1-86fd-4773ca6853a3"},"vehicle_type_id":"4","last_reported":1749938920,"current_range_meters":10800,"station_id":"ce4bhlh2rcd13ifvqgig","pricing_plan_id":"cebpf4jnsgd1na2vs0mg"},{"bike_id":"2eb2516b-5f9f-4f58-8493-07049b393727","system_id":"levelo_inurba_marseille","lat":43.33721,"lon":5.39189,"is_reserved":false,"is_disabled":false,"rental_uris":{"android":"levelo://app?vid=2eb2516b-5f9f-4f58-8493-07049b393727","ios":"levelo://app?vid=2eb2516b-5f9f-4f58-8493-07049b393727"},"vehicle_type_id":"4","last_reported":1749938920,"current_range_meters":10800,"station_id":"ce4bhr92rcd13ifvqhsg","pricing_plan_id":"cebpf4jnsgd1na2vs0mg"},{"bike_id":"3c172498-ac92-4b3b-aa46-4030d46a5873","system_id":"levelo_inurba_marseille","lat":43.30911,"lon":5.36853,"is_reserved":false,"is_disabled":false,"rental_uris":{"android":"levelo://app?vid=3c172498-ac92-4b3b-aa46-4030d46a5873","ios":"levelo://app?vid=3c172498-ac92-4b3b-aa46-4030d46a5873"},"vehicle_type_id":"4","last_reported":1749938920,"current_range_meters":11200,"station_id":"ce4bgn92rcd13ifvqbvg","pricing_plan_id":"cebpf4jnsgd1na2vs0mg"},{"bike_id":"5573bcde-5770-4925-a762-891e280a65f1","system_id":"levelo_inurba_marseille","lat":43.31504,"lon":5.37278,"is_reserved":false,"is_disabled":false,"rental_uris":{"android":"levelo://app?vid=5573bcde-5770-4925-a762-891e280a65f1","ios":"levelo://app?vid=5573bcde-5770-4925-a762-891e280a65f1"},"vehicle_type_id":"4","last_reported":1749938920,"current_range_meters":11200,"station_id":"ce4bgt12rcd13ifvqcd0","pricing_plan_id":"cebpf4jnsgd1na2vs0mg"},{"bike_id":"51deb36e-cc10-4a7f-8e17-9fd0cb56ac5e","system_id":"levelo_inurba_marseille","lat":43.30785,"lon":5.38147,"is_reserved":false,"is_disabled":false,"rental_uris":{"android":"levelo://app?vid=51deb36e-cc10-4a7f-8e17-9fd0cb56ac5e","ios":"levelo://app?vid=51deb36e-cc10-4a7f-8e17-9fd0cb56ac5e"},"vehicle_type_id":"4","last_reported":1749938920,"current_range_meters":11200,"station_id":"ce4bgt12rcd13ifvqce0","pricing_plan_id":"cebpf4jnsgd1na2vs0mg"},{"bike_id":"d1fb0068-30d5-4a3f-9596-53a378ea0764","system_id":"levelo_inurba_marseille","lat":43.32055,"lon":5.41572,"is_reserved":false,"is_disabled":false,"rental_uris":{"android":"levelo://app?vid=d1fb0068-30d5-4a3f-9596-53a378ea0764","ios":"levelo://app?vid=d1fb0068-30d5-4a3f-9596-53a378ea0764"},"vehicle_type_id":"4","last_reported":1749938920,"current_range_meters":11200,"station_id":"ce4bhq92rcd13ifvqhkg","pricing_plan_id":"cebpf4jnsgd1na2vs0mg"},{"bike_id":"07f373f4-616c-497d-8898-738bc9fb3edf","system_id":"levelo_inurba_marseille","lat":43.26683,"lon":5.38271,"is_reserved":false,"is_disabled":false,"rental_uris":{"android":"levelo://app?vid=07f373f4-616c-497d-8898-738bc9fb3edf","ios":"levelo://app?vid=07f373f4-616c-497d-8898-738bc9fb3edf"},"vehicle_type_id":"4","last_reported":1749938920,"current_range_meters":11600,"station_id":"ce4bhg92rcd13ifvqf90","pricing_plan_id":"cebpf4jnsgd1na2vs0mg"},{"bike_id":"5a21e497-33bb-4066-baf7-e010c7ab35fe","system_id":"levelo_inurba_marseille","lat":43.2407,"lon":5.37753,"is_reserved":false,"is_disabled":false,"rental_uris":{"android":"levelo://app?vid=5a21e497-33bb-4066-baf7-e010c7ab35fe","ios":"levelo://app?vid=5a21e497-33bb-4066-baf7-e010c7ab35fe"},"vehicle_type_id":"4","last_reported":1749938920,"current_range_meters":11600,"station_id":"ce4bhnp2rcd13ifvqgvg","pricing_plan_id":"cebpf4jnsgd1na2vs0mg"},{"bike_id":"507c5d85-77a4-4cbc-a02c-82380c8bfef1","system_id":"levelo_inurba_marseille","lat":43.3111,"lon":5.37769,"is_reserved":false,"is_disabled":false,"rental_uris":{"android":"levelo://app?vid=507c5d85-77a4-4cbc-a02c-82380c8bfef1","ios":"levelo://app?vid=507c5d85-77a4-4cbc-a02c-82380c8bfef1"},"vehicle_type_id":"4","last_reported":1749938920,"current_range_meters":12000,"station_id":"ce4bgt92rcd13ifvqcg0","pricing_plan_id":"cebpf4jnsgd1na2vs0mg"},{"bike_id":"b046de8a-a951-4984-baa7-a9aaac0c304b","system_id":"levelo_inurba_marseille","lat":43.29568,"lon":5.3997,"is_reserved":false,"is_disabled":false,"rental_uris":{"android":"levelo://app?vid=b046de8a-a951-4984-baa7-a9aaac0c304b","ios":"levelo://app?vid=b046de8a-a951-4984-baa7-a9aaac0c304b"},"vehicle_type_id":"4","last_reported":1749938920,"current_range_meters":12000,"station_id":"ce4bh312rcd13ifvqdj0","pricing_plan_id":"cebpf4jnsgd1na2vs0mg"},{"bike_id":"ea625ec6-b745-4aa8-8194-9c73c74d4fed","system_id":"levelo_inurba_marseille","lat":43.25107,"lon":5.40327,"is_reserved":false,"is_disabled":false,"rental_uris":{"android":"levelo://app?vid=ea625ec6-b745-4aa8-8194-9c73c74d4fed","ios":"levelo://app?vid=ea625ec6-b745-4aa8-8194-9c73c74d4fed"},"vehicle_type_id":"4","last_reported":1749938920,"current_range_meters":12000,"station_id":"ce4bhlh2rcd13ifvqgig","pricing_plan_id":"cebpf4jnsgd1na2vs0mg"},{"bike_id":"677a82a8-586b-485b-90fd-63db2bfa0bdd","system_id":"levelo_inurba_marseille","lat":43.31082,"lon":5.42428,"is_reserved":false,"is_disabled":false,"rental_uris":{"android":"levelo://app?vid=677a82a8-586b-485b-90fd-63db2bfa0bdd","ios":"levelo://app?vid=677a82a8-586b-485b-90fd-63db2bfa0bdd"},"vehicle_type_id":"4","last_reported":1749938920,"current_range_meters":12000,"station_id":"ce4bhp92rcd13ifvqhag","pricing_plan_id":"cebpf4jnsgd1na2vs0mg"},{"bike_id":"d2729172-f4bf-4eb8-9964-c217269a3492","system_id":"levelo_inurba_marseille","lat":43.21179,"lon":5.35071,"is_reserved":false,"is_disabled":false,"rental_uris":{"android":"levelo://app?vid=d2729172-f4bf-4eb8-9964-c217269a3492","ios":"levelo://app?vid=d2729172-f4bf-4eb8-9964-c217269a3492"},"vehicle_type_id":"4","last_reported":1749938920,"current_range_meters":12000,"station_id":"st_cvj6sg6p6f1abm77japg","pricing_plan_id":"cebpf4jnsgd1na2vs0mg"},{"bike_id":"dbe1ca70-dcc2-44ca-825e-8088b4f52fb9","system_id":"levelo_inurba_marseille","lat":43.29256,"lon":5.40916,"is_reserved":false,"is_disabled":false,"rental_uris":{"android":"levelo://app?vid=dbe1ca70-dcc2-44ca-825e-8088b4f52fb9","ios":"levelo://app?vid=dbe1ca70-dcc2-44ca-825e-8088b4f52fb9"},"vehicle_type_id":"4","last_reported":1749938920,"current_range_meters":12400,"station_id":"ce4bh192rcd13ifvqdc0","pricing_plan_id":"cebpf4jnsgd1na2vs0mg"},{"bike_id":"6cf880db-3a4e-4a2d-8893-dd03eae829d2","system_id":"levelo_inurba_marseille","lat":43.2293,"lon":5.3538,"is_reserved":false,"is_disabled":false,"rental_uris":{"android":"levelo://app?vid=6cf880db-3a4e-4a2d-8893-dd03eae829d2","ios":"levelo://app?vid=6cf880db-3a4e-4a2d-8893-dd03eae829d2"},"vehicle_type_id":"4","last_reported":1749938920,"current_range_meters":12400,"station_id":"cpo3532slgdg3j2ikp40","pricing_plan_id":"cebpf4jnsgd1na2vs0mg"},{"bike_id":"bd081d41-5eed-4495-82ed-9e27cd112239","system_id":"levelo_inurba_marseille","lat":43.249488,"lon":5.396613,"is_reserved":false,"is_disabled":false,"rental_uris":{"android":"levelo://app?vid=bd081d41-5eed-4495-82ed-9e27cd112239","ios":"levelo://app?vid=bd081d41-5eed-4495-82ed-9e27cd112239"},"vehicle_type_id":"4","last_reported":1749938920,"current_range_meters":12800,"station_id":"","pricing_plan_id":"cebpf4jnsgd1na2vs0mg"},{"bike_id":"df1254ac-0833-4d4e-87e1-bdd09ea2bd36","system_id":"levelo_inurba_marseille","lat":43.2952,"lon":5.38433,"is_reserved":false,"is_disabled":false,"rental_uris":{"android":"levelo://app?vid=df1254ac-0833-4d4e-87e1-bdd09ea2bd36","ios":"levelo://app?vid=df1254ac-0833-4d4e-87e1-bdd09ea2bd36"},"vehicle_type_id":"4","last_reported":1749938920,"current_range_meters":12800,"station_id":"","pricing_plan_id":"cebpf4jnsgd1na2vs0mg"},{"bike_id":"9137e496-b1b2-4e17-af66-a72384857ce9","system_id":"levelo_inurba_marseille","lat":43.28106,"lon":5.37832,"is_reserved":false,"is_disabled":false,"rental_uris":{"android":"levelo://app?vid=9137e496-b1b2-4e17-af66-a72384857ce9","ios":"levelo://app?vid=9137e496-b1b2-4e17-af66-a72384857ce9"},"vehicle_type_id":"4","last_reported":1749938920,"current_range_meters":12800,"station_id":"ce4bha12rcd13ifvqee0","pricing_plan_id":"cebpf4jnsgd1na2vs0mg"},{"bike_id":"3ba53083-f560-4fb5-b3cc-01a71156c6ba","system_id":"levelo_inurba_marseille","lat":43.23185,"lon":5.3555,"is_reserved":false,"is_disabled":false,"rental_uris":{"android":"levelo://app?vid=3ba53083-f560-4fb5-b3cc-01a71156c6ba","ios":"levelo://app?vid=3ba53083-f560-4fb5-b3cc-01a71156c6ba"},"vehicle_type_id":"4","last_reported":1749938920,"current_range_meters":13600,"station_id":"ce4bhu92rcd13ifvqi70","pricing_plan_id":"cebpf4jnsgd1na2vs0mg"},{"bike_id":"0d769d42-4f49-4e52-935e-f91db7a9f9b7","system_id":"levelo_inurba_marseille","lat":43.293,"lon":5.37464,"is_reserved":false,"is_disabled":false,"rental_uris":{"android":"levelo://app?vid=0d769d42-4f49-4e52-935e-f91db7a9f9b7","ios":"levelo://app?vid=0d769d42-4f49-4e52-935e-f91db7a9f9b7"},"vehicle_type_id":"4","last_reported":1749938920,"current_range_meters":14000,"station_id":"ce4bgi12rcd13ifvqb70","pricing_plan_id":"cebpf4jnsgd1na2vs0mg"},{"bike_id":"3f8af03c-e448-4c5d-b081-1c738ca90210","system_id":"levelo_inurba_marseille","lat":43.29529,"lon":5.38548,"is_reserved":false,"is_disabled":false,"rental_uris":{"android":"levelo://app?vid=3f8af03c-e448-4c5d-b081-1c738ca90210","ios":"levelo://app?vid=3f8af03c-e448-4c5d-b081-1c738ca90210"},"vehicle_type_id":"4","last_reported":1749938920,"current_range_meters":14400,"station_id":"ce4bgih2rcd13ifvqba0","pricing_plan_id":"cebpf4jnsgd1na2vs0mg"},{"bike_id":"b3f8d6a0-7082-4c22-9f20-414b32dd61c5","system_id":"levelo_inurba_marseille","lat":43.24993,"lon":5.38941,"is_reserved":false,"is_disabled":false,"rental_uris":{"android":"levelo://app?vid=b3f8d6a0-7082-4c22-9f20-414b32dd61c5","ios":"levelo://app?vid=b3f8d6a0-7082-4c22-9f20-414b32dd61c5"},"vehicle_type_id":"4","last_reported":1749938920,"current_range_meters":14400,"station_id":"ce4bhgp2rcd13ifvqfd0","pricing_plan_id":"cebpf4jnsgd1na2vs0mg"},{"bike_id":"a8283606-6fdf-49b2-991a-62bc6fc9988a","system_id":"levelo_inurba_marseille","lat":43.22511,"lon":5.34758,"is_reserved":false,"is_disabled":false,"rental_uris":{"android":"levelo://app?vid=a8283606-6fdf-49b2-991a-62bc6fc9988a","ios":"levelo://app?vid=a8283606-6fdf-49b2-991a-62bc6fc9988a"},"vehicle_type_id":"4","last_reported":1749938920,"current_range_meters":14400,"station_id":"st_cvj5dfep6f1abm77gieg","pricing_plan_id":"cebpf4jnsgd1na2vs0mg"},{"bike_id":"1b95dd9b-6f52-44a4-af3a-7d6a65e50199","system_id":"levelo_inurba_marseille","lat":43.263991,"lon":5.378473,"is_reserved":false,"is_disabled":false,"rental_uris":{"android":"levelo://app?vid=1b95dd9b-6f52-44a4-af3a-7d6a65e50199","ios":"levelo://app?vid=1b95dd9b-6f52-44a4-af3a-7d6a65e50199"},"vehicle_type_id":"4","last_reported":1749938920,"current_range_meters":14800,"station_id":"ce4bhf92rcd13ifvqf50","pricing_plan_id":"cebpf4jnsgd1na2vs0mg"},{"bike_id":"9ad2a6bf-7a27-4b2d-829c-2ad15ebf22b7","system_id":"levelo_inurba_marseille","lat":43.29517,"lon":5.3904,"is_reserved":false,"is_disabled":false,"rental_uris":{"android":"levelo://app?vid=9ad2a6bf-7a27-4b2d-829c-2ad15ebf22b7","ios":"levelo://app?vid=9ad2a6bf-7a27-4b2d-829c-2ad15ebf22b7"},"vehicle_type_id":"4","last_reported":1749938920,"current_range_meters":15200,"station_id":"ce4bh3p2rcd13ifvqdp0","pricing_plan_id":"cebpf4jnsgd1na2vs0mg"},{"bike_id":"e928255d-0f39-4f6a-a7ee-72584fd843d3","system_id":"levelo_inurba_marseille","lat":43.2812,"lon":5.37844,"is_reserved":false,"is_disabled":false,"rental_uris":{"android":"levelo://app?vid=e928255d-0f39-4f6a-a7ee-72584fd843d3","ios":"levelo://app?vid=e928255d-0f39-4f6a-a7ee-72584fd843d3"},"vehicle_type_id":"4","last_reported":1749938920,"current_range_meters":15200,"station_id":"ce4bha12rcd13ifvqee0","pricing_plan_id":"cebpf4jnsgd1na2vs0mg"},{"bike_id":"dc1e1319-b0f9-4bfb-9dd0-07f4d0186ec2","system_id":"levelo_inurba_marseille","lat":43.2618,"lon":5.40481,"is_reserved":false,"is_disabled":false,"rental_uris":{"android":"levelo://app?vid=dc1e1319-b0f9-4bfb-9dd0-07f4d0186ec2","ios":"levelo://app?vid=dc1e1319-b0f9-4bfb-9dd0-07f4d0186ec2"},"vehicle_type_id":"4","last_reported":1749938920,"current_range_meters":15200,"station_id":"ce4bhmh2rcd13ifvqgmg","pricing_plan_id":"cebpf4jnsgd1na2vs0mg"},{"bike_id":"348bd71d-cf01-40f7-84f9-5813a5820446","system_id":"levelo_inurba_marseille","lat":43.27493,"lon":5.42446,"is_reserved":false,"is_disabled":false,"rental_uris":{"android":"levelo://app?vid=348bd71d-cf01-40f7-84f9-5813a5820446","ios":"levelo://app?vid=348bd71d-cf01-40f7-84f9-5813a5820446"},"vehicle_type_id":"4","last_reported":1749938920,"current_range_meters":15200,"station_id":"ce4bhn92rcd13ifvqgrg","pricing_plan_id":"cebpf4jnsgd1na2vs0mg"},{"bike_id":"999da278-5307-4e03-a984-e6ea40b1e299","system_id":"levelo_inurba_marseille","lat":43.29603,"lon":5.38105,"is_reserved":false,"is_disabled":false,"rental_uris":{"android":"levelo://app?vid=999da278-5307-4e03-a984-e6ea40b1e299","ios":"levelo://app?vid=999da278-5307-4e03-a984-e6ea40b1e299"},"vehicle_type_id":"4","last_reported":1749938920,"current_range_meters":16000,"station_id":"ce4bgl12rcd13ifvqbo0","pricing_plan_id":"cebpf4jnsgd1na2vs0mg"},{"bike_id":"4727f6c8-69a6-45c2-a59b-9e3d22782d99","system_id":"levelo_inurba_marseille","lat":43.28045,"lon":5.36944,"is_reserved":false,"is_disabled":false,"rental_uris":{"android":"levelo://app?vid=4727f6c8-69a6-45c2-a59b-9e3d22782d99","ios":"levelo://app?vid=4727f6c8-69a6-45c2-a59b-9e3d22782d99"},"vehicle_type_id":"4","last_reported":1749938920,"current_range_meters":16000,"station_id":"ce4bha12rcd13ifvqef0","pricing_plan_id":"cebpf4jnsgd1na2vs0mg"},{"bike_id":"488e2241-99f3-4fa4-9211-a3b838c6257f","system_id":"levelo_inurba_marseille","lat":43.2742,"lon":5.39418,"is_reserved":false,"is_disabled":false,"rental_uris":{"android":"levelo://app?vid=488e2241-99f3-4fa4-9211-a3b838c6257f","ios":"levelo://app?vid=488e2241-99f3-4fa4-9211-a3b838c6257f"},"vehicle_type_id":"4","last_reported":1749938920,"current_range_meters":16000,"station_id":"ce4bhdp2rcd13ifvqf20","pricing_plan_id":"cebpf4jnsgd1na2vs0mg"},{"bike_id":"3a95f8e3-09c1-4acd-b275-cd2e9d48d424","system_id":"levelo_inurba_marseille","lat":43.2792,"lon":5.39576,"is_reserved":false,"is_disabled":false,"rental_uris":{"android":"levelo://app?vid=3a95f8e3-09c1-4acd-b275-cd2e9d48d424","ios":"levelo://app?vid=3a95f8e3-09c1-4acd-b275-cd2e9d48d424"},"vehicle_type_id":"4","last_reported":1749938920,"current_range_meters":16000,"station_id":"ce4bhf92rcd13ifvqf40","pricing_plan_id":"cebpf4jnsgd1na2vs0mg"},{"bike_id":"a5ee4afe-a8c2-43ea-a8c6-a0a152038509","system_id":"levelo_inurba_marseille","lat":43.2501,"lon":5.38936,"is_reserved":false,"is_disabled":false,"rental_uris":{"android":"levelo://app?vid=a5ee4afe-a8c2-43ea-a8c6-a0a152038509","ios":"levelo://app?vid=a5ee4afe-a8c2-43ea-a8c6-a0a152038509"},"vehicle_type_id":"4","last_reported":1749938920,"current_range_meters":16000,"station_id":"ce4bhgp2rcd13ifvqfd0","pricing_plan_id":"cebpf4jnsgd1na2vs0mg"},{"bike_id":"0e9f2ad7-b935-4d23-808f-3df7cba7bbd5","system_id":"levelo_inurba_marseille","lat":43.28721,"lon":5.36096,"is_reserved":false,"is_disabled":false,"rental_uris":{"android":"levelo://app?vid=0e9f2ad7-b935-4d23-808f-3df7cba7bbd5","ios":"levelo://app?vid=0e9f2ad7-b935-4d23-808f-3df7cba7bbd5"},"vehicle_type_id":"4","last_reported":1749938920,"current_range_meters":16000,"station_id":"cki0cbj6b192h4jlfktg","pricing_plan_id":"cebpf4jnsgd1na2vs0mg"},{"bike_id":"e5b62466-ff9e-49e2-bd3e-be88bf15cda8","system_id":"levelo_inurba_marseille","lat":43.21167,"lon":5.35086,"is_reserved":false,"is_disabled":false,"rental_uris":{"android":"levelo://app?vid=e5b62466-ff9e-49e2-bd3e-be88bf15cda8","ios":"levelo://app?vid=e5b62466-ff9e-49e2-bd3e-be88bf15cda8"},"vehicle_type_id":"4","last_reported":1749938920,"current_range_meters":16000,"station_id":"st_cvj6sg6p6f1abm77japg","pricing_plan_id":"cebpf4jnsgd1na2vs0mg"},{"bike_id":"5b8d45c9-f511-4754-b2fe-25c3233088c0","system_id":"levelo_inurba_marseille","lat":43.29305,"lon":5.37462,"is_reserved":false,"is_disabled":false,"rental_uris":{"android":"levelo://app?vid=5b8d45c9-f511-4754-b2fe-25c3233088c0","ios":"levelo://app?vid=5b8d45c9-f511-4754-b2fe-25c3233088c0"},"vehicle_type_id":"4","last_reported":1749938920,"current_range_meters":16400,"station_id":"ce4bgi12rcd13ifvqb70","pricing_plan_id":"cebpf4jnsgd1na2vs0mg"},{"bike_id":"7a28d89c-67c1-4ca7-be2c-3182e60dbe17","system_id":"levelo_inurba_marseille","lat":43.26569,"lon":5.39007,"is_reserved":false,"is_disabled":false,"rental_uris":{"android":"levelo://app?vid=7a28d89c-67c1-4ca7-be2c-3182e60dbe17","ios":"levelo://app?vid=7a28d89c-67c1-4ca7-be2c-3182e60dbe17"},"vehicle_type_id":"4","last_reported":1749938920,"current_range_meters":16400,"station_id":"ce4bhe12rcd13ifvqf30","pricing_plan_id":"cebpf4jnsgd1na2vs0mg"},{"bike_id":"529d1f7c-b5c5-40bf-9472-1ac2b9f75ca0","system_id":"levelo_inurba_marseille","lat":43.25001,"lon":5.38945,"is_reserved":false,"is_disabled":false,"rental_uris":{"android":"levelo://app?vid=529d1f7c-b5c5-40bf-9472-1ac2b9f75ca0","ios":"levelo://app?vid=529d1f7c-b5c5-40bf-9472-1ac2b9f75ca0"},"vehicle_type_id":"4","last_reported":1749938920,"current_range_meters":16400,"station_id":"ce4bhgp2rcd13ifvqfd0","pricing_plan_id":"cebpf4jnsgd1na2vs0mg"},{"bike_id":"c5ba29cb-cede-43d7-9de9-185392539853","system_id":"levelo_inurba_marseille","lat":43.26953,"lon":5.38635,"is_reserved":false,"is_disabled":false,"rental_uris":{"android":"levelo://app?vid=c5ba29cb-cede-43d7-9de9-185392539853","ios":"levelo://app?vid=c5ba29cb-cede-43d7-9de9-185392539853"},"vehicle_type_id":"4","last_reported":1749938920,"current_range_meters":16400,"station_id":"ce4bhh92rcd13ifvqfh0","pricing_plan_id":"cebpf4jnsgd1na2vs0mg"},{"bike_id":"4118627c-7df9-462b-a78d-08fa23da8a65","system_id":"levelo_inurba_marseille","lat":43.2756,"lon":5.38413,"is_reserved":false,"is_disabled":false,"rental_uris":{"android":"levelo://app?vid=4118627c-7df9-462b-a78d-08fa23da8a65","ios":"levelo://app?vid=4118627c-7df9-462b-a78d-08fa23da8a65"},"vehicle_type_id":"4","last_reported":1749938920,"current_range_meters":16400,"station_id":"ce4bhh92rcd13ifvqfi0","pricing_plan_id":"cebpf4jnsgd1na2vs0mg"},{"bike_id":"c78d3428-9a54-4158-bcde-576d5f82207f","system_id":"levelo_inurba_marseille","lat":43.26342,"lon":5.3782,"is_reserved":false,"is_disabled":false,"rental_uris":{"android":"levelo://app?vid=c78d3428-9a54-4158-bcde-576d5f82207f","ios":"levelo://app?vid=c78d3428-9a54-4158-bcde-576d5f82207f"},"vehicle_type_id":"4","last_reported":1749938920,"current_range_meters":16400,"station_id":"st_d163nis0mtpqnht9uue0","pricing_plan_id":"cebpf4jnsgd1na2vs0mg"},{"bike_id":"2c7ba036-532a-4552-b7f1-5cd9cc98ab0b","system_id":"levelo_inurba_marseille","lat":43.26372,"lon":5.37816,"is_reserved":false,"is_disabled":false,"rental_uris":{"android":"levelo://app?vid=2c7ba036-532a-4552-b7f1-5cd9cc98ab0b","ios":"levelo://app?vid=2c7ba036-532a-4552-b7f1-5cd9cc98ab0b"},"vehicle_type_id":"4","last_reported":1749938920,"current_range_meters":16400,"station_id":"st_d163nis0mtpqnht9uue0","pricing_plan_id":"cebpf4jnsgd1na2vs0mg"},{"bike_id":"0095d0ae-71e7-429b-be55-ddac7351da71","system_id":"levelo_inurba_marseille","lat":43.29526,"lon":5.3854,"is_reserved":false,"is_disabled":false,"rental_uris":{"android":"levelo://app?vid=0095d0ae-71e7-429b-be55-ddac7351da71","ios":"levelo://app?vid=0095d0ae-71e7-429b-be55-ddac7351da71"},"vehicle_type_id":"4","last_reported":1749938920,"current_range_meters":16800,"station_id":"ce4bgih2rcd13ifvqba0","pricing_plan_id":"cebpf4jnsgd1na2vs0mg"},{"bike_id":"bcf8c37a-3b2c-4b4b-a33b-3ca9193b3a10","system_id":"levelo_inurba_marseille","lat":43.26357,"lon":5.37816,"is_reserved":false,"is_disabled":false,"rental_uris":{"android":"levelo://app?vid=bcf8c37a-3b2c-4b4b-a33b-3ca9193b3a10","ios":"levelo://app?vid=bcf8c37a-3b2c-4b4b-a33b-3ca9193b3a10"},"vehicle_type_id":"4","last_reported":1749938920,"current_range_meters":16800,"station_id":"st_d163nis0mtpqnht9uue0","pricing_plan_id":"cebpf4jnsgd1na2vs0mg"},{"bike_id":"5e7b60df-e8be-4a9e-806b-ffe82e954588","system_id":"levelo_inurba_marseille","lat":43.2636,"lon":5.37815,"is_reserved":false,"is_disabled":false,"rental_uris":{"android":"levelo://app?vid=5e7b60df-e8be-4a9e-806b-ffe82e954588","ios":"levelo://app?vid=5e7b60df-e8be-4a9e-806b-ffe82e954588"},"vehicle_type_id":"4","last_reported":1749938920,"current_range_meters":16800,"station_id":"st_d163nis0mtpqnht9uue0","pricing_plan_id":"cebpf4jnsgd1na2vs0mg"},{"bike_id":"3b98ea2c-81c6-4e60-9a2a-cafb0f3fcdc4","system_id":"levelo_inurba_marseille","lat":43.26342,"lon":5.37809,"is_reserved":false,"is_disabled":false,"rental_uris":{"android":"levelo://app?vid=3b98ea2c-81c6-4e60-9a2a-cafb0f3fcdc4","ios":"levelo://app?vid=3b98ea2c-81c6-4e60-9a2a-cafb0f3fcdc4"},"vehicle_type_id":"4","last_reported":1749938920,"current_range_meters":16800,"station_id":"st_d163nis0mtpqnht9uue0","pricing_plan_id":"cebpf4jnsgd1na2vs0mg"},{"bike_id":"eb1f9d44-bc44-48c8-9994-b8634d2b18ef","system_id":"levelo_inurba_marseille","lat":43.31074,"lon":5.38697,"is_reserved":false,"is_disabled":false,"rental_uris":{"android":"levelo://app?vid=eb1f9d44-bc44-48c8-9994-b8634d2b18ef","ios":"levelo://app?vid=eb1f9d44-bc44-48c8-9994-b8634d2b18ef"},"vehicle_type_id":"4","last_reported":1749938920,"current_range_meters":17200,"station_id":"","pricing_plan_id":"cebpf4jnsgd1na2vs0mg"},{"bike_id":"af54e57f-f161-4317-9bd4-1d43f8702955","system_id":"levelo_inurba_marseille","lat":43.23242,"lon":5.35606,"is_reserved":false,"is_disabled":false,"rental_uris":{"android":"levelo://app?vid=af54e57f-f161-4317-9bd4-1d43f8702955","ios":"levelo://app?vid=af54e57f-f161-4317-9bd4-1d43f8702955"},"vehicle_type_id":"4","last_reported":1749938920,"current_range_meters":17200,"station_id":"","pricing_plan_id":"cebpf4jnsgd1na2vs0mg"},{"bike_id":"2319ce10-a51c-42ad-ad50-827b68e4f300","system_id":"levelo_inurba_marseille","lat":43.29731,"lon":5.38032,"is_reserved":false,"is_disabled":false,"rental_uris":{"android":"levelo://app?vid=2319ce10-a51c-42ad-ad50-827b68e4f300","ios":"levelo://app?vid=2319ce10-a51c-42ad-ad50-827b68e4f300"},"vehicle_type_id":"4","last_reported":1749938920,"current_range_meters":17200,"station_id":"","pricing_plan_id":"cebpf4jnsgd1na2vs0mg"},{"bike_id":"55981eef-8660-4505-8f61-a7ee4d4cc5c3","system_id":"levelo_inurba_marseille","lat":43.295726,"lon":5.385519,"is_reserved":false,"is_disabled":false,"rental_uris":{"android":"levelo://app?vid=55981eef-8660-4505-8f61-a7ee4d4cc5c3","ios":"levelo://app?vid=55981eef-8660-4505-8f61-a7ee4d4cc5c3"},"vehicle_type_id":"4","last_reported":1749938920,"current_range_meters":17200,"station_id":"ce4bgih2rcd13ifvqba0","pricing_plan_id":"cebpf4jnsgd1na2vs0mg"},{"bike_id":"c187a31a-7285-4c18-a676-698185fd1a15","system_id":"levelo_inurba_marseille","lat":43.31236,"lon":5.36847,"is_reserved":false,"is_disabled":false,"rental_uris":{"android":"levelo://app?vid=c187a31a-7285-4c18-a676-698185fd1a15","ios":"levelo://app?vid=c187a31a-7285-4c18-a676-698185fd1a15"},"vehicle_type_id":"4","last_reported":1749938920,"current_range_meters":17200,"station_id":"ce4bgl92rcd13ifvqbq0","pricing_plan_id":"cebpf4jnsgd1na2vs0mg"},{"bike_id":"5f126747-9e3b-4da1-9592-433d72612709","system_id":"levelo_inurba_marseille","lat":43.30796,"lon":5.38156,"is_reserved":false,"is_disabled":false,"rental_uris":{"android":"levelo://app?vid=5f126747-9e3b-4da1-9592-433d72612709","ios":"levelo://app?vid=5f126747-9e3b-4da1-9592-433d72612709"},"vehicle_type_id":"4","last_reported":1749938920,"current_range_meters":17200,"station_id":"ce4bgt12rcd13ifvqce0","pricing_plan_id":"cebpf4jnsgd1na2vs0mg"},{"bike_id":"6a9b7a23-0b3b-4503-b16f-b8e7322c49be","system_id":"levelo_inurba_marseille","lat":43.29316,"lon":5.40129,"is_reserved":false,"is_disabled":false,"rental_uris":{"android":"levelo://app?vid=6a9b7a23-0b3b-4503-b16f-b8e7322c49be","ios":"levelo://app?vid=6a9b7a23-0b3b-4503-b16f-b8e7322c49be"},"vehicle_type_id":"4","last_reported":1749938920,"current_range_meters":17200,"station_id":"ce4bh312rcd13ifvqdk0","pricing_plan_id":"cebpf4jnsgd1na2vs0mg"},{"bike_id":"d9c5d290-497d-4d5e-b775-bfb835c436cb","system_id":"levelo_inurba_marseille","lat":43.27422,"lon":5.39421,"is_reserved":false,"is_disabled":false,"rental_uris":{"android":"levelo://app?vid=d9c5d290-497d-4d5e-b775-bfb835c436cb","ios":"levelo://app?vid=d9c5d290-497d-4d5e-b775-bfb835c436cb"},"vehicle_type_id":"4","last_reported":1749938920,"current_range_meters":17200,"station_id":"ce4bhdp2rcd13ifvqf20","pricing_plan_id":"cebpf4jnsgd1na2vs0mg"},{"bike_id":"9e6d838f-f8e6-4902-8cdd-7c766c7443fa","system_id":"levelo_inurba_marseille","lat":43.25002,"lon":5.38941,"is_reserved":false,"is_disabled":false,"rental_uris":{"android":"levelo://app?vid=9e6d838f-f8e6-4902-8cdd-7c766c7443fa","ios":"levelo://app?vid=9e6d838f-f8e6-4902-8cdd-7c766c7443fa"},"vehicle_type_id":"4","last_reported":1749938920,"current_range_meters":17200,"station_id":"ce4bhgp2rcd13ifvqfd0","pricing_plan_id":"cebpf4jnsgd1na2vs0mg"},{"bike_id":"7022818a-f608-4b8d-9a7d-6957bbd74535","system_id":"levelo_inurba_marseille","lat":43.27827,"lon":5.3921,"is_reserved":false,"is_disabled":false,"rental_uris":{"android":"levelo://app?vid=7022818a-f608-4b8d-9a7d-6957bbd74535","ios":"levelo://app?vid=7022818a-f608-4b8d-9a7d-6957bbd74535"},"vehicle_type_id":"4","last_reported":1749938920,"current_range_meters":17200,"station_id":"ce4bhjp2rcd13ifvqga0","pricing_plan_id":"cebpf4jnsgd1na2vs0mg"},{"bike_id":"3f96fac2-85e8-4f01-be6f-bf8bd1d9101a","system_id":"levelo_inurba_marseille","lat":43.2637,"lon":5.37831,"is_reserved":false,"is_disabled":false,"rental_uris":{"android":"levelo://app?vid=3f96fac2-85e8-4f01-be6f-bf8bd1d9101a","ios":"levelo://app?vid=3f96fac2-85e8-4f01-be6f-bf8bd1d9101a"},"vehicle_type_id":"4","last_reported":1749938920,"current_range_meters":17200,"station_id":"st_d163nis0mtpqnht9uue0","pricing_plan_id":"cebpf4jnsgd1na2vs0mg"},{"bike_id":"0b5f4564-1867-461b-85ee-6882d0d9f1fa","system_id":"levelo_inurba_marseille","lat":43.2635,"lon":5.37832,"is_reserved":false,"is_disabled":false,"rental_uris":{"android":"levelo://app?vid=0b5f4564-1867-461b-85ee-6882d0d9f1fa","ios":"levelo://app?vid=0b5f4564-1867-461b-85ee-6882d0d9f1fa"},"vehicle_type_id":"4","last_reported":1749938920,"current_range_meters":17200,"station_id":"st_d163nis0mtpqnht9uue0","pricing_plan_id":"cebpf4jnsgd1na2vs0mg"},{"bike_id":"d0ebfe61-7cfd-4ed0-925e-a7c041ecd597","system_id":"levelo_inurba_marseille","lat":43.26333,"lon":5.3783,"is_reserved":false,"is_disabled":false,"rental_uris":{"android":"levelo://app?vid=d0ebfe61-7cfd-4ed0-925e-a7c041ecd597","ios":"levelo://app?vid=d0ebfe61-7cfd-4ed0-925e-a7c041ecd597"},"vehicle_type_id":"4","last_reported":1749938920,"current_range_meters":17200,"station_id":"st_d163nis0mtpqnht9uue0","pricing_plan_id":"cebpf4jnsgd1na2vs0mg"},{"bike_id":"83c0c99d-9206-4f6f-8bd2-edceb1772c91","system_id":"levelo_inurba_marseille","lat":43.26708,"lon":5.38208,"is_reserved":false,"is_disabled":false,"rental_uris":{"android":"levelo://app?vid=83c0c99d-9206-4f6f-8bd2-edceb1772c91","ios":"levelo://app?vid=83c0c99d-9206-4f6f-8bd2-edceb1772c91"},"vehicle_type_id":"4","last_reported":1749938920,"current_range_meters":17600,"station_id":"","pricing_plan_id":"cebpf4jnsgd1na2vs0mg"},{"bike_id":"42346a91-a435-4cd2-83d5-e98e4ec35a74","system_id":"levelo_inurba_marseille","lat":43.29524,"lon":5.38545,"is_reserved":false,"is_disabled":false,"rental_uris":{"android":"levelo://app?vid=42346a91-a435-4cd2-83d5-e98e4ec35a74","ios":"levelo://app?vid=42346a91-a435-4cd2-83d5-e98e4ec35a74"},"vehicle_type_id":"4","last_reported":1749938920,"current_range_meters":17600,"station_id":"ce4bgih2rcd13ifvqba0","pricing_plan_id":"cebpf4jnsgd1na2vs0mg"},{"bike_id":"5e5a7597-87fa-419d-b72b-d01b70d3d6df","system_id":"levelo_inurba_marseille","lat":43.27571,"lon":5.38413,"is_reserved":false,"is_disabled":false,"rental_uris":{"android":"levelo://app?vid=5e5a7597-87fa-419d-b72b-d01b70d3d6df","ios":"levelo://app?vid=5e5a7597-87fa-419d-b72b-d01b70d3d6df"},"vehicle_type_id":"4","last_reported":1749938920,"current_range_meters":17600,"station_id":"ce4bhh92rcd13ifvqfi0","pricing_plan_id":"cebpf4jnsgd1na2vs0mg"},{"bike_id":"15ca4f83-8df1-4b73-bad2-b0f1f9fd9e02","system_id":"levelo_inurba_marseille","lat":43.2306,"lon":5.35503,"is_reserved":false,"is_disabled":false,"rental_uris":{"android":"levelo://app?vid=15ca4f83-8df1-4b73-bad2-b0f1f9fd9e02","ios":"levelo://app?vid=15ca4f83-8df1-4b73-bad2-b0f1f9fd9e02"},"vehicle_type_id":"4","last_reported":1749938920,"current_range_meters":17600,"station_id":"cpo3342slgdg3j2ifvpg","pricing_plan_id":"cebpf4jnsgd1na2vs0mg"},{"bike_id":"2526c19e-ecff-490d-8152-01d927713748","system_id":"levelo_inurba_marseille","lat":43.26373,"lon":5.37807,"is_reserved":false,"is_disabled":false,"rental_uris":{"android":"levelo://app?vid=2526c19e-ecff-490d-8152-01d927713748","ios":"levelo://app?vid=2526c19e-ecff-490d-8152-01d927713748"},"vehicle_type_id":"4","last_reported":1749938920,"current_range_meters":17600,"station_id":"st_d163nis0mtpqnht9uue0","pricing_plan_id":"cebpf4jnsgd1na2vs0mg"},{"bike_id":"a6883894-8f8e-47c4-805b-9835904847e6","system_id":"levelo_inurba_marseille","lat":43.26357,"lon":5.37817,"is_reserved":false,"is_disabled":false,"rental_uris":{"android":"levelo://app?vid=a6883894-8f8e-47c4-805b-9835904847e6","ios":"levelo://app?vid=a6883894-8f8e-47c4-805b-9835904847e6"},"vehicle_type_id":"4","last_reported":1749938920,"current_range_meters":17600,"station_id":"st_d163nis0mtpqnht9uue0","pricing_plan_id":"cebpf4jnsgd1na2vs0mg"},{"bike_id":"899fd811-d1bc-4d8d-b268-e01dd9f545bf","system_id":"levelo_inurba_marseille","lat":43.26354,"lon":5.37837,"is_reserved":false,"is_disabled":false,"rental_uris":{"android":"levelo://app?vid=899fd811-d1bc-4d8d-b268-e01dd9f545bf","ios":"levelo://app?vid=899fd811-d1bc-4d8d-b268-e01dd9f545bf"},"vehicle_type_id":"4","last_reported":1749938920,"current_range_meters":17600,"station_id":"st_d163nis0mtpqnht9uue0","pricing_plan_id":"cebpf4jnsgd1na2vs0mg"},{"bike_id":"d8b88c24-8e3c-49d5-ae03-8b3b857c66fe","system_id":"levelo_inurba_marseille","lat":43.308,"lon":5.38156,"is_reserved":false,"is_disabled":false,"rental_uris":{"android":"levelo://app?vid=d8b88c24-8e3c-49d5-ae03-8b3b857c66fe","ios":"levelo://app?vid=d8b88c24-8e3c-49d5-ae03-8b3b857c66fe"},"vehicle_type_id":"4","last_reported":1749938920,"current_range_meters":18000,"station_id":"ce4bgt12rcd13ifvqce0","pricing_plan_id":"cebpf4jnsgd1na2vs0mg"},{"bike_id":"1a0cbbc5-d2e0-4e0c-9020-8d7b7c85c76a","system_id":"levelo_inurba_marseille","lat":43.29513,"lon":5.3941,"is_reserved":false,"is_disabled":false,"rental_uris":{"android":"levelo://app?vid=1a0cbbc5-d2e0-4e0c-9020-8d7b7c85c76a","ios":"levelo://app?vid=1a0cbbc5-d2e0-4e0c-9020-8d7b7c85c76a"},"vehicle_type_id":"4","last_reported":1749938920,"current_range_meters":18000,"station_id":"ce4bh292rcd13ifvqdf0","pricing_plan_id":"cebpf4jnsgd1na2vs0mg"},{"bike_id":"701cc8ec-f624-4ab9-8304-2ce38a3bbbc0","system_id":"levelo_inurba_marseille","lat":43.29259,"lon":5.38455,"is_reserved":false,"is_disabled":false,"rental_uris":{"android":"levelo://app?vid=701cc8ec-f624-4ab9-8304-2ce38a3bbbc0","ios":"levelo://app?vid=701cc8ec-f624-4ab9-8304-2ce38a3bbbc0"},"vehicle_type_id":"4","last_reported":1749938920,"current_range_meters":18000,"station_id":"ce4bh692rcd13ifvqea0","pricing_plan_id":"cebpf4jnsgd1na2vs0mg"},{"bike_id":"cb2cd33c-a3fa-42d7-8089-fa160fb317fd","system_id":"levelo_inurba_marseille","lat":43.24666,"lon":5.38155,"is_reserved":false,"is_disabled":false,"rental_uris":{"android":"levelo://app?vid=cb2cd33c-a3fa-42d7-8089-fa160fb317fd","ios":"levelo://app?vid=cb2cd33c-a3fa-42d7-8089-fa160fb317fd"},"vehicle_type_id":"4","last_reported":1749938920,"current_range_meters":18000,"station_id":"ce4bhih2rcd13ifvqfr0","pricing_plan_id":"cebpf4jnsgd1na2vs0mg"},{"bike_id":"fd04fe71-8e80-4ac3-be6f-ba925fbde37e","system_id":"levelo_inurba_marseille","lat":43.33024,"lon":5.39039,"is_reserved":false,"is_disabled":false,"rental_uris":{"android":"levelo://app?vid=fd04fe71-8e80-4ac3-be6f-ba925fbde37e","ios":"levelo://app?vid=fd04fe71-8e80-4ac3-be6f-ba925fbde37e"},"vehicle_type_id":"4","last_reported":1749938920,"current_range_meters":18000,"station_id":"ce4bhr92rcd13ifvqhrg","pricing_plan_id":"cebpf4jnsgd1na2vs0mg"},{"bike_id":"c544f41c-f54d-4fcd-a8b6-97ab98a672c6","system_id":"levelo_inurba_marseille","lat":43.33029,"lon":5.4273,"is_reserved":false,"is_disabled":false,"rental_uris":{"android":"levelo://app?vid=c544f41c-f54d-4fcd-a8b6-97ab98a672c6","ios":"levelo://app?vid=c544f41c-f54d-4fcd-a8b6-97ab98a672c6"},"vehicle_type_id":"4","last_reported":1749938920,"current_range_meters":18800,"station_id":"","pricing_plan_id":"cebpf4jnsgd1na2vs0mg"},{"bike_id":"00c10fae-1024-476b-b13e-92569e95183a","system_id":"levelo_inurba_marseille","lat":43.30128,"lon":5.38784,"is_reserved":false,"is_disabled":false,"rental_uris":{"android":"levelo://app?vid=00c10fae-1024-476b-b13e-92569e95183a","ios":"levelo://app?vid=00c10fae-1024-476b-b13e-92569e95183a"},"vehicle_type_id":"4","last_reported":1749938920,"current_range_meters":18800,"station_id":"ce4bghh2rcd13ifvqb60","pricing_plan_id":"cebpf4jnsgd1na2vs0mg"},{"bike_id":"a8640db0-fab0-4ce0-aa63-010370d12726","system_id":"levelo_inurba_marseille","lat":43.29633,"lon":5.37666,"is_reserved":false,"is_disabled":false,"rental_uris":{"android":"levelo://app?vid=a8640db0-fab0-4ce0-aa63-010370d12726","ios":"levelo://app?vid=a8640db0-fab0-4ce0-aa63-010370d12726"},"vehicle_type_id":"4","last_reported":1749938920,"current_range_meters":18800,"station_id":"ce4bgi92rcd13ifvqb90","pricing_plan_id":"cebpf4jnsgd1na2vs0mg"},{"bike_id":"2fa5c7cd-5a28-4eba-893b-f7d802f81f36","system_id":"levelo_inurba_marseille","lat":43.2635,"lon":5.3783,"is_reserved":false,"is_disabled":false,"rental_uris":{"android":"levelo://app?vid=2fa5c7cd-5a28-4eba-893b-f7d802f81f36","ios":"levelo://app?vid=2fa5c7cd-5a28-4eba-893b-f7d802f81f36"},"vehicle_type_id":"4","last_reported":1749938920,"current_range_meters":18800,"station_id":"st_d163nis0mtpqnht9uue0","pricing_plan_id":"cebpf4jnsgd1na2vs0mg"},{"bike_id":"871a0b49-9483-4bb4-b0dc-03125b157abb","system_id":"levelo_inurba_marseille","lat":43.263681,"lon":5.378065,"is_reserved":false,"is_disabled":false,"rental_uris":{"android":"levelo://app?vid=871a0b49-9483-4bb4-b0dc-03125b157abb","ios":"levelo://app?vid=871a0b49-9483-4bb4-b0dc-03125b157abb"},"vehicle_type_id":"4","last_reported":1749938920,"current_range_meters":18800,"station_id":"st_d163nis0mtpqnht9uue0","pricing_plan_id":"cebpf4jnsgd1na2vs0mg"},{"bike_id":"e9332ad2-737e-40a4-bbf6-659ec43de235","system_id":"levelo_inurba_marseille","lat":43.26367,"lon":5.37811,"is_reserved":false,"is_disabled":false,"rental_uris":{"android":"levelo://app?vid=e9332ad2-737e-40a4-bbf6-659ec43de235","ios":"levelo://app?vid=e9332ad2-737e-40a4-bbf6-659ec43de235"},"vehicle_type_id":"4","last_reported":1749938920,"current_range_meters":18800,"station_id":"st_d163nis0mtpqnht9uue0","pricing_plan_id":"cebpf4jnsgd1na2vs0mg"},{"bike_id":"1474dbf8-b759-44c7-9714-f058282b340b","system_id":"levelo_inurba_marseille","lat":43.25519,"lon":5.41633,"is_reserved":false,"is_disabled":false,"rental_uris":{"android":"levelo://app?vid=1474dbf8-b759-44c7-9714-f058282b340b","ios":"levelo://app?vid=1474dbf8-b759-44c7-9714-f058282b340b"},"vehicle_type_id":"4","last_reported":1749938920,"current_range_meters":19200,"station_id":"","pricing_plan_id":"cebpf4jnsgd1na2vs0mg"},{"bike_id":"cae08f8a-9511-476d-9ad2-fc5efb61a8eb","system_id":"levelo_inurba_marseille","lat":43.21547,"lon":5.34726,"is_reserved":false,"is_disabled":false,"rental_uris":{"android":"levelo://app?vid=cae08f8a-9511-476d-9ad2-fc5efb61a8eb","ios":"levelo://app?vid=cae08f8a-9511-476d-9ad2-fc5efb61a8eb"},"vehicle_type_id":"4","last_reported":1749938920,"current_range_meters":19200,"station_id":"","pricing_plan_id":"cebpf4jnsgd1na2vs0mg"},{"bike_id":"51c5e4a5-dcff-45b1-b7f9-5daefba3310a","system_id":"levelo_inurba_marseille","lat":43.33559,"lon":5.4109,"is_reserved":false,"is_disabled":false,"rental_uris":{"android":"levelo://app?vid=51c5e4a5-dcff-45b1-b7f9-5daefba3310a","ios":"levelo://app?vid=51c5e4a5-dcff-45b1-b7f9-5daefba3310a"},"vehicle_type_id":"4","last_reported":1749938920,"current_range_meters":19200,"station_id":"","pricing_plan_id":"cebpf4jnsgd1na2vs0mg"},{"bike_id":"2fb8bde0-3041-4420-82f5-d8a3e9394c5c","system_id":"levelo_inurba_marseille","lat":43.285974,"lon":5.384971,"is_reserved":false,"is_disabled":false,"rental_uris":{"android":"levelo://app?vid=2fb8bde0-3041-4420-82f5-d8a3e9394c5c","ios":"levelo://app?vid=2fb8bde0-3041-4420-82f5-d8a3e9394c5c"},"vehicle_type_id":"4","last_reported":1749938920,"current_range_meters":19200,"station_id":"ce4bhf92rcd13ifvqf40","pricing_plan_id":"cebpf4jnsgd1na2vs0mg"},{"bike_id":"4797f275-2102-4ac8-863e-ba36ff09d955","system_id":"levelo_inurba_marseille","lat":43.26363,"lon":5.3782,"is_reserved":false,"is_disabled":false,"rental_uris":{"android":"levelo://app?vid=4797f275-2102-4ac8-863e-ba36ff09d955","ios":"levelo://app?vid=4797f275-2102-4ac8-863e-ba36ff09d955"},"vehicle_type_id":"4","last_reported":1749938920,"current_range_meters":19200,"station_id":"st_d163nis0mtpqnht9uue0","pricing_plan_id":"cebpf4jnsgd1na2vs0mg"},{"bike_id":"87d71910-6ae7-460a-8db8-9358c5da58f8","system_id":"levelo_inurba_marseille","lat":43.273777,"lon":5.362576,"is_reserved":false,"is_disabled":false,"rental_uris":{"android":"levelo://app?vid=87d71910-6ae7-460a-8db8-9358c5da58f8","ios":"levelo://app?vid=87d71910-6ae7-460a-8db8-9358c5da58f8"},"vehicle_type_id":"4","last_reported":1749938920,"current_range_meters":19600,"station_id":"","pricing_plan_id":"cebpf4jnsgd1na2vs0mg"},{"bike_id":"877ec881-e120-45bd-8e7d-bf2b52475d78","system_id":"levelo_inurba_marseille","lat":43.2767,"lon":5.35733,"is_reserved":false,"is_disabled":false,"rental_uris":{"android":"levelo://app?vid=877ec881-e120-45bd-8e7d-bf2b52475d78","ios":"levelo://app?vid=877ec881-e120-45bd-8e7d-bf2b52475d78"},"vehicle_type_id":"4","last_reported":1749938920,"current_range_meters":19600,"station_id":"","pricing_plan_id":"cebpf4jnsgd1na2vs0mg"},{"bike_id":"38e08ec6-738b-4a04-a092-dec10c6891d3","system_id":"levelo_inurba_marseille","lat":43.26881,"lon":5.40721,"is_reserved":false,"is_disabled":false,"rental_uris":{"android":"levelo://app?vid=38e08ec6-738b-4a04-a092-dec10c6891d3","ios":"levelo://app?vid=38e08ec6-738b-4a04-a092-dec10c6891d3"},"vehicle_type_id":"4","last_reported":1749938920,"current_range_meters":19600,"station_id":"","pricing_plan_id":"cebpf4jnsgd1na2vs0mg"},{"bike_id":"c92619e9-9f05-45dc-b624-7adfd6b5f0d8","system_id":"levelo_inurba_marseille","lat":43.265693,"lon":5.389988,"is_reserved":false,"is_disabled":false,"rental_uris":{"android":"levelo://app?vid=c92619e9-9f05-45dc-b624-7adfd6b5f0d8","ios":"levelo://app?vid=c92619e9-9f05-45dc-b624-7adfd6b5f0d8"},"vehicle_type_id":"4","last_reported":1749938920,"current_range_meters":19600,"station_id":"ce4bhe12rcd13ifvqf30","pricing_plan_id":"cebpf4jnsgd1na2vs0mg"},{"bike_id":"c4991758-f840-4623-bc3b-f162af640fda","system_id":"levelo_inurba_marseille","lat":43.26409,"lon":5.37802,"is_reserved":false,"is_disabled":false,"rental_uris":{"android":"levelo://app?vid=c4991758-f840-4623-bc3b-f162af640fda","ios":"levelo://app?vid=c4991758-f840-4623-bc3b-f162af640fda"},"vehicle_type_id":"4","last_reported":1749938920,"current_range_meters":19600,"station_id":"st_d163nis0mtpqnht9uue0","pricing_plan_id":"cebpf4jnsgd1na2vs0mg"},{"bike_id":"4c237efd-f329-4afe-9c30-3627d354acf4","system_id":"levelo_inurba_marseille","lat":43.2634,"lon":5.37819,"is_reserved":false,"is_disabled":false,"rental_uris":{"android":"levelo://app?vid=4c237efd-f329-4afe-9c30-3627d354acf4","ios":"levelo://app?vid=4c237efd-f329-4afe-9c30-3627d354acf4"},"vehicle_type_id":"4","last_reported":1749938920,"current_range_meters":19600,"station_id":"st_d163nis0mtpqnht9uue0","pricing_plan_id":"cebpf4jnsgd1na2vs0mg"},{"bike_id":"826f0ca3-e5fc-4cf8-8696-cb1fe62172b3","system_id":"levelo_inurba_marseille","lat":43.211934,"lon":5.350785,"is_reserved":false,"is_disabled":false,"rental_uris":{"android":"levelo://app?vid=826f0ca3-e5fc-4cf8-8696-cb1fe62172b3","ios":"levelo://app?vid=826f0ca3-e5fc-4cf8-8696-cb1fe62172b3"},"vehicle_type_id":"4","last_reported":1749938920,"current_range_meters":20000,"station_id":"","pricing_plan_id":"cebpf4jnsgd1na2vs0mg"},{"bike_id":"fbf82225-df77-48c8-86a4-9259e107af25","system_id":"levelo_inurba_marseille","lat":43.29533,"lon":5.38537,"is_reserved":false,"is_disabled":false,"rental_uris":{"android":"levelo://app?vid=fbf82225-df77-48c8-86a4-9259e107af25","ios":"levelo://app?vid=fbf82225-df77-48c8-86a4-9259e107af25"},"vehicle_type_id":"4","last_reported":1749938920,"current_range_meters":20000,"station_id":"ce4bgih2rcd13ifvqba0","pricing_plan_id":"cebpf4jnsgd1na2vs0mg"},{"bike_id":"bc855b35-57c6-4197-82c4-1fc1caaa0a4d","system_id":"levelo_inurba_marseille","lat":43.29522,"lon":5.38562,"is_reserved":false,"is_disabled":false,"rental_uris":{"android":"levelo://app?vid=bc855b35-57c6-4197-82c4-1fc1caaa0a4d","ios":"levelo://app?vid=bc855b35-57c6-4197-82c4-1fc1caaa0a4d"},"vehicle_type_id":"4","last_reported":1749938920,"current_range_meters":20000,"station_id":"ce4bgih2rcd13ifvqba0","pricing_plan_id":"cebpf4jnsgd1na2vs0mg"},{"bike_id":"53a86ae2-c919-42cc-8246-4fc480182754","system_id":"levelo_inurba_marseille","lat":43.31687,"lon":5.40477,"is_reserved":false,"is_disabled":false,"rental_uris":{"android":"levelo://app?vid=53a86ae2-c919-42cc-8246-4fc480182754","ios":"levelo://app?vid=53a86ae2-c919-42cc-8246-4fc480182754"},"vehicle_type_id":"4","last_reported":1749938920,"current_range_meters":20000,"station_id":"ce4bh012rcd13ifvqd00","pricing_plan_id":"cebpf4jnsgd1na2vs0mg"},{"bike_id":"946d8063-65db-4c86-be27-9446917bb857","system_id":"levelo_inurba_marseille","lat":43.29888,"lon":5.38898,"is_reserved":false,"is_disabled":false,"rental_uris":{"android":"levelo://app?vid=946d8063-65db-4c86-be27-9446917bb857","ios":"levelo://app?vid=946d8063-65db-4c86-be27-9446917bb857"},"vehicle_type_id":"4","last_reported":1749938920,"current_range_meters":20000,"station_id":"ce4bh392rcd13ifvqdl0","pricing_plan_id":"cebpf4jnsgd1na2vs0mg"},{"bike_id":"44932c63-02fe-4c60-9aa1-ae85a6add26e","system_id":"levelo_inurba_marseille","lat":43.29522,"lon":5.39037,"is_reserved":false,"is_disabled":false,"rental_uris":{"android":"levelo://app?vid=44932c63-02fe-4c60-9aa1-ae85a6add26e","ios":"levelo://app?vid=44932c63-02fe-4c60-9aa1-ae85a6add26e"},"vehicle_type_id":"4","last_reported":1749938920,"current_range_meters":20000,"station_id":"ce4bh3p2rcd13ifvqdp0","pricing_plan_id":"cebpf4jnsgd1na2vs0mg"},{"bike_id":"86b9d729-d0a1-4afb-83ad-3eacec7c5d0d","system_id":"levelo_inurba_marseille","lat":43.25012,"lon":5.38943,"is_reserved":false,"is_disabled":false,"rental_uris":{"android":"levelo://app?vid=86b9d729-d0a1-4afb-83ad-3eacec7c5d0d","ios":"levelo://app?vid=86b9d729-d0a1-4afb-83ad-3eacec7c5d0d"},"vehicle_type_id":"4","last_reported":1749938920,"current_range_meters":20000,"station_id":"ce4bhgp2rcd13ifvqfd0","pricing_plan_id":"cebpf4jnsgd1na2vs0mg"},{"bike_id":"b93d9883-370a-4e98-b347-8ce7b0ca3649","system_id":"levelo_inurba_marseille","lat":43.25839,"lon":5.39414,"is_reserved":false,"is_disabled":false,"rental_uris":{"android":"levelo://app?vid=b93d9883-370a-4e98-b347-8ce7b0ca3649","ios":"levelo://app?vid=b93d9883-370a-4e98-b347-8ce7b0ca3649"},"vehicle_type_id":"4","last_reported":1749938920,"current_range_meters":20000,"station_id":"ce4bhip2rcd13ifvqft0","pricing_plan_id":"cebpf4jnsgd1na2vs0mg"},{"bike_id":"b4e27918-a6e3-4cc7-bd63-f9eabe2fb131","system_id":"levelo_inurba_marseille","lat":43.26358,"lon":5.37823,"is_reserved":false,"is_disabled":false,"rental_uris":{"android":"levelo://app?vid=b4e27918-a6e3-4cc7-bd63-f9eabe2fb131","ios":"levelo://app?vid=b4e27918-a6e3-4cc7-bd63-f9eabe2fb131"},"vehicle_type_id":"4","last_reported":1749938920,"current_range_meters":20000,"station_id":"st_d163nis0mtpqnht9uue0","pricing_plan_id":"cebpf4jnsgd1na2vs0mg"},{"bike_id":"32ff7e8f-be3b-497e-9e8f-337d799b73fd","system_id":"levelo_inurba_marseille","lat":43.26381,"lon":5.37808,"is_reserved":false,"is_disabled":false,"rental_uris":{"android":"levelo://app?vid=32ff7e8f-be3b-497e-9e8f-337d799b73fd","ios":"levelo://app?vid=32ff7e8f-be3b-497e-9e8f-337d799b73fd"},"vehicle_type_id":"4","last_reported":1749938920,"current_range_meters":20000,"station_id":"st_d163nis0mtpqnht9uue0","pricing_plan_id":"cebpf4jnsgd1na2vs0mg"},{"bike_id":"2bfeee34-b482-4cc6-88f4-98bfdfb9eb25","system_id":"levelo_inurba_marseille","lat":43.29304,"lon":5.37464,"is_reserved":false,"is_disabled":false,"rental_uris":{"android":"levelo://app?vid=2bfeee34-b482-4cc6-88f4-98bfdfb9eb25","ios":"levelo://app?vid=2bfeee34-b482-4cc6-88f4-98bfdfb9eb25"},"vehicle_type_id":"4","last_reported":1749938920,"current_range_meters":20400,"station_id":"ce4bgi12rcd13ifvqb70","pricing_plan_id":"cebpf4jnsgd1na2vs0mg"},{"bike_id":"bb838d5f-d54e-4251-a06a-5942a32661a8","system_id":"levelo_inurba_marseille","lat":43.29707,"lon":5.36616,"is_reserved":false,"is_disabled":false,"rental_uris":{"android":"levelo://app?vid=bb838d5f-d54e-4251-a06a-5942a32661a8","ios":"levelo://app?vid=bb838d5f-d54e-4251-a06a-5942a32661a8"},"vehicle_type_id":"4","last_reported":1749938920,"current_range_meters":20400,"station_id":"ce4bgn12rcd13ifvqbt0","pricing_plan_id":"cebpf4jnsgd1na2vs0mg"},{"bike_id":"9e083605-49ae-4934-8e58-9726e7a2a9cb","system_id":"levelo_inurba_marseille","lat":43.31061,"lon":5.38352,"is_reserved":false,"is_disabled":false,"rental_uris":{"android":"levelo://app?vid=9e083605-49ae-4934-8e58-9726e7a2a9cb","ios":"levelo://app?vid=9e083605-49ae-4934-8e58-9726e7a2a9cb"},"vehicle_type_id":"4","last_reported":1749938920,"current_range_meters":20400,"station_id":"ce4bgv92rcd13ifvqcr0","pricing_plan_id":"cebpf4jnsgd1na2vs0mg"},{"bike_id":"1090aba0-b7e6-4891-b4a7-1009bd79f7b5","system_id":"levelo_inurba_marseille","lat":43.30259,"lon":5.40078,"is_reserved":false,"is_disabled":false,"rental_uris":{"android":"levelo://app?vid=1090aba0-b7e6-4891-b4a7-1009bd79f7b5","ios":"levelo://app?vid=1090aba0-b7e6-4891-b4a7-1009bd79f7b5"},"vehicle_type_id":"4","last_reported":1749938920,"current_range_meters":20400,"station_id":"ce4bgvh2rcd13ifvqcs0","pricing_plan_id":"cebpf4jnsgd1na2vs0mg"},{"bike_id":"cd598f39-d131-4037-916d-3f143c62ff7c","system_id":"levelo_inurba_marseille","lat":43.30421,"lon":5.39748,"is_reserved":false,"is_disabled":false,"rental_uris":{"android":"levelo://app?vid=cd598f39-d131-4037-916d-3f143c62ff7c","ios":"levelo://app?vid=cd598f39-d131-4037-916d-3f143c62ff7c"},"vehicle_type_id":"4","last_reported":1749938920,"current_range_meters":20400,"station_id":"ce4bh092rcd13ifvqd20","pricing_plan_id":"cebpf4jnsgd1na2vs0mg"},{"bike_id":"8d0837f5-8ec6-4bb9-9f6f-46514fb8222b","system_id":"levelo_inurba_marseille","lat":43.30086,"lon":5.39084,"is_reserved":false,"is_disabled":false,"rental_uris":{"android":"levelo://app?vid=8d0837f5-8ec6-4bb9-9f6f-46514fb8222b","ios":"levelo://app?vid=8d0837f5-8ec6-4bb9-9f6f-46514fb8222b"},"vehicle_type_id":"4","last_reported":1749938920,"current_range_meters":20400,"station_id":"ce4bh192rcd13ifvqdb0","pricing_plan_id":"cebpf4jnsgd1na2vs0mg"},{"bike_id":"96f74da1-db9d-46a8-93dd-eb9c3138ed34","system_id":"levelo_inurba_marseille","lat":43.26683,"lon":5.38265,"is_reserved":false,"is_disabled":false,"rental_uris":{"android":"levelo://app?vid=96f74da1-db9d-46a8-93dd-eb9c3138ed34","ios":"levelo://app?vid=96f74da1-db9d-46a8-93dd-eb9c3138ed34"},"vehicle_type_id":"4","last_reported":1749938920,"current_range_meters":20400,"station_id":"ce4bhg92rcd13ifvqf90","pricing_plan_id":"cebpf4jnsgd1na2vs0mg"},{"bike_id":"59419b6a-ecab-442f-980b-148c1233c47d","system_id":"levelo_inurba_marseille","lat":43.25572,"lon":5.38243,"is_reserved":false,"is_disabled":false,"rental_uris":{"android":"levelo://app?vid=59419b6a-ecab-442f-980b-148c1233c47d","ios":"levelo://app?vid=59419b6a-ecab-442f-980b-148c1233c47d"},"vehicle_type_id":"4","last_reported":1749938920,"current_range_meters":20400,"station_id":"ce4bhih2rcd13ifvqfs0","pricing_plan_id":"cebpf4jnsgd1na2vs0mg"},{"bike_id":"3933ce2c-8ebd-4740-a391-acd15afd5a8b","system_id":"levelo_inurba_marseille","lat":43.27838,"lon":5.39221,"is_reserved":false,"is_disabled":false,"rental_uris":{"android":"levelo://app?vid=3933ce2c-8ebd-4740-a391-acd15afd5a8b","ios":"levelo://app?vid=3933ce2c-8ebd-4740-a391-acd15afd5a8b"},"vehicle_type_id":"4","last_reported":1749938920,"current_range_meters":20400,"station_id":"ce4bhjp2rcd13ifvqga0","pricing_plan_id":"cebpf4jnsgd1na2vs0mg"},{"bike_id":"47502d71-3710-4cf6-b78c-5363480a124a","system_id":"levelo_inurba_marseille","lat":43.26375,"lon":5.37819,"is_reserved":false,"is_disabled":false,"rental_uris":{"android":"levelo://app?vid=47502d71-3710-4cf6-b78c-5363480a124a","ios":"levelo://app?vid=47502d71-3710-4cf6-b78c-5363480a124a"},"vehicle_type_id":"4","last_reported":1749938920,"current_range_meters":20400,"station_id":"st_d163nis0mtpqnht9uue0","pricing_plan_id":"cebpf4jnsgd1na2vs0mg"},{"bike_id":"f4960cb7-92f3-48e4-a1cc-a2b8a605a4b3","system_id":"levelo_inurba_marseille","lat":43.3377,"lon":5.37444,"is_reserved":false,"is_disabled":false,"rental_uris":{"android":"levelo://app?vid=f4960cb7-92f3-48e4-a1cc-a2b8a605a4b3","ios":"levelo://app?vid=f4960cb7-92f3-48e4-a1cc-a2b8a605a4b3"},"vehicle_type_id":"4","last_reported":1749938920,"current_range_meters":20800,"station_id":"","pricing_plan_id":"cebpf4jnsgd1na2vs0mg"},{"bike_id":"396a1cae-8009-4251-974c-a35b875f0c32","system_id":"levelo_inurba_marseille","lat":43.27071,"lon":5.42277,"is_reserved":false,"is_disabled":false,"rental_uris":{"android":"levelo://app?vid=396a1cae-8009-4251-974c-a35b875f0c32","ios":"levelo://app?vid=396a1cae-8009-4251-974c-a35b875f0c32"},"vehicle_type_id":"4","last_reported":1749938920,"current_range_meters":20800,"station_id":"ce4bhk92rcd13ifvqgb0","pricing_plan_id":"cebpf4jnsgd1na2vs0mg"},{"bike_id":"f61a9fb3-cffe-4510-a787-9632d96ff6c2","system_id":"levelo_inurba_marseille","lat":43.27174,"lon":5.40996,"is_reserved":false,"is_disabled":false,"rental_uris":{"android":"levelo://app?vid=f61a9fb3-cffe-4510-a787-9632d96ff6c2","ios":"levelo://app?vid=f61a9fb3-cffe-4510-a787-9632d96ff6c2"},"vehicle_type_id":"4","last_reported":1749938920,"current_range_meters":20800,"station_id":"ce4bhl12rcd13ifvqgf0","pricing_plan_id":"cebpf4jnsgd1na2vs0mg"},{"bike_id":"4b57ef6f-427e-4435-8f8b-8fdd243759a4","system_id":"levelo_inurba_marseille","lat":43.23177,"lon":5.39987,"is_reserved":false,"is_disabled":false,"rental_uris":{"android":"levelo://app?vid=4b57ef6f-427e-4435-8f8b-8fdd243759a4","ios":"levelo://app?vid=4b57ef6f-427e-4435-8f8b-8fdd243759a4"},"vehicle_type_id":"4","last_reported":1749938920,"current_range_meters":20800,"station_id":"ce4bhn12rcd13ifvqgqg","pricing_plan_id":"cebpf4jnsgd1na2vs0mg"},{"bike_id":"c3c15d93-941c-455b-8ed1-4d8bc79e8387","system_id":"levelo_inurba_marseille","lat":43.29896,"lon":5.43667,"is_reserved":false,"is_disabled":false,"rental_uris":{"android":"levelo://app?vid=c3c15d93-941c-455b-8ed1-4d8bc79e8387","ios":"levelo://app?vid=c3c15d93-941c-455b-8ed1-4d8bc79e8387"},"vehicle_type_id":"4","last_reported":1749938920,"current_range_meters":20800,"station_id":"ce4bhpp2rcd13ifvqhfg","pricing_plan_id":"cebpf4jnsgd1na2vs0mg"},{"bike_id":"43e5c7cb-8811-4aaf-8f04-417b6ac140e5","system_id":"levelo_inurba_marseille","lat":43.33609,"lon":5.41033,"is_reserved":false,"is_disabled":false,"rental_uris":{"android":"levelo://app?vid=43e5c7cb-8811-4aaf-8f04-417b6ac140e5","ios":"levelo://app?vid=43e5c7cb-8811-4aaf-8f04-417b6ac140e5"},"vehicle_type_id":"4","last_reported":1749938920,"current_range_meters":20800,"station_id":"ce4bhqh2rcd13ifvqhmg","pricing_plan_id":"cebpf4jnsgd1na2vs0mg"},{"bike_id":"23ad5723-bf76-49b6-90f8-27a803335152","system_id":"levelo_inurba_marseille","lat":43.26309,"lon":5.37849,"is_reserved":false,"is_disabled":false,"rental_uris":{"android":"levelo://app?vid=23ad5723-bf76-49b6-90f8-27a803335152","ios":"levelo://app?vid=23ad5723-bf76-49b6-90f8-27a803335152"},"vehicle_type_id":"4","last_reported":1749938920,"current_range_meters":21600,"station_id":"","pricing_plan_id":"cebpf4jnsgd1na2vs0mg"},{"bike_id":"21f90b8e-3bf5-494e-beda-aec10064f41b","system_id":"levelo_inurba_marseille","lat":43.30429,"lon":5.38893,"is_reserved":false,"is_disabled":false,"rental_uris":{"android":"levelo://app?vid=21f90b8e-3bf5-494e-beda-aec10064f41b","ios":"levelo://app?vid=21f90b8e-3bf5-494e-beda-aec10064f41b"},"vehicle_type_id":"4","last_reported":1749938920,"current_range_meters":21600,"station_id":"ce4bgk12rcd13ifvqbi0","pricing_plan_id":"cebpf4jnsgd1na2vs0mg"},{"bike_id":"bc433635-f0b9-49b1-8c8a-518bb6ec31c9","system_id":"levelo_inurba_marseille","lat":43.3107,"lon":5.38364,"is_reserved":false,"is_disabled":false,"rental_uris":{"android":"levelo://app?vid=bc433635-f0b9-49b1-8c8a-518bb6ec31c9","ios":"levelo://app?vid=bc433635-f0b9-49b1-8c8a-518bb6ec31c9"},"vehicle_type_id":"4","last_reported":1749938920,"current_range_meters":21600,"station_id":"ce4bgv92rcd13ifvqcr0","pricing_plan_id":"cebpf4jnsgd1na2vs0mg"},{"bike_id":"b42b9d95-2fdb-47a3-9ae1-45a1f3f1e97f","system_id":"levelo_inurba_marseille","lat":43.211921,"lon":5.350724,"is_reserved":false,"is_disabled":false,"rental_uris":{"android":"levelo://app?vid=b42b9d95-2fdb-47a3-9ae1-45a1f3f1e97f","ios":"levelo://app?vid=b42b9d95-2fdb-47a3-9ae1-45a1f3f1e97f"},"vehicle_type_id":"4","last_reported":1749938920,"current_range_meters":21600,"station_id":"st_cvj6sg6p6f1abm77japg","pricing_plan_id":"cebpf4jnsgd1na2vs0mg"},{"bike_id":"72d0614c-32d0-4aab-a719-2ad1e2cb4d85","system_id":"levelo_inurba_marseille","lat":43.26348,"lon":5.3782,"is_reserved":false,"is_disabled":false,"rental_uris":{"android":"levelo://app?vid=72d0614c-32d0-4aab-a719-2ad1e2cb4d85","ios":"levelo://app?vid=72d0614c-32d0-4aab-a719-2ad1e2cb4d85"},"vehicle_type_id":"4","last_reported":1749938920,"current_range_meters":21600,"station_id":"st_d163nis0mtpqnht9uue0","pricing_plan_id":"cebpf4jnsgd1na2vs0mg"},{"bike_id":"7aedb84b-9ef9-4167-a4d5-21314131e5ad","system_id":"levelo_inurba_marseille","lat":43.28403,"lon":5.36041,"is_reserved":false,"is_disabled":false,"rental_uris":{"android":"levelo://app?vid=7aedb84b-9ef9-4167-a4d5-21314131e5ad","ios":"levelo://app?vid=7aedb84b-9ef9-4167-a4d5-21314131e5ad"},"vehicle_type_id":"4","last_reported":1749938920,"current_range_meters":22000,"station_id":"","pricing_plan_id":"cebpf4jnsgd1na2vs0mg"},{"bike_id":"511fbfc4-0516-4433-a184-ca19c952bdc1","system_id":"levelo_inurba_marseille","lat":43.28099,"lon":5.37836,"is_reserved":false,"is_disabled":false,"rental_uris":{"android":"levelo://app?vid=511fbfc4-0516-4433-a184-ca19c952bdc1","ios":"levelo://app?vid=511fbfc4-0516-4433-a184-ca19c952bdc1"},"vehicle_type_id":"4","last_reported":1749938920,"current_range_meters":22000,"station_id":"ce4bha12rcd13ifvqee0","pricing_plan_id":"cebpf4jnsgd1na2vs0mg"},{"bike_id":"5e4ec61b-ef18-4837-8325-2c3164cd4fa0","system_id":"levelo_inurba_marseille","lat":43.30403,"lon":5.41293,"is_reserved":false,"is_disabled":false,"rental_uris":{"android":"levelo://app?vid=5e4ec61b-ef18-4837-8325-2c3164cd4fa0","ios":"levelo://app?vid=5e4ec61b-ef18-4837-8325-2c3164cd4fa0"},"vehicle_type_id":"4","last_reported":1749938920,"current_range_meters":22000,"station_id":"ce4bhop2rcd13ifvqh8g","pricing_plan_id":"cebpf4jnsgd1na2vs0mg"},{"bike_id":"98898507-29a7-4cb0-b3fc-b9d9600b506b","system_id":"levelo_inurba_marseille","lat":43.26349,"lon":5.3785,"is_reserved":false,"is_disabled":false,"rental_uris":{"android":"levelo://app?vid=98898507-29a7-4cb0-b3fc-b9d9600b506b","ios":"levelo://app?vid=98898507-29a7-4cb0-b3fc-b9d9600b506b"},"vehicle_type_id":"4","last_reported":1749938920,"current_range_meters":22000,"station_id":"st_d163nis0mtpqnht9uue0","pricing_plan_id":"cebpf4jnsgd1na2vs0mg"},{"bike_id":"5e40262f-dc18-484d-9782-b2451bbf4a0f","system_id":"levelo_inurba_marseille","lat":43.26357,"lon":5.37806,"is_reserved":false,"is_disabled":false,"rental_uris":{"android":"levelo://app?vid=5e40262f-dc18-484d-9782-b2451bbf4a0f","ios":"levelo://app?vid=5e40262f-dc18-484d-9782-b2451bbf4a0f"},"vehicle_type_id":"4","last_reported":1749938920,"current_range_meters":22000,"station_id":"st_d163nis0mtpqnht9uue0","pricing_plan_id":"cebpf4jnsgd1na2vs0mg"},{"bike_id":"cc9dfa4a-90e1-4c63-884a-d8ff71829539","system_id":"levelo_inurba_marseille","lat":43.28926,"lon":5.39639,"is_reserved":false,"is_disabled":false,"rental_uris":{"android":"levelo://app?vid=cc9dfa4a-90e1-4c63-884a-d8ff71829539","ios":"levelo://app?vid=cc9dfa4a-90e1-4c63-884a-d8ff71829539"},"vehicle_type_id":"4","last_reported":1749938920,"current_range_meters":22400,"station_id":"ce4bh3h2rcd13ifvqdn0","pricing_plan_id":"cebpf4jnsgd1na2vs0mg"},{"bike_id":"f1225ac4-2815-474f-b6db-f164e454da04","system_id":"levelo_inurba_marseille","lat":43.27907,"lon":5.38014,"is_reserved":false,"is_disabled":false,"rental_uris":{"android":"levelo://app?vid=f1225ac4-2815-474f-b6db-f164e454da04","ios":"levelo://app?vid=f1225ac4-2815-474f-b6db-f164e454da04"},"vehicle_type_id":"4","last_reported":1749938920,"current_range_meters":22400,"station_id":"ce4bhf92rcd13ifvqf50","pricing_plan_id":"cebpf4jnsgd1na2vs0mg"},{"bike_id":"ef32f861-6947-4d11-b1dc-37d1c85d5b49","system_id":"levelo_inurba_marseille","lat":43.27838,"lon":5.39211,"is_reserved":false,"is_disabled":false,"rental_uris":{"android":"levelo://app?vid=ef32f861-6947-4d11-b1dc-37d1c85d5b49","ios":"levelo://app?vid=ef32f861-6947-4d11-b1dc-37d1c85d5b49"},"vehicle_type_id":"4","last_reported":1749938920,"current_range_meters":22400,"station_id":"ce4bhjp2rcd13ifvqga0","pricing_plan_id":"cebpf4jnsgd1na2vs0mg"},{"bike_id":"31cdee13-0407-47d2-8896-f6cfc3256998","system_id":"levelo_inurba_marseille","lat":43.25102,"lon":5.40321,"is_reserved":false,"is_disabled":false,"rental_uris":{"android":"levelo://app?vid=31cdee13-0407-47d2-8896-f6cfc3256998","ios":"levelo://app?vid=31cdee13-0407-47d2-8896-f6cfc3256998"},"vehicle_type_id":"4","last_reported":1749938920,"current_range_meters":22400,"station_id":"ce4bhlh2rcd13ifvqgig","pricing_plan_id":"cebpf4jnsgd1na2vs0mg"},{"bike_id":"ff868c5b-acdb-4805-8273-0336e6c4a4e4","system_id":"levelo_inurba_marseille","lat":43.28435,"lon":5.39173,"is_reserved":false,"is_disabled":false,"rental_uris":{"android":"levelo://app?vid=ff868c5b-acdb-4805-8273-0336e6c4a4e4","ios":"levelo://app?vid=ff868c5b-acdb-4805-8273-0336e6c4a4e4"},