{"last_updated":1737126489,"ttl":60,"version":"2.2","data":{"bikes":[{"bike_id":"3d3bc2d8-e193-4fcc-9675-c69322a68c4f","system_id":"levelo_inurba_marseille","lat":43.29299,"lon":5.37456,"is_reserved":false,"is_disabled":false,"rental_uris":{"android":"levelo://app?vid=3d3bc2d8-e193-4fcc-9675-c69322a68c4f","ios":"levelo://app?vid=3d3bc2d8-e193-4fcc-9675-c69322a68c4f"},"vehicle_type_id":"4","last_reported":1737126489,"current_range_meters":8400,"station_id":"ce4bgi12rcd13ifvqb70","pricing_plan_id":"cebpf4jnsgd1na2vs0mg"},{"bike_id":"91801b13-1478-403b-a9bd-ae3d04909d84","system_id":"levelo_inurba_marseille","lat":43.28633,"lon":5.38463,"is_reserved":false,"is_disabled":false,"rental_uris":{"android":"levelo://app?vid=91801b13-1478-403b-a9bd-ae3d04909d84","ios":"levelo://app?vid=91801b13-1478-403b-a9bd-ae3d04909d84"},"vehicle_type_id":"4","last_reported":1737126489,"current_range_meters":18800,"station_id":"ce4bgkh2rcd13ifvqbl0","pricing_plan_id":"cebpf4jnsgd1na2vs0mg"},{"bike_id":"dd03d761-348f-49b9-b0f1-147813bbe2a5","system_id":"levelo_inurba_marseille","lat":43.2319,"lon":5.39984,"is_reserved":false,"is_disabled":false,"rental_uris":{"android":"levelo://app?vid=dd03d761-348f-49b9-b0f1-147813bbe2a5","ios":"levelo://app?vid=dd03d761-348f-49b9-b0f1-147813bbe2a5"},"vehicle_type_id":"4","last_reported":1737126489,"current_range_meters":13600,"station_id":"ce4bhn12rcd13ifvqgqg","pricing_plan_id":"cebpf4jnsgd1na2vs0mg"},{"bike_id":"753ccb49-949e-4f76-bbe4-861c2515eec4","system_id":"levelo_inurba_marseille","lat":43.29919,"lon":5.37494,"is_reserved":false,"is_disabled":false,"rental_uris":{"android":"levelo://app?vid=753ccb49-949e-4f76-bbe4-861c2515eec4","ios":"levelo://app?vid=753ccb49-949e-4f76-bbe4-861c2515eec4"},"vehicle_type_id":"4","last_reported":1737126489,"current_range_meters":38400,"station_id":"ce4bgjh2rcd13ifvqbg0","pricing_plan_id":"cebpf4jnsgd1na2vs0mg"},{"bike_id":"b6cb8185-7959-4808-a0ad-cdaa9210073d","system_id":"levelo_inurba_marseille","lat":43.27623,"lon":5.36106,"is_reserved":false,"is_disabled":false,"rental_uris":{"android":"levelo://app?vid=b6cb8185-7959-4808-a0ad-cdaa9210073d","ios":"levelo://app?vid=b6cb8185-7959-4808-a0ad-cdaa9210073d"},"vehicle_type_id":"4","last_reported":1737126489,"current_range_meters":37600,"station_id":"ce4bgj92rcd13ifvqbe0","pricing_plan_id":"cebpf4jnsgd1na2vs0mg"},{"bike_id":"6ca8f1e0-a0ca-4523-933b-08b773b7230c","system_id":"levelo_inurba_marseille","lat":43.25864,"lon":5.39901,"is_reserved":false,"is_disabled":false,"rental_uris":{"android":"levelo://app?vid=6ca8f1e0-a0ca-4523-933b-08b773b7230c","ios":"levelo://app?vid=6ca8f1e0-a0ca-4523-933b-08b773b7230c"},"vehicle_type_id":"4","last_reported":1737126489,"current_range_meters":10800,"station_id":"ce4bhl92rcd13ifvqghg","pricing_plan_id":"cebpf4jnsgd1na2vs0mg"},{"bike_id":"fcca09bd-08f2-4f85-9383-5d22f0403f56","system_id":"levelo_inurba_marseille","lat":43.30139,"lon":5.37419,"is_reserved":false,"is_disabled":false,"rental_uris":{"android":"levelo://app?vid=fcca09bd-08f2-4f85-9383-5d22f0403f56","ios":"levelo://app?vid=fcca09bd-08f2-4f85-9383-5d22f0403f56"},"vehicle_type_id":"4","last_reported":1737126489,"current_range_meters":36800,"station_id":"ce4bgs92rcd13ifvqcc0","pricing_plan_id":"cebpf4jnsgd1na2vs0mg"},{"bike_id":"736aa54d-b902-4630-8a90-71e7dee03587","system_id":"levelo_inurba_marseille","lat":43.2605,"lon":5.39375,"is_reserved":false,"is_disabled":false,"rental_uris":{"android":"levelo://app?vid=736aa54d-b902-4630-8a90-71e7dee03587","ios":"levelo://app?vid=736aa54d-b902-4630-8a90-71e7dee03587"},"vehicle_type_id":"4","last_reported":1737126489,"current_range_meters":38000,"station_id":"ce4bhh92rcd13ifvqfj0","pricing_plan_id":"cebpf4jnsgd1na2vs0mg"},{"bike_id":"fa5dc998-6dc8-4d50-adfe-a76b06583497","system_id":"levelo_inurba_marseille","lat":43.29041,"lon":5.39967,"is_reserved":false,"is_disabled":false,"rental_uris":{"android":"levelo://app?vid=fa5dc998-6dc8-4d50-adfe-a76b06583497","ios":"levelo://app?vid=fa5dc998-6dc8-4d50-adfe-a76b06583497"},"vehicle_type_id":"4","last_reported":1737126489,"current_range_meters":24000,"station_id":"ce4bh392rcd13ifvqdm0","pricing_plan_id":"cebpf4jnsgd1na2vs0mg"},{"bike_id":"5ff1c1c1-92c2-43f7-8f5e-7f9a3f2cf9a0","system_id":"levelo_inurba_marseille","lat":43.24172,"lon":5.39714,"is_reserved":false,"is_disabled":true,"rental_uris":{"android":"levelo://app?vid=5ff1c1c1-92c2-43f7-8f5e-7f9a3f2cf9a0","ios":"levelo://app?vid=5ff1c1c1-92c2-43f7-8f5e-7f9a3f2cf9a0"},"vehicle_type_id":"4","last_reported":1737126489,"current_range_meters":0,"station_id":"ce4bhn12rcd13ifvqgpg","pricing_plan_id":"cebpf4jnsgd1na2vs0mg"},{"bike_id":"26e4d4e9-d55a-437f-9359-1707e4b56b72","system_id":"levelo_inurba_marseille","lat":43.29521,"lon":5.37503,"is_reserved":false,"is_disabled":false,"rental_uris":{"android":"levelo://app?vid=26e4d4e9-d55a-437f-9359-1707e4b56b72","ios":"levelo://app?vid=26e4d4e9-d55a-437f-9359-1707e4b56b72"},"vehicle_type_id":"4","last_reported":1737126489,"current_range_meters":22400,"station_id":"ce4bgkp2rcd13ifvqbmg","pricing_plan_id":"cebpf4jnsgd1na2vs0mg"},{"bike_id":"acd95981-8745-4a8e-9dce-9e76fae8f3d0","system_id":"levelo_inurba_marseille","lat":43.30136,"lon":5.39868,"is_reserved":false,"is_disabled":false,"rental_uris":{"android":"levelo://app?vid=acd95981-8745-4a8e-9dce-9e76fae8f3d0","ios":"levelo://app?vid=acd95981-8745-4a8e-9dce-9e76fae8f3d0"},"vehicle_type_id":"4","last_reported":1737126489,"current_range_meters":23200,"station_id":"ce4bh0h2rcd13ifvqd40","pricing_plan_id":"cebpf4jnsgd1na2vs0mg"},{"bike_id":"ba1944b7-3b01-4b55-a417-8838300112e5","system_id":"levelo_inurba_marseille","lat":43.30883,"lon":5.39653,"is_reserved":false,"is_disabled":false,"rental_uris":{"android":"levelo://app?vid=ba1944b7-3b01-4b55-a417-8838300112e5","ios":"levelo://app?vid=ba1944b7-3b01-4b55-a417-8838300112e5"},"vehicle_type_id":"4","last_reported":1737126489,"current_range_meters":20000,"station_id":"ce4bh012rcd13ifvqcv0","pricing_plan_id":"cebpf4jnsgd1na2vs0mg"},{"bike_id":"aef62298-197d-4e92-8e97-1ba10c41fc89","system_id":"levelo_inurba_marseille","lat":43.30522,"lon":5.36641,"is_reserved":false,"is_disabled":false,"rental_uris":{"android":"levelo://app?vid=aef62298-197d-4e92-8e97-1ba10c41fc89","ios":"levelo://app?vid=aef62298-197d-4e92-8e97-1ba10c41fc89"},"vehicle_type_id":"4","last_reported":1737126489,"current_range_meters":24400,"station_id":"","pricing_plan_id":"cebpf4jnsgd1na2vs0mg"},{"bike_id":"a4607759-bc6a-4b88-a0dc-6331eb2acc8c","system_id":"levelo_inurba_marseille","lat":43.29201,"lon":5.36049,"is_reserved":false,"is_disabled":false,"rental_uris":{"android":"levelo://app?vid=a4607759-bc6a-4b88-a0dc-6331eb2acc8c","ios":"levelo://app?vid=a4607759-bc6a-4b88-a0dc-6331eb2acc8c"},"vehicle_type_id":"4","last_reported":1737126489,"current_range_meters":32800,"station_id":"ce4bhbh2rcd13ifvqeqg","pricing_plan_id":"cebpf4jnsgd1na2vs0mg"},{"bike_id":"6881acb3-4405-47a3-9c98-8f94e668345c","system_id":"levelo_inurba_marseille","lat":43.2842,"lon":5.37514,"is_reserved":false,"is_disabled":false,"rental_uris":{"android":"levelo://app?vid=6881acb3-4405-47a3-9c98-8f94e668345c","ios":"levelo://app?vid=6881acb3-4405-47a3-9c98-8f94e668345c"},"vehicle_type_id":"4","last_reported":1737126489,"current_range_meters":33200,"station_id":"ce4bh412rcd13ifvqds0","pricing_plan_id":"cebpf4jnsgd1na2vs0mg"},{"bike_id":"e5f4991e-324d-48e0-a203-e38222b365b5","system_id":"levelo_inurba_marseille","lat":43.31926,"lon":5.3674,"is_reserved":false,"is_disabled":false,"rental_uris":{"android":"levelo://app?vid=e5f4991e-324d-48e0-a203-e38222b365b5","ios":"levelo://app?vid=e5f4991e-324d-48e0-a203-e38222b365b5"},"vehicle_type_id":"4","last_reported":1737126489,"current_range_meters":29600,"station_id":"","pricing_plan_id":"cebpf4jnsgd1na2vs0mg"},{"bike_id":"c4fc9679-1008-473b-9e9b-26f1ed62312e","system_id":"levelo_inurba_marseille","lat":43.22945,"lon":5.353827,"is_reserved":false,"is_disabled":false,"rental_uris":{"android":"levelo://app?vid=c4fc9679-1008-473b-9e9b-26f1ed62312e","ios":"levelo://app?vid=c4fc9679-1008-473b-9e9b-26f1ed62312e"},"vehicle_type_id":"4","last_reported":1737126489,"current_range_meters":18000,"station_id":"cpo3532slgdg3j2ikp40","pricing_plan_id":"cebpf4jnsgd1na2vs0mg"},{"bike_id":"21066e24-fd5e-40c0-a82a-a1da89fbd9ff","system_id":"levelo_inurba_marseille","lat":43.30204,"lon":5.381,"is_reserved":false,"is_disabled":false,"rental_uris":{"android":"levelo://app?vid=21066e24-fd5e-40c0-a82a-a1da89fbd9ff","ios":"levelo://app?vid=21066e24-fd5e-40c0-a82a-a1da89fbd9ff"},"vehicle_type_id":"4","last_reported":1737126489,"current_range_meters":24000,"station_id":"","pricing_plan_id":"cebpf4jnsgd1na2vs0mg"},{"bike_id":"ef45737c-063f-47d0-af9e-636b156d4a9e","system_id":"levelo_inurba_marseille","lat":43.3018,"lon":5.3809,"is_reserved":false,"is_disabled":false,"rental_uris":{"android":"levelo://app?vid=ef45737c-063f-47d0-af9e-636b156d4a9e","ios":"levelo://app?vid=ef45737c-063f-47d0-af9e-636b156d4a9e"},"vehicle_type_id":"4","last_reported":1737126489,"current_range_meters":36000,"station_id":"ce4bgjp2rcd13ifvqbh0","pricing_plan_id":"cebpf4jnsgd1na2vs0mg"},{"bike_id":"8b85130c-d088-4d69-8d53-e6d1315a7cd8","system_id":"levelo_inurba_marseille","lat":43.29617,"lon":5.37728,"is_reserved":false,"is_disabled":false,"rental_uris":{"android":"levelo://app?vid=8b85130c-d088-4d69-8d53-e6d1315a7cd8","ios":"levelo://app?vid=8b85130c-d088-4d69-8d53-e6d1315a7cd8"},"vehicle_type_id":"4","last_reported":1737126489,"current_range_meters":18000,"station_id":"ce4bgi92rcd13ifvqb90","pricing_plan_id":"cebpf4jnsgd1na2vs0mg"},{"bike_id":"97728900-28a5-4d7b-8796-bcfc0e473fb8","system_id":"levelo_inurba_marseille","lat":43.29615,"lon":5.37724,"is_reserved":false,"is_disabled":false,"rental_uris":{"android":"levelo://app?vid=97728900-28a5-4d7b-8796-bcfc0e473fb8","ios":"levelo://app?vid=97728900-28a5-4d7b-8796-bcfc0e473fb8"},"vehicle_type_id":"4","last_reported":1737126489,"current_range_meters":7200,"station_id":"ce4bgi92rcd13ifvqb90","pricing_plan_id":"cebpf4jnsgd1na2vs0mg"},{"bike_id":"56c51ece-3536-4ce3-befe-a3278e20a131","system_id":"levelo_inurba_marseille","lat":43.30155,"lon":5.3742,"is_reserved":false,"is_disabled":false,"rental_uris":{"android":"levelo://app?vid=56c51ece-3536-4ce3-befe-a3278e20a131","ios":"levelo://app?vid=56c51ece-3536-4ce3-befe-a3278e20a131"},"vehicle_type_id":"4","last_reported":1737126489,"current_range_meters":25600,"station_id":"ce4bgs92rcd13ifvqcc0","pricing_plan_id":"cebpf4jnsgd1na2vs0mg"},{"bike_id":"66065961-8f66-46c8-be70-f9092a8345b6","system_id":"levelo_inurba_marseille","lat":43.290967,"lon":5.381626,"is_reserved":false,"is_disabled":false,"rental_uris":{"android":"levelo://app?vid=66065961-8f66-46c8-be70-f9092a8345b6","ios":"levelo://app?vid=66065961-8f66-46c8-be70-f9092a8345b6"},"vehicle_type_id":"4","last_reported":1737126489,"current_range_meters":35600,"station_id":"ce4bh512rcd13ifvqe2g","pricing_plan_id":"cebpf4jnsgd1na2vs0mg"},{"bike_id":"707bfe95-10d3-4086-8314-ee6ed0ce04b1","system_id":"levelo_inurba_marseille","lat":43.29578,"lon":5.37507,"is_reserved":false,"is_disabled":false,"rental_uris":{"android":"levelo://app?vid=707bfe95-10d3-4086-8314-ee6ed0ce04b1","ios":"levelo://app?vid=707bfe95-10d3-4086-8314-ee6ed0ce04b1"},"vehicle_type_id":"4","last_reported":1737126489,"current_range_meters":38400,"station_id":"ce4bgh92rcd13ifvqb50","pricing_plan_id":"cebpf4jnsgd1na2vs0mg"},{"bike_id":"835db956-1cf0-49b1-b7c0-a9f7cb79e4cc","system_id":"levelo_inurba_marseille","lat":43.28718,"lon":5.36078,"is_reserved":false,"is_disabled":false,"rental_uris":{"android":"levelo://app?vid=835db956-1cf0-49b1-b7c0-a9f7cb79e4cc","ios":"levelo://app?vid=835db956-1cf0-49b1-b7c0-a9f7cb79e4cc"},"vehicle_type_id":"4","last_reported":1737126489,"current_range_meters":25600,"station_id":"cki0cbj6b192h4jlfktg","pricing_plan_id":"cebpf4jnsgd1na2vs0mg"},{"bike_id":"66ec8711-3dbc-48f7-b091-25773ac6b77c","system_id":"levelo_inurba_marseille","lat":43.28208,"lon":5.44266,"is_reserved":false,"is_disabled":true,"rental_uris":{"android":"levelo://app?vid=66ec8711-3dbc-48f7-b091-25773ac6b77c","ios":"levelo://app?vid=66ec8711-3dbc-48f7-b091-25773ac6b77c"},"vehicle_type_id":"4","last_reported":1737126489,"current_range_meters":0,"station_id":"","pricing_plan_id":"cebpf4jnsgd1na2vs0mg"},{"bike_id":"e1084a1e-102d-4161-b63c-312e2377f975","system_id":"levelo_inurba_marseille","lat":43.26204,"lon":5.37937,"is_reserved":false,"is_disabled":false,"rental_uris":{"android":"levelo://app?vid=e1084a1e-102d-4161-b63c-312e2377f975","ios":"levelo://app?vid=e1084a1e-102d-4161-b63c-312e2377f975"},"vehicle_type_id":"4","last_reported":1737126489,"current_range_meters":18800,"station_id":"ce4bhjp2rcd13ifvqg90","pricing_plan_id":"cebpf4jnsgd1na2vs0mg"},{"bike_id":"0a709f11-4e6a-4d8f-a0b0-f11eab95141b","system_id":"levelo_inurba_marseille","lat":43.29201,"lon":5.39325,"is_reserved":false,"is_disabled":false,"rental_uris":{"android":"levelo://app?vid=0a709f11-4e6a-4d8f-a0b0-f11eab95141b","ios":"levelo://app?vid=0a709f11-4e6a-4d8f-a0b0-f11eab95141b"},"vehicle_type_id":"4","last_reported":1737126489,"current_range_meters":38800,"station_id":"ce4bh192rcd13ifvqdd0","pricing_plan_id":"cebpf4jnsgd1na2vs0mg"},{"bike_id":"42928924-96d0-441e-be9f-699f5818f926","system_id":"levelo_inurba_marseille","lat":43.30523,"lon":5.36527,"is_reserved":false,"is_disabled":false,"rental_uris":{"android":"levelo://app?vid=42928924-96d0-441e-be9f-699f5818f926","ios":"levelo://app?vid=42928924-96d0-441e-be9f-699f5818f926"},"vehicle_type_id":"4","last_reported":1737126489,"current_range_meters":35200,"station_id":"ce4bgs12rcd13ifvqcag","pricing_plan_id":"cebpf4jnsgd1na2vs0mg"},{"bike_id":"e94f5751-3760-4f03-84d5-5ceb919334c8","system_id":"levelo_inurba_marseille","lat":43.25112,"lon":5.40332,"is_reserved":false,"is_disabled":false,"rental_uris":{"android":"levelo://app?vid=e94f5751-3760-4f03-84d5-5ceb919334c8","ios":"levelo://app?vid=e94f5751-3760-4f03-84d5-5ceb919334c8"},"vehicle_type_id":"4","last_reported":1737126489,"current_range_meters":13600,"station_id":"ce4bhlh2rcd13ifvqgig","pricing_plan_id":"cebpf4jnsgd1na2vs0mg"},{"bike_id":"954b17d3-0d50-4d1d-9755-857bdc284020","system_id":"levelo_inurba_marseille","lat":43.28158,"lon":5.42668,"is_reserved":false,"is_disabled":false,"rental_uris":{"android":"levelo://app?vid=954b17d3-0d50-4d1d-9755-857bdc284020","ios":"levelo://app?vid=954b17d3-0d50-4d1d-9755-857bdc284020"},"vehicle_type_id":"4","last_reported":1737126489,"current_range_meters":27600,"station_id":"ce4bhnh2rcd13ifvqgug","pricing_plan_id":"cebpf4jnsgd1na2vs0mg"},{"bike_id":"c0761eff-368b-462f-a990-6347083446fa","system_id":"levelo_inurba_marseille","lat":43.229563,"lon":5.353923,"is_reserved":false,"is_disabled":false,"rental_uris":{"android":"levelo://app?vid=c0761eff-368b-462f-a990-6347083446fa","ios":"levelo://app?vid=c0761eff-368b-462f-a990-6347083446fa"},"vehicle_type_id":"4","last_reported":1737126489,"current_range_meters":20400,"station_id":"cpo3532slgdg3j2ikp40","pricing_plan_id":"cebpf4jnsgd1na2vs0mg"},{"bike_id":"0321cd6b-aaff-46d7-aacd-a1fa403e5c50","system_id":"levelo_inurba_marseille","lat":43.33952,"lon":5.37344,"is_reserved":false,"is_disabled":true,"rental_uris":{"android":"levelo://app?vid=0321cd6b-aaff-46d7-aacd-a1fa403e5c50","ios":"levelo://app?vid=0321cd6b-aaff-46d7-aacd-a1fa403e5c50"},"vehicle_type_id":"4","last_reported":1737126489,"current_range_meters":1200,"station_id":"","pricing_plan_id":"cebpf4jnsgd1na2vs0mg"},{"bike_id":"a81ea5b1-9317-453a-bcfd-4915654f0b73","system_id":"levelo_inurba_marseille","lat":43.32481,"lon":5.36553,"is_reserved":false,"is_disabled":false,"rental_uris":{"android":"levelo://app?vid=a81ea5b1-9317-453a-bcfd-4915654f0b73","ios":"levelo://app?vid=a81ea5b1-9317-453a-bcfd-4915654f0b73"},"vehicle_type_id":"4","last_reported":1737126489,"current_range_meters":38800,"station_id":"ce4bhs12rcd13ifvqhvg","pricing_plan_id":"cebpf4jnsgd1na2vs0mg"},{"bike_id":"eb116a95-2973-4eaf-9f16-48b04171d939","system_id":"levelo_inurba_marseille","lat":43.29096,"lon":5.38125,"is_reserved":false,"is_disabled":false,"rental_uris":{"android":"levelo://app?vid=eb116a95-2973-4eaf-9f16-48b04171d939","ios":"levelo://app?vid=eb116a95-2973-4eaf-9f16-48b04171d939"},"vehicle_type_id":"4","last_reported":1737126489,"current_range_meters":18800,"station_id":"ce4bh512rcd13ifvqe2g","pricing_plan_id":"cebpf4jnsgd1na2vs0mg"},{"bike_id":"84ce54be-a8fd-4da8-97fd-174c81fd4e80","system_id":"levelo_inurba_marseille","lat":43.29242,"lon":5.36078,"is_reserved":false,"is_disabled":false,"rental_uris":{"android":"levelo://app?vid=84ce54be-a8fd-4da8-97fd-174c81fd4e80","ios":"levelo://app?vid=84ce54be-a8fd-4da8-97fd-174c81fd4e80"},"vehicle_type_id":"4","last_reported":1737126489,"current_range_meters":28000,"station_id":"ce4bhbh2rcd13ifvqeqg","pricing_plan_id":"cebpf4jnsgd1na2vs0mg"},{"bike_id":"65c5508a-860d-491c-958b-9f39a3ad6729","system_id":"levelo_inurba_marseille","lat":43.29575,"lon":5.37517,"is_reserved":false,"is_disabled":false,"rental_uris":{"android":"levelo://app?vid=65c5508a-860d-491c-958b-9f39a3ad6729","ios":"levelo://app?vid=65c5508a-860d-491c-958b-9f39a3ad6729"},"vehicle_type_id":"4","last_reported":1737126489,"current_range_meters":30000,"station_id":"ce4bgh92rcd13ifvqb50","pricing_plan_id":"cebpf4jnsgd1na2vs0mg"},{"bike_id":"fa53afd0-c3c0-46c2-be7e-d056eb14f6b8","system_id":"levelo_inurba_marseille","lat":43.26059,"lon":5.39407,"is_reserved":false,"is_disabled":false,"rental_uris":{"android":"levelo://app?vid=fa53afd0-c3c0-46c2-be7e-d056eb14f6b8","ios":"levelo://app?vid=fa53afd0-c3c0-46c2-be7e-d056eb14f6b8"},"vehicle_type_id":"4","last_reported":1737126489,"current_range_meters":36400,"station_id":"ce4bhh92rcd13ifvqfj0","pricing_plan_id":"cebpf4jnsgd1na2vs0mg"},{"bike_id":"7355965f-f9de-41e5-863c-e62f40b78b4d","system_id":"levelo_inurba_marseille","lat":43.296082,"lon":5.377128,"is_reserved":false,"is_disabled":false,"rental_uris":{"android":"levelo://app?vid=7355965f-f9de-41e5-863c-e62f40b78b4d","ios":"levelo://app?vid=7355965f-f9de-41e5-863c-e62f40b78b4d"},"vehicle_type_id":"4","last_reported":1737126489,"current_range_meters":38800,"station_id":"ce4bgi92rcd13ifvqb90","pricing_plan_id":"cebpf4jnsgd1na2vs0mg"},{"bike_id":"a0020e87-f021-47c3-9f76-ad458e7049f0","system_id":"levelo_inurba_marseille","lat":43.28283,"lon":5.3507,"is_reserved":false,"is_disabled":false,"rental_uris":{"android":"levelo://app?vid=a0020e87-f021-47c3-9f76-ad458e7049f0","ios":"levelo://app?vid=a0020e87-f021-47c3-9f76-ad458e7049f0"},"vehicle_type_id":"4","last_reported":1737126489,"current_range_meters":38800,"station_id":"ce4bhbp2rcd13ifvqerg","pricing_plan_id":"cebpf4jnsgd1na2vs0mg"},{"bike_id":"7cfe6434-bc40-416b-a67c-6b987e262b97","system_id":"levelo_inurba_marseille","lat":43.29579,"lon":5.37494,"is_reserved":false,"is_disabled":false,"rental_uris":{"android":"levelo://app?vid=7cfe6434-bc40-416b-a67c-6b987e262b97","ios":"levelo://app?vid=7cfe6434-bc40-416b-a67c-6b987e262b97"},"vehicle_type_id":"4","last_reported":1737126489,"current_range_meters":38800,"station_id":"ce4bgh92rcd13ifvqb50","pricing_plan_id":"cebpf4jnsgd1na2vs0mg"},{"bike_id":"e15788f7-d2c1-4368-9bef-a76751232bcb","system_id":"levelo_inurba_marseille","lat":43.25111,"lon":5.40324,"is_reserved":false,"is_disabled":true,"rental_uris":{"android":"levelo://app?vid=e15788f7-d2c1-4368-9bef-a76751232bcb","ios":"levelo://app?vid=e15788f7-d2c1-4368-9bef-a76751232bcb"},"vehicle_type_id":"4","last_reported":1737126489,"current_range_meters":2000,"station_id":"ce4bhlh2rcd13ifvqgig","pricing_plan_id":"cebpf4jnsgd1na2vs0mg"},{"bike_id":"51022230-8348-4633-bfdd-a6fc54d23fd4","system_id":"levelo_inurba_marseille","lat":43.27917,"lon":5.39576,"is_reserved":false,"is_disabled":false,"rental_uris":{"android":"levelo://app?vid=51022230-8348-4633-bfdd-a6fc54d23fd4","ios":"levelo://app?vid=51022230-8348-4633-bfdd-a6fc54d23fd4"},"vehicle_type_id":"4","last_reported":1737126489,"current_range_meters":22000,"station_id":"ce4bhf92rcd13ifvqf40","pricing_plan_id":"cebpf4jnsgd1na2vs0mg"},{"bike_id":"30579412-b6f8-4825-8642-ca471e06d7d6","system_id":"levelo_inurba_marseille","lat":43.28662,"lon":5.36345,"is_reserved":false,"is_disabled":false,"rental_uris":{"android":"levelo://app?vid=30579412-b6f8-4825-8642-ca471e06d7d6","ios":"levelo://app?vid=30579412-b6f8-4825-8642-ca471e06d7d6"},"vehicle_type_id":"4","last_reported":1737126489,"current_range_meters":40000,"station_id":"ce4bhah2rcd13ifvqej0","pricing_plan_id":"cebpf4jnsgd1na2vs0mg"},{"bike_id":"ed05d91e-075f-4457-9cea-1cc457a72937","system_id":"levelo_inurba_marseille","lat":43.27366,"lon":5.36261,"is_reserved":false,"is_disabled":false,"rental_uris":{"android":"levelo://app?vid=ed05d91e-075f-4457-9cea-1cc457a72937","ios":"levelo://app?vid=ed05d91e-075f-4457-9cea-1cc457a72937"},"vehicle_type_id":"4","last_reported":1737126489,"current_range_meters":38800,"station_id":"ce4bhbh2rcd13ifvqeo0","pricing_plan_id":"cebpf4jnsgd1na2vs0mg"},{"bike_id":"94339a91-1380-4ff2-8f0e-ccc0d08795da","system_id":"levelo_inurba_marseille","lat":43.27377,"lon":5.36244,"is_reserved":false,"is_disabled":false,"rental_uris":{"android":"levelo://app?vid=94339a91-1380-4ff2-8f0e-ccc0d08795da","ios":"levelo://app?vid=94339a91-1380-4ff2-8f0e-ccc0d08795da"},"vehicle_type_id":"4","last_reported":1737126489,"current_range_meters":20800,"station_id":"ce4bhbh2rcd13ifvqeo0","pricing_plan_id":"cebpf4jnsgd1na2vs0mg"},{"bike_id":"e155dc60-5198-4d48-b1b3-0c54d5e1b4ad","system_id":"levelo_inurba_marseille","lat":43.29968,"lon":5.41327,"is_reserved":false,"is_disabled":false,"rental_uris":{"android":"levelo://app?vid=e155dc60-5198-4d48-b1b3-0c54d5e1b4ad","ios":"levelo://app?vid=e155dc60-5198-4d48-b1b3-0c54d5e1b4ad"},"vehicle_type_id":"4","last_reported":1737126489,"current_range_meters":32800,"station_id":"ce4bhp12rcd13ifvqh9g","pricing_plan_id":"cebpf4jnsgd1na2vs0mg"},{"bike_id":"1aa0b00d-7df0-4d28-bdf1-2def134b6bf3","system_id":"levelo_inurba_marseille","lat":43.2998,"lon":5.37171,"is_reserved":false,"is_disabled":false,"rental_uris":{"android":"levelo://app?vid=1aa0b00d-7df0-4d28-bdf1-2def134b6bf3","ios":"levelo://app?vid=1aa0b00d-7df0-4d28-bdf1-2def134b6bf3"},"vehicle_type_id":"4","last_reported":1737126489,"current_range_meters":38800,"station_id":"ce4bgr92rcd13ifvqc7g","pricing_plan_id":"cebpf4jnsgd1na2vs0mg"},{"bike_id":"2ee685f7-e8d5-46ce-90a4-a1c55e9fa5b0","system_id":"levelo_inurba_marseille","lat":43.29004,"lon":5.35603,"is_reserved":false,"is_disabled":false,"rental_uris":{"android":"levelo://app?vid=2ee685f7-e8d5-46ce-90a4-a1c55e9fa5b0","ios":"levelo://app?vid=2ee685f7-e8d5-46ce-90a4-a1c55e9fa5b0"},"vehicle_type_id":"4","last_reported":1737126489,"current_range_meters":33600,"station_id":"ce4bhb92rcd13ifvqen0","pricing_plan_id":"cebpf4jnsgd1na2vs0mg"},{"bike_id":"b5c44bba-471d-46e4-af58-a871e9b6f725","system_id":"levelo_inurba_marseille","lat":43.29097,"lon":5.38143,"is_reserved":false,"is_disabled":false,"rental_uris":{"android":"levelo://app?vid=b5c44bba-471d-46e4-af58-a871e9b6f725","ios":"levelo://app?vid=b5c44bba-471d-46e4-af58-a871e9b6f725"},"vehicle_type_id":"4","last_reported":1737126489,"current_range_meters":28800,"station_id":"ce4bh512rcd13ifvqe2g","pricing_plan_id":"cebpf4jnsgd1na2vs0mg"},{"bike_id":"6ea4d259-06b8-4e0f-9494-4eae2040b46d","system_id":"levelo_inurba_marseille","lat":43.24177,"lon":5.39721,"is_reserved":false,"is_disabled":false,"rental_uris":{"android":"levelo://app?vid=6ea4d259-06b8-4e0f-9494-4eae2040b46d","ios":"levelo://app?vid=6ea4d259-06b8-4e0f-9494-4eae2040b46d"},"vehicle_type_id":"4","last_reported":1737126489,"current_range_meters":28000,"station_id":"ce4bhn12rcd13ifvqgpg","pricing_plan_id":"cebpf4jnsgd1na2vs0mg"},{"bike_id":"9fa313c1-3803-4f82-9336-0f6c26f892dc","system_id":"levelo_inurba_marseille","lat":43.27558,"lon":5.38424,"is_reserved":false,"is_disabled":false,"rental_uris":{"android":"levelo://app?vid=9fa313c1-3803-4f82-9336-0f6c26f892dc","ios":"levelo://app?vid=9fa313c1-3803-4f82-9336-0f6c26f892dc"},"vehicle_type_id":"4","last_reported":1737126489,"current_range_meters":7200,"station_id":"ce4bhh92rcd13ifvqfi0","pricing_plan_id":"cebpf4jnsgd1na2vs0mg"},{"bike_id":"df16c824-e677-4ed0-afe1-bab7307c6457","system_id":"levelo_inurba_marseille","lat":43.28938,"lon":5.36638,"is_reserved":false,"is_disabled":false,"rental_uris":{"android":"levelo://app?vid=df16c824-e677-4ed0-afe1-bab7307c6457","ios":"levelo://app?vid=df16c824-e677-4ed0-afe1-bab7307c6457"},"vehicle_type_id":"4","last_reported":1737126489,"current_range_meters":14800,"station_id":"ce4bhap2rcd13ifvqek0","pricing_plan_id":"cebpf4jnsgd1na2vs0mg"},{"bike_id":"779c7544-8008-45b4-90ab-5090e6438dd4","system_id":"levelo_inurba_marseille","lat":43.24395,"lon":5.37054,"is_reserved":false,"is_disabled":false,"rental_uris":{"android":"levelo://app?vid=779c7544-8008-45b4-90ab-5090e6438dd4","ios":"levelo://app?vid=779c7544-8008-45b4-90ab-5090e6438dd4"},"vehicle_type_id":"4","last_reported":1737126489,"current_range_meters":9600,"station_id":"ce4bhhh2rcd13ifvqfk0","pricing_plan_id":"cebpf4jnsgd1na2vs0mg"},{"bike_id":"811a1ec0-366e-4fd8-8f3c-3e594a31f929","system_id":"levelo_inurba_marseille","lat":43.2557,"lon":5.38237,"is_reserved":false,"is_disabled":false,"rental_uris":{"android":"levelo://app?vid=811a1ec0-366e-4fd8-8f3c-3e594a31f929","ios":"levelo://app?vid=811a1ec0-366e-4fd8-8f3c-3e594a31f929"},"vehicle_type_id":"4","last_reported":1737126489,"current_range_meters":33600,"station_id":"ce4bhih2rcd13ifvqfs0","pricing_plan_id":"cebpf4jnsgd1na2vs0mg"},{"bike_id":"cb72cf41-6af3-4b45-a4e9-1c7a7f95efa1","system_id":"levelo_inurba_marseille","lat":43.31991,"lon":5.38145,"is_reserved":false,"is_disabled":false,"rental_uris":{"android":"levelo://app?vid=cb72cf41-6af3-4b45-a4e9-1c7a7f95efa1","ios":"levelo://app?vid=cb72cf41-6af3-4b45-a4e9-1c7a7f95efa1"},"vehicle_type_id":"4","last_reported":1737126489,"current_range_meters":31200,"station_id":"ce4bhr12rcd13ifvqhpg","pricing_plan_id":"cebpf4jnsgd1na2vs0mg"},{"bike_id":"891d5aa4-b1b0-4e0c-90ac-49e97bf9c382","system_id":"levelo_inurba_marseille","lat":43.23188,"lon":5.39996,"is_reserved":false,"is_disabled":false,"rental_uris":{"android":"levelo://app?vid=891d5aa4-b1b0-4e0c-90ac-49e97bf9c382","ios":"levelo://app?vid=891d5aa4-b1b0-4e0c-90ac-49e97bf9c382"},"vehicle_type_id":"4","last_reported":1737126489,"current_range_meters":33600,"station_id":"ce4bhn12rcd13ifvqgqg","pricing_plan_id":"cebpf4jnsgd1na2vs0mg"},{"bike_id":"aa243bc1-e860-4bbe-8f08-9cd6efc66578","system_id":"levelo_inurba_marseille","lat":43.27918,"lon":5.39578,"is_reserved":false,"is_disabled":false,"rental_uris":{"android":"levelo://app?vid=aa243bc1-e860-4bbe-8f08-9cd6efc66578","ios":"levelo://app?vid=aa243bc1-e860-4bbe-8f08-9cd6efc66578"},"vehicle_type_id":"4","last_reported":1737126489,"current_range_meters":23200,"station_id":"ce4bhf92rcd13ifvqf40","pricing_plan_id":"cebpf4jnsgd1na2vs0mg"},{"bike_id":"12262e51-19bb-4897-ab6c-02d967989cde","system_id":"levelo_inurba_marseille","lat":43.29017,"lon":5.38125,"is_reserved":false,"is_disabled":false,"rental_uris":{"android":"levelo://app?vid=12262e51-19bb-4897-ab6c-02d967989cde","ios":"levelo://app?vid=12262e51-19bb-4897-ab6c-02d967989cde"},"vehicle_type_id":"4","last_reported":1737126489,"current_range_meters":11200,"station_id":"ce4bh4p2rcd13ifvqe1g","pricing_plan_id":"cebpf4jnsgd1na2vs0mg"},{"bike_id":"357eaeda-fef2-41f2-9ad0-621ae2cc5c09","system_id":"levelo_inurba_marseille","lat":43.33768,"lon":5.37496,"is_reserved":false,"is_disabled":false,"rental_uris":{"android":"levelo://app?vid=357eaeda-fef2-41f2-9ad0-621ae2cc5c09","ios":"levelo://app?vid=357eaeda-fef2-41f2-9ad0-621ae2cc5c09"},"vehicle_type_id":"4","last_reported":1737126489,"current_range_meters":35600,"station_id":"","pricing_plan_id":"cebpf4jnsgd1na2vs0mg"},{"bike_id":"0f799a3d-0a47-4106-837b-64257ce6e707","system_id":"levelo_inurba_marseille","lat":43.29514,"lon":5.39029,"is_reserved":false,"is_disabled":true,"rental_uris":{"android":"levelo://app?vid=0f799a3d-0a47-4106-837b-64257ce6e707","ios":"levelo://app?vid=0f799a3d-0a47-4106-837b-64257ce6e707"},"vehicle_type_id":"4","last_reported":1737126489,"current_range_meters":2000,"station_id":"ce4bh3p2rcd13ifvqdp0","pricing_plan_id":"cebpf4jnsgd1na2vs0mg"},{"bike_id":"05f0edff-5c30-43c6-bccf-0c336dc91ad8","system_id":"levelo_inurba_marseille","lat":43.29369,"lon":5.37862,"is_reserved":false,"is_disabled":false,"rental_uris":{"android":"levelo://app?vid=05f0edff-5c30-43c6-bccf-0c336dc91ad8","ios":"levelo://app?vid=05f0edff-5c30-43c6-bccf-0c336dc91ad8"},"vehicle_type_id":"4","last_reported":1737126489,"current_range_meters":4800,"station_id":"ce4bgjh2rcd13ifvqbf0","pricing_plan_id":"cebpf4jnsgd1na2vs0mg"},{"bike_id":"bbd73dac-e0d6-4fae-ba50-910a0e4499d1","system_id":"levelo_inurba_marseille","lat":43.25519,"lon":5.37663,"is_reserved":false,"is_disabled":false,"rental_uris":{"android":"levelo://app?vid=bbd73dac-e0d6-4fae-ba50-910a0e4499d1","ios":"levelo://app?vid=bbd73dac-e0d6-4fae-ba50-910a0e4499d1"},"vehicle_type_id":"4","last_reported":1737126489,"current_range_meters":37600,"station_id":"ce4bhh12rcd13ifvqff0","pricing_plan_id":"cebpf4jnsgd1na2vs0mg"},{"bike_id":"92221645-888b-497e-8475-7fc2dbd86396","system_id":"levelo_inurba_marseille","lat":43.2953,"lon":5.37518,"is_reserved":false,"is_disabled":false,"rental_uris":{"android":"levelo://app?vid=92221645-888b-497e-8475-7fc2dbd86396","ios":"levelo://app?vid=92221645-888b-497e-8475-7fc2dbd86396"},"vehicle_type_id":"4","last_reported":1737126489,"current_range_meters":16800,"station_id":"ce4bgkp2rcd13ifvqbmg","pricing_plan_id":"cebpf4jnsgd1na2vs0mg"},{"bike_id":"4e756968-59ce-4290-8af5-7b0116ea948e","system_id":"levelo_inurba_marseille","lat":43.33964,"lon":5.37349,"is_reserved":false,"is_disabled":false,"rental_uris":{"android":"levelo://app?vid=4e756968-59ce-4290-8af5-7b0116ea948e","ios":"levelo://app?vid=4e756968-59ce-4290-8af5-7b0116ea948e"},"vehicle_type_id":"4","last_reported":1737126489,"current_range_meters":38800,"station_id":"","pricing_plan_id":"cebpf4jnsgd1na2vs0mg"},{"bike_id":"76c553e8-9faf-45ad-b90a-ff8e34c4f2e0","system_id":"levelo_inurba_marseille","lat":43.28356,"lon":5.3863,"is_reserved":false,"is_disabled":false,"rental_uris":{"android":"levelo://app?vid=76c553e8-9faf-45ad-b90a-ff8e34c4f2e0","ios":"levelo://app?vid=76c553e8-9faf-45ad-b90a-ff8e34c4f2e0"},"vehicle_type_id":"4","last_reported":1737126489,"current_range_meters":20400,"station_id":"ce4bh492rcd13ifvqdvg","pricing_plan_id":"cebpf4jnsgd1na2vs0mg"},{"bike_id":"cb287ad1-35aa-4785-af76-45dc25c26d1a","system_id":"levelo_inurba_marseille","lat":43.27366,"lon":5.36256,"is_reserved":false,"is_disabled":false,"rental_uris":{"android":"levelo://app?vid=cb287ad1-35aa-4785-af76-45dc25c26d1a","ios":"levelo://app?vid=cb287ad1-35aa-4785-af76-45dc25c26d1a"},"vehicle_type_id":"4","last_reported":1737126489,"current_range_meters":16400,"station_id":"ce4bhbh2rcd13ifvqeo0","pricing_plan_id":"cebpf4jnsgd1na2vs0mg"},{"bike_id":"a3481508-ce2e-4c76-9a11-8afdc3faeca9","system_id":"levelo_inurba_marseille","lat":43.30562,"lon":5.36542,"is_reserved":false,"is_disabled":false,"rental_uris":{"android":"levelo://app?vid=a3481508-ce2e-4c76-9a11-8afdc3faeca9","ios":"levelo://app?vid=a3481508-ce2e-4c76-9a11-8afdc3faeca9"},"vehicle_type_id":"4","last_reported":1737126489,"current_range_meters":39200,"station_id":"ce4bgs12rcd13ifvqcag","pricing_plan_id":"cebpf4jnsgd1na2vs0mg"},{"bike_id":"81d0396e-7b47-492a-8771-d5dd4d5f3926","system_id":"levelo_inurba_marseille","lat":43.30601,"lon":5.36726,"is_reserved":false,"is_disabled":false,"rental_uris":{"android":"levelo://app?vid=81d0396e-7b47-492a-8771-d5dd4d5f3926","ios":"levelo://app?vid=81d0396e-7b47-492a-8771-d5dd4d5f3926"},"vehicle_type_id":"4","last_reported":1737126489,"current_range_meters":36800,"station_id":"ce4bgrp2rcd13ifvqc9g","pricing_plan_id":"cebpf4jnsgd1na2vs0mg"},{"bike_id":"2a4a06c1-1f75-40c1-99b1-c5f88271337a","system_id":"levelo_inurba_marseille","lat":43.29946,"lon":5.3654,"is_reserved":false,"is_disabled":false,"rental_uris":{"android":"levelo://app?vid=2a4a06c1-1f75-40c1-99b1-c5f88271337a","ios":"levelo://app?vid=2a4a06c1-1f75-40c1-99b1-c5f88271337a"},"vehicle_type_id":"4","last_reported":1737126489,"current_range_meters":36800,"station_id":"ce4bgm92rcd13ifvqbr0","pricing_plan_id":"cebpf4jnsgd1na2vs0mg"},{"bike_id":"9be957d2-26d1-49a4-9f85-b06ee3432064","system_id":"levelo_inurba_marseille","lat":43.33722,"lon":5.39194,"is_reserved":false,"is_disabled":false,"rental_uris":{"android":"levelo://app?vid=9be957d2-26d1-49a4-9f85-b06ee3432064","ios":"levelo://app?vid=9be957d2-26d1-49a4-9f85-b06ee3432064"},"vehicle_type_id":"4","last_reported":1737126489,"current_range_meters":30000,"station_id":"ce4bhr92rcd13ifvqhsg","pricing_plan_id":"cebpf4jnsgd1na2vs0mg"},{"bike_id":"eafacd05-18e7-48c4-ae5d-94abbc96bdd6","system_id":"levelo_inurba_marseille","lat":43.30256,"lon":5.40068,"is_reserved":false,"is_disabled":false,"rental_uris":{"android":"levelo://app?vid=eafacd05-18e7-48c4-ae5d-94abbc96bdd6","ios":"levelo://app?vid=eafacd05-18e7-48c4-ae5d-94abbc96bdd6"},"vehicle_type_id":"4","last_reported":1737126489,"current_range_meters":14000,"station_id":"ce4bgvh2rcd13ifvqcs0","pricing_plan_id":"cebpf4jnsgd1na2vs0mg"},{"bike_id":"835e4257-46ea-477e-bf87-856e8c43e7a0","system_id":"levelo_inurba_marseille","lat":43.32341,"lon":5.4062,"is_reserved":false,"is_disabled":false,"rental_uris":{"android":"levelo://app?vid=835e4257-46ea-477e-bf87-856e8c43e7a0","ios":"levelo://app?vid=835e4257-46ea-477e-bf87-856e8c43e7a0"},"vehicle_type_id":"4","last_reported":1737126489,"current_range_meters":38800,"station_id":"ce4bhq92rcd13ifvqhjg","pricing_plan_id":"cebpf4jnsgd1na2vs0mg"},{"bike_id":"2fdbc8db-9949-487c-ba37-dcb6ad2625ff","system_id":"levelo_inurba_marseille","lat":43.31273,"lon":5.40168,"is_reserved":false,"is_disabled":false,"rental_uris":{"android":"levelo://app?vid=2fdbc8db-9949-487c-ba37-dcb6ad2625ff","ios":"levelo://app?vid=2fdbc8db-9949-487c-ba37-dcb6ad2625ff"},"vehicle_type_id":"4","last_reported":1737126489,"current_range_meters":6000,"station_id":"ce4bh092rcd13ifvqd30","pricing_plan_id":"cebpf4jnsgd1na2vs0mg"},{"bike_id":"4f2b33bf-5340-41d8-832a-14d80612ba43","system_id":"levelo_inurba_marseille","lat":43.25087,"lon":5.39514,"is_reserved":false,"is_disabled":false,"rental_uris":{"android":"levelo://app?vid=4f2b33bf-5340-41d8-832a-14d80612ba43","ios":"levelo://app?vid=4f2b33bf-5340-41d8-832a-14d80612ba43"},"vehicle_type_id":"4","last_reported":1737126489,"current_range_meters":38400,"station_id":"ce4bhm12rcd13ifvqgkg","pricing_plan_id":"cebpf4jnsgd1na2vs0mg"},{"bike_id":"4f98d5a9-eaf1-40f1-b4bc-a329ffded015","system_id":"levelo_inurba_marseille","lat":43.28711,"lon":5.39963,"is_reserved":false,"is_disabled":true,"rental_uris":{"android":"levelo://app?vid=4f98d5a9-eaf1-40f1-b4bc-a329ffded015","ios":"levelo://app?vid=4f98d5a9-eaf1-40f1-b4bc-a329ffded015"},"vehicle_type_id":"4","last_reported":1737126489,"current_range_meters":1600,"station_id":"ce4bho92rcd13ifvqh3g","pricing_plan_id":"cebpf4jnsgd1na2vs0mg"},{"bike_id":"4eb2eea8-9687-420d-90a2-7dd4c1d192f1","system_id":"levelo_inurba_marseille","lat":43.26563,"lon":5.37295,"is_reserved":false,"is_disabled":false,"rental_uris":{"android":"levelo://app?vid=4eb2eea8-9687-420d-90a2-7dd4c1d192f1","ios":"levelo://app?vid=4eb2eea8-9687-420d-90a2-7dd4c1d192f1"},"vehicle_type_id":"4","last_reported":1737126489,"current_range_meters":35200,"station_id":"ce4bhg12rcd13ifvqf70","pricing_plan_id":"cebpf4jnsgd1na2vs0mg"},{"bike_id":"ddd7f46d-a3d4-4d78-9b88-289f3ab05567","system_id":"levelo_inurba_marseille","lat":43.30634,"lon":5.40091,"is_reserved":false,"is_disabled":false,"rental_uris":{"android":"levelo://app?vid=ddd7f46d-a3d4-4d78-9b88-289f3ab05567","ios":"levelo://app?vid=ddd7f46d-a3d4-4d78-9b88-289f3ab05567"},"vehicle_type_id":"4","last_reported":1737126489,"current_range_meters":33200,"station_id":"ce4bh112rcd13ifvqda0","pricing_plan_id":"cebpf4jnsgd1na2vs0mg"},{"bike_id":"8aa560e9-f571-4a81-9f49-ddd6c948c119","system_id":"levelo_inurba_marseille","lat":43.24389,"lon":5.37058,"is_reserved":false,"is_disabled":false,"rental_uris":{"android":"levelo://app?vid=8aa560e9-f571-4a81-9f49-ddd6c948c119","ios":"levelo://app?vid=8aa560e9-f571-4a81-9f49-ddd6c948c119"},"vehicle_type_id":"4","last_reported":1737126489,"current_range_meters":25600,"station_id":"ce4bhhh2rcd13ifvqfk0","pricing_plan_id":"cebpf4jnsgd1na2vs0mg"},{"bike_id":"4291a1f8-9a8e-4b30-95c9-92b71424562b","system_id":"levelo_inurba_marseille","lat":43.30272,"lon":5.37695,"is_reserved":false,"is_disabled":false,"rental_uris":{"android":"levelo://app?vid=4291a1f8-9a8e-4b30-95c9-92b71424562b","ios":"levelo://app?vid=4291a1f8-9a8e-4b30-95c9-92b71424562b"},"vehicle_type_id":"4","last_reported":1737126489,"current_range_meters":36000,"station_id":"ce4bguh2rcd13ifvqcj0","pricing_plan_id":"cebpf4jnsgd1na2vs0mg"},{"bike_id":"57ea58e0-8253-4996-85f6-0b9e890bf5ca","system_id":"levelo_inurba_marseille","lat":43.29576,"lon":5.37517,"is_reserved":false,"is_disabled":false,"rental_uris":{"android":"levelo://app?vid=57ea58e0-8253-4996-85f6-0b9e890bf5ca","ios":"levelo://app?vid=57ea58e0-8253-4996-85f6-0b9e890bf5ca"},"vehicle_type_id":"4","last_reported":1737126489,"current_range_meters":6400,"station_id":"ce4bgh92rcd13ifvqb50","pricing_plan_id":"cebpf4jnsgd1na2vs0mg"},{"bike_id":"64756ff6-c50a-4d36-a98d-4222fbe2961d","system_id":"levelo_inurba_marseille","lat":43.27624,"lon":5.36131,"is_reserved":false,"is_disabled":false,"rental_uris":{"android":"levelo://app?vid=64756ff6-c50a-4d36-a98d-4222fbe2961d","ios":"levelo://app?vid=64756ff6-c50a-4d36-a98d-4222fbe2961d"},"vehicle_type_id":"4","last_reported":1737126489,"current_range_meters":38000,"station_id":"ce4bgj92rcd13ifvqbe0","pricing_plan_id":"cebpf4jnsgd1na2vs0mg"},{"bike_id":"7ff75ca3-2fe1-414f-8ade-51bc6b73bfee","system_id":"levelo_inurba_marseille","lat":43.31481,"lon":5.37312,"is_reserved":false,"is_disabled":false,"rental_uris":{"android":"levelo://app?vid=7ff75ca3-2fe1-414f-8ade-51bc6b73bfee","ios":"levelo://app?vid=7ff75ca3-2fe1-414f-8ade-51bc6b73bfee"},"vehicle_type_id":"4","last_reported":1737126489,"current_range_meters":6400,"station_id":"ce4bgt12rcd13ifvqcd0","pricing_plan_id":"cebpf4jnsgd1na2vs0mg"},{"bike_id":"fbd191d7-4a8a-4e4c-be9b-3e062bfb0580","system_id":"levelo_inurba_marseille","lat":43.31756,"lon":5.39015,"is_reserved":false,"is_disabled":false,"rental_uris":{"android":"levelo://app?vid=fbd191d7-4a8a-4e4c-be9b-3e062bfb0580","ios":"levelo://app?vid=fbd191d7-4a8a-4e4c-be9b-3e062bfb0580"},"vehicle_type_id":"4","last_reported":1737126489,"current_range_meters":9200,"station_id":"ce4bhqp2rcd13ifvqhng","pricing_plan_id":"cebpf4jnsgd1na2vs0mg"},{"bike_id":"8850e6e9-607c-4707-a35e-396796b7213c","system_id":"levelo_inurba_marseille","lat":43.25577,"lon":5.38236,"is_reserved":false,"is_disabled":true,"rental_uris":{"android":"levelo://app?vid=8850e6e9-607c-4707-a35e-396796b7213c","ios":"levelo://app?vid=8850e6e9-607c-4707-a35e-396796b7213c"},"vehicle_type_id":"4","last_reported":1737126489,"current_range_meters":0,"station_id":"ce4bhih2rcd13ifvqfs0","pricing_plan_id":"cebpf4jnsgd1na2vs0mg"},{"bike_id":"72ee35ea-34ee-4b89-a819-27a2e564f7ec","system_id":"levelo_inurba_marseille","lat":43.25834,"lon":5.39427,"is_reserved":false,"is_disabled":false,"rental_uris":{"android":"levelo://app?vid=72ee35ea-34ee-4b89-a819-27a2e564f7ec","ios":"levelo://app?vid=72ee35ea-34ee-4b89-a819-27a2e564f7ec"},"vehicle_type_id":"4","last_reported":1737126489,"current_range_meters":17200,"station_id":"ce4bhip2rcd13ifvqft0","pricing_plan_id":"cebpf4jnsgd1na2vs0mg"},{"bike_id":"83fce08c-af1c-4c28-9926-5facc31d37af","system_id":"levelo_inurba_marseille","lat":43.29385,"lon":5.37857,"is_reserved":false,"is_disabled":false,"rental_uris":{"android":"levelo://app?vid=83fce08c-af1c-4c28-9926-5facc31d37af","ios":"levelo://app?vid=83fce08c-af1c-4c28-9926-5facc31d37af"},"vehicle_type_id":"4","last_reported":1737126489,"current_range_meters":24800,"station_id":"ce4bgjh2rcd13ifvqbf0","pricing_plan_id":"cebpf4jnsgd1na2vs0mg"},{"bike_id":"ac07186d-4551-43cb-a3cf-f28774728964","system_id":"levelo_inurba_marseille","lat":43.2996,"lon":5.41316,"is_reserved":false,"is_disabled":false,"rental_uris":{"android":"levelo://app?vid=ac07186d-4551-43cb-a3cf-f28774728964","ios":"levelo://app?vid=ac07186d-4551-43cb-a3cf-f28774728964"},"vehicle_type_id":"4","last_reported":1737126489,"current_range_meters":22000,"station_id":"ce4bhp12rcd13ifvqh9g","pricing_plan_id":"cebpf4jnsgd1na2vs0mg"},{"bike_id":"b2269802-94da-4df1-a94f-c0120e22dfba","system_id":"levelo_inurba_marseille","lat":43.2306,"lon":5.35496,"is_reserved":false,"is_disabled":false,"rental_uris":{"android":"levelo://app?vid=b2269802-94da-4df1-a94f-c0120e22dfba","ios":"levelo://app?vid=b2269802-94da-4df1-a94f-c0120e22dfba"},"vehicle_type_id":"4","last_reported":1737126489,"current_range_meters":20400,"station_id":"cpo3342slgdg3j2ifvpg","pricing_plan_id":"cebpf4jnsgd1na2vs0mg"},{"bike_id":"f2550af3-25a7-4872-a652-0f167a56785d","system_id":"levelo_inurba_marseille","lat":43.279127,"lon":5.38001,"is_reserved":false,"is_disabled":false,"rental_uris":{"android":"levelo://app?vid=f2550af3-25a7-4872-a652-0f167a56785d","ios":"levelo://app?vid=f2550af3-25a7-4872-a652-0f167a56785d"},"vehicle_type_id":"4","last_reported":1737126489,"current_range_meters":36800,"station_id":"ce4bhf92rcd13ifvqf50","pricing_plan_id":"cebpf4jnsgd1na2vs0mg"},{"bike_id":"f4a4a406-b0a5-42fc-9236-32e93ac6f6b2","system_id":"levelo_inurba_marseille","lat":43.23169,"lon":5.43712,"is_reserved":false,"is_disabled":true,"rental_uris":{"android":"levelo://app?vid=f4a4a406-b0a5-42fc-9236-32e93ac6f6b2","ios":"levelo://app?vid=f4a4a406-b0a5-42fc-9236-32e93ac6f6b2"},"vehicle_type_id":"4","last_reported":1737126489,"current_range_meters":33600,"station_id":"ce4bhmp2rcd13ifvqgog","pricing_plan_id":"cebpf4jnsgd1na2vs0mg"},{"bike_id":"6e0427fc-0033-4ea2-a984-e9bce01de5bf","system_id":"levelo_inurba_marseille","lat":43.30571,"lon":5.36727,"is_reserved":false,"is_disabled":false,"rental_uris":{"android":"levelo://app?vid=6e0427fc-0033-4ea2-a984-e9bce01de5bf","ios":"levelo://app?vid=6e0427fc-0033-4ea2-a984-e9bce01de5bf"},"vehicle_type_id":"4","last_reported":1737126489,"current_range_meters":16800,"station_id":"ce4bgrp2rcd13ifvqc9g","pricing_plan_id":"cebpf4jnsgd1na2vs0mg"},{"bike_id":"10d4a44b-4ac4-4905-b7ec-86d014e96ec1","system_id":"levelo_inurba_marseille","lat":43.32495,"lon":5.36558,"is_reserved":false,"is_disabled":false,"rental_uris":{"android":"levelo://app?vid=10d4a44b-4ac4-4905-b7ec-86d014e96ec1","ios":"levelo://app?vid=10d4a44b-4ac4-4905-b7ec-86d014e96ec1"},"vehicle_type_id":"4","last_reported":1737126489,"current_range_meters":29600,"station_id":"ce4bhs12rcd13ifvqhvg","pricing_plan_id":"cebpf4jnsgd1na2vs0mg"},{"bike_id":"486b82a3-4b5c-4f03-8752-0eea3399df80","system_id":"levelo_inurba_marseille","lat":43.30125,"lon":5.37424,"is_reserved":false,"is_disabled":false,"rental_uris":{"android":"levelo://app?vid=486b82a3-4b5c-4f03-8752-0eea3399df80","ios":"levelo://app?vid=486b82a3-4b5c-4f03-8752-0eea3399df80"},"vehicle_type_id":"4","last_reported":1737126489,"current_range_meters":20400,"station_id":"ce4bgs92rcd13ifvqcc0","pricing_plan_id":"cebpf4jnsgd1na2vs0mg"},{"bike_id":"1aba7640-b263-49c3-8156-b6c98d8edd68","system_id":"levelo_inurba_marseille","lat":43.29075,"lon":5.37182,"is_reserved":false,"is_disabled":false,"rental_uris":{"android":"levelo://app?vid=1aba7640-b263-49c3-8156-b6c98d8edd68","ios":"levelo://app?vid=1aba7640-b263-49c3-8156-b6c98d8edd68"},"vehicle_type_id":"4","last_reported":1737126489,"current_range_meters":12000,"station_id":"ce4bh5p2rcd13ifvqe4g","pricing_plan_id":"cebpf4jnsgd1na2vs0mg"},{"bike_id":"0881edd0-85f6-441f-ac8b-9dc1a71f2cf2","system_id":"levelo_inurba_marseille","lat":43.30543,"lon":5.36548,"is_reserved":false,"is_disabled":true,"rental_uris":{"android":"levelo://app?vid=0881edd0-85f6-441f-ac8b-9dc1a71f2cf2","ios":"levelo://app?vid=0881edd0-85f6-441f-ac8b-9dc1a71f2cf2"},"vehicle_type_id":"4","last_reported":1737126489,"current_range_meters":0,"station_id":"ce4bgs12rcd13ifvqcag","pricing_plan_id":"cebpf4jnsgd1na2vs0mg"},{"bike_id":"678e6c21-ae33-4211-9534-682ad57c39c7","system_id":"levelo_inurba_marseille","lat":43.23202,"lon":5.39996,"is_reserved":false,"is_disabled":false,"rental_uris":{"android":"levelo://app?vid=678e6c21-ae33-4211-9534-682ad57c39c7","ios":"levelo://app?vid=678e6c21-ae33-4211-9534-682ad57c39c7"},"vehicle_type_id":"4","last_reported":1737126489,"current_range_meters":14000,"station_id":"ce4bhn12rcd13ifvqgqg","pricing_plan_id":"cebpf4jnsgd1na2vs0mg"},{"bike_id":"67c549d5-ce81-408a-a146-d43915340e7f","system_id":"levelo_inurba_marseille","lat":43.33721,"lon":5.39174,"is_reserved":false,"is_disabled":false,"rental_uris":{"android":"levelo://app?vid=67c549d5-ce81-408a-a146-d43915340e7f","ios":"levelo://app?vid=67c549d5-ce81-408a-a146-d43915340e7f"},"vehicle_type_id":"4","last_reported":1737126489,"current_range_meters":38800,"station_id":"ce4bhr92rcd13ifvqhsg","pricing_plan_id":"cebpf4jnsgd1na2vs0mg"},{"bike_id":"fa546e5c-a68a-4a86-a5bb-1d856af38d7e","system_id":"levelo_inurba_marseille","lat":43.23564,"lon":5.43615,"is_reserved":false,"is_disabled":true,"rental_uris":{"android":"levelo://app?vid=fa546e5c-a68a-4a86-a5bb-1d856af38d7e","ios":"levelo://app?vid=fa546e5c-a68a-4a86-a5bb-1d856af38d7e"},"vehicle_type_id":"4","last_reported":1737126489,"current_range_meters":0,"station_id":"","pricing_plan_id":"cebpf4jnsgd1na2vs0mg"},{"bike_id":"f7e656a6-8194-49aa-92c5-4a13188e4018","system_id":"levelo_inurba_marseille","lat":43.31331,"lon":5.397,"is_reserved":false,"is_disabled":false,"rental_uris":{"android":"levelo://app?vid=f7e656a6-8194-49aa-92c5-4a13188e4018","ios":"levelo://app?vid=f7e656a6-8194-49aa-92c5-4a13188e4018"},"vehicle_type_id":"4","last_reported":1737126489,"current_range_meters":30400,"station_id":"ce4bgvp2rcd13ifvqcu0","pricing_plan_id":"cebpf4jnsgd1na2vs0mg"},{"bike_id":"9d9efa2a-d8eb-4872-bc10-0b4e2441037f","system_id":"levelo_inurba_marseille","lat":43.29798,"lon":5.38093,"is_reserved":false,"is_disabled":false,"rental_uris":{"android":"levelo://app?vid=9d9efa2a-d8eb-4872-bc10-0b4e2441037f","ios":"levelo://app?vid=9d9efa2a-d8eb-4872-bc10-0b4e2441037f"},"vehicle_type_id":"4","last_reported":1737126489,"current_range_meters":30000,"station_id":"ce4bgip2rcd13ifvqbb0","pricing_plan_id":"cebpf4jnsgd1na2vs0mg"},{"bike_id":"77783784-6590-47af-8a98-6a097470bc1c","system_id":"levelo_inurba_marseille","lat":43.30451,"lon":5.38892,"is_reserved":false,"is_disabled":true,"rental_uris":{"android":"levelo://app?vid=77783784-6590-47af-8a98-6a097470bc1c","ios":"levelo://app?vid=77783784-6590-47af-8a98-6a097470bc1c"},"vehicle_type_id":"4","last_reported":1737126489,"current_range_meters":2000,"station_id":"ce4bgk12rcd13ifvqbi0","pricing_plan_id":"cebpf4jnsgd1na2vs0mg"},{"bike_id":"34709e64-d1c8-4538-88a5-33805792c0a5","system_id":"levelo_inurba_marseille","lat":43.25833,"lon":5.39434,"is_reserved":false,"is_disabled":false,"rental_uris":{"android":"levelo://app?vid=34709e64-d1c8-4538-88a5-33805792c0a5","ios":"levelo://app?vid=34709e64-d1c8-4538-88a5-33805792c0a5"},"vehicle_type_id":"4","last_reported":1737126489,"current_range_meters":38000,"station_id":"ce4bhip2rcd13ifvqft0","pricing_plan_id":"cebpf4jnsgd1na2vs0mg"},{"bike_id":"d4c5158e-511e-4c0e-af6f-6a3bbf5cc0e5","system_id":"levelo_inurba_marseille","lat":43.27123,"lon":5.42235,"is_reserved":false,"is_disabled":true,"rental_uris":{"android":"levelo://app?vid=d4c5158e-511e-4c0e-af6f-6a3bbf5cc0e5","ios":"levelo://app?vid=d4c5158e-511e-4c0e-af6f-6a3bbf5cc0e5"},"vehicle_type_id":"4","last_reported":1737126489,"current_range_meters":0,"station_id":"","pricing_plan_id":"cebpf4jnsgd1na2vs0mg"},{"bike_id":"8067e2c8-91e1-4b01-955b-cb47a104e7dc","system_id":"levelo_inurba_marseille","lat":43.24195,"lon":5.3973,"is_reserved":false,"is_disabled":false,"rental_uris":{"android":"levelo://app?vid=8067e2c8-91e1-4b01-955b-cb47a104e7dc","ios":"levelo://app?vid=8067e2c8-91e1-4b01-955b-cb47a104e7dc"},"vehicle_type_id":"4","last_reported":1737126489,"current_range_meters":27200,"station_id":"ce4bhn12rcd13ifvqgpg","pricing_plan_id":"cebpf4jnsgd1na2vs0mg"},{"bike_id":"a54a8cbb-0561-422b-8a0e-7e66bd035e42","system_id":"levelo_inurba_marseille","lat":43.29566,"lon":5.37515,"is_reserved":false,"is_disabled":false,"rental_uris":{"android":"levelo://app?vid=a54a8cbb-0561-422b-8a0e-7e66bd035e42","ios":"levelo://app?vid=a54a8cbb-0561-422b-8a0e-7e66bd035e42"},"vehicle_type_id":"4","last_reported":1737126489,"current_range_meters":25200,"station_id":"ce4bgh92rcd13ifvqb50","pricing_plan_id":"cebpf4jnsgd1na2vs0mg"},{"bike_id":"9569f018-7f3b-48a4-a67f-8f2b4ba47141","system_id":"levelo_inurba_marseille","lat":43.29525,"lon":5.38542,"is_reserved":false,"is_disabled":false,"rental_uris":{"android":"levelo://app?vid=9569f018-7f3b-48a4-a67f-8f2b4ba47141","ios":"levelo://app?vid=9569f018-7f3b-48a4-a67f-8f2b4ba47141"},"vehicle_type_id":"4","last_reported":1737126489,"current_range_meters":26000,"station_id":"ce4bgih2rcd13ifvqba0","pricing_plan_id":"cebpf4jnsgd1na2vs0mg"},{"bike_id":"eb4495ff-79d8-4217-8f5e-4f95b3390e60","system_id":"levelo_inurba_marseille","lat":43.28089,"lon":5.39628,"is_reserved":false,"is_disabled":false,"rental_uris":{"android":"levelo://app?vid=eb4495ff-79d8-4217-8f5e-4f95b3390e60","ios":"levelo://app?vid=eb4495ff-79d8-4217-8f5e-4f95b3390e60"},"vehicle_type_id":"4","last_reported":1737126489,"current_range_meters":38800,"station_id":"ce4bho12rcd13ifvqh2g","pricing_plan_id":"cebpf4jnsgd1na2vs0mg"},{"bike_id":"e7081219-4075-4492-9ad3-a5f3da456ed6","system_id":"levelo_inurba_marseille","lat":43.30308,"lon":5.3921,"is_reserved":false,"is_disabled":false,"rental_uris":{"android":"levelo://app?vid=e7081219-4075-4492-9ad3-a5f3da456ed6","ios":"levelo://app?vid=e7081219-4075-4492-9ad3-a5f3da456ed6"},"vehicle_type_id":"4","last_reported":1737126489,"current_range_meters":18000,"station_id":"ce4bgkh2rcd13ifvqbk0","pricing_plan_id":"cebpf4jnsgd1na2vs0mg"},{"bike_id":"575187ad-6d10-426e-85b8-4268426275d2","system_id":"levelo_inurba_marseille","lat":43.27993,"lon":5.41668,"is_reserved":false,"is_disabled":false,"rental_uris":{"android":"levelo://app?vid=575187ad-6d10-426e-85b8-4268426275d2","ios":"levelo://app?vid=575187ad-6d10-426e-85b8-4268426275d2"},"vehicle_type_id":"4","last_reported":1737126489,"current_range_meters":38800,"station_id":"ce4bho12rcd13ifvqh1g","pricing_plan_id":"cebpf4jnsgd1na2vs0mg"},{"bike_id":"56b8e9bc-f750-4815-bc98-9098414d16db","system_id":"levelo_inurba_marseille","lat":43.23191,"lon":5.35553,"is_reserved":false,"is_disabled":true,"rental_uris":{"android":"levelo://app?vid=56b8e9bc-f750-4815-bc98-9098414d16db","ios":"levelo://app?vid=56b8e9bc-f750-4815-bc98-9098414d16db"},"vehicle_type_id":"4","last_reported":1737126489,"current_range_meters":0,"station_id":"ce4bhu92rcd13ifvqi70","pricing_plan_id":"cebpf4jnsgd1na2vs0mg"},{"bike_id":"262ccfa4-8a54-403e-9d89-da4bb7cec783","system_id":"levelo_inurba_marseille","lat":43.29091,"lon":5.38147,"is_reserved":false,"is_disabled":false,"rental_uris":{"android":"levelo://app?vid=262ccfa4-8a54-403e-9d89-da4bb7cec783","ios":"levelo://app?vid=262ccfa4-8a54-403e-9d89-da4bb7cec783"},"vehicle_type_id":"4","last_reported":1737126489,"current_range_meters":36800,"station_id":"ce4bh512rcd13ifvqe2g","pricing_plan_id":"cebpf4jnsgd1na2vs0mg"},{"bike_id":"fe61bab4-2147-46ac-96bc-5b15a0832ed3","system_id":"levelo_inurba_marseille","lat":43.23149,"lon":5.43713,"is_reserved":false,"is_disabled":true,"rental_uris":{"android":"levelo://app?vid=fe61bab4-2147-46ac-96bc-5b15a0832ed3","ios":"levelo://app?vid=fe61bab4-2147-46ac-96bc-5b15a0832ed3"},"vehicle_type_id":"4","last_reported":1737126489,"current_range_meters":0,"station_id":"ce4bhmp2rcd13ifvqgog","pricing_plan_id":"cebpf4jnsgd1na2vs0mg"},{"bike_id":"80d8eccd-3afc-44d9-a476-939f5718f843","system_id":"levelo_inurba_marseille","lat":43.29583,"lon":5.37489,"is_reserved":false,"is_disabled":false,"rental_uris":{"android":"levelo://app?vid=80d8eccd-3afc-44d9-a476-939f5718f843","ios":"levelo://app?vid=80d8eccd-3afc-44d9-a476-939f5718f843"},"vehicle_type_id":"4","last_reported":1737126489,"current_range_meters":38400,"station_id":"ce4bgh92rcd13ifvqb50","pricing_plan_id":"cebpf4jnsgd1na2vs0mg"},{"bike_id":"89f094a3-84a6-4a3f-a7be-368eadfc0b2d","system_id":"levelo_inurba_marseille","lat":43.25737,"lon":5.41113,"is_reserved":false,"is_disabled":true,"rental_uris":{"android":"levelo://app?vid=89f094a3-84a6-4a3f-a7be-368eadfc0b2d","ios":"levelo://app?vid=89f094a3-84a6-4a3f-a7be-368eadfc0b2d"},"vehicle_type_id":"4","last_reported":1737126489,"current_range_meters":2000,"station_id":"ce4bhkp2rcd13ifvqgd0","pricing_plan_id":"cebpf4jnsgd1na2vs0mg"},{"bike_id":"b0fbb4ee-7888-4a34-9927-4039dced7082","system_id":"levelo_inurba_marseille","lat":43.25872,"lon":5.399,"is_reserved":false,"is_disabled":false,"rental_uris":{"android":"levelo://app?vid=b0fbb4ee-7888-4a34-9927-4039dced7082","ios":"levelo://app?vid=b0fbb4ee-7888-4a34-9927-4039dced7082"},"vehicle_type_id":"4","last_reported":1737126489,"current_range_meters":24800,"station_id":"ce4bhl92rcd13ifvqghg","pricing_plan_id":"cebpf4jnsgd1na2vs0mg"},{"bike_id":"1b0abdf0-ebc9-477b-9a5c-20d604bc88e3","system_id":"levelo_inurba_marseille","lat":43.25101,"lon":5.395,"is_reserved":false,"is_disabled":false,"rental_uris":{"android":"levelo://app?vid=1b0abdf0-ebc9-477b-9a5c-20d604bc88e3","ios":"levelo://app?vid=1b0abdf0-ebc9-477b-9a5c-20d604bc88e3"},"vehicle_type_id":"4","last_reported":1737126489,"current_range_meters":38800,"station_id":"ce4bhm12rcd13ifvqgkg","pricing_plan_id":"cebpf4jnsgd1na2vs0mg"},{"bike_id":"8b843e76-bd96-4595-ab72-80ffcae76728","system_id":"levelo_inurba_marseille","lat":43.30281,"lon":5.36474,"is_reserved":false,"is_disabled":false,"rental_uris":{"android":"levelo://app?vid=8b843e76-bd96-4595-ab72-80ffcae76728","ios":"levelo://app?vid=8b843e76-bd96-4595-ab72-80ffcae76728"},"vehicle_type_id":"4","last_reported":1737126489,"current_range_meters":14400,"station_id":"ce4bgs12rcd13ifvqcag","pricing_plan_id":"cebpf4jnsgd1na2vs0mg"},{"bike_id":"06e0e151-f6f8-48f7-a8db-8d62a3b6f9ea","system_id":"levelo_inurba_marseille","lat":43.308701,"lon":5.371982,"is_reserved":false,"is_disabled":true,"rental_uris":{"android":"levelo://app?vid=06e0e151-f6f8-48f7-a8db-8d62a3b6f9ea","ios":"levelo://app?vid=06e0e151-f6f8-48f7-a8db-8d62a3b6f9ea"},"vehicle_type_id":"4","last_reported":1737126489,"current_range_meters":400,"station_id":"ce4bguh2rcd13ifvqckg","pricing_plan_id":"cebpf4jnsgd1na2vs0mg"},{"bike_id":"22465212-93af-4e0b-b803-6ee82bba56d5","system_id":"levelo_inurba_marseille","lat":43.33775,"lon":5.3748,"is_reserved":false,"is_disabled":false,"rental_uris":{"android":"levelo://app?vid=22465212-93af-4e0b-b803-6ee82bba56d5","ios":"levelo://app?vid=22465212-93af-4e0b-b803-6ee82bba56d5"},"vehicle_type_id":"4","last_reported":1737126489,"current_range_meters":30400,"station_id":"","pricing_plan_id":"cebpf4jnsgd1na2vs0mg"},{"bike_id":"57d28b69-a629-4d00-8952-ad3637220644","system_id":"levelo_inurba_marseille","lat":43.29627,"lon":5.372003,"is_reserved":false,"is_disabled":true,"rental_uris":{"android":"levelo://app?vid=57d28b69-a629-4d00-8952-ad3637220644","ios":"levelo://app?vid=57d28b69-a629-4d00-8952-ad3637220644"},"vehicle_type_id":"4","last_reported":1737126489,"current_range_meters":0,"station_id":"ce4bgnh2rcd13ifvqc0g","pricing_plan_id":"cebpf4jnsgd1na2vs0mg"},{"bike_id":"979d7a5c-00ce-4dcf-a15c-0fc9c9e35c10","system_id":"levelo_inurba_marseille","lat":43.33783,"lon":5.37456,"is_reserved":false,"is_disabled":false,"rental_uris":{"android":"levelo://app?vid=979d7a5c-00ce-4dcf-a15c-0fc9c9e35c10","ios":"levelo://app?vid=979d7a5c-00ce-4dcf-a15c-0fc9c9e35c10"},"vehicle_type_id":"4","last_reported":1737126489,"current_range_meters":28800,"station_id":"","pricing_plan_id":"cebpf4jnsgd1na2vs0mg"},{"bike_id":"730df4ba-4772-4a0e-9e4a-bb6bde6caaeb","system_id":"levelo_inurba_marseille","lat":43.30116,"lon":5.39873,"is_reserved":false,"is_disabled":true,"rental_uris":{"android":"levelo://app?vid=730df4ba-4772-4a0e-9e4a-bb6bde6caaeb","ios":"levelo://app?vid=730df4ba-4772-4a0e-9e4a-bb6bde6caaeb"},"vehicle_type_id":"4","last_reported":1737126489,"current_range_meters":38000,"station_id":"ce4bh0h2rcd13ifvqd40","pricing_plan_id":"cebpf4jnsgd1na2vs0mg"},{"bike_id":"de61cbba-eea5-4892-8b18-4e1429a5d6be","system_id":"levelo_inurba_marseille","lat":43.304418,"lon":5.389057,"is_reserved":false,"is_disabled":false,"rental_uris":{"android":"levelo://app?vid=de61cbba-eea5-4892-8b18-4e1429a5d6be","ios":"levelo://app?vid=de61cbba-eea5-4892-8b18-4e1429a5d6be"},"vehicle_type_id":"4","last_reported":1737126489,"current_range_meters":32400,"station_id":"ce4bgk12rcd13ifvqbi0","pricing_plan_id":"cebpf4jnsgd1na2vs0mg"},{"bike_id":"c12f2c99-9f4e-4904-960d-6152d0307e69","system_id":"levelo_inurba_marseille","lat":43.26064,"lon":5.39399,"is_reserved":false,"is_disabled":false,"rental_uris":{"android":"levelo://app?vid=c12f2c99-9f4e-4904-960d-6152d0307e69","ios":"levelo://app?vid=c12f2c99-9f4e-4904-960d-6152d0307e69"},"vehicle_type_id":"4","last_reported":1737126489,"current_range_meters":8400,"station_id":"ce4bhh92rcd13ifvqfj0","pricing_plan_id":"cebpf4jnsgd1na2vs0mg"},{"bike_id":"2360f123-f4b2-4852-87a6-e3ab23697278","system_id":"levelo_inurba_marseille","lat":43.31764,"lon":5.39016,"is_reserved":false,"is_disabled":false,"rental_uris":{"android":"levelo://app?vid=2360f123-f4b2-4852-87a6-e3ab23697278","ios":"levelo://app?vid=2360f123-f4b2-4852-87a6-e3ab23697278"},"vehicle_type_id":"4","last_reported":1737126489,"current_range_meters":38800,"station_id":"ce4bhqp2rcd13ifvqhng","pricing_plan_id":"cebpf4jnsgd1na2vs0mg"},{"bike_id":"2852113b-49ee-4cbf-9a16-ea68797906c2","system_id":"levelo_inurba_marseille","lat":43.3375,"lon":5.37443,"is_reserved":false,"is_disabled":false,"rental_uris":{"android":"levelo://app?vid=2852113b-49ee-4cbf-9a16-ea68797906c2","ios":"levelo://app?vid=2852113b-49ee-4cbf-9a16-ea68797906c2"},"vehicle_type_id":"4","last_reported":1737126489,"current_range_meters":37600,"station_id":"","pricing_plan_id":"cebpf4jnsgd1na2vs0mg"},{"bike_id":"4bc87b52-1a4d-49c6-afbd-02ade80e6618","system_id":"levelo_inurba_marseille","lat":43.27222,"lon":5.39221,"is_reserved":false,"is_disabled":true,"rental_uris":{"android":"levelo://app?vid=4bc87b52-1a4d-49c6-afbd-02ade80e6618","ios":"levelo://app?vid=4bc87b52-1a4d-49c6-afbd-02ade80e6618"},"vehicle_type_id":"4","last_reported":1737126489,"current_range_meters":0,"station_id":"ce4bhhp2rcd13ifvqfm0","pricing_plan_id":"cebpf4jnsgd1na2vs0mg"},{"bike_id":"5113b18a-9451-4f05-88b9-3809a0124e54","system_id":"levelo_inurba_marseille","lat":43.29791,"lon":5.38102,"is_reserved":false,"is_disabled":false,"rental_uris":{"android":"levelo://app?vid=5113b18a-9451-4f05-88b9-3809a0124e54","ios":"levelo://app?vid=5113b18a-9451-4f05-88b9-3809a0124e54"},"vehicle_type_id":"4","last_reported":1737126489,"current_range_meters":14400,"station_id":"ce4bgip2rcd13ifvqbb0","pricing_plan_id":"cebpf4jnsgd1na2vs0mg"},{"bike_id":"65b3532e-cf35-4574-bbb0-b080795fe8fc","system_id":"levelo_inurba_marseille","lat":43.25122,"lon":5.4028,"is_reserved":false,"is_disabled":false,"rental_uris":{"android":"levelo://app?vid=65b3532e-cf35-4574-bbb0-b080795fe8fc","ios":"levelo://app?vid=65b3532e-cf35-4574-bbb0-b080795fe8fc"},"vehicle_type_id":"4","last_reported":1737126489,"current_range_meters":38800,"station_id":"ce4bhlh2rcd13ifvqgig","pricing_plan_id":"cebpf4jnsgd1na2vs0mg"},{"bike_id":"cefc250c-1baa-4a78-8fed-eb20c7fbb95c","system_id":"levelo_inurba_marseille","lat":43.23188,"lon":5.3555,"is_reserved":false,"is_disabled":true,"rental_uris":{"android":"levelo://app?vid=cefc250c-1baa-4a78-8fed-eb20c7fbb95c","ios":"levelo://app?vid=cefc250c-1baa-4a78-8fed-eb20c7fbb95c"},"vehicle_type_id":"4","last_reported":1737126489,"current_range_meters":0,"station_id":"ce4bhu92rcd13ifvqi70","pricing_plan_id":"cebpf4jnsgd1na2vs0mg"},{"bike_id":"6a7366d7-ed8c-4629-bf0c-70c2abcda36d","system_id":"levelo_inurba_marseille","lat":43.23196,"lon":5.35551,"is_reserved":false,"is_disabled":false,"rental_uris":{"android":"levelo://app?vid=6a7366d7-ed8c-4629-bf0c-70c2abcda36d","ios":"levelo://app?vid=6a7366d7-ed8c-4629-bf0c-70c2abcda36d"},"vehicle_type_id":"4","last_reported":1737126489,"current_range_meters":8000,"station_id":"ce4bhu92rcd13ifvqi70","pricing_plan_id":"cebpf4jnsgd1na2vs0mg"},{"bike_id":"2d7f3353-743b-41e1-85f2-e32181d4ae48","system_id":"levelo_inurba_marseille","lat":43.31993,"lon":5.3815,"is_reserved":false,"is_disabled":false,"rental_uris":{"android":"levelo://app?vid=2d7f3353-743b-41e1-85f2-e32181d4ae48","ios":"levelo://app?vid=2d7f3353-743b-41e1-85f2-e32181d4ae48"},"vehicle_type_id":"4","last_reported":1737126489,"current_range_meters":28000,"station_id":"ce4bhr12rcd13ifvqhpg","pricing_plan_id":"cebpf4jnsgd1na2vs0mg"},{"bike_id":"cdb32490-46fd-4ee0-947c-b9b2129a99fc","system_id":"levelo_inurba_marseille","lat":43.26039,"lon":5.37545,"is_reserved":false,"is_disabled":false,"rental_uris":{"android":"levelo://app?vid=cdb32490-46fd-4ee0-947c-b9b2129a99fc","ios":"levelo://app?vid=cdb32490-46fd-4ee0-947c-b9b2129a99fc"},"vehicle_type_id":"4","last_reported":1737126489,"current_range_meters":38000,"station_id":"ce4bhgh2rcd13ifvqfa0","pricing_plan_id":"cebpf4jnsgd1na2vs0mg"},{"bike_id":"0aca818e-c42c-4593-b268-e6aed1d4fa86","system_id":"levelo_inurba_marseille","lat":43.30092,"lon":5.373,"is_reserved":false,"is_disabled":false,"rental_uris":{"android":"levelo://app?vid=0aca818e-c42c-4593-b268-e6aed1d4fa86","ios":"levelo://app?vid=0aca818e-c42c-4593-b268-e6aed1d4fa86"},"vehicle_type_id":"4","last_reported":1737126489,"current_range_meters":12800,"station_id":"","pricing_plan_id":"cebpf4jnsgd1na2vs0mg"},{"bike_id":"35deb437-7ef2-4ee7-9ea5-27ce0001ca7b","system_id":"levelo_inurba_marseille","lat":43.26061,"lon":5.39387,"is_reserved":false,"is_disabled":false,"rental_uris":{"android":"levelo://app?vid=35deb437-7ef2-4ee7-9ea5-27ce0001ca7b","ios":"levelo://app?vid=35deb437-7ef2-4ee7-9ea5-27ce0001ca7b"},"vehicle_type_id":"4","last_reported":1737126489,"current_range_meters":38800,"station_id":"ce4bhh92rcd13ifvqfj0","pricing_plan_id":"cebpf4jnsgd1na2vs0mg"},{"bike_id":"8950ad97-12b3-4231-a25a-a92e6e418d6d","system_id":"levelo_inurba_marseille","lat":43.28611,"lon":5.37052,"is_reserved":false,"is_disabled":false,"rental_uris":{"android":"levelo://app?vid=8950ad97-12b3-4231-a25a-a92e6e418d6d","ios":"levelo://app?vid=8950ad97-12b3-4231-a25a-a92e6e418d6d"},"vehicle_type_id":"4","last_reported":1737126489,"current_range_meters":19600,"station_id":"ce4bht12rcd13ifvqi60","pricing_plan_id":"cebpf4jnsgd1na2vs0mg"},{"bike_id":"401864e0-5a18-47f8-946b-0a4d3027b5a4","system_id":"levelo_inurba_marseille","lat":43.22956,"lon":5.35385,"is_reserved":false,"is_disabled":false,"rental_uris":{"android":"levelo://app?vid=401864e0-5a18-47f8-946b-0a4d3027b5a4","ios":"levelo://app?vid=401864e0-5a18-47f8-946b-0a4d3027b5a4"},"vehicle_type_id":"4","last_reported":1737126489,"current_range_meters":38000,"station_id":"cpo3532slgdg3j2ikp40","pricing_plan_id":"cebpf4jnsgd1na2vs0mg"},{"bike_id":"c4adf78e-c3fd-48fe-8d43-866739a0510c","system_id":"levelo_inurba_marseille","lat":43.29031,"lon":5.35926,"is_reserved":false,"is_disabled":false,"rental_uris":{"android":"levelo://app?vid=c4adf78e-c3fd-48fe-8d43-866739a0510c","ios":"levelo://app?vid=c4adf78e-c3fd-48fe-8d43-866739a0510c"},"vehicle_type_id":"4","last_reported":1737126489,"current_range_meters":38800,"station_id":"ce4bha92rcd13ifvqeg0","pricing_plan_id":"cebpf4jnsgd1na2vs0mg"},{"bike_id":"d6b22d9e-2b41-4a7d-9ffd-a329d4d5005b","system_id":"levelo_inurba_marseille","lat":43.28273,"lon":5.35063,"is_reserved":false,"is_disabled":false,"rental_uris":{"android":"levelo://app?vid=d6b22d9e-2b41-4a7d-9ffd-a329d4d5005b","ios":"levelo://app?vid=d6b22d9e-2b41-4a7d-9ffd-a329d4d5005b"},"vehicle_type_id":"4","last_reported":1737126489,"current_range_meters":8400,"station_id":"ce4bhbp2rcd13ifvqerg","pricing_plan_id":"cebpf4jnsgd1na2vs0mg"},{"bike_id":"a5f66bc0-6f37-431b-b929-b45282fc358a","system_id":"levelo_inurba_marseille","lat":43.29917,"lon":5.37469,"is_reserved":false,"is_disabled":false,"rental_uris":{"android":"levelo://app?vid=a5f66bc0-6f37-431b-b929-b45282fc358a","ios":"levelo://app?vid=a5f66bc0-6f37-431b-b929-b45282fc358a"},"vehicle_type_id":"4","last_reported":1737126489,"current_range_meters":18000,"station_id":"ce4bgjh2rcd13ifvqbg0","pricing_plan_id":"cebpf4jnsgd1na2vs0mg"},{"bike_id":"ebd9e941-b2dc-420e-a6db-e189bc6bd45d","system_id":"levelo_inurba_marseille","lat":43.26479,"lon":5.39552,"is_reserved":false,"is_disabled":false,"rental_uris":{"android":"levelo://app?vid=ebd9e941-b2dc-420e-a6db-e189bc6bd45d","ios":"levelo://app?vid=ebd9e941-b2dc-420e-a6db-e189bc6bd45d"},"vehicle_type_id":"4","last_reported":1737126489,"current_range_meters":19600,"station_id":"ce4bhi12rcd13ifvqfq0","pricing_plan_id":"cebpf4jnsgd1na2vs0mg"},{"bike_id":"7bf4b3d1-d105-4981-a4e2-64ff20f700aa","system_id":"levelo_inurba_marseille","lat":43.30077,"lon":5.39026,"is_reserved":false,"is_disabled":false,"rental_uris":{"android":"levelo://app?vid=7bf4b3d1-d105-4981-a4e2-64ff20f700aa","ios":"levelo://app?vid=7bf4b3d1-d105-4981-a4e2-64ff20f700aa"},"vehicle_type_id":"4","last_reported":1737126489,"current_range_meters":34000,"station_id":"ce4bh192rcd13ifvqdb0","pricing_plan_id":"cebpf4jnsgd1na2vs0mg"},{"bike_id":"e4cd166d-2fa8-4517-8017-681d4694623f","system_id":"levelo_inurba_marseille","lat":43.29723,"lon":5.37694,"is_reserved":false,"is_disabled":false,"rental_uris":{"android":"levelo://app?vid=e4cd166d-2fa8-4517-8017-681d4694623f","ios":"levelo://app?vid=e4cd166d-2fa8-4517-8017-681d4694623f"},"vehicle_type_id":"4","last_reported":1737126489,"current_range_meters":35600,"station_id":"ce4bgkh2rcd13ifvqbl0","pricing_plan_id":"cebpf4jnsgd1na2vs0mg"},{"bike_id":"cce18e8b-5c0e-421d-b86f-16b36e3a6d53","system_id":"levelo_inurba_marseille","lat":43.27212,"lon":5.39179,"is_reserved":false,"is_disabled":false,"rental_uris":{"android":"levelo://app?vid=cce18e8b-5c0e-421d-b86f-16b36e3a6d53","ios":"levelo://app?vid=cce18e8b-5c0e-421d-b86f-16b36e3a6d53"},"vehicle_type_id":"4","last_reported":1737126489,"current_range_meters":38000,"station_id":"ce4bhhp2rcd13ifvqfm0","pricing_plan_id":"cebpf4jnsgd1na2vs0mg"},{"bike_id":"1eb03032-2ce0-40c6-a7cc-2762673b134a","system_id":"levelo_inurba_marseille","lat":43.29019,"lon":5.38146,"is_reserved":false,"is_disabled":false,"rental_uris":{"android":"levelo://app?vid=1eb03032-2ce0-40c6-a7cc-2762673b134a","ios":"levelo://app?vid=1eb03032-2ce0-40c6-a7cc-2762673b134a"},"vehicle_type_id":"4","last_reported":1737126489,"current_range_meters":27600,"station_id":"ce4bh4p2rcd13ifvqe1g","pricing_plan_id":"cebpf4jnsgd1na2vs0mg"},{"bike_id":"d60479e6-98ee-480e-bc82-d76b72d43880","system_id":"levelo_inurba_marseille","lat":43.26795,"lon":5.39418,"is_reserved":false,"is_disabled":false,"rental_uris":{"android":"levelo://app?vid=d60479e6-98ee-480e-bc82-d76b72d43880","ios":"levelo://app?vid=d60479e6-98ee-480e-bc82-d76b72d43880"},"vehicle_type_id":"4","last_reported":1737126489,"current_range_meters":32000,"station_id":"ce4bhh12rcd13ifvqfg0","pricing_plan_id":"cebpf4jnsgd1na2vs0mg"},{"bike_id":"02df92ca-bc39-46ce-9f24-a041d776d92b","system_id":"levelo_inurba_marseille","lat":43.29536,"lon":5.39045,"is_reserved":false,"is_disabled":false,"rental_uris":{"android":"levelo://app?vid=02df92ca-bc39-46ce-9f24-a041d776d92b","ios":"levelo://app?vid=02df92ca-bc39-46ce-9f24-a041d776d92b"},"vehicle_type_id":"4","last_reported":1737126489,"current_range_meters":8800,"station_id":"ce4bh3p2rcd13ifvqdp0","pricing_plan_id":"cebpf4jnsgd1na2vs0mg"},{"bike_id":"c900a35e-adb0-4181-8b02-4ef655f399fb","system_id":"levelo_inurba_marseille","lat":43.33737,"lon":5.39157,"is_reserved":false,"is_disabled":false,"rental_uris":{"android":"levelo://app?vid=c900a35e-adb0-4181-8b02-4ef655f399fb","ios":"levelo://app?vid=c900a35e-adb0-4181-8b02-4ef655f399fb"},"vehicle_type_id":"4","last_reported":1737126489,"current_range_meters":20800,"station_id":"","pricing_plan_id":"cebpf4jnsgd1na2vs0mg"},{"bike_id":"72ca0742-1df6-4026-87cc-098e9e8db1ab","system_id":"levelo_inurba_marseille","lat":43.23964,"lon":5.366358,"is_reserved":false,"is_disabled":false,"rental_uris":{"android":"levelo://app?vid=72ca0742-1df6-4026-87cc-098e9e8db1ab","ios":"levelo://app?vid=72ca0742-1df6-4026-87cc-098e9e8db1ab"},"vehicle_type_id":"4","last_reported":1737126489,"current_range_meters":28000,"station_id":"ce4bhi12rcd13ifvqfp0","pricing_plan_id":"cebpf4jnsgd1na2vs0mg"},{"bike_id":"98337919-509e-457e-a29d-b25ffdf23235","system_id":"levelo_inurba_marseille","lat":43.31901,"lon":5.40732,"is_reserved":false,"is_disabled":false,"rental_uris":{"android":"levelo://app?vid=98337919-509e-457e-a29d-b25ffdf23235","ios":"levelo://app?vid=98337919-509e-457e-a29d-b25ffdf23235"},"vehicle_type_id":"4","last_reported":1737126489,"current_range_meters":38800,"station_id":"ce4bhq12rcd13ifvqhig","pricing_plan_id":"cebpf4jnsgd1na2vs0mg"},{"bike_id":"9370995a-0faf-41aa-bfba-e8f18c48b388","system_id":"levelo_inurba_marseille","lat":43.27372,"lon":5.3626,"is_reserved":false,"is_disabled":false,"rental_uris":{"android":"levelo://app?vid=9370995a-0faf-41aa-bfba-e8f18c48b388","ios":"levelo://app?vid=9370995a-0faf-41aa-bfba-e8f18c48b388"},"vehicle_type_id":"4","last_reported":1737126489,"current_range_meters":28400,"station_id":"ce4bhbh2rcd13ifvqeo0","pricing_plan_id":"cebpf4jnsgd1na2vs0mg"},{"bike_id":"5ed39e30-6df6-4cb7-b9e5-8eddd4f008ab","system_id":"levelo_inurba_marseille","lat":43.303615,"lon":5.39103,"is_reserved":false,"is_disabled":true,"rental_uris":{"android":"levelo://app?vid=5ed39e30-6df6-4cb7-b9e5-8eddd4f008ab","ios":"levelo://app?vid=5ed39e30-6df6-4cb7-b9e5-8eddd4f008ab"},"vehicle_type_id":"4","last_reported":1737126489,"current_range_meters":0,"station_id":"ce4bgkh2rcd13ifvqbk0","pricing_plan_id":"cebpf4jnsgd1na2vs0mg"},{"bike_id":"0968e770-3187-4cba-bb8f-c262e25e38e3","system_id":"levelo_inurba_marseille","lat":43.27843,"lon":5.39206,"is_reserved":false,"is_disabled":false,"rental_uris":{"android":"levelo://app?vid=0968e770-3187-4cba-bb8f-c262e25e38e3","ios":"levelo://app?vid=0968e770-3187-4cba-bb8f-c262e25e38e3"},"vehicle_type_id":"4","last_reported":1737126489,"current_range_meters":19200,"station_id":"ce4bhjp2rcd13ifvqga0","pricing_plan_id":"cebpf4jnsgd1na2vs0mg"},{"bike_id":"7383474c-b45a-4438-837c-99d7ae866fe7","system_id":"levelo_inurba_marseille","lat":43.26067,"lon":5.394,"is_reserved":false,"is_disabled":false,"rental_uris":{"android":"levelo://app?vid=7383474c-b45a-4438-837c-99d7ae866fe7","ios":"levelo://app?vid=7383474c-b45a-4438-837c-99d7ae866fe7"},"vehicle_type_id":"4","last_reported":1737126489,"current_range_meters":38800,"station_id":"ce4bhh92rcd13ifvqfj0","pricing_plan_id":"cebpf4jnsgd1na2vs0mg"},{"bike_id":"e8aae01c-1b25-432f-b32e-ed916582cd1a","system_id":"levelo_inurba_marseille","lat":43.28841,"lon":5.3931,"is_reserved":false,"is_disabled":false,"rental_uris":{"android":"levelo://app?vid=e8aae01c-1b25-432f-b32e-ed916582cd1a","ios":"levelo://app?vid=e8aae01c-1b25-432f-b32e-ed916582cd1a"},"vehicle_type_id":"4","last_reported":1737126489,"current_range_meters":20400,"station_id":"ce4bh2p2rcd13ifvqdi0","pricing_plan_id":"cebpf4jnsgd1na2vs0mg"},{"bike_id":"21335a81-06b0-42e9-a5f8-3992402d742f","system_id":"levelo_inurba_marseille","lat":43.24187,"lon":5.39728,"is_reserved":false,"is_disabled":false,"rental_uris":{"android":"levelo://app?vid=21335a81-06b0-42e9-a5f8-3992402d742f","ios":"levelo://app?vid=21335a81-06b0-42e9-a5f8-3992402d742f"},"vehicle_type_id":"4","last_reported":1737126489,"current_range_meters":32800,"station_id":"ce4bhn12rcd13ifvqgpg","pricing_plan_id":"cebpf4jnsgd1na2vs0mg"},{"bike_id":"8dc4bafa-c9bb-418a-b39d-925b47ae4c83","system_id":"levelo_inurba_marseille","lat":43.25937,"lon":5.40883,"is_reserved":false,"is_disabled":false,"rental_uris":{"android":"levelo://app?vid=8dc4bafa-c9bb-418a-b39d-925b47ae4c83","ios":"levelo://app?vid=8dc4bafa-c9bb-418a-b39d-925b47ae4c83"},"vehicle_type_id":"4","last_reported":1737126489,"current_range_meters":38000,"station_id":"ce4bhm92rcd13ifvqglg","pricing_plan_id":"cebpf4jnsgd1na2vs0mg"},{"bike_id":"0dd19019-f68e-4196-b969-e64a3d920187","system_id":"levelo_inurba_marseille","lat":43.2988,"lon":5.39724,"is_reserved":false,"is_disabled":false,"rental_uris":{"android":"levelo://app?vid=0dd19019-f68e-4196-b969-e64a3d920187","ios":"levelo://app?vid=0dd19019-f68e-4196-b969-e64a3d920187"},"vehicle_type_id":"4","last_reported":1737126489,"current_range_meters":38000,"station_id":"ce4bh0h2rcd13ifvqd50","pricing_plan_id":"cebpf4jnsgd1na2vs0mg"},{"bike_id":"bf43374e-1830-4f3b-9852-0c4c91e32c2c","system_id":"levelo_inurba_marseille","lat":43.27371,"lon":5.36255,"is_reserved":false,"is_disabled":false,"rental_uris":{"android":"levelo://app?vid=bf43374e-1830-4f3b-9852-0c4c91e32c2c","ios":"levelo://app?vid=bf43374e-1830-4f3b-9852-0c4c91e32c2c"},"vehicle_type_id":"4","last_reported":1737126489,"current_range_meters":24000,"station_id":"ce4bhbh2rcd13ifvqeo0","pricing_plan_id":"cebpf4jnsgd1na2vs0mg"},{"bike_id":"b640b53b-4a3d-49ff-9019-457585c8374a","system_id":"levelo_inurba_marseille","lat":43.30265,"lon":5.40076,"is_reserved":false,"is_disabled":false,"rental_uris":{"android":"levelo://app?vid=b640b53b-4a3d-49ff-9019-457585c8374a","ios":"levelo://app?vid=b640b53b-4a3d-49ff-9019-457585c8374a"},"vehicle_type_id":"4","last_reported":1737126489,"current_range_meters":15200,"station_id":"ce4bgvh2rcd13ifvqcs0","pricing_plan_id":"cebpf4jnsgd1na2vs0mg"},{"bike_id":"44721705-52d0-4eba-b0b2-b41ea9586411","system_id":"levelo_inurba_marseille","lat":43.23192,"lon":5.35564,"is_reserved":false,"is_disabled":false,"rental_uris":{"android":"levelo://app?vid=44721705-52d0-4eba-b0b2-b41ea9586411","ios":"levelo://app?vid=44721705-52d0-4eba-b0b2-b41ea9586411"},"vehicle_type_id":"4","last_reported":1737126489,"current_range_meters":30000,"station_id":"ce4bhu92rcd13ifvqi70","pricing_plan_id":"cebpf4jnsgd1na2vs0mg"},{"bike_id":"f1edfa3b-8433-4348-a9f2-fcdb01e8f287","system_id":"levelo_inurba_marseille","lat":43.26807,"lon":5.40241,"is_reserved":false,"is_disabled":false,"rental_uris":{"android":"levelo://app?vid=f1edfa3b-8433-4348-a9f2-fcdb01e8f287","ios":"levelo://app?vid=f1edfa3b-8433-4348-a9f2-fcdb01e8f287"},"vehicle_type_id":"4","last_reported":1737126489,"current_range_meters":31200,"station_id":"ce501612rcd8frsf0b60","pricing_plan_id":"cebpf4jnsgd1na2vs0mg"},{"bike_id":"f7980fcf-181c-4072-ade2-05bc850d713f","system_id":"levelo_inurba_marseille","lat":43.295278,"lon":5.374988,"is_reserved":false,"is_disabled":true,"rental_uris":{"android":"levelo://app?vid=f7980fcf-181c-4072-ade2-05bc850d713f","ios":"levelo://app?vid=f7980fcf-181c-4072-ade2-05bc850d713f"},"vehicle_type_id":"4","last_reported":1737126489,"current_range_meters":0,"station_id":"ce4bgkp2rcd13ifvqbmg","pricing_plan_id":"cebpf4jnsgd1na2vs0mg"},{"bike_id":"96a2c5d0-d37c-4f88-8485-324febd508fb","system_id":"levelo_inurba_marseille","lat":43.29423,"lon":5.38631,"is_reserved":false,"is_disabled":false,"rental_uris":{"android":"levelo://app?vid=96a2c5d0-d37c-4f88-8485-324febd508fb","ios":"levelo://app?vid=96a2c5d0-d37c-4f88-8485-324febd508fb"},"vehicle_type_id":"4","last_reported":1737126489,"current_range_meters":33600,"station_id":"ce4bh2h2rcd13ifvqdh0","pricing_plan_id":"cebpf4jnsgd1na2vs0mg"},{"bike_id":"08fdc998-176c-44d2-b20a-10d4aee33c0b","system_id":"levelo_inurba_marseille","lat":43.2738,"lon":5.36258,"is_reserved":false,"is_disabled":false,"rental_uris":{"android":"levelo://app?vid=08fdc998-176c-44d2-b20a-10d4aee33c0b","ios":"levelo://app?vid=08fdc998-176c-44d2-b20a-10d4aee33c0b"},"vehicle_type_id":"4","last_reported":1737126489,"current_range_meters":4400,"station_id":"ce4bhbh2rcd13ifvqeo0","pricing_plan_id":"cebpf4jnsgd1na2vs0mg"},{"bike_id":"4b1def45-8420-4f7a-a23b-c392b8b6a958","system_id":"levelo_inurba_marseille","lat":43.2761,"lon":5.36097,"is_reserved":false,"is_disabled":false,"rental_uris":{"android":"levelo://app?vid=4b1def45-8420-4f7a-a23b-c392b8b6a958","ios":"levelo://app?vid=4b1def45-8420-4f7a-a23b-c392b8b6a958"},"vehicle_type_id":"4","last_reported":1737126489,"current_range_meters":38800,"station_id":"ce4bgj92rcd13ifvqbe0","pricing_plan_id":"cebpf4jnsgd1na2vs0mg"},{"bike_id":"dbc84289-e424-421f-8922-80495ae94fa1","system_id":"levelo_inurba_marseille","lat":43.30611,"lon":5.39345,"is_reserved":false,"is_disabled":true,"rental_uris":{"android":"levelo://app?vid=dbc84289-e424-421f-8922-80495ae94fa1","ios":"levelo://app?vid=dbc84289-e424-421f-8922-80495ae94fa1"},"vehicle_type_id":"4","last_reported":1737126489,"current_range_meters":26000,"station_id":"ce4bh0p2rcd13ifvqd80","pricing_plan_id":"cebpf4jnsgd1na2vs0mg"},{"bike_id":"e7320504-a863-4078-b9bb-566e4d2e0f36","system_id":"levelo_inurba_marseille","lat":43.28933,"lon":5.384,"is_reserved":false,"is_disabled":false,"rental_uris":{"android":"levelo://app?vid=e7320504-a863-4078-b9bb-566e4d2e0f36","ios":"levelo://app?vid=e7320504-a863-4078-b9bb-566e4d2e0f36"},"vehicle_type_id":"4","last_reported":1737126489,"current_range_meters":14400,"station_id":"ce4bh612rcd13ifvqe6g","pricing_plan_id":"cebpf4jnsgd1na2vs0mg"},{"bike_id":"a9a0e60f-8e94-490a-988c-5a9cfc45d626","system_id":"levelo_inurba_marseille","lat":43.24161,"lon":5.36403,"is_reserved":false,"is_disabled":false,"rental_uris":{"android":"levelo://app?vid=a9a0e60f-8e94-490a-988c-5a9cfc45d626","ios":"levelo://app?vid=a9a0e60f-8e94-490a-988c-5a9cfc45d626"},"vehicle_type_id":"4","last_reported":1737126489,"current_range_meters":16000,"station_id":"cpo36qri1sfpv3e86is0","pricing_plan_id":"cebpf4jnsgd1na2vs0mg"},{"bike_id":"2d1d0325-36ae-4e0c-8ea2-8b7285a8325f","system_id":"levelo_inurba_marseille","lat":43.30547,"lon":5.36533,"is_reserved":false,"is_disabled":false,"rental_uris":{"android":"levelo://app?vid=2d1d0325-36ae-4e0c-8ea2-8b7285a8325f","ios":"levelo://app?vid=2d1d0325-36ae-4e0c-8ea2-8b7285a8325f"},"vehicle_type_id":"4","last_reported":1737126489,"current_range_meters":38800,"station_id":"ce4bgs12rcd13ifvqcag","pricing_plan_id":"cebpf4jnsgd1na2vs0mg"},{"bike_id":"a366fda9-fd00-415b-811b-ab458339ae00","system_id":"levelo_inurba_marseille","lat":43.25498,"lon":5.37656,"is_reserved":false,"is_disabled":false,"rental_uris":{"android":"levelo://app?vid=a366fda9-fd00-415b-811b-ab458339ae00","ios":"levelo://app?vid=a366fda9-fd00-415b-811b-ab458339ae00"},"vehicle_type_id":"4","last_reported":1737126489,"current_range_meters":19600,"station_id":"ce4bhh12rcd13ifvqff0","pricing_plan_id":"cebpf4jnsgd1na2vs0mg"},{"bike_id":"1792790a-e1eb-45ab-b00d-9bc3c2b0f7e7","system_id":"levelo_inurba_marseille","lat":43.24388,"lon":5.37062,"is_reserved":false,"is_disabled":false,"rental_uris":{"android":"levelo://app?vid=1792790a-e1eb-45ab-b00d-9bc3c2b0f7e7","ios":"levelo://app?vid=1792790a-e1eb-45ab-b00d-9bc3c2b0f7e7"},"vehicle_type_id":"4","last_reported":1737126489,"current_range_meters":24000,"station_id":"ce4bhhh2rcd13ifvqfk0","pricing_plan_id":"cebpf4jnsgd1na2vs0mg"},{"bike_id":"2aa98a8e-265a-4dfa-baae-3da013df4e11","system_id":"levelo_inurba_marseille","lat":43.27375,"lon":5.36239,"is_reserved":false,"is_disabled":false,"rental_uris":{"android":"levelo://app?vid=2aa98a8e-265a-4dfa-baae-3da013df4e11","ios":"levelo://app?vid=2aa98a8e-265a-4dfa-baae-3da013df4e11"},"vehicle_type_id":"4","last_reported":1737126489,"current_range_meters":25600,"station_id":"ce4bhbh2rcd13ifvqeo0","pricing_plan_id":"cebpf4jnsgd1na2vs0mg"},{"bike_id":"17fe4045-3081-4c43-a833-13dea74aa916","system_id":"levelo_inurba_marseille","lat":43.28874,"lon":5.39325,"is_reserved":false,"is_disabled":false,"rental_uris":{"android":"levelo://app?vid=17fe4045-3081-4c43-a833-13dea74aa916","ios":"levelo://app?vid=17fe4045-3081-4c43-a833-13dea74aa916"},"vehicle_type_id":"4","last_reported":1737126489,"current_range_meters":38800,"station_id":"ce4bh2p2rcd13ifvqdi0","pricing_plan_id":"cebpf4jnsgd1na2vs0mg"},{"bike_id":"bccef8ec-1b8a-43b9-8e22-05b3da92568a","system_id":"levelo_inurba_marseille","lat":43.30888,"lon":5.37195,"is_reserved":false,"is_disabled":false,"rental_uris":{"android":"levelo://app?vid=bccef8ec-1b8a-43b9-8e22-05b3da92568a","ios":"levelo://app?vid=bccef8ec-1b8a-43b9-8e22-05b3da92568a"},"vehicle_type_id":"4","last_reported":1737126489,"current_range_meters":38400,"station_id":"ce4bguh2rcd13ifvqckg","pricing_plan_id":"cebpf4jnsgd1na2vs0mg"},{"bike_id":"7d3c749d-4eb6-4ace-b278-8c043ec9d8f5","system_id":"levelo_inurba_marseille","lat":43.265584,"lon":5.373024,"is_reserved":false,"is_disabled":false,"rental_uris":{"android":"levelo://app?vid=7d3c749d-4eb6-4ace-b278-8c043ec9d8f5","ios":"levelo://app?vid=7d3c749d-4eb6-4ace-b278-8c043ec9d8f5"},"vehicle_type_id":"4","last_reported":1737126489,"current_range_meters":28000,"station_id":"ce4bhg12rcd13ifvqf70","pricing_plan_id":"cebpf4jnsgd1na2vs0mg"},{"bike_id":"f5863b18-13a1-4c6e-92de-5668ea912ad3","system_id":"levelo_inurba_marseille","lat":43.2622,"lon":5.40457,"is_reserved":false,"is_disabled":true,"rental_uris":{"android":"levelo://app?vid=f5863b18-13a1-4c6e-92de-5668ea912ad3","ios":"levelo://app?vid=f5863b18-13a1-4c6e-92de-5668ea912ad3"},"vehicle_type_id":"4","last_reported":1737126489,"current_range_meters":0,"station_id":"","pricing_plan_id":"cebpf4jnsgd1na2vs0mg"},{"bike_id":"49c46c92-b606-4c57-86c4-9d4b17ba36c7","system_id":"levelo_inurba_marseille","lat":43.30154,"lon":5.37429,"is_reserved":false,"is_disabled":false,"rental_uris":{"android":"levelo://app?vid=49c46c92-b606-4c57-86c4-9d4b17ba36c7","ios":"levelo://app?vid=49c46c92-b606-4c57-86c4-9d4b17ba36c7"},"vehicle_type_id":"4","last_reported":1737126489,"current_range_meters":36400,"station_id":"ce4bgs92rcd13ifvqcc0","pricing_plan_id":"cebpf4jnsgd1na2vs0mg"},{"bike_id":"a8fad254-19bb-48fe-801d-9e93d4767cef","system_id":"levelo_inurba_marseille","lat":43.31421,"lon":5.37405,"is_reserved":false,"is_disabled":true,"rental_uris":{"android":"levelo://app?vid=a8fad254-19bb-48fe-801d-9e93d4767cef","ios":"levelo://app?vid=a8fad254-19bb-48fe-801d-9e93d4767cef"},"vehicle_type_id":"4","last_reported":1737126489,"current_range_meters":0,"station_id":"","pricing_plan_id":"cebpf4jnsgd1na2vs0mg"},{"bike_id":"b98a6e4c-05a4-4a6f-bc01-6d71461c0418","system_id":"levelo_inurba_marseille","lat":43.27844,"lon":5.40691,"is_reserved":false,"is_disabled":false,"rental_uris":{"android":"levelo://app?vid=b98a6e4c-05a4-4a6f-bc01-6d71461c0418","ios":"levelo://app?vid=b98a6e4c-05a4-4a6f-bc01-6d71461c0418"},"vehicle_type_id":"4","last_reported":1737126489,"current_range_meters":8800,"station_id":"ce4bhnh2rcd13ifvqgtg","pricing_plan_id":"cebpf4jnsgd1na2vs0mg"},{"bike_id":"746a8983-c8fb-4f74-839f-560054ccfd2e","system_id":"levelo_inurba_marseille","lat":43.30542,"lon":5.36512,"is_reserved":false,"is_disabled":false,"rental_uris":{"android":"levelo://app?vid=746a8983-c8fb-4f74-839f-560054ccfd2e","ios":"levelo://app?vid=746a8983-c8fb-4f74-839f-560054ccfd2e"},"vehicle_type_id":"4","last_reported":1737126489,"current_range_meters":18800,"station_id":"ce4bgs12rcd13ifvqcag","pricing_plan_id":"cebpf4jnsgd1na2vs0mg"},{"bike_id":"e5f71037-c3e2-4a5c-b185-51bcddd625d8","system_id":"levelo_inurba_marseille","lat":43.23053,"lon":5.35472,"is_reserved":false,"is_disabled":false,"rental_uris":{"android":"levelo://app?vid=e5f71037-c3e2-4a5c-b185-51bcddd625d8","ios":"levelo://app?vid=e5f71037-c3e2-4a5c-b185-51bcddd625d8"},"vehicle_type_id":"4","last_reported":1737126489,"current_range_meters":4000,"station_id":"cpo3342slgdg3j2ifvpg","pricing_plan_id":"cebpf4jnsgd1na2vs0mg"},{"bike_id":"46686b70-f375-4947-b209-2f4548c2edcf","system_id":"levelo_inurba_marseille","lat":43.289,"lon":5.39457,"is_reserved":false,"is_disabled":true,"rental_uris":{"android":"levelo://app?vid=46686b70-f375-4947-b209-2f4548c2edcf","ios":"levelo://app?vid=46686b70-f375-4947-b209-2f4548c2edcf"},"vehicle_type_id":"4","last_reported":1737126489,"current_range_meters":0,"station_id":"","pricing_plan_id":"cebpf4jnsgd1na2vs0mg"},{"bike_id":"b8881e87-393b-483e-8a44-485f1135cedc","system_id":"levelo_inurba_marseille","lat":43.28716,"lon":5.3608,"is_reserved":false,"is_disabled":false,"rental_uris":{"android":"levelo://app?vid=b8881e87-393b-483e-8a44-485f1135cedc","ios":"levelo://app?vid=b8881e87-393b-483e-8a44-485f1135cedc"},"vehicle_type_id":"4","last_reported":1737126489,"current_range_meters":12800,"station_id":"cki0cbj6b192h4jlfktg","pricing_plan_id":"cebpf4jnsgd1na2vs0mg"},{"bike_id":"92dab9d9-421f-4db4-8a4c-511f359d6e1a","system_id":"levelo_inurba_marseille","lat":43.31329,"lon":5.39684,"is_reserved":false,"is_disabled":false,"rental_uris":{"android":"levelo://app?vid=92dab9d9-421f-4db4-8a4c-511f359d6e1a","ios":"levelo://app?vid=92dab9d9-421f-4db4-8a4c-511f359d6e1a"},"vehicle_type_id":"4","last_reported":1737126489,"current_range_meters":22800,"station_id":"ce4bgvp2rcd13ifvqcu0","pricing_plan_id":"cebpf4jnsgd1na2vs0mg"},{"bike_id":"59de3887-f28c-42d2-90d2-a2168d5462c0","system_id":"levelo_inurba_marseille","lat":43.317095,"lon":5.377455,"is_reserved":false,"is_disabled":false,"rental_uris":{"android":"levelo://app?vid=59de3887-f28c-42d2-90d2-a2168d5462c0","ios":"levelo://app?vid=59de3887-f28c-42d2-90d2-a2168d5462c0"},"vehicle_type_id":"4","last_reported":1737126489,"current_range_meters":38800,"station_id":"ce4bgth2rcd13ifvqch0","pricing_plan_id":"cebpf4jnsgd1na2vs0mg"},{"bike_id":"ddc2910d-bda7-4245-aced-e92629a6be47","system_id":"levelo_inurba_marseille","lat":43.29843,"lon":5.36272,"is_reserved":false,"is_disabled":false,"rental_uris":{"android":"levelo://app?vid=ddc2910d-bda7-4245-aced-e92629a6be47","ios":"levelo://app?vid=ddc2910d-bda7-4245-aced-e92629a6be47"},"vehicle_type_id":"4","last_reported":1737126489,"current_range_meters":20400,"station_id":"ce4bgpp2rcd13ifvqc3g","pricing_plan_id":"cebpf4jnsgd1na2vs0mg"},{"bike_id":"2874a690-165b-44fd-8e13-25e018b4bcda","system_id":"levelo_inurba_marseille","lat":43.2863,"lon":5.35108,"is_reserved":false,"is_disabled":false,"rental_uris":{"android":"levelo://app?vid=2874a690-165b-44fd-8e13-25e018b4bcda","ios":"levelo://app?vid=2874a690-165b-44fd-8e13-25e018b4bcda"},"vehicle_type_id":"4","last_reported":1737126489,"current_range_meters":32800,"station_id":"ce4bhch2rcd13ifvqeug","pricing_plan_id":"cebpf4jnsgd1na2vs0mg"},{"bike_id":"162e74e4-7cde-4983-afbf-6133953791de","system_id":"levelo_inurba_marseille","lat":43.27349,"lon":5.36201,"is_reserved":false,"is_disabled":false,"rental_uris":{"android":"levelo://app?vid=162e74e4-7cde-4983-afbf-6133953791de","ios":"levelo://app?vid=162e74e4-7cde-4983-afbf-6133953791de"},"vehicle_type_id":"4","last_reported":1737126489,"current_range_meters":39200,"station_id":"ce4bhbh2rcd13ifvqeo0","pricing_plan_id":"cebpf4jnsgd1na2vs0mg"},{"bike_id":"53c26170-756a-4ffa-a56a-36d0d287c54c","system_id":"levelo_inurba_marseille","lat":43.31086,"lon":5.42438,"is_reserved":false,"is_disabled":false,"rental_uris":{"android":"levelo://app?vid=53c26170-756a-4ffa-a56a-36d0d287c54c","ios":"levelo://app?vid=53c26170-756a-4ffa-a56a-36d0d287c54c"},"vehicle_type_id":"4","last_reported":1737126489,"current_range_meters":39200,"station_id":"ce4bhp92rcd13ifvqhag","pricing_plan_id":"cebpf4jnsgd1na2vs0mg"},{"bike_id":"4774e4a1-7875-478e-94e6-a0cd5f996476","system_id":"levelo_inurba_marseille","lat":43.32343,"lon":5.40619,"is_reserved":false,"is_disabled":false,"rental_uris":{"android":"levelo://app?vid=4774e4a1-7875-478e-94e6-a0cd5f996476","ios":"levelo://app?vid=4774e4a1-7875-478e-94e6-a0cd5f996476"},"vehicle_type_id":"4","last_reported":1737126489,"current_range_meters":38000,"station_id":"ce4bhq92rcd13ifvqhjg","pricing_plan_id":"cebpf4jnsgd1na2vs0mg"},{"bike_id":"528d68f8-14c8-4baf-a292-5a0f84d3b752","system_id":"levelo_inurba_marseille","lat":43.33767,"lon":5.37453,"is_reserved":false,"is_disabled":false,"rental_uris":{"android":"levelo://app?vid=528d68f8-14c8-4baf-a292-5a0f84d3b752","ios":"levelo://app?vid=528d68f8-14c8-4baf-a292-5a0f84d3b752"},"vehicle_type_id":"4","last_reported":1737126489,"current_range_meters":38800,"station_id":"","pricing_plan_id":"cebpf4jnsgd1na2vs0mg"},{"bike_id":"524b9112-6995-42a2-b31c-b4afb15b4c2e","system_id":"levelo_inurba_marseille","lat":43.2895,"lon":5.36394,"is_reserved":false,"is_disabled":false,"rental_uris":{"android":"levelo://app?vid=524b9112-6995-42a2-b31c-b4afb15b4c2e","ios":"levelo://app?vid=524b9112-6995-42a2-b31c-b4afb15b4c2e"},"vehicle_type_id":"4","last_reported":1737126489,"current_range_meters":18800,"station_id":"ce4bhc92rcd13ifvqetg","pricing_plan_id":"cebpf4jnsgd1na2vs0mg"},{"bike_id":"8cad2851-e998-4eb5-8223-c3ac6bd85827","system_id":"levelo_inurba_marseille","lat":43.28615,"lon":5.35105,"is_reserved":false,"is_disabled":true,"rental_uris":{"android":"levelo://app?vid=8cad2851-e998-4eb5-8223-c3ac6bd85827","ios":"levelo://app?vid=8cad2851-e998-4eb5-8223-c3ac6bd85827"},"vehicle_type_id":"4","last_reported":1737126489,"current_range_meters":400,"station_id":"ce4bhch2rcd13ifvqeug","pricing_plan_id":"cebpf4jnsgd1na2vs0mg"},{"bike_id":"4460db52-2ab2-4494-8713-f853b325aa49","system_id":"levelo_inurba_marseille","lat":43.26566,"lon":5.39001,"is_reserved":false,"is_disabled":false,"rental_uris":{"android":"levelo://app?vid=4460db52-2ab2-4494-8713-f853b325aa49","ios":"levelo://app?vid=4460db52-2ab2-4494-8713-f853b325aa49"},"vehicle_type_id":"4","last_reported":1737126489,"current_range_meters":20400,"station_id":"ce4bhe12rcd13ifvqf30","pricing_plan_id":"cebpf4jnsgd1na2vs0mg"},{"bike_id":"5dd56b52-f27b-4666-b627-0ecd0b453591","system_id":"levelo_inurba_marseille","lat":43.30536,"lon":5.36696,"is_reserved":false,"is_disabled":false,"rental_uris":{"android":"levelo://app?vid=5dd56b52-f27b-4666-b627-0ecd0b453591","ios":"levelo://app?vid=5dd56b52-f27b-4666-b627-0ecd0b453591"},"vehicle_type_id":"4","last_reported":1737126489,"current_range_meters":38000,"station_id":"ce4bgrp2rcd13ifvqc9g","pricing_plan_id":"cebpf4jnsgd1na2vs0mg"},{"bike_id":"bd86c314-9d5d-4d3a-b4d2-1f66c0bb81b3","system_id":"levelo_inurba_marseille","lat":43.28716,"lon":5.3738,"is_reserved":false,"is_disabled":false,"rental_uris":{"android":"levelo://app?vid=bd86c314-9d5d-4d3a-b4d2-1f66c0bb81b3","ios":"levelo://app?vid=bd86c314-9d5d-4d3a-b4d2-1f66c0bb81b3"},"vehicle_type_id":"4","last_reported":1737126489,"current_range_meters":7200,"station_id":"ce4bh3p2rcd13ifvqdq0","pricing_plan_id":"cebpf4jnsgd1na2vs0mg"},{"bike_id":"b73ba4ef-ad67-4c0f-a216-e61445a7b664","system_id":"levelo_inurba_marseille","lat":43.29163,"lon":5.37144,"is_reserved":false,"is_disabled":false,"rental_uris":{"android":"levelo://app?vid=b73ba4ef-ad67-4c0f-a216-e61445a7b664","ios":"levelo://app?vid=b73ba4ef-ad67-4c0f-a216-e61445a7b664"},"vehicle_type_id":"4","last_reported":1737126489,"current_range_meters":38800,"station_id":"ce4bha92rcd13ifvqeh0","pricing_plan_id":"cebpf4jnsgd1na2vs0mg"},{"bike_id":"7b095187-6dee-4f8a-869d-470718b7a0b4","system_id":"levelo_inurba_marseille","lat":43.30524,"lon":5.36521,"is_reserved":false,"is_disabled":false,"rental_uris":{"android":"levelo://app?vid=7b095187-6dee-4f8a-869d-470718b7a0b4","ios":"levelo://app?vid=7b095187-6dee-4f8a-869d-470718b7a0b4"},"vehicle_type_id":"4","last_reported":1737126489,"current_range_meters":13600,"station_id":"ce4bgs12rcd13ifvqcag","pricing_plan_id":"cebpf4jnsgd1na2vs0mg"},{"bike_id":"529d3bb0-8dc3-4ddb-9bca-e38a2a7c6b84","system_id":"levelo_inurba_marseille","lat":43.28976,"lon":5.3783,"is_reserved":false,"is_disabled":false,"rental_uris":{"android":"levelo://app?vid=529d3bb0-8dc3-4ddb-9bca-e38a2a7c6b84","ios":"levelo://app?vid=529d3bb0-8dc3-4ddb-9bca-e38a2a7c6b84"},"vehicle_type_id":"4","last_reported":1737126489,"current_range_meters":38400,"station_id":"ce4bh9p2rcd13ifvqed0","pricing_plan_id":"cebpf4jnsgd1na2vs0mg"},{"bike_id":"e0465de2-1648-4504-9618-59b63e2acad8","system_id":"levelo_inurba_marseille","lat":43.32104,"lon":5.36776,"is_reserved":false,"is_disabled":false,"rental_uris":{"android":"levelo://app?vid=e0465de2-1648-4504-9618-59b63e2acad8","ios":"levelo://app?vid=e0465de2-1648-4504-9618-59b63e2acad8"},"vehicle_type_id":"4","last_reported":1737126489,"current_range_meters":35200,"station_id":"ce4bhrh2rcd13ifvqhug","pricing_plan_id":"cebpf4jnsgd1na2vs0mg"},{"bike_id":"0a077bf0-535d-4da1-bbe1-aea99ebc0c09","system_id":"levelo_inurba_marseille","lat":43.25125,"lon":5.40322,"is_reserved":false,"is_disabled":false,"rental_uris":{"android":"levelo://app?vid=0a077bf0-535d-4da1-bbe1-aea99ebc0c09","ios":"levelo://app?vid=0a077bf0-535d-4da1-bbe1-aea99ebc0c09"},"vehicle_type_id":"4","last_reported":1737126489,"current_range_meters":19200,"station_id":"ce4bhlh2rcd13ifvqgig","pricing_plan_id":"cebpf4jnsgd1na2vs0mg"},{"bike_id":"d25103b4-1e5b-40d1-8004-c3ca3778911c","system_id":"levelo_inurba_marseille","lat":43.29959,"lon":5.37165,"is_reserved":false,"is_disabled":false,"rental_uris":{"android":"levelo://app?vid=d25103b4-1e5b-40d1-8004-c3ca3778911c","ios":"levelo://app?vid=d25103b4-1e5b-40d1-8004-c3ca3778911c"},"vehicle_type_id":"4","last_reported":1737126489,"current_range_meters":31200,"station_id":"ce4bgr92rcd13ifvqc7g","pricing_plan_id":"cebpf4jnsgd1na2vs0mg"},{"bike_id":"61f6d027-7bbe-4f2a-8da9-204164873693","system_id":"levelo_inurba_marseille","lat":43.25575,"lon":5.38225,"is_reserved":false,"is_disabled":false,"rental_uris":{"android":"levelo://app?vid=61f6d027-7bbe-4f2a-8da9-204164873693","ios":"levelo://app?vid=61f6d027-7bbe-4f2a-8da9-204164873693"},"vehicle_type_id":"4","last_reported":1737126489,"current_range_meters":38800,"station_id":"ce4bhih2rcd13ifvqfs0","pricing_plan_id":"cebpf4jnsgd1na2vs0mg"},{"bike_id":"48fa71e2-db1a-47b1-ba96-4cf570ab1d51","system_id":"levelo_inurba_marseille","lat":43.29046,"lon":5.39956,"is_reserved":false,"is_disabled":true,"rental_uris":{"android":"levelo://app?vid=48fa71e2-db1a-47b1-ba96-4cf570ab1d51","ios":"levelo://app?vid=48fa71e2-db1a-47b1-ba96-4cf570ab1d51"},"vehicle_type_id":"4","last_reported":1737126489,"current_range_meters":0,"station_id":"ce4bh392rcd13ifvqdm0","pricing_plan_id":"cebpf4jnsgd1na2vs0mg"},{"bike_id":"4e899928-603c-48ae-bc1d-3ea4ed315f13","system_id":"levelo_inurba_marseille","lat":43.303,"lon":5.39201,"is_reserved":false,"is_disabled":true,"rental_uris":{"android":"levelo://app?vid=4e899928-603c-48ae-bc1d-3ea4ed315f13","ios":"levelo://app?vid=4e899928-603c-48ae-bc1d-3ea4ed315f13"},"vehicle_type_id":"4","last_reported":1737126489,"current_range_meters":27200,"station_id":"ce4bgkh2rcd13ifvqbk0","pricing_plan_id":"cebpf4jnsgd1na2vs0mg"},{"bike_id":"d56c9101-5834-4595-9dbc-4861d059ffd9","system_id":"levelo_inurba_marseille","lat":43.25947,"lon":5.40909,"is_reserved":false,"is_disabled":false,"rental_uris":{"android":"levelo://app?vid=d56c9101-5834-4595-9dbc-4861d059ffd9","ios":"levelo://app?vid=d56c9101-5834-4595-9dbc-4861d059ffd9"},"vehicle_type_id":"4","last_reported":1737126489,"current_range_meters":24000,"station_id":"ce4bhm92rcd13ifvqglg","pricing_plan_id":"cebpf4jnsgd1na2vs0mg"},{"bike_id":"1116f425-9c6a-4910-85ac-9a6e96c21c03","system_id":"levelo_inurba_marseille","lat":43.28152,"lon":5.42645,"is_reserved":false,"is_disabled":false,"rental_uris":{"android":"levelo://app?vid=1116f425-9c6a-4910-85ac-9a6e96c21c03","ios":"levelo://app?vid=1116f425-9c6a-4910-85ac-9a6e96c21c03"},"vehicle_type_id":"4","last_reported":1737126489,"current_range_meters":37600,"station_id":"ce4bhnh2rcd13ifvqgug","pricing_plan_id":"cebpf4jnsgd1na2vs0mg"},{"bike_id":"a58407ca-740a-48fa-99c8-f139eec2cb17","system_id":"levelo_inurba_marseille","lat":43.295607,"lon":5.42279,"is_reserved":false,"is_disabled":true,"rental_uris":{"android":"levelo://app?vid=a58407ca-740a-48fa-99c8-f139eec2cb17","ios":"levelo://app?vid=a58407ca-740a-48fa-99c8-f139eec2cb17"},"vehicle_type_id":"4","last_reported":1737126489,"current_range_meters":1200,"station_id":"ce4bhph2rcd13ifvqhdg","pricing_plan_id":"cebpf4jnsgd1na2vs0mg"},{"bike_id":"44f0f855-9054-4aba-b306-11da2f934a39","system_id":"levelo_inurba_marseille","lat":43.28457,"lon":5.35881,"is_reserved":false,"is_disabled":false,"rental_uris":{"android":"levelo://app?vid=44f0f855-9054-4aba-b306-11da2f934a39","ios":"levelo://app?vid=44f0f855-9054-4aba-b306-11da2f934a39"},"vehicle_type_id":"4","last_reported":1737126489,"current_range_meters":38800,"station_id":"ce4bhah2rcd13ifvqei0","pricing_plan_id":"cebpf4jnsgd1na2vs0mg"},{"bike_id":"8813fd03-5285-4cd3-954a-ba2c5797871e","system_id":"levelo_inurba_marseille","lat":43.30425,"lon":5.39739,"is_reserved":false,"is_disabled":false,"rental_uris":{"android":"levelo://app?vid=8813fd03-5285-4cd3-954a-ba2c5797871e","ios":"levelo://app?vid=8813fd03-5285-4cd3-954a-ba2c5797871e"},"vehicle_type_id":"4","last_reported":1737126489,"current_range_meters":18000,"station_id":"ce4bh092rcd13ifvqd20","pricing_plan_id":"cebpf4jnsgd1na2vs0mg"},{"bike_id":"ff3c3090-4314-4d76-b27b-47cf85b887ee","system_id":"levelo_inurba_marseille","lat":43.29235,"lon":5.36065,"is_reserved":false,"is_disabled":false,"rental_uris":{"android":"levelo://app?vid=ff3c3090-4314-4d76-b27b-47cf85b887ee","ios":"levelo://app?vid=ff3c3090-4314-4d76-b27b-47cf85b887ee"},"vehicle_type_id":"4","last_reported":1737126489,"current_range_meters":20800,"station_id":"ce4bhbh2rcd13ifvqeqg","pricing_plan_id":"cebpf4jnsgd1na2vs0mg"},{"bike_id":"8c9a93b1-e1ca-407a-8f0b-fb3ed3abeb1a","system_id":"levelo_inurba_marseille","lat":43.32495,"lon":5.36561,"is_reserved":false,"is_disabled":false,"rental_uris":{"android":"levelo://app?vid=8c9a93b1-e1ca-407a-8f0b-fb3ed3abeb1a","ios":"levelo://app?vid=8c9a93b1-e1ca-407a-8f0b-fb3ed3abeb1a"},"vehicle_type_id":"4","last_reported":1737126489,"current_range_meters":33200,"station_id":"ce4bhs12rcd13ifvqhvg","pricing_plan_id":"cebpf4jnsgd1na2vs0mg"},{"bike_id":"ff934638-0993-4105-b3d4-b9c07a1a6b53","system_id":"levelo_inurba_marseille","lat":43.30185,"lon":5.37427,"is_reserved":false,"is_disabled":false,"rental_uris":{"android":"levelo://app?vid=ff934638-0993-4105-b3d4-b9c07a1a6b53","ios":"levelo://app?vid=ff934638-0993-4105-b3d4-b9c07a1a6b53"},"vehicle_type_id":"4","last_reported":1737126489,"current_range_meters":37600,"station_id":"ce4bgs92rcd13ifvqcc0","pricing_plan_id":"cebpf4jnsgd1na2vs0mg"},{"bike_id":"1bca5e79-bf2a-47b8-8225-447c64f573ea","system_id":"levelo_inurba_marseille","lat":43.28453,"lon":5.35874,"is_reserved":false,"is_disabled":false,"rental_uris":{"android":"levelo://app?vid=1bca5e79-bf2a-47b8-8225-447c64f573ea","ios":"levelo://app?vid=1bca5e79-bf2a-47b8-8225-447c64f573ea"},"vehicle_type_id":"4","last_reported":1737126489,"current_range_meters":38000,"station_id":"ce4bhah2rcd13ifvqei0","pricing_plan_id":"cebpf4jnsgd1na2vs0mg"},{"bike_id":"2edd7109-a662-40c0-b9d6-9039fe48b4cb","system_id":"levelo_inurba_marseille","lat":43.3249,"lon":5.36602,"is_reserved":false,"is_disabled":false,"rental_uris":{"android":"levelo://app?vid=2edd7109-a662-40c0-b9d6-9039fe48b4cb","ios":"levelo://app?vid=2edd7109-a662-40c0-b9d6-9039fe48b4cb"},"vehicle_type_id":"4","last_reported":1737126489,"current_range_meters":32800,"station_id":"ce4bhs12rcd13ifvqhvg","pricing_plan_id":"cebpf4jnsgd1na2vs0mg"},{"bike_id":"c8eb5688-10c0-42af-885e-bd72d5ee4321","system_id":"levelo_inurba_marseille","lat":43.299638,"lon":5.413297,"is_reserved":false,"is_disabled":false,"rental_uris":{"android":"levelo://app?vid=c8eb5688-10c0-42af-885e-bd72d5ee4321","ios":"levelo://app?vid=c8eb5688-10c0-42af-885e-bd72d5ee4321"},"vehicle_type_id":"4","last_reported":1737126489,"current_range_meters":37600,"station_id":"ce4bhp12rcd13ifvqh9g","pricing_plan_id":"cebpf4jnsgd1na2vs0mg"},{"bike_id":"40f581cb-96a0-40ca-a340-7a38722ba225","system_id":"levelo_inurba_marseille","lat":43.30554,"lon":5.36551,"is_reserved":false,"is_disabled":false,"rental_uris":{"android":"levelo://app?vid=40f581cb-96a0-40ca-a340-7a38722ba225","ios":"levelo://app?vid=40f581cb-96a0-40ca-a340-7a38722ba225"},