{"last_updated":1742598511,"ttl":60,"version":"2.2","data":{"bikes":[{"bike_id":"04428c19-1b71-428c-aecb-d6a1e23c6ce1","system_id":"levelo_inurba_marseille","lat":43.27213,"lon":5.39181,"is_reserved":false,"is_disabled":false,"rental_uris":{"android":"levelo://app?vid=04428c19-1b71-428c-aecb-d6a1e23c6ce1","ios":"levelo://app?vid=04428c19-1b71-428c-aecb-d6a1e23c6ce1"},"vehicle_type_id":"4","last_reported":1742598511,"current_range_meters":2800,"station_id":"ce4bhhp2rcd13ifvqfm0","pricing_plan_id":"cebpf4jnsgd1na2vs0mg"},{"bike_id":"ab4e1e51-d6f4-40f2-bae7-4280cce429c6","system_id":"levelo_inurba_marseille","lat":43.28079,"lon":5.39657,"is_reserved":false,"is_disabled":false,"rental_uris":{"android":"levelo://app?vid=ab4e1e51-d6f4-40f2-bae7-4280cce429c6","ios":"levelo://app?vid=ab4e1e51-d6f4-40f2-bae7-4280cce429c6"},"vehicle_type_id":"4","last_reported":1742598511,"current_range_meters":2800,"station_id":"ce4bho12rcd13ifvqh2g","pricing_plan_id":"cebpf4jnsgd1na2vs0mg"},{"bike_id":"475c8b72-7fc7-455d-a748-0dfbb34ecc32","system_id":"levelo_inurba_marseille","lat":43.28442,"lon":5.39202,"is_reserved":false,"is_disabled":false,"rental_uris":{"android":"levelo://app?vid=475c8b72-7fc7-455d-a748-0dfbb34ecc32","ios":"levelo://app?vid=475c8b72-7fc7-455d-a748-0dfbb34ecc32"},"vehicle_type_id":"4","last_reported":1742598511,"current_range_meters":2800,"station_id":"ce4bhoh2rcd13ifvqh5g","pricing_plan_id":"cebpf4jnsgd1na2vs0mg"},{"bike_id":"e1fcac69-10ca-4f29-9e99-8d5f8b5d6d83","system_id":"levelo_inurba_marseille","lat":43.29924,"lon":5.37473,"is_reserved":false,"is_disabled":false,"rental_uris":{"android":"levelo://app?vid=e1fcac69-10ca-4f29-9e99-8d5f8b5d6d83","ios":"levelo://app?vid=e1fcac69-10ca-4f29-9e99-8d5f8b5d6d83"},"vehicle_type_id":"4","last_reported":1742598511,"current_range_meters":2800,"station_id":"","pricing_plan_id":"cebpf4jnsgd1na2vs0mg"},{"bike_id":"38fa863a-91a2-44eb-b718-19af02253b65","system_id":"levelo_inurba_marseille","lat":43.26944,"lon":5.40258,"is_reserved":false,"is_disabled":true,"rental_uris":{"android":"levelo://app?vid=38fa863a-91a2-44eb-b718-19af02253b65","ios":"levelo://app?vid=38fa863a-91a2-44eb-b718-19af02253b65"},"vehicle_type_id":"4","last_reported":1742598511,"current_range_meters":2800,"station_id":"cjm6bp8fraef2m0cb0m0","pricing_plan_id":"cebpf4jnsgd1na2vs0mg"},{"bike_id":"9e1d2bf0-fcbc-4a61-815b-b17e72d1d4e2","system_id":"levelo_inurba_marseille","lat":43.30215,"lon":5.3947,"is_reserved":false,"is_disabled":false,"rental_uris":{"android":"levelo://app?vid=9e1d2bf0-fcbc-4a61-815b-b17e72d1d4e2","ios":"levelo://app?vid=9e1d2bf0-fcbc-4a61-815b-b17e72d1d4e2"},"vehicle_type_id":"4","last_reported":1742598511,"current_range_meters":2000,"station_id":"ce4bh0p2rcd13ifvqd70","pricing_plan_id":"cebpf4jnsgd1na2vs0mg"},{"bike_id":"5bab69c0-9199-45f4-9f56-ab98cfe1b483","system_id":"levelo_inurba_marseille","lat":43.25091,"lon":5.39519,"is_reserved":false,"is_disabled":false,"rental_uris":{"android":"levelo://app?vid=5bab69c0-9199-45f4-9f56-ab98cfe1b483","ios":"levelo://app?vid=5bab69c0-9199-45f4-9f56-ab98cfe1b483"},"vehicle_type_id":"4","last_reported":1742598511,"current_range_meters":3200,"station_id":"ce4bhm12rcd13ifvqgkg","pricing_plan_id":"cebpf4jnsgd1na2vs0mg"},{"bike_id":"e2a96eda-5d48-4ff7-bf55-15388c78a2fc","system_id":"levelo_inurba_marseille","lat":43.27584,"lon":5.36083,"is_reserved":false,"is_disabled":false,"rental_uris":{"android":"levelo://app?vid=e2a96eda-5d48-4ff7-bf55-15388c78a2fc","ios":"levelo://app?vid=e2a96eda-5d48-4ff7-bf55-15388c78a2fc"},"vehicle_type_id":"4","last_reported":1742598511,"current_range_meters":4400,"station_id":"","pricing_plan_id":"cebpf4jnsgd1na2vs0mg"},{"bike_id":"1f94efcc-d39c-4cc0-b527-383ae3697994","system_id":"levelo_inurba_marseille","lat":43.27829,"lon":5.40697,"is_reserved":false,"is_disabled":true,"rental_uris":{"android":"levelo://app?vid=1f94efcc-d39c-4cc0-b527-383ae3697994","ios":"levelo://app?vid=1f94efcc-d39c-4cc0-b527-383ae3697994"},"vehicle_type_id":"4","last_reported":1742598511,"current_range_meters":3600,"station_id":"ce4bhnh2rcd13ifvqgtg","pricing_plan_id":"cebpf4jnsgd1na2vs0mg"},{"bike_id":"220a38ae-dd25-49b3-b224-d1389545c8ea","system_id":"levelo_inurba_marseille","lat":43.25976,"lon":5.38801,"is_reserved":false,"is_disabled":false,"rental_uris":{"android":"levelo://app?vid=220a38ae-dd25-49b3-b224-d1389545c8ea","ios":"levelo://app?vid=220a38ae-dd25-49b3-b224-d1389545c8ea"},"vehicle_type_id":"4","last_reported":1742598511,"current_range_meters":4000,"station_id":"ce4bhip2rcd13ifvqft0","pricing_plan_id":"cebpf4jnsgd1na2vs0mg"},{"bike_id":"6bc90abe-c7dc-47b3-a0af-6f7d53543a8a","system_id":"levelo_inurba_marseille","lat":43.301361,"lon":5.398631,"is_reserved":false,"is_disabled":false,"rental_uris":{"android":"levelo://app?vid=6bc90abe-c7dc-47b3-a0af-6f7d53543a8a","ios":"levelo://app?vid=6bc90abe-c7dc-47b3-a0af-6f7d53543a8a"},"vehicle_type_id":"4","last_reported":1742598511,"current_range_meters":4400,"station_id":"ce4bh0h2rcd13ifvqd40","pricing_plan_id":"cebpf4jnsgd1na2vs0mg"},{"bike_id":"ae8d3f44-f08e-44a6-8656-442ea02dc39e","system_id":"levelo_inurba_marseille","lat":43.24069,"lon":5.37763,"is_reserved":false,"is_disabled":false,"rental_uris":{"android":"levelo://app?vid=ae8d3f44-f08e-44a6-8656-442ea02dc39e","ios":"levelo://app?vid=ae8d3f44-f08e-44a6-8656-442ea02dc39e"},"vehicle_type_id":"4","last_reported":1742598511,"current_range_meters":4400,"station_id":"ce4bhnp2rcd13ifvqgvg","pricing_plan_id":"cebpf4jnsgd1na2vs0mg"},{"bike_id":"b266faba-4e26-4c50-b078-a54d17773ddd","system_id":"levelo_inurba_marseille","lat":43.24556,"lon":5.3953,"is_reserved":false,"is_disabled":false,"rental_uris":{"android":"levelo://app?vid=b266faba-4e26-4c50-b078-a54d17773ddd","ios":"levelo://app?vid=b266faba-4e26-4c50-b078-a54d17773ddd"},"vehicle_type_id":"4","last_reported":1742598511,"current_range_meters":4800,"station_id":"ce4bhlp2rcd13ifvqgjg","pricing_plan_id":"cebpf4jnsgd1na2vs0mg"},{"bike_id":"92fecfdd-3dab-4144-87bd-6d7d4340e858","system_id":"levelo_inurba_marseille","lat":43.29415,"lon":5.38628,"is_reserved":false,"is_disabled":false,"rental_uris":{"android":"levelo://app?vid=92fecfdd-3dab-4144-87bd-6d7d4340e858","ios":"levelo://app?vid=92fecfdd-3dab-4144-87bd-6d7d4340e858"},"vehicle_type_id":"4","last_reported":1742598511,"current_range_meters":4800,"station_id":"ce4bh2h2rcd13ifvqdh0","pricing_plan_id":"cebpf4jnsgd1na2vs0mg"},{"bike_id":"b9e4bdd0-024c-4547-9a94-39d0c7923642","system_id":"levelo_inurba_marseille","lat":43.24171,"lon":5.36395,"is_reserved":false,"is_disabled":false,"rental_uris":{"android":"levelo://app?vid=b9e4bdd0-024c-4547-9a94-39d0c7923642","ios":"levelo://app?vid=b9e4bdd0-024c-4547-9a94-39d0c7923642"},"vehicle_type_id":"4","last_reported":1742598511,"current_range_meters":4800,"station_id":"cpo36qri1sfpv3e86is0","pricing_plan_id":"cebpf4jnsgd1na2vs0mg"},{"bike_id":"c5bb5dca-1dc9-450e-9a3d-9fa737cf345d","system_id":"levelo_inurba_marseille","lat":43.24621,"lon":5.38883,"is_reserved":false,"is_disabled":false,"rental_uris":{"android":"levelo://app?vid=c5bb5dca-1dc9-450e-9a3d-9fa737cf345d","ios":"levelo://app?vid=c5bb5dca-1dc9-450e-9a3d-9fa737cf345d"},"vehicle_type_id":"4","last_reported":1742598511,"current_range_meters":4800,"station_id":"ce4bhg12rcd13ifvqf60","pricing_plan_id":"cebpf4jnsgd1na2vs0mg"},{"bike_id":"8ad6669f-9b4a-4883-9a30-9489e0d0fb46","system_id":"levelo_inurba_marseille","lat":43.30661,"lon":5.40082,"is_reserved":false,"is_disabled":false,"rental_uris":{"android":"levelo://app?vid=8ad6669f-9b4a-4883-9a30-9489e0d0fb46","ios":"levelo://app?vid=8ad6669f-9b4a-4883-9a30-9489e0d0fb46"},"vehicle_type_id":"4","last_reported":1742598511,"current_range_meters":4800,"station_id":"ce4bh112rcd13ifvqda0","pricing_plan_id":"cebpf4jnsgd1na2vs0mg"},{"bike_id":"67b812a4-0945-4bb2-be9f-9732e9615d08","system_id":"levelo_inurba_marseille","lat":43.32347,"lon":5.38878,"is_reserved":false,"is_disabled":false,"rental_uris":{"android":"levelo://app?vid=67b812a4-0945-4bb2-be9f-9732e9615d08","ios":"levelo://app?vid=67b812a4-0945-4bb2-be9f-9732e9615d08"},"vehicle_type_id":"4","last_reported":1742598511,"current_range_meters":5600,"station_id":"ce4bhqp2rcd13ifvqhog","pricing_plan_id":"cebpf4jnsgd1na2vs0mg"},{"bike_id":"3347b3b5-5021-4048-a5c7-44173ddb1a3b","system_id":"levelo_inurba_marseille","lat":43.30884,"lon":5.39649,"is_reserved":false,"is_disabled":false,"rental_uris":{"android":"levelo://app?vid=3347b3b5-5021-4048-a5c7-44173ddb1a3b","ios":"levelo://app?vid=3347b3b5-5021-4048-a5c7-44173ddb1a3b"},"vehicle_type_id":"4","last_reported":1742598511,"current_range_meters":5600,"station_id":"ce4bh012rcd13ifvqcv0","pricing_plan_id":"cebpf4jnsgd1na2vs0mg"},{"bike_id":"1bb93a8f-b158-4722-a0a5-d7d909368045","system_id":"levelo_inurba_marseille","lat":43.23961,"lon":5.36625,"is_reserved":false,"is_disabled":false,"rental_uris":{"android":"levelo://app?vid=1bb93a8f-b158-4722-a0a5-d7d909368045","ios":"levelo://app?vid=1bb93a8f-b158-4722-a0a5-d7d909368045"},"vehicle_type_id":"4","last_reported":1742598511,"current_range_meters":5600,"station_id":"ce4bhi12rcd13ifvqfp0","pricing_plan_id":"cebpf4jnsgd1na2vs0mg"},{"bike_id":"89118a19-3b0e-435d-8cb3-6ec0853a9b66","system_id":"levelo_inurba_marseille","lat":43.28621,"lon":5.35106,"is_reserved":false,"is_disabled":false,"rental_uris":{"android":"levelo://app?vid=89118a19-3b0e-435d-8cb3-6ec0853a9b66","ios":"levelo://app?vid=89118a19-3b0e-435d-8cb3-6ec0853a9b66"},"vehicle_type_id":"4","last_reported":1742598511,"current_range_meters":6000,"station_id":"ce4bhch2rcd13ifvqeug","pricing_plan_id":"cebpf4jnsgd1na2vs0mg"},{"bike_id":"23b2e3d8-60a3-497b-8e4a-831fece3c0e6","system_id":"levelo_inurba_marseille","lat":43.27998,"lon":5.40012,"is_reserved":false,"is_disabled":false,"rental_uris":{"android":"levelo://app?vid=23b2e3d8-60a3-497b-8e4a-831fece3c0e6","ios":"levelo://app?vid=23b2e3d8-60a3-497b-8e4a-831fece3c0e6"},"vehicle_type_id":"4","last_reported":1742598511,"current_range_meters":6000,"station_id":"ce4bho92rcd13ifvqh4g","pricing_plan_id":"cebpf4jnsgd1na2vs0mg"},{"bike_id":"c42603fe-293b-4b02-849a-d59d42f31299","system_id":"levelo_inurba_marseille","lat":43.30576,"lon":5.39338,"is_reserved":false,"is_disabled":false,"rental_uris":{"android":"levelo://app?vid=c42603fe-293b-4b02-849a-d59d42f31299","ios":"levelo://app?vid=c42603fe-293b-4b02-849a-d59d42f31299"},"vehicle_type_id":"4","last_reported":1742598511,"current_range_meters":6400,"station_id":"ce4bh0p2rcd13ifvqd80","pricing_plan_id":"cebpf4jnsgd1na2vs0mg"},{"bike_id":"1d8daad7-9bb4-40dd-adfc-e589f483368c","system_id":"levelo_inurba_marseille","lat":43.25833,"lon":5.39443,"is_reserved":false,"is_disabled":false,"rental_uris":{"android":"levelo://app?vid=1d8daad7-9bb4-40dd-adfc-e589f483368c","ios":"levelo://app?vid=1d8daad7-9bb4-40dd-adfc-e589f483368c"},"vehicle_type_id":"4","last_reported":1742598511,"current_range_meters":6400,"station_id":"ce4bhip2rcd13ifvqft0","pricing_plan_id":"cebpf4jnsgd1na2vs0mg"},{"bike_id":"34e44cf2-5151-46ef-8cea-feed28eb3d7b","system_id":"levelo_inurba_marseille","lat":43.30604,"lon":5.39352,"is_reserved":false,"is_disabled":false,"rental_uris":{"android":"levelo://app?vid=34e44cf2-5151-46ef-8cea-feed28eb3d7b","ios":"levelo://app?vid=34e44cf2-5151-46ef-8cea-feed28eb3d7b"},"vehicle_type_id":"4","last_reported":1742598511,"current_range_meters":6400,"station_id":"ce4bh0p2rcd13ifvqd80","pricing_plan_id":"cebpf4jnsgd1na2vs0mg"},{"bike_id":"4cbc815f-81cb-4b3f-a536-29e8befb1fe3","system_id":"levelo_inurba_marseille","lat":43.24997,"lon":5.38939,"is_reserved":false,"is_disabled":false,"rental_uris":{"android":"levelo://app?vid=4cbc815f-81cb-4b3f-a536-29e8befb1fe3","ios":"levelo://app?vid=4cbc815f-81cb-4b3f-a536-29e8befb1fe3"},"vehicle_type_id":"4","last_reported":1742598511,"current_range_meters":6400,"station_id":"ce4bhgp2rcd13ifvqfd0","pricing_plan_id":"cebpf4jnsgd1na2vs0mg"},{"bike_id":"d5a67c76-1f53-41b7-842f-2638e5009324","system_id":"levelo_inurba_marseille","lat":43.3079,"lon":5.38176,"is_reserved":false,"is_disabled":false,"rental_uris":{"android":"levelo://app?vid=d5a67c76-1f53-41b7-842f-2638e5009324","ios":"levelo://app?vid=d5a67c76-1f53-41b7-842f-2638e5009324"},"vehicle_type_id":"4","last_reported":1742598511,"current_range_meters":6400,"station_id":"ce4bgt12rcd13ifvqce0","pricing_plan_id":"cebpf4jnsgd1na2vs0mg"},{"bike_id":"bc54a8b8-aef0-4d9e-81e5-8a85a0e4b8c4","system_id":"levelo_inurba_marseille","lat":43.24729,"lon":5.41167,"is_reserved":false,"is_disabled":false,"rental_uris":{"android":"levelo://app?vid=bc54a8b8-aef0-4d9e-81e5-8a85a0e4b8c4","ios":"levelo://app?vid=bc54a8b8-aef0-4d9e-81e5-8a85a0e4b8c4"},"vehicle_type_id":"4","last_reported":1742598511,"current_range_meters":6400,"station_id":"","pricing_plan_id":"cebpf4jnsgd1na2vs0mg"},{"bike_id":"eb7d88b0-98fc-4cff-9d54-8b75e5bfb5c8","system_id":"levelo_inurba_marseille","lat":43.29408,"lon":5.38646,"is_reserved":false,"is_disabled":false,"rental_uris":{"android":"levelo://app?vid=eb7d88b0-98fc-4cff-9d54-8b75e5bfb5c8","ios":"levelo://app?vid=eb7d88b0-98fc-4cff-9d54-8b75e5bfb5c8"},"vehicle_type_id":"4","last_reported":1742598511,"current_range_meters":6400,"station_id":"ce4bh2h2rcd13ifvqdh0","pricing_plan_id":"cebpf4jnsgd1na2vs0mg"},{"bike_id":"075dabb0-6ff1-4552-964a-dc7d398261b5","system_id":"levelo_inurba_marseille","lat":43.31064,"lon":5.38353,"is_reserved":false,"is_disabled":false,"rental_uris":{"android":"levelo://app?vid=075dabb0-6ff1-4552-964a-dc7d398261b5","ios":"levelo://app?vid=075dabb0-6ff1-4552-964a-dc7d398261b5"},"vehicle_type_id":"4","last_reported":1742598511,"current_range_meters":6400,"station_id":"ce4bgv92rcd13ifvqcr0","pricing_plan_id":"cebpf4jnsgd1na2vs0mg"},{"bike_id":"62bf2f5c-9819-4816-afad-4a268d7a76b8","system_id":"levelo_inurba_marseille","lat":43.24179,"lon":5.36395,"is_reserved":false,"is_disabled":false,"rental_uris":{"android":"levelo://app?vid=62bf2f5c-9819-4816-afad-4a268d7a76b8","ios":"levelo://app?vid=62bf2f5c-9819-4816-afad-4a268d7a76b8"},"vehicle_type_id":"4","last_reported":1742598511,"current_range_meters":6800,"station_id":"cpo36qri1sfpv3e86is0","pricing_plan_id":"cebpf4jnsgd1na2vs0mg"},{"bike_id":"af0dd9ac-7466-4151-a052-abde29cf9b49","system_id":"levelo_inurba_marseille","lat":43.23189,"lon":5.35567,"is_reserved":false,"is_disabled":false,"rental_uris":{"android":"levelo://app?vid=af0dd9ac-7466-4151-a052-abde29cf9b49","ios":"levelo://app?vid=af0dd9ac-7466-4151-a052-abde29cf9b49"},"vehicle_type_id":"4","last_reported":1742598511,"current_range_meters":6800,"station_id":"ce4bhu92rcd13ifvqi70","pricing_plan_id":"cebpf4jnsgd1na2vs0mg"},{"bike_id":"99d4f2a7-22a3-4802-bbca-4667960daf47","system_id":"levelo_inurba_marseille","lat":43.24669,"lon":5.38152,"is_reserved":false,"is_disabled":false,"rental_uris":{"android":"levelo://app?vid=99d4f2a7-22a3-4802-bbca-4667960daf47","ios":"levelo://app?vid=99d4f2a7-22a3-4802-bbca-4667960daf47"},"vehicle_type_id":"4","last_reported":1742598511,"current_range_meters":6800,"station_id":"ce4bhih2rcd13ifvqfr0","pricing_plan_id":"cebpf4jnsgd1na2vs0mg"},{"bike_id":"ab530528-a0f9-4c00-90ed-02c9fe298ed5","system_id":"levelo_inurba_marseille","lat":43.30138,"lon":5.39846,"is_reserved":false,"is_disabled":false,"rental_uris":{"android":"levelo://app?vid=ab530528-a0f9-4c00-90ed-02c9fe298ed5","ios":"levelo://app?vid=ab530528-a0f9-4c00-90ed-02c9fe298ed5"},"vehicle_type_id":"4","last_reported":1742598511,"current_range_meters":6800,"station_id":"ce4bh0h2rcd13ifvqd40","pricing_plan_id":"cebpf4jnsgd1na2vs0mg"},{"bike_id":"85e51a2a-070c-44ac-80eb-b460bf792e27","system_id":"levelo_inurba_marseille","lat":43.30883,"lon":5.39649,"is_reserved":false,"is_disabled":false,"rental_uris":{"android":"levelo://app?vid=85e51a2a-070c-44ac-80eb-b460bf792e27","ios":"levelo://app?vid=85e51a2a-070c-44ac-80eb-b460bf792e27"},"vehicle_type_id":"4","last_reported":1742598511,"current_range_meters":6800,"station_id":"ce4bh012rcd13ifvqcv0","pricing_plan_id":"cebpf4jnsgd1na2vs0mg"},{"bike_id":"46e325e1-4b70-4630-bfdc-9758fa69893c","system_id":"levelo_inurba_marseille","lat":43.28142,"lon":5.4267,"is_reserved":false,"is_disabled":false,"rental_uris":{"android":"levelo://app?vid=46e325e1-4b70-4630-bfdc-9758fa69893c","ios":"levelo://app?vid=46e325e1-4b70-4630-bfdc-9758fa69893c"},"vehicle_type_id":"4","last_reported":1742598511,"current_range_meters":6800,"station_id":"ce4bhnh2rcd13ifvqgug","pricing_plan_id":"cebpf4jnsgd1na2vs0mg"},{"bike_id":"3f5d4e39-4807-49e3-a81e-56378ddd793b","system_id":"levelo_inurba_marseille","lat":43.30889,"lon":5.39624,"is_reserved":false,"is_disabled":false,"rental_uris":{"android":"levelo://app?vid=3f5d4e39-4807-49e3-a81e-56378ddd793b","ios":"levelo://app?vid=3f5d4e39-4807-49e3-a81e-56378ddd793b"},"vehicle_type_id":"4","last_reported":1742598511,"current_range_meters":6800,"station_id":"ce4bh012rcd13ifvqcv0","pricing_plan_id":"cebpf4jnsgd1na2vs0mg"},{"bike_id":"f9d9429e-1f43-4f12-bea2-c15a50fa2ec3","system_id":"levelo_inurba_marseille","lat":43.31167,"lon":5.38727,"is_reserved":false,"is_disabled":false,"rental_uris":{"android":"levelo://app?vid=f9d9429e-1f43-4f12-bea2-c15a50fa2ec3","ios":"levelo://app?vid=f9d9429e-1f43-4f12-bea2-c15a50fa2ec3"},"vehicle_type_id":"4","last_reported":1742598511,"current_range_meters":6800,"station_id":"ce4bgv12rcd13ifvqcp0","pricing_plan_id":"cebpf4jnsgd1na2vs0mg"},{"bike_id":"2d86cf0c-8220-4a0c-a77e-5b4210ae7f59","system_id":"levelo_inurba_marseille","lat":43.30473,"lon":5.371,"is_reserved":false,"is_disabled":false,"rental_uris":{"android":"levelo://app?vid=2d86cf0c-8220-4a0c-a77e-5b4210ae7f59","ios":"levelo://app?vid=2d86cf0c-8220-4a0c-a77e-5b4210ae7f59"},"vehicle_type_id":"4","last_reported":1742598511,"current_range_meters":6800,"station_id":"","pricing_plan_id":"cebpf4jnsgd1na2vs0mg"},{"bike_id":"36dc95b7-0170-4734-982b-6e8ae2c380f1","system_id":"levelo_inurba_marseille","lat":43.295247,"lon":5.375037,"is_reserved":false,"is_disabled":false,"rental_uris":{"android":"levelo://app?vid=36dc95b7-0170-4734-982b-6e8ae2c380f1","ios":"levelo://app?vid=36dc95b7-0170-4734-982b-6e8ae2c380f1"},"vehicle_type_id":"4","last_reported":1742598511,"current_range_meters":7200,"station_id":"ce4bh0h2rcd13ifvqd40","pricing_plan_id":"cebpf4jnsgd1na2vs0mg"},{"bike_id":"cc17e95f-f87b-4221-a760-7c60902a7308","system_id":"levelo_inurba_marseille","lat":43.29512,"lon":5.38515,"is_reserved":false,"is_disabled":false,"rental_uris":{"android":"levelo://app?vid=cc17e95f-f87b-4221-a760-7c60902a7308","ios":"levelo://app?vid=cc17e95f-f87b-4221-a760-7c60902a7308"},"vehicle_type_id":"4","last_reported":1742598511,"current_range_meters":7200,"station_id":"ce4bgih2rcd13ifvqba0","pricing_plan_id":"cebpf4jnsgd1na2vs0mg"},{"bike_id":"801a4cea-70de-4c6d-b3fc-f3760232a8f2","system_id":"levelo_inurba_marseille","lat":43.29529,"lon":5.38532,"is_reserved":false,"is_disabled":false,"rental_uris":{"android":"levelo://app?vid=801a4cea-70de-4c6d-b3fc-f3760232a8f2","ios":"levelo://app?vid=801a4cea-70de-4c6d-b3fc-f3760232a8f2"},"vehicle_type_id":"4","last_reported":1742598511,"current_range_meters":7200,"station_id":"ce4bgih2rcd13ifvqba0","pricing_plan_id":"cebpf4jnsgd1na2vs0mg"},{"bike_id":"fde0388d-33e2-4089-9704-3afd264d3260","system_id":"levelo_inurba_marseille","lat":43.229522,"lon":5.438487,"is_reserved":false,"is_disabled":false,"rental_uris":{"android":"levelo://app?vid=fde0388d-33e2-4089-9704-3afd264d3260","ios":"levelo://app?vid=fde0388d-33e2-4089-9704-3afd264d3260"},"vehicle_type_id":"4","last_reported":1742598511,"current_range_meters":7200,"station_id":"ce4bhmp2rcd13ifvqgog","pricing_plan_id":"cebpf4jnsgd1na2vs0mg"},{"bike_id":"9fa01f43-b8d2-4d94-82dc-9c39c2ca8d4e","system_id":"levelo_inurba_marseille","lat":43.29287,"lon":5.40111,"is_reserved":false,"is_disabled":false,"rental_uris":{"android":"levelo://app?vid=9fa01f43-b8d2-4d94-82dc-9c39c2ca8d4e","ios":"levelo://app?vid=9fa01f43-b8d2-4d94-82dc-9c39c2ca8d4e"},"vehicle_type_id":"4","last_reported":1742598511,"current_range_meters":7200,"station_id":"ce4bh312rcd13ifvqdk0","pricing_plan_id":"cebpf4jnsgd1na2vs0mg"},{"bike_id":"1c3b5361-695c-4ccc-94f9-aca7f37b6d45","system_id":"levelo_inurba_marseille","lat":43.232,"lon":5.35562,"is_reserved":false,"is_disabled":false,"rental_uris":{"android":"levelo://app?vid=1c3b5361-695c-4ccc-94f9-aca7f37b6d45","ios":"levelo://app?vid=1c3b5361-695c-4ccc-94f9-aca7f37b6d45"},"vehicle_type_id":"4","last_reported":1742598511,"current_range_meters":8000,"station_id":"ce4bhu92rcd13ifvqi70","pricing_plan_id":"cebpf4jnsgd1na2vs0mg"},{"bike_id":"d20486f6-9086-4f35-aeb9-691656631911","system_id":"levelo_inurba_marseille","lat":43.27424,"lon":5.3941,"is_reserved":false,"is_disabled":false,"rental_uris":{"android":"levelo://app?vid=d20486f6-9086-4f35-aeb9-691656631911","ios":"levelo://app?vid=d20486f6-9086-4f35-aeb9-691656631911"},"vehicle_type_id":"4","last_reported":1742598511,"current_range_meters":8000,"station_id":"ce4bhdp2rcd13ifvqf20","pricing_plan_id":"cebpf4jnsgd1na2vs0mg"},{"bike_id":"8c9fa4ba-3022-472d-a524-2b34aef0abf8","system_id":"levelo_inurba_marseille","lat":43.30019,"lon":5.37153,"is_reserved":false,"is_disabled":true,"rental_uris":{"android":"levelo://app?vid=8c9fa4ba-3022-472d-a524-2b34aef0abf8","ios":"levelo://app?vid=8c9fa4ba-3022-472d-a524-2b34aef0abf8"},"vehicle_type_id":"4","last_reported":1742598511,"current_range_meters":8000,"station_id":"ce4bgr92rcd13ifvqc7g","pricing_plan_id":"cebpf4jnsgd1na2vs0mg"},{"bike_id":"2a093226-3f4c-4c2e-a2ec-4c1848292d89","system_id":"levelo_inurba_marseille","lat":43.30943,"lon":5.39038,"is_reserved":false,"is_disabled":false,"rental_uris":{"android":"levelo://app?vid=2a093226-3f4c-4c2e-a2ec-4c1848292d89","ios":"levelo://app?vid=2a093226-3f4c-4c2e-a2ec-4c1848292d89"},"vehicle_type_id":"4","last_reported":1742598511,"current_range_meters":8000,"station_id":"ce4bgup2rcd13ifvqco0","pricing_plan_id":"cebpf4jnsgd1na2vs0mg"},{"bike_id":"a67c54b6-5ce9-4632-8070-5ca7d5b7fc9e","system_id":"levelo_inurba_marseille","lat":43.2307,"lon":5.35497,"is_reserved":false,"is_disabled":false,"rental_uris":{"android":"levelo://app?vid=a67c54b6-5ce9-4632-8070-5ca7d5b7fc9e","ios":"levelo://app?vid=a67c54b6-5ce9-4632-8070-5ca7d5b7fc9e"},"vehicle_type_id":"4","last_reported":1742598511,"current_range_meters":8000,"station_id":"cpo3342slgdg3j2ifvpg","pricing_plan_id":"cebpf4jnsgd1na2vs0mg"},{"bike_id":"e72eb479-3d5b-4953-b4d9-d5f01306cba7","system_id":"levelo_inurba_marseille","lat":43.2681,"lon":5.40254,"is_reserved":false,"is_disabled":false,"rental_uris":{"android":"levelo://app?vid=e72eb479-3d5b-4953-b4d9-d5f01306cba7","ios":"levelo://app?vid=e72eb479-3d5b-4953-b4d9-d5f01306cba7"},"vehicle_type_id":"4","last_reported":1742598511,"current_range_meters":8000,"station_id":"ce501612rcd8frsf0b60","pricing_plan_id":"cebpf4jnsgd1na2vs0mg"},{"bike_id":"78fd32ab-c35b-4581-9109-56c233e230f9","system_id":"levelo_inurba_marseille","lat":43.303484,"lon":5.391029,"is_reserved":false,"is_disabled":false,"rental_uris":{"android":"levelo://app?vid=78fd32ab-c35b-4581-9109-56c233e230f9","ios":"levelo://app?vid=78fd32ab-c35b-4581-9109-56c233e230f9"},"vehicle_type_id":"4","last_reported":1742598511,"current_range_meters":8000,"station_id":"ce4bgt92rcd13ifvqcg0","pricing_plan_id":"cebpf4jnsgd1na2vs0mg"},{"bike_id":"6b9f258c-1031-4975-9128-1ece84625cf6","system_id":"levelo_inurba_marseille","lat":43.31084,"lon":5.38361,"is_reserved":false,"is_disabled":false,"rental_uris":{"android":"levelo://app?vid=6b9f258c-1031-4975-9128-1ece84625cf6","ios":"levelo://app?vid=6b9f258c-1031-4975-9128-1ece84625cf6"},"vehicle_type_id":"4","last_reported":1742598511,"current_range_meters":8400,"station_id":"ce4bgv92rcd13ifvqcr0","pricing_plan_id":"cebpf4jnsgd1na2vs0mg"},{"bike_id":"9fcb3f14-f368-4f79-aa70-01b27150c36b","system_id":"levelo_inurba_marseille","lat":43.30639,"lon":5.37228,"is_reserved":false,"is_disabled":false,"rental_uris":{"android":"levelo://app?vid=9fcb3f14-f368-4f79-aa70-01b27150c36b","ios":"levelo://app?vid=9fcb3f14-f368-4f79-aa70-01b27150c36b"},"vehicle_type_id":"4","last_reported":1742598511,"current_range_meters":8400,"station_id":"ce4bgqh2rcd13ifvqc4g","pricing_plan_id":"cebpf4jnsgd1na2vs0mg"},{"bike_id":"628fefc0-c71d-4844-8f82-26651c57ef18","system_id":"levelo_inurba_marseille","lat":43.30863,"lon":5.39625,"is_reserved":false,"is_disabled":false,"rental_uris":{"android":"levelo://app?vid=628fefc0-c71d-4844-8f82-26651c57ef18","ios":"levelo://app?vid=628fefc0-c71d-4844-8f82-26651c57ef18"},"vehicle_type_id":"4","last_reported":1742598511,"current_range_meters":8400,"station_id":"ce4bh012rcd13ifvqcv0","pricing_plan_id":"cebpf4jnsgd1na2vs0mg"},{"bike_id":"1d0aee08-f37d-44de-9496-80d4d601b079","system_id":"levelo_inurba_marseille","lat":43.25104,"lon":5.40346,"is_reserved":false,"is_disabled":false,"rental_uris":{"android":"levelo://app?vid=1d0aee08-f37d-44de-9496-80d4d601b079","ios":"levelo://app?vid=1d0aee08-f37d-44de-9496-80d4d601b079"},"vehicle_type_id":"4","last_reported":1742598511,"current_range_meters":8400,"station_id":"ce4bhlh2rcd13ifvqgig","pricing_plan_id":"cebpf4jnsgd1na2vs0mg"},{"bike_id":"11961192-6ef3-4253-93b7-0d5093fd3d55","system_id":"levelo_inurba_marseille","lat":43.27957,"lon":5.41028,"is_reserved":false,"is_disabled":false,"rental_uris":{"android":"levelo://app?vid=11961192-6ef3-4253-93b7-0d5093fd3d55","ios":"levelo://app?vid=11961192-6ef3-4253-93b7-0d5093fd3d55"},"vehicle_type_id":"4","last_reported":1742598511,"current_range_meters":8400,"station_id":"ce4bhnp2rcd13ifvqh0g","pricing_plan_id":"cebpf4jnsgd1na2vs0mg"},{"bike_id":"21586356-4657-4d38-a5a0-e9ea73c07dfa","system_id":"levelo_inurba_marseille","lat":43.27942,"lon":5.41045,"is_reserved":false,"is_disabled":false,"rental_uris":{"android":"levelo://app?vid=21586356-4657-4d38-a5a0-e9ea73c07dfa","ios":"levelo://app?vid=21586356-4657-4d38-a5a0-e9ea73c07dfa"},"vehicle_type_id":"4","last_reported":1742598511,"current_range_meters":8400,"station_id":"ce4bhnp2rcd13ifvqh0g","pricing_plan_id":"cebpf4jnsgd1na2vs0mg"},{"bike_id":"8451845f-f5b6-4fe7-ba98-abf100b83efd","system_id":"levelo_inurba_marseille","lat":43.29748,"lon":5.37688,"is_reserved":false,"is_disabled":true,"rental_uris":{"android":"levelo://app?vid=8451845f-f5b6-4fe7-ba98-abf100b83efd","ios":"levelo://app?vid=8451845f-f5b6-4fe7-ba98-abf100b83efd"},"vehicle_type_id":"4","last_reported":1742598511,"current_range_meters":8400,"station_id":"ce4bgkh2rcd13ifvqbl0","pricing_plan_id":"cebpf4jnsgd1na2vs0mg"},{"bike_id":"de542645-95de-4dcd-8505-127ae545ee24","system_id":"levelo_inurba_marseille","lat":43.27932,"lon":5.41036,"is_reserved":false,"is_disabled":false,"rental_uris":{"android":"levelo://app?vid=de542645-95de-4dcd-8505-127ae545ee24","ios":"levelo://app?vid=de542645-95de-4dcd-8505-127ae545ee24"},"vehicle_type_id":"4","last_reported":1742598511,"current_range_meters":8400,"station_id":"ce4bhnp2rcd13ifvqh0g","pricing_plan_id":"cebpf4jnsgd1na2vs0mg"},{"bike_id":"28c070b6-831a-4ca4-96f5-53fd9f42bfa5","system_id":"levelo_inurba_marseille","lat":43.3106,"lon":5.38342,"is_reserved":false,"is_disabled":false,"rental_uris":{"android":"levelo://app?vid=28c070b6-831a-4ca4-96f5-53fd9f42bfa5","ios":"levelo://app?vid=28c070b6-831a-4ca4-96f5-53fd9f42bfa5"},"vehicle_type_id":"4","last_reported":1742598511,"current_range_meters":8400,"station_id":"ce4bgv92rcd13ifvqcr0","pricing_plan_id":"cebpf4jnsgd1na2vs0mg"},{"bike_id":"899ab87e-4ea4-40e5-9304-e09f83aad3d0","system_id":"levelo_inurba_marseille","lat":43.23962,"lon":5.36664,"is_reserved":false,"is_disabled":false,"rental_uris":{"android":"levelo://app?vid=899ab87e-4ea4-40e5-9304-e09f83aad3d0","ios":"levelo://app?vid=899ab87e-4ea4-40e5-9304-e09f83aad3d0"},"vehicle_type_id":"4","last_reported":1742598511,"current_range_meters":8800,"station_id":"ce4bhi12rcd13ifvqfp0","pricing_plan_id":"cebpf4jnsgd1na2vs0mg"},{"bike_id":"cf055f0d-64ca-4d3b-af73-bef858b3ca22","system_id":"levelo_inurba_marseille","lat":43.29597,"lon":5.38103,"is_reserved":false,"is_disabled":false,"rental_uris":{"android":"levelo://app?vid=cf055f0d-64ca-4d3b-af73-bef858b3ca22","ios":"levelo://app?vid=cf055f0d-64ca-4d3b-af73-bef858b3ca22"},"vehicle_type_id":"4","last_reported":1742598511,"current_range_meters":8800,"station_id":"ce4bgl12rcd13ifvqbo0","pricing_plan_id":"cebpf4jnsgd1na2vs0mg"},{"bike_id":"1323d2cd-c4e0-4783-b4f1-4daaeb41faef","system_id":"levelo_inurba_marseille","lat":43.23954,"lon":5.36638,"is_reserved":false,"is_disabled":false,"rental_uris":{"android":"levelo://app?vid=1323d2cd-c4e0-4783-b4f1-4daaeb41faef","ios":"levelo://app?vid=1323d2cd-c4e0-4783-b4f1-4daaeb41faef"},"vehicle_type_id":"4","last_reported":1742598511,"current_range_meters":8800,"station_id":"ce4bhi12rcd13ifvqfp0","pricing_plan_id":"cebpf4jnsgd1na2vs0mg"},{"bike_id":"bf5d7bdb-65a8-4310-b955-6a76e2cbd7fe","system_id":"levelo_inurba_marseille","lat":43.33747,"lon":5.39178,"is_reserved":false,"is_disabled":false,"rental_uris":{"android":"levelo://app?vid=bf5d7bdb-65a8-4310-b955-6a76e2cbd7fe","ios":"levelo://app?vid=bf5d7bdb-65a8-4310-b955-6a76e2cbd7fe"},"vehicle_type_id":"4","last_reported":1742598511,"current_range_meters":8800,"station_id":"ce4bhr92rcd13ifvqhsg","pricing_plan_id":"cebpf4jnsgd1na2vs0mg"},{"bike_id":"75b7f2a7-6cd1-4a37-8266-5047dfb42b12","system_id":"levelo_inurba_marseille","lat":43.2992,"lon":5.38151,"is_reserved":false,"is_disabled":false,"rental_uris":{"android":"levelo://app?vid=75b7f2a7-6cd1-4a37-8266-5047dfb42b12","ios":"levelo://app?vid=75b7f2a7-6cd1-4a37-8266-5047dfb42b12"},"vehicle_type_id":"4","last_reported":1742598511,"current_range_meters":8800,"station_id":"ce4bgj12rcd13ifvqbc0","pricing_plan_id":"cebpf4jnsgd1na2vs0mg"},{"bike_id":"9b80c4db-51e1-4e4e-8ecd-a558d3a24fd7","system_id":"levelo_inurba_marseille","lat":43.33156,"lon":5.38203,"is_reserved":false,"is_disabled":false,"rental_uris":{"android":"levelo://app?vid=9b80c4db-51e1-4e4e-8ecd-a558d3a24fd7","ios":"levelo://app?vid=9b80c4db-51e1-4e4e-8ecd-a558d3a24fd7"},"vehicle_type_id":"4","last_reported":1742598511,"current_range_meters":8800,"station_id":"","pricing_plan_id":"cebpf4jnsgd1na2vs0mg"},{"bike_id":"e2994565-04d2-4fce-a2eb-50fc9e686dbb","system_id":"levelo_inurba_marseille","lat":43.29272,"lon":5.3684,"is_reserved":false,"is_disabled":false,"rental_uris":{"android":"levelo://app?vid=e2994565-04d2-4fce-a2eb-50fc9e686dbb","ios":"levelo://app?vid=e2994565-04d2-4fce-a2eb-50fc9e686dbb"},"vehicle_type_id":"4","last_reported":1742598511,"current_range_meters":8800,"station_id":"ce4bhbp2rcd13ifvqesg","pricing_plan_id":"cebpf4jnsgd1na2vs0mg"},{"bike_id":"1f4b5356-d265-454a-aa48-2f7dec9d4d2a","system_id":"levelo_inurba_marseille","lat":43.33745,"lon":5.39173,"is_reserved":false,"is_disabled":false,"rental_uris":{"android":"levelo://app?vid=1f4b5356-d265-454a-aa48-2f7dec9d4d2a","ios":"levelo://app?vid=1f4b5356-d265-454a-aa48-2f7dec9d4d2a"},"vehicle_type_id":"4","last_reported":1742598511,"current_range_meters":8800,"station_id":"ce4bhr92rcd13ifvqhsg","pricing_plan_id":"cebpf4jnsgd1na2vs0mg"},{"bike_id":"2b55a656-241b-4bcc-b273-1b3d1767f0e8","system_id":"levelo_inurba_marseille","lat":43.31074,"lon":5.38343,"is_reserved":false,"is_disabled":false,"rental_uris":{"android":"levelo://app?vid=2b55a656-241b-4bcc-b273-1b3d1767f0e8","ios":"levelo://app?vid=2b55a656-241b-4bcc-b273-1b3d1767f0e8"},"vehicle_type_id":"4","last_reported":1742598511,"current_range_meters":8800,"station_id":"ce4bgv92rcd13ifvqcr0","pricing_plan_id":"cebpf4jnsgd1na2vs0mg"},{"bike_id":"a06df953-ee24-4eee-acd9-cfb685fc1c62","system_id":"levelo_inurba_marseille","lat":43.31418,"lon":5.37436,"is_reserved":false,"is_disabled":false,"rental_uris":{"android":"levelo://app?vid=a06df953-ee24-4eee-acd9-cfb685fc1c62","ios":"levelo://app?vid=a06df953-ee24-4eee-acd9-cfb685fc1c62"},"vehicle_type_id":"4","last_reported":1742598511,"current_range_meters":9200,"station_id":"","pricing_plan_id":"cebpf4jnsgd1na2vs0mg"},{"bike_id":"4a19a393-8a97-42b9-ba7d-f07e3ebe11b2","system_id":"levelo_inurba_marseille","lat":43.29263,"lon":5.38436,"is_reserved":false,"is_disabled":true,"rental_uris":{"android":"levelo://app?vid=4a19a393-8a97-42b9-ba7d-f07e3ebe11b2","ios":"levelo://app?vid=4a19a393-8a97-42b9-ba7d-f07e3ebe11b2"},"vehicle_type_id":"4","last_reported":1742598511,"current_range_meters":9200,"station_id":"ce4bh692rcd13ifvqea0","pricing_plan_id":"cebpf4jnsgd1na2vs0mg"},{"bike_id":"d000c8ac-0c96-4fc1-ac84-5f67409cab71","system_id":"levelo_inurba_marseille","lat":43.32478,"lon":5.36559,"is_reserved":false,"is_disabled":false,"rental_uris":{"android":"levelo://app?vid=d000c8ac-0c96-4fc1-ac84-5f67409cab71","ios":"levelo://app?vid=d000c8ac-0c96-4fc1-ac84-5f67409cab71"},"vehicle_type_id":"4","last_reported":1742598511,"current_range_meters":9200,"station_id":"ce4bhs12rcd13ifvqhvg","pricing_plan_id":"cebpf4jnsgd1na2vs0mg"},{"bike_id":"20e2be53-78ac-4b24-8dad-96b43d72add2","system_id":"levelo_inurba_marseille","lat":43.31079,"lon":5.38343,"is_reserved":false,"is_disabled":false,"rental_uris":{"android":"levelo://app?vid=20e2be53-78ac-4b24-8dad-96b43d72add2","ios":"levelo://app?vid=20e2be53-78ac-4b24-8dad-96b43d72add2"},"vehicle_type_id":"4","last_reported":1742598511,"current_range_meters":9200,"station_id":"ce4bgv92rcd13ifvqcr0","pricing_plan_id":"cebpf4jnsgd1na2vs0mg"},{"bike_id":"12578bf7-6392-4904-bec5-dd12a63d8899","system_id":"levelo_inurba_marseille","lat":43.2904,"lon":5.39977,"is_reserved":false,"is_disabled":false,"rental_uris":{"android":"levelo://app?vid=12578bf7-6392-4904-bec5-dd12a63d8899","ios":"levelo://app?vid=12578bf7-6392-4904-bec5-dd12a63d8899"},"vehicle_type_id":"4","last_reported":1742598511,"current_range_meters":9200,"station_id":"ce4bh392rcd13ifvqdm0","pricing_plan_id":"cebpf4jnsgd1na2vs0mg"},{"bike_id":"98e91d46-bb5c-498d-9f10-ad4d8649f5e2","system_id":"levelo_inurba_marseille","lat":43.28694,"lon":5.3999,"is_reserved":false,"is_disabled":false,"rental_uris":{"android":"levelo://app?vid=98e91d46-bb5c-498d-9f10-ad4d8649f5e2","ios":"levelo://app?vid=98e91d46-bb5c-498d-9f10-ad4d8649f5e2"},"vehicle_type_id":"4","last_reported":1742598511,"current_range_meters":9200,"station_id":"ce4bho92rcd13ifvqh3g","pricing_plan_id":"cebpf4jnsgd1na2vs0mg"},{"bike_id":"93fff6e4-609c-4a77-877c-9f41f1057427","system_id":"levelo_inurba_marseille","lat":43.28632,"lon":5.3511,"is_reserved":false,"is_disabled":false,"rental_uris":{"android":"levelo://app?vid=93fff6e4-609c-4a77-877c-9f41f1057427","ios":"levelo://app?vid=93fff6e4-609c-4a77-877c-9f41f1057427"},"vehicle_type_id":"4","last_reported":1742598511,"current_range_meters":9200,"station_id":"ce4bhch2rcd13ifvqeug","pricing_plan_id":"cebpf4jnsgd1na2vs0mg"},{"bike_id":"6e70d4bb-208b-4417-8e25-d6981998048a","system_id":"levelo_inurba_marseille","lat":43.27991,"lon":5.40041,"is_reserved":false,"is_disabled":false,"rental_uris":{"android":"levelo://app?vid=6e70d4bb-208b-4417-8e25-d6981998048a","ios":"levelo://app?vid=6e70d4bb-208b-4417-8e25-d6981998048a"},"vehicle_type_id":"4","last_reported":1742598511,"current_range_meters":9200,"station_id":"ce4bho92rcd13ifvqh4g","pricing_plan_id":"cebpf4jnsgd1na2vs0mg"},{"bike_id":"f26047fe-e325-4cda-a7da-2e6f1320cab5","system_id":"levelo_inurba_marseille","lat":43.26527,"lon":5.39584,"is_reserved":false,"is_disabled":false,"rental_uris":{"android":"levelo://app?vid=f26047fe-e325-4cda-a7da-2e6f1320cab5","ios":"levelo://app?vid=f26047fe-e325-4cda-a7da-2e6f1320cab5"},"vehicle_type_id":"4","last_reported":1742598511,"current_range_meters":9200,"station_id":"ce4bhi12rcd13ifvqfq0","pricing_plan_id":"cebpf4jnsgd1na2vs0mg"},{"bike_id":"1a043965-f0b5-40ad-a7e4-7be7e1dac817","system_id":"levelo_inurba_marseille","lat":43.29028,"lon":5.38632,"is_reserved":false,"is_disabled":false,"rental_uris":{"android":"levelo://app?vid=1a043965-f0b5-40ad-a7e4-7be7e1dac817","ios":"levelo://app?vid=1a043965-f0b5-40ad-a7e4-7be7e1dac817"},"vehicle_type_id":"4","last_reported":1742598511,"current_range_meters":9600,"station_id":"ce4bh4p2rcd13ifvqe0g","pricing_plan_id":"cebpf4jnsgd1na2vs0mg"},{"bike_id":"52c16ac5-3447-4053-956c-78fc8bf0dc7c","system_id":"levelo_inurba_marseille","lat":43.32295,"lon":5.36682,"is_reserved":false,"is_disabled":false,"rental_uris":{"android":"levelo://app?vid=52c16ac5-3447-4053-956c-78fc8bf0dc7c","ios":"levelo://app?vid=52c16ac5-3447-4053-956c-78fc8bf0dc7c"},"vehicle_type_id":"4","last_reported":1742598511,"current_range_meters":9600,"station_id":"ce4bhsh2rcd13ifvqi2g","pricing_plan_id":"cebpf4jnsgd1na2vs0mg"},{"bike_id":"9f1c3e5c-869d-4869-b7c6-0c926f2da6bf","system_id":"levelo_inurba_marseille","lat":43.28365,"lon":5.39805,"is_reserved":false,"is_disabled":false,"rental_uris":{"android":"levelo://app?vid=9f1c3e5c-869d-4869-b7c6-0c926f2da6bf","ios":"levelo://app?vid=9f1c3e5c-869d-4869-b7c6-0c926f2da6bf"},"vehicle_type_id":"4","last_reported":1742598511,"current_range_meters":9600,"station_id":"","pricing_plan_id":"cebpf4jnsgd1na2vs0mg"},{"bike_id":"7f396ae9-244b-4126-bc7a-2312f6e4d9ee","system_id":"levelo_inurba_marseille","lat":43.33744,"lon":5.39184,"is_reserved":false,"is_disabled":false,"rental_uris":{"android":"levelo://app?vid=7f396ae9-244b-4126-bc7a-2312f6e4d9ee","ios":"levelo://app?vid=7f396ae9-244b-4126-bc7a-2312f6e4d9ee"},"vehicle_type_id":"4","last_reported":1742598511,"current_range_meters":9600,"station_id":"ce4bhr92rcd13ifvqhsg","pricing_plan_id":"cebpf4jnsgd1na2vs0mg"},{"bike_id":"7a7c73e7-a501-4b78-9258-d3fd6f0e0ef8","system_id":"levelo_inurba_marseille","lat":43.28729,"lon":5.36448,"is_reserved":false,"is_disabled":false,"rental_uris":{"android":"levelo://app?vid=7a7c73e7-a501-4b78-9258-d3fd6f0e0ef8","ios":"levelo://app?vid=7a7c73e7-a501-4b78-9258-d3fd6f0e0ef8"},"vehicle_type_id":"4","last_reported":1742598511,"current_range_meters":9600,"station_id":"","pricing_plan_id":"cebpf4jnsgd1na2vs0mg"},{"bike_id":"a52dfbd3-560f-4dad-8ae6-494d05ea4c89","system_id":"levelo_inurba_marseille","lat":43.32286,"lon":5.38304,"is_reserved":false,"is_disabled":false,"rental_uris":{"android":"levelo://app?vid=a52dfbd3-560f-4dad-8ae6-494d05ea4c89","ios":"levelo://app?vid=a52dfbd3-560f-4dad-8ae6-494d05ea4c89"},"vehicle_type_id":"4","last_reported":1742598511,"current_range_meters":9600,"station_id":"ce4bhr12rcd13ifvqhqg","pricing_plan_id":"cebpf4jnsgd1na2vs0mg"},{"bike_id":"0bc2537b-d53d-470d-bec7-4818702bc5b1","system_id":"levelo_inurba_marseille","lat":43.27423,"lon":5.394,"is_reserved":false,"is_disabled":false,"rental_uris":{"android":"levelo://app?vid=0bc2537b-d53d-470d-bec7-4818702bc5b1","ios":"levelo://app?vid=0bc2537b-d53d-470d-bec7-4818702bc5b1"},"vehicle_type_id":"4","last_reported":1742598511,"current_range_meters":9600,"station_id":"ce4bhdp2rcd13ifvqf20","pricing_plan_id":"cebpf4jnsgd1na2vs0mg"},{"bike_id":"cf951c03-f24d-4989-878c-099767034247","system_id":"levelo_inurba_marseille","lat":43.294128,"lon":5.386267,"is_reserved":false,"is_disabled":false,"rental_uris":{"android":"levelo://app?vid=cf951c03-f24d-4989-878c-099767034247","ios":"levelo://app?vid=cf951c03-f24d-4989-878c-099767034247"},"vehicle_type_id":"4","last_reported":1742598511,"current_range_meters":9200,"station_id":"ce4bguh2rcd13ifvqckg","pricing_plan_id":"cebpf4jnsgd1na2vs0mg"},{"bike_id":"2c69b466-5688-4e6a-aa37-bf74dd1c8e76","system_id":"levelo_inurba_marseille","lat":43.26809,"lon":5.40261,"is_reserved":false,"is_disabled":false,"rental_uris":{"android":"levelo://app?vid=2c69b466-5688-4e6a-aa37-bf74dd1c8e76","ios":"levelo://app?vid=2c69b466-5688-4e6a-aa37-bf74dd1c8e76"},"vehicle_type_id":"4","last_reported":1742598511,"current_range_meters":9600,"station_id":"ce501612rcd8frsf0b60","pricing_plan_id":"cebpf4jnsgd1na2vs0mg"},{"bike_id":"0cc44c87-17fe-499c-977d-487d85dc253c","system_id":"levelo_inurba_marseille","lat":43.30893,"lon":5.39639,"is_reserved":false,"is_disabled":false,"rental_uris":{"android":"levelo://app?vid=0cc44c87-17fe-499c-977d-487d85dc253c","ios":"levelo://app?vid=0cc44c87-17fe-499c-977d-487d85dc253c"},"vehicle_type_id":"4","last_reported":1742598511,"current_range_meters":9600,"station_id":"ce4bh012rcd13ifvqcv0","pricing_plan_id":"cebpf4jnsgd1na2vs0mg"},{"bike_id":"04237039-a7bb-42be-8d10-12705ee8100f","system_id":"levelo_inurba_marseille","lat":43.29586,"lon":5.3811,"is_reserved":false,"is_disabled":false,"rental_uris":{"android":"levelo://app?vid=04237039-a7bb-42be-8d10-12705ee8100f","ios":"levelo://app?vid=04237039-a7bb-42be-8d10-12705ee8100f"},"vehicle_type_id":"4","last_reported":1742598511,"current_range_meters":9600,"station_id":"ce4bgl12rcd13ifvqbo0","pricing_plan_id":"cebpf4jnsgd1na2vs0mg"},{"bike_id":"bb75190e-488b-4d97-a13b-307e543ab9e7","system_id":"levelo_inurba_marseille","lat":43.25871,"lon":5.39893,"is_reserved":false,"is_disabled":false,"rental_uris":{"android":"levelo://app?vid=bb75190e-488b-4d97-a13b-307e543ab9e7","ios":"levelo://app?vid=bb75190e-488b-4d97-a13b-307e543ab9e7"},"vehicle_type_id":"4","last_reported":1742598511,"current_range_meters":9600,"station_id":"ce4bhl92rcd13ifvqghg","pricing_plan_id":"cebpf4jnsgd1na2vs0mg"},{"bike_id":"3ee69224-7c6a-448e-b5bc-935bb2df6bdf","system_id":"levelo_inurba_marseille","lat":43.2808,"lon":5.39662,"is_reserved":false,"is_disabled":false,"rental_uris":{"android":"levelo://app?vid=3ee69224-7c6a-448e-b5bc-935bb2df6bdf","ios":"levelo://app?vid=3ee69224-7c6a-448e-b5bc-935bb2df6bdf"},"vehicle_type_id":"4","last_reported":1742598511,"current_range_meters":9600,"station_id":"ce4bho12rcd13ifvqh2g","pricing_plan_id":"cebpf4jnsgd1na2vs0mg"},{"bike_id":"f1c1254d-d9d6-4485-8910-4ae2a7c84bc0","system_id":"levelo_inurba_marseille","lat":43.23206,"lon":5.39973,"is_reserved":false,"is_disabled":false,"rental_uris":{"android":"levelo://app?vid=f1c1254d-d9d6-4485-8910-4ae2a7c84bc0","ios":"levelo://app?vid=f1c1254d-d9d6-4485-8910-4ae2a7c84bc0"},"vehicle_type_id":"4","last_reported":1742598511,"current_range_meters":9600,"station_id":"ce4bhn12rcd13ifvqgqg","pricing_plan_id":"cebpf4jnsgd1na2vs0mg"},{"bike_id":"5b8c966c-d872-48bf-a2e7-3e6d6a86a2ae","system_id":"levelo_inurba_marseille","lat":43.24396,"lon":5.37059,"is_reserved":false,"is_disabled":false,"rental_uris":{"android":"levelo://app?vid=5b8c966c-d872-48bf-a2e7-3e6d6a86a2ae","ios":"levelo://app?vid=5b8c966c-d872-48bf-a2e7-3e6d6a86a2ae"},"vehicle_type_id":"4","last_reported":1742598511,"current_range_meters":10000,"station_id":"ce4bhhh2rcd13ifvqfk0","pricing_plan_id":"cebpf4jnsgd1na2vs0mg"},{"bike_id":"257266cf-683b-4c8a-a350-70a5c3f41572","system_id":"levelo_inurba_marseille","lat":43.3117,"lon":5.3873,"is_reserved":false,"is_disabled":false,"rental_uris":{"android":"levelo://app?vid=257266cf-683b-4c8a-a350-70a5c3f41572","ios":"levelo://app?vid=257266cf-683b-4c8a-a350-70a5c3f41572"},"vehicle_type_id":"4","last_reported":1742598511,"current_range_meters":10000,"station_id":"ce4bgv12rcd13ifvqcp0","pricing_plan_id":"cebpf4jnsgd1na2vs0mg"},{"bike_id":"dc537980-6042-493d-8080-0667efb1d6ad","system_id":"levelo_inurba_marseille","lat":43.24551,"lon":5.39522,"is_reserved":false,"is_disabled":false,"rental_uris":{"android":"levelo://app?vid=dc537980-6042-493d-8080-0667efb1d6ad","ios":"levelo://app?vid=dc537980-6042-493d-8080-0667efb1d6ad"},"vehicle_type_id":"4","last_reported":1742598511,"current_range_meters":10000,"station_id":"ce4bhlp2rcd13ifvqgjg","pricing_plan_id":"cebpf4jnsgd1na2vs0mg"},{"bike_id":"0d6baf2d-5558-492a-a9f3-8100601ce881","system_id":"levelo_inurba_marseille","lat":43.30889,"lon":5.39654,"is_reserved":false,"is_disabled":false,"rental_uris":{"android":"levelo://app?vid=0d6baf2d-5558-492a-a9f3-8100601ce881","ios":"levelo://app?vid=0d6baf2d-5558-492a-a9f3-8100601ce881"},"vehicle_type_id":"4","last_reported":1742598511,"current_range_meters":10800,"station_id":"ce4bh012rcd13ifvqcv0","pricing_plan_id":"cebpf4jnsgd1na2vs0mg"},{"bike_id":"276613ec-3310-44d6-ae3f-44328dd4fd15","system_id":"levelo_inurba_marseille","lat":43.25844,"lon":5.39436,"is_reserved":false,"is_disabled":false,"rental_uris":{"android":"levelo://app?vid=276613ec-3310-44d6-ae3f-44328dd4fd15","ios":"levelo://app?vid=276613ec-3310-44d6-ae3f-44328dd4fd15"},"vehicle_type_id":"4","last_reported":1742598511,"current_range_meters":10000,"station_id":"ce4bhip2rcd13ifvqft0","pricing_plan_id":"cebpf4jnsgd1na2vs0mg"},{"bike_id":"eab7a7c9-6866-4b70-a5d5-9630fb0729c1","system_id":"levelo_inurba_marseille","lat":43.27993,"lon":5.41686,"is_reserved":false,"is_disabled":false,"rental_uris":{"android":"levelo://app?vid=eab7a7c9-6866-4b70-a5d5-9630fb0729c1","ios":"levelo://app?vid=eab7a7c9-6866-4b70-a5d5-9630fb0729c1"},"vehicle_type_id":"4","last_reported":1742598511,"current_range_meters":10000,"station_id":"ce4bho12rcd13ifvqh1g","pricing_plan_id":"cebpf4jnsgd1na2vs0mg"},{"bike_id":"fef057d8-6da4-40a4-a1f6-66bd5a6ed941","system_id":"levelo_inurba_marseille","lat":43.29281,"lon":5.40121,"is_reserved":false,"is_disabled":false,"rental_uris":{"android":"levelo://app?vid=fef057d8-6da4-40a4-a1f6-66bd5a6ed941","ios":"levelo://app?vid=fef057d8-6da4-40a4-a1f6-66bd5a6ed941"},"vehicle_type_id":"4","last_reported":1742598511,"current_range_meters":10000,"station_id":"ce4bh312rcd13ifvqdk0","pricing_plan_id":"cebpf4jnsgd1na2vs0mg"},{"bike_id":"33063778-d13b-488d-a098-00d76ac265e1","system_id":"levelo_inurba_marseille","lat":43.3107,"lon":5.38358,"is_reserved":false,"is_disabled":false,"rental_uris":{"android":"levelo://app?vid=33063778-d13b-488d-a098-00d76ac265e1","ios":"levelo://app?vid=33063778-d13b-488d-a098-00d76ac265e1"},"vehicle_type_id":"4","last_reported":1742598511,"current_range_meters":10800,"station_id":"ce4bgv92rcd13ifvqcr0","pricing_plan_id":"cebpf4jnsgd1na2vs0mg"},{"bike_id":"1be185f4-0713-4882-b27a-82f20bf5f7f2","system_id":"levelo_inurba_marseille","lat":43.26225,"lon":5.3749,"is_reserved":false,"is_disabled":false,"rental_uris":{"android":"levelo://app?vid=1be185f4-0713-4882-b27a-82f20bf5f7f2","ios":"levelo://app?vid=1be185f4-0713-4882-b27a-82f20bf5f7f2"},"vehicle_type_id":"4","last_reported":1742598511,"current_range_meters":10800,"station_id":"ce4bhgp2rcd13ifvqfc0","pricing_plan_id":"cebpf4jnsgd1na2vs0mg"},{"bike_id":"29c299a3-8deb-46e4-8cd6-c7a928ea34d7","system_id":"levelo_inurba_marseille","lat":43.26545,"lon":5.37301,"is_reserved":false,"is_disabled":false,"rental_uris":{"android":"levelo://app?vid=29c299a3-8deb-46e4-8cd6-c7a928ea34d7","ios":"levelo://app?vid=29c299a3-8deb-46e4-8cd6-c7a928ea34d7"},"vehicle_type_id":"4","last_reported":1742598511,"current_range_meters":10800,"station_id":"ce4bhg12rcd13ifvqf70","pricing_plan_id":"cebpf4jnsgd1na2vs0mg"},{"bike_id":"aad8559b-e137-4459-b1c9-e668b0a1b60c","system_id":"levelo_inurba_marseille","lat":43.30154,"lon":5.39876,"is_reserved":false,"is_disabled":false,"rental_uris":{"android":"levelo://app?vid=aad8559b-e137-4459-b1c9-e668b0a1b60c","ios":"levelo://app?vid=aad8559b-e137-4459-b1c9-e668b0a1b60c"},"vehicle_type_id":"4","last_reported":1742598511,"current_range_meters":10800,"station_id":"ce4bh0h2rcd13ifvqd40","pricing_plan_id":"cebpf4jnsgd1na2vs0mg"},{"bike_id":"225f7fc2-2214-417a-94d8-573a71efde8e","system_id":"levelo_inurba_marseille","lat":43.29419,"lon":5.38629,"is_reserved":false,"is_disabled":false,"rental_uris":{"android":"levelo://app?vid=225f7fc2-2214-417a-94d8-573a71efde8e","ios":"levelo://app?vid=225f7fc2-2214-417a-94d8-573a71efde8e"},"vehicle_type_id":"4","last_reported":1742598511,"current_range_meters":10800,"station_id":"ce4bh2h2rcd13ifvqdh0","pricing_plan_id":"cebpf4jnsgd1na2vs0mg"},{"bike_id":"4f7ac6cf-ebe1-498a-824b-1c0b60d0f428","system_id":"levelo_inurba_marseille","lat":43.23931,"lon":5.36651,"is_reserved":false,"is_disabled":false,"rental_uris":{"android":"levelo://app?vid=4f7ac6cf-ebe1-498a-824b-1c0b60d0f428","ios":"levelo://app?vid=4f7ac6cf-ebe1-498a-824b-1c0b60d0f428"},"vehicle_type_id":"4","last_reported":1742598511,"current_range_meters":10800,"station_id":"ce4bhi12rcd13ifvqfp0","pricing_plan_id":"cebpf4jnsgd1na2vs0mg"},{"bike_id":"295b2b96-8a22-4b6f-a45b-df5a7ed58969","system_id":"levelo_inurba_marseille","lat":43.33714,"lon":5.39218,"is_reserved":false,"is_disabled":false,"rental_uris":{"android":"levelo://app?vid=295b2b96-8a22-4b6f-a45b-df5a7ed58969","ios":"levelo://app?vid=295b2b96-8a22-4b6f-a45b-df5a7ed58969"},"vehicle_type_id":"4","last_reported":1742598511,"current_range_meters":11200,"station_id":"ce4bhr92rcd13ifvqhsg","pricing_plan_id":"cebpf4jnsgd1na2vs0mg"},{"bike_id":"c7690d8f-d650-495b-82f0-2abd9a4308b7","system_id":"levelo_inurba_marseille","lat":43.25581,"lon":5.3826,"is_reserved":false,"is_disabled":false,"rental_uris":{"android":"levelo://app?vid=c7690d8f-d650-495b-82f0-2abd9a4308b7","ios":"levelo://app?vid=c7690d8f-d650-495b-82f0-2abd9a4308b7"},"vehicle_type_id":"4","last_reported":1742598511,"current_range_meters":11200,"station_id":"ce4bhih2rcd13ifvqfs0","pricing_plan_id":"cebpf4jnsgd1na2vs0mg"},{"bike_id":"ec3dee1c-ea36-4bf4-ab72-4205cda86137","system_id":"levelo_inurba_marseille","lat":43.28347,"lon":5.38107,"is_reserved":false,"is_disabled":false,"rental_uris":{"android":"levelo://app?vid=ec3dee1c-ea36-4bf4-ab72-4205cda86137","ios":"levelo://app?vid=ec3dee1c-ea36-4bf4-ab72-4205cda86137"},"vehicle_type_id":"4","last_reported":1742598511,"current_range_meters":11200,"station_id":"ce4bh412rcd13ifvqdr0","pricing_plan_id":"cebpf4jnsgd1na2vs0mg"},{"bike_id":"87e2e2e8-8fdc-44a7-ae05-f3390d7856da","system_id":"levelo_inurba_marseille","lat":43.28864,"lon":5.39325,"is_reserved":false,"is_disabled":false,"rental_uris":{"android":"levelo://app?vid=87e2e2e8-8fdc-44a7-ae05-f3390d7856da","ios":"levelo://app?vid=87e2e2e8-8fdc-44a7-ae05-f3390d7856da"},"vehicle_type_id":"4","last_reported":1742598511,"current_range_meters":11200,"station_id":"ce4bh2p2rcd13ifvqdi0","pricing_plan_id":"cebpf4jnsgd1na2vs0mg"},{"bike_id":"65b642d2-4bbc-47bd-9c36-3f213e795fd7","system_id":"levelo_inurba_marseille","lat":43.274251,"lon":5.39427,"is_reserved":false,"is_disabled":false,"rental_uris":{"android":"levelo://app?vid=65b642d2-4bbc-47bd-9c36-3f213e795fd7","ios":"levelo://app?vid=65b642d2-4bbc-47bd-9c36-3f213e795fd7"},"vehicle_type_id":"4","last_reported":1742598511,"current_range_meters":11200,"station_id":"ce4bhdp2rcd13ifvqf20","pricing_plan_id":"cebpf4jnsgd1na2vs0mg"},{"bike_id":"9a156c6c-8148-4774-bb2f-244c5dfe4de3","system_id":"levelo_inurba_marseille","lat":43.28084,"lon":5.39661,"is_reserved":false,"is_disabled":false,"rental_uris":{"android":"levelo://app?vid=9a156c6c-8148-4774-bb2f-244c5dfe4de3","ios":"levelo://app?vid=9a156c6c-8148-4774-bb2f-244c5dfe4de3"},"vehicle_type_id":"4","last_reported":1742598511,"current_range_meters":11200,"station_id":"ce4bho12rcd13ifvqh2g","pricing_plan_id":"cebpf4jnsgd1na2vs0mg"},{"bike_id":"e1e493b8-6ddd-477f-a5c7-ce583728c84a","system_id":"levelo_inurba_marseille","lat":43.29019,"lon":5.38127,"is_reserved":false,"is_disabled":false,"rental_uris":{"android":"levelo://app?vid=e1e493b8-6ddd-477f-a5c7-ce583728c84a","ios":"levelo://app?vid=e1e493b8-6ddd-477f-a5c7-ce583728c84a"},"vehicle_type_id":"4","last_reported":1742598511,"current_range_meters":11600,"station_id":"ce4bh4p2rcd13ifvqe1g","pricing_plan_id":"cebpf4jnsgd1na2vs0mg"},{"bike_id":"b5a8c2ce-a2c3-457f-a6bb-9a42e8842101","system_id":"levelo_inurba_marseille","lat":43.30646,"lon":5.40079,"is_reserved":false,"is_disabled":false,"rental_uris":{"android":"levelo://app?vid=b5a8c2ce-a2c3-457f-a6bb-9a42e8842101","ios":"levelo://app?vid=b5a8c2ce-a2c3-457f-a6bb-9a42e8842101"},"vehicle_type_id":"4","last_reported":1742598511,"current_range_meters":11600,"station_id":"ce4bh112rcd13ifvqda0","pricing_plan_id":"cebpf4jnsgd1na2vs0mg"},{"bike_id":"b5fcb98a-c8d5-4f1a-a9b4-b3362af2a9c7","system_id":"levelo_inurba_marseille","lat":43.23054,"lon":5.35499,"is_reserved":false,"is_disabled":false,"rental_uris":{"android":"levelo://app?vid=b5fcb98a-c8d5-4f1a-a9b4-b3362af2a9c7","ios":"levelo://app?vid=b5fcb98a-c8d5-4f1a-a9b4-b3362af2a9c7"},"vehicle_type_id":"4","last_reported":1742598511,"current_range_meters":11600,"station_id":"cpo3342slgdg3j2ifvpg","pricing_plan_id":"cebpf4jnsgd1na2vs0mg"},{"bike_id":"3edb904b-ad5d-447e-ba08-4ac1801adea2","system_id":"levelo_inurba_marseille","lat":43.28074,"lon":5.39665,"is_reserved":false,"is_disabled":false,"rental_uris":{"android":"levelo://app?vid=3edb904b-ad5d-447e-ba08-4ac1801adea2","ios":"levelo://app?vid=3edb904b-ad5d-447e-ba08-4ac1801adea2"},"vehicle_type_id":"4","last_reported":1742598511,"current_range_meters":11600,"station_id":"ce4bho12rcd13ifvqh2g","pricing_plan_id":"cebpf4jnsgd1na2vs0mg"},{"bike_id":"ea50c471-353f-4ae0-9c50-a385b463fc43","system_id":"levelo_inurba_marseille","lat":43.30321,"lon":5.40454,"is_reserved":false,"is_disabled":false,"rental_uris":{"android":"levelo://app?vid=ea50c471-353f-4ae0-9c50-a385b463fc43","ios":"levelo://app?vid=ea50c471-353f-4ae0-9c50-a385b463fc43"},"vehicle_type_id":"4","last_reported":1742598511,"current_range_meters":12000,"station_id":"ce4bh012rcd13ifvqd10","pricing_plan_id":"cebpf4jnsgd1na2vs0mg"},{"bike_id":"9c454057-986c-47f9-8c78-99f7160238a7","system_id":"levelo_inurba_marseille","lat":43.24403,"lon":5.37047,"is_reserved":false,"is_disabled":false,"rental_uris":{"android":"levelo://app?vid=9c454057-986c-47f9-8c78-99f7160238a7","ios":"levelo://app?vid=9c454057-986c-47f9-8c78-99f7160238a7"},"vehicle_type_id":"4","last_reported":1742598511,"current_range_meters":12000,"station_id":"ce4bhhh2rcd13ifvqfk0","pricing_plan_id":"cebpf4jnsgd1na2vs0mg"},{"bike_id":"decbf3ad-ca83-4172-bd0f-5a27e0e19fde","system_id":"levelo_inurba_marseille","lat":43.28492,"lon":5.3841,"is_reserved":false,"is_disabled":false,"rental_uris":{"android":"levelo://app?vid=decbf3ad-ca83-4172-bd0f-5a27e0e19fde","ios":"levelo://app?vid=decbf3ad-ca83-4172-bd0f-5a27e0e19fde"},"vehicle_type_id":"4","last_reported":1742598511,"current_range_meters":12000,"station_id":"ce4bh512rcd13ifvqe3g","pricing_plan_id":"cebpf4jnsgd1na2vs0mg"},{"bike_id":"9e8170c9-b9be-464f-94ef-a9fff187f2a6","system_id":"levelo_inurba_marseille","lat":43.30264,"lon":5.40093,"is_reserved":false,"is_disabled":false,"rental_uris":{"android":"levelo://app?vid=9e8170c9-b9be-464f-94ef-a9fff187f2a6","ios":"levelo://app?vid=9e8170c9-b9be-464f-94ef-a9fff187f2a6"},"vehicle_type_id":"4","last_reported":1742598511,"current_range_meters":12000,"station_id":"ce4bgvh2rcd13ifvqcs0","pricing_plan_id":"cebpf4jnsgd1na2vs0mg"},{"bike_id":"239f894a-6ecc-4c62-979c-35c35092d638","system_id":"levelo_inurba_marseille","lat":43.29274,"lon":5.36849,"is_reserved":false,"is_disabled":false,"rental_uris":{"android":"levelo://app?vid=239f894a-6ecc-4c62-979c-35c35092d638","ios":"levelo://app?vid=239f894a-6ecc-4c62-979c-35c35092d638"},"vehicle_type_id":"4","last_reported":1742598511,"current_range_meters":12000,"station_id":"ce4bhbp2rcd13ifvqesg","pricing_plan_id":"cebpf4jnsgd1na2vs0mg"},{"bike_id":"38044645-ece5-4bcd-8d4d-db0d7b3b13cd","system_id":"levelo_inurba_marseille","lat":43.24547,"lon":5.39523,"is_reserved":false,"is_disabled":false,"rental_uris":{"android":"levelo://app?vid=38044645-ece5-4bcd-8d4d-db0d7b3b13cd","ios":"levelo://app?vid=38044645-ece5-4bcd-8d4d-db0d7b3b13cd"},"vehicle_type_id":"4","last_reported":1742598511,"current_range_meters":12000,"station_id":"ce4bhlp2rcd13ifvqgjg","pricing_plan_id":"cebpf4jnsgd1na2vs0mg"},{"bike_id":"fe239f3d-5c83-42bd-8b99-e0b3f3784fb5","system_id":"levelo_inurba_marseille","lat":43.24609,"lon":5.38395,"is_reserved":false,"is_disabled":false,"rental_uris":{"android":"levelo://app?vid=fe239f3d-5c83-42bd-8b99-e0b3f3784fb5","ios":"levelo://app?vid=fe239f3d-5c83-42bd-8b99-e0b3f3784fb5"},"vehicle_type_id":"4","last_reported":1742598511,"current_range_meters":12000,"station_id":"","pricing_plan_id":"cebpf4jnsgd1na2vs0mg"},{"bike_id":"8ff6a3b5-d1d9-417b-86f0-6d0ace3538d0","system_id":"levelo_inurba_marseille","lat":43.2582,"lon":5.39425,"is_reserved":false,"is_disabled":false,"rental_uris":{"android":"levelo://app?vid=8ff6a3b5-d1d9-417b-86f0-6d0ace3538d0","ios":"levelo://app?vid=8ff6a3b5-d1d9-417b-86f0-6d0ace3538d0"},"vehicle_type_id":"4","last_reported":1742598511,"current_range_meters":12400,"station_id":"ce4bhip2rcd13ifvqft0","pricing_plan_id":"cebpf4jnsgd1na2vs0mg"},{"bike_id":"3ddc33bd-e1d4-464e-94f5-7bf7dc1512b3","system_id":"levelo_inurba_marseille","lat":43.32278,"lon":5.38286,"is_reserved":false,"is_disabled":false,"rental_uris":{"android":"levelo://app?vid=3ddc33bd-e1d4-464e-94f5-7bf7dc1512b3","ios":"levelo://app?vid=3ddc33bd-e1d4-464e-94f5-7bf7dc1512b3"},"vehicle_type_id":"4","last_reported":1742598511,"current_range_meters":12400,"station_id":"ce4bhr12rcd13ifvqhqg","pricing_plan_id":"cebpf4jnsgd1na2vs0mg"},{"bike_id":"dd3ed86c-23d9-484f-b8ac-7e8f1056fa03","system_id":"levelo_inurba_marseille","lat":43.2655,"lon":5.39031,"is_reserved":false,"is_disabled":false,"rental_uris":{"android":"levelo://app?vid=dd3ed86c-23d9-484f-b8ac-7e8f1056fa03","ios":"levelo://app?vid=dd3ed86c-23d9-484f-b8ac-7e8f1056fa03"},"vehicle_type_id":"4","last_reported":1742598511,"current_range_meters":12400,"station_id":"ce4bhe12rcd13ifvqf30","pricing_plan_id":"cebpf4jnsgd1na2vs0mg"},{"bike_id":"36122bc8-3d81-471a-ae65-d15e3475afd5","system_id":"levelo_inurba_marseille","lat":43.2397,"lon":5.36615,"is_reserved":false,"is_disabled":false,"rental_uris":{"android":"levelo://app?vid=36122bc8-3d81-471a-ae65-d15e3475afd5","ios":"levelo://app?vid=36122bc8-3d81-471a-ae65-d15e3475afd5"},"vehicle_type_id":"4","last_reported":1742598511,"current_range_meters":12400,"station_id":"ce4bhi12rcd13ifvqfp0","pricing_plan_id":"cebpf4jnsgd1na2vs0mg"},{"bike_id":"f25de604-6fb9-4119-99b5-219a1f0fd928","system_id":"levelo_inurba_marseille","lat":43.29247,"lon":5.40136,"is_reserved":false,"is_disabled":false,"rental_uris":{"android":"levelo://app?vid=f25de604-6fb9-4119-99b5-219a1f0fd928","ios":"levelo://app?vid=f25de604-6fb9-4119-99b5-219a1f0fd928"},"vehicle_type_id":"4","last_reported":1742598511,"current_range_meters":12400,"station_id":"ce4bh312rcd13ifvqdk0","pricing_plan_id":"cebpf4jnsgd1na2vs0mg"},{"bike_id":"9c747ab1-84e4-463f-87ba-f786aa5852f4","system_id":"levelo_inurba_marseille","lat":43.27832,"lon":5.40725,"is_reserved":false,"is_disabled":false,"rental_uris":{"android":"levelo://app?vid=9c747ab1-84e4-463f-87ba-f786aa5852f4","ios":"levelo://app?vid=9c747ab1-84e4-463f-87ba-f786aa5852f4"},"vehicle_type_id":"4","last_reported":1742598511,"current_range_meters":12800,"station_id":"ce4bhnh2rcd13ifvqgtg","pricing_plan_id":"cebpf4jnsgd1na2vs0mg"},{"bike_id":"900e44dd-1317-4e6e-ac50-7e0c8fe7d455","system_id":"levelo_inurba_marseille","lat":43.23958,"lon":5.36634,"is_reserved":false,"is_disabled":false,"rental_uris":{"android":"levelo://app?vid=900e44dd-1317-4e6e-ac50-7e0c8fe7d455","ios":"levelo://app?vid=900e44dd-1317-4e6e-ac50-7e0c8fe7d455"},"vehicle_type_id":"4","last_reported":1742598511,"current_range_meters":13600,"station_id":"ce4bhi12rcd13ifvqfp0","pricing_plan_id":"cebpf4jnsgd1na2vs0mg"},{"bike_id":"2fadd73d-54a7-46e1-91a0-9f83c85751d9","system_id":"levelo_inurba_marseille","lat":43.31991,"lon":5.38161,"is_reserved":false,"is_disabled":false,"rental_uris":{"android":"levelo://app?vid=2fadd73d-54a7-46e1-91a0-9f83c85751d9","ios":"levelo://app?vid=2fadd73d-54a7-46e1-91a0-9f83c85751d9"},"vehicle_type_id":"4","last_reported":1742598511,"current_range_meters":13600,"station_id":"ce4bhr12rcd13ifvqhpg","pricing_plan_id":"cebpf4jnsgd1na2vs0mg"},{"bike_id":"63d76a70-84cc-4f86-8e01-9c8095308dfa","system_id":"levelo_inurba_marseille","lat":43.27949,"lon":5.41038,"is_reserved":false,"is_disabled":false,"rental_uris":{"android":"levelo://app?vid=63d76a70-84cc-4f86-8e01-9c8095308dfa","ios":"levelo://app?vid=63d76a70-84cc-4f86-8e01-9c8095308dfa"},"vehicle_type_id":"4","last_reported":1742598511,"current_range_meters":13600,"station_id":"ce4bhnp2rcd13ifvqh0g","pricing_plan_id":"cebpf4jnsgd1na2vs0mg"},{"bike_id":"d6aff1ed-229c-4ff0-b6d9-674bc21c7e9b","system_id":"levelo_inurba_marseille","lat":43.30868,"lon":5.39657,"is_reserved":false,"is_disabled":false,"rental_uris":{"android":"levelo://app?vid=d6aff1ed-229c-4ff0-b6d9-674bc21c7e9b","ios":"levelo://app?vid=d6aff1ed-229c-4ff0-b6d9-674bc21c7e9b"},"vehicle_type_id":"4","last_reported":1742598511,"current_range_meters":13600,"station_id":"ce4bh012rcd13ifvqcv0","pricing_plan_id":"cebpf4jnsgd1na2vs0mg"},{"bike_id":"9683555e-fe04-4de7-b706-7a9b0019a6a7","system_id":"levelo_inurba_marseille","lat":43.33753,"lon":5.37495,"is_reserved":false,"is_disabled":true,"rental_uris":{"android":"levelo://app?vid=9683555e-fe04-4de7-b706-7a9b0019a6a7","ios":"levelo://app?vid=9683555e-fe04-4de7-b706-7a9b0019a6a7"},"vehicle_type_id":"4","last_reported":1742598511,"current_range_meters":13600,"station_id":"ce4bh2h2rcd13ifvqdh0","pricing_plan_id":"cebpf4jnsgd1na2vs0mg"},{"bike_id":"0b49bdf5-e1e6-4881-ad0b-23dfc5b30bed","system_id":"levelo_inurba_marseille","lat":43.3079,"lon":5.37655,"is_reserved":false,"is_disabled":false,"rental_uris":{"android":"levelo://app?vid=0b49bdf5-e1e6-4881-ad0b-23dfc5b30bed","ios":"levelo://app?vid=0b49bdf5-e1e6-4881-ad0b-23dfc5b30bed"},"vehicle_type_id":"4","last_reported":1742598511,"current_range_meters":13600,"station_id":"ce4bgv92rcd13ifvqcq0","pricing_plan_id":"cebpf4jnsgd1na2vs0mg"},{"bike_id":"1df2e6f6-63d4-4f34-92e1-d1b0e12ddb5a","system_id":"levelo_inurba_marseille","lat":43.23185,"lon":5.40002,"is_reserved":false,"is_disabled":false,"rental_uris":{"android":"levelo://app?vid=1df2e6f6-63d4-4f34-92e1-d1b0e12ddb5a","ios":"levelo://app?vid=1df2e6f6-63d4-4f34-92e1-d1b0e12ddb5a"},"vehicle_type_id":"4","last_reported":1742598511,"current_range_meters":13600,"station_id":"ce4bhn12rcd13ifvqgqg","pricing_plan_id":"cebpf4jnsgd1na2vs0mg"},{"bike_id":"6f3844ff-2aa2-4473-952c-bd329dc94e95","system_id":"levelo_inurba_marseille","lat":43.25824,"lon":5.39427,"is_reserved":false,"is_disabled":false,"rental_uris":{"android":"levelo://app?vid=6f3844ff-2aa2-4473-952c-bd329dc94e95","ios":"levelo://app?vid=6f3844ff-2aa2-4473-952c-bd329dc94e95"},"vehicle_type_id":"4","last_reported":1742598511,"current_range_meters":13600,"station_id":"ce4bhip2rcd13ifvqft0","pricing_plan_id":"cebpf4jnsgd1na2vs0mg"},{"bike_id":"fb45ad3c-928a-4b4f-8727-c717b800f1e2","system_id":"levelo_inurba_marseille","lat":43.296,"lon":5.38098,"is_reserved":false,"is_disabled":false,"rental_uris":{"android":"levelo://app?vid=fb45ad3c-928a-4b4f-8727-c717b800f1e2","ios":"levelo://app?vid=fb45ad3c-928a-4b4f-8727-c717b800f1e2"},"vehicle_type_id":"4","last_reported":1742598511,"current_range_meters":13600,"station_id":"ce4bgl12rcd13ifvqbo0","pricing_plan_id":"cebpf4jnsgd1na2vs0mg"},{"bike_id":"7e37fd6b-b522-43f1-b4a6-49cda280add3","system_id":"levelo_inurba_marseille","lat":43.26197,"lon":5.37448,"is_reserved":false,"is_disabled":false,"rental_uris":{"android":"levelo://app?vid=7e37fd6b-b522-43f1-b4a6-49cda280add3","ios":"levelo://app?vid=7e37fd6b-b522-43f1-b4a6-49cda280add3"},"vehicle_type_id":"4","last_reported":1742598511,"current_range_meters":14000,"station_id":"ce4bhgp2rcd13ifvqfc0","pricing_plan_id":"cebpf4jnsgd1na2vs0mg"},{"bike_id":"b8947409-508b-461c-b433-a1d5d02b6078","system_id":"levelo_inurba_marseille","lat":43.26555,"lon":5.37283,"is_reserved":false,"is_disabled":false,"rental_uris":{"android":"levelo://app?vid=b8947409-508b-461c-b433-a1d5d02b6078","ios":"levelo://app?vid=b8947409-508b-461c-b433-a1d5d02b6078"},"vehicle_type_id":"4","last_reported":1742598511,"current_range_meters":14000,"station_id":"ce4bhg12rcd13ifvqf70","pricing_plan_id":"cebpf4jnsgd1na2vs0mg"},{"bike_id":"d79db4cc-2bba-4328-b091-19d341f6be82","system_id":"levelo_inurba_marseille","lat":43.295238,"lon":5.390683,"is_reserved":false,"is_disabled":false,"rental_uris":{"android":"levelo://app?vid=d79db4cc-2bba-4328-b091-19d341f6be82","ios":"levelo://app?vid=d79db4cc-2bba-4328-b091-19d341f6be82"},"vehicle_type_id":"4","last_reported":1742598511,"current_range_meters":14400,"station_id":"ce4bgkp2rcd13ifvqbmg","pricing_plan_id":"cebpf4jnsgd1na2vs0mg"},{"bike_id":"47476f7a-6089-40f4-82cd-55d2acb8987b","system_id":"levelo_inurba_marseille","lat":43.23933,"lon":5.3668,"is_reserved":false,"is_disabled":false,"rental_uris":{"android":"levelo://app?vid=47476f7a-6089-40f4-82cd-55d2acb8987b","ios":"levelo://app?vid=47476f7a-6089-40f4-82cd-55d2acb8987b"},"vehicle_type_id":"4","last_reported":1742598511,"current_range_meters":14400,"station_id":"ce4bhi12rcd13ifvqfp0","pricing_plan_id":"cebpf4jnsgd1na2vs0mg"},{"bike_id":"d1dcf511-d8e9-43ef-bc85-50de65aae4a3","system_id":"levelo_inurba_marseille","lat":43.28885,"lon":5.38756,"is_reserved":false,"is_disabled":false,"rental_uris":{"android":"levelo://app?vid=d1dcf511-d8e9-43ef-bc85-50de65aae4a3","ios":"levelo://app?vid=d1dcf511-d8e9-43ef-bc85-50de65aae4a3"},"vehicle_type_id":"4","last_reported":1742598511,"current_range_meters":14400,"station_id":"","pricing_plan_id":"cebpf4jnsgd1na2vs0mg"},{"bike_id":"0d2fec07-fc53-4027-8181-070d222091f8","system_id":"levelo_inurba_marseille","lat":43.26233,"lon":5.40454,"is_reserved":false,"is_disabled":false,"rental_uris":{"android":"levelo://app?vid=0d2fec07-fc53-4027-8181-070d222091f8","ios":"levelo://app?vid=0d2fec07-fc53-4027-8181-070d222091f8"},"vehicle_type_id":"4","last_reported":1742598511,"current_range_meters":14800,"station_id":"ce4bhmh2rcd13ifvqgmg","pricing_plan_id":"cebpf4jnsgd1na2vs0mg"},{"bike_id":"39600bef-b386-43d2-a32c-75296b1ad27d","system_id":"levelo_inurba_marseille","lat":43.28136,"lon":5.39581,"is_reserved":false,"is_disabled":false,"rental_uris":{"android":"levelo://app?vid=39600bef-b386-43d2-a32c-75296b1ad27d","ios":"levelo://app?vid=39600bef-b386-43d2-a32c-75296b1ad27d"},"vehicle_type_id":"4","last_reported":1742598511,"current_range_meters":14800,"station_id":"","pricing_plan_id":"cebpf4jnsgd1na2vs0mg"},{"bike_id":"4e42d86f-2ffc-4705-a552-f7323dc3c68f","system_id":"levelo_inurba_marseille","lat":43.30218,"lon":5.39468,"is_reserved":false,"is_disabled":false,"rental_uris":{"android":"levelo://app?vid=4e42d86f-2ffc-4705-a552-f7323dc3c68f","ios":"levelo://app?vid=4e42d86f-2ffc-4705-a552-f7323dc3c68f"},"vehicle_type_id":"4","last_reported":1742598511,"current_range_meters":14400,"station_id":"ce4bh0p2rcd13ifvqd70","pricing_plan_id":"cebpf4jnsgd1na2vs0mg"},{"bike_id":"72503a27-a949-4a46-b139-c44d4f416a58","system_id":"levelo_inurba_marseille","lat":43.23191,"lon":5.3556,"is_reserved":false,"is_disabled":false,"rental_uris":{"android":"levelo://app?vid=72503a27-a949-4a46-b139-c44d4f416a58","ios":"levelo://app?vid=72503a27-a949-4a46-b139-c44d4f416a58"},"vehicle_type_id":"4","last_reported":1742598511,"current_range_meters":14800,"station_id":"ce4bhu92rcd13ifvqi70","pricing_plan_id":"cebpf4jnsgd1na2vs0mg"},{"bike_id":"2cddf66a-89ee-44b8-9d7f-4449aab862eb","system_id":"levelo_inurba_marseille","lat":43.30794,"lon":5.38153,"is_reserved":false,"is_disabled":false,"rental_uris":{"android":"levelo://app?vid=2cddf66a-89ee-44b8-9d7f-4449aab862eb","ios":"levelo://app?vid=2cddf66a-89ee-44b8-9d7f-4449aab862eb"},"vehicle_type_id":"4","last_reported":1742598511,"current_range_meters":14800,"station_id":"ce4bgt12rcd13ifvqce0","pricing_plan_id":"cebpf4jnsgd1na2vs0mg"},{"bike_id":"fbb498fe-0420-4fc0-a001-6f20ac1d59dd","system_id":"levelo_inurba_marseille","lat":43.33623,"lon":5.41009,"is_reserved":false,"is_disabled":true,"rental_uris":{"android":"levelo://app?vid=fbb498fe-0420-4fc0-a001-6f20ac1d59dd","ios":"levelo://app?vid=fbb498fe-0420-4fc0-a001-6f20ac1d59dd"},"vehicle_type_id":"4","last_reported":1742598511,"current_range_meters":15200,"station_id":"ce4bhqh2rcd13ifvqhmg","pricing_plan_id":"cebpf4jnsgd1na2vs0mg"},{"bike_id":"fabef5ba-78bd-444f-8775-d6c21179e6f7","system_id":"levelo_inurba_marseille","lat":43.29419,"lon":5.38604,"is_reserved":false,"is_disabled":true,"rental_uris":{"android":"levelo://app?vid=fabef5ba-78bd-444f-8775-d6c21179e6f7","ios":"levelo://app?vid=fabef5ba-78bd-444f-8775-d6c21179e6f7"},"vehicle_type_id":"4","last_reported":1742598511,"current_range_meters":15200,"station_id":"ce4bh2h2rcd13ifvqdh0","pricing_plan_id":"cebpf4jnsgd1na2vs0mg"},{"bike_id":"f39eebaf-f4e1-4cce-8237-2c3fcbf1a21f","system_id":"levelo_inurba_marseille","lat":43.29031,"lon":5.35912,"is_reserved":false,"is_disabled":false,"rental_uris":{"android":"levelo://app?vid=f39eebaf-f4e1-4cce-8237-2c3fcbf1a21f","ios":"levelo://app?vid=f39eebaf-f4e1-4cce-8237-2c3fcbf1a21f"},"vehicle_type_id":"4","last_reported":1742598511,"current_range_meters":15200,"station_id":"ce4bha92rcd13ifvqeg0","pricing_plan_id":"cebpf4jnsgd1na2vs0mg"},{"bike_id":"e25963ed-e672-4a92-a417-d585a3bc1692","system_id":"levelo_inurba_marseille","lat":43.27863,"lon":5.39763,"is_reserved":false,"is_disabled":true,"rental_uris":{"android":"levelo://app?vid=e25963ed-e672-4a92-a417-d585a3bc1692","ios":"levelo://app?vid=e25963ed-e672-4a92-a417-d585a3bc1692"},"vehicle_type_id":"4","last_reported":1742598511,"current_range_meters":15200,"station_id":"","pricing_plan_id":"cebpf4jnsgd1na2vs0mg"},{"bike_id":"5b11d453-6f94-47a5-bb26-1ad375790f66","system_id":"levelo_inurba_marseille","lat":43.30322,"lon":5.40442,"is_reserved":false,"is_disabled":false,"rental_uris":{"android":"levelo://app?vid=5b11d453-6f94-47a5-bb26-1ad375790f66","ios":"levelo://app?vid=5b11d453-6f94-47a5-bb26-1ad375790f66"},"vehicle_type_id":"4","last_reported":1742598511,"current_range_meters":15200,"station_id":"ce4bh012rcd13ifvqd10","pricing_plan_id":"cebpf4jnsgd1na2vs0mg"},{"bike_id":"3f3f99da-6673-441e-a5b3-6857219a400e","system_id":"levelo_inurba_marseille","lat":43.24984,"lon":5.38938,"is_reserved":false,"is_disabled":false,"rental_uris":{"android":"levelo://app?vid=3f3f99da-6673-441e-a5b3-6857219a400e","ios":"levelo://app?vid=3f3f99da-6673-441e-a5b3-6857219a400e"},"vehicle_type_id":"4","last_reported":1742598511,"current_range_meters":15200,"station_id":"ce4bhgp2rcd13ifvqfd0","pricing_plan_id":"cebpf4jnsgd1na2vs0mg"},{"bike_id":"9e5fb07a-40f5-48a7-8576-b3add1049650","system_id":"levelo_inurba_marseille","lat":43.27625,"lon":5.36138,"is_reserved":false,"is_disabled":false,"rental_uris":{"android":"levelo://app?vid=9e5fb07a-40f5-48a7-8576-b3add1049650","ios":"levelo://app?vid=9e5fb07a-40f5-48a7-8576-b3add1049650"},"vehicle_type_id":"4","last_reported":1742598511,"current_range_meters":16000,"station_id":"ce4bgj92rcd13ifvqbe0","pricing_plan_id":"cebpf4jnsgd1na2vs0mg"},{"bike_id":"7038600d-2ea3-458a-a378-9b8b0acc1942","system_id":"levelo_inurba_marseille","lat":43.29588,"lon":5.38098,"is_reserved":false,"is_disabled":false,"rental_uris":{"android":"levelo://app?vid=7038600d-2ea3-458a-a378-9b8b0acc1942","ios":"levelo://app?vid=7038600d-2ea3-458a-a378-9b8b0acc1942"},"vehicle_type_id":"4","last_reported":1742598511,"current_range_meters":16000,"station_id":"ce4bgl12rcd13ifvqbo0","pricing_plan_id":"cebpf4jnsgd1na2vs0mg"},{"bike_id":"7d9bf2d2-5153-499c-a1fb-dcb365a9e566","system_id":"levelo_inurba_marseille","lat":43.24138,"lon":5.39732,"is_reserved":false,"is_disabled":false,"rental_uris":{"android":"levelo://app?vid=7d9bf2d2-5153-499c-a1fb-dcb365a9e566","ios":"levelo://app?vid=7d9bf2d2-5153-499c-a1fb-dcb365a9e566"},"vehicle_type_id":"4","last_reported":1742598511,"current_range_meters":16000,"station_id":"ce4bhn12rcd13ifvqgpg","pricing_plan_id":"cebpf4jnsgd1na2vs0mg"},{"bike_id":"19a95dcf-9766-41d3-9e72-94705e323dad","system_id":"levelo_inurba_marseille","lat":43.24388,"lon":5.37065,"is_reserved":false,"is_disabled":false,"rental_uris":{"android":"levelo://app?vid=19a95dcf-9766-41d3-9e72-94705e323dad","ios":"levelo://app?vid=19a95dcf-9766-41d3-9e72-94705e323dad"},"vehicle_type_id":"4","last_reported":1742598511,"current_range_meters":16000,"station_id":"ce4bhhh2rcd13ifvqfk0","pricing_plan_id":"cebpf4jnsgd1na2vs0mg"},{"bike_id":"d16d5ae2-a108-44f8-a226-14fecf4f3137","system_id":"levelo_inurba_marseille","lat":43.28004,"lon":5.40015,"is_reserved":false,"is_disabled":false,"rental_uris":{"android":"levelo://app?vid=d16d5ae2-a108-44f8-a226-14fecf4f3137","ios":"levelo://app?vid=d16d5ae2-a108-44f8-a226-14fecf4f3137"},"vehicle_type_id":"4","last_reported":1742598511,"current_range_meters":16000,"station_id":"ce4bho92rcd13ifvqh4g","pricing_plan_id":"cebpf4jnsgd1na2vs0mg"},{"bike_id":"d3ebde68-98d7-4a24-a835-e6ce3b34fc4b","system_id":"levelo_inurba_marseille","lat":43.26563,"lon":5.37298,"is_reserved":false,"is_disabled":false,"rental_uris":{"android":"levelo://app?vid=d3ebde68-98d7-4a24-a835-e6ce3b34fc4b","ios":"levelo://app?vid=d3ebde68-98d7-4a24-a835-e6ce3b34fc4b"},"vehicle_type_id":"4","last_reported":1742598511,"current_range_meters":16000,"station_id":"ce4bhg12rcd13ifvqf70","pricing_plan_id":"cebpf4jnsgd1na2vs0mg"},{"bike_id":"397c7653-1eb4-4b19-997f-7f55b7764988","system_id":"levelo_inurba_marseille","lat":43.28459,"lon":5.35888,"is_reserved":false,"is_disabled":false,"rental_uris":{"android":"levelo://app?vid=397c7653-1eb4-4b19-997f-7f55b7764988","ios":"levelo://app?vid=397c7653-1eb4-4b19-997f-7f55b7764988"},"vehicle_type_id":"4","last_reported":1742598511,"current_range_meters":16400,"station_id":"ce4bhah2rcd13ifvqei0","pricing_plan_id":"cebpf4jnsgd1na2vs0mg"},{"bike_id":"280a7095-4eb2-43f9-a0c4-f90b539d0a09","system_id":"levelo_inurba_marseille","lat":43.30934,"lon":5.40161,"is_reserved":false,"is_disabled":false,"rental_uris":{"android":"levelo://app?vid=280a7095-4eb2-43f9-a0c4-f90b539d0a09","ios":"levelo://app?vid=280a7095-4eb2-43f9-a0c4-f90b539d0a09"},"vehicle_type_id":"4","last_reported":1742598511,"current_range_meters":16400,"station_id":"ce4bgvp2rcd13ifvqct0","pricing_plan_id":"cebpf4jnsgd1na2vs0mg"},{"bike_id":"d8263719-6df5-4b52-82d4-59ee0eda1ce0","system_id":"levelo_inurba_marseille","lat":43.25125,"lon":5.40318,"is_reserved":false,"is_disabled":false,"rental_uris":{"android":"levelo://app?vid=d8263719-6df5-4b52-82d4-59ee0eda1ce0","ios":"levelo://app?vid=d8263719-6df5-4b52-82d4-59ee0eda1ce0"},"vehicle_type_id":"4","last_reported":1742598511,"current_range_meters":16400,"station_id":"ce4bhlh2rcd13ifvqgig","pricing_plan_id":"cebpf4jnsgd1na2vs0mg"},{"bike_id":"a1abd43d-b831-4aef-806b-2c87564102d5","system_id":"levelo_inurba_marseille","lat":43.30892,"lon":5.37187,"is_reserved":false,"is_disabled":false,"rental_uris":{"android":"levelo://app?vid=a1abd43d-b831-4aef-806b-2c87564102d5","ios":"levelo://app?vid=a1abd43d-b831-4aef-806b-2c87564102d5"},"vehicle_type_id":"4","last_reported":1742598511,"current_range_meters":16400,"station_id":"ce4bguh2rcd13ifvqckg","pricing_plan_id":"cebpf4jnsgd1na2vs0mg"},{"bike_id":"ff0b86f7-1349-4aed-8f97-17f96801d957","system_id":"levelo_inurba_marseille","lat":43.28432,"lon":5.39183,"is_reserved":false,"is_disabled":false,"rental_uris":{"android":"levelo://app?vid=ff0b86f7-1349-4aed-8f97-17f96801d957","ios":"levelo://app?vid=ff0b86f7-1349-4aed-8f97-17f96801d957"},"vehicle_type_id":"4","last_reported":1742598511,"current_range_meters":16400,"station_id":"ce4bhoh2rcd13ifvqh5g","pricing_plan_id":"cebpf4jnsgd1na2vs0mg"},{"bike_id":"1398bab9-310a-4d9f-b774-3cec44efaec1","system_id":"levelo_inurba_marseille","lat":43.2762,"lon":5.36096,"is_reserved":false,"is_disabled":false,"rental_uris":{"android":"levelo://app?vid=1398bab9-310a-4d9f-b774-3cec44efaec1","ios":"levelo://app?vid=1398bab9-310a-4d9f-b774-3cec44efaec1"},"vehicle_type_id":"4","last_reported":1742598511,"current_range_meters":16400,"station_id":"ce4bgj92rcd13ifvqbe0","pricing_plan_id":"cebpf4jnsgd1na2vs0mg"},{"bike_id":"2032e81a-8d24-4036-9cc6-bf67698b8322","system_id":"levelo_inurba_marseille","lat":43.2418,"lon":5.39738,"is_reserved":false,"is_disabled":false,"rental_uris":{"android":"levelo://app?vid=2032e81a-8d24-4036-9cc6-bf67698b8322","ios":"levelo://app?vid=2032e81a-8d24-4036-9cc6-bf67698b8322"},"vehicle_type_id":"4","last_reported":1742598511,"current_range_meters":16400,"station_id":"ce4bhn12rcd13ifvqgpg","pricing_plan_id":"cebpf4jnsgd1na2vs0mg"},{"bike_id":"362c0793-680f-43b7-a1aa-d84cd3219497","system_id":"levelo_inurba_marseille","lat":43.31067,"lon":5.38354,"is_reserved":false,"is_disabled":false,"rental_uris":{"android":"levelo://app?vid=362c0793-680f-43b7-a1aa-d84cd3219497","ios":"levelo://app?vid=362c0793-680f-43b7-a1aa-d84cd3219497"},"vehicle_type_id":"4","last_reported":1742598511,"current_range_meters":16400,"station_id":"ce4bgv92rcd13ifvqcr0","pricing_plan_id":"cebpf4jnsgd1na2vs0mg"},{"bike_id":"b6069b84-a07b-445d-a58c-8caad1641412","system_id":"levelo_inurba_marseille","lat":43.29317,"lon":5.371574,"is_reserved":false,"is_disabled":false,"rental_uris":{"android":"levelo://app?vid=b6069b84-a07b-445d-a58c-8caad1641412","ios":"levelo://app?vid=b6069b84-a07b-445d-a58c-8caad1641412"},"vehicle_type_id":"4","last_reported":1742598511,"current_range_meters":16400,"station_id":"ce4bgh92rcd13ifvqb40","pricing_plan_id":"cebpf4jnsgd1na2vs0mg"},{"bike_id":"eed41007-570d-4d7f-871a-7ed78fc319fd","system_id":"levelo_inurba_marseille","lat":43.29923,"lon":5.36517,"is_reserved":false,"is_disabled":false,"rental_uris":{"android":"levelo://app?vid=eed41007-570d-4d7f-871a-7ed78fc319fd","ios":"levelo://app?vid=eed41007-570d-4d7f-871a-7ed78fc319fd"},"vehicle_type_id":"4","last_reported":1742598511,"current_range_meters":16400,"station_id":"ce4bgm92rcd13ifvqbr0","pricing_plan_id":"cebpf4jnsgd1na2vs0mg"},{"bike_id":"302da745-dc3e-489e-b2c8-445dcb3c38b1","system_id":"levelo_inurba_marseille","lat":43.23056,"lon":5.3553,"is_reserved":false,"is_disabled":false,"rental_uris":{"android":"levelo://app?vid=302da745-dc3e-489e-b2c8-445dcb3c38b1","ios":"levelo://app?vid=302da745-dc3e-489e-b2c8-445dcb3c38b1"},"vehicle_type_id":"4","last_reported":1742598511,"current_range_meters":16400,"station_id":"cpo3342slgdg3j2ifvpg","pricing_plan_id":"cebpf4jnsgd1na2vs0mg"},{"bike_id":"1567a991-2479-4913-ab67-45dd75e569de","system_id":"levelo_inurba_marseille","lat":43.287,"lon":5.39989,"is_reserved":false,"is_disabled":false,"rental_uris":{"android":"levelo://app?vid=1567a991-2479-4913-ab67-45dd75e569de","ios":"levelo://app?vid=1567a991-2479-4913-ab67-45dd75e569de"},"vehicle_type_id":"4","last_reported":1742598511,"current_range_meters":16400,"station_id":"ce4bho92rcd13ifvqh3g","pricing_plan_id":"cebpf4jnsgd1na2vs0mg"},{"bike_id":"d742c3ff-c1c9-4e36-b458-939313d82a16","system_id":"levelo_inurba_marseille","lat":43.31172,"lon":5.38697,"is_reserved":false,"is_disabled":false,"rental_uris":{"android":"levelo://app?vid=d742c3ff-c1c9-4e36-b458-939313d82a16","ios":"levelo://app?vid=d742c3ff-c1c9-4e36-b458-939313d82a16"},"vehicle_type_id":"4","last_reported":1742598511,"current_range_meters":16800,"station_id":"ce4bgv12rcd13ifvqcp0","pricing_plan_id":"cebpf4jnsgd1na2vs0mg"},{"bike_id":"710794c3-7760-4fb0-b398-479b9e831ec3","system_id":"levelo_inurba_marseille","lat":43.3136,"lon":5.38492,"is_reserved":false,"is_disabled":false,"rental_uris":{"android":"levelo://app?vid=710794c3-7760-4fb0-b398-479b9e831ec3","ios":"levelo://app?vid=710794c3-7760-4fb0-b398-479b9e831ec3"},"vehicle_type_id":"4","last_reported":1742598511,"current_range_meters":16400,"station_id":"ce4bgt92rcd13ifvqcf0","pricing_plan_id":"cebpf4jnsgd1na2vs0mg"},{"bike_id":"cfce02fe-376e-4215-ac6c-87189e03c557","system_id":"levelo_inurba_marseille","lat":43.29583,"lon":5.38652,"is_reserved":false,"is_disabled":false,"rental_uris":{"android":"levelo://app?vid=cfce02fe-376e-4215-ac6c-87189e03c557","ios":"levelo://app?vid=cfce02fe-376e-4215-ac6c-87189e03c557"},"vehicle_type_id":"4","last_reported":1742598511,"current_range_meters":16800,"station_id":"","pricing_plan_id":"cebpf4jnsgd1na2vs0mg"},{"bike_id":"a05f25a6-0849-4746-8019-80eedce41aee","system_id":"levelo_inurba_marseille","lat":43.29529,"lon":5.38531,"is_reserved":false,"is_disabled":false,"rental_uris":{"android":"levelo://app?vid=a05f25a6-0849-4746-8019-80eedce41aee","ios":"levelo://app?vid=a05f25a6-0849-4746-8019-80eedce41aee"},"vehicle_type_id":"4","last_reported":1742598511,"current_range_meters":16800,"station_id":"ce4bgih2rcd13ifvqba0","pricing_plan_id":"cebpf4jnsgd1na2vs0mg"},{"bike_id":"041746e8-f612-4f02-ba2c-e784ef31f6c4","system_id":"levelo_inurba_marseille","lat":43.23154,"lon":5.437,"is_reserved":false,"is_disabled":false,"rental_uris":{"android":"levelo://app?vid=041746e8-f612-4f02-ba2c-e784ef31f6c4","ios":"levelo://app?vid=041746e8-f612-4f02-ba2c-e784ef31f6c4"},"vehicle_type_id":"4","last_reported":1742598511,"current_range_meters":16800,"station_id":"ce4bhmp2rcd13ifvqgog","pricing_plan_id":"cebpf4jnsgd1na2vs0mg"},{"bike_id":"4729b83d-5620-4a5f-a0dd-6ed0584e1d3b","system_id":"levelo_inurba_marseille","lat":43.28244,"lon":5.35127,"is_reserved":false,"is_disabled":false,"rental_uris":{"android":"levelo://app?vid=4729b83d-5620-4a5f-a0dd-6ed0584e1d3b","ios":"levelo://app?vid=4729b83d-5620-4a5f-a0dd-6ed0584e1d3b"},"vehicle_type_id":"4","last_reported":1742598511,"current_range_meters":16400,"station_id":"ce4bhbp2rcd13ifvqerg","pricing_plan_id":"cebpf4jnsgd1na2vs0mg"},{"bike_id":"4fcd5aa8-47a6-47e0-acf8-4669a5d049c7","system_id":"levelo_inurba_marseille","lat":43.32352,"lon":5.3889,"is_reserved":false,"is_disabled":false,"rental_uris":{"android":"levelo://app?vid=4fcd5aa8-47a6-47e0-acf8-4669a5d049c7","ios":"levelo://app?vid=4fcd5aa8-47a6-47e0-acf8-4669a5d049c7"},"vehicle_type_id":"4","last_reported":1742598511,"current_range_meters":16800,"station_id":"ce4bhqp2rcd13ifvqhog","pricing_plan_id":"cebpf4jnsgd1na2vs0mg"},{"bike_id":"0107fb56-bdbb-44ce-b451-bb48458bd3dd","system_id":"levelo_inurba_marseille","lat":43.26073,"lon":5.39401,"is_reserved":false,"is_disabled":false,"rental_uris":{"android":"levelo://app?vid=0107fb56-bdbb-44ce-b451-bb48458bd3dd","ios":"levelo://app?vid=0107fb56-bdbb-44ce-b451-bb48458bd3dd"},"vehicle_type_id":"4","last_reported":1742598511,"current_range_meters":16800,"station_id":"ce4bhh92rcd13ifvqfj0","pricing_plan_id":"cebpf4jnsgd1na2vs0mg"},{"bike_id":"d9d90e28-0cde-498e-9e49-e2278f18bc23","system_id":"levelo_inurba_marseille","lat":43.32359,"lon":5.389,"is_reserved":false,"is_disabled":false,"rental_uris":{"android":"levelo://app?vid=d9d90e28-0cde-498e-9e49-e2278f18bc23","ios":"levelo://app?vid=d9d90e28-0cde-498e-9e49-e2278f18bc23"},"vehicle_type_id":"4","last_reported":1742598511,"current_range_meters":16800,"station_id":"ce4bhqp2rcd13ifvqhog","pricing_plan_id":"cebpf4jnsgd1na2vs0mg"},{"bike_id":"2f16e8d7-fc3c-4120-bdca-a510e8a8895c","system_id":"levelo_inurba_marseille","lat":43.28716,"lon":5.39974,"is_reserved":false,"is_disabled":false,"rental_uris":{"android":"levelo://app?vid=2f16e8d7-fc3c-4120-bdca-a510e8a8895c","ios":"levelo://app?vid=2f16e8d7-fc3c-4120-bdca-a510e8a8895c"},"vehicle_type_id":"4","last_reported":1742598511,"current_range_meters":17200,"station_id":"ce4bho92rcd13ifvqh3g","pricing_plan_id":"cebpf4jnsgd1na2vs0mg"},{"bike_id":"acd9ce7b-e08a-4222-a322-17f186f8fa7c","system_id":"levelo_inurba_marseille","lat":43.30408,"lon":5.41299,"is_reserved":false,"is_disabled":false,"rental_uris":{"android":"levelo://app?vid=acd9ce7b-e08a-4222-a322-17f186f8fa7c","ios":"levelo://app?vid=acd9ce7b-e08a-4222-a322-17f186f8fa7c"},"vehicle_type_id":"4","last_reported":1742598511,"current_range_meters":17200,"station_id":"ce4bhop2rcd13ifvqh8g","pricing_plan_id":"cebpf4jnsgd1na2vs0mg"},{"bike_id":"8682048b-22d3-4d81-b8c1-fb4c78459528","system_id":"levelo_inurba_marseille","lat":43.32651,"lon":5.40988,"is_reserved":false,"is_disabled":false,"rental_uris":{"android":"levelo://app?vid=8682048b-22d3-4d81-b8c1-fb4c78459528","ios":"levelo://app?vid=8682048b-22d3-4d81-b8c1-fb4c78459528"},"vehicle_type_id":"4","last_reported":1742598511,"current_range_meters":17200,"station_id":"ce4bhpp2rcd13ifvqhgg","pricing_plan_id":"cebpf4jnsgd1na2vs0mg"},{"bike_id":"cbe1a37e-902b-48bb-8f22-5ec73f1be150","system_id":"levelo_inurba_marseille","lat":43.27827,"lon":5.40721,"is_reserved":false,"is_disabled":false,"rental_uris":{"android":"levelo://app?vid=cbe1a37e-902b-48bb-8f22-5ec73f1be150","ios":"levelo://app?vid=cbe1a37e-902b-48bb-8f22-5ec73f1be150"},"vehicle_type_id":"4","last_reported":1742598511,"current_range_meters":16800,"station_id":"ce4bhnh2rcd13ifvqgtg","pricing_plan_id":"cebpf4jnsgd1na2vs0mg"},{"bike_id":"3b7554be-f892-4f24-bedc-1fcf15a063f3","system_id":"levelo_inurba_marseille","lat":43.23204,"lon":5.35545,"is_reserved":false,"is_disabled":false,"rental_uris":{"android":"levelo://app?vid=3b7554be-f892-4f24-bedc-1fcf15a063f3","ios":"levelo://app?vid=3b7554be-f892-4f24-bedc-1fcf15a063f3"},"vehicle_type_id":"4","last_reported":1742598511,"current_range_meters":17200,"station_id":"ce4bhu92rcd13ifvqi70","pricing_plan_id":"cebpf4jnsgd1na2vs0mg"},{"bike_id":"e7e1c9c8-f9b1-4f29-aeab-9ac4a638d975","system_id":"levelo_inurba_marseille","lat":43.28952,"lon":5.36635,"is_reserved":false,"is_disabled":false,"rental_uris":{"android":"levelo://app?vid=e7e1c9c8-f9b1-4f29-aeab-9ac4a638d975","ios":"levelo://app?vid=e7e1c9c8-f9b1-4f29-aeab-9ac4a638d975"},"vehicle_type_id":"4","last_reported":1742598511,"current_range_meters":17200,"station_id":"ce4bhap2rcd13ifvqek0","pricing_plan_id":"cebpf4jnsgd1na2vs0mg"},{"bike_id":"7e74b698-9062-469b-b8c2-03653df17d53","system_id":"levelo_inurba_marseille","lat":43.30891,"lon":5.39632,"is_reserved":false,"is_disabled":false,"rental_uris":{"android":"levelo://app?vid=7e74b698-9062-469b-b8c2-03653df17d53","ios":"levelo://app?vid=7e74b698-9062-469b-b8c2-03653df17d53"},"vehicle_type_id":"4","last_reported":1742598511,"current_range_meters":17200,"station_id":"ce4bh012rcd13ifvqcv0","pricing_plan_id":"cebpf4jnsgd1na2vs0mg"},{"bike_id":"d5fb38bb-145b-4438-b4f0-8b50ac58a011","system_id":"levelo_inurba_marseille","lat":43.25824,"lon":5.39437,"is_reserved":false,"is_disabled":false,"rental_uris":{"android":"levelo://app?vid=d5fb38bb-145b-4438-b4f0-8b50ac58a011","ios":"levelo://app?vid=d5fb38bb-145b-4438-b4f0-8b50ac58a011"},"vehicle_type_id":"4","last_reported":1742598511,"current_range_meters":17200,"station_id":"ce4bhip2rcd13ifvqft0","pricing_plan_id":"cebpf4jnsgd1na2vs0mg"},{"bike_id":"40b49dd9-0a91-4dc0-a166-a21d1603b315","system_id":"levelo_inurba_marseille","lat":43.29021,"lon":5.38601,"is_reserved":false,"is_disabled":false,"rental_uris":{"android":"levelo://app?vid=40b49dd9-0a91-4dc0-a166-a21d1603b315","ios":"levelo://app?vid=40b49dd9-0a91-4dc0-a166-a21d1603b315"},"vehicle_type_id":"4","last_reported":1742598511,"current_range_meters":17200,"station_id":"ce4bh4p2rcd13ifvqe0g","pricing_plan_id":"cebpf4jnsgd1na2vs0mg"},{"bike_id":"40610ec6-60fc-4608-8143-26a5f162cf96","system_id":"levelo_inurba_marseille","lat":43.29245,"lon":5.38449,"is_reserved":false,"is_disabled":true,"rental_uris":{"android":"levelo://app?vid=40610ec6-60fc-4608-8143-26a5f162cf96","ios":"levelo://app?vid=40610ec6-60fc-4608-8143-26a5f162cf96"},"vehicle_type_id":"4","last_reported":1742598511,"current_range_meters":17600,"station_id":"ce4bh692rcd13ifvqea0","pricing_plan_id":"cebpf4jnsgd1na2vs0mg"},{"bike_id":"b9bf1cba-ae9c-4042-bf69-0b4e8e1cecdc","system_id":"levelo_inurba_marseille","lat":43.25579,"lon":5.38225,"is_reserved":false,"is_disabled":false,"rental_uris":{"android":"levelo://app?vid=b9bf1cba-ae9c-4042-bf69-0b4e8e1cecdc","ios":"levelo://app?vid=b9bf1cba-ae9c-4042-bf69-0b4e8e1cecdc"},"vehicle_type_id":"4","last_reported":1742598511,"current_range_meters":17600,"station_id":"ce4bhih2rcd13ifvqfs0","pricing_plan_id":"cebpf4jnsgd1na2vs0mg"},{"bike_id":"85f87bb8-ed05-4eba-9767-7a482339c68b","system_id":"levelo_inurba_marseille","lat":43.28722,"lon":5.36092,"is_reserved":false,"is_disabled":false,"rental_uris":{"android":"levelo://app?vid=85f87bb8-ed05-4eba-9767-7a482339c68b","ios":"levelo://app?vid=85f87bb8-ed05-4eba-9767-7a482339c68b"},"vehicle_type_id":"4","last_reported":1742598511,"current_range_meters":17600,"station_id":"cki0cbj6b192h4jlfktg","pricing_plan_id":"cebpf4jnsgd1na2vs0mg"},{"bike_id":"751ff1ed-b498-4578-9bd4-943bf6c9d8eb","system_id":"levelo_inurba_marseille","lat":43.232,"lon":5.3555,"is_reserved":false,"is_disabled":false,"rental_uris":{"android":"levelo://app?vid=751ff1ed-b498-4578-9bd4-943bf6c9d8eb","ios":"levelo://app?vid=751ff1ed-b498-4578-9bd4-943bf6c9d8eb"},"vehicle_type_id":"4","last_reported":1742598511,"current_range_meters":18000,"station_id":"ce4bhu92rcd13ifvqi70","pricing_plan_id":"cebpf4jnsgd1na2vs0mg"},{"bike_id":"3cdf3339-b8b9-408a-9fe1-3797219492a5","system_id":"levelo_inurba_marseille","lat":43.30614,"lon":5.37211,"is_reserved":false,"is_disabled":false,"rental_uris":{"android":"levelo://app?vid=3cdf3339-b8b9-408a-9fe1-3797219492a5","ios":"levelo://app?vid=3cdf3339-b8b9-408a-9fe1-3797219492a5"},"vehicle_type_id":"4","last_reported":1742598511,"current_range_meters":17200,"station_id":"ce4bgqh2rcd13ifvqc4g","pricing_plan_id":"cebpf4jnsgd1na2vs0mg"},{"bike_id":"d8878601-3ef9-4b69-ae9e-1dde88f059ac","system_id":"levelo_inurba_marseille","lat":43.24149,"lon":5.3642,"is_reserved":false,"is_disabled":false,"rental_uris":{"android":"levelo://app?vid=d8878601-3ef9-4b69-ae9e-1dde88f059ac","ios":"levelo://app?vid=d8878601-3ef9-4b69-ae9e-1dde88f059ac"},"vehicle_type_id":"4","last_reported":1742598511,"current_range_meters":17600,"station_id":"cpo36qri1sfpv3e86is0","pricing_plan_id":"cebpf4jnsgd1na2vs0mg"},{"bike_id":"58baf574-49e9-4e07-b799-d6a577f26ac4","system_id":"levelo_inurba_marseille","lat":43.29066,"lon":5.37179,"is_reserved":false,"is_disabled":true,"rental_uris":{"android":"levelo://app?vid=58baf574-49e9-4e07-b799-d6a577f26ac4","ios":"levelo://app?vid=58baf574-49e9-4e07-b799-d6a577f26ac4"},"vehicle_type_id":"4","last_reported":1742598511,"current_range_meters":17600,"station_id":"ce4bh5p2rcd13ifvqe4g","pricing_plan_id":"cebpf4jnsgd1na2vs0mg"},{"bike_id":"3f2cc47c-9819-46f0-b7be-a06e1c7f9558","system_id":"levelo_inurba_marseille","lat":43.3105,"lon":5.38324,"is_reserved":false,"is_disabled":false,"rental_uris":{"android":"levelo://app?vid=3f2cc47c-9819-46f0-b7be-a06e1c7f9558","ios":"levelo://app?vid=3f2cc47c-9819-46f0-b7be-a06e1c7f9558"},"vehicle_type_id":"4","last_reported":1742598511,"current_range_meters":17600,"station_id":"ce4bgv92rcd13ifvqcr0","pricing_plan_id":"cebpf4jnsgd1na2vs0mg"},{"bike_id":"fb6cb43c-6a65-43e0-a9f5-2604dff2bc3a","system_id":"levelo_inurba_marseille","lat":43.23198,"lon":5.35546,"is_reserved":false,"is_disabled":false,"rental_uris":{"android":"levelo://app?vid=fb6cb43c-6a65-43e0-a9f5-2604dff2bc3a","ios":"levelo://app?vid=fb6cb43c-6a65-43e0-a9f5-2604dff2bc3a"},"vehicle_type_id":"4","last_reported":1742598511,"current_range_meters":18000,"station_id":"ce4bhu92rcd13ifvqi70","pricing_plan_id":"cebpf4jnsgd1na2vs0mg"},{"bike_id":"52088e19-d68b-45c5-ba39-83046f2d47b2","system_id":"levelo_inurba_marseille","lat":43.23208,"lon":5.35569,"is_reserved":false,"is_disabled":false,"rental_uris":{"android":"levelo://app?vid=52088e19-d68b-45c5-ba39-83046f2d47b2","ios":"levelo://app?vid=52088e19-d68b-45c5-ba39-83046f2d47b2"},"vehicle_type_id":"4","last_reported":1742598511,"current_range_meters":18000,"station_id":"ce4bhu92rcd13ifvqi70","pricing_plan_id":"cebpf4jnsgd1na2vs0mg"},{"bike_id":"07541760-82c4-4d38-b58c-85ffff07e965","system_id":"levelo_inurba_marseille","lat":43.23967,"lon":5.36622,"is_reserved":false,"is_disabled":false,"rental_uris":{"android":"levelo://app?vid=07541760-82c4-4d38-b58c-85ffff07e965","ios":"levelo://app?vid=07541760-82c4-4d38-b58c-85ffff07e965"},"vehicle_type_id":"4","last_reported":1742598511,"current_range_meters":18000,"station_id":"ce4bhi12rcd13ifvqfp0","pricing_plan_id":"cebpf4jnsgd1na2vs0mg"},{"bike_id":"3c09e4d7-7270-409a-85c9-9f040663ba57","system_id":"levelo_inurba_marseille","lat":43.29806,"lon":5.40414,"is_reserved":false,"is_disabled":false,"rental_uris":{"android":"levelo://app?vid=3c09e4d7-7270-409a-85c9-9f040663ba57","ios":"levelo://app?vid=3c09e4d7-7270-409a-85c9-9f040663ba57"},"vehicle_type_id":"4","last_reported":1742598511,"current_range_meters":18000,"station_id":"ce4bh112rcd13ifvqd90","pricing_plan_id":"cebpf4jnsgd1na2vs0mg"},{"bike_id":"a7c269ac-750b-4e61-a0a4-f774b818338f","system_id":"levelo_inurba_marseille","lat":43.28084,"lon":5.39658,"is_reserved":false,"is_disabled":false,"rental_uris":{"android":"levelo://app?vid=a7c269ac-750b-4e61-a0a4-f774b818338f","ios":"levelo://app?vid=a7c269ac-750b-4e61-a0a4-f774b818338f"},"vehicle_type_id":"4","last_reported":1742598511,"current_range_meters":18000,"station_id":"ce4bho12rcd13ifvqh2g","pricing_plan_id":"cebpf4jnsgd1na2vs0mg"},{"bike_id":"d954b141-3cee-4de0-9c29-d5babd11cd82","system_id":"levelo_inurba_marseille","lat":43.25094,"lon":5.39495,"is_reserved":false,"is_disabled":false,"rental_uris":{"android":"levelo://app?vid=d954b141-3cee-4de0-9c29-d5babd11cd82","ios":"levelo://app?vid=d954b141-3cee-4de0-9c29-d5babd11cd82"},"vehicle_type_id":"4","last_reported":1742598511,"current_range_meters":18000,"station_id":"ce4bhm12rcd13ifvqgkg","pricing_plan_id":"cebpf4jnsgd1na2vs0mg"},{"bike_id":"05196e82-2b3b-46d7-ab3e-37cd98e7884a","system_id":"levelo_inurba_marseille","lat":43.32653,"lon":5.41004,"is_reserved":false,"is_disabled":false,"rental_uris":{"android":"levelo://app?vid=05196e82-2b3b-46d7-ab3e-37cd98e7884a","ios":"levelo://app?vid=05196e82-2b3b-46d7-ab3e-37cd98e7884a"},"vehicle_type_id":"4","last_reported":1742598511,"current_range_meters":18800,"station_id":"ce4bhpp2rcd13ifvqhgg","pricing_plan_id":"cebpf4jnsgd1na2vs0mg"},{"bike_id":"49e49842-3d35-441a-9749-e7aef3addb62","system_id":"levelo_inurba_marseille","lat":43.31084,"lon":5.38355,"is_reserved":false,"is_disabled":false,"rental_uris":{"android":"levelo://app?vid=49e49842-3d35-441a-9749-e7aef3addb62","ios":"levelo://app?vid=49e49842-3d35-441a-9749-e7aef3addb62"},"vehicle_type_id":"4","last_reported":1742598511,"current_range_meters":18800,"station_id":"ce4bgv92rcd13ifvqcr0","pricing_plan_id":"cebpf4jnsgd1na2vs0mg"},{"bike_id":"2dd72ce0-a221-40bf-9da0-1e468c02603c","system_id":"levelo_inurba_marseille","lat":43.29258,"lon":5.40905,"is_reserved":false,"is_disabled":false,"rental_uris":{"android":"levelo://app?vid=2dd72ce0-a221-40bf-9da0-1e468c02603c","ios":"levelo://app?vid=2dd72ce0-a221-40bf-9da0-1e468c02603c"},"vehicle_type_id":"4","last_reported":1742598511,"current_range_meters":18800,"station_id":"ce4bh192rcd13ifvqdc0","pricing_plan_id":"cebpf4jnsgd1na2vs0mg"},{"bike_id":"4bc2b60d-17c5-4315-adf9-02367ba61a64","system_id":"levelo_inurba_marseille","lat":43.3204,"lon":5.41542,"is_reserved":false,"is_disabled":false,"rental_uris":{"android":"levelo://app?vid=4bc2b60d-17c5-4315-adf9-02367ba61a64","ios":"levelo://app?vid=4bc2b60d-17c5-4315-adf9-02367ba61a64"},"vehicle_type_id":"4","last_reported":1742598511,"current_range_meters":18800,"station_id":"ce4bhq92rcd13ifvqhkg","pricing_plan_id":"cebpf4jnsgd1na2vs0mg"},{"bike_id":"c424757f-c3b6-4858-818d-c01651a937be","system_id":"levelo_inurba_marseille","lat":43.28707,"lon":5.39991,"is_reserved":false,"is_disabled":false,"rental_uris":{"android":"levelo://app?vid=c424757f-c3b6-4858-818d-c01651a937be","ios":"levelo://app?vid=c424757f-c3b6-4858-818d-c01651a937be"},"vehicle_type_id":"4","last_reported":1742598511,"current_range_meters":18000,"station_id":"ce4bho92rcd13ifvqh3g","pricing_plan_id":"cebpf4jnsgd1na2vs0mg"},{"bike_id":"6868728d-aea8-4a13-b579-0537a2ccfa46","system_id":"levelo_inurba_marseille","lat":43.29414,"lon":5.38621,"is_reserved":false,"is_disabled":false,"rental_uris":{"android":"levelo://app?vid=6868728d-aea8-4a13-b579-0537a2ccfa46","ios":"levelo://app?vid=6868728d-aea8-4a13-b579-0537a2ccfa46"},"vehicle_type_id":"4","last_reported":1742598511,"current_range_meters":18800,"station_id":"ce4bh2h2rcd13ifvqdh0","pricing_plan_id":"cebpf4jnsgd1na2vs0mg"},{"bike_id":"c3f98998-ee18-465d-9857-74922c0893dc","system_id":"levelo_inurba_marseille","lat":43.29409,"lon":5.38638,"is_reserved":false,"is_disabled":false,"rental_uris":{"android":"levelo://app?vid=c3f98998-ee18-465d-9857-74922c0893dc","ios":"levelo://app?vid=c3f98998-ee18-465d-9857-74922c0893dc"},"vehicle_type_id":"4","last_reported":1742598511,"current_range_meters":19200,"station_id":"ce4bh2h2rcd13ifvqdh0","pricing_plan_id":"cebpf4jnsgd1na2vs0mg"},{"bike_id":"859eace3-bfc6-4f5d-a3cb-ce878223d233","system_id":"levelo_inurba_marseille","lat":43.29905,"lon":5.37474,"is_reserved":false,"is_disabled":false,"rental_uris":{"android":"levelo://app?vid=859eace3-bfc6-4f5d-a3cb-ce878223d233","ios":"levelo://app?vid=859eace3-bfc6-4f5d-a3cb-ce878223d233"},"vehicle_type_id":"4","last_reported":1742598511,"current_range_meters":19200,"station_id":"ce4bgjh2rcd13ifvqbg0","pricing_plan_id":"cebpf4jnsgd1na2vs0mg"},{"bike_id":"b5fa5fd4-2086-461e-af4b-4ed9a313cbad","system_id":"levelo_inurba_marseille","lat":43.30263,"lon":5.4008,"is_reserved":false,"is_disabled":false,"rental_uris":{"android":"levelo://app?vid=b5fa5fd4-2086-461e-af4b-4ed9a313cbad","ios":"levelo://app?vid=b5fa5fd4-2086-461e-af4b-4ed9a313cbad"},"vehicle_type_id":"4","last_reported":1742598511,"current_range_meters":19200,"station_id":"ce4bgvh2rcd13ifvqcs0","pricing_plan_id":"cebpf4jnsgd1na2vs0mg"},{"bike_id":"29920890-cfd4-493c-953d-74057efa6854","system_id":"levelo_inurba_marseille","lat":43.28664,"lon":5.3866,"is_reserved":false,"is_disabled":false,"rental_uris":{"android":"levelo://app?vid=29920890-cfd4-493c-953d-74057efa6854","ios":"levelo://app?vid=29920890-cfd4-493c-953d-74057efa6854"},"vehicle_type_id":"4","last_reported":1742598511,"current_range_meters":19200,"station_id":"ce4bh492rcd13ifvqdug","pricing_plan_id":"cebpf4jnsgd1na2vs0mg"},{"bike_id":"59c2a742-4ef0-462a-ad11-4cfc56700ee0","system_id":"levelo_inurba_marseille","lat":43.31073,"lon":5.38342,"is_reserved":false,"is_disabled":false,"rental_uris":{"android":"levelo://app?vid=59c2a742-4ef0-462a-ad11-4cfc56700ee0","ios":"levelo://app?vid=59c2a742-4ef0-462a-ad11-4cfc56700ee0"},"vehicle_type_id":"4","last_reported":1742598511,"current_range_meters":19200,"station_id":"ce4bgv92rcd13ifvqcr0","pricing_plan_id":"cebpf4jnsgd1na2vs0mg"},{"bike_id":"7ca5bdbf-502f-4986-bc8a-2010eae5e699","system_id":"levelo_inurba_marseille","lat":43.24995,"lon":5.38934,"is_reserved":false,"is_disabled":false,"rental_uris":{"android":"levelo://app?vid=7ca5bdbf-502f-4986-bc8a-2010eae5e699","ios":"levelo://app?vid=7ca5bdbf-502f-4986-bc8a-2010eae5e699"},"vehicle_type_id":"4","last_reported":1742598511,"current_range_meters":19200,"station_id":"ce4bhgp2rcd13ifvqfd0","pricing_plan_id":"cebpf4jnsgd1na2vs0mg"},{"bike_id":"8ece3df9-ee02-46d4-9472-cd9fb73b4268","system_id":"levelo_inurba_marseille","lat":43.29537,"lon":5.38584,"is_reserved":false,"is_disabled":false,"rental_uris":{"android":"levelo://app?vid=8ece3df9-ee02-46d4-9472-cd9fb73b4268","ios":"levelo://app?vid=8ece3df9-ee02-46d4-9472-cd9fb73b4268"},"vehicle_type_id":"4","last_reported":1742598511,"current_range_meters":19200,"station_id":"ce4bgih2rcd13ifvqba0","pricing_plan_id":"cebpf4jnsgd1na2vs0mg"},{"bike_id":"5d4cc92c-eafe-478c-8820-ef016b1e9d02","system_id":"levelo_inurba_marseille","lat":43.29895,"lon":5.43652,"is_reserved":false,"is_disabled":false,"rental_uris":{"android":"levelo://app?vid=5d4cc92c-eafe-478c-8820-ef016b1e9d02","ios":"levelo://app?vid=5d4cc92c-eafe-478c-8820-ef016b1e9d02"},"vehicle_type_id":"4","last_reported":1742598511,"current_range_meters":19200,"station_id":"ce4bhpp2rcd13ifvqhfg","pricing_plan_id":"cebpf4jnsgd1na2vs0mg"},{"bike_id":"11bfbbff-726c-4e95-a1f0-089f685bac68","system_id":"levelo_inurba_marseille","lat":43.24391,"lon":5.37056,"is_reserved":false,"is_disabled":false,"rental_uris":{"android":"levelo://app?vid=11bfbbff-726c-4e95-a1f0-089f685bac68","ios":"levelo://app?vid=11bfbbff-726c-4e95-a1f0-089f685bac68"},"vehicle_type_id":"4","last_reported":1742598511,"current_range_meters":19200,"station_id":"ce4bhhh2rcd13ifvqfk0","pricing_plan_id":"cebpf4jnsgd1na2vs0mg"},{"bike_id":"f49862f9-af23-4ed6-92be-c6db642be6a4","system_id":"levelo_inurba_marseille","lat":43.24543,"lon":5.39516,"is_reserved":false,"is_disabled":false,"rental_uris":{"android":"levelo://app?vid=f49862f9-af23-4ed6-92be-c6db642be6a4","ios":"levelo://app?vid=f49862f9-af23-4ed6-92be-c6db642be6a4"},"vehicle_type_id":"4","last_reported":1742598511,"current_range_meters":19200,"station_id":"ce4bhlp2rcd13ifvqgjg","pricing_plan_id":"cebpf4jnsgd1na2vs0mg"},