{"last_updated":1730369400,"ttl":60,"version":"2.2","data":{"bikes":[{"bike_id":"e4bbc832-436f-482e-8a94-66135373f59d","system_id":"levelo_inurba_marseille","lat":43.30536,"lon":5.36527,"is_reserved":false,"is_disabled":false,"rental_uris":{"android":"levelo://app?vid=e4bbc832-436f-482e-8a94-66135373f59d","ios":"levelo://app?vid=e4bbc832-436f-482e-8a94-66135373f59d"},"vehicle_type_id":"4","last_reported":1730369401,"current_range_meters":38800,"station_id":"ce4bgs12rcd13ifvqcag","pricing_plan_id":"cebpf4jnsgd1na2vs0mg"},{"bike_id":"ecce11d9-7412-403c-a802-7610f77e4f2d","system_id":"levelo_inurba_marseille","lat":43.28411,"lon":5.37519,"is_reserved":false,"is_disabled":false,"rental_uris":{"android":"levelo://app?vid=ecce11d9-7412-403c-a802-7610f77e4f2d","ios":"levelo://app?vid=ecce11d9-7412-403c-a802-7610f77e4f2d"},"vehicle_type_id":"4","last_reported":1730369401,"current_range_meters":35600,"station_id":"ce4bh412rcd13ifvqds0","pricing_plan_id":"cebpf4jnsgd1na2vs0mg"},{"bike_id":"f28e5a33-2cb2-44cc-8db6-6ca0c4da5ec5","system_id":"levelo_inurba_marseille","lat":43.2557,"lon":5.38238,"is_reserved":false,"is_disabled":false,"rental_uris":{"android":"levelo://app?vid=f28e5a33-2cb2-44cc-8db6-6ca0c4da5ec5","ios":"levelo://app?vid=f28e5a33-2cb2-44cc-8db6-6ca0c4da5ec5"},"vehicle_type_id":"4","last_reported":1730369401,"current_range_meters":38800,"station_id":"ce4bhih2rcd13ifvqfs0","pricing_plan_id":"cebpf4jnsgd1na2vs0mg"},{"bike_id":"1bb25134-81bd-4255-931c-d93d2143e7cd","system_id":"levelo_inurba_marseille","lat":43.30946,"lon":5.390362,"is_reserved":false,"is_disabled":false,"rental_uris":{"android":"levelo://app?vid=1bb25134-81bd-4255-931c-d93d2143e7cd","ios":"levelo://app?vid=1bb25134-81bd-4255-931c-d93d2143e7cd"},"vehicle_type_id":"4","last_reported":1730369401,"current_range_meters":24800,"station_id":"ce4bgup2rcd13ifvqco0","pricing_plan_id":"cebpf4jnsgd1na2vs0mg"},{"bike_id":"f64c1e7d-3ae9-4dfc-8ec2-0a90d036364f","system_id":"levelo_inurba_marseille","lat":43.32113,"lon":5.36771,"is_reserved":false,"is_disabled":false,"rental_uris":{"android":"levelo://app?vid=f64c1e7d-3ae9-4dfc-8ec2-0a90d036364f","ios":"levelo://app?vid=f64c1e7d-3ae9-4dfc-8ec2-0a90d036364f"},"vehicle_type_id":"4","last_reported":1730369401,"current_range_meters":22000,"station_id":"ce4bhrh2rcd13ifvqhug","pricing_plan_id":"cebpf4jnsgd1na2vs0mg"},{"bike_id":"ca2f059d-7816-418e-8ea8-e4f148bc3c85","system_id":"levelo_inurba_marseille","lat":43.29534,"lon":5.37509,"is_reserved":false,"is_disabled":false,"rental_uris":{"android":"levelo://app?vid=ca2f059d-7816-418e-8ea8-e4f148bc3c85","ios":"levelo://app?vid=ca2f059d-7816-418e-8ea8-e4f148bc3c85"},"vehicle_type_id":"4","last_reported":1730369401,"current_range_meters":33200,"station_id":"ce4bgkp2rcd13ifvqbmg","pricing_plan_id":"cebpf4jnsgd1na2vs0mg"},{"bike_id":"f623cb75-3aef-443c-ac5c-5880d5d986c7","system_id":"levelo_inurba_marseille","lat":43.290174,"lon":5.381224,"is_reserved":false,"is_disabled":false,"rental_uris":{"android":"levelo://app?vid=f623cb75-3aef-443c-ac5c-5880d5d986c7","ios":"levelo://app?vid=f623cb75-3aef-443c-ac5c-5880d5d986c7"},"vehicle_type_id":"4","last_reported":1730369401,"current_range_meters":38800,"station_id":"ce4bh4p2rcd13ifvqe1g","pricing_plan_id":"cebpf4jnsgd1na2vs0mg"},{"bike_id":"8b9878c9-4f62-4ff3-978f-a3c62ecd88e5","system_id":"levelo_inurba_marseille","lat":43.25938,"lon":5.409,"is_reserved":false,"is_disabled":false,"rental_uris":{"android":"levelo://app?vid=8b9878c9-4f62-4ff3-978f-a3c62ecd88e5","ios":"levelo://app?vid=8b9878c9-4f62-4ff3-978f-a3c62ecd88e5"},"vehicle_type_id":"4","last_reported":1730369401,"current_range_meters":19200,"station_id":"ce4bhm92rcd13ifvqglg","pricing_plan_id":"cebpf4jnsgd1na2vs0mg"},{"bike_id":"bceb470c-5961-46ca-8bf8-39aceec2ee89","system_id":"levelo_inurba_marseille","lat":43.3054,"lon":5.36534,"is_reserved":false,"is_disabled":false,"rental_uris":{"android":"levelo://app?vid=bceb470c-5961-46ca-8bf8-39aceec2ee89","ios":"levelo://app?vid=bceb470c-5961-46ca-8bf8-39aceec2ee89"},"vehicle_type_id":"4","last_reported":1730369401,"current_range_meters":33200,"station_id":"ce4bgs12rcd13ifvqcag","pricing_plan_id":"cebpf4jnsgd1na2vs0mg"},{"bike_id":"578b46eb-01fc-43bf-a395-be4832d927d2","system_id":"levelo_inurba_marseille","lat":43.23195,"lon":5.35557,"is_reserved":false,"is_disabled":false,"rental_uris":{"android":"levelo://app?vid=578b46eb-01fc-43bf-a395-be4832d927d2","ios":"levelo://app?vid=578b46eb-01fc-43bf-a395-be4832d927d2"},"vehicle_type_id":"4","last_reported":1730369401,"current_range_meters":32400,"station_id":"ce4bhu92rcd13ifvqi70","pricing_plan_id":"cebpf4jnsgd1na2vs0mg"},{"bike_id":"02e7ea43-3237-4940-89ca-1f3a1b2330a0","system_id":"levelo_inurba_marseille","lat":43.29597,"lon":5.38098,"is_reserved":false,"is_disabled":false,"rental_uris":{"android":"levelo://app?vid=02e7ea43-3237-4940-89ca-1f3a1b2330a0","ios":"levelo://app?vid=02e7ea43-3237-4940-89ca-1f3a1b2330a0"},"vehicle_type_id":"4","last_reported":1730369401,"current_range_meters":30400,"station_id":"ce4bgl12rcd13ifvqbo0","pricing_plan_id":"cebpf4jnsgd1na2vs0mg"},{"bike_id":"bbf8f708-5e9b-41bf-bc19-afef39d244c3","system_id":"levelo_inurba_marseille","lat":43.27492,"lon":5.42445,"is_reserved":false,"is_disabled":false,"rental_uris":{"android":"levelo://app?vid=bbf8f708-5e9b-41bf-bc19-afef39d244c3","ios":"levelo://app?vid=bbf8f708-5e9b-41bf-bc19-afef39d244c3"},"vehicle_type_id":"4","last_reported":1730369401,"current_range_meters":30000,"station_id":"ce4bhn92rcd13ifvqgrg","pricing_plan_id":"cebpf4jnsgd1na2vs0mg"},{"bike_id":"b5beb8be-724a-4713-95e9-911c76389d06","system_id":"levelo_inurba_marseille","lat":43.30157,"lon":5.38082,"is_reserved":false,"is_disabled":false,"rental_uris":{"android":"levelo://app?vid=b5beb8be-724a-4713-95e9-911c76389d06","ios":"levelo://app?vid=b5beb8be-724a-4713-95e9-911c76389d06"},"vehicle_type_id":"4","last_reported":1730369401,"current_range_meters":36400,"station_id":"ce4bgjp2rcd13ifvqbh0","pricing_plan_id":"cebpf4jnsgd1na2vs0mg"},{"bike_id":"e35a8ca0-a448-45a9-9f0c-b3ec619fcd4b","system_id":"levelo_inurba_marseille","lat":43.30534,"lon":5.36536,"is_reserved":false,"is_disabled":false,"rental_uris":{"android":"levelo://app?vid=e35a8ca0-a448-45a9-9f0c-b3ec619fcd4b","ios":"levelo://app?vid=e35a8ca0-a448-45a9-9f0c-b3ec619fcd4b"},"vehicle_type_id":"4","last_reported":1730369401,"current_range_meters":39200,"station_id":"ce4bgs12rcd13ifvqcag","pricing_plan_id":"cebpf4jnsgd1na2vs0mg"},{"bike_id":"91f75106-8073-486e-8037-1d5f2fa10c75","system_id":"levelo_inurba_marseille","lat":43.31998,"lon":5.3815,"is_reserved":false,"is_disabled":false,"rental_uris":{"android":"levelo://app?vid=91f75106-8073-486e-8037-1d5f2fa10c75","ios":"levelo://app?vid=91f75106-8073-486e-8037-1d5f2fa10c75"},"vehicle_type_id":"4","last_reported":1730369401,"current_range_meters":39200,"station_id":"ce4bhr12rcd13ifvqhpg","pricing_plan_id":"cebpf4jnsgd1na2vs0mg"},{"bike_id":"4075e605-7e2d-4335-883e-4292dc011012","system_id":"levelo_inurba_marseille","lat":43.23962,"lon":5.36629,"is_reserved":false,"is_disabled":false,"rental_uris":{"android":"levelo://app?vid=4075e605-7e2d-4335-883e-4292dc011012","ios":"levelo://app?vid=4075e605-7e2d-4335-883e-4292dc011012"},"vehicle_type_id":"4","last_reported":1730369401,"current_range_meters":6000,"station_id":"ce4bhi12rcd13ifvqfp0","pricing_plan_id":"cebpf4jnsgd1na2vs0mg"},{"bike_id":"604871c7-01b3-4e91-ad66-3472f5cb2bd9","system_id":"levelo_inurba_marseille","lat":43.24166,"lon":5.36395,"is_reserved":false,"is_disabled":false,"rental_uris":{"android":"levelo://app?vid=604871c7-01b3-4e91-ad66-3472f5cb2bd9","ios":"levelo://app?vid=604871c7-01b3-4e91-ad66-3472f5cb2bd9"},"vehicle_type_id":"4","last_reported":1730369401,"current_range_meters":33200,"station_id":"cpo36qri1sfpv3e86is0","pricing_plan_id":"cebpf4jnsgd1na2vs0mg"},{"bike_id":"66f87c05-90dc-43a7-acd2-2870fbee0cc8","system_id":"levelo_inurba_marseille","lat":43.23151,"lon":5.43715,"is_reserved":false,"is_disabled":false,"rental_uris":{"android":"levelo://app?vid=66f87c05-90dc-43a7-acd2-2870fbee0cc8","ios":"levelo://app?vid=66f87c05-90dc-43a7-acd2-2870fbee0cc8"},"vehicle_type_id":"4","last_reported":1730369401,"current_range_meters":38400,"station_id":"ce4bhmp2rcd13ifvqgog","pricing_plan_id":"cebpf4jnsgd1na2vs0mg"},{"bike_id":"ddf81c1b-c006-4566-9050-e7d0867872d6","system_id":"levelo_inurba_marseille","lat":43.302002,"lon":5.366336,"is_reserved":false,"is_disabled":false,"rental_uris":{"android":"levelo://app?vid=ddf81c1b-c006-4566-9050-e7d0867872d6","ios":"levelo://app?vid=ddf81c1b-c006-4566-9050-e7d0867872d6"},"vehicle_type_id":"4","last_reported":1730369401,"current_range_meters":24800,"station_id":"ce4bgrh2rcd13ifvqc8g","pricing_plan_id":"cebpf4jnsgd1na2vs0mg"},{"bike_id":"e28bde82-2bca-41df-8756-8fcbd49659b3","system_id":"levelo_inurba_marseille","lat":43.30952,"lon":5.39046,"is_reserved":false,"is_disabled":false,"rental_uris":{"android":"levelo://app?vid=e28bde82-2bca-41df-8756-8fcbd49659b3","ios":"levelo://app?vid=e28bde82-2bca-41df-8756-8fcbd49659b3"},"vehicle_type_id":"4","last_reported":1730369401,"current_range_meters":17200,"station_id":"ce4bgup2rcd13ifvqco0","pricing_plan_id":"cebpf4jnsgd1na2vs0mg"},{"bike_id":"69fd3467-8372-41d4-bb04-b9df3cdff26f","system_id":"levelo_inurba_marseille","lat":43.29031,"lon":5.399917,"is_reserved":false,"is_disabled":false,"rental_uris":{"android":"levelo://app?vid=69fd3467-8372-41d4-bb04-b9df3cdff26f","ios":"levelo://app?vid=69fd3467-8372-41d4-bb04-b9df3cdff26f"},"vehicle_type_id":"4","last_reported":1730369401,"current_range_meters":38800,"station_id":"ce4bh392rcd13ifvqdm0","pricing_plan_id":"cebpf4jnsgd1na2vs0mg"},{"bike_id":"77bcf1ee-2c62-4fb9-a48e-c49ffdf122ac","system_id":"levelo_inurba_marseille","lat":43.29028,"lon":5.39973,"is_reserved":false,"is_disabled":false,"rental_uris":{"android":"levelo://app?vid=77bcf1ee-2c62-4fb9-a48e-c49ffdf122ac","ios":"levelo://app?vid=77bcf1ee-2c62-4fb9-a48e-c49ffdf122ac"},"vehicle_type_id":"4","last_reported":1730369401,"current_range_meters":38800,"station_id":"ce4bh392rcd13ifvqdm0","pricing_plan_id":"cebpf4jnsgd1na2vs0mg"},{"bike_id":"6e68dc19-dedc-495b-9422-66bbfa8cbb0a","system_id":"levelo_inurba_marseille","lat":43.24388,"lon":5.37057,"is_reserved":false,"is_disabled":false,"rental_uris":{"android":"levelo://app?vid=6e68dc19-dedc-495b-9422-66bbfa8cbb0a","ios":"levelo://app?vid=6e68dc19-dedc-495b-9422-66bbfa8cbb0a"},"vehicle_type_id":"4","last_reported":1730369401,"current_range_meters":3200,"station_id":"ce4bhhh2rcd13ifvqfk0","pricing_plan_id":"cebpf4jnsgd1na2vs0mg"},{"bike_id":"07eb6350-9ec7-4a60-b4a8-3f496cc83d5e","system_id":"levelo_inurba_marseille","lat":43.28443,"lon":5.39193,"is_reserved":false,"is_disabled":false,"rental_uris":{"android":"levelo://app?vid=07eb6350-9ec7-4a60-b4a8-3f496cc83d5e","ios":"levelo://app?vid=07eb6350-9ec7-4a60-b4a8-3f496cc83d5e"},"vehicle_type_id":"4","last_reported":1730369401,"current_range_meters":13600,"station_id":"ce4bhoh2rcd13ifvqh5g","pricing_plan_id":"cebpf4jnsgd1na2vs0mg"},{"bike_id":"6c1c2f60-08cd-4eb7-aa10-146939f8b7a3","system_id":"levelo_inurba_marseille","lat":43.28356,"lon":5.38625,"is_reserved":false,"is_disabled":false,"rental_uris":{"android":"levelo://app?vid=6c1c2f60-08cd-4eb7-aa10-146939f8b7a3","ios":"levelo://app?vid=6c1c2f60-08cd-4eb7-aa10-146939f8b7a3"},"vehicle_type_id":"4","last_reported":1730369401,"current_range_meters":27200,"station_id":"ce4bh492rcd13ifvqdvg","pricing_plan_id":"cebpf4jnsgd1na2vs0mg"},{"bike_id":"8b049b91-cb4b-4f38-bffb-00ce29c795e2","system_id":"levelo_inurba_marseille","lat":43.27942,"lon":5.41054,"is_reserved":false,"is_disabled":false,"rental_uris":{"android":"levelo://app?vid=8b049b91-cb4b-4f38-bffb-00ce29c795e2","ios":"levelo://app?vid=8b049b91-cb4b-4f38-bffb-00ce29c795e2"},"vehicle_type_id":"4","last_reported":1730369401,"current_range_meters":36000,"station_id":"ce4bhnp2rcd13ifvqh0g","pricing_plan_id":"cebpf4jnsgd1na2vs0mg"},{"bike_id":"327a54a1-6731-42d1-84d8-1ec906b0ebe8","system_id":"levelo_inurba_marseille","lat":43.25936,"lon":5.40907,"is_reserved":false,"is_disabled":false,"rental_uris":{"android":"levelo://app?vid=327a54a1-6731-42d1-84d8-1ec906b0ebe8","ios":"levelo://app?vid=327a54a1-6731-42d1-84d8-1ec906b0ebe8"},"vehicle_type_id":"4","last_reported":1730369401,"current_range_meters":26800,"station_id":"ce4bhm92rcd13ifvqglg","pricing_plan_id":"cebpf4jnsgd1na2vs0mg"},{"bike_id":"d5e0278e-9f79-49fb-848c-af059939c498","system_id":"levelo_inurba_marseille","lat":43.26787,"lon":5.39412,"is_reserved":false,"is_disabled":false,"rental_uris":{"android":"levelo://app?vid=d5e0278e-9f79-49fb-848c-af059939c498","ios":"levelo://app?vid=d5e0278e-9f79-49fb-848c-af059939c498"},"vehicle_type_id":"4","last_reported":1730369401,"current_range_meters":6800,"station_id":"ce4bhh12rcd13ifvqfg0","pricing_plan_id":"cebpf4jnsgd1na2vs0mg"},{"bike_id":"4ae298a1-ae7b-4650-a48e-948be9f237d7","system_id":"levelo_inurba_marseille","lat":43.29575,"lon":5.37501,"is_reserved":false,"is_disabled":false,"rental_uris":{"android":"levelo://app?vid=4ae298a1-ae7b-4650-a48e-948be9f237d7","ios":"levelo://app?vid=4ae298a1-ae7b-4650-a48e-948be9f237d7"},"vehicle_type_id":"4","last_reported":1730369401,"current_range_meters":38000,"station_id":"ce4bgh92rcd13ifvqb50","pricing_plan_id":"cebpf4jnsgd1na2vs0mg"},{"bike_id":"e4135fb1-128c-4498-8011-011092115ff6","system_id":"levelo_inurba_marseille","lat":43.2927,"lon":5.40113,"is_reserved":false,"is_disabled":false,"rental_uris":{"android":"levelo://app?vid=e4135fb1-128c-4498-8011-011092115ff6","ios":"levelo://app?vid=e4135fb1-128c-4498-8011-011092115ff6"},"vehicle_type_id":"4","last_reported":1730369401,"current_range_meters":3200,"station_id":"ce4bh312rcd13ifvqdk0","pricing_plan_id":"cebpf4jnsgd1na2vs0mg"},{"bike_id":"62d8ddd4-a047-4a4f-882e-002543bb8851","system_id":"levelo_inurba_marseille","lat":43.24383,"lon":5.37059,"is_reserved":false,"is_disabled":false,"rental_uris":{"android":"levelo://app?vid=62d8ddd4-a047-4a4f-882e-002543bb8851","ios":"levelo://app?vid=62d8ddd4-a047-4a4f-882e-002543bb8851"},"vehicle_type_id":"4","last_reported":1730369401,"current_range_meters":32000,"station_id":"ce4bhhh2rcd13ifvqfk0","pricing_plan_id":"cebpf4jnsgd1na2vs0mg"},{"bike_id":"7ab2f1bd-7151-4559-9622-b212f0480b3f","system_id":"levelo_inurba_marseille","lat":43.25726,"lon":5.41105,"is_reserved":false,"is_disabled":false,"rental_uris":{"android":"levelo://app?vid=7ab2f1bd-7151-4559-9622-b212f0480b3f","ios":"levelo://app?vid=7ab2f1bd-7151-4559-9622-b212f0480b3f"},"vehicle_type_id":"4","last_reported":1730369401,"current_range_meters":30000,"station_id":"ce4bhkp2rcd13ifvqgd0","pricing_plan_id":"cebpf4jnsgd1na2vs0mg"},{"bike_id":"c0a8e293-1660-4f21-87e9-c6ff061294ff","system_id":"levelo_inurba_marseille","lat":43.29616,"lon":5.37724,"is_reserved":false,"is_disabled":false,"rental_uris":{"android":"levelo://app?vid=c0a8e293-1660-4f21-87e9-c6ff061294ff","ios":"levelo://app?vid=c0a8e293-1660-4f21-87e9-c6ff061294ff"},"vehicle_type_id":"4","last_reported":1730369401,"current_range_meters":39200,"station_id":"ce4bgi92rcd13ifvqb90","pricing_plan_id":"cebpf4jnsgd1na2vs0mg"},{"bike_id":"ca42fafc-ec68-46ec-b376-f0ffa70f6fe6","system_id":"levelo_inurba_marseille","lat":43.32645,"lon":5.40985,"is_reserved":false,"is_disabled":false,"rental_uris":{"android":"levelo://app?vid=ca42fafc-ec68-46ec-b376-f0ffa70f6fe6","ios":"levelo://app?vid=ca42fafc-ec68-46ec-b376-f0ffa70f6fe6"},"vehicle_type_id":"4","last_reported":1730369401,"current_range_meters":38800,"station_id":"ce4bhpp2rcd13ifvqhgg","pricing_plan_id":"cebpf4jnsgd1na2vs0mg"},{"bike_id":"42e61598-64ce-4f84-97eb-90c09ebd9abe","system_id":"levelo_inurba_marseille","lat":43.2319,"lon":5.39993,"is_reserved":false,"is_disabled":false,"rental_uris":{"android":"levelo://app?vid=42e61598-64ce-4f84-97eb-90c09ebd9abe","ios":"levelo://app?vid=42e61598-64ce-4f84-97eb-90c09ebd9abe"},"vehicle_type_id":"4","last_reported":1730369401,"current_range_meters":10000,"station_id":"ce4bhn12rcd13ifvqgqg","pricing_plan_id":"cebpf4jnsgd1na2vs0mg"},{"bike_id":"631df17e-1886-42f1-bf3e-af1603773262","system_id":"levelo_inurba_marseille","lat":43.30323,"lon":5.4044,"is_reserved":false,"is_disabled":false,"rental_uris":{"android":"levelo://app?vid=631df17e-1886-42f1-bf3e-af1603773262","ios":"levelo://app?vid=631df17e-1886-42f1-bf3e-af1603773262"},"vehicle_type_id":"4","last_reported":1730369401,"current_range_meters":26000,"station_id":"ce4bh012rcd13ifvqd10","pricing_plan_id":"cebpf4jnsgd1na2vs0mg"},{"bike_id":"630d2f7a-94e2-47a5-8246-eb5f25dd9fa9","system_id":"levelo_inurba_marseille","lat":43.30065,"lon":5.39087,"is_reserved":false,"is_disabled":false,"rental_uris":{"android":"levelo://app?vid=630d2f7a-94e2-47a5-8246-eb5f25dd9fa9","ios":"levelo://app?vid=630d2f7a-94e2-47a5-8246-eb5f25dd9fa9"},"vehicle_type_id":"4","last_reported":1730369401,"current_range_meters":29600,"station_id":"ce4bh192rcd13ifvqdb0","pricing_plan_id":"cebpf4jnsgd1na2vs0mg"},{"bike_id":"64dab1a2-9a19-4671-8d0b-fe98cb5d329f","system_id":"levelo_inurba_marseille","lat":43.27997,"lon":5.40017,"is_reserved":false,"is_disabled":false,"rental_uris":{"android":"levelo://app?vid=64dab1a2-9a19-4671-8d0b-fe98cb5d329f","ios":"levelo://app?vid=64dab1a2-9a19-4671-8d0b-fe98cb5d329f"},"vehicle_type_id":"4","last_reported":1730369401,"current_range_meters":37600,"station_id":"ce4bho92rcd13ifvqh4g","pricing_plan_id":"cebpf4jnsgd1na2vs0mg"},{"bike_id":"239de4df-5944-4591-bf79-f145be24f6b9","system_id":"levelo_inurba_marseille","lat":43.2606,"lon":5.39395,"is_reserved":false,"is_disabled":false,"rental_uris":{"android":"levelo://app?vid=239de4df-5944-4591-bf79-f145be24f6b9","ios":"levelo://app?vid=239de4df-5944-4591-bf79-f145be24f6b9"},"vehicle_type_id":"4","last_reported":1730369401,"current_range_meters":11200,"station_id":"ce4bhh92rcd13ifvqfj0","pricing_plan_id":"cebpf4jnsgd1na2vs0mg"},{"bike_id":"c573c73f-75e4-475a-bcd6-666ce297695e","system_id":"levelo_inurba_marseille","lat":43.23179,"lon":5.39989,"is_reserved":false,"is_disabled":false,"rental_uris":{"android":"levelo://app?vid=c573c73f-75e4-475a-bcd6-666ce297695e","ios":"levelo://app?vid=c573c73f-75e4-475a-bcd6-666ce297695e"},"vehicle_type_id":"4","last_reported":1730369401,"current_range_meters":26800,"station_id":"ce4bhn12rcd13ifvqgqg","pricing_plan_id":"cebpf4jnsgd1na2vs0mg"},{"bike_id":"305a0842-32ff-4368-9f1f-853a876785fb","system_id":"levelo_inurba_marseille","lat":43.29913,"lon":5.37468,"is_reserved":false,"is_disabled":false,"rental_uris":{"android":"levelo://app?vid=305a0842-32ff-4368-9f1f-853a876785fb","ios":"levelo://app?vid=305a0842-32ff-4368-9f1f-853a876785fb"},"vehicle_type_id":"4","last_reported":1730369401,"current_range_meters":37600,"station_id":"ce4bgjh2rcd13ifvqbg0","pricing_plan_id":"cebpf4jnsgd1na2vs0mg"},{"bike_id":"a65b7600-bc14-4cb1-bd98-91e0257743b9","system_id":"levelo_inurba_marseille","lat":43.24071,"lon":5.37753,"is_reserved":false,"is_disabled":false,"rental_uris":{"android":"levelo://app?vid=a65b7600-bc14-4cb1-bd98-91e0257743b9","ios":"levelo://app?vid=a65b7600-bc14-4cb1-bd98-91e0257743b9"},"vehicle_type_id":"4","last_reported":1730369401,"current_range_meters":6800,"station_id":"ce4bhnp2rcd13ifvqgvg","pricing_plan_id":"cebpf4jnsgd1na2vs0mg"},{"bike_id":"4b3b8390-599e-4374-a644-4a4f57a51edc","system_id":"levelo_inurba_marseille","lat":43.3122,"lon":5.36852,"is_reserved":false,"is_disabled":false,"rental_uris":{"android":"levelo://app?vid=4b3b8390-599e-4374-a644-4a4f57a51edc","ios":"levelo://app?vid=4b3b8390-599e-4374-a644-4a4f57a51edc"},"vehicle_type_id":"4","last_reported":1730369401,"current_range_meters":34800,"station_id":"ce4bgl92rcd13ifvqbq0","pricing_plan_id":"cebpf4jnsgd1na2vs0mg"},{"bike_id":"b03dfabb-7f3f-4176-96ea-4ddf0a08b1e0","system_id":"levelo_inurba_marseille","lat":43.28415,"lon":5.34993,"is_reserved":false,"is_disabled":false,"rental_uris":{"android":"levelo://app?vid=b03dfabb-7f3f-4176-96ea-4ddf0a08b1e0","ios":"levelo://app?vid=b03dfabb-7f3f-4176-96ea-4ddf0a08b1e0"},"vehicle_type_id":"4","last_reported":1730369401,"current_range_meters":38800,"station_id":"ce4bhbh2rcd13ifvqepg","pricing_plan_id":"cebpf4jnsgd1na2vs0mg"},{"bike_id":"1549777b-33eb-4a32-9567-d6c31d0710f5","system_id":"levelo_inurba_marseille","lat":43.3248,"lon":5.36572,"is_reserved":false,"is_disabled":false,"rental_uris":{"android":"levelo://app?vid=1549777b-33eb-4a32-9567-d6c31d0710f5","ios":"levelo://app?vid=1549777b-33eb-4a32-9567-d6c31d0710f5"},"vehicle_type_id":"4","last_reported":1730369401,"current_range_meters":36400,"station_id":"ce4bhs12rcd13ifvqhvg","pricing_plan_id":"cebpf4jnsgd1na2vs0mg"},{"bike_id":"60b71c7c-4918-47ba-8287-329d23746782","system_id":"levelo_inurba_marseille","lat":43.29897,"lon":5.43665,"is_reserved":false,"is_disabled":false,"rental_uris":{"android":"levelo://app?vid=60b71c7c-4918-47ba-8287-329d23746782","ios":"levelo://app?vid=60b71c7c-4918-47ba-8287-329d23746782"},"vehicle_type_id":"4","last_reported":1730369401,"current_range_meters":38000,"station_id":"ce4bhpp2rcd13ifvqhfg","pricing_plan_id":"cebpf4jnsgd1na2vs0mg"},{"bike_id":"69b6d9a0-2d6e-4f1e-9bfe-50a3a9c501ed","system_id":"levelo_inurba_marseille","lat":43.30152,"lon":5.38083,"is_reserved":false,"is_disabled":false,"rental_uris":{"android":"levelo://app?vid=69b6d9a0-2d6e-4f1e-9bfe-50a3a9c501ed","ios":"levelo://app?vid=69b6d9a0-2d6e-4f1e-9bfe-50a3a9c501ed"},"vehicle_type_id":"4","last_reported":1730369401,"current_range_meters":14800,"station_id":"ce4bgjp2rcd13ifvqbh0","pricing_plan_id":"cebpf4jnsgd1na2vs0mg"},{"bike_id":"7402b7e8-b1f4-4735-bca8-18b131717534","system_id":"levelo_inurba_marseille","lat":43.24388,"lon":5.3705,"is_reserved":false,"is_disabled":false,"rental_uris":{"android":"levelo://app?vid=7402b7e8-b1f4-4735-bca8-18b131717534","ios":"levelo://app?vid=7402b7e8-b1f4-4735-bca8-18b131717534"},"vehicle_type_id":"4","last_reported":1730369401,"current_range_meters":38800,"station_id":"ce4bhhh2rcd13ifvqfk0","pricing_plan_id":"cebpf4jnsgd1na2vs0mg"},{"bike_id":"546030c5-9942-4ee1-9987-77a5127f7fbe","system_id":"levelo_inurba_marseille","lat":43.30153,"lon":5.38084,"is_reserved":false,"is_disabled":false,"rental_uris":{"android":"levelo://app?vid=546030c5-9942-4ee1-9987-77a5127f7fbe","ios":"levelo://app?vid=546030c5-9942-4ee1-9987-77a5127f7fbe"},"vehicle_type_id":"4","last_reported":1730369401,"current_range_meters":35600,"station_id":"ce4bgjp2rcd13ifvqbh0","pricing_plan_id":"cebpf4jnsgd1na2vs0mg"},{"bike_id":"daec6da6-cdfc-4cb0-bbfb-bb8e7eac09f5","system_id":"levelo_inurba_marseille","lat":43.29271,"lon":5.36848,"is_reserved":false,"is_disabled":false,"rental_uris":{"android":"levelo://app?vid=daec6da6-cdfc-4cb0-bbfb-bb8e7eac09f5","ios":"levelo://app?vid=daec6da6-cdfc-4cb0-bbfb-bb8e7eac09f5"},"vehicle_type_id":"4","last_reported":1730369401,"current_range_meters":37600,"station_id":"ce4bhbp2rcd13ifvqesg","pricing_plan_id":"cebpf4jnsgd1na2vs0mg"},{"bike_id":"8a523d98-34ea-4f7f-a23c-4ba0ac65a338","system_id":"levelo_inurba_marseille","lat":43.26031,"lon":5.37549,"is_reserved":false,"is_disabled":false,"rental_uris":{"android":"levelo://app?vid=8a523d98-34ea-4f7f-a23c-4ba0ac65a338","ios":"levelo://app?vid=8a523d98-34ea-4f7f-a23c-4ba0ac65a338"},"vehicle_type_id":"4","last_reported":1730369401,"current_range_meters":38800,"station_id":"ce4bhgh2rcd13ifvqfa0","pricing_plan_id":"cebpf4jnsgd1na2vs0mg"},{"bike_id":"2cd01894-657c-4775-8566-ccc6528ff27c","system_id":"levelo_inurba_marseille","lat":43.30187,"lon":5.36619,"is_reserved":false,"is_disabled":false,"rental_uris":{"android":"levelo://app?vid=2cd01894-657c-4775-8566-ccc6528ff27c","ios":"levelo://app?vid=2cd01894-657c-4775-8566-ccc6528ff27c"},"vehicle_type_id":"4","last_reported":1730369401,"current_range_meters":36400,"station_id":"ce4bgrh2rcd13ifvqc8g","pricing_plan_id":"cebpf4jnsgd1na2vs0mg"},{"bike_id":"597ae939-1c96-4a94-8fd0-4af1997ab575","system_id":"levelo_inurba_marseille","lat":43.29162,"lon":5.37151,"is_reserved":false,"is_disabled":false,"rental_uris":{"android":"levelo://app?vid=597ae939-1c96-4a94-8fd0-4af1997ab575","ios":"levelo://app?vid=597ae939-1c96-4a94-8fd0-4af1997ab575"},"vehicle_type_id":"4","last_reported":1730369401,"current_range_meters":32400,"station_id":"ce4bha92rcd13ifvqeh0","pricing_plan_id":"cebpf4jnsgd1na2vs0mg"},{"bike_id":"7d1fe817-f784-45b3-a7f6-2e79abcfa29c","system_id":"levelo_inurba_marseille","lat":43.337444,"lon":5.374475,"is_reserved":false,"is_disabled":false,"rental_uris":{"android":"levelo://app?vid=7d1fe817-f784-45b3-a7f6-2e79abcfa29c","ios":"levelo://app?vid=7d1fe817-f784-45b3-a7f6-2e79abcfa29c"},"vehicle_type_id":"4","last_reported":1730369401,"current_range_meters":35200,"station_id":"","pricing_plan_id":"cebpf4jnsgd1na2vs0mg"},{"bike_id":"e097a33c-2c22-46ab-8ca7-78ef23f95842","system_id":"levelo_inurba_marseille","lat":43.30541,"lon":5.36536,"is_reserved":false,"is_disabled":false,"rental_uris":{"android":"levelo://app?vid=e097a33c-2c22-46ab-8ca7-78ef23f95842","ios":"levelo://app?vid=e097a33c-2c22-46ab-8ca7-78ef23f95842"},"vehicle_type_id":"4","last_reported":1730369401,"current_range_meters":17200,"station_id":"ce4bgs12rcd13ifvqcag","pricing_plan_id":"cebpf4jnsgd1na2vs0mg"},{"bike_id":"08ba50c3-81a1-4d15-82a7-6270ff82d193","system_id":"levelo_inurba_marseille","lat":43.30139,"lon":5.37424,"is_reserved":false,"is_disabled":false,"rental_uris":{"android":"levelo://app?vid=08ba50c3-81a1-4d15-82a7-6270ff82d193","ios":"levelo://app?vid=08ba50c3-81a1-4d15-82a7-6270ff82d193"},"vehicle_type_id":"4","last_reported":1730369401,"current_range_meters":18800,"station_id":"ce4bgs92rcd13ifvqcc0","pricing_plan_id":"cebpf4jnsgd1na2vs0mg"},{"bike_id":"ad6a2585-e96c-4aac-b806-a334b9c62dde","system_id":"levelo_inurba_marseille","lat":43.24182,"lon":5.39727,"is_reserved":false,"is_disabled":false,"rental_uris":{"android":"levelo://app?vid=ad6a2585-e96c-4aac-b806-a334b9c62dde","ios":"levelo://app?vid=ad6a2585-e96c-4aac-b806-a334b9c62dde"},"vehicle_type_id":"4","last_reported":1730369401,"current_range_meters":27200,"station_id":"ce4bhn12rcd13ifvqgpg","pricing_plan_id":"cebpf4jnsgd1na2vs0mg"},{"bike_id":"e3896b31-511a-4702-91a3-f18fd3340276","system_id":"levelo_inurba_marseille","lat":43.308847,"lon":5.371917,"is_reserved":false,"is_disabled":false,"rental_uris":{"android":"levelo://app?vid=e3896b31-511a-4702-91a3-f18fd3340276","ios":"levelo://app?vid=e3896b31-511a-4702-91a3-f18fd3340276"},"vehicle_type_id":"4","last_reported":1730369401,"current_range_meters":27600,"station_id":"ce4bgt92rcd13ifvqcf0","pricing_plan_id":"cebpf4jnsgd1na2vs0mg"},{"bike_id":"b3e84e22-b395-433b-84b2-d02cfc585d45","system_id":"levelo_inurba_marseille","lat":43.30285,"lon":5.37707,"is_reserved":false,"is_disabled":false,"rental_uris":{"android":"levelo://app?vid=b3e84e22-b395-433b-84b2-d02cfc585d45","ios":"levelo://app?vid=b3e84e22-b395-433b-84b2-d02cfc585d45"},"vehicle_type_id":"4","last_reported":1730369401,"current_range_meters":32000,"station_id":"ce4bguh2rcd13ifvqcj0","pricing_plan_id":"cebpf4jnsgd1na2vs0mg"},{"bike_id":"f20bb080-86fd-4279-a428-d955bc912fe9","system_id":"levelo_inurba_marseille","lat":43.30554,"lon":5.36537,"is_reserved":false,"is_disabled":false,"rental_uris":{"android":"levelo://app?vid=f20bb080-86fd-4279-a428-d955bc912fe9","ios":"levelo://app?vid=f20bb080-86fd-4279-a428-d955bc912fe9"},"vehicle_type_id":"4","last_reported":1730369401,"current_range_meters":37600,"station_id":"ce4bgs12rcd13ifvqcag","pricing_plan_id":"cebpf4jnsgd1na2vs0mg"},{"bike_id":"d1ae74ff-dfaa-4543-bed7-6a72c63d998e","system_id":"levelo_inurba_marseille","lat":43.29562,"lon":5.39967,"is_reserved":false,"is_disabled":false,"rental_uris":{"android":"levelo://app?vid=d1ae74ff-dfaa-4543-bed7-6a72c63d998e","ios":"levelo://app?vid=d1ae74ff-dfaa-4543-bed7-6a72c63d998e"},"vehicle_type_id":"4","last_reported":1730369401,"current_range_meters":36800,"station_id":"ce4bh312rcd13ifvqdj0","pricing_plan_id":"cebpf4jnsgd1na2vs0mg"},{"bike_id":"3c81b4ce-377f-4942-a0d6-17487e78f2f2","system_id":"levelo_inurba_marseille","lat":43.25933,"lon":5.4091,"is_reserved":false,"is_disabled":false,"rental_uris":{"android":"levelo://app?vid=3c81b4ce-377f-4942-a0d6-17487e78f2f2","ios":"levelo://app?vid=3c81b4ce-377f-4942-a0d6-17487e78f2f2"},"vehicle_type_id":"4","last_reported":1730369401,"current_range_meters":33200,"station_id":"ce4bhm92rcd13ifvqglg","pricing_plan_id":"cebpf4jnsgd1na2vs0mg"},{"bike_id":"aaa8b62a-3656-4eef-9a64-906d7468eb6f","system_id":"levelo_inurba_marseille","lat":43.30297,"lon":5.40138,"is_reserved":false,"is_disabled":false,"rental_uris":{"android":"levelo://app?vid=aaa8b62a-3656-4eef-9a64-906d7468eb6f","ios":"levelo://app?vid=aaa8b62a-3656-4eef-9a64-906d7468eb6f"},"vehicle_type_id":"4","last_reported":1730369401,"current_range_meters":37600,"station_id":"","pricing_plan_id":"cebpf4jnsgd1na2vs0mg"},{"bike_id":"92adf987-4779-4b78-ad9c-8e29ab9175f3","system_id":"levelo_inurba_marseille","lat":43.23199,"lon":5.35556,"is_reserved":false,"is_disabled":false,"rental_uris":{"android":"levelo://app?vid=92adf987-4779-4b78-ad9c-8e29ab9175f3","ios":"levelo://app?vid=92adf987-4779-4b78-ad9c-8e29ab9175f3"},"vehicle_type_id":"4","last_reported":1730369401,"current_range_meters":8000,"station_id":"ce4bhu92rcd13ifvqi70","pricing_plan_id":"cebpf4jnsgd1na2vs0mg"},{"bike_id":"0d9e2dc0-7e48-44a4-9d02-16fb20798af5","system_id":"levelo_inurba_marseille","lat":43.23179,"lon":5.39984,"is_reserved":false,"is_disabled":false,"rental_uris":{"android":"levelo://app?vid=0d9e2dc0-7e48-44a4-9d02-16fb20798af5","ios":"levelo://app?vid=0d9e2dc0-7e48-44a4-9d02-16fb20798af5"},"vehicle_type_id":"4","last_reported":1730369401,"current_range_meters":39200,"station_id":"ce4bhn12rcd13ifvqgqg","pricing_plan_id":"cebpf4jnsgd1na2vs0mg"},{"bike_id":"f0c8b827-da2e-4c7c-b8e9-8081eddeb651","system_id":"levelo_inurba_marseille","lat":43.299301,"lon":5.374817,"is_reserved":false,"is_disabled":false,"rental_uris":{"android":"levelo://app?vid=f0c8b827-da2e-4c7c-b8e9-8081eddeb651","ios":"levelo://app?vid=f0c8b827-da2e-4c7c-b8e9-8081eddeb651"},"vehicle_type_id":"4","last_reported":1730369401,"current_range_meters":17600,"station_id":"ce4bgjh2rcd13ifvqbg0","pricing_plan_id":"cebpf4jnsgd1na2vs0mg"},{"bike_id":"9f042e0b-8652-41ee-be72-8ab31429bfe2","system_id":"levelo_inurba_marseille","lat":43.26553,"lon":5.37285,"is_reserved":false,"is_disabled":false,"rental_uris":{"android":"levelo://app?vid=9f042e0b-8652-41ee-be72-8ab31429bfe2","ios":"levelo://app?vid=9f042e0b-8652-41ee-be72-8ab31429bfe2"},"vehicle_type_id":"4","last_reported":1730369401,"current_range_meters":28000,"station_id":"ce4bhg12rcd13ifvqf70","pricing_plan_id":"cebpf4jnsgd1na2vs0mg"},{"bike_id":"09cb6800-2f3b-4d5b-bb19-9286a8569287","system_id":"levelo_inurba_marseille","lat":43.29786,"lon":5.37092,"is_reserved":false,"is_disabled":false,"rental_uris":{"android":"levelo://app?vid=09cb6800-2f3b-4d5b-bb19-9286a8569287","ios":"levelo://app?vid=09cb6800-2f3b-4d5b-bb19-9286a8569287"},"vehicle_type_id":"4","last_reported":1730369401,"current_range_meters":34000,"station_id":"ce4bgop2rcd13ifvqc1g","pricing_plan_id":"cebpf4jnsgd1na2vs0mg"},{"bike_id":"35cebd0a-cd61-45ce-9358-d1994a502989","system_id":"levelo_inurba_marseille","lat":43.29567,"lon":5.37524,"is_reserved":false,"is_disabled":false,"rental_uris":{"android":"levelo://app?vid=35cebd0a-cd61-45ce-9358-d1994a502989","ios":"levelo://app?vid=35cebd0a-cd61-45ce-9358-d1994a502989"},"vehicle_type_id":"4","last_reported":1730369401,"current_range_meters":8400,"station_id":"ce4bgh92rcd13ifvqb50","pricing_plan_id":"cebpf4jnsgd1na2vs0mg"},{"bike_id":"7dfaf496-2e50-463a-a103-b8570a0c6a9a","system_id":"levelo_inurba_marseille","lat":43.24389,"lon":5.37053,"is_reserved":false,"is_disabled":false,"rental_uris":{"android":"levelo://app?vid=7dfaf496-2e50-463a-a103-b8570a0c6a9a","ios":"levelo://app?vid=7dfaf496-2e50-463a-a103-b8570a0c6a9a"},"vehicle_type_id":"4","last_reported":1730369401,"current_range_meters":38800,"station_id":"ce4bhhh2rcd13ifvqfk0","pricing_plan_id":"cebpf4jnsgd1na2vs0mg"},{"bike_id":"3c1b5a29-9f17-44cd-b9ab-f79af226251c","system_id":"levelo_inurba_marseille","lat":43.3095,"lon":5.39045,"is_reserved":false,"is_disabled":false,"rental_uris":{"android":"levelo://app?vid=3c1b5a29-9f17-44cd-b9ab-f79af226251c","ios":"levelo://app?vid=3c1b5a29-9f17-44cd-b9ab-f79af226251c"},"vehicle_type_id":"4","last_reported":1730369401,"current_range_meters":31200,"station_id":"ce4bgup2rcd13ifvqco0","pricing_plan_id":"cebpf4jnsgd1na2vs0mg"},{"bike_id":"2450a297-62b4-4562-83ce-bf03dfb948b2","system_id":"levelo_inurba_marseille","lat":43.2318,"lon":5.39986,"is_reserved":false,"is_disabled":false,"rental_uris":{"android":"levelo://app?vid=2450a297-62b4-4562-83ce-bf03dfb948b2","ios":"levelo://app?vid=2450a297-62b4-4562-83ce-bf03dfb948b2"},"vehicle_type_id":"4","last_reported":1730369401,"current_range_meters":22000,"station_id":"ce4bhn12rcd13ifvqgqg","pricing_plan_id":"cebpf4jnsgd1na2vs0mg"},{"bike_id":"d67c2a8c-5175-4ec6-a54b-8e643d3e99bf","system_id":"levelo_inurba_marseille","lat":43.27495,"lon":5.42451,"is_reserved":false,"is_disabled":false,"rental_uris":{"android":"levelo://app?vid=d67c2a8c-5175-4ec6-a54b-8e643d3e99bf","ios":"levelo://app?vid=d67c2a8c-5175-4ec6-a54b-8e643d3e99bf"},"vehicle_type_id":"4","last_reported":1730369401,"current_range_meters":38000,"station_id":"ce4bhn92rcd13ifvqgrg","pricing_plan_id":"cebpf4jnsgd1na2vs0mg"},{"bike_id":"d7942a3b-3343-4d74-8486-96d611964df3","system_id":"levelo_inurba_marseille","lat":43.28671,"lon":5.3866,"is_reserved":false,"is_disabled":false,"rental_uris":{"android":"levelo://app?vid=d7942a3b-3343-4d74-8486-96d611964df3","ios":"levelo://app?vid=d7942a3b-3343-4d74-8486-96d611964df3"},"vehicle_type_id":"4","last_reported":1730369401,"current_range_meters":31200,"station_id":"ce4bh492rcd13ifvqdug","pricing_plan_id":"cebpf4jnsgd1na2vs0mg"},{"bike_id":"6eb7bd44-f33d-4e96-95f4-f3994a575e68","system_id":"levelo_inurba_marseille","lat":43.27176,"lon":5.40992,"is_reserved":false,"is_disabled":false,"rental_uris":{"android":"levelo://app?vid=6eb7bd44-f33d-4e96-95f4-f3994a575e68","ios":"levelo://app?vid=6eb7bd44-f33d-4e96-95f4-f3994a575e68"},"vehicle_type_id":"4","last_reported":1730369401,"current_range_meters":7200,"station_id":"ce4bhl12rcd13ifvqgf0","pricing_plan_id":"cebpf4jnsgd1na2vs0mg"},{"bike_id":"ea167c01-6113-4dc8-be0a-0b280cd8055a","system_id":"levelo_inurba_marseille","lat":43.239567,"lon":5.366238,"is_reserved":false,"is_disabled":false,"rental_uris":{"android":"levelo://app?vid=ea167c01-6113-4dc8-be0a-0b280cd8055a","ios":"levelo://app?vid=ea167c01-6113-4dc8-be0a-0b280cd8055a"},"vehicle_type_id":"4","last_reported":1730369401,"current_range_meters":12800,"station_id":"ce4bhi12rcd13ifvqfp0","pricing_plan_id":"cebpf4jnsgd1na2vs0mg"},{"bike_id":"370beb51-ec24-445d-954e-efc696135ba0","system_id":"levelo_inurba_marseille","lat":43.28447,"lon":5.3918,"is_reserved":false,"is_disabled":false,"rental_uris":{"android":"levelo://app?vid=370beb51-ec24-445d-954e-efc696135ba0","ios":"levelo://app?vid=370beb51-ec24-445d-954e-efc696135ba0"},"vehicle_type_id":"4","last_reported":1730369401,"current_range_meters":38800,"station_id":"ce4bhoh2rcd13ifvqh5g","pricing_plan_id":"cebpf4jnsgd1na2vs0mg"},{"bike_id":"fe983d81-dea4-4557-aa86-1c1d45fef8be","system_id":"levelo_inurba_marseille","lat":43.29516,"lon":5.39044,"is_reserved":false,"is_disabled":false,"rental_uris":{"android":"levelo://app?vid=fe983d81-dea4-4557-aa86-1c1d45fef8be","ios":"levelo://app?vid=fe983d81-dea4-4557-aa86-1c1d45fef8be"},"vehicle_type_id":"4","last_reported":1730369401,"current_range_meters":8400,"station_id":"ce4bh3p2rcd13ifvqdp0","pricing_plan_id":"cebpf4jnsgd1na2vs0mg"},{"bike_id":"08357609-d88b-42bb-b8b9-5fb931a14263","system_id":"levelo_inurba_marseille","lat":43.29724,"lon":5.37689,"is_reserved":false,"is_disabled":false,"rental_uris":{"android":"levelo://app?vid=08357609-d88b-42bb-b8b9-5fb931a14263","ios":"levelo://app?vid=08357609-d88b-42bb-b8b9-5fb931a14263"},"vehicle_type_id":"4","last_reported":1730369401,"current_range_meters":14000,"station_id":"ce4bgkh2rcd13ifvqbl0","pricing_plan_id":"cebpf4jnsgd1na2vs0mg"},{"bike_id":"c9a49a0a-1d50-453b-833d-4f68ee000596","system_id":"levelo_inurba_marseille","lat":43.26951,"lon":5.38639,"is_reserved":false,"is_disabled":false,"rental_uris":{"android":"levelo://app?vid=c9a49a0a-1d50-453b-833d-4f68ee000596","ios":"levelo://app?vid=c9a49a0a-1d50-453b-833d-4f68ee000596"},"vehicle_type_id":"4","last_reported":1730369401,"current_range_meters":17200,"station_id":"ce4bhh92rcd13ifvqfh0","pricing_plan_id":"cebpf4jnsgd1na2vs0mg"},{"bike_id":"6a6508a8-9f6b-4810-96a4-0ad7e19de049","system_id":"levelo_inurba_marseille","lat":43.30135,"lon":5.38791,"is_reserved":false,"is_disabled":false,"rental_uris":{"android":"levelo://app?vid=6a6508a8-9f6b-4810-96a4-0ad7e19de049","ios":"levelo://app?vid=6a6508a8-9f6b-4810-96a4-0ad7e19de049"},"vehicle_type_id":"4","last_reported":1730369401,"current_range_meters":37600,"station_id":"ce4bghh2rcd13ifvqb60","pricing_plan_id":"cebpf4jnsgd1na2vs0mg"},{"bike_id":"97b1a719-1e6a-442e-a4bd-801322ade75b","system_id":"levelo_inurba_marseille","lat":43.2861,"lon":5.3706,"is_reserved":false,"is_disabled":false,"rental_uris":{"android":"levelo://app?vid=97b1a719-1e6a-442e-a4bd-801322ade75b","ios":"levelo://app?vid=97b1a719-1e6a-442e-a4bd-801322ade75b"},"vehicle_type_id":"4","last_reported":1730369401,"current_range_meters":34000,"station_id":"ce4bht12rcd13ifvqi60","pricing_plan_id":"cebpf4jnsgd1na2vs0mg"},{"bike_id":"445e0ce5-1fdb-4610-bc06-c008f7f4d244","system_id":"levelo_inurba_marseille","lat":43.27973,"lon":5.38747,"is_reserved":false,"is_disabled":false,"rental_uris":{"android":"levelo://app?vid=445e0ce5-1fdb-4610-bc06-c008f7f4d244","ios":"levelo://app?vid=445e0ce5-1fdb-4610-bc06-c008f7f4d244"},"vehicle_type_id":"4","last_reported":1730369401,"current_range_meters":12400,"station_id":"ce4bhg12rcd13ifvqf80","pricing_plan_id":"cebpf4jnsgd1na2vs0mg"},{"bike_id":"cc6217b1-a54f-4c01-b0f8-1ae9e75a5121","system_id":"levelo_inurba_marseille","lat":43.29783,"lon":5.37083,"is_reserved":false,"is_disabled":false,"rental_uris":{"android":"levelo://app?vid=cc6217b1-a54f-4c01-b0f8-1ae9e75a5121","ios":"levelo://app?vid=cc6217b1-a54f-4c01-b0f8-1ae9e75a5121"},"vehicle_type_id":"4","last_reported":1730369401,"current_range_meters":38400,"station_id":"ce4bgop2rcd13ifvqc1g","pricing_plan_id":"cebpf4jnsgd1na2vs0mg"},{"bike_id":"2370a04e-d358-4a29-b67a-890bf50b34fd","system_id":"levelo_inurba_marseille","lat":43.24168,"lon":5.364,"is_reserved":false,"is_disabled":false,"rental_uris":{"android":"levelo://app?vid=2370a04e-d358-4a29-b67a-890bf50b34fd","ios":"levelo://app?vid=2370a04e-d358-4a29-b67a-890bf50b34fd"},"vehicle_type_id":"4","last_reported":1730369401,"current_range_meters":37600,"station_id":"cpo36qri1sfpv3e86is0","pricing_plan_id":"cebpf4jnsgd1na2vs0mg"},{"bike_id":"29f61283-c63b-4d9d-a269-c9f516e858ce","system_id":"levelo_inurba_marseille","lat":43.305502,"lon":5.365549,"is_reserved":false,"is_disabled":false,"rental_uris":{"android":"levelo://app?vid=29f61283-c63b-4d9d-a269-c9f516e858ce","ios":"levelo://app?vid=29f61283-c63b-4d9d-a269-c9f516e858ce"},"vehicle_type_id":"4","last_reported":1730369401,"current_range_meters":36800,"station_id":"ce4bgs12rcd13ifvqcag","pricing_plan_id":"cebpf4jnsgd1na2vs0mg"},{"bike_id":"8e79a643-0afb-4892-a1e8-cb69eb742790","system_id":"levelo_inurba_marseille","lat":43.30538,"lon":5.36711,"is_reserved":false,"is_disabled":false,"rental_uris":{"android":"levelo://app?vid=8e79a643-0afb-4892-a1e8-cb69eb742790","ios":"levelo://app?vid=8e79a643-0afb-4892-a1e8-cb69eb742790"},"vehicle_type_id":"4","last_reported":1730369401,"current_range_meters":3200,"station_id":"ce4bgrp2rcd13ifvqc9g","pricing_plan_id":"cebpf4jnsgd1na2vs0mg"},{"bike_id":"6cfc4f8d-c411-4439-b454-6734fe7d88c3","system_id":"levelo_inurba_marseille","lat":43.33022,"lon":5.39041,"is_reserved":false,"is_disabled":false,"rental_uris":{"android":"levelo://app?vid=6cfc4f8d-c411-4439-b454-6734fe7d88c3","ios":"levelo://app?vid=6cfc4f8d-c411-4439-b454-6734fe7d88c3"},"vehicle_type_id":"4","last_reported":1730369401,"current_range_meters":29600,"station_id":"ce4bhr92rcd13ifvqhrg","pricing_plan_id":"cebpf4jnsgd1na2vs0mg"},{"bike_id":"bf1d19a4-58ad-4f68-b017-21e1ff2f04b2","system_id":"levelo_inurba_marseille","lat":43.2603,"lon":5.37548,"is_reserved":false,"is_disabled":false,"rental_uris":{"android":"levelo://app?vid=bf1d19a4-58ad-4f68-b017-21e1ff2f04b2","ios":"levelo://app?vid=bf1d19a4-58ad-4f68-b017-21e1ff2f04b2"},"vehicle_type_id":"4","last_reported":1730369401,"current_range_meters":36800,"station_id":"ce4bhgh2rcd13ifvqfa0","pricing_plan_id":"cebpf4jnsgd1na2vs0mg"},{"bike_id":"dae91eeb-9b42-4212-8f6c-fb2f4dbc955a","system_id":"levelo_inurba_marseille","lat":43.30536,"lon":5.36531,"is_reserved":false,"is_disabled":false,"rental_uris":{"android":"levelo://app?vid=dae91eeb-9b42-4212-8f6c-fb2f4dbc955a","ios":"levelo://app?vid=dae91eeb-9b42-4212-8f6c-fb2f4dbc955a"},"vehicle_type_id":"4","last_reported":1730369401,"current_range_meters":30400,"station_id":"ce4bgs12rcd13ifvqcag","pricing_plan_id":"cebpf4jnsgd1na2vs0mg"},{"bike_id":"0847a2c2-75e6-46a8-bad8-a5fd3268569c","system_id":"levelo_inurba_marseille","lat":43.30541,"lon":5.36543,"is_reserved":false,"is_disabled":false,"rental_uris":{"android":"levelo://app?vid=0847a2c2-75e6-46a8-bad8-a5fd3268569c","ios":"levelo://app?vid=0847a2c2-75e6-46a8-bad8-a5fd3268569c"},"vehicle_type_id":"4","last_reported":1730369401,"current_range_meters":33200,"station_id":"ce4bgs12rcd13ifvqcag","pricing_plan_id":"cebpf4jnsgd1na2vs0mg"},{"bike_id":"68d70b7d-ad7d-4f85-bf3d-e60a9bdb5234","system_id":"levelo_inurba_marseille","lat":43.23151,"lon":5.43706,"is_reserved":false,"is_disabled":false,"rental_uris":{"android":"levelo://app?vid=68d70b7d-ad7d-4f85-bf3d-e60a9bdb5234","ios":"levelo://app?vid=68d70b7d-ad7d-4f85-bf3d-e60a9bdb5234"},"vehicle_type_id":"4","last_reported":1730369401,"current_range_meters":12000,"station_id":"ce4bhmp2rcd13ifvqgog","pricing_plan_id":"cebpf4jnsgd1na2vs0mg"},{"bike_id":"2074bf2c-abe6-416b-8ac6-0453ab94f8bf","system_id":"levelo_inurba_marseille","lat":43.30536,"lon":5.36536,"is_reserved":false,"is_disabled":false,"rental_uris":{"android":"levelo://app?vid=2074bf2c-abe6-416b-8ac6-0453ab94f8bf","ios":"levelo://app?vid=2074bf2c-abe6-416b-8ac6-0453ab94f8bf"},"vehicle_type_id":"4","last_reported":1730369401,"current_range_meters":34000,"station_id":"ce4bgs12rcd13ifvqcag","pricing_plan_id":"cebpf4jnsgd1na2vs0mg"},{"bike_id":"380d2b31-9e65-4f84-81b9-0f2a526c9882","system_id":"levelo_inurba_marseille","lat":43.30158,"lon":5.38079,"is_reserved":false,"is_disabled":false,"rental_uris":{"android":"levelo://app?vid=380d2b31-9e65-4f84-81b9-0f2a526c9882","ios":"levelo://app?vid=380d2b31-9e65-4f84-81b9-0f2a526c9882"},"vehicle_type_id":"4","last_reported":1730369401,"current_range_meters":38400,"station_id":"ce4bgjp2rcd13ifvqbh0","pricing_plan_id":"cebpf4jnsgd1na2vs0mg"},{"bike_id":"8f187250-044c-4a41-90ea-c9ecea0b6581","system_id":"levelo_inurba_marseille","lat":43.26942,"lon":5.40247,"is_reserved":false,"is_disabled":false,"rental_uris":{"android":"levelo://app?vid=8f187250-044c-4a41-90ea-c9ecea0b6581","ios":"levelo://app?vid=8f187250-044c-4a41-90ea-c9ecea0b6581"},"vehicle_type_id":"4","last_reported":1730369401,"current_range_meters":10000,"station_id":"cjm6bp8fraef2m0cb0m0","pricing_plan_id":"cebpf4jnsgd1na2vs0mg"},{"bike_id":"36b17234-da14-45f3-9b84-c51c36b6222f","system_id":"levelo_inurba_marseille","lat":43.29309,"lon":5.37182,"is_reserved":false,"is_disabled":false,"rental_uris":{"android":"levelo://app?vid=36b17234-da14-45f3-9b84-c51c36b6222f","ios":"levelo://app?vid=36b17234-da14-45f3-9b84-c51c36b6222f"},"vehicle_type_id":"4","last_reported":1730369401,"current_range_meters":22400,"station_id":"ce4bgh92rcd13ifvqb40","pricing_plan_id":"cebpf4jnsgd1na2vs0mg"},{"bike_id":"ea82374c-b9ef-4cda-a3d7-0025b458499d","system_id":"levelo_inurba_marseille","lat":43.27883,"lon":5.38004,"is_reserved":false,"is_disabled":false,"rental_uris":{"android":"levelo://app?vid=ea82374c-b9ef-4cda-a3d7-0025b458499d","ios":"levelo://app?vid=ea82374c-b9ef-4cda-a3d7-0025b458499d"},"vehicle_type_id":"4","last_reported":1730369401,"current_range_meters":30400,"station_id":"ce4bhf92rcd13ifvqf50","pricing_plan_id":"cebpf4jnsgd1na2vs0mg"},{"bike_id":"5266335c-fb51-4166-a0ab-8099a4c09e4b","system_id":"levelo_inurba_marseille","lat":43.32282,"lon":5.38292,"is_reserved":false,"is_disabled":false,"rental_uris":{"android":"levelo://app?vid=5266335c-fb51-4166-a0ab-8099a4c09e4b","ios":"levelo://app?vid=5266335c-fb51-4166-a0ab-8099a4c09e4b"},"vehicle_type_id":"4","last_reported":1730369401,"current_range_meters":38000,"station_id":"ce4bhr12rcd13ifvqhqg","pricing_plan_id":"cebpf4jnsgd1na2vs0mg"},{"bike_id":"b749bffa-7016-4f52-b1c1-550111d2cb6f","system_id":"levelo_inurba_marseille","lat":43.285552,"lon":5.38503,"is_reserved":false,"is_disabled":false,"rental_uris":{"android":"levelo://app?vid=b749bffa-7016-4f52-b1c1-550111d2cb6f","ios":"levelo://app?vid=b749bffa-7016-4f52-b1c1-550111d2cb6f"},"vehicle_type_id":"4","last_reported":1730369401,"current_range_meters":20000,"station_id":"ce4bh8p2rcd13ifvqeb0","pricing_plan_id":"cebpf4jnsgd1na2vs0mg"},{"bike_id":"ff3bcf76-bdf2-4e2a-ac35-d044e097e73b","system_id":"levelo_inurba_marseille","lat":43.30526,"lon":5.3671,"is_reserved":false,"is_disabled":false,"rental_uris":{"android":"levelo://app?vid=ff3bcf76-bdf2-4e2a-ac35-d044e097e73b","ios":"levelo://app?vid=ff3bcf76-bdf2-4e2a-ac35-d044e097e73b"},"vehicle_type_id":"4","last_reported":1730369401,"current_range_meters":34000,"station_id":"ce4bgrp2rcd13ifvqc9g","pricing_plan_id":"cebpf4jnsgd1na2vs0mg"},{"bike_id":"8547d5b8-6846-4db8-a0d1-41af48fdc868","system_id":"levelo_inurba_marseille","lat":43.26954,"lon":5.38631,"is_reserved":false,"is_disabled":false,"rental_uris":{"android":"levelo://app?vid=8547d5b8-6846-4db8-a0d1-41af48fdc868","ios":"levelo://app?vid=8547d5b8-6846-4db8-a0d1-41af48fdc868"},"vehicle_type_id":"4","last_reported":1730369401,"current_range_meters":37600,"station_id":"ce4bhh92rcd13ifvqfh0","pricing_plan_id":"cebpf4jnsgd1na2vs0mg"},{"bike_id":"0ec57fad-bd3e-4aa3-b0ee-5b01d21c57d0","system_id":"levelo_inurba_marseille","lat":43.27993,"lon":5.38755,"is_reserved":false,"is_disabled":false,"rental_uris":{"android":"levelo://app?vid=0ec57fad-bd3e-4aa3-b0ee-5b01d21c57d0","ios":"levelo://app?vid=0ec57fad-bd3e-4aa3-b0ee-5b01d21c57d0"},"vehicle_type_id":"4","last_reported":1730369401,"current_range_meters":31200,"station_id":"ce4bhg12rcd13ifvqf80","pricing_plan_id":"cebpf4jnsgd1na2vs0mg"},{"bike_id":"5c8a3d27-90bf-489f-9d69-22f7a10082dd","system_id":"levelo_inurba_marseille","lat":43.32471,"lon":5.36579,"is_reserved":false,"is_disabled":false,"rental_uris":{"android":"levelo://app?vid=5c8a3d27-90bf-489f-9d69-22f7a10082dd","ios":"levelo://app?vid=5c8a3d27-90bf-489f-9d69-22f7a10082dd"},"vehicle_type_id":"4","last_reported":1730369401,"current_range_meters":36400,"station_id":"ce4bhs12rcd13ifvqhvg","pricing_plan_id":"cebpf4jnsgd1na2vs0mg"},{"bike_id":"f13da5c6-fe3d-40a5-ae0b-3d1c747e437a","system_id":"levelo_inurba_marseille","lat":43.29553,"lon":5.4228,"is_reserved":false,"is_disabled":false,"rental_uris":{"android":"levelo://app?vid=f13da5c6-fe3d-40a5-ae0b-3d1c747e437a","ios":"levelo://app?vid=f13da5c6-fe3d-40a5-ae0b-3d1c747e437a"},"vehicle_type_id":"4","last_reported":1730369401,"current_range_meters":38400,"station_id":"ce4bhph2rcd13ifvqhdg","pricing_plan_id":"cebpf4jnsgd1na2vs0mg"},{"bike_id":"913b332b-9951-4459-b5ef-0562707b71a1","system_id":"levelo_inurba_marseille","lat":43.31689,"lon":5.40454,"is_reserved":false,"is_disabled":false,"rental_uris":{"android":"levelo://app?vid=913b332b-9951-4459-b5ef-0562707b71a1","ios":"levelo://app?vid=913b332b-9951-4459-b5ef-0562707b71a1"},"vehicle_type_id":"4","last_reported":1730369401,"current_range_meters":35200,"station_id":"ce4bh012rcd13ifvqd00","pricing_plan_id":"cebpf4jnsgd1na2vs0mg"},{"bike_id":"01e71633-db5c-4bbd-8beb-a6e81c600f3e","system_id":"levelo_inurba_marseille","lat":43.30943,"lon":5.3904,"is_reserved":false,"is_disabled":false,"rental_uris":{"android":"levelo://app?vid=01e71633-db5c-4bbd-8beb-a6e81c600f3e","ios":"levelo://app?vid=01e71633-db5c-4bbd-8beb-a6e81c600f3e"},"vehicle_type_id":"4","last_reported":1730369401,"current_range_meters":10800,"station_id":"ce4bgup2rcd13ifvqco0","pricing_plan_id":"cebpf4jnsgd1na2vs0mg"},{"bike_id":"53facf4a-a53f-4009-81d5-6390ac637137","system_id":"levelo_inurba_marseille","lat":43.32487,"lon":5.3656,"is_reserved":false,"is_disabled":false,"rental_uris":{"android":"levelo://app?vid=53facf4a-a53f-4009-81d5-6390ac637137","ios":"levelo://app?vid=53facf4a-a53f-4009-81d5-6390ac637137"},"vehicle_type_id":"4","last_reported":1730369401,"current_range_meters":38400,"station_id":"ce4bhs12rcd13ifvqhvg","pricing_plan_id":"cebpf4jnsgd1na2vs0mg"},{"bike_id":"bb5e11b9-de90-4ada-a4c5-63111ecbb490","system_id":"levelo_inurba_marseille","lat":43.29838,"lon":5.36258,"is_reserved":false,"is_disabled":false,"rental_uris":{"android":"levelo://app?vid=bb5e11b9-de90-4ada-a4c5-63111ecbb490","ios":"levelo://app?vid=bb5e11b9-de90-4ada-a4c5-63111ecbb490"},"vehicle_type_id":"4","last_reported":1730369401,"current_range_meters":39200,"station_id":"ce4bgpp2rcd13ifvqc3g","pricing_plan_id":"cebpf4jnsgd1na2vs0mg"},{"bike_id":"2f986fee-bfda-40ad-85c3-d385265561cf","system_id":"levelo_inurba_marseille","lat":43.24179,"lon":5.39737,"is_reserved":false,"is_disabled":false,"rental_uris":{"android":"levelo://app?vid=2f986fee-bfda-40ad-85c3-d385265561cf","ios":"levelo://app?vid=2f986fee-bfda-40ad-85c3-d385265561cf"},"vehicle_type_id":"4","last_reported":1730369401,"current_range_meters":39200,"station_id":"ce4bhn12rcd13ifvqgpg","pricing_plan_id":"cebpf4jnsgd1na2vs0mg"},{"bike_id":"1a0d1ec6-51be-47af-bd9a-41c789ef36cf","system_id":"levelo_inurba_marseille","lat":43.29268,"lon":5.36854,"is_reserved":false,"is_disabled":false,"rental_uris":{"android":"levelo://app?vid=1a0d1ec6-51be-47af-bd9a-41c789ef36cf","ios":"levelo://app?vid=1a0d1ec6-51be-47af-bd9a-41c789ef36cf"},"vehicle_type_id":"4","last_reported":1730369401,"current_range_meters":20000,"station_id":"ce4bhbp2rcd13ifvqesg","pricing_plan_id":"cebpf4jnsgd1na2vs0mg"},{"bike_id":"67b75dc5-76e9-47e8-9f50-b697c520c036","system_id":"levelo_inurba_marseille","lat":43.24667,"lon":5.38155,"is_reserved":false,"is_disabled":false,"rental_uris":{"android":"levelo://app?vid=67b75dc5-76e9-47e8-9f50-b697c520c036","ios":"levelo://app?vid=67b75dc5-76e9-47e8-9f50-b697c520c036"},"vehicle_type_id":"4","last_reported":1730369401,"current_range_meters":35200,"station_id":"ce4bhih2rcd13ifvqfr0","pricing_plan_id":"cebpf4jnsgd1na2vs0mg"},{"bike_id":"93ace286-6034-4635-9877-01f81adae12d","system_id":"levelo_inurba_marseille","lat":43.30957,"lon":5.3904,"is_reserved":false,"is_disabled":false,"rental_uris":{"android":"levelo://app?vid=93ace286-6034-4635-9877-01f81adae12d","ios":"levelo://app?vid=93ace286-6034-4635-9877-01f81adae12d"},"vehicle_type_id":"4","last_reported":1730369401,"current_range_meters":30800,"station_id":"ce4bgup2rcd13ifvqco0","pricing_plan_id":"cebpf4jnsgd1na2vs0mg"},{"bike_id":"7ca3484f-8027-4c0b-a4ea-7a027b00d248","system_id":"levelo_inurba_marseille","lat":43.29625,"lon":5.37713,"is_reserved":false,"is_disabled":false,"rental_uris":{"android":"levelo://app?vid=7ca3484f-8027-4c0b-a4ea-7a027b00d248","ios":"levelo://app?vid=7ca3484f-8027-4c0b-a4ea-7a027b00d248"},"vehicle_type_id":"4","last_reported":1730369401,"current_range_meters":22800,"station_id":"ce4bgi92rcd13ifvqb90","pricing_plan_id":"cebpf4jnsgd1na2vs0mg"},{"bike_id":"ecf118ca-4185-452f-9020-81d1f189f592","system_id":"levelo_inurba_marseille","lat":43.3078,"lon":5.37658,"is_reserved":false,"is_disabled":false,"rental_uris":{"android":"levelo://app?vid=ecf118ca-4185-452f-9020-81d1f189f592","ios":"levelo://app?vid=ecf118ca-4185-452f-9020-81d1f189f592"},"vehicle_type_id":"4","last_reported":1730369401,"current_range_meters":24400,"station_id":"ce4bgv92rcd13ifvqcq0","pricing_plan_id":"cebpf4jnsgd1na2vs0mg"},{"bike_id":"daf909ff-b76e-448a-8ba4-6dd8959a4394","system_id":"levelo_inurba_marseille","lat":43.29783,"lon":5.37099,"is_reserved":false,"is_disabled":false,"rental_uris":{"android":"levelo://app?vid=daf909ff-b76e-448a-8ba4-6dd8959a4394","ios":"levelo://app?vid=daf909ff-b76e-448a-8ba4-6dd8959a4394"},"vehicle_type_id":"4","last_reported":1730369401,"current_range_meters":37600,"station_id":"ce4bgop2rcd13ifvqc1g","pricing_plan_id":"cebpf4jnsgd1na2vs0mg"},{"bike_id":"f4bc23dd-56e4-458e-bb59-7a061d35ab05","system_id":"levelo_inurba_marseille","lat":43.27812,"lon":5.40707,"is_reserved":false,"is_disabled":false,"rental_uris":{"android":"levelo://app?vid=f4bc23dd-56e4-458e-bb59-7a061d35ab05","ios":"levelo://app?vid=f4bc23dd-56e4-458e-bb59-7a061d35ab05"},"vehicle_type_id":"4","last_reported":1730369401,"current_range_meters":37600,"station_id":"ce4bhnh2rcd13ifvqgtg","pricing_plan_id":"cebpf4jnsgd1na2vs0mg"},{"bike_id":"28d1366c-c20a-4401-b730-03faffc2064a","system_id":"levelo_inurba_marseille","lat":43.29039,"lon":5.39964,"is_reserved":false,"is_disabled":false,"rental_uris":{"android":"levelo://app?vid=28d1366c-c20a-4401-b730-03faffc2064a","ios":"levelo://app?vid=28d1366c-c20a-4401-b730-03faffc2064a"},"vehicle_type_id":"4","last_reported":1730369401,"current_range_meters":36800,"station_id":"ce4bh392rcd13ifvqdm0","pricing_plan_id":"cebpf4jnsgd1na2vs0mg"},{"bike_id":"58588f98-d979-4a89-a14d-d0d4a329cc8e","system_id":"levelo_inurba_marseille","lat":43.26809,"lon":5.40272,"is_reserved":false,"is_disabled":false,"rental_uris":{"android":"levelo://app?vid=58588f98-d979-4a89-a14d-d0d4a329cc8e","ios":"levelo://app?vid=58588f98-d979-4a89-a14d-d0d4a329cc8e"},"vehicle_type_id":"4","last_reported":1730369401,"current_range_meters":39200,"station_id":"ce501612rcd8frsf0b60","pricing_plan_id":"cebpf4jnsgd1na2vs0mg"},{"bike_id":"6a0f5fa6-b3e4-4a53-be40-64d2313f88ad","system_id":"levelo_inurba_marseille","lat":43.29037,"lon":5.39961,"is_reserved":false,"is_disabled":false,"rental_uris":{"android":"levelo://app?vid=6a0f5fa6-b3e4-4a53-be40-64d2313f88ad","ios":"levelo://app?vid=6a0f5fa6-b3e4-4a53-be40-64d2313f88ad"},"vehicle_type_id":"4","last_reported":1730369401,"current_range_meters":26800,"station_id":"ce4bh392rcd13ifvqdm0","pricing_plan_id":"cebpf4jnsgd1na2vs0mg"},{"bike_id":"c73fe3ae-091f-4cc5-8d82-c01b830d63fe","system_id":"levelo_inurba_marseille","lat":43.27071,"lon":5.42279,"is_reserved":false,"is_disabled":false,"rental_uris":{"android":"levelo://app?vid=c73fe3ae-091f-4cc5-8d82-c01b830d63fe","ios":"levelo://app?vid=c73fe3ae-091f-4cc5-8d82-c01b830d63fe"},"vehicle_type_id":"4","last_reported":1730369401,"current_range_meters":20400,"station_id":"ce4bhk92rcd13ifvqgb0","pricing_plan_id":"cebpf4jnsgd1na2vs0mg"},{"bike_id":"5ff74640-5d39-40f8-808a-e5695df59fd4","system_id":"levelo_inurba_marseille","lat":43.27185,"lon":5.41018,"is_reserved":false,"is_disabled":false,"rental_uris":{"android":"levelo://app?vid=5ff74640-5d39-40f8-808a-e5695df59fd4","ios":"levelo://app?vid=5ff74640-5d39-40f8-808a-e5695df59fd4"},"vehicle_type_id":"4","last_reported":1730369401,"current_range_meters":8400,"station_id":"ce4bhl12rcd13ifvqgf0","pricing_plan_id":"cebpf4jnsgd1na2vs0mg"},{"bike_id":"84e2b042-2c79-4878-a2d2-5d6cd154cfca","system_id":"levelo_inurba_marseille","lat":43.28421,"lon":5.34989,"is_reserved":false,"is_disabled":false,"rental_uris":{"android":"levelo://app?vid=84e2b042-2c79-4878-a2d2-5d6cd154cfca","ios":"levelo://app?vid=84e2b042-2c79-4878-a2d2-5d6cd154cfca"},"vehicle_type_id":"4","last_reported":1730369401,"current_range_meters":25200,"station_id":"ce4bhbh2rcd13ifvqepg","pricing_plan_id":"cebpf4jnsgd1na2vs0mg"},{"bike_id":"d4829a7e-16fe-4e76-9a47-d409e1283694","system_id":"levelo_inurba_marseille","lat":43.2572,"lon":5.41115,"is_reserved":false,"is_disabled":false,"rental_uris":{"android":"levelo://app?vid=d4829a7e-16fe-4e76-9a47-d409e1283694","ios":"levelo://app?vid=d4829a7e-16fe-4e76-9a47-d409e1283694"},"vehicle_type_id":"4","last_reported":1730369401,"current_range_meters":20000,"station_id":"ce4bhkp2rcd13ifvqgd0","pricing_plan_id":"cebpf4jnsgd1na2vs0mg"},{"bike_id":"6f300d83-3587-4671-9183-1ad5ec3e0ba6","system_id":"levelo_inurba_marseille","lat":43.30318,"lon":5.40262,"is_reserved":false,"is_disabled":false,"rental_uris":{"android":"levelo://app?vid=6f300d83-3587-4671-9183-1ad5ec3e0ba6","ios":"levelo://app?vid=6f300d83-3587-4671-9183-1ad5ec3e0ba6"},"vehicle_type_id":"4","last_reported":1730369401,"current_range_meters":26800,"station_id":"ce4bhph2rcd13ifvqheg","pricing_plan_id":"cebpf4jnsgd1na2vs0mg"},{"bike_id":"1b5d0cad-b2ad-442b-8579-b67616ffeaa1","system_id":"levelo_inurba_marseille","lat":43.29256,"lon":5.38451,"is_reserved":false,"is_disabled":false,"rental_uris":{"android":"levelo://app?vid=1b5d0cad-b2ad-442b-8579-b67616ffeaa1","ios":"levelo://app?vid=1b5d0cad-b2ad-442b-8579-b67616ffeaa1"},"vehicle_type_id":"4","last_reported":1730369401,"current_range_meters":30400,"station_id":"ce4bh692rcd13ifvqea0","pricing_plan_id":"cebpf4jnsgd1na2vs0mg"},{"bike_id":"6471a6bf-4693-42f6-b065-86af222961e0","system_id":"levelo_inurba_marseille","lat":43.30543,"lon":5.36567,"is_reserved":false,"is_disabled":false,"rental_uris":{"android":"levelo://app?vid=6471a6bf-4693-42f6-b065-86af222961e0","ios":"levelo://app?vid=6471a6bf-4693-42f6-b065-86af222961e0"},"vehicle_type_id":"4","last_reported":1730369401,"current_range_meters":8400,"station_id":"ce4bgs12rcd13ifvqcag","pricing_plan_id":"cebpf4jnsgd1na2vs0mg"},{"bike_id":"d3144195-5738-4842-a23f-c22e2860827e","system_id":"levelo_inurba_marseille","lat":43.28147,"lon":5.42641,"is_reserved":false,"is_disabled":false,"rental_uris":{"android":"levelo://app?vid=d3144195-5738-4842-a23f-c22e2860827e","ios":"levelo://app?vid=d3144195-5738-4842-a23f-c22e2860827e"},"vehicle_type_id":"4","last_reported":1730369401,"current_range_meters":20000,"station_id":"ce4bhnh2rcd13ifvqgug","pricing_plan_id":"cebpf4jnsgd1na2vs0mg"},{"bike_id":"8174d648-eff1-41d4-b5d8-7b28c7c08b17","system_id":"levelo_inurba_marseille","lat":43.26947,"lon":5.38639,"is_reserved":false,"is_disabled":false,"rental_uris":{"android":"levelo://app?vid=8174d648-eff1-41d4-b5d8-7b28c7c08b17","ios":"levelo://app?vid=8174d648-eff1-41d4-b5d8-7b28c7c08b17"},"vehicle_type_id":"4","last_reported":1730369401,"current_range_meters":20400,"station_id":"ce4bhh92rcd13ifvqfh0","pricing_plan_id":"cebpf4jnsgd1na2vs0mg"},{"bike_id":"62e9561e-ad05-4f0e-b75e-5d2e36048b40","system_id":"levelo_inurba_marseille","lat":43.317124,"lon":5.43707,"is_reserved":false,"is_disabled":false,"rental_uris":{"android":"levelo://app?vid=62e9561e-ad05-4f0e-b75e-5d2e36048b40","ios":"levelo://app?vid=62e9561e-ad05-4f0e-b75e-5d2e36048b40"},"vehicle_type_id":"4","last_reported":1730369401,"current_range_meters":38000,"station_id":"ce4bhp92rcd13ifvqhcg","pricing_plan_id":"cebpf4jnsgd1na2vs0mg"},{"bike_id":"654e6c85-c7a0-4fba-b228-17b6bfa33ba6","system_id":"levelo_inurba_marseille","lat":43.24178,"lon":5.3973,"is_reserved":false,"is_disabled":false,"rental_uris":{"android":"levelo://app?vid=654e6c85-c7a0-4fba-b228-17b6bfa33ba6","ios":"levelo://app?vid=654e6c85-c7a0-4fba-b228-17b6bfa33ba6"},"vehicle_type_id":"4","last_reported":1730369401,"current_range_meters":4800,"station_id":"ce4bhn12rcd13ifvqgpg","pricing_plan_id":"cebpf4jnsgd1na2vs0mg"},{"bike_id":"a1f14d84-7d99-4674-8082-3d3ddd45c851","system_id":"levelo_inurba_marseille","lat":43.24386,"lon":5.37052,"is_reserved":false,"is_disabled":false,"rental_uris":{"android":"levelo://app?vid=a1f14d84-7d99-4674-8082-3d3ddd45c851","ios":"levelo://app?vid=a1f14d84-7d99-4674-8082-3d3ddd45c851"},"vehicle_type_id":"4","last_reported":1730369401,"current_range_meters":24400,"station_id":"ce4bhhh2rcd13ifvqfk0","pricing_plan_id":"cebpf4jnsgd1na2vs0mg"},{"bike_id":"3998c2d7-91a5-4d44-9a9a-9052ff445560","system_id":"levelo_inurba_marseille","lat":43.3055,"lon":5.36524,"is_reserved":false,"is_disabled":false,"rental_uris":{"android":"levelo://app?vid=3998c2d7-91a5-4d44-9a9a-9052ff445560","ios":"levelo://app?vid=3998c2d7-91a5-4d44-9a9a-9052ff445560"},"vehicle_type_id":"4","last_reported":1730369401,"current_range_meters":17600,"station_id":"ce4bgs12rcd13ifvqcag","pricing_plan_id":"cebpf4jnsgd1na2vs0mg"},{"bike_id":"cc43bf4d-496d-47ec-aa99-164bc1536ac8","system_id":"levelo_inurba_marseille","lat":43.24998,"lon":5.38932,"is_reserved":false,"is_disabled":false,"rental_uris":{"android":"levelo://app?vid=cc43bf4d-496d-47ec-aa99-164bc1536ac8","ios":"levelo://app?vid=cc43bf4d-496d-47ec-aa99-164bc1536ac8"},"vehicle_type_id":"4","last_reported":1730369401,"current_range_meters":33600,"station_id":"ce4bhgp2rcd13ifvqfd0","pricing_plan_id":"cebpf4jnsgd1na2vs0mg"},{"bike_id":"5e3e5e15-a26a-4370-a4d7-22b0461d60e4","system_id":"levelo_inurba_marseille","lat":43.31997,"lon":5.38147,"is_reserved":false,"is_disabled":false,"rental_uris":{"android":"levelo://app?vid=5e3e5e15-a26a-4370-a4d7-22b0461d60e4","ios":"levelo://app?vid=5e3e5e15-a26a-4370-a4d7-22b0461d60e4"},"vehicle_type_id":"4","last_reported":1730369401,"current_range_meters":39200,"station_id":"ce4bhr12rcd13ifvqhpg","pricing_plan_id":"cebpf4jnsgd1na2vs0mg"},{"bike_id":"c7b6fdee-7375-4c64-a86a-2176ea24f983","system_id":"levelo_inurba_marseille","lat":43.26026,"lon":5.37545,"is_reserved":false,"is_disabled":false,"rental_uris":{"android":"levelo://app?vid=c7b6fdee-7375-4c64-a86a-2176ea24f983","ios":"levelo://app?vid=c7b6fdee-7375-4c64-a86a-2176ea24f983"},"vehicle_type_id":"4","last_reported":1730369401,"current_range_meters":38800,"station_id":"ce4bhgh2rcd13ifvqfa0","pricing_plan_id":"cebpf4jnsgd1na2vs0mg"},{"bike_id":"3271d7f6-0f65-475f-8b65-c5efde785335","system_id":"levelo_inurba_marseille","lat":43.23191,"lon":5.35552,"is_reserved":false,"is_disabled":false,"rental_uris":{"android":"levelo://app?vid=3271d7f6-0f65-475f-8b65-c5efde785335","ios":"levelo://app?vid=3271d7f6-0f65-475f-8b65-c5efde785335"},"vehicle_type_id":"4","last_reported":1730369401,"current_range_meters":36400,"station_id":"ce4bhu92rcd13ifvqi70","pricing_plan_id":"cebpf4jnsgd1na2vs0mg"},{"bike_id":"f244eddf-f843-4ce1-a9af-274fa0085acc","system_id":"levelo_inurba_marseille","lat":43.298187,"lon":5.382797,"is_reserved":false,"is_disabled":false,"rental_uris":{"android":"levelo://app?vid=f244eddf-f843-4ce1-a9af-274fa0085acc","ios":"levelo://app?vid=f244eddf-f843-4ce1-a9af-274fa0085acc"},"vehicle_type_id":"4","last_reported":1730369401,"current_range_meters":3600,"station_id":"ce4bgt12rcd13ifvqce0","pricing_plan_id":"cebpf4jnsgd1na2vs0mg"},{"bike_id":"f82d6e99-2d3a-47e6-a97a-feadb35dd14a","system_id":"levelo_inurba_marseille","lat":43.29581,"lon":5.37501,"is_reserved":false,"is_disabled":false,"rental_uris":{"android":"levelo://app?vid=f82d6e99-2d3a-47e6-a97a-feadb35dd14a","ios":"levelo://app?vid=f82d6e99-2d3a-47e6-a97a-feadb35dd14a"},"vehicle_type_id":"4","last_reported":1730369401,"current_range_meters":36800,"station_id":"ce4bgh92rcd13ifvqb50","pricing_plan_id":"cebpf4jnsgd1na2vs0mg"},{"bike_id":"f99547b6-e0b7-4a86-b4bb-f600f8ca5cb2","system_id":"levelo_inurba_marseille","lat":43.24168,"lon":5.36401,"is_reserved":false,"is_disabled":false,"rental_uris":{"android":"levelo://app?vid=f99547b6-e0b7-4a86-b4bb-f600f8ca5cb2","ios":"levelo://app?vid=f99547b6-e0b7-4a86-b4bb-f600f8ca5cb2"},"vehicle_type_id":"4","last_reported":1730369401,"current_range_meters":11600,"station_id":"cpo36qri1sfpv3e86is0","pricing_plan_id":"cebpf4jnsgd1na2vs0mg"},{"bike_id":"e102b7c5-a4ed-4645-b11f-4d05e39a0ce4","system_id":"levelo_inurba_marseille","lat":43.32365,"lon":5.38888,"is_reserved":false,"is_disabled":false,"rental_uris":{"android":"levelo://app?vid=e102b7c5-a4ed-4645-b11f-4d05e39a0ce4","ios":"levelo://app?vid=e102b7c5-a4ed-4645-b11f-4d05e39a0ce4"},"vehicle_type_id":"4","last_reported":1730369401,"current_range_meters":19600,"station_id":"ce4bhqp2rcd13ifvqhog","pricing_plan_id":"cebpf4jnsgd1na2vs0mg"},{"bike_id":"80092705-4989-4e56-ac2b-d582d70f3c41","system_id":"levelo_inurba_marseille","lat":43.30781,"lon":5.37657,"is_reserved":false,"is_disabled":false,"rental_uris":{"android":"levelo://app?vid=80092705-4989-4e56-ac2b-d582d70f3c41","ios":"levelo://app?vid=80092705-4989-4e56-ac2b-d582d70f3c41"},"vehicle_type_id":"4","last_reported":1730369401,"current_range_meters":19600,"station_id":"ce4bgv92rcd13ifvqcq0","pricing_plan_id":"cebpf4jnsgd1na2vs0mg"},{"bike_id":"16fbc739-344e-44c8-a2dd-1303bdf6f153","system_id":"levelo_inurba_marseille","lat":43.28617,"lon":5.35537,"is_reserved":false,"is_disabled":false,"rental_uris":{"android":"levelo://app?vid=16fbc739-344e-44c8-a2dd-1303bdf6f153","ios":"levelo://app?vid=16fbc739-344e-44c8-a2dd-1303bdf6f153"},"vehicle_type_id":"4","last_reported":1730369401,"current_range_meters":12400,"station_id":"","pricing_plan_id":"cebpf4jnsgd1na2vs0mg"},{"bike_id":"21b26b40-96b4-4723-91f1-8f1eb745d175","system_id":"levelo_inurba_marseille","lat":43.297775,"lon":5.371363,"is_reserved":false,"is_disabled":false,"rental_uris":{"android":"levelo://app?vid=21b26b40-96b4-4723-91f1-8f1eb745d175","ios":"levelo://app?vid=21b26b40-96b4-4723-91f1-8f1eb745d175"},"vehicle_type_id":"4","last_reported":1730369401,"current_range_meters":18000,"station_id":"ce4bgk12rcd13ifvqbj0","pricing_plan_id":"cebpf4jnsgd1na2vs0mg"},{"bike_id":"72e37474-1bc8-4568-aec8-ce5464e6b828","system_id":"levelo_inurba_marseille","lat":43.2319,"lon":5.3555,"is_reserved":false,"is_disabled":false,"rental_uris":{"android":"levelo://app?vid=72e37474-1bc8-4568-aec8-ce5464e6b828","ios":"levelo://app?vid=72e37474-1bc8-4568-aec8-ce5464e6b828"},"vehicle_type_id":"4","last_reported":1730369401,"current_range_meters":25200,"station_id":"ce4bhu92rcd13ifvqi70","pricing_plan_id":"cebpf4jnsgd1na2vs0mg"},{"bike_id":"18094eb3-a782-434f-9eed-1737b0a3001a","system_id":"levelo_inurba_marseille","lat":43.30208,"lon":5.39474,"is_reserved":false,"is_disabled":false,"rental_uris":{"android":"levelo://app?vid=18094eb3-a782-434f-9eed-1737b0a3001a","ios":"levelo://app?vid=18094eb3-a782-434f-9eed-1737b0a3001a"},"vehicle_type_id":"4","last_reported":1730369401,"current_range_meters":26000,"station_id":"ce4bh0p2rcd13ifvqd70","pricing_plan_id":"cebpf4jnsgd1na2vs0mg"},{"bike_id":"61f5bbb1-298a-4e61-9f74-724084c0430a","system_id":"levelo_inurba_marseille","lat":43.28098,"lon":5.37831,"is_reserved":false,"is_disabled":false,"rental_uris":{"android":"levelo://app?vid=61f5bbb1-298a-4e61-9f74-724084c0430a","ios":"levelo://app?vid=61f5bbb1-298a-4e61-9f74-724084c0430a"},"vehicle_type_id":"4","last_reported":1730369401,"current_range_meters":21600,"station_id":"ce4bha12rcd13ifvqee0","pricing_plan_id":"cebpf4jnsgd1na2vs0mg"},{"bike_id":"1205d633-4986-4c67-9432-2d423a89c40d","system_id":"levelo_inurba_marseille","lat":43.27172,"lon":5.4099,"is_reserved":false,"is_disabled":false,"rental_uris":{"android":"levelo://app?vid=1205d633-4986-4c67-9432-2d423a89c40d","ios":"levelo://app?vid=1205d633-4986-4c67-9432-2d423a89c40d"},"vehicle_type_id":"4","last_reported":1730369401,"current_range_meters":35200,"station_id":"ce4bhl12rcd13ifvqgf0","pricing_plan_id":"cebpf4jnsgd1na2vs0mg"},{"bike_id":"caebbcd3-809e-4610-b16f-dadff6c64a44","system_id":"levelo_inurba_marseille","lat":43.29618,"lon":5.37725,"is_reserved":false,"is_disabled":false,"rental_uris":{"android":"levelo://app?vid=caebbcd3-809e-4610-b16f-dadff6c64a44","ios":"levelo://app?vid=caebbcd3-809e-4610-b16f-dadff6c64a44"},"vehicle_type_id":"4","last_reported":1730369401,"current_range_meters":19600,"station_id":"ce4bgi92rcd13ifvqb90","pricing_plan_id":"cebpf4jnsgd1na2vs0mg"},{"bike_id":"e4c4e908-05c7-4825-a12a-9e26ab0bc45a","system_id":"levelo_inurba_marseille","lat":43.2929,"lon":5.37434,"is_reserved":false,"is_disabled":false,"rental_uris":{"android":"levelo://app?vid=e4c4e908-05c7-4825-a12a-9e26ab0bc45a","ios":"levelo://app?vid=e4c4e908-05c7-4825-a12a-9e26ab0bc45a"},"vehicle_type_id":"4","last_reported":1730369401,"current_range_meters":34800,"station_id":"ce4bgi12rcd13ifvqb70","pricing_plan_id":"cebpf4jnsgd1na2vs0mg"},{"bike_id":"bb4f2c4f-f5c6-4f2d-a68f-18541d36e2e9","system_id":"levelo_inurba_marseille","lat":43.32481,"lon":5.36572,"is_reserved":false,"is_disabled":false,"rental_uris":{"android":"levelo://app?vid=bb4f2c4f-f5c6-4f2d-a68f-18541d36e2e9","ios":"levelo://app?vid=bb4f2c4f-f5c6-4f2d-a68f-18541d36e2e9"},"vehicle_type_id":"4","last_reported":1730369401,"current_range_meters":28800,"station_id":"ce4bhs12rcd13ifvqhvg","pricing_plan_id":"cebpf4jnsgd1na2vs0mg"},{"bike_id":"88dc58c8-a632-450d-98e1-c0f672ee9cc5","system_id":"levelo_inurba_marseille","lat":43.24386,"lon":5.37049,"is_reserved":false,"is_disabled":false,"rental_uris":{"android":"levelo://app?vid=88dc58c8-a632-450d-98e1-c0f672ee9cc5","ios":"levelo://app?vid=88dc58c8-a632-450d-98e1-c0f672ee9cc5"},"vehicle_type_id":"4","last_reported":1730369401,"current_range_meters":37600,"station_id":"ce4bhhh2rcd13ifvqfk0","pricing_plan_id":"cebpf4jnsgd1na2vs0mg"},{"bike_id":"54d2e7c1-0997-4e85-b497-01eca9eb4f00","system_id":"levelo_inurba_marseille","lat":43.23197,"lon":5.35542,"is_reserved":false,"is_disabled":false,"rental_uris":{"android":"levelo://app?vid=54d2e7c1-0997-4e85-b497-01eca9eb4f00","ios":"levelo://app?vid=54d2e7c1-0997-4e85-b497-01eca9eb4f00"},"vehicle_type_id":"4","last_reported":1730369401,"current_range_meters":9600,"station_id":"ce4bhu92rcd13ifvqi70","pricing_plan_id":"cebpf4jnsgd1na2vs0mg"},{"bike_id":"03a568f6-414d-4d28-9207-f96676ac1d4f","system_id":"levelo_inurba_marseille","lat":43.2418,"lon":5.39727,"is_reserved":false,"is_disabled":false,"rental_uris":{"android":"levelo://app?vid=03a568f6-414d-4d28-9207-f96676ac1d4f","ios":"levelo://app?vid=03a568f6-414d-4d28-9207-f96676ac1d4f"},"vehicle_type_id":"4","last_reported":1730369401,"current_range_meters":37600,"station_id":"ce4bhn12rcd13ifvqgpg","pricing_plan_id":"cebpf4jnsgd1na2vs0mg"},{"bike_id":"f8584fbd-b266-46f3-88c6-4cc95ff7fcfd","system_id":"levelo_inurba_marseille","lat":43.28153,"lon":5.42648,"is_reserved":false,"is_disabled":false,"rental_uris":{"android":"levelo://app?vid=f8584fbd-b266-46f3-88c6-4cc95ff7fcfd","ios":"levelo://app?vid=f8584fbd-b266-46f3-88c6-4cc95ff7fcfd"},"vehicle_type_id":"4","last_reported":1730369401,"current_range_meters":37600,"station_id":"ce4bhnh2rcd13ifvqgug","pricing_plan_id":"cebpf4jnsgd1na2vs0mg"},{"bike_id":"c843d4b3-e307-4a3f-9b6d-4ef36e881079","system_id":"levelo_inurba_marseille","lat":43.24068,"lon":5.3776,"is_reserved":false,"is_disabled":false,"rental_uris":{"android":"levelo://app?vid=c843d4b3-e307-4a3f-9b6d-4ef36e881079","ios":"levelo://app?vid=c843d4b3-e307-4a3f-9b6d-4ef36e881079"},"vehicle_type_id":"4","last_reported":1730369401,"current_range_meters":28000,"station_id":"ce4bhnp2rcd13ifvqgvg","pricing_plan_id":"cebpf4jnsgd1na2vs0mg"},{"bike_id":"358476ef-3fe4-4564-b4f6-558008d6a500","system_id":"levelo_inurba_marseille","lat":43.28152,"lon":5.42643,"is_reserved":false,"is_disabled":false,"rental_uris":{"android":"levelo://app?vid=358476ef-3fe4-4564-b4f6-558008d6a500","ios":"levelo://app?vid=358476ef-3fe4-4564-b4f6-558008d6a500"},"vehicle_type_id":"4","last_reported":1730369401,"current_range_meters":8800,"station_id":"ce4bhnh2rcd13ifvqgug","pricing_plan_id":"cebpf4jnsgd1na2vs0mg"},{"bike_id":"3f84a1bc-62bd-4b0d-b3e2-c5c65dad265d","system_id":"levelo_inurba_marseille","lat":43.29903,"lon":5.38144,"is_reserved":false,"is_disabled":false,"rental_uris":{"android":"levelo://app?vid=3f84a1bc-62bd-4b0d-b3e2-c5c65dad265d","ios":"levelo://app?vid=3f84a1bc-62bd-4b0d-b3e2-c5c65dad265d"},"vehicle_type_id":"4","last_reported":1730369401,"current_range_meters":36800,"station_id":"ce4bgj12rcd13ifvqbc0","pricing_plan_id":"cebpf4jnsgd1na2vs0mg"},{"bike_id":"d6419497-db25-46dc-9b09-80b762d6c261","system_id":"levelo_inurba_marseille","lat":43.29967,"lon":5.38493,"is_reserved":false,"is_disabled":false,"rental_uris":{"android":"levelo://app?vid=d6419497-db25-46dc-9b09-80b762d6c261","ios":"levelo://app?vid=d6419497-db25-46dc-9b09-80b762d6c261"},"vehicle_type_id":"4","last_reported":1730369401,"current_range_meters":38000,"station_id":"ce4bgj92rcd13ifvqbd0","pricing_plan_id":"cebpf4jnsgd1na2vs0mg"},{"bike_id":"0eff319a-7eca-450c-b5a4-83bce6a39978","system_id":"levelo_inurba_marseille","lat":43.279976,"lon":5.400049,"is_reserved":false,"is_disabled":false,"rental_uris":{"android":"levelo://app?vid=0eff319a-7eca-450c-b5a4-83bce6a39978","ios":"levelo://app?vid=0eff319a-7eca-450c-b5a4-83bce6a39978"},"vehicle_type_id":"4","last_reported":1730369401,"current_range_meters":32000,"station_id":"ce4bho92rcd13ifvqh4g","pricing_plan_id":"cebpf4jnsgd1na2vs0mg"},{"bike_id":"91d99e26-3ee8-42a5-a51d-70843fb133ad","system_id":"levelo_inurba_marseille","lat":43.26949,"lon":5.38639,"is_reserved":false,"is_disabled":false,"rental_uris":{"android":"levelo://app?vid=91d99e26-3ee8-42a5-a51d-70843fb133ad","ios":"levelo://app?vid=91d99e26-3ee8-42a5-a51d-70843fb133ad"},"vehicle_type_id":"4","last_reported":1730369401,"current_range_meters":22800,"station_id":"ce4bhh92rcd13ifvqfh0","pricing_plan_id":"cebpf4jnsgd1na2vs0mg"},{"bike_id":"a9275885-8339-4a09-b304-0a731576f1a9","system_id":"levelo_inurba_marseille","lat":43.29788,"lon":5.40409,"is_reserved":false,"is_disabled":false,"rental_uris":{"android":"levelo://app?vid=a9275885-8339-4a09-b304-0a731576f1a9","ios":"levelo://app?vid=a9275885-8339-4a09-b304-0a731576f1a9"},"vehicle_type_id":"4","last_reported":1730369401,"current_range_meters":38400,"station_id":"ce4bh112rcd13ifvqd90","pricing_plan_id":"cebpf4jnsgd1na2vs0mg"},{"bike_id":"599c12af-31ce-4939-9aab-8ddc8b83f75b","system_id":"levelo_inurba_marseille","lat":43.29591,"lon":5.38099,"is_reserved":false,"is_disabled":false,"rental_uris":{"android":"levelo://app?vid=599c12af-31ce-4939-9aab-8ddc8b83f75b","ios":"levelo://app?vid=599c12af-31ce-4939-9aab-8ddc8b83f75b"},"vehicle_type_id":"4","last_reported":1730369401,"current_range_meters":37600,"station_id":"ce4bgl12rcd13ifvqbo0","pricing_plan_id":"cebpf4jnsgd1na2vs0mg"},{"bike_id":"cbd6e71b-da90-49a9-852e-9e6ceb2a79ce","system_id":"levelo_inurba_marseille","lat":43.231838,"lon":5.399769,"is_reserved":false,"is_disabled":false,"rental_uris":{"android":"levelo://app?vid=cbd6e71b-da90-49a9-852e-9e6ceb2a79ce","ios":"levelo://app?vid=cbd6e71b-da90-49a9-852e-9e6ceb2a79ce"},"vehicle_type_id":"4","last_reported":1730369401,"current_range_meters":39200,"station_id":"ce4bhn12rcd13ifvqgqg","pricing_plan_id":"cebpf4jnsgd1na2vs0mg"},{"bike_id":"96bef726-bf77-4611-ade4-462266aded0f","system_id":"levelo_inurba_marseille","lat":43.2902,"lon":5.3998,"is_reserved":false,"is_disabled":false,"rental_uris":{"android":"levelo://app?vid=96bef726-bf77-4611-ade4-462266aded0f","ios":"levelo://app?vid=96bef726-bf77-4611-ade4-462266aded0f"},"vehicle_type_id":"4","last_reported":1730369401,"current_range_meters":31200,"station_id":"ce4bh392rcd13ifvqdm0","pricing_plan_id":"cebpf4jnsgd1na2vs0mg"},{"bike_id":"b5824571-11c1-493f-a64e-5dd31028dc5a","system_id":"levelo_inurba_marseille","lat":43.302406,"lon":5.400823,"is_reserved":false,"is_disabled":false,"rental_uris":{"android":"levelo://app?vid=b5824571-11c1-493f-a64e-5dd31028dc5a","ios":"levelo://app?vid=b5824571-11c1-493f-a64e-5dd31028dc5a"},"vehicle_type_id":"4","last_reported":1730369401,"current_range_meters":10800,"station_id":"ce4bgvh2rcd13ifvqcs0","pricing_plan_id":"cebpf4jnsgd1na2vs0mg"},{"bike_id":"b503c5a4-0789-4753-98eb-4d5bd5fe28a7","system_id":"levelo_inurba_marseille","lat":43.3054,"lon":5.367,"is_reserved":false,"is_disabled":false,"rental_uris":{"android":"levelo://app?vid=b503c5a4-0789-4753-98eb-4d5bd5fe28a7","ios":"levelo://app?vid=b503c5a4-0789-4753-98eb-4d5bd5fe28a7"},"vehicle_type_id":"4","last_reported":1730369401,"current_range_meters":40000,"station_id":"ce4bgrp2rcd13ifvqc9g","pricing_plan_id":"cebpf4jnsgd1na2vs0mg"},{"bike_id":"ec887f96-3e7c-4cc5-bffc-e14c99385849","system_id":"levelo_inurba_marseille","lat":43.32105,"lon":5.36767,"is_reserved":false,"is_disabled":false,"rental_uris":{"android":"levelo://app?vid=ec887f96-3e7c-4cc5-bffc-e14c99385849","ios":"levelo://app?vid=ec887f96-3e7c-4cc5-bffc-e14c99385849"},"vehicle_type_id":"4","last_reported":1730369401,"current_range_meters":9600,"station_id":"ce4bhrh2rcd13ifvqhug","pricing_plan_id":"cebpf4jnsgd1na2vs0mg"},{"bike_id":"ef84f4b6-01b2-4a53-bdf2-0d57923d3ba7","system_id":"levelo_inurba_marseille","lat":43.28152,"lon":5.42648,"is_reserved":false,"is_disabled":false,"rental_uris":{"android":"levelo://app?vid=ef84f4b6-01b2-4a53-bdf2-0d57923d3ba7","ios":"levelo://app?vid=ef84f4b6-01b2-4a53-bdf2-0d57923d3ba7"},"vehicle_type_id":"4","last_reported":1730369401,"current_range_meters":38800,"station_id":"ce4bhnh2rcd13ifvqgug","pricing_plan_id":"cebpf4jnsgd1na2vs0mg"},{"bike_id":"1995d42f-9bb2-423e-a419-1706f5fab24e","system_id":"levelo_inurba_marseille","lat":43.27073,"lon":5.42275,"is_reserved":false,"is_disabled":false,"rental_uris":{"android":"levelo://app?vid=1995d42f-9bb2-423e-a419-1706f5fab24e","ios":"levelo://app?vid=1995d42f-9bb2-423e-a419-1706f5fab24e"},"vehicle_type_id":"4","last_reported":1730369401,"current_range_meters":29600,"station_id":"ce4bhk92rcd13ifvqgb0","pricing_plan_id":"cebpf4jnsgd1na2vs0mg"},{"bike_id":"d75a5f39-6d7e-41fe-bdc2-13c4c09528e6","system_id":"levelo_inurba_marseille","lat":43.23186,"lon":5.39989,"is_reserved":false,"is_disabled":false,"rental_uris":{"android":"levelo://app?vid=d75a5f39-6d7e-41fe-bdc2-13c4c09528e6","ios":"levelo://app?vid=d75a5f39-6d7e-41fe-bdc2-13c4c09528e6"},"vehicle_type_id":"4","last_reported":1730369401,"current_range_meters":40000,"station_id":"ce4bhn12rcd13ifvqgqg","pricing_plan_id":"cebpf4jnsgd1na2vs0mg"},{"bike_id":"be4cec61-2fbe-4c41-bc8f-6cef6f495468","system_id":"levelo_inurba_marseille","lat":43.31331,"lon":5.39685,"is_reserved":false,"is_disabled":false,"rental_uris":{"android":"levelo://app?vid=be4cec61-2fbe-4c41-bc8f-6cef6f495468","ios":"levelo://app?vid=be4cec61-2fbe-4c41-bc8f-6cef6f495468"},"vehicle_type_id":"4","last_reported":1730369401,"current_range_meters":37600,"station_id":"ce4bgvp2rcd13ifvqcu0","pricing_plan_id":"cebpf4jnsgd1na2vs0mg"},{"bike_id":"43f2a08e-1c4c-4949-a02f-6557846d7016","system_id":"levelo_inurba_marseille","lat":43.29031,"lon":5.39964,"is_reserved":false,"is_disabled":false,"rental_uris":{"android":"levelo://app?vid=43f2a08e-1c4c-4949-a02f-6557846d7016","ios":"levelo://app?vid=43f2a08e-1c4c-4949-a02f-6557846d7016"},"vehicle_type_id":"4","last_reported":1730369401,"current_range_meters":38400,"station_id":"ce4bh392rcd13ifvqdm0","pricing_plan_id":"cebpf4jnsgd1na2vs0mg"},{"bike_id":"7f38d3bd-ce37-4bda-8700-bbd15f79f69f","system_id":"levelo_inurba_marseille","lat":43.25584,"lon":5.38225,"is_reserved":false,"is_disabled":false,"rental_uris":{"android":"levelo://app?vid=7f38d3bd-ce37-4bda-8700-bbd15f79f69f","ios":"levelo://app?vid=7f38d3bd-ce37-4bda-8700-bbd15f79f69f"},"vehicle_type_id":"4","last_reported":1730369401,"current_range_meters":14000,"station_id":"ce4bhih2rcd13ifvqfs0","pricing_plan_id":"cebpf4jnsgd1na2vs0mg"},{"bike_id":"c26bb6f5-2c68-4c3f-ae19-c7ed99652366","system_id":"levelo_inurba_marseille","lat":43.31535,"lon":5.38028,"is_reserved":false,"is_disabled":false,"rental_uris":{"android":"levelo://app?vid=c26bb6f5-2c68-4c3f-ae19-c7ed99652366","ios":"levelo://app?vid=c26bb6f5-2c68-4c3f-ae19-c7ed99652366"},"vehicle_type_id":"4","last_reported":1730369401,"current_range_meters":8800,"station_id":"ce4bhsp2rcd13ifvqi50","pricing_plan_id":"cebpf4jnsgd1na2vs0mg"},{"bike_id":"ad71909a-5e64-40ea-9e77-8ddc67ff4428","system_id":"levelo_inurba_marseille","lat":43.32348,"lon":5.40626,"is_reserved":false,"is_disabled":false,"rental_uris":{"android":"levelo://app?vid=ad71909a-5e64-40ea-9e77-8ddc67ff4428","ios":"levelo://app?vid=ad71909a-5e64-40ea-9e77-8ddc67ff4428"},"vehicle_type_id":"4","last_reported":1730369401,"current_range_meters":38000,"station_id":"ce4bhq92rcd13ifvqhjg","pricing_plan_id":"cebpf4jnsgd1na2vs0mg"},{"bike_id":"a4f76d36-b463-42c4-a196-16ca09b7631b","system_id":"levelo_inurba_marseille","lat":43.27207,"lon":5.39186,"is_reserved":false,"is_disabled":false,"rental_uris":{"android":"levelo://app?vid=a4f76d36-b463-42c4-a196-16ca09b7631b","ios":"levelo://app?vid=a4f76d36-b463-42c4-a196-16ca09b7631b"},"vehicle_type_id":"4","last_reported":1730369401,"current_range_meters":32400,"station_id":"ce4bhhp2rcd13ifvqfm0","pricing_plan_id":"cebpf4jnsgd1na2vs0mg"},{"bike_id":"1ace14c5-1992-46b1-87cf-4a1d3c62f592","system_id":"levelo_inurba_marseille","lat":43.28154,"lon":5.42643,"is_reserved":false,"is_disabled":false,"rental_uris":{"android":"levelo://app?vid=1ace14c5-1992-46b1-87cf-4a1d3c62f592","ios":"levelo://app?vid=1ace14c5-1992-46b1-87cf-4a1d3c62f592"},"vehicle_type_id":"4","last_reported":1730369401,"current_range_meters":16800,"station_id":"ce4bhnh2rcd13ifvqgug","pricing_plan_id":"cebpf4jnsgd1na2vs0mg"},{"bike_id":"cdfe6f8b-acef-4a25-8b70-35a558780a86","system_id":"levelo_inurba_marseille","lat":43.28419,"lon":5.34981,"is_reserved":false,"is_disabled":false,"rental_uris":{"android":"levelo://app?vid=cdfe6f8b-acef-4a25-8b70-35a558780a86","ios":"levelo://app?vid=cdfe6f8b-acef-4a25-8b70-35a558780a86"},"vehicle_type_id":"4","last_reported":1730369401,"current_range_meters":10800,"station_id":"ce4bhbh2rcd13ifvqepg","pricing_plan_id":"cebpf4jnsgd1na2vs0mg"},{"bike_id":"d57a1092-3bd9-4874-b509-2b8a74c2ad8c","system_id":"levelo_inurba_marseille","lat":43.33116,"lon":5.38222,"is_reserved":false,"is_disabled":false,"rental_uris":{"android":"levelo://app?vid=d57a1092-3bd9-4874-b509-2b8a74c2ad8c","ios":"levelo://app?vid=d57a1092-3bd9-4874-b509-2b8a74c2ad8c"},"vehicle_type_id":"4","last_reported":1730369401,"current_range_meters":26000,"station_id":"","pricing_plan_id":"cebpf4jnsgd1na2vs0mg"},{"bike_id":"99c34683-3974-4ad6-8eec-cd7786e64ef6","system_id":"levelo_inurba_marseille","lat":43.29569,"lon":5.37515,"is_reserved":false,"is_disabled":false,"rental_uris":{"android":"levelo://app?vid=99c34683-3974-4ad6-8eec-cd7786e64ef6","ios":"levelo://app?vid=99c34683-3974-4ad6-8eec-cd7786e64ef6"},"vehicle_type_id":"4","last_reported":1730369401,"current_range_meters":11600,"station_id":"ce4bgh92rcd13ifvqb50","pricing_plan_id":"cebpf4jnsgd1na2vs0mg"},{"bike_id":"290764c0-04f9-4aae-9bc4-9ccac7ef2857","system_id":"levelo_inurba_marseille","lat":43.3031,"lon":5.36903,"is_reserved":false,"is_disabled":false,"rental_uris":{"android":"levelo://app?vid=290764c0-04f9-4aae-9bc4-9ccac7ef2857","ios":"levelo://app?vid=290764c0-04f9-4aae-9bc4-9ccac7ef2857"},"vehicle_type_id":"4","last_reported":1730369401,"current_range_meters":38800,"station_id":"ce4bgqh2rcd13ifvqc5g","pricing_plan_id":"cebpf4jnsgd1na2vs0mg"},{"bike_id":"ab2ebdc3-43b7-4bd6-8c67-3528f8e944e2","system_id":"levelo_inurba_marseille","lat":43.295673,"lon":5.375208,"is_reserved":false,"is_disabled":false,"rental_uris":{"android":"levelo://app?vid=ab2ebdc3-43b7-4bd6-8c67-3528f8e944e2","ios":"levelo://app?vid=ab2ebdc3-43b7-4bd6-8c67-3528f8e944e2"},"vehicle_type_id":"4","last_reported":1730369401,"current_range_meters":35600,"station_id":"ce4bgh92rcd13ifvqb50","pricing_plan_id":"cebpf4jnsgd1na2vs0mg"},{"bike_id":"6c93d9a7-41fb-47dd-a9da-4a36446ca6ef","system_id":"levelo_inurba_marseille","lat":43.29045,"lon":5.39963,"is_reserved":false,"is_disabled":false,"rental_uris":{"android":"levelo://app?vid=6c93d9a7-41fb-47dd-a9da-4a36446ca6ef","ios":"levelo://app?vid=6c93d9a7-41fb-47dd-a9da-4a36446ca6ef"},"vehicle_type_id":"4","last_reported":1730369401,"current_range_meters":10800,"station_id":"ce4bh392rcd13ifvqdm0","pricing_plan_id":"cebpf4jnsgd1na2vs0mg"},{"bike_id":"0e6dd02c-46ea-478c-9dc6-e1b5bd3823e1","system_id":"levelo_inurba_marseille","lat":43.30136,"lon":5.3742,"is_reserved":false,"is_disabled":false,"rental_uris":{"android":"levelo://app?vid=0e6dd02c-46ea-478c-9dc6-e1b5bd3823e1","ios":"levelo://app?vid=0e6dd02c-46ea-478c-9dc6-e1b5bd3823e1"},"vehicle_type_id":"4","last_reported":1730369401,"current_range_meters":39200,"station_id":"ce4bgs92rcd13ifvqcc0","pricing_plan_id":"cebpf4jnsgd1na2vs0mg"},{"bike_id":"33d7239f-73a3-4ee6-886d-d4f39be7304a","system_id":"levelo_inurba_marseille","lat":43.31815,"lon":5.37436,"is_reserved":false,"is_disabled":false,"rental_uris":{"android":"levelo://app?vid=33d7239f-73a3-4ee6-886d-d4f39be7304a","ios":"levelo://app?vid=33d7239f-73a3-4ee6-886d-d4f39be7304a"},"vehicle_type_id":"4","last_reported":1730369401,"current_range_meters":16000,"station_id":"","pricing_plan_id":"cebpf4jnsgd1na2vs0mg"},{"bike_id":"becf2d33-5c51-4a08-954d-e9b94c0847f6","system_id":"levelo_inurba_marseille","lat":43.30179,"lon":5.36616,"is_reserved":false,"is_disabled":false,"rental_uris":{"android":"levelo://app?vid=becf2d33-5c51-4a08-954d-e9b94c0847f6","ios":"levelo://app?vid=becf2d33-5c51-4a08-954d-e9b94c0847f6"},"vehicle_type_id":"4","last_reported":1730369401,"current_range_meters":38000,"station_id":"ce4bgrh2rcd13ifvqc8g","pricing_plan_id":"cebpf4jnsgd1na2vs0mg"},{"bike_id":"d2e0efbb-61ff-424a-9cde-183324d21273","system_id":"levelo_inurba_marseille","lat":43.23965,"lon":5.36631,"is_reserved":false,"is_disabled":false,"rental_uris":{"android":"levelo://app?vid=d2e0efbb-61ff-424a-9cde-183324d21273","ios":"levelo://app?vid=d2e0efbb-61ff-424a-9cde-183324d21273"},"vehicle_type_id":"4","last_reported":1730369401,"current_range_meters":39200,"station_id":"ce4bhi12rcd13ifvqfp0","pricing_plan_id":"cebpf4jnsgd1na2vs0mg"},{"bike_id":"73e9d24a-2fc7-40cb-a46d-ca1afd2daf32","system_id":"levelo_inurba_marseille","lat":43.26951,"lon":5.38642,"is_reserved":false,"is_disabled":false,"rental_uris":{"android":"levelo://app?vid=73e9d24a-2fc7-40cb-a46d-ca1afd2daf32","ios":"levelo://app?vid=73e9d24a-2fc7-40cb-a46d-ca1afd2daf32"},"vehicle_type_id":"4","last_reported":1730369401,"current_range_meters":13600,"station_id":"ce4bhh92rcd13ifvqfh0","pricing_plan_id":"cebpf4jnsgd1na2vs0mg"},{"bike_id":"f7192669-78f5-4b47-81b4-fb9537c785ec","system_id":"levelo_inurba_marseille","lat":43.29802,"lon":5.38097,"is_reserved":false,"is_disabled":false,"rental_uris":{"android":"levelo://app?vid=f7192669-78f5-4b47-81b4-fb9537c785ec","ios":"levelo://app?vid=f7192669-78f5-4b47-81b4-fb9537c785ec"},"vehicle_type_id":"4","last_reported":1730369401,"current_range_meters":38800,"station_id":"ce4bgip2rcd13ifvqbb0","pricing_plan_id":"cebpf4jnsgd1na2vs0mg"},{"bike_id":"3e68ff33-06ed-4f58-92d6-c7e8e60269c9","system_id":"levelo_inurba_marseille","lat":43.32485,"lon":5.36557,"is_reserved":false,"is_disabled":false,"rental_uris":{"android":"levelo://app?vid=3e68ff33-06ed-4f58-92d6-c7e8e60269c9","ios":"levelo://app?vid=3e68ff33-06ed-4f58-92d6-c7e8e60269c9"},"vehicle_type_id":"4","last_reported":1730369401,"current_range_meters":36400,"station_id":"ce4bhs12rcd13ifvqhvg","pricing_plan_id":"cebpf4jnsgd1na2vs0mg"},{"bike_id":"3b23c379-295e-4ade-ab46-6e2efa3d0a81","system_id":"levelo_inurba_marseille","lat":43.23965,"lon":5.36632,"is_reserved":false,"is_disabled":false,"rental_uris":{"android":"levelo://app?vid=3b23c379-295e-4ade-ab46-6e2efa3d0a81","ios":"levelo://app?vid=3b23c379-295e-4ade-ab46-6e2efa3d0a81"},"vehicle_type_id":"4","last_reported":1730369401,"current_range_meters":22400,"station_id":"ce4bhi12rcd13ifvqfp0","pricing_plan_id":"cebpf4jnsgd1na2vs0mg"},{"bike_id":"c14d09d1-3823-4a39-b14a-554f05542178","system_id":"levelo_inurba_marseille","lat":43.30279,"lon":5.37695,"is_reserved":false,"is_disabled":false,"rental_uris":{"android":"levelo://app?vid=c14d09d1-3823-4a39-b14a-554f05542178","ios":"levelo://app?vid=c14d09d1-3823-4a39-b14a-554f05542178"},"vehicle_type_id":"4","last_reported":1730369401,"current_range_meters":38800,"station_id":"ce4bguh2rcd13ifvqcj0","pricing_plan_id":"cebpf4jnsgd1na2vs0mg"},{"bike_id":"a46f735d-9514-4cfd-9056-f0e46088886d","system_id":"levelo_inurba_marseille","lat":43.29842,"lon":5.36265,"is_reserved":false,"is_disabled":false,"rental_uris":{"android":"levelo://app?vid=a46f735d-9514-4cfd-9056-f0e46088886d","ios":"levelo://app?vid=a46f735d-9514-4cfd-9056-f0e46088886d"},"vehicle_type_id":"4","last_reported":1730369401,"current_range_meters":38800,"station_id":"ce4bgpp2rcd13ifvqc3g","pricing_plan_id":"cebpf4jnsgd1na2vs0mg"},{"bike_id":"8fbee397-c726-4d42-ae6d-7e6a955a3eb5","system_id":"levelo_inurba_marseille","lat":43.23062,"lon":5.35491,"is_reserved":false,"is_disabled":false,"rental_uris":{"android":"levelo://app?vid=8fbee397-c726-4d42-ae6d-7e6a955a3eb5","ios":"levelo://app?vid=8fbee397-c726-4d42-ae6d-7e6a955a3eb5"},"vehicle_type_id":"4","last_reported":1730369401,"current_range_meters":37600,"station_id":"cpo3342slgdg3j2ifvpg","pricing_plan_id":"cebpf4jnsgd1na2vs0mg"},{"bike_id":"e9637a0f-11e5-4127-a13f-75047ca6a5cc","system_id":"levelo_inurba_marseille","lat":43.30918,"lon":5.36853,"is_reserved":false,"is_disabled":false,"rental_uris":{"android":"levelo://app?vid=e9637a0f-11e5-4127-a13f-75047ca6a5cc","ios":"levelo://app?vid=e9637a0f-11e5-4127-a13f-75047ca6a5cc"},"vehicle_type_id":"4","last_reported":1730369401,"current_range_meters":28000,"station_id":"ce4bgn92rcd13ifvqbvg","pricing_plan_id":"cebpf4jnsgd1na2vs0mg"},{"bike_id":"fea23d88-9bbb-4ffa-af08-7b03ca37348f","system_id":"levelo_inurba_marseille","lat":43.23184,"lon":5.39988,"is_reserved":false,"is_disabled":false,"rental_uris":{"android":"levelo://app?vid=fea23d88-9bbb-4ffa-af08-7b03ca37348f","ios":"levelo://app?vid=fea23d88-9bbb-4ffa-af08-7b03ca37348f"},"vehicle_type_id":"4","last_reported":1730369401,"current_range_meters":26800,"station_id":"ce4bhn12rcd13ifvqgqg","pricing_plan_id":"cebpf4jnsgd1na2vs0mg"},{"bike_id":"9f0cbdc8-c1d6-4064-9b78-d9e52e0cd33d","system_id":"levelo_inurba_marseille","lat":43.28933,"lon":5.39641,"is_reserved":false,"is_disabled":false,"rental_uris":{"android":"levelo://app?vid=9f0cbdc8-c1d6-4064-9b78-d9e52e0cd33d","ios":"levelo://app?vid=9f0cbdc8-c1d6-4064-9b78-d9e52e0cd33d"},"vehicle_type_id":"4","last_reported":1730369401,"current_range_meters":36800,"station_id":"ce4bh3h2rcd13ifvqdn0","pricing_plan_id":"cebpf4jnsgd1na2vs0mg"},{"bike_id":"02e39b18-963f-467b-8c5c-cef232d22c0c","system_id":"levelo_inurba_marseille","lat":43.30185,"lon":5.36609,"is_reserved":false,"is_disabled":false,"rental_uris":{"android":"levelo://app?vid=02e39b18-963f-467b-8c5c-cef232d22c0c","ios":"levelo://app?vid=02e39b18-963f-467b-8c5c-cef232d22c0c"},"vehicle_type_id":"4","last_reported":1730369401,"current_range_meters":30800,"station_id":"ce4bgrh2rcd13ifvqc8g","pricing_plan_id":"cebpf4jnsgd1na2vs0mg"},{"bike_id":"160c3125-d109-49e3-a687-ede78b99dea2","system_id":"levelo_inurba_marseille","lat":43.23191,"lon":5.3554,"is_reserved":false,"is_disabled":false,"rental_uris":{"android":"levelo://app?vid=160c3125-d109-49e3-a687-ede78b99dea2","ios":"levelo://app?vid=160c3125-d109-49e3-a687-ede78b99dea2"},"vehicle_type_id":"4","last_reported":1730369401,"current_range_meters":36000,"station_id":"ce4bhu92rcd13ifvqi70","pricing_plan_id":"cebpf4jnsgd1na2vs0mg"},{"bike_id":"0f1e024c-64a7-4a21-887c-49e143f609d2","system_id":"levelo_inurba_marseille","lat":43.2315,"lon":5.43718,"is_reserved":false,"is_disabled":false,"rental_uris":{"android":"levelo://app?vid=0f1e024c-64a7-4a21-887c-49e143f609d2","ios":"levelo://app?vid=0f1e024c-64a7-4a21-887c-49e143f609d2"},"vehicle_type_id":"4","last_reported":1730369401,"current_range_meters":24400,"station_id":"ce4bhmp2rcd13ifvqgog","pricing_plan_id":"cebpf4jnsgd1na2vs0mg"},{"bike_id":"4d18b5d4-7277-4d5f-aad9-36361b09753f","system_id":"levelo_inurba_marseille","lat":43.27943,"lon":5.41049,"is_reserved":false,"is_disabled":false,"rental_uris":{"android":"levelo://app?vid=4d18b5d4-7277-4d5f-aad9-36361b09753f","ios":"levelo://app?vid=4d18b5d4-7277-4d5f-aad9-36361b09753f"},"vehicle_type_id":"4","last_reported":1730369401,"current_range_meters":32800,"station_id":"ce4bhnp2rcd13ifvqh0g","pricing_plan_id":"cebpf4jnsgd1na2vs0mg"},{"bike_id":"b5786939-88c9-40c0-84f5-48960baee95d","system_id":"levelo_inurba_marseille","lat":43.3266,"lon":5.40984,"is_reserved":false,"is_disabled":false,"rental_uris":{"android":"levelo://app?vid=b5786939-88c9-40c0-84f5-48960baee95d","ios":"levelo://app?vid=b5786939-88c9-40c0-84f5-48960baee95d"},"vehicle_type_id":"4","last_reported":1730369401,"current_range_meters":35200,"station_id":"ce4bhpp2rcd13ifvqhgg","pricing_plan_id":"cebpf4jnsgd1na2vs0mg"},{"bike_id":"59ea661b-f3b4-4778-8f8b-b2fab405285d","system_id":"levelo_inurba_marseille","lat":43.23148,"lon":5.43727,"is_reserved":false,"is_disabled":false,"rental_uris":{"android":"levelo://app?vid=59ea661b-f3b4-4778-8f8b-b2fab405285d","ios":"levelo://app?vid=59ea661b-f3b4-4778-8f8b-b2fab405285d"},"vehicle_type_id":"4","last_reported":1730369401,"current_range_meters":28400,"station_id":"ce4bhmp2rcd13ifvqgog","pricing_plan_id":"cebpf4jnsgd1na2vs0mg"},{"bike_id":"6d48a8f4-2226-4758-a557-cb446c186a59","system_id":"levelo_inurba_marseille","lat":43.28153,"lon":5.42646,"is_reserved":false,"is_disabled":false,"rental_uris":{"android":"levelo://app?vid=6d48a8f4-2226-4758-a557-cb446c186a59","ios":"levelo://app?vid=6d48a8f4-2226-4758-a557-cb446c186a59"},"vehicle_type_id":"4","last_reported":1730369401,"current_range_meters":30000,"station_id":"ce4bhnh2rcd13ifvqgug","pricing_plan_id":"cebpf4jnsgd1na2vs0mg"},{"bike_id":"61e384d5-7652-4a49-90ce-91935e978a44","system_id":"levelo_inurba_marseille","lat":43.26934,"lon":5.3891,"is_reserved":false,"is_disabled":false,"rental_uris":{"android":"levelo://app?vid=61e384d5-7652-4a49-90ce-91935e978a44","ios":"levelo://app?vid=61e384d5-7652-4a49-90ce-91935e978a44"},"vehicle_type_id":"4","last_reported":1730369401,"current_range_meters":37600,"station_id":"ce4bhhh2rcd13ifvqfl0","pricing_plan_id":"cebpf4jnsgd1na2vs0mg"},{"bike_id":"2f0f7b31-4a6b-4fde-894e-497ed65bf9c4","system_id":"levelo_inurba_marseille","lat":43.29613,"lon":5.37725,"is_reserved":false,"is_disabled":false,"rental_uris":{"android":"levelo://app?vid=2f0f7b31-4a6b-4fde-894e-497ed65bf9c4","ios":"levelo://app?vid=2f0f7b31-4a6b-4fde-894e-497ed65bf9c4"},"vehicle_type_id":"4","last_reported":1730369401,"current_range_meters":32000,"station_id":"ce4bgi92rcd13ifvqb90","pricing_plan_id":"cebpf4jnsgd1na2vs0mg"},{"bike_id":"58ea32f0-93d9-4bdf-a4ac-64db27e3bd10","system_id":"levelo_inurba_marseille","lat":43.30081,"lon":5.39087,"is_reserved":false,"is_disabled":false,"rental_uris":{"android":"levelo://app?vid=58ea32f0-93d9-4bdf-a4ac-64db27e3bd10","ios":"levelo://app?vid=58ea32f0-93d9-4bdf-a4ac-64db27e3bd10"},"vehicle_type_id":"4","last_reported":1730369401,"current_range_meters":16400,"station_id":"ce4bh192rcd13ifvqdb0","pricing_plan_id":"cebpf4jnsgd1na2vs0mg"},{"bike_id":"7c763de4-e7ce-4040-b15f-5fc817fb3972","system_id":"levelo_inurba_marseille","lat":43.26804,"lon":5.4027,"is_reserved":false,"is_disabled":false,"rental_uris":{"android":"levelo://app?vid=7c763de4-e7ce-4040-b15f-5fc817fb3972","ios":"levelo://app?vid=7c763de4-e7ce-4040-b15f-5fc817fb3972"},"vehicle_type_id":"4","last_reported":1730369401,"current_range_meters":38800,"station_id":"ce501612rcd8frsf0b60","pricing_plan_id":"cebpf4jnsgd1na2vs0mg"},{"bike_id":"59c14d9b-4823-424d-8c3d-75071815bf43","system_id":"levelo_inurba_marseille","lat":43.24386,"lon":5.37052,"is_reserved":false,"is_disabled":false,"rental_uris":{"android":"levelo://app?vid=59c14d9b-4823-424d-8c3d-75071815bf43","ios":"levelo://app?vid=59c14d9b-4823-424d-8c3d-75071815bf43"},"vehicle_type_id":"4","last_reported":1730369401,"current_range_meters":18000,"station_id":"ce4bhhh2rcd13ifvqfk0","pricing_plan_id":"cebpf4jnsgd1na2vs0mg"},{"bike_id":"a5479bdb-5353-4424-ba7d-c18a19a75155","system_id":"levelo_inurba_marseille","lat":43.25935,"lon":5.40902,"is_reserved":false,"is_disabled":false,"rental_uris":{"android":"levelo://app?vid=a5479bdb-5353-4424-ba7d-c18a19a75155","ios":"levelo://app?vid=a5479bdb-5353-4424-ba7d-c18a19a75155"},"vehicle_type_id":"4","last_reported":1730369401,"current_range_meters":31200,"station_id":"ce4bhm92rcd13ifvqglg","pricing_plan_id":"cebpf4jnsgd1na2vs0mg"},{"bike_id":"2859b316-a8ab-4dd8-bff5-db6c8154c1a7","system_id":"levelo_inurba_marseille","lat":43.2963,"lon":5.40592,"is_reserved":false,"is_disabled":false,"rental_uris":{"android":"levelo://app?vid=2859b316-a8ab-4dd8-bff5-db6c8154c1a7","ios":"levelo://app?vid=2859b316-a8ab-4dd8-bff5-db6c8154c1a7"},"vehicle_type_id":"4","last_reported":1730369401,"current_range_meters":4000,"station_id":"ce4bh0h2rcd13ifvqd60","pricing_plan_id":"cebpf4jnsgd1na2vs0mg"},{"bike_id":"aeaab20f-d580-46f9-b771-cdfa3192d1a2","system_id":"levelo_inurba_marseille","lat":43.30177,"lon":5.36618,"is_reserved":false,"is_disabled":false,"rental_uris":{"android":"levelo://app?vid=aeaab20f-d580-46f9-b771-cdfa3192d1a2","ios":"levelo://app?vid=aeaab20f-d580-46f9-b771-cdfa3192d1a2"},"vehicle_type_id":"4","last_reported":1730369401,"current_range_meters":37600,"station_id":"ce4bgrh2rcd13ifvqc8g","pricing_plan_id":"cebpf4jnsgd1na2vs0mg"},{"bike_id":"e8293b4e-059a-4396-9bed-846c599622d5","system_id":"levelo_inurba_marseille","lat":43.2718,"lon":5.40985,"is_reserved":false,"is_disabled":false,"rental_uris":{"android":"levelo://app?vid=e8293b4e-059a-4396-9bed-846c599622d5","ios":"levelo://app?vid=e8293b4e-059a-4396-9bed-846c599622d5"},"vehicle_type_id":"4","last_reported":1730369401,"current_range_meters":39200,"station_id":"ce4bhl12rcd13ifvqgf0","pricing_plan_id":"cebpf4jnsgd1na2vs0mg"},{"bike_id":"b2676636-0873-4e47-ac17-f5e4f7c2e2c8","system_id":"levelo_inurba_marseille","lat":43.279438,"lon":5.410576,"is_reserved":false,"is_disabled":false,"rental_uris":{"android":"levelo://app?vid=b2676636-0873-4e47-ac17-f5e4f7c2e2c8","ios":"levelo://app?vid=b2676636-0873-4e47-ac17-f5e4f7c2e2c8"},"vehicle_type_id":"4","last_reported":1730369401,"current_range_meters":28400,"station_id":"ce4bhnp2rcd13ifvqh0g","pricing_plan_id":"cebpf4jnsgd1na2vs0mg"},{"bike_id":"0e74805e-97ff-4990-a94d-8b9e488cb48d","system_id":"levelo_inurba_marseille","lat":43.23147,"lon":5.43721,"is_reserved":false,"is_disabled":false,"rental_uris":{"android":"levelo://app?vid=0e74805e-97ff-4990-a94d-8b9e488cb48d","ios":"levelo://app?vid=0e74805e-97ff-4990-a94d-8b9e488cb48d"},"vehicle_type_id":"4","last_reported":1730369401,"current_range_meters":16400,"station_id":"ce4bhmp2rcd13ifvqgog","pricing_plan_id":"cebpf4jnsgd1na2vs0mg"},{"bike_id":"1f891675-16b0-4a24-aaa3-e59260de9b4e","system_id":"levelo_inurba_marseille","lat":43.2593,"lon":5.4091,"is_reserved":false,"is_disabled":false,"rental_uris":{"android":"levelo://app?vid=1f891675-16b0-4a24-aaa3-e59260de9b4e","ios":"levelo://app?vid=1f891675-16b0-4a24-aaa3-e59260de9b4e"},"vehicle_type_id":"4","last_reported":1730369401,"current_range_meters":32400,"station_id":"ce4bhm92rcd13ifvqglg","pricing_plan_id":"cebpf4jnsgd1na2vs0mg"},{"bike_id":"b43b132b-80ee-4fe6-bd8d-75e631f9b63b","system_id":"levelo_inurba_marseille","lat":43.25938,"lon":5.409,"is_reserved":false,"is_disabled":false,"rental_uris":{"android":"levelo://app?vid=b43b132b-80ee-4fe6-bd8d-75e631f9b63b","ios":"levelo://app?vid=b43b132b-80ee-4fe6-bd8d-75e631f9b63b"},"vehicle_type_id":"4","last_reported":1730369401,"current_range_meters":20000,"station_id":"ce4bhm92rcd13ifvqglg","pricing_plan_id":"cebpf4jnsgd1na2vs0mg"},{"bike_id":"0f7f73e7-ae7d-43bb-b477-742ce0fcf346","system_id":"levelo_inurba_marseille","lat":43.29078,"lon":5.37194,"is_reserved":false,"is_disabled":false,"rental_uris":{"android":"levelo://app?vid=0f7f73e7-ae7d-43bb-b477-742ce0fcf346","ios":"levelo://app?vid=0f7f73e7-ae7d-43bb-b477-742ce0fcf346"},"vehicle_type_id":"4","last_reported":1730369401,"current_range_meters":9200,"station_id":"ce4bha92rcd13ifvqeh0","pricing_plan_id":"cebpf4jnsgd1na2vs0mg"},{"bike_id":"2e679aa2-6222-4666-94d2-8febbbac34cf","system_id":"levelo_inurba_marseille","lat":43.289426,"lon":5.480666,"is_reserved":false,"is_disabled":false,"rental_uris":{"android":"levelo://app?vid=2e679aa2-6222-4666-94d2-8febbbac34cf","ios":"levelo://app?vid=2e679aa2-6222-4666-94d2-8febbbac34cf"},