{"last_updated":1725383318,"ttl":30,"version":"2.2","data":{"bikes":[{"bike_id":"bfcaf92c-2d9c-4f36-893d-61a01c6f848f","system_id":"levelo_inurba_marseille","lat":43.31341,"lon":5.367098,"is_reserved":false,"is_disabled":false,"rental_uris":{"android":"levelo://app?vid=bfcaf92c-2d9c-4f36-893d-61a01c6f848f","ios":"levelo://app?vid=bfcaf92c-2d9c-4f36-893d-61a01c6f848f"},"vehicle_type_id":"4","last_reported":1725383318,"current_range_meters":16800,"station_id":"ce4bgr92rcd13ifvqc6g","pricing_plan_id":"cebpf4jnsgd1na2vs0mg"},{"bike_id":"8024de8e-cd8b-447d-bb66-6aef8e548ad1","system_id":"levelo_inurba_marseille","lat":43.309039,"lon":5.371797,"is_reserved":false,"is_disabled":false,"rental_uris":{"android":"levelo://app?vid=8024de8e-cd8b-447d-bb66-6aef8e548ad1","ios":"levelo://app?vid=8024de8e-cd8b-447d-bb66-6aef8e548ad1"},"vehicle_type_id":"4","last_reported":1725383318,"current_range_meters":0,"station_id":"ce4bguh2rcd13ifvqckg","pricing_plan_id":"cebpf4jnsgd1na2vs0mg"},{"bike_id":"dee6175e-cd0d-4691-a44c-a092974e28b5","system_id":"levelo_inurba_marseille","lat":43.318167,"lon":5.369337,"is_reserved":false,"is_disabled":false,"rental_uris":{"android":"levelo://app?vid=dee6175e-cd0d-4691-a44c-a092974e28b5","ios":"levelo://app?vid=dee6175e-cd0d-4691-a44c-a092974e28b5"},"vehicle_type_id":"4","last_reported":1725383318,"current_range_meters":6800,"station_id":"","pricing_plan_id":"cebpf4jnsgd1na2vs0mg"},{"bike_id":"83fd333c-4284-4bd7-b742-7795237d1476","system_id":"levelo_inurba_marseille","lat":43.30544,"lon":5.36547,"is_reserved":false,"is_disabled":false,"rental_uris":{"android":"levelo://app?vid=83fd333c-4284-4bd7-b742-7795237d1476","ios":"levelo://app?vid=83fd333c-4284-4bd7-b742-7795237d1476"},"vehicle_type_id":"4","last_reported":1725383318,"current_range_meters":26800,"station_id":"ce4bgs12rcd13ifvqcag","pricing_plan_id":"cebpf4jnsgd1na2vs0mg"},{"bike_id":"9c327a20-65e6-4cf7-8165-169bb977067e","system_id":"levelo_inurba_marseille","lat":43.301396,"lon":5.387812,"is_reserved":false,"is_disabled":false,"rental_uris":{"android":"levelo://app?vid=9c327a20-65e6-4cf7-8165-169bb977067e","ios":"levelo://app?vid=9c327a20-65e6-4cf7-8165-169bb977067e"},"vehicle_type_id":"4","last_reported":1725383318,"current_range_meters":12000,"station_id":"ce4bghh2rcd13ifvqb60","pricing_plan_id":"cebpf4jnsgd1na2vs0mg"},{"bike_id":"30bedc34-cac3-416c-a924-84cd48a11640","system_id":"levelo_inurba_marseille","lat":43.32189,"lon":5.36886,"is_reserved":false,"is_disabled":false,"rental_uris":{"android":"levelo://app?vid=30bedc34-cac3-416c-a924-84cd48a11640","ios":"levelo://app?vid=30bedc34-cac3-416c-a924-84cd48a11640"},"vehicle_type_id":"4","last_reported":1725383318,"current_range_meters":8400,"station_id":"","pricing_plan_id":"cebpf4jnsgd1na2vs0mg"},{"bike_id":"e8e71965-0a71-4311-b978-463b1ff43a31","system_id":"levelo_inurba_marseille","lat":43.30786,"lon":5.3801,"is_reserved":false,"is_disabled":false,"rental_uris":{"android":"levelo://app?vid=e8e71965-0a71-4311-b978-463b1ff43a31","ios":"levelo://app?vid=e8e71965-0a71-4311-b978-463b1ff43a31"},"vehicle_type_id":"4","last_reported":1725383318,"current_range_meters":1600,"station_id":"","pricing_plan_id":"cebpf4jnsgd1na2vs0mg"},{"bike_id":"7ae08621-4d0b-4c89-8cb5-798cf20a709f","system_id":"levelo_inurba_marseille","lat":43.299724,"lon":5.371829,"is_reserved":false,"is_disabled":false,"rental_uris":{"android":"levelo://app?vid=7ae08621-4d0b-4c89-8cb5-798cf20a709f","ios":"levelo://app?vid=7ae08621-4d0b-4c89-8cb5-798cf20a709f"},"vehicle_type_id":"4","last_reported":1725383318,"current_range_meters":0,"station_id":"ce4bgr92rcd13ifvqc7g","pricing_plan_id":"cebpf4jnsgd1na2vs0mg"},{"bike_id":"9d7d2ab2-a556-4254-b268-cdc0e0093435","system_id":"levelo_inurba_marseille","lat":43.308012,"lon":5.381511,"is_reserved":false,"is_disabled":false,"rental_uris":{"android":"levelo://app?vid=9d7d2ab2-a556-4254-b268-cdc0e0093435","ios":"levelo://app?vid=9d7d2ab2-a556-4254-b268-cdc0e0093435"},"vehicle_type_id":"4","last_reported":1725383318,"current_range_meters":4400,"station_id":"ce4bgt12rcd13ifvqce0","pricing_plan_id":"cebpf4jnsgd1na2vs0mg"},{"bike_id":"5aacf9b4-483f-41f3-a531-f01d98346a89","system_id":"levelo_inurba_marseille","lat":43.324771,"lon":5.36557,"is_reserved":false,"is_disabled":false,"rental_uris":{"android":"levelo://app?vid=5aacf9b4-483f-41f3-a531-f01d98346a89","ios":"levelo://app?vid=5aacf9b4-483f-41f3-a531-f01d98346a89"},"vehicle_type_id":"4","last_reported":1725383318,"current_range_meters":7200,"station_id":"ce4bhs12rcd13ifvqhvg","pricing_plan_id":"cebpf4jnsgd1na2vs0mg"},{"bike_id":"7d63b6bb-b461-40d8-9e0c-47048ab8f21d","system_id":"levelo_inurba_marseille","lat":43.324771,"lon":5.36557,"is_reserved":false,"is_disabled":false,"rental_uris":{"android":"levelo://app?vid=7d63b6bb-b461-40d8-9e0c-47048ab8f21d","ios":"levelo://app?vid=7d63b6bb-b461-40d8-9e0c-47048ab8f21d"},"vehicle_type_id":"4","last_reported":1725383318,"current_range_meters":3200,"station_id":"ce4bhs12rcd13ifvqhvg","pricing_plan_id":"cebpf4jnsgd1na2vs0mg"},{"bike_id":"c1f37e38-afda-43be-809f-fbb7ad420795","system_id":"levelo_inurba_marseille","lat":43.32485,"lon":5.36572,"is_reserved":false,"is_disabled":false,"rental_uris":{"android":"levelo://app?vid=c1f37e38-afda-43be-809f-fbb7ad420795","ios":"levelo://app?vid=c1f37e38-afda-43be-809f-fbb7ad420795"},"vehicle_type_id":"4","last_reported":1725383318,"current_range_meters":0,"station_id":"ce4bhs12rcd13ifvqhvg","pricing_plan_id":"cebpf4jnsgd1na2vs0mg"},{"bike_id":"81f89127-3c15-4b94-b6fa-cafe332f7932","system_id":"levelo_inurba_marseille","lat":43.32486,"lon":5.36575,"is_reserved":false,"is_disabled":false,"rental_uris":{"android":"levelo://app?vid=81f89127-3c15-4b94-b6fa-cafe332f7932","ios":"levelo://app?vid=81f89127-3c15-4b94-b6fa-cafe332f7932"},"vehicle_type_id":"4","last_reported":1725383318,"current_range_meters":0,"station_id":"ce4bhs12rcd13ifvqhvg","pricing_plan_id":"cebpf4jnsgd1na2vs0mg"},{"bike_id":"6240613f-32ae-49d0-ac14-6fcd92dc8bdf","system_id":"levelo_inurba_marseille","lat":43.325294,"lon":5.367968,"is_reserved":false,"is_disabled":false,"rental_uris":{"android":"levelo://app?vid=6240613f-32ae-49d0-ac14-6fcd92dc8bdf","ios":"levelo://app?vid=6240613f-32ae-49d0-ac14-6fcd92dc8bdf"},"vehicle_type_id":"4","last_reported":1725383318,"current_range_meters":17200,"station_id":"","pricing_plan_id":"cebpf4jnsgd1na2vs0mg"},{"bike_id":"94b17850-8e15-4760-91c2-abb9d97a4ac1","system_id":"levelo_inurba_marseille","lat":43.30025,"lon":5.37106,"is_reserved":false,"is_disabled":false,"rental_uris":{"android":"levelo://app?vid=94b17850-8e15-4760-91c2-abb9d97a4ac1","ios":"levelo://app?vid=94b17850-8e15-4760-91c2-abb9d97a4ac1"},"vehicle_type_id":"4","last_reported":1725383318,"current_range_meters":6400,"station_id":"","pricing_plan_id":"cebpf4jnsgd1na2vs0mg"},{"bike_id":"dbaa058e-eeb6-4400-8abf-eab99ad3bee9","system_id":"levelo_inurba_marseille","lat":43.319935,"lon":5.381699,"is_reserved":false,"is_disabled":false,"rental_uris":{"android":"levelo://app?vid=dbaa058e-eeb6-4400-8abf-eab99ad3bee9","ios":"levelo://app?vid=dbaa058e-eeb6-4400-8abf-eab99ad3bee9"},"vehicle_type_id":"4","last_reported":1725383318,"current_range_meters":26000,"station_id":"ce4bhr12rcd13ifvqhpg","pricing_plan_id":"cebpf4jnsgd1na2vs0mg"},{"bike_id":"7bc38d31-0ad8-460f-875d-0f087792d8c5","system_id":"levelo_inurba_marseille","lat":43.319935,"lon":5.381699,"is_reserved":false,"is_disabled":false,"rental_uris":{"android":"levelo://app?vid=7bc38d31-0ad8-460f-875d-0f087792d8c5","ios":"levelo://app?vid=7bc38d31-0ad8-460f-875d-0f087792d8c5"},"vehicle_type_id":"4","last_reported":1725383318,"current_range_meters":6800,"station_id":"ce4bhr12rcd13ifvqhpg","pricing_plan_id":"cebpf4jnsgd1na2vs0mg"},{"bike_id":"b05a3fe5-1524-4c3a-bb09-142a84e2ca56","system_id":"levelo_inurba_marseille","lat":43.32014,"lon":5.38241,"is_reserved":false,"is_disabled":false,"rental_uris":{"android":"levelo://app?vid=b05a3fe5-1524-4c3a-bb09-142a84e2ca56","ios":"levelo://app?vid=b05a3fe5-1524-4c3a-bb09-142a84e2ca56"},"vehicle_type_id":"4","last_reported":1725383318,"current_range_meters":9600,"station_id":"","pricing_plan_id":"cebpf4jnsgd1na2vs0mg"},{"bike_id":"0026f566-c674-4808-895c-2e3c9dad7bd9","system_id":"levelo_inurba_marseille","lat":43.29845,"lon":5.36259,"is_reserved":false,"is_disabled":false,"rental_uris":{"android":"levelo://app?vid=0026f566-c674-4808-895c-2e3c9dad7bd9","ios":"levelo://app?vid=0026f566-c674-4808-895c-2e3c9dad7bd9"},"vehicle_type_id":"4","last_reported":1725383318,"current_range_meters":400,"station_id":"ce4bgpp2rcd13ifvqc3g","pricing_plan_id":"cebpf4jnsgd1na2vs0mg"},{"bike_id":"d6c7e8e4-b0c9-48ae-b0e8-3a1b5df5fcb5","system_id":"levelo_inurba_marseille","lat":43.30157,"lon":5.38099,"is_reserved":false,"is_disabled":false,"rental_uris":{"android":"levelo://app?vid=d6c7e8e4-b0c9-48ae-b0e8-3a1b5df5fcb5","ios":"levelo://app?vid=d6c7e8e4-b0c9-48ae-b0e8-3a1b5df5fcb5"},"vehicle_type_id":"4","last_reported":1725383318,"current_range_meters":31200,"station_id":"ce4bgjp2rcd13ifvqbh0","pricing_plan_id":"cebpf4jnsgd1na2vs0mg"},{"bike_id":"f0acf9c3-c646-48cc-8f3d-487ec4e44cd3","system_id":"levelo_inurba_marseille","lat":43.30146,"lon":5.38087,"is_reserved":false,"is_disabled":false,"rental_uris":{"android":"levelo://app?vid=f0acf9c3-c646-48cc-8f3d-487ec4e44cd3","ios":"levelo://app?vid=f0acf9c3-c646-48cc-8f3d-487ec4e44cd3"},"vehicle_type_id":"4","last_reported":1725383318,"current_range_meters":19600,"station_id":"ce4bgjp2rcd13ifvqbh0","pricing_plan_id":"cebpf4jnsgd1na2vs0mg"},{"bike_id":"d10e9edd-5b4c-45b9-a36e-cf57f593f9b0","system_id":"levelo_inurba_marseille","lat":43.322872,"lon":5.382756,"is_reserved":false,"is_disabled":false,"rental_uris":{"android":"levelo://app?vid=d10e9edd-5b4c-45b9-a36e-cf57f593f9b0","ios":"levelo://app?vid=d10e9edd-5b4c-45b9-a36e-cf57f593f9b0"},"vehicle_type_id":"4","last_reported":1725383318,"current_range_meters":21200,"station_id":"ce4bhr12rcd13ifvqhqg","pricing_plan_id":"cebpf4jnsgd1na2vs0mg"},{"bike_id":"aff5b3cd-2001-4e55-9c99-94c5559af426","system_id":"levelo_inurba_marseille","lat":43.297794,"lon":5.370888,"is_reserved":false,"is_disabled":false,"rental_uris":{"android":"levelo://app?vid=aff5b3cd-2001-4e55-9c99-94c5559af426","ios":"levelo://app?vid=aff5b3cd-2001-4e55-9c99-94c5559af426"},"vehicle_type_id":"4","last_reported":1725383318,"current_range_meters":29200,"station_id":"ce4bgop2rcd13ifvqc1g","pricing_plan_id":"cebpf4jnsgd1na2vs0mg"},{"bike_id":"bf6729b4-19ab-475f-8ec5-ca2b61de6991","system_id":"levelo_inurba_marseille","lat":43.322872,"lon":5.382756,"is_reserved":false,"is_disabled":false,"rental_uris":{"android":"levelo://app?vid=bf6729b4-19ab-475f-8ec5-ca2b61de6991","ios":"levelo://app?vid=bf6729b4-19ab-475f-8ec5-ca2b61de6991"},"vehicle_type_id":"4","last_reported":1725383318,"current_range_meters":12000,"station_id":"ce4bhr12rcd13ifvqhqg","pricing_plan_id":"cebpf4jnsgd1na2vs0mg"},{"bike_id":"3301428e-72a9-4d22-8559-74f34a4287b4","system_id":"levelo_inurba_marseille","lat":43.322872,"lon":5.382756,"is_reserved":false,"is_disabled":false,"rental_uris":{"android":"levelo://app?vid=3301428e-72a9-4d22-8559-74f34a4287b4","ios":"levelo://app?vid=3301428e-72a9-4d22-8559-74f34a4287b4"},"vehicle_type_id":"4","last_reported":1725383318,"current_range_meters":14800,"station_id":"ce4bhr12rcd13ifvqhqg","pricing_plan_id":"cebpf4jnsgd1na2vs0mg"},{"bike_id":"0e2d3e2f-2464-4ee8-a701-e9a44c14fa8e","system_id":"levelo_inurba_marseille","lat":43.29717,"lon":5.3662,"is_reserved":false,"is_disabled":false,"rental_uris":{"android":"levelo://app?vid=0e2d3e2f-2464-4ee8-a701-e9a44c14fa8e","ios":"levelo://app?vid=0e2d3e2f-2464-4ee8-a701-e9a44c14fa8e"},"vehicle_type_id":"4","last_reported":1725383318,"current_range_meters":0,"station_id":"ce4bgn12rcd13ifvqbt0","pricing_plan_id":"cebpf4jnsgd1na2vs0mg"},{"bike_id":"68cc8a18-0390-44d9-855c-6203892bf7cf","system_id":"levelo_inurba_marseille","lat":43.29709,"lon":5.36618,"is_reserved":false,"is_disabled":false,"rental_uris":{"android":"levelo://app?vid=68cc8a18-0390-44d9-855c-6203892bf7cf","ios":"levelo://app?vid=68cc8a18-0390-44d9-855c-6203892bf7cf"},"vehicle_type_id":"4","last_reported":1725383318,"current_range_meters":0,"station_id":"ce4bgn12rcd13ifvqbt0","pricing_plan_id":"cebpf4jnsgd1na2vs0mg"},{"bike_id":"8a8887de-5c7d-4b1c-91b2-78e9c920b48d","system_id":"levelo_inurba_marseille","lat":43.2968,"lon":5.37291,"is_reserved":false,"is_disabled":false,"rental_uris":{"android":"levelo://app?vid=8a8887de-5c7d-4b1c-91b2-78e9c920b48d","ios":"levelo://app?vid=8a8887de-5c7d-4b1c-91b2-78e9c920b48d"},"vehicle_type_id":"4","last_reported":1725383318,"current_range_meters":30800,"station_id":"ce4bgk12rcd13ifvqbj0","pricing_plan_id":"cebpf4jnsgd1na2vs0mg"},{"bike_id":"52fb6cb2-164b-4999-9b06-cc255cc8b259","system_id":"levelo_inurba_marseille","lat":43.303527,"lon":5.385784,"is_reserved":false,"is_disabled":false,"rental_uris":{"android":"levelo://app?vid=52fb6cb2-164b-4999-9b06-cc255cc8b259","ios":"levelo://app?vid=52fb6cb2-164b-4999-9b06-cc255cc8b259"},"vehicle_type_id":"4","last_reported":1725383318,"current_range_meters":23600,"station_id":"","pricing_plan_id":"cebpf4jnsgd1na2vs0mg"},{"bike_id":"9d78c004-d090-4462-9230-21e0ccfcf73b","system_id":"levelo_inurba_marseille","lat":43.32378,"lon":5.38439,"is_reserved":false,"is_disabled":false,"rental_uris":{"android":"levelo://app?vid=9d78c004-d090-4462-9230-21e0ccfcf73b","ios":"levelo://app?vid=9d78c004-d090-4462-9230-21e0ccfcf73b"},"vehicle_type_id":"4","last_reported":1725383318,"current_range_meters":0,"station_id":"","pricing_plan_id":"cebpf4jnsgd1na2vs0mg"},{"bike_id":"85077b9d-5fda-4c3a-9395-100e1a75a2bd","system_id":"levelo_inurba_marseille","lat":43.29911,"lon":5.38142,"is_reserved":false,"is_disabled":false,"rental_uris":{"android":"levelo://app?vid=85077b9d-5fda-4c3a-9395-100e1a75a2bd","ios":"levelo://app?vid=85077b9d-5fda-4c3a-9395-100e1a75a2bd"},"vehicle_type_id":"4","last_reported":1725383318,"current_range_meters":16400,"station_id":"ce4bgj12rcd13ifvqbc0","pricing_plan_id":"cebpf4jnsgd1na2vs0mg"},{"bike_id":"ac06e218-f846-487e-bfe4-b3f9c8d064c6","system_id":"levelo_inurba_marseille","lat":43.30953,"lon":5.39024,"is_reserved":false,"is_disabled":false,"rental_uris":{"android":"levelo://app?vid=ac06e218-f846-487e-bfe4-b3f9c8d064c6","ios":"levelo://app?vid=ac06e218-f846-487e-bfe4-b3f9c8d064c6"},"vehicle_type_id":"4","last_reported":1725383318,"current_range_meters":0,"station_id":"ce4bgup2rcd13ifvqco0","pricing_plan_id":"cebpf4jnsgd1na2vs0mg"},{"bike_id":"d2473f64-f3d2-4f31-a16b-48dc9e452e76","system_id":"levelo_inurba_marseille","lat":43.309589,"lon":5.390258,"is_reserved":false,"is_disabled":false,"rental_uris":{"android":"levelo://app?vid=d2473f64-f3d2-4f31-a16b-48dc9e452e76","ios":"levelo://app?vid=d2473f64-f3d2-4f31-a16b-48dc9e452e76"},"vehicle_type_id":"4","last_reported":1725383318,"current_range_meters":1600,"station_id":"ce4bgup2rcd13ifvqco0","pricing_plan_id":"cebpf4jnsgd1na2vs0mg"},{"bike_id":"e15d3ee0-d8a9-4611-a0bd-fdadd51721af","system_id":"levelo_inurba_marseille","lat":43.298037,"lon":5.381066,"is_reserved":false,"is_disabled":false,"rental_uris":{"android":"levelo://app?vid=e15d3ee0-d8a9-4611-a0bd-fdadd51721af","ios":"levelo://app?vid=e15d3ee0-d8a9-4611-a0bd-fdadd51721af"},"vehicle_type_id":"4","last_reported":1725383318,"current_range_meters":18000,"station_id":"ce4bgip2rcd13ifvqbb0","pricing_plan_id":"cebpf4jnsgd1na2vs0mg"},{"bike_id":"cafafc01-9973-4039-834e-2e9c888ce463","system_id":"levelo_inurba_marseille","lat":43.298037,"lon":5.381066,"is_reserved":false,"is_disabled":false,"rental_uris":{"android":"levelo://app?vid=cafafc01-9973-4039-834e-2e9c888ce463","ios":"levelo://app?vid=cafafc01-9973-4039-834e-2e9c888ce463"},"vehicle_type_id":"4","last_reported":1725383318,"current_range_meters":10000,"station_id":"ce4bgip2rcd13ifvqbb0","pricing_plan_id":"cebpf4jnsgd1na2vs0mg"},{"bike_id":"f08b4abd-a875-4e15-9e42-281491c3aec5","system_id":"levelo_inurba_marseille","lat":43.29574,"lon":5.37501,"is_reserved":false,"is_disabled":false,"rental_uris":{"android":"levelo://app?vid=f08b4abd-a875-4e15-9e42-281491c3aec5","ios":"levelo://app?vid=f08b4abd-a875-4e15-9e42-281491c3aec5"},"vehicle_type_id":"4","last_reported":1725383318,"current_range_meters":0,"station_id":"ce4bgh92rcd13ifvqb50","pricing_plan_id":"cebpf4jnsgd1na2vs0mg"},{"bike_id":"1d5ce49e-5cb0-4edb-9048-9bec154e1874","system_id":"levelo_inurba_marseille","lat":43.30442,"lon":5.38885,"is_reserved":false,"is_disabled":false,"rental_uris":{"android":"levelo://app?vid=1d5ce49e-5cb0-4edb-9048-9bec154e1874","ios":"levelo://app?vid=1d5ce49e-5cb0-4edb-9048-9bec154e1874"},"vehicle_type_id":"4","last_reported":1725383318,"current_range_meters":0,"station_id":"ce4bgk12rcd13ifvqbi0","pricing_plan_id":"cebpf4jnsgd1na2vs0mg"},{"bike_id":"7d3c62ca-f974-474c-8b41-6774d7938d01","system_id":"levelo_inurba_marseille","lat":43.298037,"lon":5.381066,"is_reserved":false,"is_disabled":false,"rental_uris":{"android":"levelo://app?vid=7d3c62ca-f974-474c-8b41-6774d7938d01","ios":"levelo://app?vid=7d3c62ca-f974-474c-8b41-6774d7938d01"},"vehicle_type_id":"4","last_reported":1725383318,"current_range_meters":16800,"station_id":"ce4bgip2rcd13ifvqbb0","pricing_plan_id":"cebpf4jnsgd1na2vs0mg"},{"bike_id":"9c93d435-298c-43cc-916b-a93547e2a2d1","system_id":"levelo_inurba_marseille","lat":43.297827,"lon":5.381083,"is_reserved":false,"is_disabled":false,"rental_uris":{"android":"levelo://app?vid=9c93d435-298c-43cc-916b-a93547e2a2d1","ios":"levelo://app?vid=9c93d435-298c-43cc-916b-a93547e2a2d1"},"vehicle_type_id":"4","last_reported":1725383318,"current_range_meters":0,"station_id":"ce4bgip2rcd13ifvqbb0","pricing_plan_id":"cebpf4jnsgd1na2vs0mg"},{"bike_id":"7e9d9153-2a25-475b-8d4e-eb2171d7f6ad","system_id":"levelo_inurba_marseille","lat":43.296277,"lon":5.377108,"is_reserved":false,"is_disabled":false,"rental_uris":{"android":"levelo://app?vid=7e9d9153-2a25-475b-8d4e-eb2171d7f6ad","ios":"levelo://app?vid=7e9d9153-2a25-475b-8d4e-eb2171d7f6ad"},"vehicle_type_id":"4","last_reported":1725383318,"current_range_meters":31600,"station_id":"ce4bgi92rcd13ifvqb90","pricing_plan_id":"cebpf4jnsgd1na2vs0mg"},{"bike_id":"d5dc9080-c2da-4dba-b937-eaf1fe3c0c6d","system_id":"levelo_inurba_marseille","lat":43.296263,"lon":5.377094,"is_reserved":false,"is_disabled":false,"rental_uris":{"android":"levelo://app?vid=d5dc9080-c2da-4dba-b937-eaf1fe3c0c6d","ios":"levelo://app?vid=d5dc9080-c2da-4dba-b937-eaf1fe3c0c6d"},"vehicle_type_id":"4","last_reported":1725383318,"current_range_meters":29600,"station_id":"ce4bgi92rcd13ifvqb90","pricing_plan_id":"cebpf4jnsgd1na2vs0mg"},{"bike_id":"a79661cf-a48a-429d-bdcf-55fa6244ff18","system_id":"levelo_inurba_marseille","lat":43.296277,"lon":5.377108,"is_reserved":false,"is_disabled":false,"rental_uris":{"android":"levelo://app?vid=a79661cf-a48a-429d-bdcf-55fa6244ff18","ios":"levelo://app?vid=a79661cf-a48a-429d-bdcf-55fa6244ff18"},"vehicle_type_id":"4","last_reported":1725383318,"current_range_meters":400,"station_id":"ce4bgi92rcd13ifvqb90","pricing_plan_id":"cebpf4jnsgd1na2vs0mg"},{"bike_id":"56bab783-152d-41fb-93f1-ceabb05129c5","system_id":"levelo_inurba_marseille","lat":43.30439,"lon":5.3894,"is_reserved":false,"is_disabled":false,"rental_uris":{"android":"levelo://app?vid=56bab783-152d-41fb-93f1-ceabb05129c5","ios":"levelo://app?vid=56bab783-152d-41fb-93f1-ceabb05129c5"},"vehicle_type_id":"4","last_reported":1725383318,"current_range_meters":0,"station_id":"ce4bgk12rcd13ifvqbi0","pricing_plan_id":"cebpf4jnsgd1na2vs0mg"},{"bike_id":"e78e8185-de83-4b36-81ca-25bd79b13e31","system_id":"levelo_inurba_marseille","lat":43.29532,"lon":5.37498,"is_reserved":false,"is_disabled":false,"rental_uris":{"android":"levelo://app?vid=e78e8185-de83-4b36-81ca-25bd79b13e31","ios":"levelo://app?vid=e78e8185-de83-4b36-81ca-25bd79b13e31"},"vehicle_type_id":"4","last_reported":1725383318,"current_range_meters":0,"station_id":"ce4bgkp2rcd13ifvqbmg","pricing_plan_id":"cebpf4jnsgd1na2vs0mg"},{"bike_id":"bc360afd-c379-469a-b6ec-571721558c74","system_id":"levelo_inurba_marseille","lat":43.299717,"lon":5.384845,"is_reserved":false,"is_disabled":false,"rental_uris":{"android":"levelo://app?vid=bc360afd-c379-469a-b6ec-571721558c74","ios":"levelo://app?vid=bc360afd-c379-469a-b6ec-571721558c74"},"vehicle_type_id":"4","last_reported":1725383318,"current_range_meters":29200,"station_id":"ce4bgj92rcd13ifvqbd0","pricing_plan_id":"cebpf4jnsgd1na2vs0mg"},{"bike_id":"5fe7ceaf-ba6d-48e2-acea-efc001dada6a","system_id":"levelo_inurba_marseille","lat":43.299717,"lon":5.384845,"is_reserved":false,"is_disabled":false,"rental_uris":{"android":"levelo://app?vid=5fe7ceaf-ba6d-48e2-acea-efc001dada6a","ios":"levelo://app?vid=5fe7ceaf-ba6d-48e2-acea-efc001dada6a"},"vehicle_type_id":"4","last_reported":1725383318,"current_range_meters":0,"station_id":"ce4bgj92rcd13ifvqbd0","pricing_plan_id":"cebpf4jnsgd1na2vs0mg"},{"bike_id":"b7aced6c-55d4-4867-ab83-f29755c3aeaa","system_id":"levelo_inurba_marseille","lat":43.299717,"lon":5.384845,"is_reserved":false,"is_disabled":false,"rental_uris":{"android":"levelo://app?vid=b7aced6c-55d4-4867-ab83-f29755c3aeaa","ios":"levelo://app?vid=b7aced6c-55d4-4867-ab83-f29755c3aeaa"},"vehicle_type_id":"4","last_reported":1725383318,"current_range_meters":26000,"station_id":"ce4bgj92rcd13ifvqbd0","pricing_plan_id":"cebpf4jnsgd1na2vs0mg"},{"bike_id":"26d5eee2-de41-4f1d-a722-dcbdf67f57ac","system_id":"levelo_inurba_marseille","lat":43.299724,"lon":5.384848,"is_reserved":false,"is_disabled":false,"rental_uris":{"android":"levelo://app?vid=26d5eee2-de41-4f1d-a722-dcbdf67f57ac","ios":"levelo://app?vid=26d5eee2-de41-4f1d-a722-dcbdf67f57ac"},"vehicle_type_id":"4","last_reported":1725383318,"current_range_meters":7200,"station_id":"ce4bgj92rcd13ifvqbd0","pricing_plan_id":"cebpf4jnsgd1na2vs0mg"},{"bike_id":"7ea1db81-2272-44ee-832b-d3b92418f218","system_id":"levelo_inurba_marseille","lat":43.32367,"lon":5.388836,"is_reserved":false,"is_disabled":false,"rental_uris":{"android":"levelo://app?vid=7ea1db81-2272-44ee-832b-d3b92418f218","ios":"levelo://app?vid=7ea1db81-2272-44ee-832b-d3b92418f218"},"vehicle_type_id":"4","last_reported":1725383318,"current_range_meters":1600,"station_id":"ce4bhqp2rcd13ifvqhog","pricing_plan_id":"cebpf4jnsgd1na2vs0mg"},{"bike_id":"70a8f1d2-2c60-4875-b769-cfe57bc9eff7","system_id":"levelo_inurba_marseille","lat":43.292749,"lon":5.368402,"is_reserved":false,"is_disabled":false,"rental_uris":{"android":"levelo://app?vid=70a8f1d2-2c60-4875-b769-cfe57bc9eff7","ios":"levelo://app?vid=70a8f1d2-2c60-4875-b769-cfe57bc9eff7"},"vehicle_type_id":"4","last_reported":1725383318,"current_range_meters":14000,"station_id":"ce4bhbp2rcd13ifvqesg","pricing_plan_id":"cebpf4jnsgd1na2vs0mg"},{"bike_id":"569eb665-9435-4072-9a3c-5c0a8fa2081c","system_id":"levelo_inurba_marseille","lat":43.292749,"lon":5.368402,"is_reserved":false,"is_disabled":false,"rental_uris":{"android":"levelo://app?vid=569eb665-9435-4072-9a3c-5c0a8fa2081c","ios":"levelo://app?vid=569eb665-9435-4072-9a3c-5c0a8fa2081c"},"vehicle_type_id":"4","last_reported":1725383318,"current_range_meters":0,"station_id":"ce4bhbp2rcd13ifvqesg","pricing_plan_id":"cebpf4jnsgd1na2vs0mg"},{"bike_id":"d4818b22-4104-4e2e-a49e-9858ba33de1c","system_id":"levelo_inurba_marseille","lat":43.292749,"lon":5.368402,"is_reserved":false,"is_disabled":false,"rental_uris":{"android":"levelo://app?vid=d4818b22-4104-4e2e-a49e-9858ba33de1c","ios":"levelo://app?vid=d4818b22-4104-4e2e-a49e-9858ba33de1c"},"vehicle_type_id":"4","last_reported":1725383318,"current_range_meters":27200,"station_id":"ce4bhbp2rcd13ifvqesg","pricing_plan_id":"cebpf4jnsgd1na2vs0mg"},{"bike_id":"562b8e8a-7ab2-490d-90ae-428594984d8e","system_id":"levelo_inurba_marseille","lat":43.293259,"lon":5.371586,"is_reserved":false,"is_disabled":false,"rental_uris":{"android":"levelo://app?vid=562b8e8a-7ab2-490d-90ae-428594984d8e","ios":"levelo://app?vid=562b8e8a-7ab2-490d-90ae-428594984d8e"},"vehicle_type_id":"4","last_reported":1725383318,"current_range_meters":800,"station_id":"ce4bgh92rcd13ifvqb40","pricing_plan_id":"cebpf4jnsgd1na2vs0mg"},{"bike_id":"a7a85e16-0f42-492f-9bc8-fbb83d3a6212","system_id":"levelo_inurba_marseille","lat":43.292749,"lon":5.368402,"is_reserved":false,"is_disabled":false,"rental_uris":{"android":"levelo://app?vid=a7a85e16-0f42-492f-9bc8-fbb83d3a6212","ios":"levelo://app?vid=a7a85e16-0f42-492f-9bc8-fbb83d3a6212"},"vehicle_type_id":"4","last_reported":1725383318,"current_range_meters":10000,"station_id":"ce4bhbp2rcd13ifvqesg","pricing_plan_id":"cebpf4jnsgd1na2vs0mg"},{"bike_id":"f385fbfc-c9fa-4540-a70e-f5cd1bfe0027","system_id":"levelo_inurba_marseille","lat":43.293033,"lon":5.374503,"is_reserved":false,"is_disabled":false,"rental_uris":{"android":"levelo://app?vid=f385fbfc-c9fa-4540-a70e-f5cd1bfe0027","ios":"levelo://app?vid=f385fbfc-c9fa-4540-a70e-f5cd1bfe0027"},"vehicle_type_id":"4","last_reported":1725383318,"current_range_meters":0,"station_id":"ce4bgi12rcd13ifvqb70","pricing_plan_id":"cebpf4jnsgd1na2vs0mg"},{"bike_id":"776711fd-3747-41be-9346-e85ca43b1159","system_id":"levelo_inurba_marseille","lat":43.305994,"lon":5.393687,"is_reserved":false,"is_disabled":false,"rental_uris":{"android":"levelo://app?vid=776711fd-3747-41be-9346-e85ca43b1159","ios":"levelo://app?vid=776711fd-3747-41be-9346-e85ca43b1159"},"vehicle_type_id":"4","last_reported":1725383318,"current_range_meters":0,"station_id":"ce4bh0p2rcd13ifvqd80","pricing_plan_id":"cebpf4jnsgd1na2vs0mg"},{"bike_id":"57b5ab03-1468-4664-b6ce-1e48959d887d","system_id":"levelo_inurba_marseille","lat":43.302992,"lon":5.392136,"is_reserved":false,"is_disabled":false,"rental_uris":{"android":"levelo://app?vid=57b5ab03-1468-4664-b6ce-1e48959d887d","ios":"levelo://app?vid=57b5ab03-1468-4664-b6ce-1e48959d887d"},"vehicle_type_id":"4","last_reported":1725383318,"current_range_meters":0,"station_id":"ce4bgkh2rcd13ifvqbk0","pricing_plan_id":"cebpf4jnsgd1na2vs0mg"},{"bike_id":"2083cb48-1664-4872-9632-b55c132006d1","system_id":"levelo_inurba_marseille","lat":43.29228,"lon":5.36049,"is_reserved":false,"is_disabled":false,"rental_uris":{"android":"levelo://app?vid=2083cb48-1664-4872-9632-b55c132006d1","ios":"levelo://app?vid=2083cb48-1664-4872-9632-b55c132006d1"},"vehicle_type_id":"4","last_reported":1725383318,"current_range_meters":0,"station_id":"ce4bhbh2rcd13ifvqeqg","pricing_plan_id":"cebpf4jnsgd1na2vs0mg"},{"bike_id":"59b43048-16ff-4052-a090-dc168e9000f5","system_id":"levelo_inurba_marseille","lat":43.33373,"lon":5.3664,"is_reserved":false,"is_disabled":false,"rental_uris":{"android":"levelo://app?vid=59b43048-16ff-4052-a090-dc168e9000f5","ios":"levelo://app?vid=59b43048-16ff-4052-a090-dc168e9000f5"},"vehicle_type_id":"4","last_reported":1725383318,"current_range_meters":22800,"station_id":"","pricing_plan_id":"cebpf4jnsgd1na2vs0mg"},{"bike_id":"f616d8c4-8d80-4819-98b6-5c2c3ddcf6fa","system_id":"levelo_inurba_marseille","lat":43.30089,"lon":5.39085,"is_reserved":false,"is_disabled":false,"rental_uris":{"android":"levelo://app?vid=f616d8c4-8d80-4819-98b6-5c2c3ddcf6fa","ios":"levelo://app?vid=f616d8c4-8d80-4819-98b6-5c2c3ddcf6fa"},"vehicle_type_id":"4","last_reported":1725383318,"current_range_meters":7200,"station_id":"ce4bh192rcd13ifvqdb0","pricing_plan_id":"cebpf4jnsgd1na2vs0mg"},{"bike_id":"7d3e8ce5-4801-4cd4-997d-eb5d9afd99bb","system_id":"levelo_inurba_marseille","lat":43.29182,"lon":5.37146,"is_reserved":false,"is_disabled":false,"rental_uris":{"android":"levelo://app?vid=7d3e8ce5-4801-4cd4-997d-eb5d9afd99bb","ios":"levelo://app?vid=7d3e8ce5-4801-4cd4-997d-eb5d9afd99bb"},"vehicle_type_id":"4","last_reported":1725383318,"current_range_meters":0,"station_id":"ce4bha92rcd13ifvqeh0","pricing_plan_id":"cebpf4jnsgd1na2vs0mg"},{"bike_id":"8faca590-6946-4383-826a-976ac2913526","system_id":"levelo_inurba_marseille","lat":43.298764,"lon":5.388973,"is_reserved":false,"is_disabled":false,"rental_uris":{"android":"levelo://app?vid=8faca590-6946-4383-826a-976ac2913526","ios":"levelo://app?vid=8faca590-6946-4383-826a-976ac2913526"},"vehicle_type_id":"4","last_reported":1725383318,"current_range_meters":16400,"station_id":"ce4bh392rcd13ifvqdl0","pricing_plan_id":"cebpf4jnsgd1na2vs0mg"},{"bike_id":"9c1523e6-ea3e-44c6-8834-667b3be8f12a","system_id":"levelo_inurba_marseille","lat":43.2917,"lon":5.37153,"is_reserved":false,"is_disabled":false,"rental_uris":{"android":"levelo://app?vid=9c1523e6-ea3e-44c6-8834-667b3be8f12a","ios":"levelo://app?vid=9c1523e6-ea3e-44c6-8834-667b3be8f12a"},"vehicle_type_id":"4","last_reported":1725383318,"current_range_meters":0,"station_id":"ce4bha92rcd13ifvqeh0","pricing_plan_id":"cebpf4jnsgd1na2vs0mg"},{"bike_id":"d7db26d5-6d55-4bba-b105-ab3c5b617cbb","system_id":"levelo_inurba_marseille","lat":43.313291,"lon":5.396838,"is_reserved":false,"is_disabled":false,"rental_uris":{"android":"levelo://app?vid=d7db26d5-6d55-4bba-b105-ab3c5b617cbb","ios":"levelo://app?vid=d7db26d5-6d55-4bba-b105-ab3c5b617cbb"},"vehicle_type_id":"4","last_reported":1725383318,"current_range_meters":7200,"station_id":"ce4bgvp2rcd13ifvqcu0","pricing_plan_id":"cebpf4jnsgd1na2vs0mg"},{"bike_id":"e266fb4a-95be-42e2-998e-c41d4c0fe5a2","system_id":"levelo_inurba_marseille","lat":43.313291,"lon":5.396838,"is_reserved":false,"is_disabled":false,"rental_uris":{"android":"levelo://app?vid=e266fb4a-95be-42e2-998e-c41d4c0fe5a2","ios":"levelo://app?vid=e266fb4a-95be-42e2-998e-c41d4c0fe5a2"},"vehicle_type_id":"4","last_reported":1725383318,"current_range_meters":10000,"station_id":"ce4bgvp2rcd13ifvqcu0","pricing_plan_id":"cebpf4jnsgd1na2vs0mg"},{"bike_id":"d68c64ac-31b7-4523-ab9f-66a0b8ba6ff8","system_id":"levelo_inurba_marseille","lat":43.29193,"lon":5.35801,"is_reserved":false,"is_disabled":false,"rental_uris":{"android":"levelo://app?vid=d68c64ac-31b7-4523-ab9f-66a0b8ba6ff8","ios":"levelo://app?vid=d68c64ac-31b7-4523-ab9f-66a0b8ba6ff8"},"vehicle_type_id":"4","last_reported":1725383318,"current_range_meters":0,"station_id":"ce4bhb12rcd13ifvqel0","pricing_plan_id":"cebpf4jnsgd1na2vs0mg"},{"bike_id":"492b3ec6-b9e5-40e7-9582-7c9b5ed9670f","system_id":"levelo_inurba_marseille","lat":43.29192,"lon":5.35804,"is_reserved":false,"is_disabled":false,"rental_uris":{"android":"levelo://app?vid=492b3ec6-b9e5-40e7-9582-7c9b5ed9670f","ios":"levelo://app?vid=492b3ec6-b9e5-40e7-9582-7c9b5ed9670f"},"vehicle_type_id":"4","last_reported":1725383318,"current_range_meters":0,"station_id":"ce4bhb12rcd13ifvqel0","pricing_plan_id":"cebpf4jnsgd1na2vs0mg"},{"bike_id":"ff79ac6a-7b05-4386-a1d9-e8670ea7467b","system_id":"levelo_inurba_marseille","lat":43.313291,"lon":5.396838,"is_reserved":false,"is_disabled":false,"rental_uris":{"android":"levelo://app?vid=ff79ac6a-7b05-4386-a1d9-e8670ea7467b","ios":"levelo://app?vid=ff79ac6a-7b05-4386-a1d9-e8670ea7467b"},"vehicle_type_id":"4","last_reported":1725383318,"current_range_meters":2800,"station_id":"ce4bgvp2rcd13ifvqcu0","pricing_plan_id":"cebpf4jnsgd1na2vs0mg"},{"bike_id":"ff315339-d5c4-48ae-892e-869a9304aeec","system_id":"levelo_inurba_marseille","lat":43.313291,"lon":5.396838,"is_reserved":false,"is_disabled":false,"rental_uris":{"android":"levelo://app?vid=ff315339-d5c4-48ae-892e-869a9304aeec","ios":"levelo://app?vid=ff315339-d5c4-48ae-892e-869a9304aeec"},"vehicle_type_id":"4","last_reported":1725383318,"current_range_meters":3600,"station_id":"ce4bgvp2rcd13ifvqcu0","pricing_plan_id":"cebpf4jnsgd1na2vs0mg"},{"bike_id":"5885d2bd-abb9-4d2d-819b-acdc22587f3b","system_id":"levelo_inurba_marseille","lat":43.313291,"lon":5.396838,"is_reserved":false,"is_disabled":false,"rental_uris":{"android":"levelo://app?vid=5885d2bd-abb9-4d2d-819b-acdc22587f3b","ios":"levelo://app?vid=5885d2bd-abb9-4d2d-819b-acdc22587f3b"},"vehicle_type_id":"4","last_reported":1725383318,"current_range_meters":2400,"station_id":"ce4bgvp2rcd13ifvqcu0","pricing_plan_id":"cebpf4jnsgd1na2vs0mg"},{"bike_id":"333221a2-7592-4094-bf67-511c4ab3fff6","system_id":"levelo_inurba_marseille","lat":43.313291,"lon":5.396838,"is_reserved":false,"is_disabled":false,"rental_uris":{"android":"levelo://app?vid=333221a2-7592-4094-bf67-511c4ab3fff6","ios":"levelo://app?vid=333221a2-7592-4094-bf67-511c4ab3fff6"},"vehicle_type_id":"4","last_reported":1725383318,"current_range_meters":14800,"station_id":"ce4bgvp2rcd13ifvqcu0","pricing_plan_id":"cebpf4jnsgd1na2vs0mg"},{"bike_id":"3707201a-adb0-4d8c-8cff-add0c7e7654c","system_id":"levelo_inurba_marseille","lat":43.309038,"lon":5.396546,"is_reserved":false,"is_disabled":false,"rental_uris":{"android":"levelo://app?vid=3707201a-adb0-4d8c-8cff-add0c7e7654c","ios":"levelo://app?vid=3707201a-adb0-4d8c-8cff-add0c7e7654c"},"vehicle_type_id":"4","last_reported":1725383318,"current_range_meters":0,"station_id":"ce4bh012rcd13ifvqcv0","pricing_plan_id":"cebpf4jnsgd1na2vs0mg"},{"bike_id":"48b25d91-f28f-4db0-80ce-7f437dd349dc","system_id":"levelo_inurba_marseille","lat":43.309047,"lon":5.396551,"is_reserved":false,"is_disabled":false,"rental_uris":{"android":"levelo://app?vid=48b25d91-f28f-4db0-80ce-7f437dd349dc","ios":"levelo://app?vid=48b25d91-f28f-4db0-80ce-7f437dd349dc"},"vehicle_type_id":"4","last_reported":1725383318,"current_range_meters":3200,"station_id":"ce4bh012rcd13ifvqcv0","pricing_plan_id":"cebpf4jnsgd1na2vs0mg"},{"bike_id":"0e7eded2-e0c4-4ff9-b6f6-ca6e58783b11","system_id":"levelo_inurba_marseille","lat":43.302008,"lon":5.394694,"is_reserved":false,"is_disabled":false,"rental_uris":{"android":"levelo://app?vid=0e7eded2-e0c4-4ff9-b6f6-ca6e58783b11","ios":"levelo://app?vid=0e7eded2-e0c4-4ff9-b6f6-ca6e58783b11"},"vehicle_type_id":"4","last_reported":1725383318,"current_range_meters":0,"station_id":"ce4bh0p2rcd13ifvqd70","pricing_plan_id":"cebpf4jnsgd1na2vs0mg"},{"bike_id":"5a95b26a-d894-448a-b251-bca03e487828","system_id":"levelo_inurba_marseille","lat":43.29043,"lon":5.37567,"is_reserved":false,"is_disabled":false,"rental_uris":{"android":"levelo://app?vid=5a95b26a-d894-448a-b251-bca03e487828","ios":"levelo://app?vid=5a95b26a-d894-448a-b251-bca03e487828"},"vehicle_type_id":"4","last_reported":1725383318,"current_range_meters":0,"station_id":"ce4bh692rcd13ifvqe90","pricing_plan_id":"cebpf4jnsgd1na2vs0mg"},{"bike_id":"3a5529dd-cc71-4d0e-b2f8-3bbe06896991","system_id":"levelo_inurba_marseille","lat":43.294153,"lon":5.386305,"is_reserved":false,"is_disabled":false,"rental_uris":{"android":"levelo://app?vid=3a5529dd-cc71-4d0e-b2f8-3bbe06896991","ios":"levelo://app?vid=3a5529dd-cc71-4d0e-b2f8-3bbe06896991"},"vehicle_type_id":"4","last_reported":1725383318,"current_range_meters":0,"station_id":"ce4bh2h2rcd13ifvqdh0","pricing_plan_id":"cebpf4jnsgd1na2vs0mg"},{"bike_id":"b3309192-ba6e-437a-ac78-0f821d58575e","system_id":"levelo_inurba_marseille","lat":43.29038,"lon":5.37553,"is_reserved":false,"is_disabled":false,"rental_uris":{"android":"levelo://app?vid=b3309192-ba6e-437a-ac78-0f821d58575e","ios":"levelo://app?vid=b3309192-ba6e-437a-ac78-0f821d58575e"},"vehicle_type_id":"4","last_reported":1725383318,"current_range_meters":19200,"station_id":"ce4bh692rcd13ifvqe90","pricing_plan_id":"cebpf4jnsgd1na2vs0mg"},{"bike_id":"03afb390-733c-47f4-9a92-29ed44653de9","system_id":"levelo_inurba_marseille","lat":43.29424,"lon":5.38623,"is_reserved":false,"is_disabled":false,"rental_uris":{"android":"levelo://app?vid=03afb390-733c-47f4-9a92-29ed44653de9","ios":"levelo://app?vid=03afb390-733c-47f4-9a92-29ed44653de9"},"vehicle_type_id":"4","last_reported":1725383318,"current_range_meters":0,"station_id":"ce4bh2h2rcd13ifvqdh0","pricing_plan_id":"cebpf4jnsgd1na2vs0mg"},{"bike_id":"43a9cc04-27ec-4588-86f2-1f4e9b22465c","system_id":"levelo_inurba_marseille","lat":43.294162,"lon":5.386292,"is_reserved":false,"is_disabled":false,"rental_uris":{"android":"levelo://app?vid=43a9cc04-27ec-4588-86f2-1f4e9b22465c","ios":"levelo://app?vid=43a9cc04-27ec-4588-86f2-1f4e9b22465c"},"vehicle_type_id":"4","last_reported":1725383318,"current_range_meters":800,"station_id":"ce4bh2h2rcd13ifvqdh0","pricing_plan_id":"cebpf4jnsgd1na2vs0mg"},{"bike_id":"36d923db-35b1-428e-bfaa-69813455d305","system_id":"levelo_inurba_marseille","lat":43.294153,"lon":5.386305,"is_reserved":false,"is_disabled":false,"rental_uris":{"android":"levelo://app?vid=36d923db-35b1-428e-bfaa-69813455d305","ios":"levelo://app?vid=36d923db-35b1-428e-bfaa-69813455d305"},"vehicle_type_id":"4","last_reported":1725383318,"current_range_meters":0,"station_id":"ce4bh2h2rcd13ifvqdh0","pricing_plan_id":"cebpf4jnsgd1na2vs0mg"},{"bike_id":"2f0a390d-9fcd-4d5e-989a-313edc87f982","system_id":"levelo_inurba_marseille","lat":43.294162,"lon":5.386292,"is_reserved":false,"is_disabled":false,"rental_uris":{"android":"levelo://app?vid=2f0a390d-9fcd-4d5e-989a-313edc87f982","ios":"levelo://app?vid=2f0a390d-9fcd-4d5e-989a-313edc87f982"},"vehicle_type_id":"4","last_reported":1725383318,"current_range_meters":20400,"station_id":"ce4bh2h2rcd13ifvqdh0","pricing_plan_id":"cebpf4jnsgd1na2vs0mg"},{"bike_id":"fe314f32-e7dd-43fe-9eec-911f58045f57","system_id":"levelo_inurba_marseille","lat":43.29417,"lon":5.38626,"is_reserved":false,"is_disabled":false,"rental_uris":{"android":"levelo://app?vid=fe314f32-e7dd-43fe-9eec-911f58045f57","ios":"levelo://app?vid=fe314f32-e7dd-43fe-9eec-911f58045f57"},"vehicle_type_id":"4","last_reported":1725383318,"current_range_meters":0,"station_id":"ce4bh2h2rcd13ifvqdh0","pricing_plan_id":"cebpf4jnsgd1na2vs0mg"},{"bike_id":"7edeed5f-b6e3-4567-b612-29bc9d88ba68","system_id":"levelo_inurba_marseille","lat":43.289184,"lon":5.366408,"is_reserved":false,"is_disabled":false,"rental_uris":{"android":"levelo://app?vid=7edeed5f-b6e3-4567-b612-29bc9d88ba68","ios":"levelo://app?vid=7edeed5f-b6e3-4567-b612-29bc9d88ba68"},"vehicle_type_id":"4","last_reported":1725383318,"current_range_meters":0,"station_id":"ce4bhap2rcd13ifvqek0","pricing_plan_id":"cebpf4jnsgd1na2vs0mg"},{"bike_id":"ef764454-edbe-4406-a57b-4b021c593a4b","system_id":"levelo_inurba_marseille","lat":43.29027,"lon":5.3756,"is_reserved":false,"is_disabled":false,"rental_uris":{"android":"levelo://app?vid=ef764454-edbe-4406-a57b-4b021c593a4b","ios":"levelo://app?vid=ef764454-edbe-4406-a57b-4b021c593a4b"},"vehicle_type_id":"4","last_reported":1725383318,"current_range_meters":0,"station_id":"ce4bh692rcd13ifvqe90","pricing_plan_id":"cebpf4jnsgd1na2vs0mg"},{"bike_id":"6a4463ca-fc9e-4d05-a3ad-4cb5bad4610e","system_id":"levelo_inurba_marseille","lat":43.289468,"lon":5.363719,"is_reserved":false,"is_disabled":false,"rental_uris":{"android":"levelo://app?vid=6a4463ca-fc9e-4d05-a3ad-4cb5bad4610e","ios":"levelo://app?vid=6a4463ca-fc9e-4d05-a3ad-4cb5bad4610e"},"vehicle_type_id":"4","last_reported":1725383318,"current_range_meters":0,"station_id":"ce4bhc92rcd13ifvqetg","pricing_plan_id":"cebpf4jnsgd1na2vs0mg"},{"bike_id":"f39ab6b8-de45-4613-9787-da5830b19155","system_id":"levelo_inurba_marseille","lat":43.28943,"lon":5.36393,"is_reserved":false,"is_disabled":false,"rental_uris":{"android":"levelo://app?vid=f39ab6b8-de45-4613-9787-da5830b19155","ios":"levelo://app?vid=f39ab6b8-de45-4613-9787-da5830b19155"},"vehicle_type_id":"4","last_reported":1725383318,"current_range_meters":0,"station_id":"ce4bhc92rcd13ifvqetg","pricing_plan_id":"cebpf4jnsgd1na2vs0mg"},{"bike_id":"da054b08-1d40-4845-8901-d63d323404d1","system_id":"levelo_inurba_marseille","lat":43.289468,"lon":5.363719,"is_reserved":false,"is_disabled":false,"rental_uris":{"android":"levelo://app?vid=da054b08-1d40-4845-8901-d63d323404d1","ios":"levelo://app?vid=da054b08-1d40-4845-8901-d63d323404d1"},"vehicle_type_id":"4","last_reported":1725383318,"current_range_meters":7600,"station_id":"ce4bhc92rcd13ifvqetg","pricing_plan_id":"cebpf4jnsgd1na2vs0mg"},{"bike_id":"3566f756-2075-47d6-b623-2b88c9ad80f8","system_id":"levelo_inurba_marseille","lat":43.29265,"lon":5.38439,"is_reserved":false,"is_disabled":false,"rental_uris":{"android":"levelo://app?vid=3566f756-2075-47d6-b623-2b88c9ad80f8","ios":"levelo://app?vid=3566f756-2075-47d6-b623-2b88c9ad80f8"},"vehicle_type_id":"4","last_reported":1725383318,"current_range_meters":0,"station_id":"ce4bh692rcd13ifvqea0","pricing_plan_id":"cebpf4jnsgd1na2vs0mg"},{"bike_id":"f9705ae1-dbd4-49c7-b692-e6f3e8afa83f","system_id":"levelo_inurba_marseille","lat":43.29265,"lon":5.38443,"is_reserved":false,"is_disabled":false,"rental_uris":{"android":"levelo://app?vid=f9705ae1-dbd4-49c7-b692-e6f3e8afa83f","ios":"levelo://app?vid=f9705ae1-dbd4-49c7-b692-e6f3e8afa83f"},"vehicle_type_id":"4","last_reported":1725383318,"current_range_meters":0,"station_id":"ce4bh692rcd13ifvqea0","pricing_plan_id":"cebpf4jnsgd1na2vs0mg"},{"bike_id":"02c8a414-093d-4e27-9e7f-a9983a6f5431","system_id":"levelo_inurba_marseille","lat":43.29262,"lon":5.3845,"is_reserved":false,"is_disabled":false,"rental_uris":{"android":"levelo://app?vid=02c8a414-093d-4e27-9e7f-a9983a6f5431","ios":"levelo://app?vid=02c8a414-093d-4e27-9e7f-a9983a6f5431"},"vehicle_type_id":"4","last_reported":1725383318,"current_range_meters":6800,"station_id":"ce4bh692rcd13ifvqea0","pricing_plan_id":"cebpf4jnsgd1na2vs0mg"},{"bike_id":"ea99331a-59a3-4974-97ca-33fd64a8452b","system_id":"levelo_inurba_marseille","lat":43.290104,"lon":5.356111,"is_reserved":false,"is_disabled":false,"rental_uris":{"android":"levelo://app?vid=ea99331a-59a3-4974-97ca-33fd64a8452b","ios":"levelo://app?vid=ea99331a-59a3-4974-97ca-33fd64a8452b"},"vehicle_type_id":"4","last_reported":1725383318,"current_range_meters":12000,"station_id":"ce4bhb92rcd13ifvqen0","pricing_plan_id":"cebpf4jnsgd1na2vs0mg"},{"bike_id":"c23bd951-372b-45eb-bec7-597bfb7c6653","system_id":"levelo_inurba_marseille","lat":43.290103,"lon":5.356114,"is_reserved":false,"is_disabled":false,"rental_uris":{"android":"levelo://app?vid=c23bd951-372b-45eb-bec7-597bfb7c6653","ios":"levelo://app?vid=c23bd951-372b-45eb-bec7-597bfb7c6653"},"vehicle_type_id":"4","last_reported":1725383318,"current_range_meters":23600,"station_id":"ce4bhb92rcd13ifvqen0","pricing_plan_id":"cebpf4jnsgd1na2vs0mg"},{"bike_id":"05b0aff1-daf9-46da-a94b-8b9356ce4a21","system_id":"levelo_inurba_marseille","lat":43.290103,"lon":5.356114,"is_reserved":false,"is_disabled":false,"rental_uris":{"android":"levelo://app?vid=05b0aff1-daf9-46da-a94b-8b9356ce4a21","ios":"levelo://app?vid=05b0aff1-daf9-46da-a94b-8b9356ce4a21"},"vehicle_type_id":"4","last_reported":1725383318,"current_range_meters":23200,"station_id":"ce4bhb92rcd13ifvqen0","pricing_plan_id":"cebpf4jnsgd1na2vs0mg"},{"bike_id":"6e1167ea-1e73-44dc-bccd-91ef2a766baa","system_id":"levelo_inurba_marseille","lat":43.290103,"lon":5.356114,"is_reserved":false,"is_disabled":false,"rental_uris":{"android":"levelo://app?vid=6e1167ea-1e73-44dc-bccd-91ef2a766baa","ios":"levelo://app?vid=6e1167ea-1e73-44dc-bccd-91ef2a766baa"},"vehicle_type_id":"4","last_reported":1725383318,"current_range_meters":11600,"station_id":"ce4bhb92rcd13ifvqen0","pricing_plan_id":"cebpf4jnsgd1na2vs0mg"},{"bike_id":"3d13bb03-657e-461f-8823-e234187eb8da","system_id":"levelo_inurba_marseille","lat":43.290103,"lon":5.356114,"is_reserved":false,"is_disabled":false,"rental_uris":{"android":"levelo://app?vid=3d13bb03-657e-461f-8823-e234187eb8da","ios":"levelo://app?vid=3d13bb03-657e-461f-8823-e234187eb8da"},"vehicle_type_id":"4","last_reported":1725383318,"current_range_meters":1200,"station_id":"ce4bhb92rcd13ifvqen0","pricing_plan_id":"cebpf4jnsgd1na2vs0mg"},{"bike_id":"162b6949-03d2-4a98-8570-e65068b22afe","system_id":"levelo_inurba_marseille","lat":43.290104,"lon":5.356111,"is_reserved":false,"is_disabled":false,"rental_uris":{"android":"levelo://app?vid=162b6949-03d2-4a98-8570-e65068b22afe","ios":"levelo://app?vid=162b6949-03d2-4a98-8570-e65068b22afe"},"vehicle_type_id":"4","last_reported":1725383318,"current_range_meters":0,"station_id":"ce4bhb92rcd13ifvqen0","pricing_plan_id":"cebpf4jnsgd1na2vs0mg"},{"bike_id":"2edebf73-62da-4c8b-9264-0a4ec09d14dc","system_id":"levelo_inurba_marseille","lat":43.290104,"lon":5.356111,"is_reserved":false,"is_disabled":false,"rental_uris":{"android":"levelo://app?vid=2edebf73-62da-4c8b-9264-0a4ec09d14dc","ios":"levelo://app?vid=2edebf73-62da-4c8b-9264-0a4ec09d14dc"},"vehicle_type_id":"4","last_reported":1725383318,"current_range_meters":28800,"station_id":"ce4bhb92rcd13ifvqen0","pricing_plan_id":"cebpf4jnsgd1na2vs0mg"},{"bike_id":"ae053c18-8e71-404e-9805-f8d7abbbb7f9","system_id":"levelo_inurba_marseille","lat":43.290104,"lon":5.356111,"is_reserved":false,"is_disabled":false,"rental_uris":{"android":"levelo://app?vid=ae053c18-8e71-404e-9805-f8d7abbbb7f9","ios":"levelo://app?vid=ae053c18-8e71-404e-9805-f8d7abbbb7f9"},"vehicle_type_id":"4","last_reported":1725383318,"current_range_meters":0,"station_id":"ce4bhb92rcd13ifvqen0","pricing_plan_id":"cebpf4jnsgd1na2vs0mg"},{"bike_id":"25787490-cedf-4292-8670-10830bb4ece3","system_id":"levelo_inurba_marseille","lat":43.290103,"lon":5.356114,"is_reserved":false,"is_disabled":false,"rental_uris":{"android":"levelo://app?vid=25787490-cedf-4292-8670-10830bb4ece3","ios":"levelo://app?vid=25787490-cedf-4292-8670-10830bb4ece3"},"vehicle_type_id":"4","last_reported":1725383318,"current_range_meters":29200,"station_id":"ce4bhb92rcd13ifvqen0","pricing_plan_id":"cebpf4jnsgd1na2vs0mg"},{"bike_id":"c66ce0ff-9f1e-4c51-bb0c-13bd9ac49823","system_id":"levelo_inurba_marseille","lat":43.290104,"lon":5.356111,"is_reserved":false,"is_disabled":false,"rental_uris":{"android":"levelo://app?vid=c66ce0ff-9f1e-4c51-bb0c-13bd9ac49823","ios":"levelo://app?vid=c66ce0ff-9f1e-4c51-bb0c-13bd9ac49823"},"vehicle_type_id":"4","last_reported":1725383318,"current_range_meters":28800,"station_id":"ce4bhb92rcd13ifvqen0","pricing_plan_id":"cebpf4jnsgd1na2vs0mg"},{"bike_id":"f3d7db9b-4e42-4adb-9eb8-2288f0ecc638","system_id":"levelo_inurba_marseille","lat":43.290104,"lon":5.356111,"is_reserved":false,"is_disabled":false,"rental_uris":{"android":"levelo://app?vid=f3d7db9b-4e42-4adb-9eb8-2288f0ecc638","ios":"levelo://app?vid=f3d7db9b-4e42-4adb-9eb8-2288f0ecc638"},"vehicle_type_id":"4","last_reported":1725383318,"current_range_meters":28800,"station_id":"ce4bhb92rcd13ifvqen0","pricing_plan_id":"cebpf4jnsgd1na2vs0mg"},{"bike_id":"e32bb3df-8114-47be-bf55-68e4ea7973e4","system_id":"levelo_inurba_marseille","lat":43.29003,"lon":5.35604,"is_reserved":false,"is_disabled":false,"rental_uris":{"android":"levelo://app?vid=e32bb3df-8114-47be-bf55-68e4ea7973e4","ios":"levelo://app?vid=e32bb3df-8114-47be-bf55-68e4ea7973e4"},"vehicle_type_id":"4","last_reported":1725383318,"current_range_meters":0,"station_id":"ce4bhb92rcd13ifvqen0","pricing_plan_id":"cebpf4jnsgd1na2vs0mg"},{"bike_id":"2ce4e476-c358-4fff-988d-a21fc30eaafc","system_id":"levelo_inurba_marseille","lat":43.290995,"lon":5.381361,"is_reserved":false,"is_disabled":false,"rental_uris":{"android":"levelo://app?vid=2ce4e476-c358-4fff-988d-a21fc30eaafc","ios":"levelo://app?vid=2ce4e476-c358-4fff-988d-a21fc30eaafc"},"vehicle_type_id":"4","last_reported":1725383318,"current_range_meters":0,"station_id":"ce4bh512rcd13ifvqe2g","pricing_plan_id":"cebpf4jnsgd1na2vs0mg"},{"bike_id":"da5c5f07-c213-4173-9cb9-d96c0b060092","system_id":"levelo_inurba_marseille","lat":43.289741,"lon":5.378306,"is_reserved":false,"is_disabled":false,"rental_uris":{"android":"levelo://app?vid=da5c5f07-c213-4173-9cb9-d96c0b060092","ios":"levelo://app?vid=da5c5f07-c213-4173-9cb9-d96c0b060092"},"vehicle_type_id":"4","last_reported":1725383318,"current_range_meters":0,"station_id":"ce4bh9p2rcd13ifvqed0","pricing_plan_id":"cebpf4jnsgd1na2vs0mg"},{"bike_id":"2936c493-43dd-48b8-b2b7-69814c603405","system_id":"levelo_inurba_marseille","lat":43.310755,"lon":5.40029,"is_reserved":false,"is_disabled":false,"rental_uris":{"android":"levelo://app?vid=2936c493-43dd-48b8-b2b7-69814c603405","ios":"levelo://app?vid=2936c493-43dd-48b8-b2b7-69814c603405"},"vehicle_type_id":"4","last_reported":1725383318,"current_range_meters":0,"station_id":"","pricing_plan_id":"cebpf4jnsgd1na2vs0mg"},{"bike_id":"dc7abe6d-261c-4547-b90b-3b83eaa8b7a8","system_id":"levelo_inurba_marseille","lat":43.295169,"lon":5.390426,"is_reserved":false,"is_disabled":false,"rental_uris":{"android":"levelo://app?vid=dc7abe6d-261c-4547-b90b-3b83eaa8b7a8","ios":"levelo://app?vid=dc7abe6d-261c-4547-b90b-3b83eaa8b7a8"},"vehicle_type_id":"4","last_reported":1725383318,"current_range_meters":0,"station_id":"ce4bh3p2rcd13ifvqdp0","pricing_plan_id":"cebpf4jnsgd1na2vs0mg"},{"bike_id":"90f45e91-48a8-4156-9692-888515543217","system_id":"levelo_inurba_marseille","lat":43.33019,"lon":5.39044,"is_reserved":false,"is_disabled":false,"rental_uris":{"android":"levelo://app?vid=90f45e91-48a8-4156-9692-888515543217","ios":"levelo://app?vid=90f45e91-48a8-4156-9692-888515543217"},"vehicle_type_id":"4","last_reported":1725383318,"current_range_meters":0,"station_id":"ce4bhr92rcd13ifvqhrg","pricing_plan_id":"cebpf4jnsgd1na2vs0mg"},{"bike_id":"c4891c7d-9066-45bc-b64d-4f9ab02bbaf3","system_id":"levelo_inurba_marseille","lat":43.33024,"lon":5.39038,"is_reserved":false,"is_disabled":false,"rental_uris":{"android":"levelo://app?vid=c4891c7d-9066-45bc-b64d-4f9ab02bbaf3","ios":"levelo://app?vid=c4891c7d-9066-45bc-b64d-4f9ab02bbaf3"},"vehicle_type_id":"4","last_reported":1725383318,"current_range_meters":0,"station_id":"ce4bhr92rcd13ifvqhrg","pricing_plan_id":"cebpf4jnsgd1na2vs0mg"},{"bike_id":"6a144e36-ead0-4b6f-8c8a-7191d8499cf0","system_id":"levelo_inurba_marseille","lat":43.330442,"lon":5.389148,"is_reserved":false,"is_disabled":false,"rental_uris":{"android":"levelo://app?vid=6a144e36-ead0-4b6f-8c8a-7191d8499cf0","ios":"levelo://app?vid=6a144e36-ead0-4b6f-8c8a-7191d8499cf0"},"vehicle_type_id":"4","last_reported":1725383318,"current_range_meters":30800,"station_id":"ce4bhr92rcd13ifvqhrg","pricing_plan_id":"cebpf4jnsgd1na2vs0mg"},{"bike_id":"2b7a5124-d2e0-4b3a-954d-8111c03bc73f","system_id":"levelo_inurba_marseille","lat":43.330442,"lon":5.389148,"is_reserved":false,"is_disabled":false,"rental_uris":{"android":"levelo://app?vid=2b7a5124-d2e0-4b3a-954d-8111c03bc73f","ios":"levelo://app?vid=2b7a5124-d2e0-4b3a-954d-8111c03bc73f"},"vehicle_type_id":"4","last_reported":1725383318,"current_range_meters":9600,"station_id":"ce4bhr92rcd13ifvqhrg","pricing_plan_id":"cebpf4jnsgd1na2vs0mg"},{"bike_id":"30391917-da58-4861-bb89-1a8c0c1addfb","system_id":"levelo_inurba_marseille","lat":43.330442,"lon":5.389148,"is_reserved":false,"is_disabled":false,"rental_uris":{"android":"levelo://app?vid=30391917-da58-4861-bb89-1a8c0c1addfb","ios":"levelo://app?vid=30391917-da58-4861-bb89-1a8c0c1addfb"},"vehicle_type_id":"4","last_reported":1725383318,"current_range_meters":2400,"station_id":"ce4bhr92rcd13ifvqhrg","pricing_plan_id":"cebpf4jnsgd1na2vs0mg"},{"bike_id":"ae1d4c3e-c803-4269-939f-c7ff2083037c","system_id":"levelo_inurba_marseille","lat":43.330442,"lon":5.389148,"is_reserved":false,"is_disabled":false,"rental_uris":{"android":"levelo://app?vid=ae1d4c3e-c803-4269-939f-c7ff2083037c","ios":"levelo://app?vid=ae1d4c3e-c803-4269-939f-c7ff2083037c"},"vehicle_type_id":"4","last_reported":1725383318,"current_range_meters":19200,"station_id":"ce4bhr92rcd13ifvqhrg","pricing_plan_id":"cebpf4jnsgd1na2vs0mg"},{"bike_id":"dba942e5-8472-4338-92d5-dfa9170978e9","system_id":"levelo_inurba_marseille","lat":43.295169,"lon":5.390426,"is_reserved":false,"is_disabled":false,"rental_uris":{"android":"levelo://app?vid=dba942e5-8472-4338-92d5-dfa9170978e9","ios":"levelo://app?vid=dba942e5-8472-4338-92d5-dfa9170978e9"},"vehicle_type_id":"4","last_reported":1725383318,"current_range_meters":0,"station_id":"ce4bh3p2rcd13ifvqdp0","pricing_plan_id":"cebpf4jnsgd1na2vs0mg"},{"bike_id":"426a3035-48a9-4b84-96de-7b12e8710ec1","system_id":"levelo_inurba_marseille","lat":43.30681,"lon":5.39983,"is_reserved":false,"is_disabled":false,"rental_uris":{"android":"levelo://app?vid=426a3035-48a9-4b84-96de-7b12e8710ec1","ios":"levelo://app?vid=426a3035-48a9-4b84-96de-7b12e8710ec1"},"vehicle_type_id":"4","last_reported":1725383318,"current_range_meters":8000,"station_id":"","pricing_plan_id":"cebpf4jnsgd1na2vs0mg"},{"bike_id":"edd42b2c-2743-4474-a9f8-4e91a843d033","system_id":"levelo_inurba_marseille","lat":43.310635,"lon":5.400883,"is_reserved":false,"is_disabled":false,"rental_uris":{"android":"levelo://app?vid=edd42b2c-2743-4474-a9f8-4e91a843d033","ios":"levelo://app?vid=edd42b2c-2743-4474-a9f8-4e91a843d033"},"vehicle_type_id":"4","last_reported":1725383318,"current_range_meters":20000,"station_id":"","pricing_plan_id":"cebpf4jnsgd1na2vs0mg"},{"bike_id":"bc77e439-fc60-4627-ba1b-750f7a06ccf1","system_id":"levelo_inurba_marseille","lat":43.28856,"lon":5.358371,"is_reserved":false,"is_disabled":false,"rental_uris":{"android":"levelo://app?vid=bc77e439-fc60-4627-ba1b-750f7a06ccf1","ios":"levelo://app?vid=bc77e439-fc60-4627-ba1b-750f7a06ccf1"},"vehicle_type_id":"4","last_reported":1725383318,"current_range_meters":10800,"station_id":"ce4bhb12rcd13ifvqem0","pricing_plan_id":"cebpf4jnsgd1na2vs0mg"},{"bike_id":"daab6546-42ee-4308-8e50-0a124a5a7cfb","system_id":"levelo_inurba_marseille","lat":43.28856,"lon":5.358371,"is_reserved":false,"is_disabled":false,"rental_uris":{"android":"levelo://app?vid=daab6546-42ee-4308-8e50-0a124a5a7cfb","ios":"levelo://app?vid=daab6546-42ee-4308-8e50-0a124a5a7cfb"},"vehicle_type_id":"4","last_reported":1725383318,"current_range_meters":20000,"station_id":"ce4bhb12rcd13ifvqem0","pricing_plan_id":"cebpf4jnsgd1na2vs0mg"},{"bike_id":"c14b0852-c857-4e97-9f59-3b79d93d3d1d","system_id":"levelo_inurba_marseille","lat":43.28856,"lon":5.358371,"is_reserved":false,"is_disabled":false,"rental_uris":{"android":"levelo://app?vid=c14b0852-c857-4e97-9f59-3b79d93d3d1d","ios":"levelo://app?vid=c14b0852-c857-4e97-9f59-3b79d93d3d1d"},"vehicle_type_id":"4","last_reported":1725383318,"current_range_meters":800,"station_id":"ce4bhb12rcd13ifvqem0","pricing_plan_id":"cebpf4jnsgd1na2vs0mg"},{"bike_id":"df916f80-054c-4b9a-b323-b318a72ef46c","system_id":"levelo_inurba_marseille","lat":43.28856,"lon":5.358371,"is_reserved":false,"is_disabled":false,"rental_uris":{"android":"levelo://app?vid=df916f80-054c-4b9a-b323-b318a72ef46c","ios":"levelo://app?vid=df916f80-054c-4b9a-b323-b318a72ef46c"},"vehicle_type_id":"4","last_reported":1725383318,"current_range_meters":4000,"station_id":"ce4bhb12rcd13ifvqem0","pricing_plan_id":"cebpf4jnsgd1na2vs0mg"},{"bike_id":"5000ee0f-79dc-46b0-a026-787f8c747b5d","system_id":"levelo_inurba_marseille","lat":43.309371,"lon":5.401449,"is_reserved":false,"is_disabled":false,"rental_uris":{"android":"levelo://app?vid=5000ee0f-79dc-46b0-a026-787f8c747b5d","ios":"levelo://app?vid=5000ee0f-79dc-46b0-a026-787f8c747b5d"},"vehicle_type_id":"4","last_reported":1725383318,"current_range_meters":21600,"station_id":"ce4bgvp2rcd13ifvqct0","pricing_plan_id":"cebpf4jnsgd1na2vs0mg"},{"bike_id":"56374aed-132c-4d7a-b1ee-350695c52474","system_id":"levelo_inurba_marseille","lat":43.30933,"lon":5.40147,"is_reserved":false,"is_disabled":false,"rental_uris":{"android":"levelo://app?vid=56374aed-132c-4d7a-b1ee-350695c52474","ios":"levelo://app?vid=56374aed-132c-4d7a-b1ee-350695c52474"},"vehicle_type_id":"4","last_reported":1725383318,"current_range_meters":20400,"station_id":"ce4bgvp2rcd13ifvqct0","pricing_plan_id":"cebpf4jnsgd1na2vs0mg"},{"bike_id":"7ca37d04-9593-4ebc-a600-f23d55c46c80","system_id":"levelo_inurba_marseille","lat":43.30928,"lon":5.40148,"is_reserved":false,"is_disabled":false,"rental_uris":{"android":"levelo://app?vid=7ca37d04-9593-4ebc-a600-f23d55c46c80","ios":"levelo://app?vid=7ca37d04-9593-4ebc-a600-f23d55c46c80"},"vehicle_type_id":"4","last_reported":1725383318,"current_range_meters":0,"station_id":"ce4bgvp2rcd13ifvqct0","pricing_plan_id":"cebpf4jnsgd1na2vs0mg"},{"bike_id":"053f9fd2-bc04-42b3-a69d-22d982a41b8d","system_id":"levelo_inurba_marseille","lat":43.288762,"lon":5.378606,"is_reserved":false,"is_disabled":false,"rental_uris":{"android":"levelo://app?vid=053f9fd2-bc04-42b3-a69d-22d982a41b8d","ios":"levelo://app?vid=053f9fd2-bc04-42b3-a69d-22d982a41b8d"},"vehicle_type_id":"4","last_reported":1725383318,"current_range_meters":7200,"station_id":"","pricing_plan_id":"cebpf4jnsgd1na2vs0mg"},{"bike_id":"43cd6c29-9c55-4e75-8ea4-f61cb59669a6","system_id":"levelo_inurba_marseille","lat":43.30648,"lon":5.40085,"is_reserved":false,"is_disabled":false,"rental_uris":{"android":"levelo://app?vid=43cd6c29-9c55-4e75-8ea4-f61cb59669a6","ios":"levelo://app?vid=43cd6c29-9c55-4e75-8ea4-f61cb59669a6"},"vehicle_type_id":"4","last_reported":1725383318,"current_range_meters":0,"station_id":"ce4bh112rcd13ifvqda0","pricing_plan_id":"cebpf4jnsgd1na2vs0mg"},{"bike_id":"2c567034-35fa-4bde-8d2b-0025244dd920","system_id":"levelo_inurba_marseille","lat":43.33757,"lon":5.37478,"is_reserved":false,"is_disabled":false,"rental_uris":{"android":"levelo://app?vid=2c567034-35fa-4bde-8d2b-0025244dd920","ios":"levelo://app?vid=2c567034-35fa-4bde-8d2b-0025244dd920"},"vehicle_type_id":"4","last_reported":1725383318,"current_range_meters":8000,"station_id":"","pricing_plan_id":"cebpf4jnsgd1na2vs0mg"},{"bike_id":"d3ea3af9-6b11-47d4-8df1-656e45234040","system_id":"levelo_inurba_marseille","lat":43.33761,"lon":5.37475,"is_reserved":false,"is_disabled":false,"rental_uris":{"android":"levelo://app?vid=d3ea3af9-6b11-47d4-8df1-656e45234040","ios":"levelo://app?vid=d3ea3af9-6b11-47d4-8df1-656e45234040"},"vehicle_type_id":"4","last_reported":1725383318,"current_range_meters":27600,"station_id":"","pricing_plan_id":"cebpf4jnsgd1na2vs0mg"},{"bike_id":"281719cb-7acf-4023-b42e-a39b91262c6f","system_id":"levelo_inurba_marseille","lat":43.337616,"lon":5.374716,"is_reserved":false,"is_disabled":false,"rental_uris":{"android":"levelo://app?vid=281719cb-7acf-4023-b42e-a39b91262c6f","ios":"levelo://app?vid=281719cb-7acf-4023-b42e-a39b91262c6f"},"vehicle_type_id":"4","last_reported":1725383318,"current_range_meters":9200,"station_id":"","pricing_plan_id":"cebpf4jnsgd1na2vs0mg"},{"bike_id":"b329e76f-5320-4a71-8892-296580dce30d","system_id":"levelo_inurba_marseille","lat":43.337609,"lon":5.374891,"is_reserved":false,"is_disabled":false,"rental_uris":{"android":"levelo://app?vid=b329e76f-5320-4a71-8892-296580dce30d","ios":"levelo://app?vid=b329e76f-5320-4a71-8892-296580dce30d"},"vehicle_type_id":"4","last_reported":1725383318,"current_range_meters":24000,"station_id":"","pricing_plan_id":"cebpf4jnsgd1na2vs0mg"},{"bike_id":"faafe71e-1b94-44fc-a69d-26ac65d5d819","system_id":"levelo_inurba_marseille","lat":43.33768,"lon":5.37488,"is_reserved":false,"is_disabled":false,"rental_uris":{"android":"levelo://app?vid=faafe71e-1b94-44fc-a69d-26ac65d5d819","ios":"levelo://app?vid=faafe71e-1b94-44fc-a69d-26ac65d5d819"},"vehicle_type_id":"4","last_reported":1725383318,"current_range_meters":2800,"station_id":"","pricing_plan_id":"cebpf4jnsgd1na2vs0mg"},{"bike_id":"ffcad9c6-2956-4334-be84-2fd46ae0f724","system_id":"levelo_inurba_marseille","lat":43.30133,"lon":5.398568,"is_reserved":false,"is_disabled":false,"rental_uris":{"android":"levelo://app?vid=ffcad9c6-2956-4334-be84-2fd46ae0f724","ios":"levelo://app?vid=ffcad9c6-2956-4334-be84-2fd46ae0f724"},"vehicle_type_id":"4","last_reported":1725383318,"current_range_meters":0,"station_id":"ce4bh0h2rcd13ifvqd40","pricing_plan_id":"cebpf4jnsgd1na2vs0mg"},{"bike_id":"866b0b41-f0a8-44f1-b01e-a41a31ecbf5f","system_id":"levelo_inurba_marseille","lat":43.30142,"lon":5.39867,"is_reserved":false,"is_disabled":false,"rental_uris":{"android":"levelo://app?vid=866b0b41-f0a8-44f1-b01e-a41a31ecbf5f","ios":"levelo://app?vid=866b0b41-f0a8-44f1-b01e-a41a31ecbf5f"},"vehicle_type_id":"4","last_reported":1725383318,"current_range_meters":0,"station_id":"ce4bh0h2rcd13ifvqd40","pricing_plan_id":"cebpf4jnsgd1na2vs0mg"},{"bike_id":"bb04399f-3ba6-46ae-830e-368f8edc82e0","system_id":"levelo_inurba_marseille","lat":43.30137,"lon":5.39881,"is_reserved":false,"is_disabled":false,"rental_uris":{"android":"levelo://app?vid=bb04399f-3ba6-46ae-830e-368f8edc82e0","ios":"levelo://app?vid=bb04399f-3ba6-46ae-830e-368f8edc82e0"},"vehicle_type_id":"4","last_reported":1725383318,"current_range_meters":0,"station_id":"ce4bh0h2rcd13ifvqd40","pricing_plan_id":"cebpf4jnsgd1na2vs0mg"},{"bike_id":"361c155c-17f3-4707-b908-06beb8ae13fa","system_id":"levelo_inurba_marseille","lat":43.28727,"lon":5.36078,"is_reserved":false,"is_disabled":false,"rental_uris":{"android":"levelo://app?vid=361c155c-17f3-4707-b908-06beb8ae13fa","ios":"levelo://app?vid=361c155c-17f3-4707-b908-06beb8ae13fa"},"vehicle_type_id":"4","last_reported":1725383318,"current_range_meters":18400,"station_id":"cki0cbj6b192h4jlfktg","pricing_plan_id":"cebpf4jnsgd1na2vs0mg"},{"bike_id":"859bb818-f7c6-488a-b494-666b22fc4715","system_id":"levelo_inurba_marseille","lat":43.30124,"lon":5.39884,"is_reserved":false,"is_disabled":false,"rental_uris":{"android":"levelo://app?vid=859bb818-f7c6-488a-b494-666b22fc4715","ios":"levelo://app?vid=859bb818-f7c6-488a-b494-666b22fc4715"},"vehicle_type_id":"4","last_reported":1725383318,"current_range_meters":6800,"station_id":"ce4bh0h2rcd13ifvqd40","pricing_plan_id":"cebpf4jnsgd1na2vs0mg"},{"bike_id":"25f92462-0d7e-468a-a026-64c7128f1ee1","system_id":"levelo_inurba_marseille","lat":43.298681,"lon":5.397225,"is_reserved":false,"is_disabled":false,"rental_uris":{"android":"levelo://app?vid=25f92462-0d7e-468a-a026-64c7128f1ee1","ios":"levelo://app?vid=25f92462-0d7e-468a-a026-64c7128f1ee1"},"vehicle_type_id":"4","last_reported":1725383318,"current_range_meters":8800,"station_id":"ce4bh0h2rcd13ifvqd50","pricing_plan_id":"cebpf4jnsgd1na2vs0mg"},{"bike_id":"afd517be-3c35-45c8-a1e3-1d48732a25ef","system_id":"levelo_inurba_marseille","lat":43.298681,"lon":5.397225,"is_reserved":false,"is_disabled":false,"rental_uris":{"android":"levelo://app?vid=afd517be-3c35-45c8-a1e3-1d48732a25ef","ios":"levelo://app?vid=afd517be-3c35-45c8-a1e3-1d48732a25ef"},"vehicle_type_id":"4","last_reported":1725383318,"current_range_meters":12800,"station_id":"ce4bh0h2rcd13ifvqd50","pricing_plan_id":"cebpf4jnsgd1na2vs0mg"},{"bike_id":"00ce1804-3c22-4b7e-9ad1-e8b61ae5ac82","system_id":"levelo_inurba_marseille","lat":43.298681,"lon":5.397225,"is_reserved":false,"is_disabled":false,"rental_uris":{"android":"levelo://app?vid=00ce1804-3c22-4b7e-9ad1-e8b61ae5ac82","ios":"levelo://app?vid=00ce1804-3c22-4b7e-9ad1-e8b61ae5ac82"},"vehicle_type_id":"4","last_reported":1725383318,"current_range_meters":24800,"station_id":"ce4bh0h2rcd13ifvqd50","pricing_plan_id":"cebpf4jnsgd1na2vs0mg"},{"bike_id":"c85dad0b-bf45-4e19-a826-af27a17e7851","system_id":"levelo_inurba_marseille","lat":43.298681,"lon":5.397225,"is_reserved":false,"is_disabled":false,"rental_uris":{"android":"levelo://app?vid=c85dad0b-bf45-4e19-a826-af27a17e7851","ios":"levelo://app?vid=c85dad0b-bf45-4e19-a826-af27a17e7851"},"vehicle_type_id":"4","last_reported":1725383318,"current_range_meters":31600,"station_id":"ce4bh0h2rcd13ifvqd50","pricing_plan_id":"cebpf4jnsgd1na2vs0mg"},{"bike_id":"b34ad069-4e7e-43a4-b495-aae127f6d667","system_id":"levelo_inurba_marseille","lat":43.289307,"lon":5.38406,"is_reserved":false,"is_disabled":false,"rental_uris":{"android":"levelo://app?vid=b34ad069-4e7e-43a4-b495-aae127f6d667","ios":"levelo://app?vid=b34ad069-4e7e-43a4-b495-aae127f6d667"},"vehicle_type_id":"4","last_reported":1725383318,"current_range_meters":6400,"station_id":"ce4bh612rcd13ifvqe6g","pricing_plan_id":"cebpf4jnsgd1na2vs0mg"},{"bike_id":"0261367e-deab-4fea-b293-128e9107ca22","system_id":"levelo_inurba_marseille","lat":43.289307,"lon":5.38406,"is_reserved":false,"is_disabled":false,"rental_uris":{"android":"levelo://app?vid=0261367e-deab-4fea-b293-128e9107ca22","ios":"levelo://app?vid=0261367e-deab-4fea-b293-128e9107ca22"},"vehicle_type_id":"4","last_reported":1725383318,"current_range_meters":0,"station_id":"ce4bh612rcd13ifvqe6g","pricing_plan_id":"cebpf4jnsgd1na2vs0mg"},{"bike_id":"9fa63a43-e0c9-486b-89d9-0c9c654e8994","system_id":"levelo_inurba_marseille","lat":43.289307,"lon":5.38406,"is_reserved":false,"is_disabled":false,"rental_uris":{"android":"levelo://app?vid=9fa63a43-e0c9-486b-89d9-0c9c654e8994","ios":"levelo://app?vid=9fa63a43-e0c9-486b-89d9-0c9c654e8994"},"vehicle_type_id":"4","last_reported":1725383318,"current_range_meters":0,"station_id":"ce4bh612rcd13ifvqe6g","pricing_plan_id":"cebpf4jnsgd1na2vs0mg"},{"bike_id":"444d592a-d3d8-492c-84fc-dd3dbf3e5bce","system_id":"levelo_inurba_marseille","lat":43.290345,"lon":5.38646,"is_reserved":false,"is_disabled":false,"rental_uris":{"android":"levelo://app?vid=444d592a-d3d8-492c-84fc-dd3dbf3e5bce","ios":"levelo://app?vid=444d592a-d3d8-492c-84fc-dd3dbf3e5bce"},"vehicle_type_id":"4","last_reported":1725383318,"current_range_meters":13600,"station_id":"ce4bh4p2rcd13ifvqe0g","pricing_plan_id":"cebpf4jnsgd1na2vs0mg"},{"bike_id":"a46863b1-ad0b-4d2e-8ad3-8f393224b498","system_id":"levelo_inurba_marseille","lat":43.302573,"lon":5.400688,"is_reserved":false,"is_disabled":false,"rental_uris":{"android":"levelo://app?vid=a46863b1-ad0b-4d2e-8ad3-8f393224b498","ios":"levelo://app?vid=a46863b1-ad0b-4d2e-8ad3-8f393224b498"},"vehicle_type_id":"4","last_reported":1725383318,"current_range_meters":0,"station_id":"ce4bgvh2rcd13ifvqcs0","pricing_plan_id":"cebpf4jnsgd1na2vs0mg"},{"bike_id":"9d1efafe-1e1c-460c-9d38-1398b3cd3329","system_id":"levelo_inurba_marseille","lat":43.29028,"lon":5.38648,"is_reserved":false,"is_disabled":false,"rental_uris":{"android":"levelo://app?vid=9d1efafe-1e1c-460c-9d38-1398b3cd3329","ios":"levelo://app?vid=9d1efafe-1e1c-460c-9d38-1398b3cd3329"},"vehicle_type_id":"4","last_reported":1725383318,"current_range_meters":0,"station_id":"ce4bh4p2rcd13ifvqe0g","pricing_plan_id":"cebpf4jnsgd1na2vs0mg"},{"bike_id":"44ebf490-0e96-4cd9-bc79-9b630a217e75","system_id":"levelo_inurba_marseille","lat":43.29026,"lon":5.3865,"is_reserved":false,"is_disabled":false,"rental_uris":{"android":"levelo://app?vid=44ebf490-0e96-4cd9-bc79-9b630a217e75","ios":"levelo://app?vid=44ebf490-0e96-4cd9-bc79-9b630a217e75"},"vehicle_type_id":"4","last_reported":1725383318,"current_range_meters":0,"station_id":"ce4bh4p2rcd13ifvqe0g","pricing_plan_id":"cebpf4jnsgd1na2vs0mg"},{"bike_id":"a4647e58-1827-4a00-9a24-7663a0da1a04","system_id":"levelo_inurba_marseille","lat":43.290336,"lon":5.386425,"is_reserved":false,"is_disabled":false,"rental_uris":{"android":"levelo://app?vid=a4647e58-1827-4a00-9a24-7663a0da1a04","ios":"levelo://app?vid=a4647e58-1827-4a00-9a24-7663a0da1a04"},"vehicle_type_id":"4","last_reported":1725383318,"current_range_meters":1600,"station_id":"ce4bh4p2rcd13ifvqe0g","pricing_plan_id":"cebpf4jnsgd1na2vs0mg"},{"bike_id":"b6b316f8-3e4a-4c0e-b79f-e3158f6695d1","system_id":"levelo_inurba_marseille","lat":43.30238,"lon":5.40072,"is_reserved":false,"is_disabled":false,"rental_uris":{"android":"levelo://app?vid=b6b316f8-3e4a-4c0e-b79f-e3158f6695d1","ios":"levelo://app?vid=b6b316f8-3e4a-4c0e-b79f-e3158f6695d1"},"vehicle_type_id":"4","last_reported":1725383318,"current_range_meters":0,"station_id":"ce4bgvh2rcd13ifvqcs0","pricing_plan_id":"cebpf4jnsgd1na2vs0mg"},{"bike_id":"9be7b43f-8a24-442c-9ed8-07555e8429bc","system_id":"levelo_inurba_marseille","lat":43.287184,"lon":5.37937,"is_reserved":false,"is_disabled":false,"rental_uris":{"android":"levelo://app?vid=9be7b43f-8a24-442c-9ed8-07555e8429bc","ios":"levelo://app?vid=9be7b43f-8a24-442c-9ed8-07555e8429bc"},"vehicle_type_id":"4","last_reported":1725383318,"current_range_meters":11200,"station_id":"ce4bh9p2rcd13ifvqec0","pricing_plan_id":"cebpf4jnsgd1na2vs0mg"},{"bike_id":"3b0046ab-4984-4ae1-8414-e024d950de93","system_id":"levelo_inurba_marseille","lat":43.287184,"lon":5.37937,"is_reserved":false,"is_disabled":false,"rental_uris":{"android":"levelo://app?vid=3b0046ab-4984-4ae1-8414-e024d950de93","ios":"levelo://app?vid=3b0046ab-4984-4ae1-8414-e024d950de93"},"vehicle_type_id":"4","last_reported":1725383318,"current_range_meters":4000,"station_id":"ce4bh9p2rcd13ifvqec0","pricing_plan_id":"cebpf4jnsgd1na2vs0mg"},{"bike_id":"4c637f72-5784-4366-ae02-22f00426a62b","system_id":"levelo_inurba_marseille","lat":43.287184,"lon":5.37937,"is_reserved":false,"is_disabled":false,"rental_uris":{"android":"levelo://app?vid=4c637f72-5784-4366-ae02-22f00426a62b","ios":"levelo://app?vid=4c637f72-5784-4366-ae02-22f00426a62b"},"vehicle_type_id":"4","last_reported":1725383318,"current_range_meters":1200,"station_id":"ce4bh9p2rcd13ifvqec0","pricing_plan_id":"cebpf4jnsgd1na2vs0mg"},{"bike_id":"2be6819c-c632-4162-9d01-083c5272666b","system_id":"levelo_inurba_marseille","lat":43.327383,"lon":5.398852,"is_reserved":false,"is_disabled":false,"rental_uris":{"android":"levelo://app?vid=2be6819c-c632-4162-9d01-083c5272666b","ios":"levelo://app?vid=2be6819c-c632-4162-9d01-083c5272666b"},"vehicle_type_id":"4","last_reported":1725383318,"current_range_meters":6000,"station_id":"","pricing_plan_id":"cebpf4jnsgd1na2vs0mg"},{"bike_id":"e392dd9c-56c3-47c2-b23f-9bd2db60b582","system_id":"levelo_inurba_marseille","lat":43.326899,"lon":5.399346,"is_reserved":false,"is_disabled":false,"rental_uris":{"android":"levelo://app?vid=e392dd9c-56c3-47c2-b23f-9bd2db60b582","ios":"levelo://app?vid=e392dd9c-56c3-47c2-b23f-9bd2db60b582"},"vehicle_type_id":"4","last_reported":1725383318,"current_range_meters":29600,"station_id":"","pricing_plan_id":"cebpf4jnsgd1na2vs0mg"},{"bike_id":"422e8a59-69b8-4c22-8feb-1abbba7c5e7f","system_id":"levelo_inurba_marseille","lat":43.316828,"lon":5.404723,"is_reserved":false,"is_disabled":false,"rental_uris":{"android":"levelo://app?vid=422e8a59-69b8-4c22-8feb-1abbba7c5e7f","ios":"levelo://app?vid=422e8a59-69b8-4c22-8feb-1abbba7c5e7f"},"vehicle_type_id":"4","last_reported":1725383318,"current_range_meters":0,"station_id":"ce4bh012rcd13ifvqd00","pricing_plan_id":"cebpf4jnsgd1na2vs0mg"},{"bike_id":"5968ae1c-dbad-482c-8459-aee66af88ad7","system_id":"levelo_inurba_marseille","lat":43.316828,"lon":5.404723,"is_reserved":false,"is_disabled":false,"rental_uris":{"android":"levelo://app?vid=5968ae1c-dbad-482c-8459-aee66af88ad7","ios":"levelo://app?vid=5968ae1c-dbad-482c-8459-aee66af88ad7"},"vehicle_type_id":"4","last_reported":1725383318,"current_range_meters":17600,"station_id":"ce4bh012rcd13ifvqd00","pricing_plan_id":"cebpf4jnsgd1na2vs0mg"},{"bike_id":"27f90e48-0f77-46c0-8be1-12994cc87bfb","system_id":"levelo_inurba_marseille","lat":43.30304,"lon":5.4032,"is_reserved":false,"is_disabled":false,"rental_uris":{"android":"levelo://app?vid=27f90e48-0f77-46c0-8be1-12994cc87bfb","ios":"levelo://app?vid=27f90e48-0f77-46c0-8be1-12994cc87bfb"},"vehicle_type_id":"4","last_reported":1725383318,"current_range_meters":0,"station_id":"","pricing_plan_id":"cebpf4jnsgd1na2vs0mg"},{"bike_id":"9288568a-653c-430a-93a0-95cc5433e635","system_id":"levelo_inurba_marseille","lat":43.291994,"lon":5.392907,"is_reserved":false,"is_disabled":false,"rental_uris":{"android":"levelo://app?vid=9288568a-653c-430a-93a0-95cc5433e635","ios":"levelo://app?vid=9288568a-653c-430a-93a0-95cc5433e635"},"vehicle_type_id":"4","last_reported":1725383318,"current_range_meters":9200,"station_id":"ce4bh192rcd13ifvqdd0","pricing_plan_id":"cebpf4jnsgd1na2vs0mg"},{"bike_id":"85601398-ee33-4ed0-b131-16e23ae4d072","system_id":"levelo_inurba_marseille","lat":43.284534,"lon":5.358662,"is_reserved":false,"is_disabled":false,"rental_uris":{"android":"levelo://app?vid=85601398-ee33-4ed0-b131-16e23ae4d072","ios":"levelo://app?vid=85601398-ee33-4ed0-b131-16e23ae4d072"},"vehicle_type_id":"4","last_reported":1725383318,"current_range_meters":6400,"station_id":"ce4bhah2rcd13ifvqei0","pricing_plan_id":"cebpf4jnsgd1na2vs0mg"},{"bike_id":"13f16785-819f-426c-9e88-d72343c2b56e","system_id":"levelo_inurba_marseille","lat":43.284534,"lon":5.358662,"is_reserved":false,"is_disabled":false,"rental_uris":{"android":"levelo://app?vid=13f16785-819f-426c-9e88-d72343c2b56e","ios":"levelo://app?vid=13f16785-819f-426c-9e88-d72343c2b56e"},"vehicle_type_id":"4","last_reported":1725383318,"current_range_meters":10400,"station_id":"ce4bhah2rcd13ifvqei0","pricing_plan_id":"cebpf4jnsgd1na2vs0mg"},{"bike_id":"a9a0eb4b-5944-48a5-bc3e-bdf88c7e846c","system_id":"levelo_inurba_marseille","lat":43.284534,"lon":5.358662,"is_reserved":false,"is_disabled":false,"rental_uris":{"android":"levelo://app?vid=a9a0eb4b-5944-48a5-bc3e-bdf88c7e846c","ios":"levelo://app?vid=a9a0eb4b-5944-48a5-bc3e-bdf88c7e846c"},"vehicle_type_id":"4","last_reported":1725383318,"current_range_meters":28000,"station_id":"ce4bhah2rcd13ifvqei0","pricing_plan_id":"cebpf4jnsgd1na2vs0mg"},{"bike_id":"dd2e77c7-b9d2-47c2-af50-2790e7899da3","system_id":"levelo_inurba_marseille","lat":43.284534,"lon":5.358662,"is_reserved":false,"is_disabled":false,"rental_uris":{"android":"levelo://app?vid=dd2e77c7-b9d2-47c2-af50-2790e7899da3","ios":"levelo://app?vid=dd2e77c7-b9d2-47c2-af50-2790e7899da3"},"vehicle_type_id":"4","last_reported":1725383318,"current_range_meters":19200,"station_id":"ce4bhah2rcd13ifvqei0","pricing_plan_id":"cebpf4jnsgd1na2vs0mg"},{"bike_id":"17bc6b48-834a-42d5-9a87-d2c34a42de2c","system_id":"levelo_inurba_marseille","lat":43.294314,"lon":5.397498,"is_reserved":false,"is_disabled":false,"rental_uris":{"android":"levelo://app?vid=17bc6b48-834a-42d5-9a87-d2c34a42de2c","ios":"levelo://app?vid=17bc6b48-834a-42d5-9a87-d2c34a42de2c"},"vehicle_type_id":"4","last_reported":1725383318,"current_range_meters":0,"station_id":"ce4bh3h2rcd13ifvqdo0","pricing_plan_id":"cebpf4jnsgd1na2vs0mg"},{"bike_id":"005d5546-2b8a-4117-8011-b8e11c767763","system_id":"levelo_inurba_marseille","lat":43.303256,"lon":5.404389,"is_reserved":false,"is_disabled":false,"rental_uris":{"android":"levelo://app?vid=005d5546-2b8a-4117-8011-b8e11c767763","ios":"levelo://app?vid=005d5546-2b8a-4117-8011-b8e11c767763"},"vehicle_type_id":"4","last_reported":1725383318,"current_range_meters":0,"station_id":"ce4bh012rcd13ifvqd10","pricing_plan_id":"cebpf4jnsgd1na2vs0mg"},{"bike_id":"683d7d43-21aa-4e15-9139-b45782fdbd32","system_id":"levelo_inurba_marseille","lat":43.303256,"lon":5.404389,"is_reserved":false,"is_disabled":false,"rental_uris":{"android":"levelo://app?vid=683d7d43-21aa-4e15-9139-b45782fdbd32","ios":"levelo://app?vid=683d7d43-21aa-4e15-9139-b45782fdbd32"},"vehicle_type_id":"4","last_reported":1725383318,"current_range_meters":5600,"station_id":"ce4bh012rcd13ifvqd10","pricing_plan_id":"cebpf4jnsgd1na2vs0mg"},{"bike_id":"75141fda-b0f8-4044-a6ae-534e58bd23bd","system_id":"levelo_inurba_marseille","lat":43.303256,"lon":5.404389,"is_reserved":false,"is_disabled":false,"rental_uris":{"android":"levelo://app?vid=75141fda-b0f8-4044-a6ae-534e58bd23bd","ios":"levelo://app?vid=75141fda-b0f8-4044-a6ae-534e58bd23bd"},"vehicle_type_id":"4","last_reported":1725383318,"current_range_meters":1600,"station_id":"ce4bh012rcd13ifvqd10","pricing_plan_id":"cebpf4jnsgd1na2vs0mg"},{"bike_id":"52ebeddf-c64c-4fd6-b880-a1105a37239e","system_id":"levelo_inurba_marseille","lat":43.285848,"lon":5.350787,"is_reserved":false,"is_disabled":false,"rental_uris":{"android":"levelo://app?vid=52ebeddf-c64c-4fd6-b880-a1105a37239e","ios":"levelo://app?vid=52ebeddf-c64c-4fd6-b880-a1105a37239e"},"vehicle_type_id":"4","last_reported":1725383318,"current_range_meters":0,"station_id":"ce4bhch2rcd13ifvqeug","pricing_plan_id":"cebpf4jnsgd1na2vs0mg"},{"bike_id":"da16fde5-592a-4c34-b5cb-ab420b830ee9","system_id":"levelo_inurba_marseille","lat":43.28616,"lon":5.35102,"is_reserved":false,"is_disabled":false,"rental_uris":{"android":"levelo://app?vid=da16fde5-592a-4c34-b5cb-ab420b830ee9","ios":"levelo://app?vid=da16fde5-592a-4c34-b5cb-ab420b830ee9"},"vehicle_type_id":"4","last_reported":1725383318,"current_range_meters":9600,"station_id":"ce4bhch2rcd13ifvqeug","pricing_plan_id":"cebpf4jnsgd1na2vs0mg"},{"bike_id":"db14b486-961b-492d-a91d-788758dfdcf6","system_id":"levelo_inurba_marseille","lat":43.28614,"lon":5.35102,"is_reserved":false,"is_disabled":false,"rental_uris":{"android":"levelo://app?vid=db14b486-961b-492d-a91d-788758dfdcf6","ios":"levelo://app?vid=db14b486-961b-492d-a91d-788758dfdcf6"},"vehicle_type_id":"4","last_reported":1725383318,"current_range_meters":31600,"station_id":"ce4bhch2rcd13ifvqeug","pricing_plan_id":"cebpf4jnsgd1na2vs0mg"},{"bike_id":"cf65ebb0-2b56-49ea-b247-8acb1b565cff","system_id":"levelo_inurba_marseille","lat":43.28615,"lon":5.35098,"is_reserved":false,"is_disabled":false,"rental_uris":{"android":"levelo://app?vid=cf65ebb0-2b56-49ea-b247-8acb1b565cff","ios":"levelo://app?vid=cf65ebb0-2b56-49ea-b247-8acb1b565cff"},"vehicle_type_id":"4","last_reported":1725383318,"current_range_meters":18000,"station_id":"ce4bhch2rcd13ifvqeug","pricing_plan_id":"cebpf4jnsgd1na2vs0mg"},{"bike_id":"454ba660-465e-4903-b426-2462f78639c2","system_id":"levelo_inurba_marseille","lat":43.28614,"lon":5.35101,"is_reserved":false,"is_disabled":false,"rental_uris":{"android":"levelo://app?vid=454ba660-465e-4903-b426-2462f78639c2","ios":"levelo://app?vid=454ba660-465e-4903-b426-2462f78639c2"},"vehicle_type_id":"4","last_reported":1725383318,"current_range_meters":17600,"station_id":"ce4bhch2rcd13ifvqeug","pricing_plan_id":"cebpf4jnsgd1na2vs0mg"},{"bike_id":"d806496f-bb74-404d-acda-3e6be75079b2","system_id":"levelo_inurba_marseille","lat":43.28611,"lon":5.35109,"is_reserved":false,"is_disabled":false,"rental_uris":{"android":"levelo://app?vid=d806496f-bb74-404d-acda-3e6be75079b2","ios":"levelo://app?vid=d806496f-bb74-404d-acda-3e6be75079b2"},"vehicle_type_id":"4","last_reported":1725383318,"current_range_meters":31200,"station_id":"ce4bhch2rcd13ifvqeug","pricing_plan_id":"cebpf4jnsgd1na2vs0mg"},{"bike_id":"296eeb2a-7330-43cd-8494-1e0ab07ba91f","system_id":"levelo_inurba_marseille","lat":43.28613,"lon":5.351023,"is_reserved":false,"is_disabled":false,"rental_uris":{"android":"levelo://app?vid=296eeb2a-7330-43cd-8494-1e0ab07ba91f","ios":"levelo://app?vid=296eeb2a-7330-43cd-8494-1e0ab07ba91f"},"vehicle_type_id":"4","last_reported":1725383318,"current_range_meters":20800,"station_id":"ce4bhch2rcd13ifvqeug","pricing_plan_id":"cebpf4jnsgd1na2vs0mg"},{"bike_id":"20ef3f60-574e-4e48-a0a2-06c2eb16e45b","system_id":"levelo_inurba_marseille","lat":43.285848,"lon":5.350787,"is_reserved":false,"is_disabled":false,"rental_uris":{"android":"levelo://app?vid=20ef3f60-574e-4e48-a0a2-06c2eb16e45b","ios":"levelo://app?vid=20ef3f60-574e-4e48-a0a2-06c2eb16e45b"},"vehicle_type_id":"4","last_reported":1725383318,"current_range_meters":30800,"station_id":"ce4bhch2rcd13ifvqeug","pricing_plan_id":"cebpf4jnsgd1na2vs0mg"},{"bike_id":"38474345-ef61-4e40-8dde-3e8dfbabdbb8","system_id":"levelo_inurba_marseille","lat":43.285856,"lon":5.350771,"is_reserved":false,"is_disabled":false,"rental_uris":{"android":"levelo://app?vid=38474345-ef61-4e40-8dde-3e8dfbabdbb8","ios":"levelo://app?vid=38474345-ef61-4e40-8dde-3e8dfbabdbb8"},"vehicle_type_id":"4","last_reported":1725383318,"current_range_meters":28400,"station_id":"ce4bhch2rcd13ifvqeug","pricing_plan_id":"cebpf4jnsgd1na2vs0mg"},{"bike_id":"bc0a6629-045e-426d-919b-4a41e5637e9a","system_id":"levelo_inurba_marseille","lat":43.285848,"lon":5.350787,"is_reserved":false,"is_disabled":false,"rental_uris":{"android":"levelo://app?vid=bc0a6629-045e-426d-919b-4a41e5637e9a","ios":"levelo://app?vid=bc0a6629-045e-426d-919b-4a41e5637e9a"},"vehicle_type_id":"4","last_reported":1725383318,"current_range_meters":0,"station_id":"ce4bhch2rcd13ifvqeug","pricing_plan_id":"cebpf4jnsgd1na2vs0mg"},{"bike_id":"54748730-d47a-45b6-8df7-316f999aead1","system_id":"levelo_inurba_marseille","lat":43.285856,"lon":5.350771,"is_reserved":false,"is_disabled":false,"rental_uris":{"android":"levelo://app?vid=54748730-d47a-45b6-8df7-316f999aead1","ios":"levelo://app?vid=54748730-d47a-45b6-8df7-316f999aead1"},"vehicle_type_id":"4","last_reported":1725383318,"current_range_meters":31600,"station_id":"ce4bhch2rcd13ifvqeug","pricing_plan_id":"cebpf4jnsgd1na2vs0mg"},{"bike_id":"d4172aad-0482-4bde-b2ac-6b181e9cc006","system_id":"levelo_inurba_marseille","lat":43.283998,"lon":5.375062,"is_reserved":false,"is_disabled":false,"rental_uris":{"android":"levelo://app?vid=d4172aad-0482-4bde-b2ac-6b181e9cc006","ios":"levelo://app?vid=d4172aad-0482-4bde-b2ac-6b181e9cc006"},"vehicle_type_id":"4","last_reported":1725383318,"current_range_meters":29600,"station_id":"ce4bh412rcd13ifvqds0","pricing_plan_id":"cebpf4jnsgd1na2vs0mg"},{"bike_id":"310b4370-3cb1-49df-8a3f-69fa63a0c783","system_id":"levelo_inurba_marseille","lat":43.283998,"lon":5.375062,"is_reserved":false,"is_disabled":false,"rental_uris":{"android":"levelo://app?vid=310b4370-3cb1-49df-8a3f-69fa63a0c783","ios":"levelo://app?vid=310b4370-3cb1-49df-8a3f-69fa63a0c783"},"vehicle_type_id":"4","last_reported":1725383318,"current_range_meters":27200,"station_id":"ce4bh412rcd13ifvqds0","pricing_plan_id":"cebpf4jnsgd1na2vs0mg"},{"bike_id":"bd52602c-baf7-4bbc-aeee-0b1866b11d62","system_id":"levelo_inurba_marseille","lat":43.283998,"lon":5.375062,"is_reserved":false,"is_disabled":false,"rental_uris":{"android":"levelo://app?vid=bd52602c-baf7-4bbc-aeee-0b1866b11d62","ios":"levelo://app?vid=bd52602c-baf7-4bbc-aeee-0b1866b11d62"},"vehicle_type_id":"4","last_reported":1725383318,"current_range_meters":400,"station_id":"ce4bh412rcd13ifvqds0","pricing_plan_id":"cebpf4jnsgd1na2vs0mg"},{"bike_id":"40118bfd-3aa5-4281-9bb7-7f576a5da93e","system_id":"levelo_inurba_marseille","lat":43.29573,"lon":5.39972,"is_reserved":false,"is_disabled":false,"rental_uris":{"android":"levelo://app?vid=40118bfd-3aa5-4281-9bb7-7f576a5da93e","ios":"levelo://app?vid=40118bfd-3aa5-4281-9bb7-7f576a5da93e"},"vehicle_type_id":"4","last_reported":1725383318,"current_range_meters":0,"station_id":"ce4bh312rcd13ifvqdj0","pricing_plan_id":"cebpf4jnsgd1na2vs0mg"},{"bike_id":"1a7a636c-89a4-422a-9223-85849203fa72","system_id":"levelo_inurba_marseille","lat":43.283998,"lon":5.375062,"is_reserved":false,"is_disabled":false,"rental_uris":{"android":"levelo://app?vid=1a7a636c-89a4-422a-9223-85849203fa72","ios":"levelo://app?vid=1a7a636c-89a4-422a-9223-85849203fa72"},"vehicle_type_id":"4","last_reported":1725383318,"current_range_meters":4800,"station_id":"ce4bh412rcd13ifvqds0","pricing_plan_id":"cebpf4jnsgd1na2vs0mg"},{"bike_id":"e823df8f-1124-424d-bbe7-c63855ffabc4","system_id":"levelo_inurba_marseille","lat":43.295713,"lon":5.399639,"is_reserved":false,"is_disabled":false,"rental_uris":{"android":"levelo://app?vid=e823df8f-1124-424d-bbe7-c63855ffabc4","ios":"levelo://app?vid=e823df8f-1124-424d-bbe7-c63855ffabc4"},"vehicle_type_id":"4","last_reported":1725383318,"current_range_meters":1200,"station_id":"ce4bh312rcd13ifvqdj0","pricing_plan_id":"cebpf4jnsgd1na2vs0mg"},{"bike_id":"b9dbe2bb-73b2-4c0b-b92d-d3ce15ec20c4","system_id":"levelo_inurba_marseille","lat":43.286595,"lon":5.386795,"is_reserved":false,"is_disabled":false,"rental_uris":{"android":"levelo://app?vid=b9dbe2bb-73b2-4c0b-b92d-d3ce15ec20c4","ios":"levelo://app?vid=b9dbe2bb-73b2-4c0b-b92d-d3ce15ec20c4"},"vehicle_type_id":"4","last_reported":1725383318,"current_range_meters":400,"station_id":"ce4bh492rcd13ifvqdug","pricing_plan_id":"cebpf4jnsgd1na2vs0mg"},{"bike_id":"1c4d4931-79a5-4d7a-9865-4c73c56e932c","system_id":"levelo_inurba_marseille","lat":43.28674,"lon":5.386543,"is_reserved":false,"is_disabled":false,"rental_uris":{"android":"levelo://app?vid=1c4d4931-79a5-4d7a-9865-4c73c56e932c","ios":"levelo://app?vid=1c4d4931-79a5-4d7a-9865-4c73c56e932c"},"vehicle_type_id":"4","last_reported":1725383318,"current_range_meters":0,"station_id":"ce4bh492rcd13ifvqdug","pricing_plan_id":"cebpf4jnsgd1na2vs0mg"},{"bike_id":"070ff47a-6308-456e-a7fe-17a9c28494de","system_id":"levelo_inurba_marseille","lat":43.286718,"lon":5.386524,"is_reserved":false,"is_disabled":false,"rental_uris":{"android":"levelo://app?vid=070ff47a-6308-456e-a7fe-17a9c28494de","ios":"levelo://app?vid=070ff47a-6308-456e-a7fe-17a9c28494de"},"vehicle_type_id":"4","last_reported":1725383318,"current_range_meters":0,"station_id":"ce4bh492rcd13ifvqdug","pricing_plan_id":"cebpf4jnsgd1na2vs0mg"},{"bike_id":"caa0b2cb-c037-435f-bf65-3f7b01312796","system_id":"levelo_inurba_marseille","lat":43.28669,"lon":5.38663,"is_reserved":false,"is_disabled":false,"rental_uris":{"android":"levelo://app?vid=caa0b2cb-c037-435f-bf65-3f7b01312796","ios":"levelo://app?vid=caa0b2cb-c037-435f-bf65-3f7b01312796"},"vehicle_type_id":"4","last_reported":1725383318,"current_range_meters":10400,"station_id":"ce4bh492rcd13ifvqdug","pricing_plan_id":"cebpf4jnsgd1na2vs0mg"},{"bike_id":"f61203ed-5a1b-405c-9ce2-7c93000f50de","system_id":"levelo_inurba_marseille","lat":43.319179,"lon":5.407725,"is_reserved":false,"is_disabled":false,"rental_uris":{"android":"levelo://app?vid=f61203ed-5a1b-405c-9ce2-7c93000f50de","ios":"levelo://app?vid=f61203ed-5a1b-405c-9ce2-7c93000f50de"},"vehicle_type_id":"4","last_reported":1725383318,"current_range_meters":800,"station_id":"ce4bhq12rcd13ifvqhig","pricing_plan_id":"cebpf4jnsgd1na2vs0mg"},{"bike_id":"a882d571-cbea-4a80-b104-6ed8fa69afb0","system_id":"levelo_inurba_marseille","lat":43.33719,"lon":5.39173,"is_reserved":false,"is_disabled":false,"rental_uris":{"android":"levelo://app?vid=a882d571-cbea-4a80-b104-6ed8fa69afb0","ios":"levelo://app?vid=a882d571-cbea-4a80-b104-6ed8fa69afb0"},"vehicle_type_id":"4","last_reported":1725383318,"current_range_meters":22800,"station_id":"ce4bhr92rcd13ifvqhsg","pricing_plan_id":"cebpf4jnsgd1na2vs0mg"},{"bike_id":"abd506d8-bb09-43e1-8e73-551321dab328","system_id":"levelo_inurba_marseille","lat":43.337168,"lon":5.391825,"is_reserved":false,"is_disabled":false,"rental_uris":{"android":"levelo://app?vid=abd506d8-bb09-43e1-8e73-551321dab328","ios":"levelo://app?vid=abd506d8-bb09-43e1-8e73-551321dab328"},"vehicle_type_id":"4","last_reported":1725383318,"current_range_meters":18400,"station_id":"ce4bhr92rcd13ifvqhsg","pricing_plan_id":"cebpf4jnsgd1na2vs0mg"},{"bike_id":"bf868978-1617-4cae-a197-bf7d8cbb0fa4","system_id":"levelo_inurba_marseille","lat":43.32335,"lon":5.40619,"is_reserved":false,"is_disabled":false,"rental_uris":{"android":"levelo://app?vid=bf868978-1617-4cae-a197-bf7d8cbb0fa4","ios":"levelo://app?vid=bf868978-1617-4cae-a197-bf7d8cbb0fa4"},"vehicle_type_id":"4","last_reported":1725383318,"current_range_meters":7600,"station_id":"ce4bhq92rcd13ifvqhjg","pricing_plan_id":"cebpf4jnsgd1na2vs0mg"},{"bike_id":"39fd1e50-d122-465a-b193-04b75d09cd71","system_id":"levelo_inurba_marseille","lat":43.323383,"lon":5.406181,"is_reserved":false,"is_disabled":false,"rental_uris":{"android":"levelo://app?vid=39fd1e50-d122-465a-b193-04b75d09cd71","ios":"levelo://app?vid=39fd1e50-d122-465a-b193-04b75d09cd71"},"vehicle_type_id":"4","last_reported":1725383318,"current_range_meters":0,"station_id":"ce4bhq92rcd13ifvqhjg","pricing_plan_id":"cebpf4jnsgd1na2vs0mg"},{"bike_id":"8a24086c-16ff-476c-8f9a-e67734478cea","system_id":"levelo_inurba_marseille","lat":43.323464,"lon":5.406297,"is_reserved":false,"is_disabled":false,"rental_uris":{"android":"levelo://app?vid=8a24086c-16ff-476c-8f9a-e67734478cea","ios":"levelo://app?vid=8a24086c-16ff-476c-8f9a-e67734478cea"},"vehicle_type_id":"4","last_reported":1725383318,"current_range_meters":15600,"station_id":"ce4bhq92rcd13ifvqhjg","pricing_plan_id":"cebpf4jnsgd1na2vs0mg"},{"bike_id":"ee990774-3d5b-4a3c-ba8f-dc64e577022a","system_id":"levelo_inurba_marseille","lat":43.32334,"lon":5.40624,"is_reserved":false,"is_disabled":false,"rental_uris":{"android":"levelo://app?vid=ee990774-3d5b-4a3c-ba8f-dc64e577022a","ios":"levelo://app?vid=ee990774-3d5b-4a3c-ba8f-dc64e577022a"},"vehicle_type_id":"4","last_reported":1725383318,"current_range_meters":0,"station_id":"ce4bhq92rcd13ifvqhjg","pricing_plan_id":"cebpf4jnsgd1na2vs0mg"},{"bike_id":"90ca6530-401f-4ea7-b5b3-7619b4c4cebf","system_id":"levelo_inurba_marseille","lat":43.32341,"lon":5.40621,"is_reserved":false,"is_disabled":false,"rental_uris":{"android":"levelo://app?vid=90ca6530-401f-4ea7-b5b3-7619b4c4cebf","ios":"levelo://app?vid=90ca6530-401f-4ea7-b5b3-7619b4c4cebf"},"vehicle_type_id":"4","last_reported":1725383318,"current_range_meters":28400,"station_id":"ce4bhq92rcd13ifvqhjg","pricing_plan_id":"cebpf4jnsgd1na2vs0mg"},{"bike_id":"447d0503-e93e-4b76-9b78-61159177cb50","system_id":"levelo_inurba_marseille","lat":43.3403,"lon":5.34876,"is_reserved":false,"is_disabled":false,"rental_uris":{"android":"levelo://app?vid=447d0503-e93e-4b76-9b78-61159177cb50","ios":"levelo://app?vid=447d0503-e93e-4b76-9b78-61159177cb50"},"vehicle_type_id":"4","last_reported":1725383318,"current_range_meters":13600,"station_id":"","pricing_plan_id":"cebpf4jnsgd1na2vs0mg"},{"bike_id":"6faab89e-5619-42ac-bc70-3902b592ab85","system_id":"levelo_inurba_marseille","lat":43.284793,"lon":5.384113,"is_reserved":false,"is_disabled":false,"rental_uris":{"android":"levelo://app?vid=6faab89e-5619-42ac-bc70-3902b592ab85","ios":"levelo://app?vid=6faab89e-5619-42ac-bc70-3902b592ab85"},"vehicle_type_id":"4","last_reported":1725383318,"current_range_meters":18800,"station_id":"ce4bh512rcd13ifvqe3g","pricing_plan_id":"cebpf4jnsgd1na2vs0mg"},{"bike_id":"28139294-bd7c-476e-9981-33a1a1b57cf4","system_id":"levelo_inurba_marseille","lat":43.288501,"lon":5.393087,"is_reserved":false,"is_disabled":false,"rental_uris":{"android":"levelo://app?vid=28139294-bd7c-476e-9981-33a1a1b57cf4","ios":"levelo://app?vid=28139294-bd7c-476e-9981-33a1a1b57cf4"},"vehicle_type_id":"4","last_reported":1725383318,"current_range_meters":5200,"station_id":"ce4bh2p2rcd13ifvqdi0","pricing_plan_id":"cebpf4jnsgd1na2vs0mg"},{"bike_id":"dc24b3c7-8078-4000-a71f-580915575a3c","system_id":"levelo_inurba_marseille","lat":43.28849,"lon":5.3932,"is_reserved":false,"is_disabled":false,"rental_uris":{"android":"levelo://app?vid=dc24b3c7-8078-4000-a71f-580915575a3c","ios":"levelo://app?vid=dc24b3c7-8078-4000-a71f-580915575a3c"},"vehicle_type_id":"4","last_reported":1725383318,"current_range_meters":0,"station_id":"ce4bh2p2rcd13ifvqdi0","pricing_plan_id":"cebpf4jnsgd1na2vs0mg"},{"bike_id":"2c34d30b-98cd-4a62-a2a8-57952b3b5427","system_id":"levelo_inurba_marseille","lat":43.28853,"lon":5.39336,"is_reserved":false,"is_disabled":false,"rental_uris":{"android":"levelo://app?vid=2c34d30b-98cd-4a62-a2a8-57952b3b5427","ios":"levelo://app?vid=2c34d30b-98cd-4a62-a2a8-57952b3b5427"},"vehicle_type_id":"4","last_reported":1725383318,"current_range_meters":0,"station_id":"ce4bh2p2rcd13ifvqdi0","pricing_plan_id":"cebpf4jnsgd1na2vs0mg"},{"bike_id":"29b48ae4-a50c-4493-815c-7da924cec835","system_id":"levelo_inurba_marseille","lat":43.284776,"lon":5.385603,"is_reserved":false,"is_disabled":false,"rental_uris":{"android":"levelo://app?vid=29b48ae4-a50c-4493-815c-7da924cec835","ios":"levelo://app?vid=29b48ae4-a50c-4493-815c-7da924cec835"},"vehicle_type_id":"4","last_reported":1725383318,"current_range_meters":0,"station_id":"ce4bh8p2rcd13ifvqeb0","pricing_plan_id":"cebpf4jnsgd1na2vs0mg"},{"bike_id":"02fe2a9a-fa44-4276-b5e4-17d99157f988","system_id":"levelo_inurba_marseille","lat":43.28348,"lon":5.38084,"is_reserved":false,"is_disabled":false,"rental_uris":{"android":"levelo://app?vid=02fe2a9a-fa44-4276-b5e4-17d99157f988","ios":"levelo://app?vid=02fe2a9a-fa44-4276-b5e4-17d99157f988"},"vehicle_type_id":"4","last_reported":1725383318,"current_range_meters":0,"station_id":"ce4bh412rcd13ifvqdr0","pricing_plan_id":"cebpf4jnsgd1na2vs0mg"},{"bike_id":"5cc9d03d-e8f2-41ed-aa6f-c7e11f524b78","system_id":"levelo_inurba_marseille","lat":43.28423,"lon":5.35009,"is_reserved":false,"is_disabled":false,"rental_uris":{"android":"levelo://app?vid=5cc9d03d-e8f2-41ed-aa6f-c7e11f524b78","ios":"levelo://app?vid=5cc9d03d-e8f2-41ed-aa6f-c7e11f524b78"},"vehicle_type_id":"4","last_reported":1725383318,"current_range_meters":25600,"station_id":"ce4bhbh2rcd13ifvqepg","pricing_plan_id":"cebpf4jnsgd1na2vs0mg"},{"bike_id":"22fbbc45-271e-44e5-bfa0-900fc89e5008","system_id":"levelo_inurba_marseille","lat":43.284267,"lon":5.34991,"is_reserved":false,"is_disabled":false,"rental_uris":{"android":"levelo://app?vid=22fbbc45-271e-44e5-bfa0-900fc89e5008","ios":"levelo://app?vid=22fbbc45-271e-44e5-bfa0-900fc89e5008"},"vehicle_type_id":"4","last_reported":1725383318,"current_range_meters":22400,"station_id":"ce4bhbh2rcd13ifvqepg","pricing_plan_id":"cebpf4jnsgd1na2vs0mg"},{"bike_id":"8528c313-dd39-4468-979f-1a56ec98d9f6","system_id":"levelo_inurba_marseille","lat":43.283498,"lon":5.380948,"is_reserved":false,"is_disabled":false,"rental_uris":{"android":"levelo://app?vid=8528c313-dd39-4468-979f-1a56ec98d9f6","ios":"levelo://app?vid=8528c313-dd39-4468-979f-1a56ec98d9f6"},"vehicle_type_id":"4","last_reported":1725383318,"current_range_meters":17200,"station_id":"ce4bh412rcd13ifvqdr0","pricing_plan_id":"cebpf4jnsgd1na2vs0mg"},{"bike_id":"4b01fcfb-4454-4257-9e19-9c23d9b02974","system_id":"levelo_inurba_marseille","lat":43.28423,"lon":5.34984,"is_reserved":false,"is_disabled":false,"rental_uris":{"android":"levelo://app?vid=4b01fcfb-4454-4257-9e19-9c23d9b02974","ios":"levelo://app?vid=4b01fcfb-4454-4257-9e19-9c23d9b02974"},"vehicle_type_id":"4","last_reported":1725383318,"current_range_meters":28400,"station_id":"ce4bhbh2rcd13ifvqepg","pricing_plan_id":"cebpf4jnsgd1na2vs0mg"},{"bike_id":"2bccecca-8e49-47e7-aa10-f8aae456d72b","system_id":"levelo_inurba_marseille","lat":43.28425,"lon":5.34975,"is_reserved":false,"is_disabled":false,"rental_uris":{"android":"levelo://app?vid=2bccecca-8e49-47e7-aa10-f8aae456d72b","ios":"levelo://app?vid=2bccecca-8e49-47e7-aa10-f8aae456d72b"},"vehicle_type_id":"4","last_reported":1725383318,"current_range_meters":25200,"station_id":"ce4bhbh2rcd13ifvqepg","pricing_plan_id":"cebpf4jnsgd1na2vs0mg"},{"bike_id":"e50af42a-01d8-4eed-97a8-2e27a519e46b","system_id":"levelo_inurba_marseille","lat":43.28424,"lon":5.34977,"is_reserved":false,"is_disabled":false,"rental_uris":{"android":"levelo://app?vid=e50af42a-01d8-4eed-97a8-2e27a519e46b","ios":"levelo://app?vid=e50af42a-01d8-4eed-97a8-2e27a519e46b"},"vehicle_type_id":"4","last_reported":1725383318,"current_range_meters":26000,"station_id":"ce4bhbh2rcd13ifvqepg","pricing_plan_id":"cebpf4jnsgd1na2vs0mg"},{"bike_id":"42ad859f-b8d7-4679-8455-be17d8fea58d","system_id":"levelo_inurba_marseille","lat":43.28419,"lon":5.34983,"is_reserved":false,"is_disabled":false,"rental_uris":{"android":"levelo://app?vid=42ad859f-b8d7-4679-8455-be17d8fea58d","ios":"levelo://app?vid=42ad859f-b8d7-4679-8455-be17d8fea58d"},"vehicle_type_id":"4","last_reported":1725383318,"current_range_meters":29200,"station_id":"ce4bhbh2rcd13ifvqepg","pricing_plan_id":"cebpf4jnsgd1na2vs0mg"},{"bike_id":"47efbfd2-ce61-401e-84aa-a43a7766de70","system_id":"levelo_inurba_marseille","lat":43.28416,"lon":5.34991,"is_reserved":false,"is_disabled":false,"rental_uris":{"android":"levelo://app?vid=47efbfd2-ce61-401e-84aa-a43a7766de70","ios":"levelo://app?vid=47efbfd2-ce61-401e-84aa-a43a7766de70"},"vehicle_type_id":"4","last_reported":1725383318,"current_range_meters":8800,"station_id":"ce4bhbh2rcd13ifvqepg","pricing_plan_id":"cebpf4jnsgd1na2vs0mg"},{"bike_id":"896f38f9-260e-482e-b0af-1111ad5fad95","system_id":"levelo_inurba_marseille","lat":43.28421,"lon":5.34972,"is_reserved":false,"is_disabled":false,"rental_uris":{"android":"levelo://app?vid=896f38f9-260e-482e-b0af-1111ad5fad95","ios":"levelo://app?vid=896f38f9-260e-482e-b0af-1111ad5fad95"},"vehicle_type_id":"4","last_reported":1725383318,"current_range_meters":400,"station_id":"ce4bhbh2rcd13ifvqepg","pricing_plan_id":"cebpf4jnsgd1na2vs0mg"},{"bike_id":"ade74ce5-ac99-40da-af6b-d8d5f8aa0e06","system_id":"levelo_inurba_marseille","lat":43.28419,"lon":5.34975,"is_reserved":false,"is_disabled":false,"rental_uris":{"android":"levelo://app?vid=ade74ce5-ac99-40da-af6b-d8d5f8aa0e06","ios":"levelo://app?vid=ade74ce5-ac99-40da-af6b-d8d5f8aa0e06"},"vehicle_type_id":"4","last_reported":1725383318,"current_range_meters":10000,"station_id":"ce4bhbh2rcd13ifvqepg","pricing_plan_id":"cebpf4jnsgd1na2vs0mg"},{"bike_id":"abac9c28-98b2-4157-9894-a62e81f4b2b1","system_id":"levelo_inurba_marseille","lat":43.28416,"lon":5.34976,"is_reserved":false,"is_disabled":false,"rental_uris":{"android":"levelo://app?vid=abac9c28-98b2-4157-9894-a62e81f4b2b1","ios":"levelo://app?vid=abac9c28-98b2-4157-9894-a62e81f4b2b1"},"vehicle_type_id":"4","last_reported":1725383318,"current_range_meters":8800,"station_id":"ce4bhbh2rcd13ifvqepg","pricing_plan_id":"cebpf4jnsgd1na2vs0mg"},{"bike_id":"b30b9b3f-6e6f-47f8-b81d-2f0512c71771","system_id":"levelo_inurba_marseille","lat":43.28277,"lon":5.35065,"is_reserved":false,"is_disabled":false,"rental_uris":{"android":"levelo://app?vid=b30b9b3f-6e6f-47f8-b81d-2f0512c71771","ios":"levelo://app?vid=b30b9b3f-6e6f-47f8-b81d-2f0512c71771"},"vehicle_type_id":"4","last_reported":1725383318,"current_range_meters":16000,"station_id":"ce4bhbp2rcd13ifvqerg","pricing_plan_id":"cebpf4jnsgd1na2vs0mg"},{"bike_id":"aa8a2dac-d2ef-4dc9-b91f-46b0b2491094","system_id":"levelo_inurba_marseille","lat":43.28272,"lon":5.35072,"is_reserved":false,"is_disabled":false,"rental_uris":{"android":"levelo://app?vid=aa8a2dac-d2ef-4dc9-b91f-46b0b2491094","ios":"levelo://app?vid=aa8a2dac-d2ef-4dc9-b91f-46b0b2491094"},"vehicle_type_id":"4","last_reported":1725383318,"current_range_meters":30400,"station_id":"ce4bhbp2rcd13ifvqerg","pricing_plan_id":"cebpf4jnsgd1na2vs0mg"},{"bike_id":"ffb63d4b-cdb3-4e78-9919-99e523047f08","system_id":"levelo_inurba_marseille","lat":43.283502,"lon":5.386471,"is_reserved":false,"is_disabled":false,"rental_uris":{"android":"levelo://app?vid=ffb63d4b-cdb3-4e78-9919-99e523047f08","ios":"levelo://app?vid=ffb63d4b-cdb3-4e78-9919-99e523047f08"},"vehicle_type_id":"4","last_reported":1725383318,"current_range_meters":9600,"station_id":"ce4bh492rcd13ifvqdvg","pricing_plan_id":"cebpf4jnsgd1na2vs0mg"},{"bike_id":"0241be7e-9b80-462e-92a4-8adbbca7ff7a","system_id":"levelo_inurba_marseille","lat":43.282744,"lon":5.350533,"is_reserved":false,"is_disabled":false,"rental_uris":{"android":"levelo://app?vid=0241be7e-9b80-462e-92a4-8adbbca7ff7a","ios":"levelo://app?vid=0241be7e-9b80-462e-92a4-8adbbca7ff7a"},"vehicle_type_id":"4","last_reported":1725383318,"current_range_meters":800,"station_id":"ce4bhbp2rcd13ifvqerg","pricing_plan_id":"cebpf4jnsgd1na2vs0mg"},{"bike_id":"dce25c9c-a5b1-41e1-b930-283b5104e971","system_id":"levelo_inurba_marseille","lat":43.282716,"lon":5.350517,"is_reserved":false,"is_disabled":false,"rental_uris":{"android":"levelo://app?vid=dce25c9c-a5b1-41e1-b930-283b5104e971","ios":"levelo://app?vid=dce25c9c-a5b1-41e1-b930-283b5104e971"},"vehicle_type_id":"4","last_reported":1725383318,"current_range_meters":17200,"station_id":"ce4bhbp2rcd13ifvqerg","pricing_plan_id":"cebpf4jnsgd1na2vs0mg"},{"bike_id":"3cce868f-5c1d-4395-8cea-a79a8a50da06","system_id":"levelo_inurba_marseille","lat":43.28265,"lon":5.35068,"is_reserved":false,"is_disabled":false,"rental_uris":{"android":"levelo://app?vid=3cce868f-5c1d-4395-8cea-a79a8a50da06","ios":"levelo://app?vid=3cce868f-5c1d-4395-8cea-a79a8a50da06"},"vehicle_type_id":"4","last_reported":1725383318,"current_range_meters":31200,"station_id":"ce4bhbp2rcd13ifvqerg","pricing_plan_id":"cebpf4jnsgd1na2vs0mg"},{"bike_id":"15bd5f01-4565-4297-868a-124368499936","system_id":"levelo_inurba_marseille","lat":43.283502,"lon":5.386471,"is_reserved":false,"is_disabled":false,"rental_uris":{"android":"levelo://app?vid=15bd5f01-4565-4297-868a-124368499936","ios":"levelo://app?vid=15bd5f01-4565-4297-868a-124368499936"},"vehicle_type_id":"4","last_reported":1725383318,"current_range_meters":2000,"station_id":"ce4bh492rcd13ifvqdvg","pricing_plan_id":"cebpf4jnsgd1na2vs0mg"},{"bike_id":"df54984b-14c0-437e-a390-f8e40a522b34","system_id":"levelo_inurba_marseille","lat":43.28038,"lon":5.36942,"is_reserved":false,"is_disabled":false,"rental_uris":{"android":"levelo://app?vid=df54984b-14c0-437e-a390-f8e40a522b34","ios":"levelo://app?vid=df54984b-14c0-437e-a390-f8e40a522b34"},"vehicle_type_id":"4","last_reported":1725383318,"current_range_meters":0,"station_id":"ce4bha12rcd13ifvqef0","pricing_plan_id":"cebpf4jnsgd1na2vs0mg"},{"bike_id":"becdf49c-ac70-4b78-ab43-6a6162200460","system_id":"levelo_inurba_marseille","lat":43.280382,"lon":5.369291,"is_reserved":false,"is_disabled":false,"rental_uris":{"android":"levelo://app?vid=becdf49c-ac70-4b78-ab43-6a6162200460","ios":"levelo://app?vid=becdf49c-ac70-4b78-ab43-6a6162200460"},