{"last_updated":1700672828,"ttl":30,"version":"2.2","data":{"bikes":[{"bike_id":"54255209-ec82-49ae-a84a-57c368bcfe84","system_id":"levelo_inurba_marseille","lat":43.312239,"lon":5.368562,"is_reserved":false,"is_disabled":false,"rental_uris":{"android":"levelo://app?vid=54255209-ec82-49ae-a84a-57c368bcfe84","ios":"levelo://app?vid=54255209-ec82-49ae-a84a-57c368bcfe84"},"vehicle_type_id":"4","last_reported":1700672828,"current_range_meters":16800,"station_id":"ce4bgl92rcd13ifvqbq0","pricing_plan_id":"free"},{"bike_id":"eeef4dbc-7602-4f26-b2c1-c3771c9b5dae","system_id":"levelo_inurba_marseille","lat":43.31159,"lon":5.36883,"is_reserved":false,"is_disabled":false,"rental_uris":{"android":"levelo://app?vid=eeef4dbc-7602-4f26-b2c1-c3771c9b5dae","ios":"levelo://app?vid=eeef4dbc-7602-4f26-b2c1-c3771c9b5dae"},"vehicle_type_id":"4","last_reported":1700672828,"current_range_meters":0,"station_id":"","pricing_plan_id":"free"},{"bike_id":"e09d0bd4-96ac-44ba-96a7-8298f55b5927","system_id":"levelo_inurba_marseille","lat":43.31076,"lon":5.36881,"is_reserved":false,"is_disabled":false,"rental_uris":{"android":"levelo://app?vid=e09d0bd4-96ac-44ba-96a7-8298f55b5927","ios":"levelo://app?vid=e09d0bd4-96ac-44ba-96a7-8298f55b5927"},"vehicle_type_id":"4","last_reported":1700672828,"current_range_meters":10000,"station_id":"","pricing_plan_id":"free"},{"bike_id":"31d20866-c07e-4e5b-8434-50808b044652","system_id":"levelo_inurba_marseille","lat":43.309039,"lon":5.371797,"is_reserved":false,"is_disabled":false,"rental_uris":{"android":"levelo://app?vid=31d20866-c07e-4e5b-8434-50808b044652","ios":"levelo://app?vid=31d20866-c07e-4e5b-8434-50808b044652"},"vehicle_type_id":"4","last_reported":1700672828,"current_range_meters":26800,"station_id":"ce4bguh2rcd13ifvqckg","pricing_plan_id":"free"},{"bike_id":"4f5aceb8-8c86-4197-b862-10f3279b63d8","system_id":"levelo_inurba_marseille","lat":43.309039,"lon":5.371797,"is_reserved":false,"is_disabled":false,"rental_uris":{"android":"levelo://app?vid=4f5aceb8-8c86-4197-b862-10f3279b63d8","ios":"levelo://app?vid=4f5aceb8-8c86-4197-b862-10f3279b63d8"},"vehicle_type_id":"4","last_reported":1700672828,"current_range_meters":13600,"station_id":"ce4bguh2rcd13ifvqckg","pricing_plan_id":"free"},{"bike_id":"2bc311dc-da0b-403e-8cae-84f8764bc67c","system_id":"levelo_inurba_marseille","lat":43.30679,"lon":5.3679,"is_reserved":false,"is_disabled":false,"rental_uris":{"android":"levelo://app?vid=2bc311dc-da0b-403e-8cae-84f8764bc67c","ios":"levelo://app?vid=2bc311dc-da0b-403e-8cae-84f8764bc67c"},"vehicle_type_id":"4","last_reported":1700672828,"current_range_meters":0,"station_id":"","pricing_plan_id":"free"},{"bike_id":"95583d67-b9fc-4ff1-93fd-5e2fbf3996b7","system_id":"levelo_inurba_marseille","lat":43.31961,"lon":5.3706,"is_reserved":false,"is_disabled":false,"rental_uris":{"android":"levelo://app?vid=95583d67-b9fc-4ff1-93fd-5e2fbf3996b7","ios":"levelo://app?vid=95583d67-b9fc-4ff1-93fd-5e2fbf3996b7"},"vehicle_type_id":"4","last_reported":1700672828,"current_range_meters":0,"station_id":"","pricing_plan_id":"free"},{"bike_id":"31cd910b-efe5-405b-9f21-b451defb2ca9","system_id":"levelo_inurba_marseille","lat":43.305989,"lon":5.37225,"is_reserved":false,"is_disabled":false,"rental_uris":{"android":"levelo://app?vid=31cd910b-efe5-405b-9f21-b451defb2ca9","ios":"levelo://app?vid=31cd910b-efe5-405b-9f21-b451defb2ca9"},"vehicle_type_id":"4","last_reported":1700672828,"current_range_meters":5200,"station_id":"ce4bgqh2rcd13ifvqc4g","pricing_plan_id":"free"},{"bike_id":"4c1e0277-ce6e-4d4c-a4b0-c0645b9210da","system_id":"levelo_inurba_marseille","lat":43.311461,"lon":5.378414,"is_reserved":false,"is_disabled":false,"rental_uris":{"android":"levelo://app?vid=4c1e0277-ce6e-4d4c-a4b0-c0645b9210da","ios":"levelo://app?vid=4c1e0277-ce6e-4d4c-a4b0-c0645b9210da"},"vehicle_type_id":"4","last_reported":1700672828,"current_range_meters":0,"station_id":"ce4bgt92rcd13ifvqcg0","pricing_plan_id":"free"},{"bike_id":"f1c6a7e1-360e-4b24-af34-c8ea49e7094d","system_id":"levelo_inurba_marseille","lat":43.307855,"lon":5.37658,"is_reserved":false,"is_disabled":false,"rental_uris":{"android":"levelo://app?vid=f1c6a7e1-360e-4b24-af34-c8ea49e7094d","ios":"levelo://app?vid=f1c6a7e1-360e-4b24-af34-c8ea49e7094d"},"vehicle_type_id":"4","last_reported":1700672828,"current_range_meters":25200,"station_id":"ce4bgv92rcd13ifvqcq0","pricing_plan_id":"free"},{"bike_id":"a01947ce-d3f1-4178-a24b-0cddef23cdbe","system_id":"levelo_inurba_marseille","lat":43.303219,"lon":5.366278,"is_reserved":false,"is_disabled":false,"rental_uris":{"android":"levelo://app?vid=a01947ce-d3f1-4178-a24b-0cddef23cdbe","ios":"levelo://app?vid=a01947ce-d3f1-4178-a24b-0cddef23cdbe"},"vehicle_type_id":"4","last_reported":1700672828,"current_range_meters":0,"station_id":"","pricing_plan_id":"free"},{"bike_id":"1c8d33e4-a355-458b-88b3-9c1de75738a0","system_id":"levelo_inurba_marseille","lat":43.30304,"lon":5.369195,"is_reserved":false,"is_disabled":false,"rental_uris":{"android":"levelo://app?vid=1c8d33e4-a355-458b-88b3-9c1de75738a0","ios":"levelo://app?vid=1c8d33e4-a355-458b-88b3-9c1de75738a0"},"vehicle_type_id":"4","last_reported":1700672828,"current_range_meters":18400,"station_id":"ce4bgqh2rcd13ifvqc5g","pricing_plan_id":"free"},{"bike_id":"d9323c3f-0bf6-4aa6-a9c0-15f1bbf531a9","system_id":"levelo_inurba_marseille","lat":43.303046,"lon":5.368981,"is_reserved":false,"is_disabled":false,"rental_uris":{"android":"levelo://app?vid=d9323c3f-0bf6-4aa6-a9c0-15f1bbf531a9","ios":"levelo://app?vid=d9323c3f-0bf6-4aa6-a9c0-15f1bbf531a9"},"vehicle_type_id":"4","last_reported":1700672828,"current_range_meters":3600,"station_id":"ce4bgqh2rcd13ifvqc5g","pricing_plan_id":"free"},{"bike_id":"0327687b-f51e-4077-bf49-2ec73a6de092","system_id":"levelo_inurba_marseille","lat":43.32233,"lon":5.37561,"is_reserved":false,"is_disabled":false,"rental_uris":{"android":"levelo://app?vid=0327687b-f51e-4077-bf49-2ec73a6de092","ios":"levelo://app?vid=0327687b-f51e-4077-bf49-2ec73a6de092"},"vehicle_type_id":"4","last_reported":1700672828,"current_range_meters":15600,"station_id":"","pricing_plan_id":"free"},{"bike_id":"52bfb210-79b3-45f0-848f-15703001a96d","system_id":"levelo_inurba_marseille","lat":43.30806,"lon":5.38149,"is_reserved":false,"is_disabled":false,"rental_uris":{"android":"levelo://app?vid=52bfb210-79b3-45f0-848f-15703001a96d","ios":"levelo://app?vid=52bfb210-79b3-45f0-848f-15703001a96d"},"vehicle_type_id":"4","last_reported":1700672828,"current_range_meters":0,"station_id":"ce4bgt12rcd13ifvqce0","pricing_plan_id":"free"},{"bike_id":"a037806c-504f-410e-8380-5102d23eea79","system_id":"levelo_inurba_marseille","lat":43.324771,"lon":5.36557,"is_reserved":false,"is_disabled":false,"rental_uris":{"android":"levelo://app?vid=a037806c-504f-410e-8380-5102d23eea79","ios":"levelo://app?vid=a037806c-504f-410e-8380-5102d23eea79"},"vehicle_type_id":"4","last_reported":1700672828,"current_range_meters":25600,"station_id":"ce4bhs12rcd13ifvqhvg","pricing_plan_id":"free"},{"bike_id":"afa921fc-ca50-4532-aeb1-1de14ee2fe50","system_id":"levelo_inurba_marseille","lat":43.324771,"lon":5.36557,"is_reserved":false,"is_disabled":false,"rental_uris":{"android":"levelo://app?vid=afa921fc-ca50-4532-aeb1-1de14ee2fe50","ios":"levelo://app?vid=afa921fc-ca50-4532-aeb1-1de14ee2fe50"},"vehicle_type_id":"4","last_reported":1700672828,"current_range_meters":20800,"station_id":"ce4bhs12rcd13ifvqhvg","pricing_plan_id":"free"},{"bike_id":"b85a677b-a395-4a00-96fb-2879f057fbc7","system_id":"levelo_inurba_marseille","lat":43.32481,"lon":5.36559,"is_reserved":false,"is_disabled":false,"rental_uris":{"android":"levelo://app?vid=b85a677b-a395-4a00-96fb-2879f057fbc7","ios":"levelo://app?vid=b85a677b-a395-4a00-96fb-2879f057fbc7"},"vehicle_type_id":"4","last_reported":1700672828,"current_range_meters":17600,"station_id":"ce4bhs12rcd13ifvqhvg","pricing_plan_id":"free"},{"bike_id":"61478fa9-9ba0-402f-ba5c-21d0fdeda0dc","system_id":"levelo_inurba_marseille","lat":43.30143,"lon":5.37413,"is_reserved":false,"is_disabled":false,"rental_uris":{"android":"levelo://app?vid=61478fa9-9ba0-402f-ba5c-21d0fdeda0dc","ios":"levelo://app?vid=61478fa9-9ba0-402f-ba5c-21d0fdeda0dc"},"vehicle_type_id":"4","last_reported":1700672828,"current_range_meters":30000,"station_id":"ce4bgs92rcd13ifvqcc0","pricing_plan_id":"free"},{"bike_id":"47a5efa3-c5f7-47f0-80d0-7f5895630824","system_id":"levelo_inurba_marseille","lat":43.30142,"lon":5.37417,"is_reserved":false,"is_disabled":false,"rental_uris":{"android":"levelo://app?vid=47a5efa3-c5f7-47f0-80d0-7f5895630824","ios":"levelo://app?vid=47a5efa3-c5f7-47f0-80d0-7f5895630824"},"vehicle_type_id":"4","last_reported":1700672828,"current_range_meters":13600,"station_id":"ce4bgs92rcd13ifvqcc0","pricing_plan_id":"free"},{"bike_id":"f9668bac-6a63-427d-b019-554571fc7466","system_id":"levelo_inurba_marseille","lat":43.319935,"lon":5.381699,"is_reserved":false,"is_disabled":false,"rental_uris":{"android":"levelo://app?vid=f9668bac-6a63-427d-b019-554571fc7466","ios":"levelo://app?vid=f9668bac-6a63-427d-b019-554571fc7466"},"vehicle_type_id":"4","last_reported":1700672828,"current_range_meters":11600,"station_id":"ce4bhr12rcd13ifvqhpg","pricing_plan_id":"free"},{"bike_id":"2df73a89-9b66-4193-997b-03a18676deee","system_id":"levelo_inurba_marseille","lat":43.313571,"lon":5.384829,"is_reserved":false,"is_disabled":false,"rental_uris":{"android":"levelo://app?vid=2df73a89-9b66-4193-997b-03a18676deee","ios":"levelo://app?vid=2df73a89-9b66-4193-997b-03a18676deee"},"vehicle_type_id":"4","last_reported":1700672828,"current_range_meters":0,"station_id":"ce4bgt92rcd13ifvqcf0","pricing_plan_id":"free"},{"bike_id":"c9a43a87-4d67-4fef-a7da-eab0efd6b916","system_id":"levelo_inurba_marseille","lat":43.32247,"lon":5.37909,"is_reserved":false,"is_disabled":false,"rental_uris":{"android":"levelo://app?vid=c9a43a87-4d67-4fef-a7da-eab0efd6b916","ios":"levelo://app?vid=c9a43a87-4d67-4fef-a7da-eab0efd6b916"},"vehicle_type_id":"4","last_reported":1700672828,"current_range_meters":4400,"station_id":"","pricing_plan_id":"free"},{"bike_id":"0721e1cd-e9a6-421b-ba18-3a82da34cdcd","system_id":"levelo_inurba_marseille","lat":43.313571,"lon":5.384829,"is_reserved":false,"is_disabled":false,"rental_uris":{"android":"levelo://app?vid=0721e1cd-e9a6-421b-ba18-3a82da34cdcd","ios":"levelo://app?vid=0721e1cd-e9a6-421b-ba18-3a82da34cdcd"},"vehicle_type_id":"4","last_reported":1700672828,"current_range_meters":31600,"station_id":"ce4bgt92rcd13ifvqcf0","pricing_plan_id":"free"},{"bike_id":"ecb9e206-b532-48a6-a31c-00a8fa9a7c13","system_id":"levelo_inurba_marseille","lat":43.313571,"lon":5.384829,"is_reserved":false,"is_disabled":false,"rental_uris":{"android":"levelo://app?vid=ecb9e206-b532-48a6-a31c-00a8fa9a7c13","ios":"levelo://app?vid=ecb9e206-b532-48a6-a31c-00a8fa9a7c13"},"vehicle_type_id":"4","last_reported":1700672828,"current_range_meters":21200,"station_id":"ce4bgt92rcd13ifvqcf0","pricing_plan_id":"free"},{"bike_id":"8f455be9-19bd-47b2-9780-367dc7aa8fc0","system_id":"levelo_inurba_marseille","lat":43.299243,"lon":5.37481,"is_reserved":false,"is_disabled":false,"rental_uris":{"android":"levelo://app?vid=8f455be9-19bd-47b2-9780-367dc7aa8fc0","ios":"levelo://app?vid=8f455be9-19bd-47b2-9780-367dc7aa8fc0"},"vehicle_type_id":"4","last_reported":1700672828,"current_range_meters":10800,"station_id":"ce4bgjh2rcd13ifvqbg0","pricing_plan_id":"free"},{"bike_id":"18d20ff2-028e-4c59-bbe4-9b27606571ad","system_id":"levelo_inurba_marseille","lat":43.299243,"lon":5.374807,"is_reserved":false,"is_disabled":false,"rental_uris":{"android":"levelo://app?vid=18d20ff2-028e-4c59-bbe4-9b27606571ad","ios":"levelo://app?vid=18d20ff2-028e-4c59-bbe4-9b27606571ad"},"vehicle_type_id":"4","last_reported":1700672828,"current_range_meters":2400,"station_id":"ce4bgjh2rcd13ifvqbg0","pricing_plan_id":"free"},{"bike_id":"fd991176-0f00-409a-80f3-e18e546ac96a","system_id":"levelo_inurba_marseille","lat":43.31182,"lon":5.3872,"is_reserved":false,"is_disabled":false,"rental_uris":{"android":"levelo://app?vid=fd991176-0f00-409a-80f3-e18e546ac96a","ios":"levelo://app?vid=fd991176-0f00-409a-80f3-e18e546ac96a"},"vehicle_type_id":"4","last_reported":1700672828,"current_range_meters":0,"station_id":"ce4bgv12rcd13ifvqcp0","pricing_plan_id":"free"},{"bike_id":"4d7509f5-9559-42ca-a60d-bef9e80f0981","system_id":"levelo_inurba_marseille","lat":43.299592,"lon":5.379118,"is_reserved":false,"is_disabled":false,"rental_uris":{"android":"levelo://app?vid=4d7509f5-9559-42ca-a60d-bef9e80f0981","ios":"levelo://app?vid=4d7509f5-9559-42ca-a60d-bef9e80f0981"},"vehicle_type_id":"4","last_reported":1700672828,"current_range_meters":0,"station_id":"","pricing_plan_id":"free"},{"bike_id":"b5ab09fb-e3e4-4236-b072-a6221086af33","system_id":"levelo_inurba_marseille","lat":43.2963,"lon":5.37149,"is_reserved":false,"is_disabled":false,"rental_uris":{"android":"levelo://app?vid=b5ab09fb-e3e4-4236-b072-a6221086af33","ios":"levelo://app?vid=b5ab09fb-e3e4-4236-b072-a6221086af33"},"vehicle_type_id":"4","last_reported":1700672828,"current_range_meters":16000,"station_id":"ce4bgnh2rcd13ifvqc0g","pricing_plan_id":"free"},{"bike_id":"f2e29894-d678-42aa-87e5-1b70dec5c0b1","system_id":"levelo_inurba_marseille","lat":43.29601,"lon":5.3614,"is_reserved":false,"is_disabled":false,"rental_uris":{"android":"levelo://app?vid=f2e29894-d678-42aa-87e5-1b70dec5c0b1","ios":"levelo://app?vid=f2e29894-d678-42aa-87e5-1b70dec5c0b1"},"vehicle_type_id":"4","last_reported":1700672828,"current_range_meters":2400,"station_id":"","pricing_plan_id":"free"},{"bike_id":"e8fc69f0-2f49-47d4-9630-05f74321b05a","system_id":"levelo_inurba_marseille","lat":43.297165,"lon":5.377008,"is_reserved":false,"is_disabled":false,"rental_uris":{"android":"levelo://app?vid=e8fc69f0-2f49-47d4-9630-05f74321b05a","ios":"levelo://app?vid=e8fc69f0-2f49-47d4-9630-05f74321b05a"},"vehicle_type_id":"4","last_reported":1700672828,"current_range_meters":22400,"station_id":"","pricing_plan_id":"free"},{"bike_id":"9fb402a7-7a41-4473-81d2-1fec663a6035","system_id":"levelo_inurba_marseille","lat":43.305598,"lon":5.388687,"is_reserved":false,"is_disabled":false,"rental_uris":{"android":"levelo://app?vid=9fb402a7-7a41-4473-81d2-1fec663a6035","ios":"levelo://app?vid=9fb402a7-7a41-4473-81d2-1fec663a6035"},"vehicle_type_id":"4","last_reported":1700672828,"current_range_meters":24000,"station_id":"","pricing_plan_id":"free"},{"bike_id":"a003ca30-d47a-4344-91df-eeb0aa81739d","system_id":"levelo_inurba_marseille","lat":43.299028,"lon":5.381509,"is_reserved":false,"is_disabled":false,"rental_uris":{"android":"levelo://app?vid=a003ca30-d47a-4344-91df-eeb0aa81739d","ios":"levelo://app?vid=a003ca30-d47a-4344-91df-eeb0aa81739d"},"vehicle_type_id":"4","last_reported":1700672828,"current_range_meters":26800,"station_id":"ce4bgj12rcd13ifvqbc0","pricing_plan_id":"free"},{"bike_id":"a81a3969-7c7e-4703-ad96-9b1cc090148e","system_id":"levelo_inurba_marseille","lat":43.304274,"lon":5.388873,"is_reserved":false,"is_disabled":false,"rental_uris":{"android":"levelo://app?vid=a81a3969-7c7e-4703-ad96-9b1cc090148e","ios":"levelo://app?vid=a81a3969-7c7e-4703-ad96-9b1cc090148e"},"vehicle_type_id":"4","last_reported":1700672828,"current_range_meters":22800,"station_id":"ce4bgk12rcd13ifvqbi0","pricing_plan_id":"free"},{"bike_id":"ac8331bf-3e66-42ac-88f4-8b53bd56ed73","system_id":"levelo_inurba_marseille","lat":43.304278,"lon":5.388868,"is_reserved":false,"is_disabled":false,"rental_uris":{"android":"levelo://app?vid=ac8331bf-3e66-42ac-88f4-8b53bd56ed73","ios":"levelo://app?vid=ac8331bf-3e66-42ac-88f4-8b53bd56ed73"},"vehicle_type_id":"4","last_reported":1700672828,"current_range_meters":16800,"station_id":"ce4bgk12rcd13ifvqbi0","pricing_plan_id":"free"},{"bike_id":"3059d4c1-3d42-4321-a339-0fea9a03ef82","system_id":"levelo_inurba_marseille","lat":43.328154,"lon":5.380034,"is_reserved":false,"is_disabled":false,"rental_uris":{"android":"levelo://app?vid=3059d4c1-3d42-4321-a339-0fea9a03ef82","ios":"levelo://app?vid=3059d4c1-3d42-4321-a339-0fea9a03ef82"},"vehicle_type_id":"4","last_reported":1700672828,"current_range_meters":0,"station_id":"","pricing_plan_id":"free"},{"bike_id":"59184520-29c5-45a0-aae6-d4b040268e0d","system_id":"levelo_inurba_marseille","lat":43.296263,"lon":5.377094,"is_reserved":false,"is_disabled":false,"rental_uris":{"android":"levelo://app?vid=59184520-29c5-45a0-aae6-d4b040268e0d","ios":"levelo://app?vid=59184520-29c5-45a0-aae6-d4b040268e0d"},"vehicle_type_id":"4","last_reported":1700672828,"current_range_meters":0,"station_id":"ce4bgi92rcd13ifvqb90","pricing_plan_id":"free"},{"bike_id":"34547d22-4215-4758-ad16-0967b25691a7","system_id":"levelo_inurba_marseille","lat":43.29975,"lon":5.38487,"is_reserved":false,"is_disabled":false,"rental_uris":{"android":"levelo://app?vid=34547d22-4215-4758-ad16-0967b25691a7","ios":"levelo://app?vid=34547d22-4215-4758-ad16-0967b25691a7"},"vehicle_type_id":"4","last_reported":1700672828,"current_range_meters":0,"station_id":"ce4bgj92rcd13ifvqbd0","pricing_plan_id":"free"},{"bike_id":"6b621983-5e9e-42f7-990d-ad5a093820d2","system_id":"levelo_inurba_marseille","lat":43.293801,"lon":5.363066,"is_reserved":false,"is_disabled":false,"rental_uris":{"android":"levelo://app?vid=6b621983-5e9e-42f7-990d-ad5a093820d2","ios":"levelo://app?vid=6b621983-5e9e-42f7-990d-ad5a093820d2"},"vehicle_type_id":"4","last_reported":1700672828,"current_range_meters":11600,"station_id":"","pricing_plan_id":"free"},{"bike_id":"bbe070ca-9e12-425d-9cdb-0bbc5fe7b0ee","system_id":"levelo_inurba_marseille","lat":43.29602,"lon":5.381084,"is_reserved":false,"is_disabled":false,"rental_uris":{"android":"levelo://app?vid=bbe070ca-9e12-425d-9cdb-0bbc5fe7b0ee","ios":"levelo://app?vid=bbe070ca-9e12-425d-9cdb-0bbc5fe7b0ee"},"vehicle_type_id":"4","last_reported":1700672828,"current_range_meters":28000,"station_id":"ce4bgl12rcd13ifvqbo0","pricing_plan_id":"free"},{"bike_id":"d08f04bf-d1cb-49fb-9aa7-04e7f7676b3c","system_id":"levelo_inurba_marseille","lat":43.323405,"lon":5.389588,"is_reserved":false,"is_disabled":false,"rental_uris":{"android":"levelo://app?vid=d08f04bf-d1cb-49fb-9aa7-04e7f7676b3c","ios":"levelo://app?vid=d08f04bf-d1cb-49fb-9aa7-04e7f7676b3c"},"vehicle_type_id":"4","last_reported":1700672828,"current_range_meters":0,"station_id":"","pricing_plan_id":"free"},{"bike_id":"0a65fbb3-2ff6-41f2-8e73-81dfa84f62c2","system_id":"levelo_inurba_marseille","lat":43.29272,"lon":5.36851,"is_reserved":false,"is_disabled":false,"rental_uris":{"android":"levelo://app?vid=0a65fbb3-2ff6-41f2-8e73-81dfa84f62c2","ios":"levelo://app?vid=0a65fbb3-2ff6-41f2-8e73-81dfa84f62c2"},"vehicle_type_id":"4","last_reported":1700672828,"current_range_meters":18400,"station_id":"ce4bhbp2rcd13ifvqesg","pricing_plan_id":"free"},{"bike_id":"8d4a0dd5-e348-4281-9eeb-270d672a17a4","system_id":"levelo_inurba_marseille","lat":43.293009,"lon":5.374584,"is_reserved":false,"is_disabled":false,"rental_uris":{"android":"levelo://app?vid=8d4a0dd5-e348-4281-9eeb-270d672a17a4","ios":"levelo://app?vid=8d4a0dd5-e348-4281-9eeb-270d672a17a4"},"vehicle_type_id":"4","last_reported":1700672828,"current_range_meters":2400,"station_id":"ce4bgi12rcd13ifvqb70","pricing_plan_id":"free"},{"bike_id":"3562e2f7-a914-496a-8bc8-0d013b4f80e5","system_id":"levelo_inurba_marseille","lat":43.2936,"lon":5.37835,"is_reserved":false,"is_disabled":false,"rental_uris":{"android":"levelo://app?vid=3562e2f7-a914-496a-8bc8-0d013b4f80e5","ios":"levelo://app?vid=3562e2f7-a914-496a-8bc8-0d013b4f80e5"},"vehicle_type_id":"4","last_reported":1700672828,"current_range_meters":4000,"station_id":"ce4bgjh2rcd13ifvqbf0","pricing_plan_id":"free"},{"bike_id":"b0113fae-f873-4151-b4d5-000185572085","system_id":"levelo_inurba_marseille","lat":43.292311,"lon":5.360731,"is_reserved":false,"is_disabled":false,"rental_uris":{"android":"levelo://app?vid=b0113fae-f873-4151-b4d5-000185572085","ios":"levelo://app?vid=b0113fae-f873-4151-b4d5-000185572085"},"vehicle_type_id":"4","last_reported":1700672828,"current_range_meters":10800,"station_id":"ce4bhbh2rcd13ifvqeqg","pricing_plan_id":"free"},{"bike_id":"dca562dd-a79a-42e3-9eae-bc158673398c","system_id":"levelo_inurba_marseille","lat":43.300852,"lon":5.390859,"is_reserved":false,"is_disabled":false,"rental_uris":{"android":"levelo://app?vid=dca562dd-a79a-42e3-9eae-bc158673398c","ios":"levelo://app?vid=dca562dd-a79a-42e3-9eae-bc158673398c"},"vehicle_type_id":"4","last_reported":1700672828,"current_range_meters":5600,"station_id":"ce4bh192rcd13ifvqdb0","pricing_plan_id":"free"},{"bike_id":"42565b4c-fbaf-497f-bf18-978866967389","system_id":"levelo_inurba_marseille","lat":43.29254,"lon":5.37625,"is_reserved":false,"is_disabled":false,"rental_uris":{"android":"levelo://app?vid=42565b4c-fbaf-497f-bf18-978866967389","ios":"levelo://app?vid=42565b4c-fbaf-497f-bf18-978866967389"},"vehicle_type_id":"4","last_reported":1700672828,"current_range_meters":11600,"station_id":"ce4bgi12rcd13ifvqb80","pricing_plan_id":"free"},{"bike_id":"ae2b0198-1707-4351-a1b8-0ecb007c8791","system_id":"levelo_inurba_marseille","lat":43.2925,"lon":5.37634,"is_reserved":false,"is_disabled":false,"rental_uris":{"android":"levelo://app?vid=ae2b0198-1707-4351-a1b8-0ecb007c8791","ios":"levelo://app?vid=ae2b0198-1707-4351-a1b8-0ecb007c8791"},"vehicle_type_id":"4","last_reported":1700672828,"current_range_meters":26800,"station_id":"","pricing_plan_id":"free"},{"bike_id":"711d16ea-98c1-434d-9f34-19edaa4964b4","system_id":"levelo_inurba_marseille","lat":43.29196,"lon":5.358,"is_reserved":false,"is_disabled":false,"rental_uris":{"android":"levelo://app?vid=711d16ea-98c1-434d-9f34-19edaa4964b4","ios":"levelo://app?vid=711d16ea-98c1-434d-9f34-19edaa4964b4"},"vehicle_type_id":"4","last_reported":1700672828,"current_range_meters":5200,"station_id":"ce4bhb12rcd13ifvqel0","pricing_plan_id":"free"},{"bike_id":"8865d0a3-802f-4181-afbf-1f6f0e6b2e54","system_id":"levelo_inurba_marseille","lat":43.29195,"lon":5.358,"is_reserved":false,"is_disabled":false,"rental_uris":{"android":"levelo://app?vid=8865d0a3-802f-4181-afbf-1f6f0e6b2e54","ios":"levelo://app?vid=8865d0a3-802f-4181-afbf-1f6f0e6b2e54"},"vehicle_type_id":"4","last_reported":1700672828,"current_range_meters":0,"station_id":"ce4bhb12rcd13ifvqel0","pricing_plan_id":"free"},{"bike_id":"b53f3dbd-95d8-45ae-9c9d-c16adfbb262d","system_id":"levelo_inurba_marseille","lat":43.291994,"lon":5.357886,"is_reserved":false,"is_disabled":false,"rental_uris":{"android":"levelo://app?vid=b53f3dbd-95d8-45ae-9c9d-c16adfbb262d","ios":"levelo://app?vid=b53f3dbd-95d8-45ae-9c9d-c16adfbb262d"},"vehicle_type_id":"4","last_reported":1700672828,"current_range_meters":0,"station_id":"ce4bhb12rcd13ifvqel0","pricing_plan_id":"free"},{"bike_id":"8d54be97-6918-44ab-a7dc-799de38353f1","system_id":"levelo_inurba_marseille","lat":43.291994,"lon":5.357886,"is_reserved":false,"is_disabled":false,"rental_uris":{"android":"levelo://app?vid=8d54be97-6918-44ab-a7dc-799de38353f1","ios":"levelo://app?vid=8d54be97-6918-44ab-a7dc-799de38353f1"},"vehicle_type_id":"4","last_reported":1700672828,"current_range_meters":22400,"station_id":"ce4bhb12rcd13ifvqel0","pricing_plan_id":"free"},{"bike_id":"f98f0728-f314-444b-b7a2-4567f0896a9f","system_id":"levelo_inurba_marseille","lat":43.313291,"lon":5.396838,"is_reserved":false,"is_disabled":false,"rental_uris":{"android":"levelo://app?vid=f98f0728-f314-444b-b7a2-4567f0896a9f","ios":"levelo://app?vid=f98f0728-f314-444b-b7a2-4567f0896a9f"},"vehicle_type_id":"4","last_reported":1700672828,"current_range_meters":5200,"station_id":"ce4bgvp2rcd13ifvqcu0","pricing_plan_id":"free"},{"bike_id":"c5280532-c55a-4635-af39-b64a055707d7","system_id":"levelo_inurba_marseille","lat":43.31329,"lon":5.39695,"is_reserved":false,"is_disabled":false,"rental_uris":{"android":"levelo://app?vid=c5280532-c55a-4635-af39-b64a055707d7","ios":"levelo://app?vid=c5280532-c55a-4635-af39-b64a055707d7"},"vehicle_type_id":"4","last_reported":1700672828,"current_range_meters":0,"station_id":"ce4bgvp2rcd13ifvqcu0","pricing_plan_id":"free"},{"bike_id":"377db1e4-7599-4e51-b70d-2d4083114109","system_id":"levelo_inurba_marseille","lat":43.313291,"lon":5.396956,"is_reserved":false,"is_disabled":false,"rental_uris":{"android":"levelo://app?vid=377db1e4-7599-4e51-b70d-2d4083114109","ios":"levelo://app?vid=377db1e4-7599-4e51-b70d-2d4083114109"},"vehicle_type_id":"4","last_reported":1700672828,"current_range_meters":20400,"station_id":"","pricing_plan_id":"free"},{"bike_id":"93d5e13d-b943-4e4b-b293-5894fc67cc56","system_id":"levelo_inurba_marseille","lat":43.309047,"lon":5.396551,"is_reserved":false,"is_disabled":false,"rental_uris":{"android":"levelo://app?vid=93d5e13d-b943-4e4b-b293-5894fc67cc56","ios":"levelo://app?vid=93d5e13d-b943-4e4b-b293-5894fc67cc56"},"vehicle_type_id":"4","last_reported":1700672828,"current_range_meters":22400,"station_id":"ce4bh012rcd13ifvqcv0","pricing_plan_id":"free"},{"bike_id":"1d10a1b1-d55f-4279-928a-9c6858f32ca9","system_id":"levelo_inurba_marseille","lat":43.33211,"lon":5.38112,"is_reserved":false,"is_disabled":false,"rental_uris":{"android":"levelo://app?vid=1d10a1b1-d55f-4279-928a-9c6858f32ca9","ios":"levelo://app?vid=1d10a1b1-d55f-4279-928a-9c6858f32ca9"},"vehicle_type_id":"4","last_reported":1700672828,"current_range_meters":2800,"station_id":"","pricing_plan_id":"free"},{"bike_id":"a4f6c76d-6d13-4b40-a666-bffe040f7ec6","system_id":"levelo_inurba_marseille","lat":43.29529,"lon":5.385581,"is_reserved":false,"is_disabled":false,"rental_uris":{"android":"levelo://app?vid=a4f6c76d-6d13-4b40-a666-bffe040f7ec6","ios":"levelo://app?vid=a4f6c76d-6d13-4b40-a666-bffe040f7ec6"},"vehicle_type_id":"4","last_reported":1700672828,"current_range_meters":19600,"station_id":"ce4bgih2rcd13ifvqba0","pricing_plan_id":"free"},{"bike_id":"f8137d92-aa47-4a97-bf81-e6d21a79fd49","system_id":"levelo_inurba_marseille","lat":43.294162,"lon":5.386292,"is_reserved":false,"is_disabled":false,"rental_uris":{"android":"levelo://app?vid=f8137d92-aa47-4a97-bf81-e6d21a79fd49","ios":"levelo://app?vid=f8137d92-aa47-4a97-bf81-e6d21a79fd49"},"vehicle_type_id":"4","last_reported":1700672828,"current_range_meters":1600,"station_id":"ce4bh2h2rcd13ifvqdh0","pricing_plan_id":"free"},{"bike_id":"d8e258ea-4ce8-4dd1-92fb-9d4c2a93c24c","system_id":"levelo_inurba_marseille","lat":43.294153,"lon":5.386305,"is_reserved":false,"is_disabled":false,"rental_uris":{"android":"levelo://app?vid=d8e258ea-4ce8-4dd1-92fb-9d4c2a93c24c","ios":"levelo://app?vid=d8e258ea-4ce8-4dd1-92fb-9d4c2a93c24c"},"vehicle_type_id":"4","last_reported":1700672828,"current_range_meters":0,"station_id":"ce4bh2h2rcd13ifvqdh0","pricing_plan_id":"free"},{"bike_id":"f0a9caba-3f80-4cff-9813-91489be1f69e","system_id":"levelo_inurba_marseille","lat":43.289184,"lon":5.366408,"is_reserved":false,"is_disabled":false,"rental_uris":{"android":"levelo://app?vid=f0a9caba-3f80-4cff-9813-91489be1f69e","ios":"levelo://app?vid=f0a9caba-3f80-4cff-9813-91489be1f69e"},"vehicle_type_id":"4","last_reported":1700672828,"current_range_meters":21200,"station_id":"ce4bhap2rcd13ifvqek0","pricing_plan_id":"free"},{"bike_id":"e67c8891-f997-4019-b42a-f0be8043575d","system_id":"levelo_inurba_marseille","lat":43.289184,"lon":5.366408,"is_reserved":false,"is_disabled":false,"rental_uris":{"android":"levelo://app?vid=e67c8891-f997-4019-b42a-f0be8043575d","ios":"levelo://app?vid=e67c8891-f997-4019-b42a-f0be8043575d"},"vehicle_type_id":"4","last_reported":1700672828,"current_range_meters":28800,"station_id":"ce4bhap2rcd13ifvqek0","pricing_plan_id":"free"},{"bike_id":"edc7dab1-8e1a-434f-ac05-9809f5ef038b","system_id":"levelo_inurba_marseille","lat":43.289184,"lon":5.366408,"is_reserved":false,"is_disabled":false,"rental_uris":{"android":"levelo://app?vid=edc7dab1-8e1a-434f-ac05-9809f5ef038b","ios":"levelo://app?vid=edc7dab1-8e1a-434f-ac05-9809f5ef038b"},"vehicle_type_id":"4","last_reported":1700672828,"current_range_meters":15200,"station_id":"ce4bhap2rcd13ifvqek0","pricing_plan_id":"free"},{"bike_id":"7f5416ee-b17e-4371-934f-3a0a9249e978","system_id":"levelo_inurba_marseille","lat":43.28936,"lon":5.36641,"is_reserved":false,"is_disabled":false,"rental_uris":{"android":"levelo://app?vid=7f5416ee-b17e-4371-934f-3a0a9249e978","ios":"levelo://app?vid=7f5416ee-b17e-4371-934f-3a0a9249e978"},"vehicle_type_id":"4","last_reported":1700672828,"current_range_meters":0,"station_id":"ce4bhap2rcd13ifvqek0","pricing_plan_id":"free"},{"bike_id":"575da852-d2ec-4061-8caa-a06e7b7a5fc2","system_id":"levelo_inurba_marseille","lat":43.292644,"lon":5.384257,"is_reserved":false,"is_disabled":false,"rental_uris":{"android":"levelo://app?vid=575da852-d2ec-4061-8caa-a06e7b7a5fc2","ios":"levelo://app?vid=575da852-d2ec-4061-8caa-a06e7b7a5fc2"},"vehicle_type_id":"4","last_reported":1700672828,"current_range_meters":5200,"station_id":"ce4bh692rcd13ifvqea0","pricing_plan_id":"free"},{"bike_id":"3e09838e-383e-4904-a134-6b3ba62fea1c","system_id":"levelo_inurba_marseille","lat":43.292642,"lon":5.384254,"is_reserved":false,"is_disabled":false,"rental_uris":{"android":"levelo://app?vid=3e09838e-383e-4904-a134-6b3ba62fea1c","ios":"levelo://app?vid=3e09838e-383e-4904-a134-6b3ba62fea1c"},"vehicle_type_id":"4","last_reported":1700672828,"current_range_meters":20800,"station_id":"ce4bh692rcd13ifvqea0","pricing_plan_id":"free"},{"bike_id":"9c3329a7-57e5-4a7d-bf61-89b804b6e5ba","system_id":"levelo_inurba_marseille","lat":43.292642,"lon":5.384254,"is_reserved":false,"is_disabled":false,"rental_uris":{"android":"levelo://app?vid=9c3329a7-57e5-4a7d-bf61-89b804b6e5ba","ios":"levelo://app?vid=9c3329a7-57e5-4a7d-bf61-89b804b6e5ba"},"vehicle_type_id":"4","last_reported":1700672828,"current_range_meters":22000,"station_id":"ce4bh692rcd13ifvqea0","pricing_plan_id":"free"},{"bike_id":"871fad07-23db-42ed-b56f-126fee137841","system_id":"levelo_inurba_marseille","lat":43.292642,"lon":5.384254,"is_reserved":false,"is_disabled":false,"rental_uris":{"android":"levelo://app?vid=871fad07-23db-42ed-b56f-126fee137841","ios":"levelo://app?vid=871fad07-23db-42ed-b56f-126fee137841"},"vehicle_type_id":"4","last_reported":1700672828,"current_range_meters":1600,"station_id":"ce4bh692rcd13ifvqea0","pricing_plan_id":"free"},{"bike_id":"13fa53b5-6eba-42c1-a6f9-dcbf18184422","system_id":"levelo_inurba_marseille","lat":43.292642,"lon":5.384254,"is_reserved":false,"is_disabled":false,"rental_uris":{"android":"levelo://app?vid=13fa53b5-6eba-42c1-a6f9-dcbf18184422","ios":"levelo://app?vid=13fa53b5-6eba-42c1-a6f9-dcbf18184422"},"vehicle_type_id":"4","last_reported":1700672828,"current_range_meters":20800,"station_id":"ce4bh692rcd13ifvqea0","pricing_plan_id":"free"},{"bike_id":"99bba90a-0e44-438c-a8c5-c3b07eb9d188","system_id":"levelo_inurba_marseille","lat":43.33046,"lon":5.38918,"is_reserved":false,"is_disabled":false,"rental_uris":{"android":"levelo://app?vid=99bba90a-0e44-438c-a8c5-c3b07eb9d188","ios":"levelo://app?vid=99bba90a-0e44-438c-a8c5-c3b07eb9d188"},"vehicle_type_id":"4","last_reported":1700672828,"current_range_meters":12800,"station_id":"ce4bhr92rcd13ifvqhrg","pricing_plan_id":"free"},{"bike_id":"76463b02-4fe7-4478-88d3-3a41c790424a","system_id":"levelo_inurba_marseille","lat":43.290104,"lon":5.356111,"is_reserved":false,"is_disabled":false,"rental_uris":{"android":"levelo://app?vid=76463b02-4fe7-4478-88d3-3a41c790424a","ios":"levelo://app?vid=76463b02-4fe7-4478-88d3-3a41c790424a"},"vehicle_type_id":"4","last_reported":1700672828,"current_range_meters":0,"station_id":"ce4bhb92rcd13ifvqen0","pricing_plan_id":"free"},{"bike_id":"acdc1936-4335-4410-8ff0-962f0e11abe2","system_id":"levelo_inurba_marseille","lat":43.290995,"lon":5.381361,"is_reserved":false,"is_disabled":false,"rental_uris":{"android":"levelo://app?vid=acdc1936-4335-4410-8ff0-962f0e11abe2","ios":"levelo://app?vid=acdc1936-4335-4410-8ff0-962f0e11abe2"},"vehicle_type_id":"4","last_reported":1700672828,"current_range_meters":2800,"station_id":"ce4bh512rcd13ifvqe2g","pricing_plan_id":"free"},{"bike_id":"663759fa-c5cd-441e-a816-f0bdc1cec284","system_id":"levelo_inurba_marseille","lat":43.29795,"lon":5.39338,"is_reserved":false,"is_disabled":false,"rental_uris":{"android":"levelo://app?vid=663759fa-c5cd-441e-a816-f0bdc1cec284","ios":"levelo://app?vid=663759fa-c5cd-441e-a816-f0bdc1cec284"},"vehicle_type_id":"4","last_reported":1700672828,"current_range_meters":18000,"station_id":"chh1huq6cuj3fo74tm60","pricing_plan_id":"free"},{"bike_id":"54ceb21d-6725-48c0-83eb-66e4bb730d97","system_id":"levelo_inurba_marseille","lat":43.297932,"lon":5.393405,"is_reserved":false,"is_disabled":false,"rental_uris":{"android":"levelo://app?vid=54ceb21d-6725-48c0-83eb-66e4bb730d97","ios":"levelo://app?vid=54ceb21d-6725-48c0-83eb-66e4bb730d97"},"vehicle_type_id":"4","last_reported":1700672828,"current_range_meters":16000,"station_id":"chh1huq6cuj3fo74tm60","pricing_plan_id":"free"},{"bike_id":"e9e0b2cc-13cc-45c9-8a25-7ca237205dc6","system_id":"levelo_inurba_marseille","lat":43.2978,"lon":5.39339,"is_reserved":false,"is_disabled":false,"rental_uris":{"android":"levelo://app?vid=e9e0b2cc-13cc-45c9-8a25-7ca237205dc6","ios":"levelo://app?vid=e9e0b2cc-13cc-45c9-8a25-7ca237205dc6"},"vehicle_type_id":"4","last_reported":1700672828,"current_range_meters":25200,"station_id":"chh1huq6cuj3fo74tm60","pricing_plan_id":"free"},{"bike_id":"4fcebeab-334f-4a36-9900-ddad88093ffe","system_id":"levelo_inurba_marseille","lat":43.295169,"lon":5.390426,"is_reserved":false,"is_disabled":false,"rental_uris":{"android":"levelo://app?vid=4fcebeab-334f-4a36-9900-ddad88093ffe","ios":"levelo://app?vid=4fcebeab-334f-4a36-9900-ddad88093ffe"},"vehicle_type_id":"4","last_reported":1700672828,"current_range_meters":20400,"station_id":"ce4bh3p2rcd13ifvqdp0","pricing_plan_id":"free"},{"bike_id":"ae199a23-902e-4118-ae17-12461e2dc7b5","system_id":"levelo_inurba_marseille","lat":43.295169,"lon":5.390426,"is_reserved":false,"is_disabled":false,"rental_uris":{"android":"levelo://app?vid=ae199a23-902e-4118-ae17-12461e2dc7b5","ios":"levelo://app?vid=ae199a23-902e-4118-ae17-12461e2dc7b5"},"vehicle_type_id":"4","last_reported":1700672828,"current_range_meters":5600,"station_id":"ce4bh3p2rcd13ifvqdp0","pricing_plan_id":"free"},{"bike_id":"147e2fd5-3feb-4068-a33d-3ac5f7a4b510","system_id":"levelo_inurba_marseille","lat":43.309038,"lon":5.396546,"is_reserved":false,"is_disabled":false,"rental_uris":{"android":"levelo://app?vid=147e2fd5-3feb-4068-a33d-3ac5f7a4b510","ios":"levelo://app?vid=147e2fd5-3feb-4068-a33d-3ac5f7a4b510"},"vehicle_type_id":"4","last_reported":1700672828,"current_range_meters":14000,"station_id":"ce4bh012rcd13ifvqcv0","pricing_plan_id":"free"},{"bike_id":"ee6265c3-b2af-4a98-b6c3-ced4357429b7","system_id":"levelo_inurba_marseille","lat":43.295169,"lon":5.390426,"is_reserved":false,"is_disabled":false,"rental_uris":{"android":"levelo://app?vid=ee6265c3-b2af-4a98-b6c3-ced4357429b7","ios":"levelo://app?vid=ee6265c3-b2af-4a98-b6c3-ced4357429b7"},"vehicle_type_id":"4","last_reported":1700672828,"current_range_meters":22400,"station_id":"ce4bh3p2rcd13ifvqdp0","pricing_plan_id":"free"},{"bike_id":"c741bc4e-7fb7-46c0-8538-2cda4df0de2b","system_id":"levelo_inurba_marseille","lat":43.28856,"lon":5.358371,"is_reserved":false,"is_disabled":false,"rental_uris":{"android":"levelo://app?vid=c741bc4e-7fb7-46c0-8538-2cda4df0de2b","ios":"levelo://app?vid=c741bc4e-7fb7-46c0-8538-2cda4df0de2b"},"vehicle_type_id":"4","last_reported":1700672828,"current_range_meters":2400,"station_id":"ce4bhb12rcd13ifvqem0","pricing_plan_id":"free"},{"bike_id":"b8c2d7e4-c4dc-4ec1-a0d0-a5b82fa0f3f9","system_id":"levelo_inurba_marseille","lat":43.28856,"lon":5.358371,"is_reserved":false,"is_disabled":false,"rental_uris":{"android":"levelo://app?vid=b8c2d7e4-c4dc-4ec1-a0d0-a5b82fa0f3f9","ios":"levelo://app?vid=b8c2d7e4-c4dc-4ec1-a0d0-a5b82fa0f3f9"},"vehicle_type_id":"4","last_reported":1700672828,"current_range_meters":4000,"station_id":"ce4bhb12rcd13ifvqem0","pricing_plan_id":"free"},{"bike_id":"aad9a792-6976-4183-919a-aef819ff2e25","system_id":"levelo_inurba_marseille","lat":43.31251,"lon":5.40162,"is_reserved":false,"is_disabled":false,"rental_uris":{"android":"levelo://app?vid=aad9a792-6976-4183-919a-aef819ff2e25","ios":"levelo://app?vid=aad9a792-6976-4183-919a-aef819ff2e25"},"vehicle_type_id":"4","last_reported":1700672828,"current_range_meters":0,"station_id":"","pricing_plan_id":"free"},{"bike_id":"43e74dbc-ba23-4abc-9c65-2ed303dc3f37","system_id":"levelo_inurba_marseille","lat":43.31274,"lon":5.40169,"is_reserved":false,"is_disabled":false,"rental_uris":{"android":"levelo://app?vid=43e74dbc-ba23-4abc-9c65-2ed303dc3f37","ios":"levelo://app?vid=43e74dbc-ba23-4abc-9c65-2ed303dc3f37"},"vehicle_type_id":"4","last_reported":1700672828,"current_range_meters":0,"station_id":"ce4bh092rcd13ifvqd30","pricing_plan_id":"free"},{"bike_id":"565184c7-4d4a-43d0-ac93-202563faf996","system_id":"levelo_inurba_marseille","lat":43.33752,"lon":5.37456,"is_reserved":false,"is_disabled":false,"rental_uris":{"android":"levelo://app?vid=565184c7-4d4a-43d0-ac93-202563faf996","ios":"levelo://app?vid=565184c7-4d4a-43d0-ac93-202563faf996"},"vehicle_type_id":"4","last_reported":1700672828,"current_range_meters":31200,"station_id":"","pricing_plan_id":"free"},{"bike_id":"a5e23852-272e-4bf0-926f-90631096197d","system_id":"levelo_inurba_marseille","lat":43.33752,"lon":5.37473,"is_reserved":false,"is_disabled":false,"rental_uris":{"android":"levelo://app?vid=a5e23852-272e-4bf0-926f-90631096197d","ios":"levelo://app?vid=a5e23852-272e-4bf0-926f-90631096197d"},"vehicle_type_id":"4","last_reported":1700672828,"current_range_meters":21600,"station_id":"","pricing_plan_id":"free"},{"bike_id":"59f380e2-3fad-41ca-819a-159561a0ca80","system_id":"levelo_inurba_marseille","lat":43.337594,"lon":5.374377,"is_reserved":false,"is_disabled":false,"rental_uris":{"android":"levelo://app?vid=59f380e2-3fad-41ca-819a-159561a0ca80","ios":"levelo://app?vid=59f380e2-3fad-41ca-819a-159561a0ca80"},"vehicle_type_id":"4","last_reported":1700672828,"current_range_meters":17600,"station_id":"","pricing_plan_id":"free"},{"bike_id":"d42732ee-3d1a-47b1-9598-db3afd7b4663","system_id":"levelo_inurba_marseille","lat":43.337606,"lon":5.37436,"is_reserved":false,"is_disabled":false,"rental_uris":{"android":"levelo://app?vid=d42732ee-3d1a-47b1-9598-db3afd7b4663","ios":"levelo://app?vid=d42732ee-3d1a-47b1-9598-db3afd7b4663"},"vehicle_type_id":"4","last_reported":1700672828,"current_range_meters":26000,"station_id":"","pricing_plan_id":"free"},{"bike_id":"ca5f450e-15ff-4f17-88ea-e68935cedb16","system_id":"levelo_inurba_marseille","lat":43.337601,"lon":5.374396,"is_reserved":false,"is_disabled":false,"rental_uris":{"android":"levelo://app?vid=ca5f450e-15ff-4f17-88ea-e68935cedb16","ios":"levelo://app?vid=ca5f450e-15ff-4f17-88ea-e68935cedb16"},"vehicle_type_id":"4","last_reported":1700672828,"current_range_meters":29200,"station_id":"","pricing_plan_id":"free"},{"bike_id":"4279d7b7-a836-44a3-ba37-0941784b7adb","system_id":"levelo_inurba_marseille","lat":43.306412,"lon":5.401035,"is_reserved":false,"is_disabled":false,"rental_uris":{"android":"levelo://app?vid=4279d7b7-a836-44a3-ba37-0941784b7adb","ios":"levelo://app?vid=4279d7b7-a836-44a3-ba37-0941784b7adb"},"vehicle_type_id":"4","last_reported":1700672828,"current_range_meters":4800,"station_id":"ce4bh112rcd13ifvqda0","pricing_plan_id":"free"},{"bike_id":"09be5a93-39fc-4416-b827-ef0e3eae0e7d","system_id":"levelo_inurba_marseille","lat":43.337626,"lon":5.374353,"is_reserved":false,"is_disabled":false,"rental_uris":{"android":"levelo://app?vid=09be5a93-39fc-4416-b827-ef0e3eae0e7d","ios":"levelo://app?vid=09be5a93-39fc-4416-b827-ef0e3eae0e7d"},"vehicle_type_id":"4","last_reported":1700672828,"current_range_meters":31200,"station_id":"","pricing_plan_id":"free"},{"bike_id":"950e4fde-8e87-4eb1-9956-1d0987779329","system_id":"levelo_inurba_marseille","lat":43.337606,"lon":5.37462,"is_reserved":false,"is_disabled":false,"rental_uris":{"android":"levelo://app?vid=950e4fde-8e87-4eb1-9956-1d0987779329","ios":"levelo://app?vid=950e4fde-8e87-4eb1-9956-1d0987779329"},"vehicle_type_id":"4","last_reported":1700672828,"current_range_meters":0,"station_id":"","pricing_plan_id":"free"},{"bike_id":"a64e2e92-e9f4-47f5-a45e-85e68b98a86a","system_id":"levelo_inurba_marseille","lat":43.337622,"lon":5.374536,"is_reserved":false,"is_disabled":false,"rental_uris":{"android":"levelo://app?vid=a64e2e92-e9f4-47f5-a45e-85e68b98a86a","ios":"levelo://app?vid=a64e2e92-e9f4-47f5-a45e-85e68b98a86a"},"vehicle_type_id":"4","last_reported":1700672828,"current_range_meters":28400,"station_id":"","pricing_plan_id":"free"},{"bike_id":"45c50b00-798d-4d73-a32e-8aa52fed9e79","system_id":"levelo_inurba_marseille","lat":43.33757,"lon":5.37489,"is_reserved":false,"is_disabled":false,"rental_uris":{"android":"levelo://app?vid=45c50b00-798d-4d73-a32e-8aa52fed9e79","ios":"levelo://app?vid=45c50b00-798d-4d73-a32e-8aa52fed9e79"},"vehicle_type_id":"4","last_reported":1700672828,"current_range_meters":30000,"station_id":"","pricing_plan_id":"free"},{"bike_id":"6b64ffb3-5882-4c04-ac6b-c6a9baa631c2","system_id":"levelo_inurba_marseille","lat":43.337631,"lon":5.374538,"is_reserved":false,"is_disabled":false,"rental_uris":{"android":"levelo://app?vid=6b64ffb3-5882-4c04-ac6b-c6a9baa631c2","ios":"levelo://app?vid=6b64ffb3-5882-4c04-ac6b-c6a9baa631c2"},"vehicle_type_id":"4","last_reported":1700672828,"current_range_meters":24800,"station_id":"","pricing_plan_id":"free"},{"bike_id":"d0469251-bd13-41e5-8440-38f7192a7550","system_id":"levelo_inurba_marseille","lat":43.337639,"lon":5.374512,"is_reserved":false,"is_disabled":false,"rental_uris":{"android":"levelo://app?vid=d0469251-bd13-41e5-8440-38f7192a7550","ios":"levelo://app?vid=d0469251-bd13-41e5-8440-38f7192a7550"},"vehicle_type_id":"4","last_reported":1700672828,"current_range_meters":29200,"station_id":"","pricing_plan_id":"free"},{"bike_id":"525f8e82-9fd5-4ad6-a764-8079bd9cbb79","system_id":"levelo_inurba_marseille","lat":43.337676,"lon":5.374362,"is_reserved":false,"is_disabled":false,"rental_uris":{"android":"levelo://app?vid=525f8e82-9fd5-4ad6-a764-8079bd9cbb79","ios":"levelo://app?vid=525f8e82-9fd5-4ad6-a764-8079bd9cbb79"},"vehicle_type_id":"4","last_reported":1700672828,"current_range_meters":29200,"station_id":"","pricing_plan_id":"free"},{"bike_id":"86958b31-2db6-4ad8-bb7b-d755eba13bbb","system_id":"levelo_inurba_marseille","lat":43.33768,"lon":5.374374,"is_reserved":false,"is_disabled":false,"rental_uris":{"android":"levelo://app?vid=86958b31-2db6-4ad8-bb7b-d755eba13bbb","ios":"levelo://app?vid=86958b31-2db6-4ad8-bb7b-d755eba13bbb"},"vehicle_type_id":"4","last_reported":1700672828,"current_range_meters":14400,"station_id":"","pricing_plan_id":"free"},{"bike_id":"1dc31cca-5f71-4a9e-a8f1-d3d67550d989","system_id":"levelo_inurba_marseille","lat":43.337682,"lon":5.374369,"is_reserved":false,"is_disabled":false,"rental_uris":{"android":"levelo://app?vid=1dc31cca-5f71-4a9e-a8f1-d3d67550d989","ios":"levelo://app?vid=1dc31cca-5f71-4a9e-a8f1-d3d67550d989"},"vehicle_type_id":"4","last_reported":1700672828,"current_range_meters":21600,"station_id":"","pricing_plan_id":"free"},{"bike_id":"25ee5b3a-cc3c-4fea-97c8-44c14f3b26e9","system_id":"levelo_inurba_marseille","lat":43.33759,"lon":5.37493,"is_reserved":false,"is_disabled":false,"rental_uris":{"android":"levelo://app?vid=25ee5b3a-cc3c-4fea-97c8-44c14f3b26e9","ios":"levelo://app?vid=25ee5b3a-cc3c-4fea-97c8-44c14f3b26e9"},"vehicle_type_id":"4","last_reported":1700672828,"current_range_meters":25200,"station_id":"","pricing_plan_id":"free"},{"bike_id":"5ca1769b-9d48-478e-b544-da316599e94d","system_id":"levelo_inurba_marseille","lat":43.33769,"lon":5.37459,"is_reserved":false,"is_disabled":false,"rental_uris":{"android":"levelo://app?vid=5ca1769b-9d48-478e-b544-da316599e94d","ios":"levelo://app?vid=5ca1769b-9d48-478e-b544-da316599e94d"},"vehicle_type_id":"4","last_reported":1700672828,"current_range_meters":23200,"station_id":"","pricing_plan_id":"free"},{"bike_id":"5430f61a-1cef-4c54-89cc-42224f33e590","system_id":"levelo_inurba_marseille","lat":43.301117,"lon":5.398795,"is_reserved":false,"is_disabled":false,"rental_uris":{"android":"levelo://app?vid=5430f61a-1cef-4c54-89cc-42224f33e590","ios":"levelo://app?vid=5430f61a-1cef-4c54-89cc-42224f33e590"},"vehicle_type_id":"4","last_reported":1700672828,"current_range_meters":6000,"station_id":"ce4bh0h2rcd13ifvqd40","pricing_plan_id":"free"},{"bike_id":"7fbad259-4e40-4b6d-a8ba-3b0c44dcdfa1","system_id":"levelo_inurba_marseille","lat":43.301117,"lon":5.398795,"is_reserved":false,"is_disabled":false,"rental_uris":{"android":"levelo://app?vid=7fbad259-4e40-4b6d-a8ba-3b0c44dcdfa1","ios":"levelo://app?vid=7fbad259-4e40-4b6d-a8ba-3b0c44dcdfa1"},"vehicle_type_id":"4","last_reported":1700672828,"current_range_meters":11600,"station_id":"ce4bh0h2rcd13ifvqd40","pricing_plan_id":"free"},{"bike_id":"d26979c8-4c31-4eb0-a7fd-b5acaa99d4bc","system_id":"levelo_inurba_marseille","lat":43.286591,"lon":5.363346,"is_reserved":false,"is_disabled":false,"rental_uris":{"android":"levelo://app?vid=d26979c8-4c31-4eb0-a7fd-b5acaa99d4bc","ios":"levelo://app?vid=d26979c8-4c31-4eb0-a7fd-b5acaa99d4bc"},"vehicle_type_id":"4","last_reported":1700672828,"current_range_meters":28800,"station_id":"ce4bhah2rcd13ifvqej0","pricing_plan_id":"free"},{"bike_id":"d651fbb7-77f0-47b7-96fd-2ee3b331af23","system_id":"levelo_inurba_marseille","lat":43.298681,"lon":5.397225,"is_reserved":false,"is_disabled":false,"rental_uris":{"android":"levelo://app?vid=d651fbb7-77f0-47b7-96fd-2ee3b331af23","ios":"levelo://app?vid=d651fbb7-77f0-47b7-96fd-2ee3b331af23"},"vehicle_type_id":"4","last_reported":1700672828,"current_range_meters":4800,"station_id":"ce4bh0h2rcd13ifvqd50","pricing_plan_id":"free"},{"bike_id":"14dff225-ef62-45bb-ac82-608e9f5cf245","system_id":"levelo_inurba_marseille","lat":43.28696,"lon":5.37385,"is_reserved":false,"is_disabled":false,"rental_uris":{"android":"levelo://app?vid=14dff225-ef62-45bb-ac82-608e9f5cf245","ios":"levelo://app?vid=14dff225-ef62-45bb-ac82-608e9f5cf245"},"vehicle_type_id":"4","last_reported":1700672828,"current_range_meters":22400,"station_id":"ce4bh3p2rcd13ifvqdq0","pricing_plan_id":"free"},{"bike_id":"b87784bd-7320-44ad-81d5-8b1b216eb8e7","system_id":"levelo_inurba_marseille","lat":43.286955,"lon":5.37389,"is_reserved":false,"is_disabled":false,"rental_uris":{"android":"levelo://app?vid=b87784bd-7320-44ad-81d5-8b1b216eb8e7","ios":"levelo://app?vid=b87784bd-7320-44ad-81d5-8b1b216eb8e7"},"vehicle_type_id":"4","last_reported":1700672828,"current_range_meters":14000,"station_id":"ce4bh3p2rcd13ifvqdq0","pricing_plan_id":"free"},{"bike_id":"425b9973-0f66-4217-a151-ee0384bc217b","system_id":"levelo_inurba_marseille","lat":43.286591,"lon":5.363346,"is_reserved":false,"is_disabled":false,"rental_uris":{"android":"levelo://app?vid=425b9973-0f66-4217-a151-ee0384bc217b","ios":"levelo://app?vid=425b9973-0f66-4217-a151-ee0384bc217b"},"vehicle_type_id":"4","last_reported":1700672828,"current_range_meters":31200,"station_id":"ce4bhah2rcd13ifvqej0","pricing_plan_id":"free"},{"bike_id":"73b5963e-b0c3-43d4-83be-3a2769dd6961","system_id":"levelo_inurba_marseille","lat":43.28693,"lon":5.37387,"is_reserved":false,"is_disabled":false,"rental_uris":{"android":"levelo://app?vid=73b5963e-b0c3-43d4-83be-3a2769dd6961","ios":"levelo://app?vid=73b5963e-b0c3-43d4-83be-3a2769dd6961"},"vehicle_type_id":"4","last_reported":1700672828,"current_range_meters":18000,"station_id":"ce4bh3p2rcd13ifvqdq0","pricing_plan_id":"free"},{"bike_id":"e4646e98-05ea-4879-aff1-0d31af0dd262","system_id":"levelo_inurba_marseille","lat":43.28692,"lon":5.37384,"is_reserved":false,"is_disabled":false,"rental_uris":{"android":"levelo://app?vid=e4646e98-05ea-4879-aff1-0d31af0dd262","ios":"levelo://app?vid=e4646e98-05ea-4879-aff1-0d31af0dd262"},"vehicle_type_id":"4","last_reported":1700672828,"current_range_meters":9600,"station_id":"ce4bh3p2rcd13ifvqdq0","pricing_plan_id":"free"},{"bike_id":"bfc4c959-f02f-4ba1-bdcd-b7b8478dc9be","system_id":"levelo_inurba_marseille","lat":43.29539,"lon":5.39413,"is_reserved":false,"is_disabled":false,"rental_uris":{"android":"levelo://app?vid=bfc4c959-f02f-4ba1-bdcd-b7b8478dc9be","ios":"levelo://app?vid=bfc4c959-f02f-4ba1-bdcd-b7b8478dc9be"},"vehicle_type_id":"4","last_reported":1700672828,"current_range_meters":6800,"station_id":"","pricing_plan_id":"free"},{"bike_id":"3ec0f424-621c-4312-95ab-38bff160f635","system_id":"levelo_inurba_marseille","lat":43.295135,"lon":5.394075,"is_reserved":false,"is_disabled":false,"rental_uris":{"android":"levelo://app?vid=3ec0f424-621c-4312-95ab-38bff160f635","ios":"levelo://app?vid=3ec0f424-621c-4312-95ab-38bff160f635"},"vehicle_type_id":"4","last_reported":1700672828,"current_range_meters":24800,"station_id":"ce4bh292rcd13ifvqdf0","pricing_plan_id":"free"},{"bike_id":"6f1374dc-e450-43e0-8967-c51b714ea34b","system_id":"levelo_inurba_marseille","lat":43.2951,"lon":5.3941,"is_reserved":false,"is_disabled":false,"rental_uris":{"android":"levelo://app?vid=6f1374dc-e450-43e0-8967-c51b714ea34b","ios":"levelo://app?vid=6f1374dc-e450-43e0-8967-c51b714ea34b"},"vehicle_type_id":"4","last_reported":1700672828,"current_range_meters":0,"station_id":"ce4bh292rcd13ifvqdf0","pricing_plan_id":"free"},{"bike_id":"ee9dffe4-1a92-404b-8d9e-69ad8b0294c6","system_id":"levelo_inurba_marseille","lat":43.302759,"lon":5.400793,"is_reserved":false,"is_disabled":false,"rental_uris":{"android":"levelo://app?vid=ee9dffe4-1a92-404b-8d9e-69ad8b0294c6","ios":"levelo://app?vid=ee9dffe4-1a92-404b-8d9e-69ad8b0294c6"},"vehicle_type_id":"4","last_reported":1700672828,"current_range_meters":12800,"station_id":"ce4bgvh2rcd13ifvqcs0","pricing_plan_id":"free"},{"bike_id":"92b2942f-0c08-4432-b936-38add8cb80e0","system_id":"levelo_inurba_marseille","lat":43.287184,"lon":5.37937,"is_reserved":false,"is_disabled":false,"rental_uris":{"android":"levelo://app?vid=92b2942f-0c08-4432-b936-38add8cb80e0","ios":"levelo://app?vid=92b2942f-0c08-4432-b936-38add8cb80e0"},"vehicle_type_id":"4","last_reported":1700672828,"current_range_meters":3200,"station_id":"ce4bh9p2rcd13ifvqec0","pricing_plan_id":"free"},{"bike_id":"66dd0031-51db-451f-9370-8a907248c82c","system_id":"levelo_inurba_marseille","lat":43.287185,"lon":5.379373,"is_reserved":false,"is_disabled":false,"rental_uris":{"android":"levelo://app?vid=66dd0031-51db-451f-9370-8a907248c82c","ios":"levelo://app?vid=66dd0031-51db-451f-9370-8a907248c82c"},"vehicle_type_id":"4","last_reported":1700672828,"current_range_meters":1600,"station_id":"ce4bh9p2rcd13ifvqec0","pricing_plan_id":"free"},{"bike_id":"8c4d2160-240a-47d3-928a-56e9092f08bd","system_id":"levelo_inurba_marseille","lat":43.2887,"lon":5.38793,"is_reserved":false,"is_disabled":false,"rental_uris":{"android":"levelo://app?vid=8c4d2160-240a-47d3-928a-56e9092f08bd","ios":"levelo://app?vid=8c4d2160-240a-47d3-928a-56e9092f08bd"},"vehicle_type_id":"4","last_reported":1700672828,"current_range_meters":0,"station_id":"","pricing_plan_id":"free"},{"bike_id":"7f5c8220-d6de-4070-80ba-88ea90dd934c","system_id":"levelo_inurba_marseille","lat":43.28464,"lon":5.35894,"is_reserved":false,"is_disabled":false,"rental_uris":{"android":"levelo://app?vid=7f5c8220-d6de-4070-80ba-88ea90dd934c","ios":"levelo://app?vid=7f5c8220-d6de-4070-80ba-88ea90dd934c"},"vehicle_type_id":"4","last_reported":1700672828,"current_range_meters":31200,"station_id":"ce4bhah2rcd13ifvqei0","pricing_plan_id":"free"},{"bike_id":"5bda6e8d-2142-4c6c-9de0-985eb1267d8e","system_id":"levelo_inurba_marseille","lat":43.294314,"lon":5.397498,"is_reserved":false,"is_disabled":false,"rental_uris":{"android":"levelo://app?vid=5bda6e8d-2142-4c6c-9de0-985eb1267d8e","ios":"levelo://app?vid=5bda6e8d-2142-4c6c-9de0-985eb1267d8e"},"vehicle_type_id":"4","last_reported":1700672828,"current_range_meters":1600,"station_id":"ce4bh3h2rcd13ifvqdo0","pricing_plan_id":"free"},{"bike_id":"fc1260d7-f566-4efc-bc7f-29cb12115b45","system_id":"levelo_inurba_marseille","lat":43.29439,"lon":5.3976,"is_reserved":false,"is_disabled":false,"rental_uris":{"android":"levelo://app?vid=fc1260d7-f566-4efc-bc7f-29cb12115b45","ios":"levelo://app?vid=fc1260d7-f566-4efc-bc7f-29cb12115b45"},"vehicle_type_id":"4","last_reported":1700672828,"current_range_meters":28800,"station_id":"ce4bh3h2rcd13ifvqdo0","pricing_plan_id":"free"},{"bike_id":"4be87175-84f9-4e04-9669-5e647a990df8","system_id":"levelo_inurba_marseille","lat":43.2944,"lon":5.39767,"is_reserved":false,"is_disabled":false,"rental_uris":{"android":"levelo://app?vid=4be87175-84f9-4e04-9669-5e647a990df8","ios":"levelo://app?vid=4be87175-84f9-4e04-9669-5e647a990df8"},"vehicle_type_id":"4","last_reported":1700672828,"current_range_meters":9600,"station_id":"ce4bh3h2rcd13ifvqdo0","pricing_plan_id":"free"},{"bike_id":"ed219ba0-5e67-4a4c-af89-da845d5497cb","system_id":"levelo_inurba_marseille","lat":43.294314,"lon":5.397498,"is_reserved":false,"is_disabled":false,"rental_uris":{"android":"levelo://app?vid=ed219ba0-5e67-4a4c-af89-da845d5497cb","ios":"levelo://app?vid=ed219ba0-5e67-4a4c-af89-da845d5497cb"},"vehicle_type_id":"4","last_reported":1700672828,"current_range_meters":22000,"station_id":"ce4bh3h2rcd13ifvqdo0","pricing_plan_id":"free"},{"bike_id":"9539da89-081a-4c8c-a822-7105a813d663","system_id":"levelo_inurba_marseille","lat":43.285856,"lon":5.350771,"is_reserved":false,"is_disabled":false,"rental_uris":{"android":"levelo://app?vid=9539da89-081a-4c8c-a822-7105a813d663","ios":"levelo://app?vid=9539da89-081a-4c8c-a822-7105a813d663"},"vehicle_type_id":"4","last_reported":1700672828,"current_range_meters":400,"station_id":"ce4bhch2rcd13ifvqeug","pricing_plan_id":"free"},{"bike_id":"1ed0edd0-8c29-4625-bedc-c41650955f5a","system_id":"levelo_inurba_marseille","lat":43.28492,"lon":5.378085,"is_reserved":false,"is_disabled":false,"rental_uris":{"android":"levelo://app?vid=1ed0edd0-8c29-4625-bedc-c41650955f5a","ios":"levelo://app?vid=1ed0edd0-8c29-4625-bedc-c41650955f5a"},"vehicle_type_id":"4","last_reported":1700672828,"current_range_meters":25600,"station_id":"","pricing_plan_id":"free"},{"bike_id":"f9050f56-d05f-4131-9343-6960bf9b3c65","system_id":"levelo_inurba_marseille","lat":43.286146,"lon":5.351083,"is_reserved":false,"is_disabled":false,"rental_uris":{"android":"levelo://app?vid=f9050f56-d05f-4131-9343-6960bf9b3c65","ios":"levelo://app?vid=f9050f56-d05f-4131-9343-6960bf9b3c65"},"vehicle_type_id":"4","last_reported":1700672828,"current_range_meters":22400,"station_id":"ce4bhch2rcd13ifvqeug","pricing_plan_id":"free"},{"bike_id":"f66cd284-baef-444e-bfbd-c4f92fd151e6","system_id":"levelo_inurba_marseille","lat":43.283998,"lon":5.375062,"is_reserved":false,"is_disabled":false,"rental_uris":{"android":"levelo://app?vid=f66cd284-baef-444e-bfbd-c4f92fd151e6","ios":"levelo://app?vid=f66cd284-baef-444e-bfbd-c4f92fd151e6"},"vehicle_type_id":"4","last_reported":1700672828,"current_range_meters":4400,"station_id":"ce4bh412rcd13ifvqds0","pricing_plan_id":"free"},{"bike_id":"e77d3e6c-eaa1-42a3-b9af-373136f2ba14","system_id":"levelo_inurba_marseille","lat":43.283998,"lon":5.375062,"is_reserved":false,"is_disabled":false,"rental_uris":{"android":"levelo://app?vid=e77d3e6c-eaa1-42a3-b9af-373136f2ba14","ios":"levelo://app?vid=e77d3e6c-eaa1-42a3-b9af-373136f2ba14"},"vehicle_type_id":"4","last_reported":1700672828,"current_range_meters":11200,"station_id":"ce4bh412rcd13ifvqds0","pricing_plan_id":"free"},{"bike_id":"f0f9f35c-9236-42e9-84cf-23e1c6f781e5","system_id":"levelo_inurba_marseille","lat":43.283998,"lon":5.375062,"is_reserved":false,"is_disabled":false,"rental_uris":{"android":"levelo://app?vid=f0f9f35c-9236-42e9-84cf-23e1c6f781e5","ios":"levelo://app?vid=f0f9f35c-9236-42e9-84cf-23e1c6f781e5"},"vehicle_type_id":"4","last_reported":1700672828,"current_range_meters":23200,"station_id":"ce4bh412rcd13ifvqds0","pricing_plan_id":"free"},{"bike_id":"30c5a8f0-2d73-444d-be65-776ebd8122a8","system_id":"levelo_inurba_marseille","lat":43.31567,"lon":5.40702,"is_reserved":false,"is_disabled":false,"rental_uris":{"android":"levelo://app?vid=30c5a8f0-2d73-444d-be65-776ebd8122a8","ios":"levelo://app?vid=30c5a8f0-2d73-444d-be65-776ebd8122a8"},"vehicle_type_id":"4","last_reported":1700672828,"current_range_meters":6000,"station_id":"","pricing_plan_id":"free"},{"bike_id":"9df626aa-beee-44c4-bc42-130d2be7e9e0","system_id":"levelo_inurba_marseille","lat":43.286595,"lon":5.386795,"is_reserved":false,"is_disabled":false,"rental_uris":{"android":"levelo://app?vid=9df626aa-beee-44c4-bc42-130d2be7e9e0","ios":"levelo://app?vid=9df626aa-beee-44c4-bc42-130d2be7e9e0"},"vehicle_type_id":"4","last_reported":1700672828,"current_range_meters":19200,"station_id":"ce4bh492rcd13ifvqdug","pricing_plan_id":"free"},{"bike_id":"e06c4700-0845-42d1-b2cf-9930d5218347","system_id":"levelo_inurba_marseille","lat":43.319179,"lon":5.407725,"is_reserved":false,"is_disabled":false,"rental_uris":{"android":"levelo://app?vid=e06c4700-0845-42d1-b2cf-9930d5218347","ios":"levelo://app?vid=e06c4700-0845-42d1-b2cf-9930d5218347"},"vehicle_type_id":"4","last_reported":1700672828,"current_range_meters":19200,"station_id":"ce4bhq12rcd13ifvqhig","pricing_plan_id":"free"},{"bike_id":"adbd441f-44c4-4168-877a-9278b4bd7ceb","system_id":"levelo_inurba_marseille","lat":43.33268,"lon":5.39803,"is_reserved":false,"is_disabled":false,"rental_uris":{"android":"levelo://app?vid=adbd441f-44c4-4168-877a-9278b4bd7ceb","ios":"levelo://app?vid=adbd441f-44c4-4168-877a-9278b4bd7ceb"},"vehicle_type_id":"4","last_reported":1700672828,"current_range_meters":18400,"station_id":"","pricing_plan_id":"free"},{"bike_id":"c3a8bfe6-3907-47c8-99c7-12695eb99288","system_id":"levelo_inurba_marseille","lat":43.323464,"lon":5.406297,"is_reserved":false,"is_disabled":false,"rental_uris":{"android":"levelo://app?vid=c3a8bfe6-3907-47c8-99c7-12695eb99288","ios":"levelo://app?vid=c3a8bfe6-3907-47c8-99c7-12695eb99288"},"vehicle_type_id":"4","last_reported":1700672828,"current_range_meters":18000,"station_id":"ce4bhq92rcd13ifvqhjg","pricing_plan_id":"free"},{"bike_id":"17bc1805-71cf-40cb-864b-fdf370f2073f","system_id":"levelo_inurba_marseille","lat":43.33717,"lon":5.391857,"is_reserved":false,"is_disabled":false,"rental_uris":{"android":"levelo://app?vid=17bc1805-71cf-40cb-864b-fdf370f2073f","ios":"levelo://app?vid=17bc1805-71cf-40cb-864b-fdf370f2073f"},"vehicle_type_id":"4","last_reported":1700672828,"current_range_meters":29600,"station_id":"ce4bhr92rcd13ifvqhsg","pricing_plan_id":"free"},{"bike_id":"c071a19d-0a4d-4d59-b9fa-f2ef1a839042","system_id":"levelo_inurba_marseille","lat":43.297946,"lon":5.404063,"is_reserved":false,"is_disabled":false,"rental_uris":{"android":"levelo://app?vid=c071a19d-0a4d-4d59-b9fa-f2ef1a839042","ios":"levelo://app?vid=c071a19d-0a4d-4d59-b9fa-f2ef1a839042"},"vehicle_type_id":"4","last_reported":1700672828,"current_range_meters":7200,"station_id":"ce4bh112rcd13ifvqd90","pricing_plan_id":"free"},{"bike_id":"e92d682e-40bf-41d6-a74f-16ceb9f13f25","system_id":"levelo_inurba_marseille","lat":43.284793,"lon":5.384119,"is_reserved":false,"is_disabled":false,"rental_uris":{"android":"levelo://app?vid=e92d682e-40bf-41d6-a74f-16ceb9f13f25","ios":"levelo://app?vid=e92d682e-40bf-41d6-a74f-16ceb9f13f25"},"vehicle_type_id":"4","last_reported":1700672828,"current_range_meters":0,"station_id":"ce4bh512rcd13ifvqe3g","pricing_plan_id":"free"},{"bike_id":"f760664c-edea-472b-92c8-1b339e88d785","system_id":"levelo_inurba_marseille","lat":43.29795,"lon":5.404086,"is_reserved":false,"is_disabled":false,"rental_uris":{"android":"levelo://app?vid=f760664c-edea-472b-92c8-1b339e88d785","ios":"levelo://app?vid=f760664c-edea-472b-92c8-1b339e88d785"},"vehicle_type_id":"4","last_reported":1700672828,"current_range_meters":23200,"station_id":"ce4bh112rcd13ifvqd90","pricing_plan_id":"free"},{"bike_id":"ac0302de-8f6e-45f8-8f92-206e80774e29","system_id":"levelo_inurba_marseille","lat":43.297946,"lon":5.404063,"is_reserved":false,"is_disabled":false,"rental_uris":{"android":"levelo://app?vid=ac0302de-8f6e-45f8-8f92-206e80774e29","ios":"levelo://app?vid=ac0302de-8f6e-45f8-8f92-206e80774e29"},"vehicle_type_id":"4","last_reported":1700672828,"current_range_meters":8400,"station_id":"ce4bh112rcd13ifvqd90","pricing_plan_id":"free"},{"bike_id":"eba51c90-6911-4e8d-965a-c7aa4e6984ae","system_id":"levelo_inurba_marseille","lat":43.29796,"lon":5.40401,"is_reserved":false,"is_disabled":false,"rental_uris":{"android":"levelo://app?vid=eba51c90-6911-4e8d-965a-c7aa4e6984ae","ios":"levelo://app?vid=eba51c90-6911-4e8d-965a-c7aa4e6984ae"},"vehicle_type_id":"4","last_reported":1700672828,"current_range_meters":19200,"station_id":"ce4bh112rcd13ifvqd90","pricing_plan_id":"free"},{"bike_id":"953e871e-6a0b-40be-82c3-62d52242ed78","system_id":"levelo_inurba_marseille","lat":43.261782,"lon":5.374515,"is_reserved":false,"is_disabled":false,"rental_uris":{"android":"levelo://app?vid=953e871e-6a0b-40be-82c3-62d52242ed78","ios":"levelo://app?vid=953e871e-6a0b-40be-82c3-62d52242ed78"},"vehicle_type_id":"4","last_reported":1700672828,"current_range_meters":0,"station_id":"ce4bhgp2rcd13ifvqfc0","pricing_plan_id":"free"},{"bike_id":"e2284003-4e46-4e0a-93e7-73d05c3666d9","system_id":"levelo_inurba_marseille","lat":43.33454,"lon":5.39801,"is_reserved":false,"is_disabled":false,"rental_uris":{"android":"levelo://app?vid=e2284003-4e46-4e0a-93e7-73d05c3666d9","ios":"levelo://app?vid=e2284003-4e46-4e0a-93e7-73d05c3666d9"},"vehicle_type_id":"4","last_reported":1700672828,"current_range_meters":26400,"station_id":"","pricing_plan_id":"free"},{"bike_id":"1168d45c-3814-474e-b6a3-5db7b4eb8550","system_id":"levelo_inurba_marseille","lat":43.29277,"lon":5.40116,"is_reserved":false,"is_disabled":false,"rental_uris":{"android":"levelo://app?vid=1168d45c-3814-474e-b6a3-5db7b4eb8550","ios":"levelo://app?vid=1168d45c-3814-474e-b6a3-5db7b4eb8550"},"vehicle_type_id":"4","last_reported":1700672828,"current_range_meters":16400,"station_id":"ce4bh312rcd13ifvqdk0","pricing_plan_id":"free"},{"bike_id":"6f02a9aa-8113-4446-90bb-747315a4002d","system_id":"levelo_inurba_marseille","lat":43.29279,"lon":5.40126,"is_reserved":false,"is_disabled":false,"rental_uris":{"android":"levelo://app?vid=6f02a9aa-8113-4446-90bb-747315a4002d","ios":"levelo://app?vid=6f02a9aa-8113-4446-90bb-747315a4002d"},"vehicle_type_id":"4","last_reported":1700672828,"current_range_meters":1200,"station_id":"ce4bh312rcd13ifvqdk0","pricing_plan_id":"free"},{"bike_id":"f6e61c36-6ce7-4a1c-863a-aad23cf0c6ea","system_id":"levelo_inurba_marseille","lat":43.290412,"lon":5.399633,"is_reserved":false,"is_disabled":false,"rental_uris":{"android":"levelo://app?vid=f6e61c36-6ce7-4a1c-863a-aad23cf0c6ea","ios":"levelo://app?vid=f6e61c36-6ce7-4a1c-863a-aad23cf0c6ea"},"vehicle_type_id":"4","last_reported":1700672828,"current_range_meters":20800,"station_id":"ce4bh392rcd13ifvqdm0","pricing_plan_id":"free"},{"bike_id":"1d8f9ce6-07c0-422b-b1fb-6a80a2d441a7","system_id":"levelo_inurba_marseille","lat":43.281044,"lon":5.378308,"is_reserved":false,"is_disabled":false,"rental_uris":{"android":"levelo://app?vid=1d8f9ce6-07c0-422b-b1fb-6a80a2d441a7","ios":"levelo://app?vid=1d8f9ce6-07c0-422b-b1fb-6a80a2d441a7"},"vehicle_type_id":"4","last_reported":1700672828,"current_range_meters":13600,"station_id":"ce4bha12rcd13ifvqee0","pricing_plan_id":"free"},{"bike_id":"e986295b-9207-4fd6-9457-855a33463242","system_id":"levelo_inurba_marseille","lat":43.281044,"lon":5.378308,"is_reserved":false,"is_disabled":false,"rental_uris":{"android":"levelo://app?vid=e986295b-9207-4fd6-9457-855a33463242","ios":"levelo://app?vid=e986295b-9207-4fd6-9457-855a33463242"},"vehicle_type_id":"4","last_reported":1700672828,"current_range_meters":5600,"station_id":"ce4bha12rcd13ifvqee0","pricing_plan_id":"free"},{"bike_id":"ddf3216a-cf04-4ab4-bbc7-072892896c50","system_id":"levelo_inurba_marseille","lat":43.281044,"lon":5.378308,"is_reserved":false,"is_disabled":false,"rental_uris":{"android":"levelo://app?vid=ddf3216a-cf04-4ab4-bbc7-072892896c50","ios":"levelo://app?vid=ddf3216a-cf04-4ab4-bbc7-072892896c50"},"vehicle_type_id":"4","last_reported":1700672828,"current_range_meters":0,"station_id":"ce4bha12rcd13ifvqee0","pricing_plan_id":"free"},{"bike_id":"4476b2bf-209f-4113-88ec-43e017c209b0","system_id":"levelo_inurba_marseille","lat":43.284462,"lon":5.392121,"is_reserved":false,"is_disabled":false,"rental_uris":{"android":"levelo://app?vid=4476b2bf-209f-4113-88ec-43e017c209b0","ios":"levelo://app?vid=4476b2bf-209f-4113-88ec-43e017c209b0"},"vehicle_type_id":"4","last_reported":1700672828,"current_range_meters":2800,"station_id":"ce4bhoh2rcd13ifvqh5g","pricing_plan_id":"free"},{"bike_id":"864998ba-5953-47e1-bdac-5e46790373a8","system_id":"levelo_inurba_marseille","lat":43.28573,"lon":5.394992,"is_reserved":false,"is_disabled":false,"rental_uris":{"android":"levelo://app?vid=864998ba-5953-47e1-bdac-5e46790373a8","ios":"levelo://app?vid=864998ba-5953-47e1-bdac-5e46790373a8"},"vehicle_type_id":"4","last_reported":1700672828,"current_range_meters":26000,"station_id":"ce4bh292rcd13ifvqdg0","pricing_plan_id":"free"},{"bike_id":"65513308-ab71-4870-93cc-c9ab067862aa","system_id":"levelo_inurba_marseille","lat":43.285742,"lon":5.395004,"is_reserved":false,"is_disabled":false,"rental_uris":{"android":"levelo://app?vid=65513308-ab71-4870-93cc-c9ab067862aa","ios":"levelo://app?vid=65513308-ab71-4870-93cc-c9ab067862aa"},"vehicle_type_id":"4","last_reported":1700672828,"current_range_meters":9600,"station_id":"ce4bh292rcd13ifvqdg0","pricing_plan_id":"free"},{"bike_id":"c8a7120a-293a-4389-a4d6-4fefd18ec902","system_id":"levelo_inurba_marseille","lat":43.279087,"lon":5.380114,"is_reserved":false,"is_disabled":false,"rental_uris":{"android":"levelo://app?vid=c8a7120a-293a-4389-a4d6-4fefd18ec902","ios":"levelo://app?vid=c8a7120a-293a-4389-a4d6-4fefd18ec902"},"vehicle_type_id":"4","last_reported":1700672828,"current_range_meters":6000,"station_id":"ce4bhf92rcd13ifvqf50","pricing_plan_id":"free"},{"bike_id":"0ad2fdf9-fcd7-466d-b5b0-4d30a872f72a","system_id":"levelo_inurba_marseille","lat":43.28699,"lon":5.39982,"is_reserved":false,"is_disabled":false,"rental_uris":{"android":"levelo://app?vid=0ad2fdf9-fcd7-466d-b5b0-4d30a872f72a","ios":"levelo://app?vid=0ad2fdf9-fcd7-466d-b5b0-4d30a872f72a"},"vehicle_type_id":"4","last_reported":1700672828,"current_range_meters":10800,"station_id":"ce4bho92rcd13ifvqh3g","pricing_plan_id":"free"},{"bike_id":"e2fa078f-f739-4815-917a-a4801faf5fac","system_id":"levelo_inurba_marseille","lat":43.287154,"lon":5.399979,"is_reserved":false,"is_disabled":false,"rental_uris":{"android":"levelo://app?vid=e2fa078f-f739-4815-917a-a4801faf5fac","ios":"levelo://app?vid=e2fa078f-f739-4815-917a-a4801faf5fac"},"vehicle_type_id":"4","last_reported":1700672828,"current_range_meters":4000,"station_id":"ce4bho92rcd13ifvqh3g","pricing_plan_id":"free"},{"bike_id":"6e2c2465-4e40-4aae-912b-ca1fbcdf1978","system_id":"levelo_inurba_marseille","lat":43.321955,"lon":5.41378,"is_reserved":false,"is_disabled":false,"rental_uris":{"android":"levelo://app?vid=6e2c2465-4e40-4aae-912b-ca1fbcdf1978","ios":"levelo://app?vid=6e2c2465-4e40-4aae-912b-ca1fbcdf1978"},"vehicle_type_id":"4","last_reported":1700672828,"current_range_meters":0,"station_id":"","pricing_plan_id":"free"},{"bike_id":"232d3d42-a256-4d35-9d7e-9d706ce36ccf","system_id":"levelo_inurba_marseille","lat":43.299579,"lon":5.413255,"is_reserved":false,"is_disabled":false,"rental_uris":{"android":"levelo://app?vid=232d3d42-a256-4d35-9d7e-9d706ce36ccf","ios":"levelo://app?vid=232d3d42-a256-4d35-9d7e-9d706ce36ccf"},"vehicle_type_id":"4","last_reported":1700672828,"current_range_meters":28400,"station_id":"ce4bhp12rcd13ifvqh9g","pricing_plan_id":"free"},{"bike_id":"c4c72af3-7c04-4095-8157-768dddddc4c8","system_id":"levelo_inurba_marseille","lat":43.279742,"lon":5.38744,"is_reserved":false,"is_disabled":false,"rental_uris":{"android":"levelo://app?vid=c4c72af3-7c04-4095-8157-768dddddc4c8","ios":"levelo://app?vid=c4c72af3-7c04-4095-8157-768dddddc4c8"},"vehicle_type_id":"4","last_reported":1700672828,"current_range_meters":0,"station_id":"ce4bhg12rcd13ifvqf80","pricing_plan_id":"free"},{"bike_id":"d5d14fbd-88d2-4a92-853b-1c62322bdb67","system_id":"levelo_inurba_marseille","lat":43.27943,"lon":5.38751,"is_reserved":false,"is_disabled":false,"rental_uris":{"android":"levelo://app?vid=d5d14fbd-88d2-4a92-853b-1c62322bdb67","ios":"levelo://app?vid=d5d14fbd-88d2-4a92-853b-1c62322bdb67"},"vehicle_type_id":"4","last_reported":1700672828,"current_range_meters":0,"station_id":"ce4bhg12rcd13ifvqf80","pricing_plan_id":"free"},{"bike_id":"cf7c6503-d761-4e4a-b826-f55f74848caf","system_id":"levelo_inurba_marseille","lat":43.34879,"lon":5.3751,"is_reserved":false,"is_disabled":false,"rental_uris":{"android":"levelo://app?vid=cf7c6503-d761-4e4a-b826-f55f74848caf","ios":"levelo://app?vid=cf7c6503-d761-4e4a-b826-f55f74848caf"},"vehicle_type_id":"4","last_reported":1700672828,"current_range_meters":4800,"station_id":"","pricing_plan_id":"free"},{"bike_id":"47f86c16-40e7-4b1f-b4e9-8e9ba5d52b48","system_id":"levelo_inurba_marseille","lat":43.27609,"lon":5.36108,"is_reserved":false,"is_disabled":false,"rental_uris":{"android":"levelo://app?vid=47f86c16-40e7-4b1f-b4e9-8e9ba5d52b48","ios":"levelo://app?vid=47f86c16-40e7-4b1f-b4e9-8e9ba5d52b48"},"vehicle_type_id":"4","last_reported":1700672828,"current_range_meters":0,"station_id":"ce4bgj92rcd13ifvqbe0","pricing_plan_id":"free"},{"bike_id":"99b7b3e2-fb47-4e03-b5b8-5bf5b8fd0d6c","system_id":"levelo_inurba_marseille","lat":43.293666,"lon":5.412684,"is_reserved":false,"is_disabled":false,"rental_uris":{"android":"levelo://app?vid=99b7b3e2-fb47-4e03-b5b8-5bf5b8fd0d6c","ios":"levelo://app?vid=99b7b3e2-fb47-4e03-b5b8-5bf5b8fd0d6c"},"vehicle_type_id":"4","last_reported":1700672828,"current_range_meters":0,"station_id":"","pricing_plan_id":"free"},{"bike_id":"2b5452c0-e2c9-4b71-a050-277746131afc","system_id":"levelo_inurba_marseille","lat":43.28082,"lon":5.39662,"is_reserved":false,"is_disabled":false,"rental_uris":{"android":"levelo://app?vid=2b5452c0-e2c9-4b71-a050-277746131afc","ios":"levelo://app?vid=2b5452c0-e2c9-4b71-a050-277746131afc"},"vehicle_type_id":"4","last_reported":1700672828,"current_range_meters":4800,"station_id":"ce4bho12rcd13ifvqh2g","pricing_plan_id":"free"},{"bike_id":"a18fdb5b-e208-4bb6-bcb4-76f22bac93fc","system_id":"levelo_inurba_marseille","lat":43.280784,"lon":5.396622,"is_reserved":false,"is_disabled":false,"rental_uris":{"android":"levelo://app?vid=a18fdb5b-e208-4bb6-bcb4-76f22bac93fc","ios":"levelo://app?vid=a18fdb5b-e208-4bb6-bcb4-76f22bac93fc"},"vehicle_type_id":"4","last_reported":1700672828,"current_range_meters":28000,"station_id":"ce4bho12rcd13ifvqh2g","pricing_plan_id":"free"},{"bike_id":"35605691-24e4-4347-b526-534a3639ebc7","system_id":"levelo_inurba_marseille","lat":43.280784,"lon":5.396622,"is_reserved":false,"is_disabled":false,"rental_uris":{"android":"levelo://app?vid=35605691-24e4-4347-b526-534a3639ebc7","ios":"levelo://app?vid=35605691-24e4-4347-b526-534a3639ebc7"},"vehicle_type_id":"4","last_reported":1700672828,"current_range_meters":25600,"station_id":"ce4bho12rcd13ifvqh2g","pricing_plan_id":"free"},{"bike_id":"ef72fb2a-de07-4a2c-b9aa-dcba611cf655","system_id":"levelo_inurba_marseille","lat":43.278479,"lon":5.392125,"is_reserved":false,"is_disabled":false,"rental_uris":{"android":"levelo://app?vid=ef72fb2a-de07-4a2c-b9aa-dcba611cf655","ios":"levelo://app?vid=ef72fb2a-de07-4a2c-b9aa-dcba611cf655"},"vehicle_type_id":"4","last_reported":1700672828,"current_range_meters":0,"station_id":"ce4bhjp2rcd13ifvqga0","pricing_plan_id":"free"},{"bike_id":"246dad35-136d-4bd9-a614-c16db694f761","system_id":"levelo_inurba_marseille","lat":43.275625,"lon":5.384392,"is_reserved":false,"is_disabled":false,"rental_uris":{"android":"levelo://app?vid=246dad35-136d-4bd9-a614-c16db694f761","ios":"levelo://app?vid=246dad35-136d-4bd9-a614-c16db694f761"},"vehicle_type_id":"4","last_reported":1700672828,"current_range_meters":3600,"station_id":"ce4bhh92rcd13ifvqfi0","pricing_plan_id":"free"},{"bike_id":"a06346aa-4e6d-41a4-9dd0-74d13d1ecc2f","system_id":"levelo_inurba_marseille","lat":43.27822,"lon":5.39207,"is_reserved":false,"is_disabled":false,"rental_uris":{"android":"levelo://app?vid=a06346aa-4e6d-41a4-9dd0-74d13d1ecc2f","ios":"levelo://app?vid=a06346aa-4e6d-41a4-9dd0-74d13d1ecc2f"},"vehicle_type_id":"4","last_reported":1700672828,"current_range_meters":0,"station_id":"ce4bhjp2rcd13ifvqga0","pricing_plan_id":"free"},{"bike_id":"a9f72df6-27eb-4d9d-b8d9-4606d58c2c3d","system_id":"levelo_inurba_marseille","lat":43.275625,"lon":5.384392,"is_reserved":false,"is_disabled":false,"rental_uris":{"android":"levelo://app?vid=a9f72df6-27eb-4d9d-b8d9-4606d58c2c3d","ios":"levelo://app?vid=a9f72df6-27eb-4d9d-b8d9-4606d58c2c3d"},"vehicle_type_id":"4","last_reported":1700672828,"current_range_meters":8800,"station_id":"ce4bhh92rcd13ifvqfi0","pricing_plan_id":"free"},{"bike_id":"44b0fa31-0056-401c-963d-cdf4dcbada0f","system_id":"levelo_inurba_marseille","lat":43.27373,"lon":5.36256,"is_reserved":false,"is_disabled":false,"rental_uris":{"android":"levelo://app?vid=44b0fa31-0056-401c-963d-cdf4dcbada0f","ios":"levelo://app?vid=44b0fa31-0056-401c-963d-cdf4dcbada0f"},"vehicle_type_id":"4","last_reported":1700672828,"current_range_meters":0,"station_id":"ce4bhbh2rcd13ifvqeo0","pricing_plan_id":"free"},{"bike_id":"7aa0b987-2515-47e9-ab94-c9c1ebf36079","system_id":"levelo_inurba_marseille","lat":43.276771,"lon":5.388799,"is_reserved":false,"is_disabled":false,"rental_uris":{"android":"levelo://app?vid=7aa0b987-2515-47e9-ab94-c9c1ebf36079","ios":"levelo://app?vid=7aa0b987-2515-47e9-ab94-c9c1ebf36079"},"vehicle_type_id":"4","last_reported":1700672828,"current_range_meters":0,"station_id":"ce4bhi12rcd13ifvqfo0","pricing_plan_id":"free"},{"bike_id":"2996f450-c884-4ae7-9100-5bab1939f4ee","system_id":"levelo_inurba_marseille","lat":43.279952,"lon":5.400085,"is_reserved":false,"is_disabled":false,"rental_uris":{"android":"levelo://app?vid=2996f450-c884-4ae7-9100-5bab1939f4ee","ios":"levelo://app?vid=2996f450-c884-4ae7-9100-5bab1939f4ee"},"vehicle_type_id":"4","last_reported":1700672828,"current_range_meters":23600,"station_id":"ce4bho92rcd13ifvqh4g","pricing_plan_id":"free"},{"bike_id":"c57c57f0-1353-4673-b552-0d685067ee87","system_id":"levelo_inurba_marseille","lat":43.27999,"lon":5.4001,"is_reserved":false,"is_disabled":false,"rental_uris":{"android":"levelo://app?vid=c57c57f0-1353-4673-b552-0d685067ee87","ios":"levelo://app?vid=c57c57f0-1353-4673-b552-0d685067ee87"},"vehicle_type_id":"4","last_reported":1700672828,"current_range_meters":24400,"station_id":"ce4bho92rcd13ifvqh4g","pricing_plan_id":"free"},{"bike_id":"a1acea3a-7d0d-418e-82cc-4b95830007b5","system_id":"levelo_inurba_marseille","lat":43.27313,"lon":5.39066,"is_reserved":false,"is_disabled":false,"rental_uris":{"android":"levelo://app?vid=a1acea3a-7d0d-418e-82cc-4b95830007b5","ios":"levelo://app?vid=a1acea3a-7d0d-418e-82cc-4b95830007b5"},"vehicle_type_id":"4","last_reported":1700672828,"current_range_meters":0,"station_id":"","pricing_plan_id":"free"},{"bike_id":"fc6a8141-1c27-454e-9683-70eaf1fc21ad","system_id":"levelo_inurba_marseille","lat":43.273129,"lon":5.390725,"is_reserved":false,"is_disabled":false,"rental_uris":{"android":"levelo://app?vid=fc6a8141-1c27-454e-9683-70eaf1fc21ad","ios":"levelo://app?vid=fc6a8141-1c27-454e-9683-70eaf1fc21ad"},"vehicle_type_id":"4","last_reported":1700672828,"current_range_meters":1200,"station_id":"ce4bhgp2rcd13ifvqfe0","pricing_plan_id":"free"},{"bike_id":"0e5a7425-d2b5-49cb-8ef0-2182bbee0174","system_id":"levelo_inurba_marseille","lat":43.272124,"lon":5.391768,"is_reserved":false,"is_disabled":false,"rental_uris":{"android":"levelo://app?vid=0e5a7425-d2b5-49cb-8ef0-2182bbee0174","ios":"levelo://app?vid=0e5a7425-d2b5-49cb-8ef0-2182bbee0174"},"vehicle_type_id":"4","last_reported":1700672828,"current_range_meters":26800,"station_id":"ce4bhhp2rcd13ifvqfm0","pricing_plan_id":"free"},{"bike_id":"d0bb53f7-f1b8-4609-a668-27efdac67f66","system_id":"levelo_inurba_marseille","lat":43.27195,"lon":5.39248,"is_reserved":false,"is_disabled":false,"rental_uris":{"android":"levelo://app?vid=d0bb53f7-f1b8-4609-a668-27efdac67f66","ios":"levelo://app?vid=d0bb53f7-f1b8-4609-a668-27efdac67f66"},"vehicle_type_id":"4","last_reported":1700672828,"current_range_meters":0,"station_id":"","pricing_plan_id":"free"},{"bike_id":"ebb30e36-d06f-474e-9207-b69695f34b01","system_id":"levelo_inurba_marseille","lat":43.278128,"lon":5.407195,"is_reserved":false,"is_disabled":false,"rental_uris":{"android":"levelo://app?vid=ebb30e36-d06f-474e-9207-b69695f34b01","ios":"levelo://app?vid=ebb30e36-d06f-474e-9207-b69695f34b01"},"vehicle_type_id":"4","last_reported":1700672828,"current_range_meters":3200,"station_id":"ce4bhnh2rcd13ifvqgtg","pricing_plan_id":"free"},{"bike_id":"e069526a-5383-4fc6-bdb3-9ee6376daeb9","system_id":"levelo_inurba_marseille","lat":43.26997,"lon":5.38769,"is_reserved":false,"is_disabled":false,"rental_uris":{"android":"levelo://app?vid=e069526a-5383-4fc6-bdb3-9ee6376daeb9","ios":"levelo://app?vid=e069526a-5383-4fc6-bdb3-9ee6376daeb9"},"vehicle_type_id":"4","last_reported":1700672828,"current_range_meters":0,"station_id":"","pricing_plan_id":"free"},{"bike_id":"6aae887c-ce73-443e-b98f-3433c1c2f2bd","system_id":"levelo_inurba_marseille","lat":43.26999,"lon":5.387797,"is_reserved":false,"is_disabled":false,"rental_uris":{"android":"levelo://app?vid=6aae887c-ce73-443e-b98f-3433c1c2f2bd","ios":"levelo://app?vid=6aae887c-ce73-443e-b98f-3433c1c2f2bd"},"vehicle_type_id":"4","last_reported":1700672828,"current_range_meters":0,"station_id":"","pricing_plan_id":"free"},{"bike_id":"1a1e5316-baaf-466f-a5a7-5a13c9ec69f9","system_id":"levelo_inurba_marseille","lat":43.269319,"lon":5.389397,"is_reserved":false,"is_disabled":false,"rental_uris":{"android":"levelo://app?vid=1a1e5316-baaf-466f-a5a7-5a13c9ec69f9","ios":"levelo://app?vid=1a1e5316-baaf-466f-a5a7-5a13c9ec69f9"},"vehicle_type_id":"4","last_reported":1700672828,"current_range_meters":22000,"station_id":"ce4bhhh2rcd13ifvqfl0","pricing_plan_id":"free"},{"bike_id":"28e8ce00-6b21-4e06-9930-c7c4408cc650","system_id":"levelo_inurba_marseille","lat":43.326174,"lon":5.430584,"is_reserved":false,"is_disabled":false,"rental_uris":{"android":"levelo://app?vid=28e8ce00-6b21-4e06-9930-c7c4408cc650","ios":"levelo://app?vid=28e8ce00-6b21-4e06-9930-c7c4408cc650"},"vehicle_type_id":"4","last_reported":1700672828,"current_range_meters":6000,"station_id":"","pricing_plan_id":"free"},{"bike_id":"2629dc3b-7d25-4a4f-ac48-5ce89fa6d817","system_id":"levelo_inurba_marseille","lat":43.279936,"lon":5.41665,"is_reserved":false,"is_disabled":false,"rental_uris":{"android":"levelo://app?vid=2629dc3b-7d25-4a4f-ac48-5ce89fa6d817","ios":"levelo://app?vid=2629dc3b-7d25-4a4f-ac48-5ce89fa6d817"},"vehicle_type_id":"4","last_reported":1700672828,"current_range_meters":24800,"station_id":"ce4bho12rcd13ifvqh1g","pricing_plan_id":"free"},{"bike_id":"2b5f0b27-ae58-4e9e-bd76-c585f78e8a73","system_id":"levelo_inurba_marseille","lat":43.26386,"lon":5.37454,"is_reserved":false,"is_disabled":false,"rental_uris":{"android":"levelo://app?vid=2b5f0b27-ae58-4e9e-bd76-c585f78e8a73","ios":"levelo://app?vid=2b5f0b27-ae58-4e9e-bd76-c585f78e8a73"},"vehicle_type_id":"4","last_reported":1700672828,"current_range_meters":21600,"station_id":"","pricing_plan_id":"free"},{"bike_id":"f7ab0159-e405-4776-b695-a35e301fafaa","system_id":"levelo_inurba_marseille","lat":43.308051,"lon":5.43527,"is_reserved":false,"is_disabled":false,"rental_uris":{"android":"levelo://app?vid=f7ab0159-e405-4776-b695-a35e301fafaa","ios":"levelo://app?vid=f7ab0159-e405-4776-b695-a35e301fafaa"},"vehicle_type_id":"4","last_reported":1700672828,"current_range_meters":29600,"station_id":"ce4bhph2rcd13ifvqheg","pricing_plan_id":"free"},{"bike_id":"c54a5b73-911b-459c-acc5-f87336084cc5","system_id":"levelo_inurba_marseille","lat":43.26566,"lon":5.39003,"is_reserved":false,"is_disabled":false,"rental_uris":{"android":"levelo://app?vid=c54a5b73-911b-459c-acc5-f87336084cc5","ios":"levelo://app?vid=c54a5b73-911b-459c-acc5-f87336084cc5"},"vehicle_type_id":"4","last_reported":1700672828,"current_range_meters":0,"station_id":"ce4bhe12rcd13ifvqf30","pricing_plan_id":"free"},{"bike_id":"f164c569-4fee-492d-8086-13e7595fac60","system_id":"levelo_inurba_marseille","lat":43.26564,"lon":5.39008,"is_reserved":false,"is_disabled":false,"rental_uris":{"android":"levelo://app?vid=f164c569-4fee-492d-8086-13e7595fac60","ios":"levelo://app?vid=f164c569-4fee-492d-8086-13e7595fac60"},"vehicle_type_id":"4","last_reported":1700672828,"current_range_meters":0,"station_id":"ce4bhe12rcd13ifvqf30","pricing_plan_id":"free"},{"bike_id":"79661c70-661c-4fa3-9d7c-dfbd3858b6f0","system_id":"levelo_inurba_marseille","lat":43.2656,"lon":5.39012,"is_reserved":false,"is_disabled":false,"rental_uris":{"android":"levelo://app?vid=79661c70-661c-4fa3-9d7c-dfbd3858b6f0","ios":"levelo://app?vid=79661c70-661c-4fa3-9d7c-dfbd3858b6f0"},"vehicle_type_id":"4","last_reported":1700672828,"current_range_meters":0,"station_id":"ce4bhe12rcd13ifvqf30","pricing_plan_id":"free"},{"bike_id":"0a38ae67-2074-49af-b47a-63152d20c11f","system_id":"levelo_inurba_marseille","lat":43.317104,"lon":5.436818,"is_reserved":false,"is_disabled":false,"rental_uris":{"android":"levelo://app?vid=0a38ae67-2074-49af-b47a-63152d20c11f","ios":"levelo://app?vid=0a38ae67-2074-49af-b47a-63152d20c11f"},"vehicle_type_id":"4","last_reported":1700672828,"current_range_meters":31600,"station_id":"ce4bhp92rcd13ifvqhcg","pricing_plan_id":"free"},{"bike_id":"860103e4-b3a2-49bf-a852-14e4f54ff085","system_id":"levelo_inurba_marseille","lat":43.271368,"lon":5.40928,"is_reserved":false,"is_disabled":false,"rental_uris":{"android":"levelo://app?vid=860103e4-b3a2-49bf-a852-14e4f54ff085","ios":"levelo://app?vid=860103e4-b3a2-49bf-a852-14e4f54ff085"},"vehicle_type_id":"4","last_reported":1700672828,"current_range_meters":28800,"station_id":"ce4bhl12rcd13ifvqgf0","pricing_plan_id":"free"},{"bike_id":"bd930b88-2c04-4a32-9e2a-54839df35886","system_id":"levelo_inurba_marseille","lat":43.267959,"lon":5.402685,"is_reserved":false,"is_disabled":false,"rental_uris":{"android":"levelo://app?vid=bd930b88-2c04-4a32-9e2a-54839df35886","ios":"levelo://app?vid=bd930b88-2c04-4a32-9e2a-54839df35886"},"vehicle_type_id":"4","last_reported":1700672828,"current_range_meters":8400,"station_id":"ce501612rcd8frsf0b60","pricing_plan_id":"free"},{"bike_id":"cb16d7ee-4d8d-44c4-bc7a-142b1234ab63","system_id":"levelo_inurba_marseille","lat":43.31725,"lon":5.43786,"is_reserved":false,"is_disabled":false,"rental_uris":{"android":"levelo://app?vid=cb16d7ee-4d8d-44c4-bc7a-142b1234ab63","ios":"levelo://app?vid=cb16d7ee-4d8d-44c4-bc7a-142b1234ab63"},"vehicle_type_id":"4","last_reported":1700672828,"current_range_meters":2400,"station_id":"","pricing_plan_id":"free"},{"bike_id":"aaebd74a-2ae3-4a49-b61f-91385f6ff64a","system_id":"levelo_inurba_marseille","lat":43.26417,"lon":5.39225,"is_reserved":false,"is_disabled":false,"rental_uris":{"android":"levelo://app?vid=aaebd74a-2ae3-4a49-b61f-91385f6ff64a","ios":"levelo://app?vid=aaebd74a-2ae3-4a49-b61f-91385f6ff64a"},"vehicle_type_id":"4","last_reported":1700672828,"current_range_meters":3600,"station_id":"","pricing_plan_id":"free"},{"bike_id":"cbe71c91-be8b-4802-b1a8-739af30994d9","system_id":"levelo_inurba_marseille","lat":43.29897,"lon":5.43671,"is_reserved":false,"is_disabled":false,"rental_uris":{"android":"levelo://app?vid=cbe71c91-be8b-4802-b1a8-739af30994d9","ios":"levelo://app?vid=cbe71c91-be8b-4802-b1a8-739af30994d9"},"vehicle_type_id":"4","last_reported":1700672828,"current_range_meters":8400,"station_id":"ce4bhpp2rcd13ifvqhfg","pricing_plan_id":"free"},{"bike_id":"cb70a0a7-a3ba-40be-8f5b-54253a525851","system_id":"levelo_inurba_marseille","lat":43.29901,"lon":5.436851,"is_reserved":false,"is_disabled":false,"rental_uris":{"android":"levelo://app?vid=cb70a0a7-a3ba-40be-8f5b-54253a525851","ios":"levelo://app?vid=cb70a0a7-a3ba-40be-8f5b-54253a525851"},"vehicle_type_id":"4","last_reported":1700672828,"current_range_meters":0,"station_id":"ce4bhpp2rcd13ifvqhfg","pricing_plan_id":"free"},{"bike_id":"32c305fb-49cd-4def-8098-02867fc1ff4f","system_id":"levelo_inurba_marseille","lat":43.28154,"lon":5.42641,"is_reserved":false,"is_disabled":false,"rental_uris":{"android":"levelo://app?vid=32c305fb-49cd-4def-8098-02867fc1ff4f","ios":"levelo://app?vid=32c305fb-49cd-4def-8098-02867fc1ff4f"},"vehicle_type_id":"4","last_reported":1700672828,"current_range_meters":27600,"station_id":"ce4bhnh2rcd13ifvqgug","pricing_plan_id":"free"},{"bike_id":"79407e75-2cf7-4446-a5b2-1c5fe1d8373c","system_id":"levelo_inurba_marseille","lat":43.28157,"lon":5.42644,"is_reserved":false,"is_disabled":false,"rental_uris":{"android":"levelo://app?vid=79407e75-2cf7-4446-a5b2-1c5fe1d8373c","ios":"levelo://app?vid=79407e75-2cf7-4446-a5b2-1c5fe1d8373c"},"vehicle_type_id":"4","last_reported":1700672828,"current_range_meters":24800,"station_id":"ce4bhnh2rcd13ifvqgug","pricing_plan_id":"free"},{"bike_id":"47eb7c73-b791-4d0b-bd3a-a2fa1b5b2b80","system_id":"levelo_inurba_marseille","lat":43.28155,"lon":5.42645,"is_reserved":false,"is_disabled":false,"rental_uris":{"android":"levelo://app?vid=47eb7c73-b791-4d0b-bd3a-a2fa1b5b2b80","ios":"levelo://app?vid=47eb7c73-b791-4d0b-bd3a-a2fa1b5b2b80"},"vehicle_type_id":"4","last_reported":1700672828,"current_range_meters":31200,"station_id":"ce4bhnh2rcd13ifvqgug","pricing_plan_id":"free"},{"bike_id":"56cfcdad-7deb-457c-aa73-c91fd9caf8e3","system_id":"levelo_inurba_marseille","lat":43.281548,"lon":5.42643,"is_reserved":false,"is_disabled":false,"rental_uris":{"android":"levelo://app?vid=56cfcdad-7deb-457c-aa73-c91fd9caf8e3","ios":"levelo://app?vid=56cfcdad-7deb-457c-aa73-c91fd9caf8e3"},"vehicle_type_id":"4","last_reported":1700672828,"current_range_meters":27600,"station_id":"ce4bhnh2rcd13ifvqgug","pricing_plan_id":"free"},{"bike_id":"881e4ef8-081e-4b59-b4cb-1eadeccb79c9","system_id":"levelo_inurba_marseille","lat":43.275028,"lon":5.424534,"is_reserved":false,"is_disabled":false,"rental_uris":{"android":"levelo://app?vid=881e4ef8-081e-4b59-b4cb-1eadeccb79c9","ios":"levelo://app?vid=881e4ef8-081e-4b59-b4cb-1eadeccb79c9"},"vehicle_type_id":"4","last_reported":1700672828,"current_range_meters":3200,"station_id":"ce4bhn92rcd13ifvqgrg","pricing_plan_id":"free"},{"bike_id":"6b188708-9907-4cc6-a7fa-bcdecbd5a74b","system_id":"levelo_inurba_marseille","lat":43.27495,"lon":5.42454,"is_reserved":false,"is_disabled":false,"rental_uris":{"android":"levelo://app?vid=6b188708-9907-4cc6-a7fa-bcdecbd5a74b","ios":"levelo://app?vid=6b188708-9907-4cc6-a7fa-bcdecbd5a74b"},"vehicle_type_id":"4","last_reported":1700672828,"current_range_meters":1200,"station_id":"ce4bhn92rcd13ifvqgrg","pricing_plan_id":"free"},{"bike_id":"d723c800-dc48-41c7-952c-95788064f89d","system_id":"levelo_inurba_marseille","lat":43.27494,"lon":5.42456,"is_reserved":false,"is_disabled":false,"rental_uris":{"android":"levelo://app?vid=d723c800-dc48-41c7-952c-95788064f89d","ios":"levelo://app?vid=d723c800-dc48-41c7-952c-95788064f89d"},"vehicle_type_id":"4","last_reported":1700672828,"current_range_meters":17600,"station_id":"ce4bhn92rcd13ifvqgrg","pricing_plan_id":"free"},{"bike_id":"08a20a05-6c4e-45a7-bfff-740281cb95e9","system_id":"levelo_inurba_marseille","lat":43.27495,"lon":5.42458,"is_reserved":false,"is_disabled":false,"rental_uris":{"android":"levelo://app?vid=08a20a05-6c4e-45a7-bfff-740281cb95e9","ios":"levelo://app?vid=08a20a05-6c4e-45a7-bfff-740281cb95e9"},"vehicle_type_id":"4","last_reported":1700672828,"current_range_meters":30000,"station_id":"ce4bhn92rcd13ifvqgrg","pricing_plan_id":"free"},{"bike_id":"ba97b6b1-f61e-4164-8a33-894d8b273786","system_id":"levelo_inurba_marseille","lat":43.262325,"lon":5.4045,"is_reserved":false,"is_disabled":false,"rental_uris":{"android":"levelo://app?vid=ba97b6b1-f61e-4164-8a33-894d8b273786","ios":"levelo://app?vid=ba97b6b1-f61e-4164-8a33-894d8b273786"},"vehicle_type_id":"4","last_reported":1700672828,"current_range_meters":31200,"station_id":"","pricing_plan_id":"free"},{"bike_id":"6a57b42d-cfca-41a2-b1ac-ea770607f8c1","system_id":"levelo_inurba_marseille","lat":43.25838,"lon":5.39448,"is_reserved":false,"is_disabled":false,"rental_uris":{"android":"levelo://app?vid=6a57b42d-cfca-41a2-b1ac-ea770607f8c1","ios":"levelo://app?vid=6a57b42d-cfca-41a2-b1ac-ea770607f8c1"},"vehicle_type_id":"4","last_reported":1700672828,"current_range_meters":29600,"station_id":"ce4bhip2rcd13ifvqft0","pricing_plan_id":"free"},{"bike_id":"9bf463fb-4c74-4cd4-927b-d8a57913afd0","system_id":"levelo_inurba_marseille","lat":43.258224,"lon":5.394369,"is_reserved":false,"is_disabled":false,"rental_uris":{"android":"levelo://app?vid=9bf463fb-4c74-4cd4-927b-d8a57913afd0","ios":"levelo://app?vid=9bf463fb-4c74-4cd4-927b-d8a57913afd0"},"vehicle_type_id":"4","last_reported":1700672828,"current_range_meters":8400,"station_id":"ce4bhip2rcd13ifvqft0","pricing_plan_id":"free"},{"bike_id":"16d1d159-4dd2-4c8b-a6ea-1883fc4e8418","system_id":"levelo_inurba_marseille","lat":43.254947,"lon":5.376454,"is_reserved":false,"is_disabled":false,"rental_uris":{"android":"levelo://app?vid=16d1d159-4dd2-4c8b-a6ea-1883fc4e8418","ios":"levelo://app?vid=16d1d159-4dd2-4c8b-a6ea-1883fc4e8418"},"vehicle_type_id":"4","last_reported":1700672828,"current_range_meters":3200,"station_id":"ce4bhh12rcd13ifvqff0","pricing_plan_id":"free"},{"bike_id":"af626def-72d8-43da-8f46-27662ef4b076","system_id":"levelo_inurba_marseille","lat":43.270721,"lon":5.422764,"is_reserved":false,"is_disabled":false,"rental_uris":{"android":"levelo://app?vid=af626def-72d8-43da-8f46-27662ef4b076","ios":"levelo://app?vid=af626def-72d8-43da-8f46-27662ef4b076"},"vehicle_type_id":"4","last_reported":1700672828,"current_range_meters":16000,"station_id":"ce4bhk92rcd13ifvqgb0","pricing_plan_id":"free"},{"bike_id":"50290bb8-efd3-482d-b021-7495607ee03f","system_id":"levelo_inurba_marseille","lat":43.258658,"lon":5.398935,"is_reserved":false,"is_disabled":false,"rental_uris":{"android":"levelo://app?vid=50290bb8-efd3-482d-b021-7495607ee03f","ios":"levelo://app?vid=50290bb8-efd3-482d-b021-7495607ee03f"},"vehicle_type_id":"4","last_reported":1700672828,"current_range_meters":0,"station_id":"ce4bhl92rcd13ifvqghg","pricing_plan_id":"free"},{"bike_id":"462bb68c-d74e-4bd7-a798-02736e03f495","system_id":"levelo_inurba_marseille","lat":43.259013,"lon":5.409301,"is_reserved":false,"is_disabled":false,"rental_uris":{"android":"levelo://app?vid=462bb68c-d74e-4bd7-a798-02736e03f495","ios":"levelo://app?vid=462bb68c-d74e-4bd7-a798-02736e03f495"},"vehicle_type_id":"4","last_reported":1700672828,"current_range_meters":30800,"station_id":"ce4bhm92rcd13ifvqglg","pricing_plan_id":"free"},{"bike_id":"5ea3fb16-a1b1-4ea0-9b9b-47f1c4d186c6","system_id":"levelo_inurba_marseille","lat":43.25726,"lon":5.41109,"is_reserved":false,"is_disabled":false,"rental_uris":{"android":"levelo://app?vid=5ea3fb16-a1b1-4ea0-9b9b-47f1c4d186c6","ios":"levelo://app?vid=5ea3fb16-a1b1-4ea0-9b9b-47f1c4d186c6"},"vehicle_type_id":"4","last_reported":1700672828,"current_range_meters":2000,"station_id":"ce4bhkp2rcd13ifvqgd0","pricing_plan_id":"free"},{"bike_id":"0780890a-bd82-4ad0-bd67-080a2f503c60","system_id":"levelo_inurba_marseille","lat":43.25721,"lon":5.4111,"is_reserved":false,"is_disabled":false,"rental_uris":{"android":"levelo://app?vid=0780890a-bd82-4ad0-bd67-080a2f503c60","ios":"levelo://app?vid=0780890a-bd82-4ad0-bd67-080a2f503c60"},"vehicle_type_id":"4","last_reported":1700672828,"current_range_meters":23600,"station_id":"ce4bhkp2rcd13ifvqgd0","pricing_plan_id":"free"},{"bike_id":"6f72cdd2-f8a2-47fe-b199-4217ad328168","system_id":"levelo_inurba_marseille","lat":43.2479,"lon":5.374457,"is_reserved":false,"is_disabled":false,"rental_uris":{"android":"levelo://app?vid=6f72cdd2-f8a2-47fe-b199-4217ad328168","ios":"levelo://app?vid=6f72cdd2-f8a2-47fe-b199-4217ad328168"},"vehicle_type_id":"4","last_reported":1700672828,"current_range_meters":18800,"station_id":"ce4bhgh2rcd13ifvqfb0","pricing_plan_id":"free"},{"bike_id":"7a3e1a02-f295-4037-9700-5fd4f668f48e","system_id":"levelo_inurba_marseille","lat":43.25089,"lon":5.39523,"is_reserved":false,"is_disabled":false,"rental_uris":{"android":"levelo://app?vid=7a3e1a02-f295-4037-9700-5fd4f668f48e","ios":"levelo://app?vid=7a3e1a02-f295-4037-9700-5fd4f668f48e"},"vehicle_type_id":"4","last_reported":1700672828,"current_range_meters":23600,"station_id":"ce4bhm12rcd13ifvqgkg","pricing_plan_id":"free"},{"bike_id":"ccc04417-15d9-4a08-924c-087f824b274b","system_id":"levelo_inurba_marseille","lat":43.24693,"lon":5.382096,"is_reserved":false,"is_disabled":false,"rental_uris":{"android":"levelo://app?vid=ccc04417-15d9-4a08-924c-087f824b274b","ios":"levelo://app?vid=ccc04417-15d9-4a08-924c-087f824b274b"},"vehicle_type_id":"4","last_reported":1700672828,"current_range_meters":8800,"station_id":"ce4bhih2rcd13ifvqfr0","pricing_plan_id":"free"},{"bike_id":"e018dbcb-2325-4e8b-a1cf-fd763f38f4ba","system_id":"levelo_inurba_marseille","lat":43.25102,"lon":5.403214,"is_reserved":false,"is_disabled":false,"rental_uris":{"android":"levelo://app?vid=e018dbcb-2325-4e8b-a1cf-fd763f38f4ba","ios":"levelo://app?vid=e018dbcb-2325-4e8b-a1cf-fd763f38f4ba"},"vehicle_type_id":"4","last_reported":1700672828,"current_range_meters":20400,"station_id":"ce4bhlh2rcd13ifvqgig","pricing_plan_id":"free"},{"bike_id":"1096a864-0c99-4083-aab5-6066b4b7b434","system_id":"levelo_inurba_marseille","lat":43.25102,"lon":5.403214,"is_reserved":false,"is_disabled":false,"rental_uris":{"android":"levelo://app?vid=1096a864-0c99-4083-aab5-6066b4b7b434","ios":"levelo://app?vid=1096a864-0c99-4083-aab5-6066b4b7b434"},"vehicle_type_id":"4","last_reported":1700672828,"current_range_meters":2000,"station_id":"ce4bhlh2rcd13ifvqgig","pricing_plan_id":"free"},{"bike_id":"f4cdfbc5-ca0a-4fcd-88ad-cd298716ec43","system_id":"levelo_inurba_marseille","lat":43.246461,"lon":5.389014,"is_reserved":false,"is_disabled":false,"rental_uris":{"android":"levelo://app?vid=f4cdfbc5-ca0a-4fcd-88ad-cd298716ec43","ios":"levelo://app?vid=f4cdfbc5-ca0a-4fcd-88ad-cd298716ec43"},"vehicle_type_id":"4","last_reported":1700672828,"current_range_meters":13200,"station_id":"ce4bhg12rcd13ifvqf60","pricing_plan_id":"free"},{"bike_id":"dcbc4953-c5d2-4887-a1d0-01bfe4987135","system_id":"levelo_inurba_marseille","lat":43.240623,"lon":5.377642,"is_reserved":false,"is_disabled":false,"rental_uris":{"android":"levelo://app?vid=dcbc4953-c5d2-4887-a1d0-01bfe4987135","ios":"levelo://app?vid=dcbc4953-c5d2-4887-a1d0-01bfe4987135"},"vehicle_type_id":"4","last_reported":1700672828,"current_range_meters":29200,"station_id":"ce4bhnp2rcd13ifvqgvg","pricing_plan_id":"free"},{"bike_id":"2deb21a3-cdc4-4ee6-910f-51b1a1d3a66a","system_id":"levelo_inurba_marseille","lat":43.24073,"lon":5.37759,"is_reserved":false,"is_disabled":false,"rental_uris":{"android":"levelo://app?vid=2deb21a3-cdc4-4ee6-910f-51b1a1d3a66a","ios":"levelo://app?vid=2deb21a3-cdc4-4ee6-910f-51b1a1d3a66a"},"vehicle_type_id":"4","last_reported":1700672828,"current_range_meters":18000,"station_id":"ce4bhnp2rcd13ifvqgvg","pricing_plan_id":"free"},{"bike_id":"5a1ba83b-8198-4f26-837c-2fad3ab381eb","system_id":"levelo_inurba_marseille","lat":43.25268,"lon":5.42273,"is_reserved":false,"is_disabled":false,"rental_uris":{"android":"levelo://app?vid=5a1ba83b-8198-4f26-837c-2fad3ab381eb","ios":"levelo://app?vid=5a1ba83b-8198-4f26-837c-2fad3ab381eb"},"vehicle_type_id":"4","last_reported":1700672828,"current_range_meters":5200,"station_id":"","pricing_plan_id":"free"},{"bike_id":"51b24961-6474-4bc2-a40d-b7de8dd18fec","system_id":"levelo_inurba_marseille","lat":43.240623,"lon":5.377642,"is_reserved":false,"is_disabled":false,"rental_uris":{"android":"levelo://app?vid=51b24961-6474-4bc2-a40d-b7de8dd18fec","ios":"levelo://app?vid=51b24961-6474-4bc2-a40d-b7de8dd18fec"},"vehicle_type_id":"4","last_reported":1700672828,"current_range_meters":5200,"station_id":"ce4bhnp2rcd13ifvqgvg","pricing_plan_id":"free"},{"bike_id":"c1aa93e7-d123-45b7-97f3-a0a31f9410c8","system_id":"levelo_inurba_marseille","lat":43.239588,"lon":5.366238,"is_reserved":false,"is_disabled":false,"rental_uris":{"android":"levelo://app?vid=c1aa93e7-d123-45b7-97f3-a0a31f9410c8","ios":"levelo://app?vid=c1aa93e7-d123-45b7-97f3-a0a31f9410c8"},"vehicle_type_id":"4","last_reported":1700672828,"current_range_meters":9200,"station_id":"ce4bhi12rcd13ifvqfp0","pricing_plan_id":"free"},{"bike_id":"6e26d676-c93f-432e-9284-f4fe489a12c9","system_id":"levelo_inurba_marseille","lat":43.241782,"lon":5.397261,"is_reserved":false,"is_disabled":false,"rental_uris":{"android":"levelo://app?vid=6e26d676-c93f-432e-9284-f4fe489a12c9","ios":"levelo://app?vid=6e26d676-c93f-432e-9284-f4fe489a12c9"},"vehicle_type_id":"4","last_reported":1700672828,"current_range_meters":6000,"station_id":"ce4bhn12rcd13ifvqgpg","pricing_plan_id":"free"},{"bike_id":"a4848e8e-2f71-4e6c-ac3c-01fb65ff240d","system_id":"levelo_inurba_marseille","lat":43.23196,"lon":5.35548,"is_reserved":false,"is_disabled":false,"rental_uris":{"android":"levelo://app?vid=a4848e8e-2f71-4e6c-ac3c-01fb65ff240d","ios":"levelo://app?vid=a4848e8e-2f71-4e6c-ac3c-01fb65ff240d"},"vehicle_type_id":"4","last_reported":1700672828,"current_range_meters":2000,"station_id":"ce4bhu92rcd13ifvqi70","pricing_plan_id":"free"},{"bike_id":"a2de7bbb-1b41-441f-a8d5-3f3e61ace3c7","system_id":"levelo_inurba_marseille","lat":43.231919,"lon":5.355532,"is_reserved":false,"is_disabled":false,"rental_uris":{"android":"levelo://app?vid=a2de7bbb-1b41-441f-a8d5-3f3e61ace3c7","ios":"levelo://app?vid=a2de7bbb-1b41-441f-a8d5-3f3e61ace3c7"},"vehicle_type_id":"4","last_reported":1700672828,"current_range_meters":19200,"station_id":"ce4bhu92rcd13ifvqi70","pricing_plan_id":"free"},{"bike_id":"4df5da56-d7f8-44fc-968a-f88f05c9c899","system_id":"levelo_inurba_marseille","lat":43.231919,"lon":5.355532,"is_reserved":false,"is_disabled":false,"rental_uris":{"android":"levelo://app?vid=4df5da56-d7f8-44fc-968a-f88f05c9c899","ios":"levelo://app?vid=4df5da56-d7f8-44fc-968a-f88f05c9c899"},"vehicle_type_id":"4","last_reported":1700672828,"current_range_meters":29600,"station_id":"ce4bhu92rcd13ifvqi70","pricing_plan_id":"free"},{"bike_id":"03510ac4-47fa-408f-8a51-bec4b93cac90","system_id":"levelo_inurba_marseille","lat":43.231923,"lon":5.355545,"is_reserved":false,"is_disabled":false,"rental_uris":{"android":"levelo://app?vid=03510ac4-47fa-408f-8a51-bec4b93cac90","ios":"levelo://app?vid=03510ac4-47fa-408f-8a51-bec4b93cac90"},"vehicle_type_id":"4","last_reported":1700672828,"current_range_meters":30000,"station_id":"ce4bhu92rcd13ifvqi70","pricing_plan_id":"free"},{"bike_id":"76f48143-0fd7-42d0-85b8-80e7fcf987a7","system_id":"levelo_inurba_marseille","lat":43.231919,"lon":5.355532,"is_reserved":false,"is_disabled":false,"rental_uris":{"android":"levelo://app?vid=76f48143-0fd7-42d0-85b8-80e7fcf987a7","ios":"levelo://app?vid=76f48143-0fd7-42d0-85b8-80e7fcf987a7"},"vehicle_type_id":"4","last_reported":1700672828,"current_range_meters":27600,"station_id":"ce4bhu92rcd13ifvqi70","pricing_plan_id":"free"},{"bike_id":"629cdd66-158d-4c28-849c-447b83f6ce32","system_id":"levelo_inurba_marseille","lat":43.231923,"lon":5.355545,"is_reserved":false,"is_disabled":false,"rental_uris":{"android":"levelo://app?vid=629cdd66-158d-4c28-849c-447b83f6ce32","ios":"levelo://app?vid=629cdd66-158d-4c28-849c-447b83f6ce32"},"vehicle_type_id":"4","last_reported":1700672828,"current_range_meters":31600,"station_id":"ce4bhu92rcd13ifvqi70","pricing_plan_id":"free"},{"bike_id":"f1786f3c-f430-46ec-8a18-42215879ae46","system_id":"levelo_inurba_marseille","lat":43.231793,"lon":5.400044,"is_reserved":false,"is_disabled":false,"rental_uris":{"android":"levelo://app?vid=f1786f3c-f430-46ec-8a18-42215879ae46","ios":"levelo://app?vid=f1786f3c-f430-46ec-8a18-42215879ae46"},"vehicle_type_id":"4","last_reported":1700672828,"current_range_meters":2400,"station_id":"ce4bhn12rcd13ifvqgqg","pricing_plan_id":"free"},