{"last_updated":1743405025,"ttl":60,"version":"2.2","data":{"bikes":[{"bike_id":"bf17571e-7669-4f0a-bf19-b2b9a832f573","system_id":"levelo_inurba_marseille","lat":43.29039,"lon":5.39958,"is_reserved":false,"is_disabled":false,"rental_uris":{"android":"levelo://app?vid=bf17571e-7669-4f0a-bf19-b2b9a832f573","ios":"levelo://app?vid=bf17571e-7669-4f0a-bf19-b2b9a832f573"},"vehicle_type_id":"4","last_reported":1743405025,"current_range_meters":2800,"station_id":"ce4bh392rcd13ifvqdm0","pricing_plan_id":"cebpf4jnsgd1na2vs0mg"},{"bike_id":"61840e18-5848-43ad-b38b-4fe246865ad0","system_id":"levelo_inurba_marseille","lat":43.30574,"lon":5.37621,"is_reserved":false,"is_disabled":true,"rental_uris":{"android":"levelo://app?vid=61840e18-5848-43ad-b38b-4fe246865ad0","ios":"levelo://app?vid=61840e18-5848-43ad-b38b-4fe246865ad0"},"vehicle_type_id":"4","last_reported":1743405025,"current_range_meters":2800,"station_id":"","pricing_plan_id":"cebpf4jnsgd1na2vs0mg"},{"bike_id":"d4aecc54-cc06-4c16-8463-0d487303007d","system_id":"levelo_inurba_marseille","lat":43.29778,"lon":5.38115,"is_reserved":false,"is_disabled":true,"rental_uris":{"android":"levelo://app?vid=d4aecc54-cc06-4c16-8463-0d487303007d","ios":"levelo://app?vid=d4aecc54-cc06-4c16-8463-0d487303007d"},"vehicle_type_id":"4","last_reported":1743405025,"current_range_meters":2800,"station_id":"ce4bgip2rcd13ifvqbb0","pricing_plan_id":"cebpf4jnsgd1na2vs0mg"},{"bike_id":"e4023b76-3b3e-4e0a-83d8-f1f2c86a9a1a","system_id":"levelo_inurba_marseille","lat":43.25084,"lon":5.39515,"is_reserved":false,"is_disabled":false,"rental_uris":{"android":"levelo://app?vid=e4023b76-3b3e-4e0a-83d8-f1f2c86a9a1a","ios":"levelo://app?vid=e4023b76-3b3e-4e0a-83d8-f1f2c86a9a1a"},"vehicle_type_id":"4","last_reported":1743405025,"current_range_meters":2800,"station_id":"ce4bhm12rcd13ifvqgkg","pricing_plan_id":"cebpf4jnsgd1na2vs0mg"},{"bike_id":"4fbdab4b-a918-4060-9a26-9c6ef9bff64b","system_id":"levelo_inurba_marseille","lat":43.288435,"lon":5.393158,"is_reserved":false,"is_disabled":false,"rental_uris":{"android":"levelo://app?vid=4fbdab4b-a918-4060-9a26-9c6ef9bff64b","ios":"levelo://app?vid=4fbdab4b-a918-4060-9a26-9c6ef9bff64b"},"vehicle_type_id":"4","last_reported":1743405025,"current_range_meters":2800,"station_id":"ce4bh2p2rcd13ifvqdi0","pricing_plan_id":"cebpf4jnsgd1na2vs0mg"},{"bike_id":"a0877a99-dff5-4bb5-9a72-6d3f9e9b6583","system_id":"levelo_inurba_marseille","lat":43.24051,"lon":5.37751,"is_reserved":false,"is_disabled":false,"rental_uris":{"android":"levelo://app?vid=a0877a99-dff5-4bb5-9a72-6d3f9e9b6583","ios":"levelo://app?vid=a0877a99-dff5-4bb5-9a72-6d3f9e9b6583"},"vehicle_type_id":"4","last_reported":1743405025,"current_range_meters":2800,"station_id":"ce4bhnp2rcd13ifvqgvg","pricing_plan_id":"cebpf4jnsgd1na2vs0mg"},{"bike_id":"1b48688e-72a1-46b9-afa7-9ab19f40c968","system_id":"levelo_inurba_marseille","lat":43.30521,"lon":5.36711,"is_reserved":false,"is_disabled":false,"rental_uris":{"android":"levelo://app?vid=1b48688e-72a1-46b9-afa7-9ab19f40c968","ios":"levelo://app?vid=1b48688e-72a1-46b9-afa7-9ab19f40c968"},"vehicle_type_id":"4","last_reported":1743405025,"current_range_meters":2800,"station_id":"ce4bgrp2rcd13ifvqc9g","pricing_plan_id":"cebpf4jnsgd1na2vs0mg"},{"bike_id":"4ac85f9e-5b07-4e93-b0ae-477825bffb27","system_id":"levelo_inurba_marseille","lat":43.23205,"lon":5.35582,"is_reserved":false,"is_disabled":false,"rental_uris":{"android":"levelo://app?vid=4ac85f9e-5b07-4e93-b0ae-477825bffb27","ios":"levelo://app?vid=4ac85f9e-5b07-4e93-b0ae-477825bffb27"},"vehicle_type_id":"4","last_reported":1743405025,"current_range_meters":2800,"station_id":"ce4bhu92rcd13ifvqi70","pricing_plan_id":"cebpf4jnsgd1na2vs0mg"},{"bike_id":"b057bbd7-940b-462c-a27c-4da282e29b91","system_id":"levelo_inurba_marseille","lat":43.28714,"lon":5.37943,"is_reserved":false,"is_disabled":false,"rental_uris":{"android":"levelo://app?vid=b057bbd7-940b-462c-a27c-4da282e29b91","ios":"levelo://app?vid=b057bbd7-940b-462c-a27c-4da282e29b91"},"vehicle_type_id":"4","last_reported":1743405025,"current_range_meters":2800,"station_id":"ce4bh9p2rcd13ifvqec0","pricing_plan_id":"cebpf4jnsgd1na2vs0mg"},{"bike_id":"62811a8c-a5ee-4b0e-992d-ff97db10838b","system_id":"levelo_inurba_marseille","lat":43.30163,"lon":5.38094,"is_reserved":false,"is_disabled":false,"rental_uris":{"android":"levelo://app?vid=62811a8c-a5ee-4b0e-992d-ff97db10838b","ios":"levelo://app?vid=62811a8c-a5ee-4b0e-992d-ff97db10838b"},"vehicle_type_id":"4","last_reported":1743405025,"current_range_meters":2800,"station_id":"ce4bgjp2rcd13ifvqbh0","pricing_plan_id":"cebpf4jnsgd1na2vs0mg"},{"bike_id":"5c738bdc-119e-4d5c-82e2-be34a66a3acb","system_id":"levelo_inurba_marseille","lat":43.30535,"lon":5.3672,"is_reserved":false,"is_disabled":false,"rental_uris":{"android":"levelo://app?vid=5c738bdc-119e-4d5c-82e2-be34a66a3acb","ios":"levelo://app?vid=5c738bdc-119e-4d5c-82e2-be34a66a3acb"},"vehicle_type_id":"4","last_reported":1743405025,"current_range_meters":3200,"station_id":"ce4bgrp2rcd13ifvqc9g","pricing_plan_id":"cebpf4jnsgd1na2vs0mg"},{"bike_id":"b2c26495-a4d3-409e-bc88-a3aacea6e4b7","system_id":"levelo_inurba_marseille","lat":43.29046,"lon":5.39982,"is_reserved":false,"is_disabled":false,"rental_uris":{"android":"levelo://app?vid=b2c26495-a4d3-409e-bc88-a3aacea6e4b7","ios":"levelo://app?vid=b2c26495-a4d3-409e-bc88-a3aacea6e4b7"},"vehicle_type_id":"4","last_reported":1743405025,"current_range_meters":3200,"station_id":"ce4bh392rcd13ifvqdm0","pricing_plan_id":"cebpf4jnsgd1na2vs0mg"},{"bike_id":"5a3307a6-54ca-44bc-a5fd-ab80751e6464","system_id":"levelo_inurba_marseille","lat":43.23191,"lon":5.40006,"is_reserved":false,"is_disabled":false,"rental_uris":{"android":"levelo://app?vid=5a3307a6-54ca-44bc-a5fd-ab80751e6464","ios":"levelo://app?vid=5a3307a6-54ca-44bc-a5fd-ab80751e6464"},"vehicle_type_id":"4","last_reported":1743405025,"current_range_meters":3200,"station_id":"ce4bhn12rcd13ifvqgqg","pricing_plan_id":"cebpf4jnsgd1na2vs0mg"},{"bike_id":"ea786065-4ef5-493c-9091-ea4c0c30465b","system_id":"levelo_inurba_marseille","lat":43.24167,"lon":5.36404,"is_reserved":false,"is_disabled":false,"rental_uris":{"android":"levelo://app?vid=ea786065-4ef5-493c-9091-ea4c0c30465b","ios":"levelo://app?vid=ea786065-4ef5-493c-9091-ea4c0c30465b"},"vehicle_type_id":"4","last_reported":1743405025,"current_range_meters":3200,"station_id":"cpo36qri1sfpv3e86is0","pricing_plan_id":"cebpf4jnsgd1na2vs0mg"},{"bike_id":"3da3a2dd-b3db-4471-973f-a3a1429a0984","system_id":"levelo_inurba_marseille","lat":43.3091,"lon":5.3685,"is_reserved":false,"is_disabled":false,"rental_uris":{"android":"levelo://app?vid=3da3a2dd-b3db-4471-973f-a3a1429a0984","ios":"levelo://app?vid=3da3a2dd-b3db-4471-973f-a3a1429a0984"},"vehicle_type_id":"4","last_reported":1743405025,"current_range_meters":3600,"station_id":"ce4bgn92rcd13ifvqbvg","pricing_plan_id":"cebpf4jnsgd1na2vs0mg"},{"bike_id":"e8fbdffc-3afa-4fb0-b0f2-014bfcb8ce0a","system_id":"levelo_inurba_marseille","lat":43.30173,"lon":5.38075,"is_reserved":false,"is_disabled":false,"rental_uris":{"android":"levelo://app?vid=e8fbdffc-3afa-4fb0-b0f2-014bfcb8ce0a","ios":"levelo://app?vid=e8fbdffc-3afa-4fb0-b0f2-014bfcb8ce0a"},"vehicle_type_id":"4","last_reported":1743405025,"current_range_meters":3600,"station_id":"ce4bgjp2rcd13ifvqbh0","pricing_plan_id":"cebpf4jnsgd1na2vs0mg"},{"bike_id":"d578fb11-fc7b-4bc7-adaa-e82bc393d171","system_id":"levelo_inurba_marseille","lat":43.267214,"lon":5.382158,"is_reserved":false,"is_disabled":false,"rental_uris":{"android":"levelo://app?vid=d578fb11-fc7b-4bc7-adaa-e82bc393d171","ios":"levelo://app?vid=d578fb11-fc7b-4bc7-adaa-e82bc393d171"},"vehicle_type_id":"4","last_reported":1743405025,"current_range_meters":3600,"station_id":"ce4bhg92rcd13ifvqf90","pricing_plan_id":"cebpf4jnsgd1na2vs0mg"},{"bike_id":"ca7d3dbc-32a0-4079-a061-313befb75175","system_id":"levelo_inurba_marseille","lat":43.30143,"lon":5.3741,"is_reserved":false,"is_disabled":false,"rental_uris":{"android":"levelo://app?vid=ca7d3dbc-32a0-4079-a061-313befb75175","ios":"levelo://app?vid=ca7d3dbc-32a0-4079-a061-313befb75175"},"vehicle_type_id":"4","last_reported":1743405025,"current_range_meters":3600,"station_id":"ce4bgs92rcd13ifvqcc0","pricing_plan_id":"cebpf4jnsgd1na2vs0mg"},{"bike_id":"0a9b1353-fabf-415d-8ac0-6752a0dc2c2f","system_id":"levelo_inurba_marseille","lat":43.30537,"lon":5.36729,"is_reserved":false,"is_disabled":false,"rental_uris":{"android":"levelo://app?vid=0a9b1353-fabf-415d-8ac0-6752a0dc2c2f","ios":"levelo://app?vid=0a9b1353-fabf-415d-8ac0-6752a0dc2c2f"},"vehicle_type_id":"4","last_reported":1743405025,"current_range_meters":3600,"station_id":"ce4bgrp2rcd13ifvqc9g","pricing_plan_id":"cebpf4jnsgd1na2vs0mg"},{"bike_id":"67d6fc48-472c-44c1-85e1-a2145f2244ca","system_id":"levelo_inurba_marseille","lat":43.30883,"lon":5.36757,"is_reserved":false,"is_disabled":true,"rental_uris":{"android":"levelo://app?vid=67d6fc48-472c-44c1-85e1-a2145f2244ca","ios":"levelo://app?vid=67d6fc48-472c-44c1-85e1-a2145f2244ca"},"vehicle_type_id":"4","last_reported":1743405025,"current_range_meters":3600,"station_id":"","pricing_plan_id":"cebpf4jnsgd1na2vs0mg"},{"bike_id":"f3e5cbbe-9dbb-4227-b0cb-8908e4fae084","system_id":"levelo_inurba_marseille","lat":43.310559,"lon":5.366845,"is_reserved":false,"is_disabled":false,"rental_uris":{"android":"levelo://app?vid=f3e5cbbe-9dbb-4227-b0cb-8908e4fae084","ios":"levelo://app?vid=f3e5cbbe-9dbb-4227-b0cb-8908e4fae084"},"vehicle_type_id":"4","last_reported":1743405025,"current_range_meters":4000,"station_id":"ce4bgl92rcd13ifvqbq0","pricing_plan_id":"cebpf4jnsgd1na2vs0mg"},{"bike_id":"0495aac0-4dc9-4278-bcb6-7440702196aa","system_id":"levelo_inurba_marseille","lat":43.24182,"lon":5.39712,"is_reserved":false,"is_disabled":false,"rental_uris":{"android":"levelo://app?vid=0495aac0-4dc9-4278-bcb6-7440702196aa","ios":"levelo://app?vid=0495aac0-4dc9-4278-bcb6-7440702196aa"},"vehicle_type_id":"4","last_reported":1743405025,"current_range_meters":4000,"station_id":"ce4bhn12rcd13ifvqgpg","pricing_plan_id":"cebpf4jnsgd1na2vs0mg"},{"bike_id":"2bae8e94-950b-4bc0-8b70-ffde5306c252","system_id":"levelo_inurba_marseille","lat":43.29968,"lon":5.37164,"is_reserved":false,"is_disabled":false,"rental_uris":{"android":"levelo://app?vid=2bae8e94-950b-4bc0-8b70-ffde5306c252","ios":"levelo://app?vid=2bae8e94-950b-4bc0-8b70-ffde5306c252"},"vehicle_type_id":"4","last_reported":1743405025,"current_range_meters":4000,"station_id":"ce4bgr92rcd13ifvqc7g","pricing_plan_id":"cebpf4jnsgd1na2vs0mg"},{"bike_id":"f5d9b6dc-40ed-4f47-b356-0a9bf2dc774a","system_id":"levelo_inurba_marseille","lat":43.27518,"lon":5.42483,"is_reserved":false,"is_disabled":false,"rental_uris":{"android":"levelo://app?vid=f5d9b6dc-40ed-4f47-b356-0a9bf2dc774a","ios":"levelo://app?vid=f5d9b6dc-40ed-4f47-b356-0a9bf2dc774a"},"vehicle_type_id":"4","last_reported":1743405025,"current_range_meters":4000,"station_id":"ce4bhn92rcd13ifvqgrg","pricing_plan_id":"cebpf4jnsgd1na2vs0mg"},{"bike_id":"e6221e6c-df7a-409d-8964-45498de67289","system_id":"levelo_inurba_marseille","lat":43.27373,"lon":5.3624,"is_reserved":false,"is_disabled":false,"rental_uris":{"android":"levelo://app?vid=e6221e6c-df7a-409d-8964-45498de67289","ios":"levelo://app?vid=e6221e6c-df7a-409d-8964-45498de67289"},"vehicle_type_id":"4","last_reported":1743405025,"current_range_meters":3600,"station_id":"ce4bhbh2rcd13ifvqeo0","pricing_plan_id":"cebpf4jnsgd1na2vs0mg"},{"bike_id":"d3bb75b4-7d25-4b3b-a25b-6c750eb6b306","system_id":"levelo_inurba_marseille","lat":43.29003,"lon":5.3561,"is_reserved":false,"is_disabled":false,"rental_uris":{"android":"levelo://app?vid=d3bb75b4-7d25-4b3b-a25b-6c750eb6b306","ios":"levelo://app?vid=d3bb75b4-7d25-4b3b-a25b-6c750eb6b306"},"vehicle_type_id":"4","last_reported":1743405025,"current_range_meters":4400,"station_id":"ce4bhb92rcd13ifvqen0","pricing_plan_id":"cebpf4jnsgd1na2vs0mg"},{"bike_id":"e37745d3-0454-4e90-a100-c016315534d5","system_id":"levelo_inurba_marseille","lat":43.24072,"lon":5.37754,"is_reserved":false,"is_disabled":false,"rental_uris":{"android":"levelo://app?vid=e37745d3-0454-4e90-a100-c016315534d5","ios":"levelo://app?vid=e37745d3-0454-4e90-a100-c016315534d5"},"vehicle_type_id":"4","last_reported":1743405025,"current_range_meters":4400,"station_id":"ce4bhnp2rcd13ifvqgvg","pricing_plan_id":"cebpf4jnsgd1na2vs0mg"},{"bike_id":"96ac20e8-5840-4579-b371-184ec6253952","system_id":"levelo_inurba_marseille","lat":43.27491,"lon":5.41159,"is_reserved":false,"is_disabled":false,"rental_uris":{"android":"levelo://app?vid=96ac20e8-5840-4579-b371-184ec6253952","ios":"levelo://app?vid=96ac20e8-5840-4579-b371-184ec6253952"},"vehicle_type_id":"4","last_reported":1743405025,"current_range_meters":4400,"station_id":"","pricing_plan_id":"cebpf4jnsgd1na2vs0mg"},{"bike_id":"01a84e01-1327-4937-8d6c-77727be81c98","system_id":"levelo_inurba_marseille","lat":43.28337,"lon":5.38107,"is_reserved":false,"is_disabled":false,"rental_uris":{"android":"levelo://app?vid=01a84e01-1327-4937-8d6c-77727be81c98","ios":"levelo://app?vid=01a84e01-1327-4937-8d6c-77727be81c98"},"vehicle_type_id":"4","last_reported":1743405025,"current_range_meters":4000,"station_id":"ce4bh412rcd13ifvqdr0","pricing_plan_id":"cebpf4jnsgd1na2vs0mg"},{"bike_id":"4dd45f49-d275-4d2d-b375-f5f9b3521828","system_id":"levelo_inurba_marseille","lat":43.29267,"lon":5.37626,"is_reserved":false,"is_disabled":false,"rental_uris":{"android":"levelo://app?vid=4dd45f49-d275-4d2d-b375-f5f9b3521828","ios":"levelo://app?vid=4dd45f49-d275-4d2d-b375-f5f9b3521828"},"vehicle_type_id":"4","last_reported":1743405025,"current_range_meters":4400,"station_id":"ce4bgi12rcd13ifvqb80","pricing_plan_id":"cebpf4jnsgd1na2vs0mg"},{"bike_id":"37f41d5f-3983-4db2-8781-c345307ed7b9","system_id":"levelo_inurba_marseille","lat":43.27506,"lon":5.42454,"is_reserved":false,"is_disabled":false,"rental_uris":{"android":"levelo://app?vid=37f41d5f-3983-4db2-8781-c345307ed7b9","ios":"levelo://app?vid=37f41d5f-3983-4db2-8781-c345307ed7b9"},"vehicle_type_id":"4","last_reported":1743405025,"current_range_meters":4400,"station_id":"ce4bhn92rcd13ifvqgrg","pricing_plan_id":"cebpf4jnsgd1na2vs0mg"},{"bike_id":"43a865dc-63e2-4593-aebd-f2208a5bca2e","system_id":"levelo_inurba_marseille","lat":43.30781,"lon":5.38166,"is_reserved":false,"is_disabled":false,"rental_uris":{"android":"levelo://app?vid=43a865dc-63e2-4593-aebd-f2208a5bca2e","ios":"levelo://app?vid=43a865dc-63e2-4593-aebd-f2208a5bca2e"},"vehicle_type_id":"4","last_reported":1743405025,"current_range_meters":4400,"station_id":"ce4bgt12rcd13ifvqce0","pricing_plan_id":"cebpf4jnsgd1na2vs0mg"},{"bike_id":"a64d7ede-1827-4da0-a6f3-161fac716329","system_id":"levelo_inurba_marseille","lat":43.26947,"lon":5.40261,"is_reserved":false,"is_disabled":false,"rental_uris":{"android":"levelo://app?vid=a64d7ede-1827-4da0-a6f3-161fac716329","ios":"levelo://app?vid=a64d7ede-1827-4da0-a6f3-161fac716329"},"vehicle_type_id":"4","last_reported":1743405025,"current_range_meters":4800,"station_id":"cjm6bp8fraef2m0cb0m0","pricing_plan_id":"cebpf4jnsgd1na2vs0mg"},{"bike_id":"488767ae-a52a-41d7-8f9a-e947164469f3","system_id":"levelo_inurba_marseille","lat":43.31624,"lon":5.41652,"is_reserved":false,"is_disabled":true,"rental_uris":{"android":"levelo://app?vid=488767ae-a52a-41d7-8f9a-e947164469f3","ios":"levelo://app?vid=488767ae-a52a-41d7-8f9a-e947164469f3"},"vehicle_type_id":"4","last_reported":1743405025,"current_range_meters":4800,"station_id":"","pricing_plan_id":"cebpf4jnsgd1na2vs0mg"},{"bike_id":"f62f38bb-09ed-4e08-88a8-f6f114fabcfa","system_id":"levelo_inurba_marseille","lat":43.3047,"lon":5.37914,"is_reserved":false,"is_disabled":false,"rental_uris":{"android":"levelo://app?vid=f62f38bb-09ed-4e08-88a8-f6f114fabcfa","ios":"levelo://app?vid=f62f38bb-09ed-4e08-88a8-f6f114fabcfa"},"vehicle_type_id":"4","last_reported":1743405025,"current_range_meters":4800,"station_id":"ce4bgup2rcd13ifvqcn0","pricing_plan_id":"cebpf4jnsgd1na2vs0mg"},{"bike_id":"2347dd45-7dbc-492b-9fef-21927ca890d6","system_id":"levelo_inurba_marseille","lat":43.24078,"lon":5.37769,"is_reserved":false,"is_disabled":false,"rental_uris":{"android":"levelo://app?vid=2347dd45-7dbc-492b-9fef-21927ca890d6","ios":"levelo://app?vid=2347dd45-7dbc-492b-9fef-21927ca890d6"},"vehicle_type_id":"4","last_reported":1743405025,"current_range_meters":4800,"station_id":"ce4bhnp2rcd13ifvqgvg","pricing_plan_id":"cebpf4jnsgd1na2vs0mg"},{"bike_id":"dd89f712-29a5-410b-9b78-8952860bad89","system_id":"levelo_inurba_marseille","lat":43.29035,"lon":5.37564,"is_reserved":false,"is_disabled":false,"rental_uris":{"android":"levelo://app?vid=dd89f712-29a5-410b-9b78-8952860bad89","ios":"levelo://app?vid=dd89f712-29a5-410b-9b78-8952860bad89"},"vehicle_type_id":"4","last_reported":1743405025,"current_range_meters":5600,"station_id":"ce4bh692rcd13ifvqe90","pricing_plan_id":"cebpf4jnsgd1na2vs0mg"},{"bike_id":"42bc7b23-0e2f-4d72-b583-40bcdabb28c7","system_id":"levelo_inurba_marseille","lat":43.29543,"lon":5.3738,"is_reserved":false,"is_disabled":true,"rental_uris":{"android":"levelo://app?vid=42bc7b23-0e2f-4d72-b583-40bcdabb28c7","ios":"levelo://app?vid=42bc7b23-0e2f-4d72-b583-40bcdabb28c7"},"vehicle_type_id":"4","last_reported":1743405025,"current_range_meters":5600,"station_id":"","pricing_plan_id":"cebpf4jnsgd1na2vs0mg"},{"bike_id":"4a2ce3e2-6764-4f8c-9b3c-cb735642bf0e","system_id":"levelo_inurba_marseille","lat":43.31343,"lon":5.36714,"is_reserved":false,"is_disabled":false,"rental_uris":{"android":"levelo://app?vid=4a2ce3e2-6764-4f8c-9b3c-cb735642bf0e","ios":"levelo://app?vid=4a2ce3e2-6764-4f8c-9b3c-cb735642bf0e"},"vehicle_type_id":"4","last_reported":1743405025,"current_range_meters":5600,"station_id":"ce4bgr92rcd13ifvqc6g","pricing_plan_id":"cebpf4jnsgd1na2vs0mg"},{"bike_id":"ad0dcdb8-2fef-4f97-be96-f63a93e62e4f","system_id":"levelo_inurba_marseille","lat":43.32548,"lon":5.41448,"is_reserved":false,"is_disabled":false,"rental_uris":{"android":"levelo://app?vid=ad0dcdb8-2fef-4f97-be96-f63a93e62e4f","ios":"levelo://app?vid=ad0dcdb8-2fef-4f97-be96-f63a93e62e4f"},"vehicle_type_id":"4","last_reported":1743405025,"current_range_meters":5600,"station_id":"ce4bhq12rcd13ifvqhhg","pricing_plan_id":"cebpf4jnsgd1na2vs0mg"},{"bike_id":"3d8bfdcd-f02a-4cf0-a3e2-14a8eeef49a5","system_id":"levelo_inurba_marseille","lat":43.29626,"lon":5.37741,"is_reserved":false,"is_disabled":false,"rental_uris":{"android":"levelo://app?vid=3d8bfdcd-f02a-4cf0-a3e2-14a8eeef49a5","ios":"levelo://app?vid=3d8bfdcd-f02a-4cf0-a3e2-14a8eeef49a5"},"vehicle_type_id":"4","last_reported":1743405025,"current_range_meters":5600,"station_id":"ce4bgi92rcd13ifvqb90","pricing_plan_id":"cebpf4jnsgd1na2vs0mg"},{"bike_id":"d0ed36b4-3c5a-4da6-8fb4-955c321dd03a","system_id":"levelo_inurba_marseille","lat":43.275134,"lon":5.410277,"is_reserved":false,"is_disabled":false,"rental_uris":{"android":"levelo://app?vid=d0ed36b4-3c5a-4da6-8fb4-955c321dd03a","ios":"levelo://app?vid=d0ed36b4-3c5a-4da6-8fb4-955c321dd03a"},"vehicle_type_id":"4","last_reported":1743405025,"current_range_meters":6000,"station_id":"","pricing_plan_id":"cebpf4jnsgd1na2vs0mg"},{"bike_id":"17883c73-0f61-452e-9f07-988d5933a738","system_id":"levelo_inurba_marseille","lat":43.311297,"lon":5.377541,"is_reserved":false,"is_disabled":false,"rental_uris":{"android":"levelo://app?vid=17883c73-0f61-452e-9f07-988d5933a738","ios":"levelo://app?vid=17883c73-0f61-452e-9f07-988d5933a738"},"vehicle_type_id":"4","last_reported":1743405025,"current_range_meters":6000,"station_id":"ce4bhk92rcd13ifvqgb0","pricing_plan_id":"cebpf4jnsgd1na2vs0mg"},{"bike_id":"d30569fb-0935-4b72-9c30-dd645a8607ea","system_id":"levelo_inurba_marseille","lat":43.28396,"lon":5.35007,"is_reserved":false,"is_disabled":true,"rental_uris":{"android":"levelo://app?vid=d30569fb-0935-4b72-9c30-dd645a8607ea","ios":"levelo://app?vid=d30569fb-0935-4b72-9c30-dd645a8607ea"},"vehicle_type_id":"4","last_reported":1743405025,"current_range_meters":6000,"station_id":"ce4bhbh2rcd13ifvqepg","pricing_plan_id":"cebpf4jnsgd1na2vs0mg"},{"bike_id":"3800d769-17c9-4494-95dc-dead0e353753","system_id":"levelo_inurba_marseille","lat":43.259416,"lon":5.394559,"is_reserved":false,"is_disabled":false,"rental_uris":{"android":"levelo://app?vid=3800d769-17c9-4494-95dc-dead0e353753","ios":"levelo://app?vid=3800d769-17c9-4494-95dc-dead0e353753"},"vehicle_type_id":"4","last_reported":1743405025,"current_range_meters":6000,"station_id":"ce4bhh92rcd13ifvqfh0","pricing_plan_id":"cebpf4jnsgd1na2vs0mg"},{"bike_id":"bd941b2d-2cb5-472c-998b-f4462c0a8cac","system_id":"levelo_inurba_marseille","lat":43.279,"lon":5.41091,"is_reserved":false,"is_disabled":false,"rental_uris":{"android":"levelo://app?vid=bd941b2d-2cb5-472c-998b-f4462c0a8cac","ios":"levelo://app?vid=bd941b2d-2cb5-472c-998b-f4462c0a8cac"},"vehicle_type_id":"4","last_reported":1743405025,"current_range_meters":6000,"station_id":"ce4bhnp2rcd13ifvqh0g","pricing_plan_id":"cebpf4jnsgd1na2vs0mg"},{"bike_id":"a784eb99-6d00-4af8-9248-060a6dea3440","system_id":"levelo_inurba_marseille","lat":43.24082,"lon":5.37761,"is_reserved":false,"is_disabled":false,"rental_uris":{"android":"levelo://app?vid=a784eb99-6d00-4af8-9248-060a6dea3440","ios":"levelo://app?vid=a784eb99-6d00-4af8-9248-060a6dea3440"},"vehicle_type_id":"4","last_reported":1743405025,"current_range_meters":6000,"station_id":"ce4bhnp2rcd13ifvqgvg","pricing_plan_id":"cebpf4jnsgd1na2vs0mg"},{"bike_id":"1224123f-c856-4329-bd59-1dcacd17d5ec","system_id":"levelo_inurba_marseille","lat":43.29902,"lon":5.38128,"is_reserved":false,"is_disabled":false,"rental_uris":{"android":"levelo://app?vid=1224123f-c856-4329-bd59-1dcacd17d5ec","ios":"levelo://app?vid=1224123f-c856-4329-bd59-1dcacd17d5ec"},"vehicle_type_id":"4","last_reported":1743405025,"current_range_meters":6400,"station_id":"ce4bgj12rcd13ifvqbc0","pricing_plan_id":"cebpf4jnsgd1na2vs0mg"},{"bike_id":"44e02a9c-dd91-41b7-9696-af238b0ba22f","system_id":"levelo_inurba_marseille","lat":43.26783,"lon":5.3942,"is_reserved":false,"is_disabled":false,"rental_uris":{"android":"levelo://app?vid=44e02a9c-dd91-41b7-9696-af238b0ba22f","ios":"levelo://app?vid=44e02a9c-dd91-41b7-9696-af238b0ba22f"},"vehicle_type_id":"4","last_reported":1743405025,"current_range_meters":6400,"station_id":"ce4bhh12rcd13ifvqfg0","pricing_plan_id":"cebpf4jnsgd1na2vs0mg"},{"bike_id":"5e71dd55-0f7d-421a-9d46-87de1612b0c6","system_id":"levelo_inurba_marseille","lat":43.28451,"lon":5.38513,"is_reserved":false,"is_disabled":false,"rental_uris":{"android":"levelo://app?vid=5e71dd55-0f7d-421a-9d46-87de1612b0c6","ios":"levelo://app?vid=5e71dd55-0f7d-421a-9d46-87de1612b0c6"},"vehicle_type_id":"4","last_reported":1743405025,"current_range_meters":6400,"station_id":"ce4bh8p2rcd13ifvqeb0","pricing_plan_id":"cebpf4jnsgd1na2vs0mg"},{"bike_id":"a7f18f93-fc57-4875-ac53-e7236c6e8eb0","system_id":"levelo_inurba_marseille","lat":43.291276,"lon":5.369519,"is_reserved":false,"is_disabled":false,"rental_uris":{"android":"levelo://app?vid=a7f18f93-fc57-4875-ac53-e7236c6e8eb0","ios":"levelo://app?vid=a7f18f93-fc57-4875-ac53-e7236c6e8eb0"},"vehicle_type_id":"4","last_reported":1743405025,"current_range_meters":6400,"station_id":"ce4bhah2rcd13ifvqej0","pricing_plan_id":"cebpf4jnsgd1na2vs0mg"},{"bike_id":"8485fb1d-2487-4474-b5db-e8965014aab2","system_id":"levelo_inurba_marseille","lat":43.24996,"lon":5.38932,"is_reserved":false,"is_disabled":false,"rental_uris":{"android":"levelo://app?vid=8485fb1d-2487-4474-b5db-e8965014aab2","ios":"levelo://app?vid=8485fb1d-2487-4474-b5db-e8965014aab2"},"vehicle_type_id":"4","last_reported":1743405025,"current_range_meters":6400,"station_id":"ce4bhgp2rcd13ifvqfd0","pricing_plan_id":"cebpf4jnsgd1na2vs0mg"},{"bike_id":"c4561ed7-b86f-48be-8a0f-6fcd3a34f661","system_id":"levelo_inurba_marseille","lat":43.27076,"lon":5.42282,"is_reserved":false,"is_disabled":false,"rental_uris":{"android":"levelo://app?vid=c4561ed7-b86f-48be-8a0f-6fcd3a34f661","ios":"levelo://app?vid=c4561ed7-b86f-48be-8a0f-6fcd3a34f661"},"vehicle_type_id":"4","last_reported":1743405025,"current_range_meters":6400,"station_id":"ce4bhk92rcd13ifvqgb0","pricing_plan_id":"cebpf4jnsgd1na2vs0mg"},{"bike_id":"3d559752-4124-4304-bce2-0b863e5a6dbe","system_id":"levelo_inurba_marseille","lat":43.25723,"lon":5.4112,"is_reserved":false,"is_disabled":false,"rental_uris":{"android":"levelo://app?vid=3d559752-4124-4304-bce2-0b863e5a6dbe","ios":"levelo://app?vid=3d559752-4124-4304-bce2-0b863e5a6dbe"},"vehicle_type_id":"4","last_reported":1743405025,"current_range_meters":6400,"station_id":"ce4bhkp2rcd13ifvqgd0","pricing_plan_id":"cebpf4jnsgd1na2vs0mg"},{"bike_id":"9c436fe7-e51a-4a21-a9b3-1e8564f42f14","system_id":"levelo_inurba_marseille","lat":43.29789,"lon":5.38126,"is_reserved":false,"is_disabled":false,"rental_uris":{"android":"levelo://app?vid=9c436fe7-e51a-4a21-a9b3-1e8564f42f14","ios":"levelo://app?vid=9c436fe7-e51a-4a21-a9b3-1e8564f42f14"},"vehicle_type_id":"4","last_reported":1743405025,"current_range_meters":6400,"station_id":"ce4bgip2rcd13ifvqbb0","pricing_plan_id":"cebpf4jnsgd1na2vs0mg"},{"bike_id":"9dca2c18-7a68-4216-800d-5c2b2e3930d3","system_id":"levelo_inurba_marseille","lat":43.302727,"lon":5.371565,"is_reserved":false,"is_disabled":false,"rental_uris":{"android":"levelo://app?vid=9dca2c18-7a68-4216-800d-5c2b2e3930d3","ios":"levelo://app?vid=9dca2c18-7a68-4216-800d-5c2b2e3930d3"},"vehicle_type_id":"4","last_reported":1743405025,"current_range_meters":6400,"station_id":"ce4bgrp2rcd13ifvqc9g","pricing_plan_id":"cebpf4jnsgd1na2vs0mg"},{"bike_id":"eb5b50b0-6744-43d3-bd1c-9064b8c1e96c","system_id":"levelo_inurba_marseille","lat":43.24068,"lon":5.37764,"is_reserved":false,"is_disabled":false,"rental_uris":{"android":"levelo://app?vid=eb5b50b0-6744-43d3-bd1c-9064b8c1e96c","ios":"levelo://app?vid=eb5b50b0-6744-43d3-bd1c-9064b8c1e96c"},"vehicle_type_id":"4","last_reported":1743405025,"current_range_meters":6400,"station_id":"ce4bhnp2rcd13ifvqgvg","pricing_plan_id":"cebpf4jnsgd1na2vs0mg"},{"bike_id":"93b55f3d-b1dd-4f3f-b1f6-f78029e736da","system_id":"levelo_inurba_marseille","lat":43.23131,"lon":5.43722,"is_reserved":false,"is_disabled":false,"rental_uris":{"android":"levelo://app?vid=93b55f3d-b1dd-4f3f-b1f6-f78029e736da","ios":"levelo://app?vid=93b55f3d-b1dd-4f3f-b1f6-f78029e736da"},"vehicle_type_id":"4","last_reported":1743405025,"current_range_meters":6800,"station_id":"ce4bhmp2rcd13ifvqgog","pricing_plan_id":"cebpf4jnsgd1na2vs0mg"},{"bike_id":"f43cccf4-7cd2-4fa6-9fbb-fb74d7164516","system_id":"levelo_inurba_marseille","lat":43.24058,"lon":5.37755,"is_reserved":false,"is_disabled":false,"rental_uris":{"android":"levelo://app?vid=f43cccf4-7cd2-4fa6-9fbb-fb74d7164516","ios":"levelo://app?vid=f43cccf4-7cd2-4fa6-9fbb-fb74d7164516"},"vehicle_type_id":"4","last_reported":1743405025,"current_range_meters":6800,"station_id":"ce4bhnp2rcd13ifvqgvg","pricing_plan_id":"cebpf4jnsgd1na2vs0mg"},{"bike_id":"76d4ed16-8625-4a14-a5f1-d28ac2574c13","system_id":"levelo_inurba_marseille","lat":43.24535,"lon":5.39504,"is_reserved":false,"is_disabled":false,"rental_uris":{"android":"levelo://app?vid=76d4ed16-8625-4a14-a5f1-d28ac2574c13","ios":"levelo://app?vid=76d4ed16-8625-4a14-a5f1-d28ac2574c13"},"vehicle_type_id":"4","last_reported":1743405025,"current_range_meters":6800,"station_id":"ce4bhlp2rcd13ifvqgjg","pricing_plan_id":"cebpf4jnsgd1na2vs0mg"},{"bike_id":"8c01b583-3164-4f82-8804-8c5644c3dc71","system_id":"levelo_inurba_marseille","lat":43.29028,"lon":5.37554,"is_reserved":false,"is_disabled":false,"rental_uris":{"android":"levelo://app?vid=8c01b583-3164-4f82-8804-8c5644c3dc71","ios":"levelo://app?vid=8c01b583-3164-4f82-8804-8c5644c3dc71"},"vehicle_type_id":"4","last_reported":1743405025,"current_range_meters":6800,"station_id":"ce4bh692rcd13ifvqe90","pricing_plan_id":"cebpf4jnsgd1na2vs0mg"},{"bike_id":"d9099e9a-b19d-4175-a73e-dd7958ed92e0","system_id":"levelo_inurba_marseille","lat":43.23063,"lon":5.35493,"is_reserved":false,"is_disabled":true,"rental_uris":{"android":"levelo://app?vid=d9099e9a-b19d-4175-a73e-dd7958ed92e0","ios":"levelo://app?vid=d9099e9a-b19d-4175-a73e-dd7958ed92e0"},"vehicle_type_id":"4","last_reported":1743405025,"current_range_meters":6800,"station_id":"cpo3342slgdg3j2ifvpg","pricing_plan_id":"cebpf4jnsgd1na2vs0mg"},{"bike_id":"81ca7ad4-111c-41a1-8523-4f9c68c95487","system_id":"levelo_inurba_marseille","lat":43.27934,"lon":5.41082,"is_reserved":false,"is_disabled":false,"rental_uris":{"android":"levelo://app?vid=81ca7ad4-111c-41a1-8523-4f9c68c95487","ios":"levelo://app?vid=81ca7ad4-111c-41a1-8523-4f9c68c95487"},"vehicle_type_id":"4","last_reported":1743405025,"current_range_meters":6800,"station_id":"ce4bhnp2rcd13ifvqh0g","pricing_plan_id":"cebpf4jnsgd1na2vs0mg"},{"bike_id":"bc1ef0c2-17d8-427e-a10c-9b9658a85853","system_id":"levelo_inurba_marseille","lat":43.24172,"lon":5.39701,"is_reserved":false,"is_disabled":true,"rental_uris":{"android":"levelo://app?vid=bc1ef0c2-17d8-427e-a10c-9b9658a85853","ios":"levelo://app?vid=bc1ef0c2-17d8-427e-a10c-9b9658a85853"},"vehicle_type_id":"4","last_reported":1743405025,"current_range_meters":6800,"station_id":"ce4bhn12rcd13ifvqgpg","pricing_plan_id":"cebpf4jnsgd1na2vs0mg"},{"bike_id":"93944404-6abd-41a8-a24d-27485090d68c","system_id":"levelo_inurba_marseille","lat":43.257206,"lon":5.410305,"is_reserved":false,"is_disabled":false,"rental_uris":{"android":"levelo://app?vid=93944404-6abd-41a8-a24d-27485090d68c","ios":"levelo://app?vid=93944404-6abd-41a8-a24d-27485090d68c"},"vehicle_type_id":"4","last_reported":1743405025,"current_range_meters":7200,"station_id":"ce4bhkp2rcd13ifvqgd0","pricing_plan_id":"cebpf4jnsgd1na2vs0mg"},{"bike_id":"fcc742e0-4a68-45c1-a6a8-614596259f49","system_id":"levelo_inurba_marseille","lat":43.31999,"lon":5.38166,"is_reserved":false,"is_disabled":false,"rental_uris":{"android":"levelo://app?vid=fcc742e0-4a68-45c1-a6a8-614596259f49","ios":"levelo://app?vid=fcc742e0-4a68-45c1-a6a8-614596259f49"},"vehicle_type_id":"4","last_reported":1743405025,"current_range_meters":7200,"station_id":"ce4bhr12rcd13ifvqhpg","pricing_plan_id":"cebpf4jnsgd1na2vs0mg"},{"bike_id":"6abfcf76-b46b-48ec-9741-222295465860","system_id":"levelo_inurba_marseille","lat":43.2862,"lon":5.37074,"is_reserved":false,"is_disabled":false,"rental_uris":{"android":"levelo://app?vid=6abfcf76-b46b-48ec-9741-222295465860","ios":"levelo://app?vid=6abfcf76-b46b-48ec-9741-222295465860"},"vehicle_type_id":"4","last_reported":1743405025,"current_range_meters":7200,"station_id":"ce4bh312rcd13ifvqdj0","pricing_plan_id":"cebpf4jnsgd1na2vs0mg"},{"bike_id":"fb5a3640-c2bd-4d5a-a532-631ac7449c3d","system_id":"levelo_inurba_marseille","lat":43.28,"lon":5.40946,"is_reserved":false,"is_disabled":false,"rental_uris":{"android":"levelo://app?vid=fb5a3640-c2bd-4d5a-a532-631ac7449c3d","ios":"levelo://app?vid=fb5a3640-c2bd-4d5a-a532-631ac7449c3d"},"vehicle_type_id":"4","last_reported":1743405025,"current_range_meters":7200,"station_id":"","pricing_plan_id":"cebpf4jnsgd1na2vs0mg"},{"bike_id":"0a1ae682-1f0e-4453-a6f1-f229b4054c7e","system_id":"levelo_inurba_marseille","lat":43.27501,"lon":5.42456,"is_reserved":false,"is_disabled":false,"rental_uris":{"android":"levelo://app?vid=0a1ae682-1f0e-4453-a6f1-f229b4054c7e","ios":"levelo://app?vid=0a1ae682-1f0e-4453-a6f1-f229b4054c7e"},"vehicle_type_id":"4","last_reported":1743405025,"current_range_meters":7200,"station_id":"ce4bhn92rcd13ifvqgrg","pricing_plan_id":"cebpf4jnsgd1na2vs0mg"},{"bike_id":"82d8e203-da64-466b-9b1d-e9f0a9bfebfe","system_id":"levelo_inurba_marseille","lat":43.32607,"lon":5.41506,"is_reserved":false,"is_disabled":true,"rental_uris":{"android":"levelo://app?vid=82d8e203-da64-466b-9b1d-e9f0a9bfebfe","ios":"levelo://app?vid=82d8e203-da64-466b-9b1d-e9f0a9bfebfe"},"vehicle_type_id":"4","last_reported":1743405025,"current_range_meters":8000,"station_id":"ce4bhq12rcd13ifvqhhg","pricing_plan_id":"cebpf4jnsgd1na2vs0mg"},{"bike_id":"bcac1a4e-dc72-48fa-b7fb-a4b5a5a71e7c","system_id":"levelo_inurba_marseille","lat":43.30955,"lon":5.39045,"is_reserved":false,"is_disabled":false,"rental_uris":{"android":"levelo://app?vid=bcac1a4e-dc72-48fa-b7fb-a4b5a5a71e7c","ios":"levelo://app?vid=bcac1a4e-dc72-48fa-b7fb-a4b5a5a71e7c"},"vehicle_type_id":"4","last_reported":1743405025,"current_range_meters":8000,"station_id":"ce4bgup2rcd13ifvqco0","pricing_plan_id":"cebpf4jnsgd1na2vs0mg"},{"bike_id":"62159111-1332-4dcc-afcd-1edfcfc19e53","system_id":"levelo_inurba_marseille","lat":43.2408,"lon":5.37758,"is_reserved":false,"is_disabled":false,"rental_uris":{"android":"levelo://app?vid=62159111-1332-4dcc-afcd-1edfcfc19e53","ios":"levelo://app?vid=62159111-1332-4dcc-afcd-1edfcfc19e53"},"vehicle_type_id":"4","last_reported":1743405025,"current_range_meters":8000,"station_id":"ce4bhnp2rcd13ifvqgvg","pricing_plan_id":"cebpf4jnsgd1na2vs0mg"},{"bike_id":"9e41fa41-0b95-4c96-8a49-e8b8589958b5","system_id":"levelo_inurba_marseille","lat":43.27496,"lon":5.42445,"is_reserved":false,"is_disabled":false,"rental_uris":{"android":"levelo://app?vid=9e41fa41-0b95-4c96-8a49-e8b8589958b5","ios":"levelo://app?vid=9e41fa41-0b95-4c96-8a49-e8b8589958b5"},"vehicle_type_id":"4","last_reported":1743405025,"current_range_meters":8000,"station_id":"ce4bhn92rcd13ifvqgrg","pricing_plan_id":"cebpf4jnsgd1na2vs0mg"},{"bike_id":"bfcad82b-6acc-493c-b418-93ec0bae17e4","system_id":"levelo_inurba_marseille","lat":43.321,"lon":5.36782,"is_reserved":false,"is_disabled":false,"rental_uris":{"android":"levelo://app?vid=bfcad82b-6acc-493c-b418-93ec0bae17e4","ios":"levelo://app?vid=bfcad82b-6acc-493c-b418-93ec0bae17e4"},"vehicle_type_id":"4","last_reported":1743405025,"current_range_meters":8000,"station_id":"ce4bhrh2rcd13ifvqhug","pricing_plan_id":"cebpf4jnsgd1na2vs0mg"},{"bike_id":"602e77af-f6b1-4336-9777-c64792b0b9dd","system_id":"levelo_inurba_marseille","lat":43.22936,"lon":5.35379,"is_reserved":false,"is_disabled":false,"rental_uris":{"android":"levelo://app?vid=602e77af-f6b1-4336-9777-c64792b0b9dd","ios":"levelo://app?vid=602e77af-f6b1-4336-9777-c64792b0b9dd"},"vehicle_type_id":"4","last_reported":1743405025,"current_range_meters":8000,"station_id":"cpo3532slgdg3j2ikp40","pricing_plan_id":"cebpf4jnsgd1na2vs0mg"},{"bike_id":"58567bea-7735-4927-ad25-439a4705f523","system_id":"levelo_inurba_marseille","lat":43.30801,"lon":5.38157,"is_reserved":false,"is_disabled":false,"rental_uris":{"android":"levelo://app?vid=58567bea-7735-4927-ad25-439a4705f523","ios":"levelo://app?vid=58567bea-7735-4927-ad25-439a4705f523"},"vehicle_type_id":"4","last_reported":1743405025,"current_range_meters":7200,"station_id":"ce4bgt12rcd13ifvqce0","pricing_plan_id":"cebpf4jnsgd1na2vs0mg"},{"bike_id":"2201fb24-281b-488f-b78d-a2cece1a8ca9","system_id":"levelo_inurba_marseille","lat":43.30553,"lon":5.36546,"is_reserved":false,"is_disabled":false,"rental_uris":{"android":"levelo://app?vid=2201fb24-281b-488f-b78d-a2cece1a8ca9","ios":"levelo://app?vid=2201fb24-281b-488f-b78d-a2cece1a8ca9"},"vehicle_type_id":"4","last_reported":1743405025,"current_range_meters":8000,"station_id":"ce4bgs12rcd13ifvqcag","pricing_plan_id":"cebpf4jnsgd1na2vs0mg"},{"bike_id":"cb8c9ca5-9083-4e86-9e9f-2bc245af5095","system_id":"levelo_inurba_marseille","lat":43.28413,"lon":5.37518,"is_reserved":false,"is_disabled":true,"rental_uris":{"android":"levelo://app?vid=cb8c9ca5-9083-4e86-9e9f-2bc245af5095","ios":"levelo://app?vid=cb8c9ca5-9083-4e86-9e9f-2bc245af5095"},"vehicle_type_id":"4","last_reported":1743405025,"current_range_meters":8000,"station_id":"ce4bh412rcd13ifvqds0","pricing_plan_id":"cebpf4jnsgd1na2vs0mg"},{"bike_id":"861fba4a-9c12-463c-8a39-b4a694ea5d40","system_id":"levelo_inurba_marseille","lat":43.23964,"lon":5.36627,"is_reserved":false,"is_disabled":false,"rental_uris":{"android":"levelo://app?vid=861fba4a-9c12-463c-8a39-b4a694ea5d40","ios":"levelo://app?vid=861fba4a-9c12-463c-8a39-b4a694ea5d40"},"vehicle_type_id":"4","last_reported":1743405025,"current_range_meters":7200,"station_id":"ce4bhi12rcd13ifvqfp0","pricing_plan_id":"cebpf4jnsgd1na2vs0mg"},{"bike_id":"509fb611-063c-4fc4-aff2-e584985b7674","system_id":"levelo_inurba_marseille","lat":43.29036,"lon":5.39955,"is_reserved":false,"is_disabled":false,"rental_uris":{"android":"levelo://app?vid=509fb611-063c-4fc4-aff2-e584985b7674","ios":"levelo://app?vid=509fb611-063c-4fc4-aff2-e584985b7674"},"vehicle_type_id":"4","last_reported":1743405025,"current_range_meters":8000,"station_id":"ce4bh392rcd13ifvqdm0","pricing_plan_id":"cebpf4jnsgd1na2vs0mg"},{"bike_id":"b61e2401-2046-4dea-b84a-4f3e3f75d8e8","system_id":"levelo_inurba_marseille","lat":43.30551,"lon":5.36692,"is_reserved":false,"is_disabled":false,"rental_uris":{"android":"levelo://app?vid=b61e2401-2046-4dea-b84a-4f3e3f75d8e8","ios":"levelo://app?vid=b61e2401-2046-4dea-b84a-4f3e3f75d8e8"},"vehicle_type_id":"4","last_reported":1743405025,"current_range_meters":8000,"station_id":"ce4bgrp2rcd13ifvqc9g","pricing_plan_id":"cebpf4jnsgd1na2vs0mg"},{"bike_id":"5af3a537-c3fa-4528-bf2a-0a53ac8d228f","system_id":"levelo_inurba_marseille","lat":43.27426,"lon":5.39417,"is_reserved":false,"is_disabled":false,"rental_uris":{"android":"levelo://app?vid=5af3a537-c3fa-4528-bf2a-0a53ac8d228f","ios":"levelo://app?vid=5af3a537-c3fa-4528-bf2a-0a53ac8d228f"},"vehicle_type_id":"4","last_reported":1743405025,"current_range_meters":8000,"station_id":"ce4bhdp2rcd13ifvqf20","pricing_plan_id":"cebpf4jnsgd1na2vs0mg"},{"bike_id":"439f4368-0067-4ae0-9bbe-8fb21e09235c","system_id":"levelo_inurba_marseille","lat":43.29604,"lon":5.38106,"is_reserved":false,"is_disabled":false,"rental_uris":{"android":"levelo://app?vid=439f4368-0067-4ae0-9bbe-8fb21e09235c","ios":"levelo://app?vid=439f4368-0067-4ae0-9bbe-8fb21e09235c"},"vehicle_type_id":"4","last_reported":1743405025,"current_range_meters":8400,"station_id":"ce4bgl12rcd13ifvqbo0","pricing_plan_id":"cebpf4jnsgd1na2vs0mg"},{"bike_id":"1db49edd-6de7-48f9-b18a-23a07e8ebd2c","system_id":"levelo_inurba_marseille","lat":43.232,"lon":5.3556,"is_reserved":false,"is_disabled":false,"rental_uris":{"android":"levelo://app?vid=1db49edd-6de7-48f9-b18a-23a07e8ebd2c","ios":"levelo://app?vid=1db49edd-6de7-48f9-b18a-23a07e8ebd2c"},"vehicle_type_id":"4","last_reported":1743405025,"current_range_meters":8400,"station_id":"ce4bhu92rcd13ifvqi70","pricing_plan_id":"cebpf4jnsgd1na2vs0mg"},{"bike_id":"533dde56-3c6f-4b30-a6d4-69433b869256","system_id":"levelo_inurba_marseille","lat":43.28708,"lon":5.39993,"is_reserved":false,"is_disabled":false,"rental_uris":{"android":"levelo://app?vid=533dde56-3c6f-4b30-a6d4-69433b869256","ios":"levelo://app?vid=533dde56-3c6f-4b30-a6d4-69433b869256"},"vehicle_type_id":"4","last_reported":1743405025,"current_range_meters":8400,"station_id":"ce4bho92rcd13ifvqh3g","pricing_plan_id":"cebpf4jnsgd1na2vs0mg"},{"bike_id":"c7ab117c-5472-4b6f-a5a2-1c24855fc399","system_id":"levelo_inurba_marseille","lat":43.27073,"lon":5.42279,"is_reserved":false,"is_disabled":false,"rental_uris":{"android":"levelo://app?vid=c7ab117c-5472-4b6f-a5a2-1c24855fc399","ios":"levelo://app?vid=c7ab117c-5472-4b6f-a5a2-1c24855fc399"},"vehicle_type_id":"4","last_reported":1743405025,"current_range_meters":8400,"station_id":"ce4bhk92rcd13ifvqgb0","pricing_plan_id":"cebpf4jnsgd1na2vs0mg"},{"bike_id":"837663bc-c16c-4ef4-a732-725c425b1b7f","system_id":"levelo_inurba_marseille","lat":43.296512,"lon":5.373972,"is_reserved":false,"is_disabled":false,"rental_uris":{"android":"levelo://app?vid=837663bc-c16c-4ef4-a732-725c425b1b7f","ios":"levelo://app?vid=837663bc-c16c-4ef4-a732-725c425b1b7f"},"vehicle_type_id":"4","last_reported":1743405025,"current_range_meters":8400,"station_id":"ce4bgk12rcd13ifvqbj0","pricing_plan_id":"cebpf4jnsgd1na2vs0mg"},{"bike_id":"dd30cc6b-f2bb-479b-8ee4-07ac8d36df64","system_id":"levelo_inurba_marseille","lat":43.30473,"lon":5.37903,"is_reserved":false,"is_disabled":false,"rental_uris":{"android":"levelo://app?vid=dd30cc6b-f2bb-479b-8ee4-07ac8d36df64","ios":"levelo://app?vid=dd30cc6b-f2bb-479b-8ee4-07ac8d36df64"},"vehicle_type_id":"4","last_reported":1743405025,"current_range_meters":8400,"station_id":"ce4bgup2rcd13ifvqcn0","pricing_plan_id":"cebpf4jnsgd1na2vs0mg"},{"bike_id":"871f3035-10bb-4a28-afa0-18619600e1a6","system_id":"levelo_inurba_marseille","lat":43.29937,"lon":5.36536,"is_reserved":false,"is_disabled":true,"rental_uris":{"android":"levelo://app?vid=871f3035-10bb-4a28-afa0-18619600e1a6","ios":"levelo://app?vid=871f3035-10bb-4a28-afa0-18619600e1a6"},"vehicle_type_id":"4","last_reported":1743405025,"current_range_meters":8800,"station_id":"ce4bgm92rcd13ifvqbr0","pricing_plan_id":"cebpf4jnsgd1na2vs0mg"},{"bike_id":"1a7fca37-621b-4460-bb47-4eb103935246","system_id":"levelo_inurba_marseille","lat":43.25072,"lon":5.39523,"is_reserved":false,"is_disabled":false,"rental_uris":{"android":"levelo://app?vid=1a7fca37-621b-4460-bb47-4eb103935246","ios":"levelo://app?vid=1a7fca37-621b-4460-bb47-4eb103935246"},"vehicle_type_id":"4","last_reported":1743405025,"current_range_meters":8800,"station_id":"ce4bhm12rcd13ifvqgkg","pricing_plan_id":"cebpf4jnsgd1na2vs0mg"},{"bike_id":"2403089b-07d2-4817-842f-5393e534470e","system_id":"levelo_inurba_marseille","lat":43.27997,"lon":5.41666,"is_reserved":false,"is_disabled":false,"rental_uris":{"android":"levelo://app?vid=2403089b-07d2-4817-842f-5393e534470e","ios":"levelo://app?vid=2403089b-07d2-4817-842f-5393e534470e"},"vehicle_type_id":"4","last_reported":1743405025,"current_range_meters":8800,"station_id":"ce4bho12rcd13ifvqh1g","pricing_plan_id":"cebpf4jnsgd1na2vs0mg"},{"bike_id":"5a4bd2b9-e138-4602-b86d-0de180b82c69","system_id":"levelo_inurba_marseille","lat":43.27934,"lon":5.41052,"is_reserved":false,"is_disabled":false,"rental_uris":{"android":"levelo://app?vid=5a4bd2b9-e138-4602-b86d-0de180b82c69","ios":"levelo://app?vid=5a4bd2b9-e138-4602-b86d-0de180b82c69"},"vehicle_type_id":"4","last_reported":1743405025,"current_range_meters":8800,"station_id":"ce4bhnp2rcd13ifvqh0g","pricing_plan_id":"cebpf4jnsgd1na2vs0mg"},{"bike_id":"452ee7ed-aed5-4f3a-80c1-b63ab3953967","system_id":"levelo_inurba_marseille","lat":43.27934,"lon":5.41054,"is_reserved":false,"is_disabled":false,"rental_uris":{"android":"levelo://app?vid=452ee7ed-aed5-4f3a-80c1-b63ab3953967","ios":"levelo://app?vid=452ee7ed-aed5-4f3a-80c1-b63ab3953967"},"vehicle_type_id":"4","last_reported":1743405025,"current_range_meters":8800,"station_id":"ce4bhnp2rcd13ifvqh0g","pricing_plan_id":"cebpf4jnsgd1na2vs0mg"},{"bike_id":"8ce9b9e8-b63a-4943-a027-5d860cd21f97","system_id":"levelo_inurba_marseille","lat":43.29037,"lon":5.37567,"is_reserved":false,"is_disabled":false,"rental_uris":{"android":"levelo://app?vid=8ce9b9e8-b63a-4943-a027-5d860cd21f97","ios":"levelo://app?vid=8ce9b9e8-b63a-4943-a027-5d860cd21f97"},"vehicle_type_id":"4","last_reported":1743405025,"current_range_meters":8800,"station_id":"ce4bh692rcd13ifvqe90","pricing_plan_id":"cebpf4jnsgd1na2vs0mg"},{"bike_id":"9b0ef4a4-aa40-484e-aa87-93571172272a","system_id":"levelo_inurba_marseille","lat":43.30596,"lon":5.39361,"is_reserved":false,"is_disabled":true,"rental_uris":{"android":"levelo://app?vid=9b0ef4a4-aa40-484e-aa87-93571172272a","ios":"levelo://app?vid=9b0ef4a4-aa40-484e-aa87-93571172272a"},"vehicle_type_id":"4","last_reported":1743405025,"current_range_meters":8800,"station_id":"ce4bh0p2rcd13ifvqd80","pricing_plan_id":"cebpf4jnsgd1na2vs0mg"},{"bike_id":"0b60b6cc-65bb-4e73-8958-1b351c6fdd96","system_id":"levelo_inurba_marseille","lat":43.32098,"lon":5.36761,"is_reserved":false,"is_disabled":false,"rental_uris":{"android":"levelo://app?vid=0b60b6cc-65bb-4e73-8958-1b351c6fdd96","ios":"levelo://app?vid=0b60b6cc-65bb-4e73-8958-1b351c6fdd96"},"vehicle_type_id":"4","last_reported":1743405025,"current_range_meters":8800,"station_id":"ce4bhrh2rcd13ifvqhug","pricing_plan_id":"cebpf4jnsgd1na2vs0mg"},{"bike_id":"859f449c-5d84-408b-810b-6f5d219a7d90","system_id":"levelo_inurba_marseille","lat":43.26788,"lon":5.39408,"is_reserved":false,"is_disabled":false,"rental_uris":{"android":"levelo://app?vid=859f449c-5d84-408b-810b-6f5d219a7d90","ios":"levelo://app?vid=859f449c-5d84-408b-810b-6f5d219a7d90"},"vehicle_type_id":"4","last_reported":1743405025,"current_range_meters":8800,"station_id":"ce4bhh12rcd13ifvqfg0","pricing_plan_id":"cebpf4jnsgd1na2vs0mg"},{"bike_id":"407b633a-987e-4722-b77a-993eaa06a6b7","system_id":"levelo_inurba_marseille","lat":43.31579,"lon":5.38846,"is_reserved":false,"is_disabled":false,"rental_uris":{"android":"levelo://app?vid=407b633a-987e-4722-b77a-993eaa06a6b7","ios":"levelo://app?vid=407b633a-987e-4722-b77a-993eaa06a6b7"},"vehicle_type_id":"4","last_reported":1743405025,"current_range_meters":9200,"station_id":"","pricing_plan_id":"cebpf4jnsgd1na2vs0mg"},{"bike_id":"4a828261-0526-4091-b3bb-177ad003bab5","system_id":"levelo_inurba_marseille","lat":43.24081,"lon":5.37745,"is_reserved":false,"is_disabled":false,"rental_uris":{"android":"levelo://app?vid=4a828261-0526-4091-b3bb-177ad003bab5","ios":"levelo://app?vid=4a828261-0526-4091-b3bb-177ad003bab5"},"vehicle_type_id":"4","last_reported":1743405025,"current_range_meters":9200,"station_id":"ce4bhnp2rcd13ifvqgvg","pricing_plan_id":"cebpf4jnsgd1na2vs0mg"},{"bike_id":"3c6db3b8-510e-4a3d-8aa9-2a8f5b93957a","system_id":"levelo_inurba_marseille","lat":43.24022,"lon":5.37744,"is_reserved":false,"is_disabled":false,"rental_uris":{"android":"levelo://app?vid=3c6db3b8-510e-4a3d-8aa9-2a8f5b93957a","ios":"levelo://app?vid=3c6db3b8-510e-4a3d-8aa9-2a8f5b93957a"},"vehicle_type_id":"4","last_reported":1743405025,"current_range_meters":9200,"station_id":"","pricing_plan_id":"cebpf4jnsgd1na2vs0mg"},{"bike_id":"bee19a7e-3e37-449e-8fe8-1c38b2d2a6f2","system_id":"levelo_inurba_marseille","lat":43.29102,"lon":5.40111,"is_reserved":false,"is_disabled":false,"rental_uris":{"android":"levelo://app?vid=bee19a7e-3e37-449e-8fe8-1c38b2d2a6f2","ios":"levelo://app?vid=bee19a7e-3e37-449e-8fe8-1c38b2d2a6f2"},"vehicle_type_id":"4","last_reported":1743405025,"current_range_meters":9200,"station_id":"ce4bh392rcd13ifvqdm0","pricing_plan_id":"cebpf4jnsgd1na2vs0mg"},{"bike_id":"6165c5e1-15f4-4779-ba2f-91df8ba3f8c0","system_id":"levelo_inurba_marseille","lat":43.28905,"lon":5.43003,"is_reserved":false,"is_disabled":false,"rental_uris":{"android":"levelo://app?vid=6165c5e1-15f4-4779-ba2f-91df8ba3f8c0","ios":"levelo://app?vid=6165c5e1-15f4-4779-ba2f-91df8ba3f8c0"},"vehicle_type_id":"4","last_reported":1743405025,"current_range_meters":9200,"station_id":"","pricing_plan_id":"cebpf4jnsgd1na2vs0mg"},{"bike_id":"fb0e2782-64d8-47c2-8a78-bad86b5dcc20","system_id":"levelo_inurba_marseille","lat":43.32109,"lon":5.36763,"is_reserved":false,"is_disabled":true,"rental_uris":{"android":"levelo://app?vid=fb0e2782-64d8-47c2-8a78-bad86b5dcc20","ios":"levelo://app?vid=fb0e2782-64d8-47c2-8a78-bad86b5dcc20"},"vehicle_type_id":"4","last_reported":1743405025,"current_range_meters":9200,"station_id":"","pricing_plan_id":"cebpf4jnsgd1na2vs0mg"},{"bike_id":"6e64440c-6411-4ed5-9186-a54f58adc7e8","system_id":"levelo_inurba_marseille","lat":43.23156,"lon":5.43732,"is_reserved":false,"is_disabled":false,"rental_uris":{"android":"levelo://app?vid=6e64440c-6411-4ed5-9186-a54f58adc7e8","ios":"levelo://app?vid=6e64440c-6411-4ed5-9186-a54f58adc7e8"},"vehicle_type_id":"4","last_reported":1743405025,"current_range_meters":9200,"station_id":"ce4bhmp2rcd13ifvqgog","pricing_plan_id":"cebpf4jnsgd1na2vs0mg"},{"bike_id":"dc734c3a-acc3-4a8b-9c2b-02ff533467f7","system_id":"levelo_inurba_marseille","lat":43.273058,"lon":5.390941,"is_reserved":false,"is_disabled":false,"rental_uris":{"android":"levelo://app?vid=dc734c3a-acc3-4a8b-9c2b-02ff533467f7","ios":"levelo://app?vid=dc734c3a-acc3-4a8b-9c2b-02ff533467f7"},"vehicle_type_id":"4","last_reported":1743405025,"current_range_meters":9200,"station_id":"ce4bhgp2rcd13ifvqfe0","pricing_plan_id":"cebpf4jnsgd1na2vs0mg"},{"bike_id":"eab71aeb-a62a-4218-b3b9-6e7e16fb9c51","system_id":"levelo_inurba_marseille","lat":43.30538,"lon":5.36708,"is_reserved":false,"is_disabled":false,"rental_uris":{"android":"levelo://app?vid=eab71aeb-a62a-4218-b3b9-6e7e16fb9c51","ios":"levelo://app?vid=eab71aeb-a62a-4218-b3b9-6e7e16fb9c51"},"vehicle_type_id":"4","last_reported":1743405025,"current_range_meters":9200,"station_id":"ce4bgrp2rcd13ifvqc9g","pricing_plan_id":"cebpf4jnsgd1na2vs0mg"},{"bike_id":"204ecd7d-d79a-4494-8305-7c83c69add7d","system_id":"levelo_inurba_marseille","lat":43.25673,"lon":5.41996,"is_reserved":false,"is_disabled":false,"rental_uris":{"android":"levelo://app?vid=204ecd7d-d79a-4494-8305-7c83c69add7d","ios":"levelo://app?vid=204ecd7d-d79a-4494-8305-7c83c69add7d"},"vehicle_type_id":"4","last_reported":1743405025,"current_range_meters":9200,"station_id":"","pricing_plan_id":"cebpf4jnsgd1na2vs0mg"},{"bike_id":"b3e97410-c1b2-4369-b878-0aa5bbd817bc","system_id":"levelo_inurba_marseille","lat":43.28512,"lon":5.35868,"is_reserved":false,"is_disabled":true,"rental_uris":{"android":"levelo://app?vid=b3e97410-c1b2-4369-b878-0aa5bbd817bc","ios":"levelo://app?vid=b3e97410-c1b2-4369-b878-0aa5bbd817bc"},"vehicle_type_id":"4","last_reported":1743405025,"current_range_meters":9600,"station_id":"ce4bhah2rcd13ifvqei0","pricing_plan_id":"cebpf4jnsgd1na2vs0mg"},{"bike_id":"99e7d147-e2b6-4982-8a11-f600737d5497","system_id":"levelo_inurba_marseille","lat":43.31561,"lon":5.36574,"is_reserved":false,"is_disabled":false,"rental_uris":{"android":"levelo://app?vid=99e7d147-e2b6-4982-8a11-f600737d5497","ios":"levelo://app?vid=99e7d147-e2b6-4982-8a11-f600737d5497"},"vehicle_type_id":"4","last_reported":1743405025,"current_range_meters":9600,"station_id":"","pricing_plan_id":"cebpf4jnsgd1na2vs0mg"},{"bike_id":"a0eb0cb7-cfd0-4c44-a801-cca8496833e5","system_id":"levelo_inurba_marseille","lat":43.23181,"lon":5.39992,"is_reserved":false,"is_disabled":false,"rental_uris":{"android":"levelo://app?vid=a0eb0cb7-cfd0-4c44-a801-cca8496833e5","ios":"levelo://app?vid=a0eb0cb7-cfd0-4c44-a801-cca8496833e5"},"vehicle_type_id":"4","last_reported":1743405025,"current_range_meters":9600,"station_id":"ce4bhn12rcd13ifvqgqg","pricing_plan_id":"cebpf4jnsgd1na2vs0mg"},{"bike_id":"12cd2614-5759-4501-9c23-d3351a7cc7df","system_id":"levelo_inurba_marseille","lat":43.305451,"lon":5.384325,"is_reserved":false,"is_disabled":true,"rental_uris":{"android":"levelo://app?vid=12cd2614-5759-4501-9c23-d3351a7cc7df","ios":"levelo://app?vid=12cd2614-5759-4501-9c23-d3351a7cc7df"},"vehicle_type_id":"4","last_reported":1743405025,"current_range_meters":9600,"station_id":"ce4bgg92rcd13ifvqb30","pricing_plan_id":"cebpf4jnsgd1na2vs0mg"},{"bike_id":"0aa5d244-d05c-4693-b730-cb7287eaecdf","system_id":"levelo_inurba_marseille","lat":43.2861,"lon":5.35109,"is_reserved":false,"is_disabled":true,"rental_uris":{"android":"levelo://app?vid=0aa5d244-d05c-4693-b730-cb7287eaecdf","ios":"levelo://app?vid=0aa5d244-d05c-4693-b730-cb7287eaecdf"},"vehicle_type_id":"4","last_reported":1743405025,"current_range_meters":9600,"station_id":"ce4bhch2rcd13ifvqeug","pricing_plan_id":"cebpf4jnsgd1na2vs0mg"},{"bike_id":"7a3e0fc6-91d0-4ee9-9dd0-6d964bf08012","system_id":"levelo_inurba_marseille","lat":43.30953,"lon":5.39039,"is_reserved":false,"is_disabled":false,"rental_uris":{"android":"levelo://app?vid=7a3e0fc6-91d0-4ee9-9dd0-6d964bf08012","ios":"levelo://app?vid=7a3e0fc6-91d0-4ee9-9dd0-6d964bf08012"},"vehicle_type_id":"4","last_reported":1743405025,"current_range_meters":9600,"station_id":"ce4bgup2rcd13ifvqco0","pricing_plan_id":"cebpf4jnsgd1na2vs0mg"},{"bike_id":"1ca654ae-dc4d-4362-acdb-676b4062b92d","system_id":"levelo_inurba_marseille","lat":43.30311,"lon":5.369,"is_reserved":false,"is_disabled":false,"rental_uris":{"android":"levelo://app?vid=1ca654ae-dc4d-4362-acdb-676b4062b92d","ios":"levelo://app?vid=1ca654ae-dc4d-4362-acdb-676b4062b92d"},"vehicle_type_id":"4","last_reported":1743405025,"current_range_meters":9600,"station_id":"ce4bgqh2rcd13ifvqc5g","pricing_plan_id":"cebpf4jnsgd1na2vs0mg"},{"bike_id":"f2a56113-b575-48a0-9729-f6dce5639030","system_id":"levelo_inurba_marseille","lat":43.298477,"lon":5.362857,"is_reserved":false,"is_disabled":false,"rental_uris":{"android":"levelo://app?vid=f2a56113-b575-48a0-9729-f6dce5639030","ios":"levelo://app?vid=f2a56113-b575-48a0-9729-f6dce5639030"},"vehicle_type_id":"4","last_reported":1743405025,"current_range_meters":9600,"station_id":"ce4bgpp2rcd13ifvqc3g","pricing_plan_id":"cebpf4jnsgd1na2vs0mg"},{"bike_id":"f5467d01-0417-4b7f-a5df-1cb76ab7cbcf","system_id":"levelo_inurba_marseille","lat":43.33608,"lon":5.4102,"is_reserved":false,"is_disabled":false,"rental_uris":{"android":"levelo://app?vid=f5467d01-0417-4b7f-a5df-1cb76ab7cbcf","ios":"levelo://app?vid=f5467d01-0417-4b7f-a5df-1cb76ab7cbcf"},"vehicle_type_id":"4","last_reported":1743405025,"current_range_meters":9600,"station_id":"ce4bhqh2rcd13ifvqhmg","pricing_plan_id":"cebpf4jnsgd1na2vs0mg"},{"bike_id":"aceba683-3bd7-4730-bff8-387b05a23a57","system_id":"levelo_inurba_marseille","lat":43.32106,"lon":5.36789,"is_reserved":false,"is_disabled":false,"rental_uris":{"android":"levelo://app?vid=aceba683-3bd7-4730-bff8-387b05a23a57","ios":"levelo://app?vid=aceba683-3bd7-4730-bff8-387b05a23a57"},"vehicle_type_id":"4","last_reported":1743405025,"current_range_meters":9600,"station_id":"ce4bhrh2rcd13ifvqhug","pricing_plan_id":"cebpf4jnsgd1na2vs0mg"},{"bike_id":"78edf300-7db3-4c93-9631-38797c9b1771","system_id":"levelo_inurba_marseille","lat":43.29077,"lon":5.37162,"is_reserved":false,"is_disabled":false,"rental_uris":{"android":"levelo://app?vid=78edf300-7db3-4c93-9631-38797c9b1771","ios":"levelo://app?vid=78edf300-7db3-4c93-9631-38797c9b1771"},"vehicle_type_id":"4","last_reported":1743405025,"current_range_meters":9600,"station_id":"ce4bh5p2rcd13ifvqe4g","pricing_plan_id":"cebpf4jnsgd1na2vs0mg"},{"bike_id":"ba1107aa-9b1f-4710-bb75-05314e757fc6","system_id":"levelo_inurba_marseille","lat":43.31657,"lon":5.37246,"is_reserved":false,"is_disabled":false,"rental_uris":{"android":"levelo://app?vid=ba1107aa-9b1f-4710-bb75-05314e757fc6","ios":"levelo://app?vid=ba1107aa-9b1f-4710-bb75-05314e757fc6"},"vehicle_type_id":"4","last_reported":1743405025,"current_range_meters":9600,"station_id":"","pricing_plan_id":"cebpf4jnsgd1na2vs0mg"},{"bike_id":"e9fffe35-245b-4da4-a438-9b0140e79a12","system_id":"levelo_inurba_marseille","lat":43.27957,"lon":5.41045,"is_reserved":false,"is_disabled":false,"rental_uris":{"android":"levelo://app?vid=e9fffe35-245b-4da4-a438-9b0140e79a12","ios":"levelo://app?vid=e9fffe35-245b-4da4-a438-9b0140e79a12"},"vehicle_type_id":"4","last_reported":1743405025,"current_range_meters":9600,"station_id":"ce4bhnp2rcd13ifvqh0g","pricing_plan_id":"cebpf4jnsgd1na2vs0mg"},{"bike_id":"970d4a28-2e4b-453e-912d-59e6f284b811","system_id":"levelo_inurba_marseille","lat":43.323643,"lon":5.389056,"is_reserved":false,"is_disabled":true,"rental_uris":{"android":"levelo://app?vid=970d4a28-2e4b-453e-912d-59e6f284b811","ios":"levelo://app?vid=970d4a28-2e4b-453e-912d-59e6f284b811"},"vehicle_type_id":"4","last_reported":1743405025,"current_range_meters":10000,"station_id":"ce4bhqp2rcd13ifvqhog","pricing_plan_id":"cebpf4jnsgd1na2vs0mg"},{"bike_id":"fe6f98fb-7de5-4a80-9354-b1e5ec085047","system_id":"levelo_inurba_marseille","lat":43.29038,"lon":5.39947,"is_reserved":false,"is_disabled":false,"rental_uris":{"android":"levelo://app?vid=fe6f98fb-7de5-4a80-9354-b1e5ec085047","ios":"levelo://app?vid=fe6f98fb-7de5-4a80-9354-b1e5ec085047"},"vehicle_type_id":"4","last_reported":1743405025,"current_range_meters":10000,"station_id":"ce4bh392rcd13ifvqdm0","pricing_plan_id":"cebpf4jnsgd1na2vs0mg"},{"bike_id":"121010d1-d0ea-475b-97a6-f9054736109c","system_id":"levelo_inurba_marseille","lat":43.2319,"lon":5.39993,"is_reserved":false,"is_disabled":false,"rental_uris":{"android":"levelo://app?vid=121010d1-d0ea-475b-97a6-f9054736109c","ios":"levelo://app?vid=121010d1-d0ea-475b-97a6-f9054736109c"},"vehicle_type_id":"4","last_reported":1743405025,"current_range_meters":10000,"station_id":"ce4bhn12rcd13ifvqgqg","pricing_plan_id":"cebpf4jnsgd1na2vs0mg"},{"bike_id":"b03ddc25-8561-4144-bc05-fa463b274d27","system_id":"levelo_inurba_marseille","lat":43.28943,"lon":5.36639,"is_reserved":false,"is_disabled":false,"rental_uris":{"android":"levelo://app?vid=b03ddc25-8561-4144-bc05-fa463b274d27","ios":"levelo://app?vid=b03ddc25-8561-4144-bc05-fa463b274d27"},"vehicle_type_id":"4","last_reported":1743405025,"current_range_meters":10000,"station_id":"ce4bhap2rcd13ifvqek0","pricing_plan_id":"cebpf4jnsgd1na2vs0mg"},{"bike_id":"a90d84a3-2957-4e71-993e-8c9421c0fd02","system_id":"levelo_inurba_marseille","lat":43.3015,"lon":5.38075,"is_reserved":false,"is_disabled":false,"rental_uris":{"android":"levelo://app?vid=a90d84a3-2957-4e71-993e-8c9421c0fd02","ios":"levelo://app?vid=a90d84a3-2957-4e71-993e-8c9421c0fd02"},"vehicle_type_id":"4","last_reported":1743405025,"current_range_meters":10000,"station_id":"ce4bgjp2rcd13ifvqbh0","pricing_plan_id":"cebpf4jnsgd1na2vs0mg"},{"bike_id":"fd077727-cac9-4da1-be78-e3859541690a","system_id":"levelo_inurba_marseille","lat":43.30545,"lon":5.3843,"is_reserved":false,"is_disabled":true,"rental_uris":{"android":"levelo://app?vid=fd077727-cac9-4da1-be78-e3859541690a","ios":"levelo://app?vid=fd077727-cac9-4da1-be78-e3859541690a"},"vehicle_type_id":"4","last_reported":1743405025,"current_range_meters":10000,"station_id":"ce4bgg92rcd13ifvqb30","pricing_plan_id":"cebpf4jnsgd1na2vs0mg"},{"bike_id":"85c484ff-8dcb-4efe-a3e8-3810ffa7a117","system_id":"levelo_inurba_marseille","lat":43.32104,"lon":5.36785,"is_reserved":false,"is_disabled":false,"rental_uris":{"android":"levelo://app?vid=85c484ff-8dcb-4efe-a3e8-3810ffa7a117","ios":"levelo://app?vid=85c484ff-8dcb-4efe-a3e8-3810ffa7a117"},"vehicle_type_id":"4","last_reported":1743405025,"current_range_meters":10000,"station_id":"ce4bhrh2rcd13ifvqhug","pricing_plan_id":"cebpf4jnsgd1na2vs0mg"},{"bike_id":"420f75cd-9c70-4dd9-9e07-15f5e748a047","system_id":"levelo_inurba_marseille","lat":43.24075,"lon":5.37759,"is_reserved":false,"is_disabled":false,"rental_uris":{"android":"levelo://app?vid=420f75cd-9c70-4dd9-9e07-15f5e748a047","ios":"levelo://app?vid=420f75cd-9c70-4dd9-9e07-15f5e748a047"},"vehicle_type_id":"4","last_reported":1743405025,"current_range_meters":10000,"station_id":"ce4bhnp2rcd13ifvqgvg","pricing_plan_id":"cebpf4jnsgd1na2vs0mg"},{"bike_id":"81a0b184-8ce0-4d8f-8ffc-54543a8d534f","system_id":"levelo_inurba_marseille","lat":43.29033,"lon":5.39944,"is_reserved":false,"is_disabled":false,"rental_uris":{"android":"levelo://app?vid=81a0b184-8ce0-4d8f-8ffc-54543a8d534f","ios":"levelo://app?vid=81a0b184-8ce0-4d8f-8ffc-54543a8d534f"},"vehicle_type_id":"4","last_reported":1743405025,"current_range_meters":10000,"station_id":"ce4bh392rcd13ifvqdm0","pricing_plan_id":"cebpf4jnsgd1na2vs0mg"},{"bike_id":"5f4b6dec-c8cd-4fba-a769-4892a6dbdf94","system_id":"levelo_inurba_marseille","lat":43.2812,"lon":5.39861,"is_reserved":false,"is_disabled":false,"rental_uris":{"android":"levelo://app?vid=5f4b6dec-c8cd-4fba-a769-4892a6dbdf94","ios":"levelo://app?vid=5f4b6dec-c8cd-4fba-a769-4892a6dbdf94"},"vehicle_type_id":"4","last_reported":1743405025,"current_range_meters":10000,"station_id":"","pricing_plan_id":"cebpf4jnsgd1na2vs0mg"},{"bike_id":"e3ec525b-119b-47d5-b398-59dd1152ef3c","system_id":"levelo_inurba_marseille","lat":43.278103,"lon":5.407122,"is_reserved":false,"is_disabled":false,"rental_uris":{"android":"levelo://app?vid=e3ec525b-119b-47d5-b398-59dd1152ef3c","ios":"levelo://app?vid=e3ec525b-119b-47d5-b398-59dd1152ef3c"},"vehicle_type_id":"4","last_reported":1743405025,"current_range_meters":9600,"station_id":"ce4bhnh2rcd13ifvqgtg","pricing_plan_id":"cebpf4jnsgd1na2vs0mg"},{"bike_id":"abe50da3-d276-4e2d-89dc-4ba535cd6c8e","system_id":"levelo_inurba_marseille","lat":43.30889,"lon":5.36883,"is_reserved":false,"is_disabled":false,"rental_uris":{"android":"levelo://app?vid=abe50da3-d276-4e2d-89dc-4ba535cd6c8e","ios":"levelo://app?vid=abe50da3-d276-4e2d-89dc-4ba535cd6c8e"},"vehicle_type_id":"4","last_reported":1743405025,"current_range_meters":10800,"station_id":"ce4bgn92rcd13ifvqbvg","pricing_plan_id":"cebpf4jnsgd1na2vs0mg"},{"bike_id":"b9e902ff-621e-4452-b19d-fd7af1e63d3a","system_id":"levelo_inurba_marseille","lat":43.25873,"lon":5.39899,"is_reserved":false,"is_disabled":false,"rental_uris":{"android":"levelo://app?vid=b9e902ff-621e-4452-b19d-fd7af1e63d3a","ios":"levelo://app?vid=b9e902ff-621e-4452-b19d-fd7af1e63d3a"},"vehicle_type_id":"4","last_reported":1743405025,"current_range_meters":10000,"station_id":"ce4bhl92rcd13ifvqghg","pricing_plan_id":"cebpf4jnsgd1na2vs0mg"},{"bike_id":"4db2abe8-ddc9-429c-adec-3c515a3e8b3c","system_id":"levelo_inurba_marseille","lat":43.24073,"lon":5.37788,"is_reserved":false,"is_disabled":false,"rental_uris":{"android":"levelo://app?vid=4db2abe8-ddc9-429c-adec-3c515a3e8b3c","ios":"levelo://app?vid=4db2abe8-ddc9-429c-adec-3c515a3e8b3c"},"vehicle_type_id":"4","last_reported":1743405025,"current_range_meters":10800,"station_id":"ce4bhnp2rcd13ifvqgvg","pricing_plan_id":"cebpf4jnsgd1na2vs0mg"},{"bike_id":"52e0065d-74fe-482e-b31f-63628de0f581","system_id":"levelo_inurba_marseille","lat":43.30315,"lon":5.39202,"is_reserved":false,"is_disabled":true,"rental_uris":{"android":"levelo://app?vid=52e0065d-74fe-482e-b31f-63628de0f581","ios":"levelo://app?vid=52e0065d-74fe-482e-b31f-63628de0f581"},"vehicle_type_id":"4","last_reported":1743405025,"current_range_meters":10800,"station_id":"ce4bgkh2rcd13ifvqbk0","pricing_plan_id":"cebpf4jnsgd1na2vs0mg"},{"bike_id":"8de1b770-7ae0-478d-8528-94f9bdee7a06","system_id":"levelo_inurba_marseille","lat":43.27566,"lon":5.38425,"is_reserved":false,"is_disabled":false,"rental_uris":{"android":"levelo://app?vid=8de1b770-7ae0-478d-8528-94f9bdee7a06","ios":"levelo://app?vid=8de1b770-7ae0-478d-8528-94f9bdee7a06"},"vehicle_type_id":"4","last_reported":1743405025,"current_range_meters":11200,"station_id":"ce4bhh92rcd13ifvqfi0","pricing_plan_id":"cebpf4jnsgd1na2vs0mg"},{"bike_id":"3550a36d-3c45-4392-b638-e4bfcd519444","system_id":"levelo_inurba_marseille","lat":43.29913,"lon":5.38137,"is_reserved":false,"is_disabled":true,"rental_uris":{"android":"levelo://app?vid=3550a36d-3c45-4392-b638-e4bfcd519444","ios":"levelo://app?vid=3550a36d-3c45-4392-b638-e4bfcd519444"},"vehicle_type_id":"4","last_reported":1743405025,"current_range_meters":10800,"station_id":"ce4bgj12rcd13ifvqbc0","pricing_plan_id":"cebpf4jnsgd1na2vs0mg"},{"bike_id":"a1f3a790-d946-4d0e-ab0b-dd952c6561cb","system_id":"levelo_inurba_marseille","lat":43.23151,"lon":5.43724,"is_reserved":false,"is_disabled":false,"rental_uris":{"android":"levelo://app?vid=a1f3a790-d946-4d0e-ab0b-dd952c6561cb","ios":"levelo://app?vid=a1f3a790-d946-4d0e-ab0b-dd952c6561cb"},"vehicle_type_id":"4","last_reported":1743405025,"current_range_meters":10800,"station_id":"ce4bhmp2rcd13ifvqgog","pricing_plan_id":"cebpf4jnsgd1na2vs0mg"},{"bike_id":"55817bf0-82fd-4fe9-acd5-4d7830da8673","system_id":"levelo_inurba_marseille","lat":43.307385,"lon":5.392441,"is_reserved":false,"is_disabled":false,"rental_uris":{"android":"levelo://app?vid=55817bf0-82fd-4fe9-acd5-4d7830da8673","ios":"levelo://app?vid=55817bf0-82fd-4fe9-acd5-4d7830da8673"},"vehicle_type_id":"4","last_reported":1743405025,"current_range_meters":11200,"station_id":"ce4bh9p2rcd13ifvqec0","pricing_plan_id":"cebpf4jnsgd1na2vs0mg"},{"bike_id":"73d7d064-6ef5-4a9e-964a-35724613a7b7","system_id":"levelo_inurba_marseille","lat":43.33598,"lon":5.41032,"is_reserved":false,"is_disabled":false,"rental_uris":{"android":"levelo://app?vid=73d7d064-6ef5-4a9e-964a-35724613a7b7","ios":"levelo://app?vid=73d7d064-6ef5-4a9e-964a-35724613a7b7"},"vehicle_type_id":"4","last_reported":1743405025,"current_range_meters":11200,"station_id":"ce4bhqh2rcd13ifvqhmg","pricing_plan_id":"cebpf4jnsgd1na2vs0mg"},{"bike_id":"8c0baf83-fe6e-4887-8907-067a84dce884","system_id":"levelo_inurba_marseille","lat":43.28415,"lon":5.34984,"is_reserved":false,"is_disabled":true,"rental_uris":{"android":"levelo://app?vid=8c0baf83-fe6e-4887-8907-067a84dce884","ios":"levelo://app?vid=8c0baf83-fe6e-4887-8907-067a84dce884"},"vehicle_type_id":"4","last_reported":1743405025,"current_range_meters":11600,"station_id":"ce4bhbh2rcd13ifvqepg","pricing_plan_id":"cebpf4jnsgd1na2vs0mg"},{"bike_id":"4833ed40-4ec5-41ab-9522-eb4906b09b62","system_id":"levelo_inurba_marseille","lat":43.29611,"lon":5.37511,"is_reserved":false,"is_disabled":true,"rental_uris":{"android":"levelo://app?vid=4833ed40-4ec5-41ab-9522-eb4906b09b62","ios":"levelo://app?vid=4833ed40-4ec5-41ab-9522-eb4906b09b62"},"vehicle_type_id":"4","last_reported":1743405025,"current_range_meters":11600,"station_id":"ce4bgh92rcd13ifvqb50","pricing_plan_id":"cebpf4jnsgd1na2vs0mg"},{"bike_id":"0f8f638f-6c59-4dfb-ab4f-882d40e453aa","system_id":"levelo_inurba_marseille","lat":43.29276,"lon":5.42756,"is_reserved":false,"is_disabled":false,"rental_uris":{"android":"levelo://app?vid=0f8f638f-6c59-4dfb-ab4f-882d40e453aa","ios":"levelo://app?vid=0f8f638f-6c59-4dfb-ab4f-882d40e453aa"},"vehicle_type_id":"4","last_reported":1743405025,"current_range_meters":11600,"station_id":"","pricing_plan_id":"cebpf4jnsgd1na2vs0mg"},{"bike_id":"1a130b3a-a65d-435d-a5a2-838d45f8e81b","system_id":"levelo_inurba_marseille","lat":43.24183,"lon":5.39733,"is_reserved":false,"is_disabled":false,"rental_uris":{"android":"levelo://app?vid=1a130b3a-a65d-435d-a5a2-838d45f8e81b","ios":"levelo://app?vid=1a130b3a-a65d-435d-a5a2-838d45f8e81b"},"vehicle_type_id":"4","last_reported":1743405025,"current_range_meters":11600,"station_id":"ce4bhn12rcd13ifvqgpg","pricing_plan_id":"cebpf4jnsgd1na2vs0mg"},{"bike_id":"2bf31f9f-c5c0-434c-ab3b-b017d7dc966d","system_id":"levelo_inurba_marseille","lat":43.23062,"lon":5.35486,"is_reserved":false,"is_disabled":false,"rental_uris":{"android":"levelo://app?vid=2bf31f9f-c5c0-434c-ab3b-b017d7dc966d","ios":"levelo://app?vid=2bf31f9f-c5c0-434c-ab3b-b017d7dc966d"},"vehicle_type_id":"4","last_reported":1743405025,"current_range_meters":11600,"station_id":"cpo3342slgdg3j2ifvpg","pricing_plan_id":"cebpf4jnsgd1na2vs0mg"},{"bike_id":"95ceb61d-23d2-4c55-b4a1-5fbd5cd4770e","system_id":"levelo_inurba_marseille","lat":43.29031,"lon":5.3756,"is_reserved":false,"is_disabled":false,"rental_uris":{"android":"levelo://app?vid=95ceb61d-23d2-4c55-b4a1-5fbd5cd4770e","ios":"levelo://app?vid=95ceb61d-23d2-4c55-b4a1-5fbd5cd4770e"},"vehicle_type_id":"4","last_reported":1743405025,"current_range_meters":11600,"station_id":"ce4bh692rcd13ifvqe90","pricing_plan_id":"cebpf4jnsgd1na2vs0mg"},{"bike_id":"d7671a11-d2a9-4c19-b8ab-5839a05a2057","system_id":"levelo_inurba_marseille","lat":43.28136,"lon":5.42625,"is_reserved":false,"is_disabled":false,"rental_uris":{"android":"levelo://app?vid=d7671a11-d2a9-4c19-b8ab-5839a05a2057","ios":"levelo://app?vid=d7671a11-d2a9-4c19-b8ab-5839a05a2057"},"vehicle_type_id":"4","last_reported":1743405025,"current_range_meters":11600,"station_id":"ce4bhnh2rcd13ifvqgug","pricing_plan_id":"cebpf4jnsgd1na2vs0mg"},{"bike_id":"cb488461-922b-4378-a925-3277508f321d","system_id":"levelo_inurba_marseille","lat":43.30764,"lon":5.37651,"is_reserved":false,"is_disabled":false,"rental_uris":{"android":"levelo://app?vid=cb488461-922b-4378-a925-3277508f321d","ios":"levelo://app?vid=cb488461-922b-4378-a925-3277508f321d"},"vehicle_type_id":"4","last_reported":1743405025,"current_range_meters":12000,"station_id":"ce4bgv92rcd13ifvqcq0","pricing_plan_id":"cebpf4jnsgd1na2vs0mg"},{"bike_id":"51978973-8141-43c4-9a6c-b50852994e60","system_id":"levelo_inurba_marseille","lat":43.32344,"lon":5.38923,"is_reserved":false,"is_disabled":false,"rental_uris":{"android":"levelo://app?vid=51978973-8141-43c4-9a6c-b50852994e60","ios":"levelo://app?vid=51978973-8141-43c4-9a6c-b50852994e60"},"vehicle_type_id":"4","last_reported":1743405025,"current_range_meters":12000,"station_id":"ce4bhqp2rcd13ifvqhog","pricing_plan_id":"cebpf4jnsgd1na2vs0mg"},{"bike_id":"8fa5fb11-10c8-4bed-b75c-83f4c72259ad","system_id":"levelo_inurba_marseille","lat":43.32341,"lon":5.36741,"is_reserved":false,"is_disabled":false,"rental_uris":{"android":"levelo://app?vid=8fa5fb11-10c8-4bed-b75c-83f4c72259ad","ios":"levelo://app?vid=8fa5fb11-10c8-4bed-b75c-83f4c72259ad"},"vehicle_type_id":"4","last_reported":1743405025,"current_range_meters":12000,"station_id":"ce4bhsh2rcd13ifvqi2g","pricing_plan_id":"cebpf4jnsgd1na2vs0mg"},{"bike_id":"668c01cb-7bea-48c9-8f15-6bcc0c19c832","system_id":"levelo_inurba_marseille","lat":43.262081,"lon":5.379246,"is_reserved":false,"is_disabled":true,"rental_uris":{"android":"levelo://app?vid=668c01cb-7bea-48c9-8f15-6bcc0c19c832","ios":"levelo://app?vid=668c01cb-7bea-48c9-8f15-6bcc0c19c832"},"vehicle_type_id":"4","last_reported":1743405025,"current_range_meters":12400,"station_id":"ce4bhjp2rcd13ifvqg90","pricing_plan_id":"cebpf4jnsgd1na2vs0mg"},{"bike_id":"01afd06a-9522-4aeb-9a1a-2b17752bd1d9","system_id":"levelo_inurba_marseille","lat":43.2894,"lon":5.39635,"is_reserved":false,"is_disabled":false,"rental_uris":{"android":"levelo://app?vid=01afd06a-9522-4aeb-9a1a-2b17752bd1d9","ios":"levelo://app?vid=01afd06a-9522-4aeb-9a1a-2b17752bd1d9"},"vehicle_type_id":"4","last_reported":1743405025,"current_range_meters":12400,"station_id":"ce4bh3h2rcd13ifvqdn0","pricing_plan_id":"cebpf4jnsgd1na2vs0mg"},{"bike_id":"c92a4408-ed8f-42b3-b115-46f364b6b08b","system_id":"levelo_inurba_marseille","lat":43.30947,"lon":5.39034,"is_reserved":false,"is_disabled":false,"rental_uris":{"android":"levelo://app?vid=c92a4408-ed8f-42b3-b115-46f364b6b08b","ios":"levelo://app?vid=c92a4408-ed8f-42b3-b115-46f364b6b08b"},"vehicle_type_id":"4","last_reported":1743405025,"current_range_meters":12400,"station_id":"ce4bgup2rcd13ifvqco0","pricing_plan_id":"cebpf4jnsgd1na2vs0mg"},{"bike_id":"17a6c01e-86c5-44cf-af58-45135c759a59","system_id":"levelo_inurba_marseille","lat":43.24089,"lon":5.37765,"is_reserved":false,"is_disabled":false,"rental_uris":{"android":"levelo://app?vid=17a6c01e-86c5-44cf-af58-45135c759a59","ios":"levelo://app?vid=17a6c01e-86c5-44cf-af58-45135c759a59"},"vehicle_type_id":"4","last_reported":1743405025,"current_range_meters":12400,"station_id":"ce4bhnp2rcd13ifvqgvg","pricing_plan_id":"cebpf4jnsgd1na2vs0mg"},{"bike_id":"fb4b7257-a329-4750-8899-5218c646dc6a","system_id":"levelo_inurba_marseille","lat":43.30539,"lon":5.36538,"is_reserved":false,"is_disabled":true,"rental_uris":{"android":"levelo://app?vid=fb4b7257-a329-4750-8899-5218c646dc6a","ios":"levelo://app?vid=fb4b7257-a329-4750-8899-5218c646dc6a"},"vehicle_type_id":"4","last_reported":1743405025,"current_range_meters":12400,"station_id":"ce4bgs12rcd13ifvqcag","pricing_plan_id":"cebpf4jnsgd1na2vs0mg"},{"bike_id":"f207853b-de04-4096-9983-e31c1e3e698c","system_id":"levelo_inurba_marseille","lat":43.32101,"lon":5.36771,"is_reserved":false,"is_disabled":false,"rental_uris":{"android":"levelo://app?vid=f207853b-de04-4096-9983-e31c1e3e698c","ios":"levelo://app?vid=f207853b-de04-4096-9983-e31c1e3e698c"},"vehicle_type_id":"4","last_reported":1743405025,"current_range_meters":12400,"station_id":"ce4bhrh2rcd13ifvqhug","pricing_plan_id":"cebpf4jnsgd1na2vs0mg"},{"bike_id":"24a26cc1-e86a-4373-bbfa-fe2533da907a","system_id":"levelo_inurba_marseille","lat":43.30531,"lon":5.36724,"is_reserved":false,"is_disabled":false,"rental_uris":{"android":"levelo://app?vid=24a26cc1-e86a-4373-bbfa-fe2533da907a","ios":"levelo://app?vid=24a26cc1-e86a-4373-bbfa-fe2533da907a"},"vehicle_type_id":"4","last_reported":1743405025,"current_range_meters":12800,"station_id":"ce4bgrp2rcd13ifvqc9g","pricing_plan_id":"cebpf4jnsgd1na2vs0mg"},{"bike_id":"cc307718-8248-4a1c-9ee9-f23984243416","system_id":"levelo_inurba_marseille","lat":43.297814,"lon":5.381569,"is_reserved":false,"is_disabled":true,"rental_uris":{"android":"levelo://app?vid=cc307718-8248-4a1c-9ee9-f23984243416","ios":"levelo://app?vid=cc307718-8248-4a1c-9ee9-f23984243416"},"vehicle_type_id":"4","last_reported":1743405025,"current_range_meters":12800,"station_id":"","pricing_plan_id":"cebpf4jnsgd1na2vs0mg"},{"bike_id":"b757f3be-eae5-4ffe-832b-0c4354cdaac9","system_id":"levelo_inurba_marseille","lat":43.279673,"lon":5.387326,"is_reserved":false,"is_disabled":false,"rental_uris":{"android":"levelo://app?vid=b757f3be-eae5-4ffe-832b-0c4354cdaac9","ios":"levelo://app?vid=b757f3be-eae5-4ffe-832b-0c4354cdaac9"},"vehicle_type_id":"4","last_reported":1743405025,"current_range_meters":12800,"station_id":"ce4bhg12rcd13ifvqf80","pricing_plan_id":"cebpf4jnsgd1na2vs0mg"},{"bike_id":"038b527a-e308-42ff-9e81-b00006d08dda","system_id":"levelo_inurba_marseille","lat":43.2894,"lon":5.39629,"is_reserved":false,"is_disabled":false,"rental_uris":{"android":"levelo://app?vid=038b527a-e308-42ff-9e81-b00006d08dda","ios":"levelo://app?vid=038b527a-e308-42ff-9e81-b00006d08dda"},"vehicle_type_id":"4","last_reported":1743405025,"current_range_meters":12800,"station_id":"ce4bh3h2rcd13ifvqdn0","pricing_plan_id":"cebpf4jnsgd1na2vs0mg"},{"bike_id":"47c01928-ec7e-4e92-8da3-f78178d39771","system_id":"levelo_inurba_marseille","lat":43.30108,"lon":5.39888,"is_reserved":false,"is_disabled":true,"rental_uris":{"android":"levelo://app?vid=47c01928-ec7e-4e92-8da3-f78178d39771","ios":"levelo://app?vid=47c01928-ec7e-4e92-8da3-f78178d39771"},"vehicle_type_id":"4","last_reported":1743405025,"current_range_meters":12800,"station_id":"ce4bh0h2rcd13ifvqd40","pricing_plan_id":"cebpf4jnsgd1na2vs0mg"},{"bike_id":"6b71c936-cb56-4af7-9146-21a41f4f923f","system_id":"levelo_inurba_marseille","lat":43.29036,"lon":5.39975,"is_reserved":false,"is_disabled":false,"rental_uris":{"android":"levelo://app?vid=6b71c936-cb56-4af7-9146-21a41f4f923f","ios":"levelo://app?vid=6b71c936-cb56-4af7-9146-21a41f4f923f"},"vehicle_type_id":"4","last_reported":1743405025,"current_range_meters":12800,"station_id":"ce4bh392rcd13ifvqdm0","pricing_plan_id":"cebpf4jnsgd1na2vs0mg"},{"bike_id":"f5d6a402-5ce8-4bba-abe7-49a5f1cdc714","system_id":"levelo_inurba_marseille","lat":43.27499,"lon":5.42447,"is_reserved":false,"is_disabled":false,"rental_uris":{"android":"levelo://app?vid=f5d6a402-5ce8-4bba-abe7-49a5f1cdc714","ios":"levelo://app?vid=f5d6a402-5ce8-4bba-abe7-49a5f1cdc714"},"vehicle_type_id":"4","last_reported":1743405025,"current_range_meters":12800,"station_id":"ce4bhn92rcd13ifvqgrg","pricing_plan_id":"cebpf4jnsgd1na2vs0mg"},{"bike_id":"7fc853a2-7ac2-4d60-8c3e-7edbf2b93f47","system_id":"levelo_inurba_marseille","lat":43.30788,"lon":5.37667,"is_reserved":false,"is_disabled":false,"rental_uris":{"android":"levelo://app?vid=7fc853a2-7ac2-4d60-8c3e-7edbf2b93f47","ios":"levelo://app?vid=7fc853a2-7ac2-4d60-8c3e-7edbf2b93f47"},"vehicle_type_id":"4","last_reported":1743405025,"current_range_meters":12800,"station_id":"ce4bgv92rcd13ifvqcq0","pricing_plan_id":"cebpf4jnsgd1na2vs0mg"},{"bike_id":"19c4d38c-721f-4a6d-8de0-ad162aee3dc3","system_id":"levelo_inurba_marseille","lat":43.29873,"lon":5.38912,"is_reserved":false,"is_disabled":true,"rental_uris":{"android":"levelo://app?vid=19c4d38c-721f-4a6d-8de0-ad162aee3dc3","ios":"levelo://app?vid=19c4d38c-721f-4a6d-8de0-ad162aee3dc3"},"vehicle_type_id":"4","last_reported":1743405025,"current_range_meters":13600,"station_id":"ce4bh392rcd13ifvqdl0","pricing_plan_id":"cebpf4jnsgd1na2vs0mg"},{"bike_id":"29a7a33a-ba92-4de5-96dc-53f67156e633","system_id":"levelo_inurba_marseille","lat":43.30482,"lon":5.37904,"is_reserved":false,"is_disabled":false,"rental_uris":{"android":"levelo://app?vid=29a7a33a-ba92-4de5-96dc-53f67156e633","ios":"levelo://app?vid=29a7a33a-ba92-4de5-96dc-53f67156e633"},"vehicle_type_id":"4","last_reported":1743405025,"current_range_meters":13600,"station_id":"ce4bgup2rcd13ifvqcn0","pricing_plan_id":"cebpf4jnsgd1na2vs0mg"},{"bike_id":"8678decb-8d5c-4089-b866-b5afd0246caa","system_id":"levelo_inurba_marseille","lat":43.2936,"lon":5.37846,"is_reserved":false,"is_disabled":false,"rental_uris":{"android":"levelo://app?vid=8678decb-8d5c-4089-b866-b5afd0246caa","ios":"levelo://app?vid=8678decb-8d5c-4089-b866-b5afd0246caa"},"vehicle_type_id":"4","last_reported":1743405025,"current_range_meters":13600,"station_id":"ce4bgjh2rcd13ifvqbf0","pricing_plan_id":"cebpf4jnsgd1na2vs0mg"},{"bike_id":"33ac7997-e875-45e5-a20f-760ee6b4a597","system_id":"levelo_inurba_marseille","lat":43.25942,"lon":5.40905,"is_reserved":false,"is_disabled":false,"rental_uris":{"android":"levelo://app?vid=33ac7997-e875-45e5-a20f-760ee6b4a597","ios":"levelo://app?vid=33ac7997-e875-45e5-a20f-760ee6b4a597"},"vehicle_type_id":"4","last_reported":1743405025,"current_range_meters":13600,"station_id":"ce4bhm92rcd13ifvqglg","pricing_plan_id":"cebpf4jnsgd1na2vs0mg"},{"bike_id":"c3689a63-1d58-4137-a12d-d7cbc439865c","system_id":"levelo_inurba_marseille","lat":43.27918,"lon":5.38317,"is_reserved":false,"is_disabled":false,"rental_uris":{"android":"levelo://app?vid=c3689a63-1d58-4137-a12d-d7cbc439865c","ios":"levelo://app?vid=c3689a63-1d58-4137-a12d-d7cbc439865c"},"vehicle_type_id":"4","last_reported":1743405025,"current_range_meters":13600,"station_id":"","pricing_plan_id":"cebpf4jnsgd1na2vs0mg"},{"bike_id":"2b480e4b-b8a7-4f29-8488-c72025a00414","system_id":"levelo_inurba_marseille","lat":43.3044,"lon":5.37892,"is_reserved":false,"is_disabled":false,"rental_uris":{"android":"levelo://app?vid=2b480e4b-b8a7-4f29-8488-c72025a00414","ios":"levelo://app?vid=2b480e4b-b8a7-4f29-8488-c72025a00414"},"vehicle_type_id":"4","last_reported":1743405025,"current_range_meters":13600,"station_id":"ce4bgup2rcd13ifvqcn0","pricing_plan_id":"cebpf4jnsgd1na2vs0mg"},{"bike_id":"3897bf96-03e2-406c-8886-331235583a77","system_id":"levelo_inurba_marseille","lat":43.2795,"lon":5.41086,"is_reserved":false,"is_disabled":false,"rental_uris":{"android":"levelo://app?vid=3897bf96-03e2-406c-8886-331235583a77","ios":"levelo://app?vid=3897bf96-03e2-406c-8886-331235583a77"},"vehicle_type_id":"4","last_reported":1743405025,"current_range_meters":13600,"station_id":"ce4bhnp2rcd13ifvqh0g","pricing_plan_id":"cebpf4jnsgd1na2vs0mg"},{"bike_id":"08e023cc-498c-4cff-acdd-8edb1143f6d8","system_id":"levelo_inurba_marseille","lat":43.30108,"lon":5.39087,"is_reserved":false,"is_disabled":false,"rental_uris":{"android":"levelo://app?vid=08e023cc-498c-4cff-acdd-8edb1143f6d8","ios":"levelo://app?vid=08e023cc-498c-4cff-acdd-8edb1143f6d8"},"vehicle_type_id":"4","last_reported":1743405025,"current_range_meters":13600,"station_id":"ce4bh192rcd13ifvqdb0","pricing_plan_id":"cebpf4jnsgd1na2vs0mg"},{"bike_id":"e3ed6a7b-116d-4bce-98f8-0c4519635233","system_id":"levelo_inurba_marseille","lat":43.31921,"lon":5.37426,"is_reserved":false,"is_disabled":false,"rental_uris":{"android":"levelo://app?vid=e3ed6a7b-116d-4bce-98f8-0c4519635233","ios":"levelo://app?vid=e3ed6a7b-116d-4bce-98f8-0c4519635233"},"vehicle_type_id":"4","last_reported":1743405025,"current_range_meters":13600,"station_id":"","pricing_plan_id":"cebpf4jnsgd1na2vs0mg"},{"bike_id":"4f17b871-ba95-41f9-a060-79323afdd30a","system_id":"levelo_inurba_marseille","lat":43.2957,"lon":5.3753,"is_reserved":false,"is_disabled":true,"rental_uris":{"android":"levelo://app?vid=4f17b871-ba95-41f9-a060-79323afdd30a","ios":"levelo://app?vid=4f17b871-ba95-41f9-a060-79323afdd30a"},"vehicle_type_id":"4","last_reported":1743405025,"current_range_meters":14000,"station_id":"ce4bgh92rcd13ifvqb50","pricing_plan_id":"cebpf4jnsgd1na2vs0mg"},{"bike_id":"3c142775-ab4d-4000-9b50-5706f9d47292","system_id":"levelo_inurba_marseille","lat":43.295851,"lon":5.375365,"is_reserved":false,"is_disabled":false,"rental_uris":{"android":"levelo://app?vid=3c142775-ab4d-4000-9b50-5706f9d47292","ios":"levelo://app?vid=3c142775-ab4d-4000-9b50-5706f9d47292"},"vehicle_type_id":"4","last_reported":1743405025,"current_range_meters":13600,"station_id":"ce4bgkp2rcd13ifvqbmg","pricing_plan_id":"cebpf4jnsgd1na2vs0mg"},{"bike_id":"27d3c47e-bf7b-497a-a92b-fd39c85c24b8","system_id":"levelo_inurba_marseille","lat":43.25078,"lon":5.39536,"is_reserved":false,"is_disabled":false,"rental_uris":{"android":"levelo://app?vid=27d3c47e-bf7b-497a-a92b-fd39c85c24b8","ios":"levelo://app?vid=27d3c47e-bf7b-497a-a92b-fd39c85c24b8"},"vehicle_type_id":"4","last_reported":1743405025,"current_range_meters":14000,"station_id":"ce4bhm12rcd13ifvqgkg","pricing_plan_id":"cebpf4jnsgd1na2vs0mg"},{"bike_id":"fd63be84-051e-408d-b006-77fc7d83d3c7","system_id":"levelo_inurba_marseille","lat":43.32232,"lon":5.39418,"is_reserved":false,"is_disabled":false,"rental_uris":{"android":"levelo://app?vid=fd63be84-051e-408d-b006-77fc7d83d3c7","ios":"levelo://app?vid=fd63be84-051e-408d-b006-77fc7d83d3c7"},"vehicle_type_id":"4","last_reported":1743405025,"current_range_meters":14000,"station_id":"","pricing_plan_id":"cebpf4jnsgd1na2vs0mg"},{"bike_id":"6722f85c-5cc6-440c-913d-79255823cb26","system_id":"levelo_inurba_marseille","lat":43.25937,"lon":5.40911,"is_reserved":false,"is_disabled":false,"rental_uris":{"android":"levelo://app?vid=6722f85c-5cc6-440c-913d-79255823cb26","ios":"levelo://app?vid=6722f85c-5cc6-440c-913d-79255823cb26"},"vehicle_type_id":"4","last_reported":1743405025,"current_range_meters":14000,"station_id":"ce4bhm92rcd13ifvqglg","pricing_plan_id":"cebpf4jnsgd1na2vs0mg"},{"bike_id":"90c7e37f-2784-4384-91a6-a0d847368809","system_id":"levelo_inurba_marseille","lat":43.29619,"lon":5.37156,"is_reserved":false,"is_disabled":false,"rental_uris":{"android":"levelo://app?vid=90c7e37f-2784-4384-91a6-a0d847368809","ios":"levelo://app?vid=90c7e37f-2784-4384-91a6-a0d847368809"},"vehicle_type_id":"4","last_reported":1743405025,"current_range_meters":14400,"station_id":"ce4bgnh2rcd13ifvqc0g","pricing_plan_id":"cebpf4jnsgd1na2vs0mg"},{"bike_id":"e76ba351-bce5-4c63-a566-45c27b7a51f2","system_id":"levelo_inurba_marseille","lat":43.30486,"lon":5.37895,"is_reserved":false,"is_disabled":false,"rental_uris":{"android":"levelo://app?vid=e76ba351-bce5-4c63-a566-45c27b7a51f2","ios":"levelo://app?vid=e76ba351-bce5-4c63-a566-45c27b7a51f2"},"vehicle_type_id":"4","last_reported":1743405025,"current_range_meters":14400,"station_id":"ce4bgup2rcd13ifvqcn0","pricing_plan_id":"cebpf4jnsgd1na2vs0mg"},{"bike_id":"5915aca7-2495-4469-99ac-32a8a1666bb8","system_id":"levelo_inurba_marseille","lat":43.25933,"lon":5.40908,"is_reserved":false,"is_disabled":false,"rental_uris":{"android":"levelo://app?vid=5915aca7-2495-4469-99ac-32a8a1666bb8","ios":"levelo://app?vid=5915aca7-2495-4469-99ac-32a8a1666bb8"},"vehicle_type_id":"4","last_reported":1743405025,"current_range_meters":14400,"station_id":"ce4bhm92rcd13ifvqglg","pricing_plan_id":"cebpf4jnsgd1na2vs0mg"},{"bike_id":"4d93c8e2-63eb-4540-a491-279937238391","system_id":"levelo_inurba_marseille","lat":43.29304,"lon":5.37462,"is_reserved":false,"is_disabled":false,"rental_uris":{"android":"levelo://app?vid=4d93c8e2-63eb-4540-a491-279937238391","ios":"levelo://app?vid=4d93c8e2-63eb-4540-a491-279937238391"},"vehicle_type_id":"4","last_reported":1743405025,"current_range_meters":14400,"station_id":"ce4bgi12rcd13ifvqb70","pricing_plan_id":"cebpf4jnsgd1na2vs0mg"},{"bike_id":"346257b5-2862-4413-8d65-a3b74cb2b34e","system_id":"levelo_inurba_marseille","lat":43.29772,"lon":5.37102,"is_reserved":false,"is_disabled":false,"rental_uris":{"android":"levelo://app?vid=346257b5-2862-4413-8d65-a3b74cb2b34e","ios":"levelo://app?vid=346257b5-2862-4413-8d65-a3b74cb2b34e"},"vehicle_type_id":"4","last_reported":1743405025,"current_range_meters":14400,"station_id":"ce4bgop2rcd13ifvqc1g","pricing_plan_id":"cebpf4jnsgd1na2vs0mg"},{"bike_id":"6a27b63c-15d2-4654-afe0-8a10384f7538","system_id":"levelo_inurba_marseille","lat":43.298672,"lon":5.397236,"is_reserved":false,"is_disabled":false,"rental_uris":{"android":"levelo://app?vid=6a27b63c-15d2-4654-afe0-8a10384f7538","ios":"levelo://app?vid=6a27b63c-15d2-4654-afe0-8a10384f7538"},"vehicle_type_id":"4","last_reported":1743405025,"current_range_meters":14400,"station_id":"ce4bh0h2rcd13ifvqd50","pricing_plan_id":"cebpf4jnsgd1na2vs0mg"},{"bike_id":"8f4145c4-1bd6-401b-a227-c2c77bf7d7af","system_id":"levelo_inurba_marseille","lat":43.30248,"lon":5.4007,"is_reserved":false,"is_disabled":true,"rental_uris":{"android":"levelo://app?vid=8f4145c4-1bd6-401b-a227-c2c77bf7d7af","ios":"levelo://app?vid=8f4145c4-1bd6-401b-a227-c2c77bf7d7af"},"vehicle_type_id":"4","last_reported":1743405025,"current_range_meters":14400,"station_id":"ce4bgvh2rcd13ifvqcs0","pricing_plan_id":"cebpf4jnsgd1na2vs0mg"},{"bike_id":"a9d4870d-0524-41de-97b5-412d6276f587","system_id":"levelo_inurba_marseille","lat":43.26957,"lon":5.38635,"is_reserved":false,"is_disabled":false,"rental_uris":{"android":"levelo://app?vid=a9d4870d-0524-41de-97b5-412d6276f587","ios":"levelo://app?vid=a9d4870d-0524-41de-97b5-412d6276f587"},"vehicle_type_id":"4","last_reported":1743405025,"current_range_meters":14400,"station_id":"ce4bhh92rcd13ifvqfh0","pricing_plan_id":"cebpf4jnsgd1na2vs0mg"},{"bike_id":"d5041ace-7a1d-4c61-bddb-9c5dfed59443","system_id":"levelo_inurba_marseille","lat":43.32494,"lon":5.36559,"is_reserved":false,"is_disabled":false,"rental_uris":{"android":"levelo://app?vid=d5041ace-7a1d-4c61-bddb-9c5dfed59443","ios":"levelo://app?vid=d5041ace-7a1d-4c61-bddb-9c5dfed59443"},"vehicle_type_id":"4","last_reported":1743405025,"current_range_meters":14800,"station_id":"ce4bhs12rcd13ifvqhvg","pricing_plan_id":"cebpf4jnsgd1na2vs0mg"},{"bike_id":"1cd28bed-61d7-4a22-af45-26186acb2d66","system_id":"levelo_inurba_marseille","lat":43.335876,"lon":5.410166,"is_reserved":false,"is_disabled":false,"rental_uris":{"android":"levelo://app?vid=1cd28bed-61d7-4a22-af45-26186acb2d66","ios":"levelo://app?vid=1cd28bed-61d7-4a22-af45-26186acb2d66"},"vehicle_type_id":"4","last_reported":1743405025,"current_range_meters":14800,"station_id":"ce4bhqh2rcd13ifvqhmg","pricing_plan_id":"cebpf4jnsgd1na2vs0mg"},{"bike_id":"563f1298-5e80-43d7-bd83-8b78e60378b3","system_id":"levelo_inurba_marseille","lat":43.30523,"lon":5.36523,"is_reserved":false,"is_disabled":false,"rental_uris":{"android":"levelo://app?vid=563f1298-5e80-43d7-bd83-8b78e60378b3","ios":"levelo://app?vid=563f1298-5e80-43d7-bd83-8b78e60378b3"},"vehicle_type_id":"4","last_reported":1743405025,"current_range_meters":14800,"station_id":"ce4bgs12rcd13ifvqcag","pricing_plan_id":"cebpf4jnsgd1na2vs0mg"},{"bike_id":"37770174-0dfb-43a7-89b9-a6a83928c006","system_id":"levelo_inurba_marseille","lat":43.3016,"lon":5.37429,"is_reserved":false,"is_disabled":false,"rental_uris":{"android":"levelo://app?vid=37770174-0dfb-43a7-89b9-a6a83928c006","ios":"levelo://app?vid=37770174-0dfb-43a7-89b9-a6a83928c006"},"vehicle_type_id":"4","last_reported":1743405025,"current_range_meters":15200,"station_id":"ce4bgs92rcd13ifvqcc0","pricing_plan_id":"cebpf4jnsgd1na2vs0mg"},{"bike_id":"32b32d1e-89ca-40f7-a833-776b187be826","system_id":"levelo_inurba_marseille","lat":43.34145,"lon":5.40908,"is_reserved":false,"is_disabled":false,"rental_uris":{"android":"levelo://app?vid=32b32d1e-89ca-40f7-a833-776b187be826","ios":"levelo://app?vid=32b32d1e-89ca-40f7-a833-776b187be826"},"vehicle_type_id":"4","last_reported":1743405025,"current_range_meters":15200,"station_id":"ce4bhqh2rcd13ifvqhlg","pricing_plan_id":"cebpf4jnsgd1na2vs0mg"},{"bike_id":"398a3122-f2e5-4eee-a551-fcbcdad8c05a","system_id":"levelo_inurba_marseille","lat":43.28913,"lon":5.39643,"is_reserved":false,"is_disabled":false,"rental_uris":{"android":"levelo://app?vid=398a3122-f2e5-4eee-a551-fcbcdad8c05a","ios":"levelo://app?vid=398a3122-f2e5-4eee-a551-fcbcdad8c05a"},"vehicle_type_id":"4","last_reported":1743405025,"current_range_meters":15200,"station_id":"ce4bh3h2rcd13ifvqdn0","pricing_plan_id":"cebpf4jnsgd1na2vs0mg"},{"bike_id":"c64e7ca7-5310-4c52-99b0-846521c60b8f","system_id":"levelo_inurba_marseille","lat":43.29807,"lon":5.38109,"is_reserved":false,"is_disabled":false,"rental_uris":{"android":"levelo://app?vid=c64e7ca7-5310-4c52-99b0-846521c60b8f","ios":"levelo://app?vid=c64e7ca7-5310-4c52-99b0-846521c60b8f"},"vehicle_type_id":"4","last_reported":1743405025,"current_range_meters":15200,"station_id":"ce4bgip2rcd13ifvqbb0","pricing_plan_id":"cebpf4jnsgd1na2vs0mg"},{"bike_id":"11616f39-29f1-4fc8-9d80-72b992e1abaf","system_id":"levelo_inurba_marseille","lat":43.24076,"lon":5.37718,"is_reserved":false,"is_disabled":false,"rental_uris":{"android":"levelo://app?vid=11616f39-29f1-4fc8-9d80-72b992e1abaf","ios":"levelo://app?vid=11616f39-29f1-4fc8-9d80-72b992e1abaf"},"vehicle_type_id":"4","last_reported":1743405025,"current_range_meters":15200,"station_id":"ce4bhnp2rcd13ifvqgvg","pricing_plan_id":"cebpf4jnsgd1na2vs0mg"},{"bike_id":"ebd2df61-ad15-4d52-846f-320738e68797","system_id":"levelo_inurba_marseille","lat":43.304623,"lon":5.37907,"is_reserved":false,"is_disabled":false,"rental_uris":{"android":"levelo://app?vid=ebd2df61-ad15-4d52-846f-320738e68797","ios":"levelo://app?vid=ebd2df61-ad15-4d52-846f-320738e68797"},"vehicle_type_id":"4","last_reported":1743405025,"current_range_meters":15200,"station_id":"ce4bgup2rcd13ifvqcn0","pricing_plan_id":"cebpf4jnsgd1na2vs0mg"},{"bike_id":"163042f9-7d1d-473a-af46-b9e77211e2ce","system_id":"levelo_inurba_marseille","lat":43.27493,"lon":5.42447,"is_reserved":false,"is_disabled":true,"rental_uris":{"android":"levelo://app?vid=163042f9-7d1d-473a-af46-b9e77211e2ce","ios":"levelo://app?vid=163042f9-7d1d-473a-af46-b9e77211e2ce"},"vehicle_type_id":"4","last_reported":1743405025,"current_range_meters":15200,"station_id":"ce4bhn92rcd13ifvqgrg","pricing_plan_id":"cebpf4jnsgd1na2vs0mg"},{"bike_id":"c0df8ce0-b306-461c-9ebc-778c2050dfa4","system_id":"levelo_inurba_marseille","lat":43.30269,"lon":5.36905,"is_reserved":false,"is_disabled":false,"rental_uris":{"android":"levelo://app?vid=c0df8ce0-b306-461c-9ebc-778c2050dfa4","ios":"levelo://app?vid=c0df8ce0-b306-461c-9ebc-778c2050dfa4"},"vehicle_type_id":"4","last_reported":1743405025,"current_range_meters":16000,"station_id":"ce4bgqh2rcd13ifvqc5g","pricing_plan_id":"cebpf4jnsgd1na2vs0mg"},{"bike_id":"ef4cd4df-dfe6-46b4-baf8-eb01cb6d1741","system_id":"levelo_inurba_marseille","lat":43.28149,"lon":5.4267,"is_reserved":false,"is_disabled":false,"rental_uris":{"android":"levelo://app?vid=ef4cd4df-dfe6-46b4-baf8-eb01cb6d1741","ios":"levelo://app?vid=ef4cd4df-dfe6-46b4-baf8-eb01cb6d1741"},"vehicle_type_id":"4","last_reported":1743405025,"current_range_meters":16000,"station_id":"ce4bhnh2rcd13ifvqgug","pricing_plan_id":"cebpf4jnsgd1na2vs0mg"},{"bike_id":"6df0e861-e6fd-4074-b758-f7a411e79493","system_id":"levelo_inurba_marseille","lat":43.26962,"lon":5.38638,"is_reserved":false,"is_disabled":false,"rental_uris":{"android":"levelo://app?vid=6df0e861-e6fd-4074-b758-f7a411e79493","ios":"levelo://app?vid=6df0e861-e6fd-4074-b758-f7a411e79493"},"vehicle_type_id":"4","last_reported":1743405025,"current_range_meters":16000,"station_id":"ce4bhh92rcd13ifvqfh0","pricing_plan_id":"cebpf4jnsgd1na2vs0mg"},{"bike_id":"dfbc8e1e-55d2-4599-b920-13243f77f976","system_id":"levelo_inurba_marseille","lat":43.31209,"lon":5.36848,"is_reserved":false,"is_disabled":false,"rental_uris":{"android":"levelo://app?vid=dfbc8e1e-55d2-4599-b920-13243f77f976","ios":"levelo://app?vid=dfbc8e1e-55d2-4599-b920-13243f77f976"},"vehicle_type_id":"4","last_reported":1743405025,"current_range_meters":16000,"station_id":"ce4bgl92rcd13ifvqbq0","pricing_plan_id":"cebpf4jnsgd1na2vs0mg"},{"bike_id":"d68d2956-d75c-40e9-99d8-1c000212fc45","system_id":"levelo_inurba_marseille","lat":43.2971,"lon":5.3661,"is_reserved":false,"is_disabled":false,"rental_uris":{"android":"levelo://app?vid=d68d2956-d75c-40e9-99d8-1c000212fc45","ios":"levelo://app?vid=d68d2956-d75c-40e9-99d8-1c000212fc45"},"vehicle_type_id":"4","last_reported":1743405025,"current_range_meters":16000,"station_id":"ce4bgn12rcd13ifvqbt0","pricing_plan_id":"cebpf4jnsgd1na2vs0mg"},{"bike_id":"da56271d-f817-4d2a-b8ba-5220152f7401","system_id":"levelo_inurba_marseille","lat":43.309,"lon":5.36871,"is_reserved":false,"is_disabled":false,"rental_uris":{"android":"levelo://app?vid=da56271d-f817-4d2a-b8ba-5220152f7401","ios":"levelo://app?vid=da56271d-f817-4d2a-b8ba-5220152f7401"},"vehicle_type_id":"4","last_reported":1743405025,"current_range_meters":16000,"station_id":"ce4bgn92rcd13ifvqbvg","pricing_plan_id":"cebpf4jnsgd1na2vs0mg"},{"bike_id":"666b44e7-b710-4f18-81e8-6a0f6cb4fe3b","system_id":"levelo_inurba_marseille","lat":43.31489,"lon":5.37298,"is_reserved":false,"is_disabled":false,"rental_uris":{"android":"levelo://app?vid=666b44e7-b710-4f18-81e8-6a0f6cb4fe3b","ios":"levelo://app?vid=666b44e7-b710-4f18-81e8-6a0f6cb4fe3b"},"vehicle_type_id":"4","last_reported":1743405025,"current_range_meters":16000,"station_id":"ce4bgt12rcd13ifvqcd0","pricing_plan_id":"cebpf4jnsgd1na2vs0mg"},{"bike_id":"bd368eb1-94ca-403e-a36f-40b278b7713b","system_id":"levelo_inurba_marseille","lat":43.30111,"lon":5.38785,"is_reserved":false,"is_disabled":true,"rental_uris":{"android":"levelo://app?vid=bd368eb1-94ca-403e-a36f-40b278b7713b","ios":"levelo://app?vid=bd368eb1-94ca-403e-a36f-40b278b7713b"},"vehicle_type_id":"4","last_reported":1743405025,"current_range_meters":16400,"station_id":"ce4bghh2rcd13ifvqb60","pricing_plan_id":"cebpf4jnsgd1na2vs0mg"},{"bike_id":"8ad5a0e6-2e1d-4620-98e5-d82ff1bb3227","system_id":"levelo_inurba_marseille","lat":43.24547,"lon":5.39527,"is_reserved":false,"is_disabled":false,"rental_uris":{"android":"levelo://app?vid=8ad5a0e6-2e1d-4620-98e5-d82ff1bb3227","ios":"levelo://app?vid=8ad5a0e6-2e1d-4620-98e5-d82ff1bb3227"},"vehicle_type_id":"4","last_reported":1743405025,"current_range_meters":16000,"station_id":"ce4bhlp2rcd13ifvqgjg","pricing_plan_id":"cebpf4jnsgd1na2vs0mg"},{"bike_id":"a9a1ec5e-e242-4104-8651-9b1cbd5d867f","system_id":"levelo_inurba_marseille","lat":43.29615,"lon":5.37721,"is_reserved":false,"is_disabled":true,"rental_uris":{"android":"levelo://app?vid=a9a1ec5e-e242-4104-8651-9b1cbd5d867f","ios":"levelo://app?vid=a9a1ec5e-e242-4104-8651-9b1cbd5d867f"},"vehicle_type_id":"4","last_reported":1743405025,"current_range_meters":16400,"station_id":"ce4bgi92rcd13ifvqb90","pricing_plan_id":"cebpf4jnsgd1na2vs0mg"},{"bike_id":"1d750dbe-fff1-4da4-a93a-0b35f881efa1","system_id":"levelo_inurba_marseille","lat":43.28942,"lon":5.39636,"is_reserved":false,"is_disabled":false,"rental_uris":{"android":"levelo://app?vid=1d750dbe-fff1-4da4-a93a-0b35f881efa1","ios":"levelo://app?vid=1d750dbe-fff1-4da4-a93a-0b35f881efa1"},"vehicle_type_id":"4","last_reported":1743405025,"current_range_meters":16400,"station_id":"ce4bh3h2rcd13ifvqdn0","pricing_plan_id":"cebpf4jnsgd1na2vs0mg"},{"bike_id":"27ad2e8d-4300-41ca-991d-77e2354c3ad5","system_id":"levelo_inurba_marseille","lat":43.29842,"lon":5.36267,"is_reserved":false,"is_disabled":false,"rental_uris":{"android":"levelo://app?vid=27ad2e8d-4300-41ca-991d-77e2354c3ad5","ios":"levelo://app?vid=27ad2e8d-4300-41ca-991d-77e2354c3ad5"},"vehicle_type_id":"4","last_reported":1743405025,"current_range_meters":16000,"station_id":"ce4bgpp2rcd13ifvqc3g","pricing_plan_id":"cebpf4jnsgd1na2vs0mg"},{"bike_id":"2de2b403-4911-4d4c-bc0f-f08ac2390aa4","system_id":"levelo_inurba_marseille","lat":43.31255,"lon":5.36884,"is_reserved":false,"is_disabled":false,"rental_uris":{"android":"levelo://app?vid=2de2b403-4911-4d4c-bc0f-f08ac2390aa4","ios":"levelo://app?vid=2de2b403-4911-4d4c-bc0f-f08ac2390aa4"},"vehicle_type_id":"4","last_reported":1743405025,"current_range_meters":16400,"station_id":"ce4bgl92rcd13ifvqbq0","pricing_plan_id":"cebpf4jnsgd1na2vs0mg"},{"bike_id":"5250d671-0de4-4b59-9123-3fcfe4aff0c7","system_id":"levelo_inurba_marseille","lat":43.24078,"lon":5.37804,"is_reserved":false,"is_disabled":false,"rental_uris":{"android":"levelo://app?vid=5250d671-0de4-4b59-9123-3fcfe4aff0c7","ios":"levelo://app?vid=5250d671-0de4-4b59-9123-3fcfe4aff0c7"},"vehicle_type_id":"4","last_reported":1743405025,"current_range_meters":16400,"station_id":"ce4bhnp2rcd13ifvqgvg","pricing_plan_id":"cebpf4jnsgd1na2vs0mg"},{"bike_id":"9f26f6b4-6f8c-41bd-9823-94cef41b22be","system_id":"levelo_inurba_marseille","lat":43.23207,"lon":5.40016,"is_reserved":false,"is_disabled":false,"rental_uris":{"android":"levelo://app?vid=9f26f6b4-6f8c-41bd-9823-94cef41b22be","ios":"levelo://app?vid=9f26f6b4-6f8c-41bd-9823-94cef41b22be"},"vehicle_type_id":"4","last_reported":1743405025,"current_range_meters":16400,"station_id":"ce4bhn12rcd13ifvqgqg","pricing_plan_id":"cebpf4jnsgd1na2vs0mg"},{"bike_id":"ef9d5cd2-85fe-4908-be3c-e150690cbc6b","system_id":"levelo_inurba_marseille","lat":43.27494,"lon":5.42455,"is_reserved":false,"is_disabled":false,"rental_uris":{"android":"levelo://app?vid=ef9d5cd2-85fe-4908-be3c-e150690cbc6b","ios":"levelo://app?vid=ef9d5cd2-85fe-4908-be3c-e150690cbc6b"},"vehicle_type_id":"4","last_reported":1743405025,"current_range_meters":16800,"station_id":"ce4bhn92rcd13ifvqgrg","pricing_plan_id":"cebpf4jnsgd1na2vs0mg"},{"bike_id":"3681230b-7c13-403f-bcb8-b8766b082d15","system_id":"levelo_inurba_marseille","lat":43.295953,"lon":5.380948,"is_reserved":false,"is_disabled":true,"rental_uris":{"android":"levelo://app?vid=3681230b-7c13-403f-bcb8-b8766b082d15","ios":"levelo://app?vid=3681230b-7c13-403f-bcb8-b8766b082d15"},"vehicle_type_id":"4","last_reported":1743405025,"current_range_meters":16800,"station_id":"ce4bgl12rcd13ifvqbo0","pricing_plan_id":"cebpf4jnsgd1na2vs0mg"},{"bike_id":"6298f8df-fd03-43a3-a50d-1857ffd16401","system_id":"levelo_inurba_marseille","lat":43.28453,"lon":5.37491,"is_reserved":false,"is_disabled":false,"rental_uris":{"android":"levelo://app?vid=6298f8df-fd03-43a3-a50d-1857ffd16401","ios":"levelo://app?vid=6298f8df-fd03-43a3-a50d-1857ffd16401"},"vehicle_type_id":"4","last_reported":1743405025,"current_range_meters":16800,"station_id":"","pricing_plan_id":"cebpf4jnsgd1na2vs0mg"},{"bike_id":"9076cba5-1376-4918-a6a1-9514e129d8a0","system_id":"levelo_inurba_marseille","lat":43.259152,"lon":5.409541,"is_reserved":false,"is_disabled":false,"rental_uris":{"android":"levelo://app?vid=9076cba5-1376-4918-a6a1-9514e129d8a0","ios":"levelo://app?vid=9076cba5-1376-4918-a6a1-9514e129d8a0"},"vehicle_type_id":"4","last_reported":1743405025,"current_range_meters":16800,"station_id":"ce4bhm92rcd13ifvqglg","pricing_plan_id":"cebpf4jnsgd1na2vs0mg"},{"bike_id":"b66b7558-fd0b-43cc-88de-6d5144cb4cd1","system_id":"levelo_inurba_marseille","lat":43.25105,"lon":5.40319,"is_reserved":false,"is_disabled":false,"rental_uris":{"android":"levelo://app?vid=b66b7558-fd0b-43cc-88de-6d5144cb4cd1","ios":"levelo://app?vid=b66b7558-fd0b-43cc-88de-6d5144cb4cd1"},"vehicle_type_id":"4","last_reported":1743405025,"current_range_meters":16400,"station_id":"ce4bhlh2rcd13ifvqgig","pricing_plan_id":"cebpf4jnsgd1na2vs0mg"},{"bike_id":"cc868e1a-be5f-48a5-8d5a-ff0a60ca5aa4","system_id":"levelo_inurba_marseille","lat":43.29198,"lon":5.35793,"is_reserved":false,"is_disabled":false,"rental_uris":{"android":"levelo://app?vid=cc868e1a-be5f-48a5-8d5a-ff0a60ca5aa4","ios":"levelo://app?vid=cc868e1a-be5f-48a5-8d5a-ff0a60ca5aa4"},"vehicle_type_id":"4","last_reported":1743405025,"current_range_meters":16800,"station_id":"ce4bhb12rcd13ifvqel0","pricing_plan_id":"cebpf4jnsgd1na2vs0mg"},{"bike_id":"1ebfe4cd-2aa6-4da0-986a-d783c44b44a1","system_id":"levelo_inurba_marseille","lat":43.28989,"lon":5.35609,"is_reserved":false,"is_disabled":true,"rental_uris":{"android":"levelo://app?vid=1ebfe4cd-2aa6-4da0-986a-d783c44b44a1","ios":"levelo://app?vid=1ebfe4cd-2aa6-4da0-986a-d783c44b44a1"},"vehicle_type_id":"4","last_reported":1743405025,"current_range_meters":16800,"station_id":"ce4bhb92rcd13ifvqen0","pricing_plan_id":"cebpf4jnsgd1na2vs0mg"},{"bike_id":"97b10035-4fd4-42bf-96a0-00e43267393b","system_id":"levelo_inurba_marseille","lat":43.298475,"lon":5.362851,"is_reserved":false,"is_disabled":false,"rental_uris":{"android":"levelo://app?vid=97b10035-4fd4-42bf-96a0-00e43267393b","ios":"levelo://app?vid=97b10035-4fd4-42bf-96a0-00e43267393b"},"vehicle_type_id":"4","last_reported":1743405025,"current_range_meters":17200,"station_id":"ce4bgpp2rcd13ifvqc3g","pricing_plan_id":"cebpf4jnsgd1na2vs0mg"},{"bike_id":"fde46fbb-d710-4201-a9d8-18dcf0d20d0b","system_id":"levelo_inurba_marseille","lat":43.30264,"lon":5.36898,"is_reserved":false,"is_disabled":false,"rental_uris":{"android":"levelo://app?vid=fde46fbb-d710-4201-a9d8-18dcf0d20d0b","ios":"levelo://app?vid=fde46fbb-d710-4201-a9d8-18dcf0d20d0b"},