{"last_updated":1726078303,"ttl":30,"version":"2.2","data":{"bikes":[{"bike_id":"93e18de5-f90d-4099-984d-64c548ceac59","system_id":"levelo_inurba_marseille","lat":43.24801,"lon":5.37456,"is_reserved":false,"is_disabled":false,"rental_uris":{"android":"levelo://app?vid=93e18de5-f90d-4099-984d-64c548ceac59","ios":"levelo://app?vid=93e18de5-f90d-4099-984d-64c548ceac59"},"vehicle_type_id":"4","last_reported":1726078303,"current_range_meters":32800,"station_id":"ce4bhgh2rcd13ifvqfb0","pricing_plan_id":"cebpf4jnsgd1na2vs0mg"},{"bike_id":"ac791e3e-bed6-4b58-b4d6-25288193f468","system_id":"levelo_inurba_marseille","lat":43.26211,"lon":5.37441,"is_reserved":false,"is_disabled":false,"rental_uris":{"android":"levelo://app?vid=ac791e3e-bed6-4b58-b4d6-25288193f468","ios":"levelo://app?vid=ac791e3e-bed6-4b58-b4d6-25288193f468"},"vehicle_type_id":"4","last_reported":1726078303,"current_range_meters":22800,"station_id":"ce4bhgp2rcd13ifvqfc0","pricing_plan_id":"cebpf4jnsgd1na2vs0mg"},{"bike_id":"f5e7ce42-7a07-40c5-977b-63d277c706bb","system_id":"levelo_inurba_marseille","lat":43.30648,"lon":5.40108,"is_reserved":false,"is_disabled":false,"rental_uris":{"android":"levelo://app?vid=f5e7ce42-7a07-40c5-977b-63d277c706bb","ios":"levelo://app?vid=f5e7ce42-7a07-40c5-977b-63d277c706bb"},"vehicle_type_id":"4","last_reported":1726078303,"current_range_meters":34000,"station_id":"ce4bh112rcd13ifvqda0","pricing_plan_id":"cebpf4jnsgd1na2vs0mg"},{"bike_id":"c8d8b2c1-e873-4901-b875-5672f75af04f","system_id":"levelo_inurba_marseille","lat":43.29005,"lon":5.35616,"is_reserved":false,"is_disabled":false,"rental_uris":{"android":"levelo://app?vid=c8d8b2c1-e873-4901-b875-5672f75af04f","ios":"levelo://app?vid=c8d8b2c1-e873-4901-b875-5672f75af04f"},"vehicle_type_id":"4","last_reported":1726078303,"current_range_meters":38800,"station_id":"ce4bhb92rcd13ifvqen0","pricing_plan_id":"cebpf4jnsgd1na2vs0mg"},{"bike_id":"fffd6d98-9aa9-4c52-8fec-a8c210be0600","system_id":"levelo_inurba_marseille","lat":43.30799,"lon":5.43521,"is_reserved":false,"is_disabled":false,"rental_uris":{"android":"levelo://app?vid=fffd6d98-9aa9-4c52-8fec-a8c210be0600","ios":"levelo://app?vid=fffd6d98-9aa9-4c52-8fec-a8c210be0600"},"vehicle_type_id":"4","last_reported":1726078303,"current_range_meters":22800,"station_id":"ce4bhph2rcd13ifvqheg","pricing_plan_id":"cebpf4jnsgd1na2vs0mg"},{"bike_id":"e8590ed1-1241-47ab-b8e9-5413de2d06e4","system_id":"levelo_inurba_marseille","lat":43.33025,"lon":5.39043,"is_reserved":false,"is_disabled":false,"rental_uris":{"android":"levelo://app?vid=e8590ed1-1241-47ab-b8e9-5413de2d06e4","ios":"levelo://app?vid=e8590ed1-1241-47ab-b8e9-5413de2d06e4"},"vehicle_type_id":"4","last_reported":1726078303,"current_range_meters":38400,"station_id":"ce4bhr92rcd13ifvqhrg","pricing_plan_id":"cebpf4jnsgd1na2vs0mg"},{"bike_id":"dda2e646-2c4f-4797-9db7-2e1991024ed4","system_id":"levelo_inurba_marseille","lat":43.28998,"lon":5.35623,"is_reserved":false,"is_disabled":false,"rental_uris":{"android":"levelo://app?vid=dda2e646-2c4f-4797-9db7-2e1991024ed4","ios":"levelo://app?vid=dda2e646-2c4f-4797-9db7-2e1991024ed4"},"vehicle_type_id":"4","last_reported":1726078303,"current_range_meters":38800,"station_id":"ce4bhb92rcd13ifvqen0","pricing_plan_id":"cebpf4jnsgd1na2vs0mg"},{"bike_id":"9e0b801e-5e69-49f7-9046-a0346f58d51e","system_id":"levelo_inurba_marseille","lat":43.27066,"lon":5.42286,"is_reserved":false,"is_disabled":false,"rental_uris":{"android":"levelo://app?vid=9e0b801e-5e69-49f7-9046-a0346f58d51e","ios":"levelo://app?vid=9e0b801e-5e69-49f7-9046-a0346f58d51e"},"vehicle_type_id":"4","last_reported":1726078303,"current_range_meters":38000,"station_id":"ce4bhk92rcd13ifvqgb0","pricing_plan_id":"cebpf4jnsgd1na2vs0mg"},{"bike_id":"8f2c1ac4-5b83-42c3-9c15-7f01d735a246","system_id":"levelo_inurba_marseille","lat":43.25007,"lon":5.38929,"is_reserved":false,"is_disabled":false,"rental_uris":{"android":"levelo://app?vid=8f2c1ac4-5b83-42c3-9c15-7f01d735a246","ios":"levelo://app?vid=8f2c1ac4-5b83-42c3-9c15-7f01d735a246"},"vehicle_type_id":"4","last_reported":1726078303,"current_range_meters":33200,"station_id":"ce4bhgp2rcd13ifvqfd0","pricing_plan_id":"cebpf4jnsgd1na2vs0mg"},{"bike_id":"4475f609-4512-49ca-b08a-b25998e16e50","system_id":"levelo_inurba_marseille","lat":43.30883,"lon":5.39659,"is_reserved":false,"is_disabled":false,"rental_uris":{"android":"levelo://app?vid=4475f609-4512-49ca-b08a-b25998e16e50","ios":"levelo://app?vid=4475f609-4512-49ca-b08a-b25998e16e50"},"vehicle_type_id":"4","last_reported":1726078303,"current_range_meters":20400,"station_id":"ce4bh012rcd13ifvqcv0","pricing_plan_id":"cebpf4jnsgd1na2vs0mg"},{"bike_id":"06919f4a-3438-4ab4-b50c-8fa58188a63c","system_id":"levelo_inurba_marseille","lat":43.25117,"lon":5.40329,"is_reserved":false,"is_disabled":false,"rental_uris":{"android":"levelo://app?vid=06919f4a-3438-4ab4-b50c-8fa58188a63c","ios":"levelo://app?vid=06919f4a-3438-4ab4-b50c-8fa58188a63c"},"vehicle_type_id":"4","last_reported":1726078303,"current_range_meters":16400,"station_id":"ce4bhlh2rcd13ifvqgig","pricing_plan_id":"cebpf4jnsgd1na2vs0mg"},{"bike_id":"35967576-4ebf-411e-9c13-7407a6687b61","system_id":"levelo_inurba_marseille","lat":43.323801,"lon":5.389265,"is_reserved":false,"is_disabled":false,"rental_uris":{"android":"levelo://app?vid=35967576-4ebf-411e-9c13-7407a6687b61","ios":"levelo://app?vid=35967576-4ebf-411e-9c13-7407a6687b61"},"vehicle_type_id":"4","last_reported":1726078303,"current_range_meters":36800,"station_id":"ce4bhqp2rcd13ifvqhog","pricing_plan_id":"cebpf4jnsgd1na2vs0mg"},{"bike_id":"f8d32a58-a037-4544-8f54-1564085895bc","system_id":"levelo_inurba_marseille","lat":43.29189,"lon":5.39329,"is_reserved":false,"is_disabled":false,"rental_uris":{"android":"levelo://app?vid=f8d32a58-a037-4544-8f54-1564085895bc","ios":"levelo://app?vid=f8d32a58-a037-4544-8f54-1564085895bc"},"vehicle_type_id":"4","last_reported":1726078303,"current_range_meters":3600,"station_id":"ce4bh192rcd13ifvqdd0","pricing_plan_id":"cebpf4jnsgd1na2vs0mg"},{"bike_id":"432b8699-9b5b-44b4-a53a-f18d71b985df","system_id":"levelo_inurba_marseille","lat":43.29273,"lon":5.38443,"is_reserved":false,"is_disabled":false,"rental_uris":{"android":"levelo://app?vid=432b8699-9b5b-44b4-a53a-f18d71b985df","ios":"levelo://app?vid=432b8699-9b5b-44b4-a53a-f18d71b985df"},"vehicle_type_id":"4","last_reported":1726078303,"current_range_meters":35600,"station_id":"ce4bh692rcd13ifvqea0","pricing_plan_id":"cebpf4jnsgd1na2vs0mg"},{"bike_id":"9e8ed088-3ae5-4765-989d-dd572984f98a","system_id":"levelo_inurba_marseille","lat":43.2849,"lon":5.38558,"is_reserved":false,"is_disabled":false,"rental_uris":{"android":"levelo://app?vid=9e8ed088-3ae5-4765-989d-dd572984f98a","ios":"levelo://app?vid=9e8ed088-3ae5-4765-989d-dd572984f98a"},"vehicle_type_id":"4","last_reported":1726078303,"current_range_meters":34000,"station_id":"ce4bh8p2rcd13ifvqeb0","pricing_plan_id":"cebpf4jnsgd1na2vs0mg"},{"bike_id":"90602e3c-5f00-40ae-bb58-0ccac705153d","system_id":"levelo_inurba_marseille","lat":43.30472,"lon":5.36715,"is_reserved":false,"is_disabled":false,"rental_uris":{"android":"levelo://app?vid=90602e3c-5f00-40ae-bb58-0ccac705153d","ios":"levelo://app?vid=90602e3c-5f00-40ae-bb58-0ccac705153d"},"vehicle_type_id":"4","last_reported":1726078303,"current_range_meters":6000,"station_id":"ce4bgrh2rcd13ifvqc8g","pricing_plan_id":"cebpf4jnsgd1na2vs0mg"},{"bike_id":"e7a5839c-8fe9-4805-a0e8-ec1c242be023","system_id":"levelo_inurba_marseille","lat":43.29873,"lon":5.38092,"is_reserved":false,"is_disabled":false,"rental_uris":{"android":"levelo://app?vid=e7a5839c-8fe9-4805-a0e8-ec1c242be023","ios":"levelo://app?vid=e7a5839c-8fe9-4805-a0e8-ec1c242be023"},"vehicle_type_id":"4","last_reported":1726078303,"current_range_meters":10000,"station_id":"ce4bgj12rcd13ifvqbc0","pricing_plan_id":"cebpf4jnsgd1na2vs0mg"},{"bike_id":"cae699f7-b7f3-40d0-8712-80b9e6fee607","system_id":"levelo_inurba_marseille","lat":43.28443,"lon":5.39211,"is_reserved":false,"is_disabled":false,"rental_uris":{"android":"levelo://app?vid=cae699f7-b7f3-40d0-8712-80b9e6fee607","ios":"levelo://app?vid=cae699f7-b7f3-40d0-8712-80b9e6fee607"},"vehicle_type_id":"4","last_reported":1726078303,"current_range_meters":29600,"station_id":"ce4bhoh2rcd13ifvqh5g","pricing_plan_id":"cebpf4jnsgd1na2vs0mg"},{"bike_id":"59c0f625-f989-4a48-be15-e6be9530e3f3","system_id":"levelo_inurba_marseille","lat":43.28945,"lon":5.36399,"is_reserved":false,"is_disabled":false,"rental_uris":{"android":"levelo://app?vid=59c0f625-f989-4a48-be15-e6be9530e3f3","ios":"levelo://app?vid=59c0f625-f989-4a48-be15-e6be9530e3f3"},"vehicle_type_id":"4","last_reported":1726078303,"current_range_meters":25200,"station_id":"ce4bhc92rcd13ifvqetg","pricing_plan_id":"cebpf4jnsgd1na2vs0mg"},{"bike_id":"dc0b2a38-0257-4814-9561-43f823bbb22e","system_id":"levelo_inurba_marseille","lat":43.29703,"lon":5.36602,"is_reserved":false,"is_disabled":false,"rental_uris":{"android":"levelo://app?vid=dc0b2a38-0257-4814-9561-43f823bbb22e","ios":"levelo://app?vid=dc0b2a38-0257-4814-9561-43f823bbb22e"},"vehicle_type_id":"4","last_reported":1726078303,"current_range_meters":39200,"station_id":"ce4bgn12rcd13ifvqbt0","pricing_plan_id":"cebpf4jnsgd1na2vs0mg"},{"bike_id":"b0af54d1-a7ee-48fb-b3e6-0eb7ce098886","system_id":"levelo_inurba_marseille","lat":43.27996,"lon":5.40011,"is_reserved":false,"is_disabled":false,"rental_uris":{"android":"levelo://app?vid=b0af54d1-a7ee-48fb-b3e6-0eb7ce098886","ios":"levelo://app?vid=b0af54d1-a7ee-48fb-b3e6-0eb7ce098886"},"vehicle_type_id":"4","last_reported":1726078303,"current_range_meters":6000,"station_id":"ce4bho92rcd13ifvqh4g","pricing_plan_id":"cebpf4jnsgd1na2vs0mg"},{"bike_id":"f91b8e43-ac0c-41f6-91e3-47f296102d70","system_id":"levelo_inurba_marseille","lat":43.26558,"lon":5.3729,"is_reserved":false,"is_disabled":false,"rental_uris":{"android":"levelo://app?vid=f91b8e43-ac0c-41f6-91e3-47f296102d70","ios":"levelo://app?vid=f91b8e43-ac0c-41f6-91e3-47f296102d70"},"vehicle_type_id":"4","last_reported":1726078303,"current_range_meters":6000,"station_id":"ce4bhg12rcd13ifvqf70","pricing_plan_id":"cebpf4jnsgd1na2vs0mg"},{"bike_id":"fa0be828-e63f-4940-b66f-632299546f2c","system_id":"levelo_inurba_marseille","lat":43.24387,"lon":5.37051,"is_reserved":false,"is_disabled":false,"rental_uris":{"android":"levelo://app?vid=fa0be828-e63f-4940-b66f-632299546f2c","ios":"levelo://app?vid=fa0be828-e63f-4940-b66f-632299546f2c"},"vehicle_type_id":"4","last_reported":1726078303,"current_range_meters":4400,"station_id":"ce4bhhh2rcd13ifvqfk0","pricing_plan_id":"cebpf4jnsgd1na2vs0mg"},{"bike_id":"9383a5fe-5dfb-488d-9384-3525a3cdf0e7","system_id":"levelo_inurba_marseille","lat":43.29173,"lon":5.37165,"is_reserved":false,"is_disabled":false,"rental_uris":{"android":"levelo://app?vid=9383a5fe-5dfb-488d-9384-3525a3cdf0e7","ios":"levelo://app?vid=9383a5fe-5dfb-488d-9384-3525a3cdf0e7"},"vehicle_type_id":"4","last_reported":1726078303,"current_range_meters":19600,"station_id":"ce4bha92rcd13ifvqeh0","pricing_plan_id":"cebpf4jnsgd1na2vs0mg"},{"bike_id":"c3a84de0-e074-45d2-96a4-3ff17abba9fe","system_id":"levelo_inurba_marseille","lat":43.2408,"lon":5.3774,"is_reserved":false,"is_disabled":false,"rental_uris":{"android":"levelo://app?vid=c3a84de0-e074-45d2-96a4-3ff17abba9fe","ios":"levelo://app?vid=c3a84de0-e074-45d2-96a4-3ff17abba9fe"},"vehicle_type_id":"4","last_reported":1726078303,"current_range_meters":13600,"station_id":"ce4bhnp2rcd13ifvqgvg","pricing_plan_id":"cebpf4jnsgd1na2vs0mg"},{"bike_id":"98cf4cde-6837-4142-86ba-96f8e9f38668","system_id":"levelo_inurba_marseille","lat":43.31215,"lon":5.38968,"is_reserved":false,"is_disabled":false,"rental_uris":{"android":"levelo://app?vid=98cf4cde-6837-4142-86ba-96f8e9f38668","ios":"levelo://app?vid=98cf4cde-6837-4142-86ba-96f8e9f38668"},"vehicle_type_id":"4","last_reported":1726078303,"current_range_meters":28400,"station_id":"","pricing_plan_id":"cebpf4jnsgd1na2vs0mg"},{"bike_id":"92baa3c9-2c4c-4f52-9486-cc1ec522ca8e","system_id":"levelo_inurba_marseille","lat":43.296039,"lon":5.381052,"is_reserved":false,"is_disabled":false,"rental_uris":{"android":"levelo://app?vid=92baa3c9-2c4c-4f52-9486-cc1ec522ca8e","ios":"levelo://app?vid=92baa3c9-2c4c-4f52-9486-cc1ec522ca8e"},"vehicle_type_id":"4","last_reported":1726078303,"current_range_meters":6800,"station_id":"ce4bgl12rcd13ifvqbo0","pricing_plan_id":"cebpf4jnsgd1na2vs0mg"},{"bike_id":"16fcb6ac-72b1-452b-bd7e-55c973d9b975","system_id":"levelo_inurba_marseille","lat":43.28853,"lon":5.35866,"is_reserved":false,"is_disabled":false,"rental_uris":{"android":"levelo://app?vid=16fcb6ac-72b1-452b-bd7e-55c973d9b975","ios":"levelo://app?vid=16fcb6ac-72b1-452b-bd7e-55c973d9b975"},"vehicle_type_id":"4","last_reported":1726078303,"current_range_meters":22400,"station_id":"ce4bhb12rcd13ifvqem0","pricing_plan_id":"cebpf4jnsgd1na2vs0mg"},{"bike_id":"e5073d22-e434-4d55-bc5d-479d86b28992","system_id":"levelo_inurba_marseille","lat":43.26782,"lon":5.394184,"is_reserved":false,"is_disabled":false,"rental_uris":{"android":"levelo://app?vid=e5073d22-e434-4d55-bc5d-479d86b28992","ios":"levelo://app?vid=e5073d22-e434-4d55-bc5d-479d86b28992"},"vehicle_type_id":"4","last_reported":1726078303,"current_range_meters":5600,"station_id":"ce4bhh12rcd13ifvqfg0","pricing_plan_id":"cebpf4jnsgd1na2vs0mg"},{"bike_id":"30d53136-a5ad-4218-a0f3-8dfd128d3a9d","system_id":"levelo_inurba_marseille","lat":43.29017,"lon":5.38133,"is_reserved":false,"is_disabled":false,"rental_uris":{"android":"levelo://app?vid=30d53136-a5ad-4218-a0f3-8dfd128d3a9d","ios":"levelo://app?vid=30d53136-a5ad-4218-a0f3-8dfd128d3a9d"},"vehicle_type_id":"4","last_reported":1726078303,"current_range_meters":17200,"station_id":"ce4bh4p2rcd13ifvqe1g","pricing_plan_id":"cebpf4jnsgd1na2vs0mg"},{"bike_id":"74b94ae1-f5b5-4347-b4bc-150668fb36bd","system_id":"levelo_inurba_marseille","lat":43.30807,"lon":5.38155,"is_reserved":false,"is_disabled":false,"rental_uris":{"android":"levelo://app?vid=74b94ae1-f5b5-4347-b4bc-150668fb36bd","ios":"levelo://app?vid=74b94ae1-f5b5-4347-b4bc-150668fb36bd"},"vehicle_type_id":"4","last_reported":1726078303,"current_range_meters":38800,"station_id":"ce4bgt12rcd13ifvqce0","pricing_plan_id":"cebpf4jnsgd1na2vs0mg"},{"bike_id":"f97d1ebb-d606-4bfb-9f71-6cb2f9930fe5","system_id":"levelo_inurba_marseille","lat":43.26186,"lon":5.37457,"is_reserved":false,"is_disabled":false,"rental_uris":{"android":"levelo://app?vid=f97d1ebb-d606-4bfb-9f71-6cb2f9930fe5","ios":"levelo://app?vid=f97d1ebb-d606-4bfb-9f71-6cb2f9930fe5"},"vehicle_type_id":"4","last_reported":1726078303,"current_range_meters":14400,"station_id":"ce4bhgp2rcd13ifvqfc0","pricing_plan_id":"cebpf4jnsgd1na2vs0mg"},{"bike_id":"c097355a-5664-4c6e-8037-4f36014a6343","system_id":"levelo_inurba_marseille","lat":43.28673,"lon":5.38674,"is_reserved":false,"is_disabled":false,"rental_uris":{"android":"levelo://app?vid=c097355a-5664-4c6e-8037-4f36014a6343","ios":"levelo://app?vid=c097355a-5664-4c6e-8037-4f36014a6343"},"vehicle_type_id":"4","last_reported":1726078303,"current_range_meters":37600,"station_id":"ce4bh492rcd13ifvqdug","pricing_plan_id":"cebpf4jnsgd1na2vs0mg"},{"bike_id":"dd6d94c7-f35e-4acc-863e-4063ec5abc48","system_id":"levelo_inurba_marseille","lat":43.32371,"lon":5.38864,"is_reserved":false,"is_disabled":false,"rental_uris":{"android":"levelo://app?vid=dd6d94c7-f35e-4acc-863e-4063ec5abc48","ios":"levelo://app?vid=dd6d94c7-f35e-4acc-863e-4063ec5abc48"},"vehicle_type_id":"4","last_reported":1726078303,"current_range_meters":38800,"station_id":"ce4bhqp2rcd13ifvqhog","pricing_plan_id":"cebpf4jnsgd1na2vs0mg"},{"bike_id":"55da1d74-5ae0-4106-a7c2-99942eb4a3d0","system_id":"levelo_inurba_marseille","lat":43.292572,"lon":5.384448,"is_reserved":false,"is_disabled":false,"rental_uris":{"android":"levelo://app?vid=55da1d74-5ae0-4106-a7c2-99942eb4a3d0","ios":"levelo://app?vid=55da1d74-5ae0-4106-a7c2-99942eb4a3d0"},"vehicle_type_id":"4","last_reported":1726078303,"current_range_meters":24400,"station_id":"ce4bho92rcd13ifvqh3g","pricing_plan_id":"cebpf4jnsgd1na2vs0mg"},{"bike_id":"fa499fa2-ff4b-45db-bde2-6b20079ed100","system_id":"levelo_inurba_marseille","lat":43.276379,"lon":5.361279,"is_reserved":false,"is_disabled":false,"rental_uris":{"android":"levelo://app?vid=fa499fa2-ff4b-45db-bde2-6b20079ed100","ios":"levelo://app?vid=fa499fa2-ff4b-45db-bde2-6b20079ed100"},"vehicle_type_id":"4","last_reported":1726078303,"current_range_meters":19200,"station_id":"ce4bgj92rcd13ifvqbe0","pricing_plan_id":"cebpf4jnsgd1na2vs0mg"},{"bike_id":"57279865-f0a2-4516-9dd4-834f33bac6c4","system_id":"levelo_inurba_marseille","lat":43.29006,"lon":5.35615,"is_reserved":false,"is_disabled":false,"rental_uris":{"android":"levelo://app?vid=57279865-f0a2-4516-9dd4-834f33bac6c4","ios":"levelo://app?vid=57279865-f0a2-4516-9dd4-834f33bac6c4"},"vehicle_type_id":"4","last_reported":1726078303,"current_range_meters":38800,"station_id":"ce4bhb92rcd13ifvqen0","pricing_plan_id":"cebpf4jnsgd1na2vs0mg"},{"bike_id":"a36a6131-7175-4d21-afcf-16a3b952996a","system_id":"levelo_inurba_marseille","lat":43.30827,"lon":5.37653,"is_reserved":false,"is_disabled":false,"rental_uris":{"android":"levelo://app?vid=a36a6131-7175-4d21-afcf-16a3b952996a","ios":"levelo://app?vid=a36a6131-7175-4d21-afcf-16a3b952996a"},"vehicle_type_id":"4","last_reported":1726078303,"current_range_meters":8800,"station_id":"ce4bgv92rcd13ifvqcq0","pricing_plan_id":"cebpf4jnsgd1na2vs0mg"},{"bike_id":"eca14fe1-a019-466c-9fa1-1dd04c0391ea","system_id":"levelo_inurba_marseille","lat":43.29617,"lon":5.37165,"is_reserved":false,"is_disabled":false,"rental_uris":{"android":"levelo://app?vid=eca14fe1-a019-466c-9fa1-1dd04c0391ea","ios":"levelo://app?vid=eca14fe1-a019-466c-9fa1-1dd04c0391ea"},"vehicle_type_id":"4","last_reported":1726078303,"current_range_meters":28800,"station_id":"ce4bgnh2rcd13ifvqc0g","pricing_plan_id":"cebpf4jnsgd1na2vs0mg"},{"bike_id":"e9cee468-d8ec-437a-b77c-2bb05679786e","system_id":"levelo_inurba_marseille","lat":43.280882,"lon":5.396504,"is_reserved":false,"is_disabled":false,"rental_uris":{"android":"levelo://app?vid=e9cee468-d8ec-437a-b77c-2bb05679786e","ios":"levelo://app?vid=e9cee468-d8ec-437a-b77c-2bb05679786e"},"vehicle_type_id":"4","last_reported":1726078303,"current_range_meters":3200,"station_id":"ce4bho12rcd13ifvqh2g","pricing_plan_id":"cebpf4jnsgd1na2vs0mg"},{"bike_id":"257df995-474c-489e-93e6-1898def2a181","system_id":"levelo_inurba_marseille","lat":43.31068,"lon":5.40099,"is_reserved":false,"is_disabled":false,"rental_uris":{"android":"levelo://app?vid=257df995-474c-489e-93e6-1898def2a181","ios":"levelo://app?vid=257df995-474c-489e-93e6-1898def2a181"},"vehicle_type_id":"4","last_reported":1726078303,"current_range_meters":14800,"station_id":"","pricing_plan_id":"cebpf4jnsgd1na2vs0mg"},{"bike_id":"0c0ab34b-456b-47d0-aa3f-a914d4f67a48","system_id":"levelo_inurba_marseille","lat":43.27076,"lon":5.42292,"is_reserved":false,"is_disabled":false,"rental_uris":{"android":"levelo://app?vid=0c0ab34b-456b-47d0-aa3f-a914d4f67a48","ios":"levelo://app?vid=0c0ab34b-456b-47d0-aa3f-a914d4f67a48"},"vehicle_type_id":"4","last_reported":1726078303,"current_range_meters":15200,"station_id":"ce4bhk92rcd13ifvqgb0","pricing_plan_id":"cebpf4jnsgd1na2vs0mg"},{"bike_id":"521ac9eb-aeb3-4716-a5c7-40c1c5dfc1ab","system_id":"levelo_inurba_marseille","lat":43.28038,"lon":5.36959,"is_reserved":false,"is_disabled":false,"rental_uris":{"android":"levelo://app?vid=521ac9eb-aeb3-4716-a5c7-40c1c5dfc1ab","ios":"levelo://app?vid=521ac9eb-aeb3-4716-a5c7-40c1c5dfc1ab"},"vehicle_type_id":"4","last_reported":1726078303,"current_range_meters":16400,"station_id":"ce4bha12rcd13ifvqef0","pricing_plan_id":"cebpf4jnsgd1na2vs0mg"},{"bike_id":"f47b1677-9f6c-43f1-88b5-82b60d3a6b15","system_id":"levelo_inurba_marseille","lat":43.29188,"lon":5.35807,"is_reserved":false,"is_disabled":false,"rental_uris":{"android":"levelo://app?vid=f47b1677-9f6c-43f1-88b5-82b60d3a6b15","ios":"levelo://app?vid=f47b1677-9f6c-43f1-88b5-82b60d3a6b15"},"vehicle_type_id":"4","last_reported":1726078303,"current_range_meters":33600,"station_id":"ce4bhb12rcd13ifvqel0","pricing_plan_id":"cebpf4jnsgd1na2vs0mg"},{"bike_id":"ecca6509-f0ec-44bb-a9ea-81382cf67e4e","system_id":"levelo_inurba_marseille","lat":43.28858,"lon":5.3586,"is_reserved":false,"is_disabled":false,"rental_uris":{"android":"levelo://app?vid=ecca6509-f0ec-44bb-a9ea-81382cf67e4e","ios":"levelo://app?vid=ecca6509-f0ec-44bb-a9ea-81382cf67e4e"},"vehicle_type_id":"4","last_reported":1726078303,"current_range_meters":38800,"station_id":"ce4bhb12rcd13ifvqem0","pricing_plan_id":"cebpf4jnsgd1na2vs0mg"},{"bike_id":"ccf6bb97-220a-46f1-9a6e-c59384ed6b2b","system_id":"levelo_inurba_marseille","lat":43.29262,"lon":5.38432,"is_reserved":false,"is_disabled":false,"rental_uris":{"android":"levelo://app?vid=ccf6bb97-220a-46f1-9a6e-c59384ed6b2b","ios":"levelo://app?vid=ccf6bb97-220a-46f1-9a6e-c59384ed6b2b"},"vehicle_type_id":"4","last_reported":1726078303,"current_range_meters":38400,"station_id":"ce4bh692rcd13ifvqea0","pricing_plan_id":"cebpf4jnsgd1na2vs0mg"},{"bike_id":"992a44bd-6b1d-4c7a-91da-54aafb127d9a","system_id":"levelo_inurba_marseille","lat":43.273259,"lon":5.390879,"is_reserved":false,"is_disabled":false,"rental_uris":{"android":"levelo://app?vid=992a44bd-6b1d-4c7a-91da-54aafb127d9a","ios":"levelo://app?vid=992a44bd-6b1d-4c7a-91da-54aafb127d9a"},"vehicle_type_id":"4","last_reported":1726078303,"current_range_meters":38800,"station_id":"ce4bhgp2rcd13ifvqfe0","pricing_plan_id":"cebpf4jnsgd1na2vs0mg"},{"bike_id":"28ecc454-85cf-4381-ae43-36b68d2a49c4","system_id":"levelo_inurba_marseille","lat":43.29527,"lon":5.38538,"is_reserved":false,"is_disabled":false,"rental_uris":{"android":"levelo://app?vid=28ecc454-85cf-4381-ae43-36b68d2a49c4","ios":"levelo://app?vid=28ecc454-85cf-4381-ae43-36b68d2a49c4"},"vehicle_type_id":"4","last_reported":1726078303,"current_range_meters":38800,"station_id":"ce4bgih2rcd13ifvqba0","pricing_plan_id":"cebpf4jnsgd1na2vs0mg"},{"bike_id":"ca33d2bf-c9f2-4944-aec8-d1b6204ec37b","system_id":"levelo_inurba_marseille","lat":43.29546,"lon":5.42288,"is_reserved":false,"is_disabled":false,"rental_uris":{"android":"levelo://app?vid=ca33d2bf-c9f2-4944-aec8-d1b6204ec37b","ios":"levelo://app?vid=ca33d2bf-c9f2-4944-aec8-d1b6204ec37b"},"vehicle_type_id":"4","last_reported":1726078303,"current_range_meters":24400,"station_id":"ce4bhph2rcd13ifvqhdg","pricing_plan_id":"cebpf4jnsgd1na2vs0mg"},{"bike_id":"fe4ab699-c2ae-4ec0-9f93-db3d0ce81184","system_id":"levelo_inurba_marseille","lat":43.29173,"lon":5.35822,"is_reserved":false,"is_disabled":false,"rental_uris":{"android":"levelo://app?vid=fe4ab699-c2ae-4ec0-9f93-db3d0ce81184","ios":"levelo://app?vid=fe4ab699-c2ae-4ec0-9f93-db3d0ce81184"},"vehicle_type_id":"4","last_reported":1726078303,"current_range_meters":38800,"station_id":"ce4bhb12rcd13ifvqel0","pricing_plan_id":"cebpf4jnsgd1na2vs0mg"},{"bike_id":"44574549-4fb5-45ed-a757-69428d3efd7f","system_id":"levelo_inurba_marseille","lat":43.29005,"lon":5.35616,"is_reserved":false,"is_disabled":false,"rental_uris":{"android":"levelo://app?vid=44574549-4fb5-45ed-a757-69428d3efd7f","ios":"levelo://app?vid=44574549-4fb5-45ed-a757-69428d3efd7f"},"vehicle_type_id":"4","last_reported":1726078303,"current_range_meters":38800,"station_id":"ce4bhb92rcd13ifvqen0","pricing_plan_id":"cebpf4jnsgd1na2vs0mg"},{"bike_id":"cdbc6db1-8e8a-490c-ac2f-87f36fb26c56","system_id":"levelo_inurba_marseille","lat":43.29973,"lon":5.38488,"is_reserved":false,"is_disabled":false,"rental_uris":{"android":"levelo://app?vid=cdbc6db1-8e8a-490c-ac2f-87f36fb26c56","ios":"levelo://app?vid=cdbc6db1-8e8a-490c-ac2f-87f36fb26c56"},"vehicle_type_id":"4","last_reported":1726078303,"current_range_meters":6400,"station_id":"ce4bgj92rcd13ifvqbd0","pricing_plan_id":"cebpf4jnsgd1na2vs0mg"},{"bike_id":"cbccffca-fad5-48ed-b993-98702f1e3c32","system_id":"levelo_inurba_marseille","lat":43.30328,"lon":5.40435,"is_reserved":false,"is_disabled":false,"rental_uris":{"android":"levelo://app?vid=cbccffca-fad5-48ed-b993-98702f1e3c32","ios":"levelo://app?vid=cbccffca-fad5-48ed-b993-98702f1e3c32"},"vehicle_type_id":"4","last_reported":1726078303,"current_range_meters":26000,"station_id":"ce4bh012rcd13ifvqd10","pricing_plan_id":"cebpf4jnsgd1na2vs0mg"},{"bike_id":"f14a9f38-6574-42c0-a3c4-960b7135c45f","system_id":"levelo_inurba_marseille","lat":43.27497,"lon":5.42451,"is_reserved":false,"is_disabled":false,"rental_uris":{"android":"levelo://app?vid=f14a9f38-6574-42c0-a3c4-960b7135c45f","ios":"levelo://app?vid=f14a9f38-6574-42c0-a3c4-960b7135c45f"},"vehicle_type_id":"4","last_reported":1726078303,"current_range_meters":33600,"station_id":"ce4bhn92rcd13ifvqgrg","pricing_plan_id":"cebpf4jnsgd1na2vs0mg"},{"bike_id":"b7d80a4a-02c8-45b6-926f-d5ccf7f3a797","system_id":"levelo_inurba_marseille","lat":43.29523,"lon":5.38537,"is_reserved":false,"is_disabled":false,"rental_uris":{"android":"levelo://app?vid=b7d80a4a-02c8-45b6-926f-d5ccf7f3a797","ios":"levelo://app?vid=b7d80a4a-02c8-45b6-926f-d5ccf7f3a797"},"vehicle_type_id":"4","last_reported":1726078303,"current_range_meters":22400,"station_id":"","pricing_plan_id":"cebpf4jnsgd1na2vs0mg"},{"bike_id":"eedcac4e-e0d7-40f6-8d86-e37cc502935d","system_id":"levelo_inurba_marseille","lat":43.29258,"lon":5.38443,"is_reserved":false,"is_disabled":false,"rental_uris":{"android":"levelo://app?vid=eedcac4e-e0d7-40f6-8d86-e37cc502935d","ios":"levelo://app?vid=eedcac4e-e0d7-40f6-8d86-e37cc502935d"},"vehicle_type_id":"4","last_reported":1726078303,"current_range_meters":38800,"station_id":"ce4bh692rcd13ifvqea0","pricing_plan_id":"cebpf4jnsgd1na2vs0mg"},{"bike_id":"8e06870f-59b1-4019-8c4e-0fd97a649554","system_id":"levelo_inurba_marseille","lat":43.28002,"lon":5.40011,"is_reserved":false,"is_disabled":false,"rental_uris":{"android":"levelo://app?vid=8e06870f-59b1-4019-8c4e-0fd97a649554","ios":"levelo://app?vid=8e06870f-59b1-4019-8c4e-0fd97a649554"},"vehicle_type_id":"4","last_reported":1726078303,"current_range_meters":14400,"station_id":"ce4bho92rcd13ifvqh4g","pricing_plan_id":"cebpf4jnsgd1na2vs0mg"},{"bike_id":"c645e559-1e2a-423b-b35a-535a5f50e58e","system_id":"levelo_inurba_marseille","lat":43.31265,"lon":5.40168,"is_reserved":false,"is_disabled":false,"rental_uris":{"android":"levelo://app?vid=c645e559-1e2a-423b-b35a-535a5f50e58e","ios":"levelo://app?vid=c645e559-1e2a-423b-b35a-535a5f50e58e"},"vehicle_type_id":"4","last_reported":1726078303,"current_range_meters":5600,"station_id":"ce4bh092rcd13ifvqd30","pricing_plan_id":"cebpf4jnsgd1na2vs0mg"},{"bike_id":"c3baa9f4-1a80-441e-aae4-6876a6aba553","system_id":"levelo_inurba_marseille","lat":43.32283,"lon":5.382608,"is_reserved":false,"is_disabled":false,"rental_uris":{"android":"levelo://app?vid=c3baa9f4-1a80-441e-aae4-6876a6aba553","ios":"levelo://app?vid=c3baa9f4-1a80-441e-aae4-6876a6aba553"},"vehicle_type_id":"4","last_reported":1726078303,"current_range_meters":38800,"station_id":"ce4bhr12rcd13ifvqhqg","pricing_plan_id":"cebpf4jnsgd1na2vs0mg"},{"bike_id":"ffdfe252-ccc5-4a14-ab97-266e217d230c","system_id":"levelo_inurba_marseille","lat":43.30416,"lon":5.41279,"is_reserved":false,"is_disabled":false,"rental_uris":{"android":"levelo://app?vid=ffdfe252-ccc5-4a14-ab97-266e217d230c","ios":"levelo://app?vid=ffdfe252-ccc5-4a14-ab97-266e217d230c"},"vehicle_type_id":"4","last_reported":1726078303,"current_range_meters":24400,"station_id":"ce4bhop2rcd13ifvqh8g","pricing_plan_id":"cebpf4jnsgd1na2vs0mg"},{"bike_id":"2909b69f-3516-4ce0-b2ab-33c74cc0352c","system_id":"levelo_inurba_marseille","lat":43.27494,"lon":5.42452,"is_reserved":false,"is_disabled":false,"rental_uris":{"android":"levelo://app?vid=2909b69f-3516-4ce0-b2ab-33c74cc0352c","ios":"levelo://app?vid=2909b69f-3516-4ce0-b2ab-33c74cc0352c"},"vehicle_type_id":"4","last_reported":1726078303,"current_range_meters":19200,"station_id":"ce4bhn92rcd13ifvqgrg","pricing_plan_id":"cebpf4jnsgd1na2vs0mg"},{"bike_id":"33cace80-ffa6-4ed8-b8a4-2845bd53ea18","system_id":"levelo_inurba_marseille","lat":43.27945,"lon":5.41045,"is_reserved":false,"is_disabled":false,"rental_uris":{"android":"levelo://app?vid=33cace80-ffa6-4ed8-b8a4-2845bd53ea18","ios":"levelo://app?vid=33cace80-ffa6-4ed8-b8a4-2845bd53ea18"},"vehicle_type_id":"4","last_reported":1726078303,"current_range_meters":3600,"station_id":"ce4bhnp2rcd13ifvqh0g","pricing_plan_id":"cebpf4jnsgd1na2vs0mg"},{"bike_id":"88111209-0f01-4771-8c6a-dbd77479db9f","system_id":"levelo_inurba_marseille","lat":43.2872,"lon":5.37939,"is_reserved":false,"is_disabled":false,"rental_uris":{"android":"levelo://app?vid=88111209-0f01-4771-8c6a-dbd77479db9f","ios":"levelo://app?vid=88111209-0f01-4771-8c6a-dbd77479db9f"},"vehicle_type_id":"4","last_reported":1726078303,"current_range_meters":33600,"station_id":"ce4bh9p2rcd13ifvqec0","pricing_plan_id":"cebpf4jnsgd1na2vs0mg"},{"bike_id":"f657fd88-6956-4b9e-987b-07745f983ac4","system_id":"levelo_inurba_marseille","lat":43.28853,"lon":5.35838,"is_reserved":false,"is_disabled":false,"rental_uris":{"android":"levelo://app?vid=f657fd88-6956-4b9e-987b-07745f983ac4","ios":"levelo://app?vid=f657fd88-6956-4b9e-987b-07745f983ac4"},"vehicle_type_id":"4","last_reported":1726078303,"current_range_meters":29600,"station_id":"ce4bhb12rcd13ifvqem0","pricing_plan_id":"cebpf4jnsgd1na2vs0mg"},{"bike_id":"92675b8e-66c8-4168-873d-70d65424518b","system_id":"levelo_inurba_marseille","lat":43.25013,"lon":5.38919,"is_reserved":false,"is_disabled":false,"rental_uris":{"android":"levelo://app?vid=92675b8e-66c8-4168-873d-70d65424518b","ios":"levelo://app?vid=92675b8e-66c8-4168-873d-70d65424518b"},"vehicle_type_id":"4","last_reported":1726078303,"current_range_meters":10800,"station_id":"ce4bhgp2rcd13ifvqfd0","pricing_plan_id":"cebpf4jnsgd1na2vs0mg"},{"bike_id":"1218d328-fdf6-45d1-9541-091fda7f65d0","system_id":"levelo_inurba_marseille","lat":43.302422,"lon":5.39038,"is_reserved":false,"is_disabled":false,"rental_uris":{"android":"levelo://app?vid=1218d328-fdf6-45d1-9541-091fda7f65d0","ios":"levelo://app?vid=1218d328-fdf6-45d1-9541-091fda7f65d0"},"vehicle_type_id":"4","last_reported":1726078303,"current_range_meters":3200,"station_id":"ce4bh012rcd13ifvqcv0","pricing_plan_id":"cebpf4jnsgd1na2vs0mg"},{"bike_id":"92d14436-6e6e-4a2f-b57e-98c5abb1b839","system_id":"levelo_inurba_marseille","lat":43.29367,"lon":5.37836,"is_reserved":false,"is_disabled":false,"rental_uris":{"android":"levelo://app?vid=92d14436-6e6e-4a2f-b57e-98c5abb1b839","ios":"levelo://app?vid=92d14436-6e6e-4a2f-b57e-98c5abb1b839"},"vehicle_type_id":"4","last_reported":1726078303,"current_range_meters":17200,"station_id":"ce4bgjh2rcd13ifvqbf0","pricing_plan_id":"cebpf4jnsgd1na2vs0mg"},{"bike_id":"373ed902-180b-432e-82ef-e62ddd478077","system_id":"levelo_inurba_marseille","lat":43.29272,"lon":5.36854,"is_reserved":false,"is_disabled":false,"rental_uris":{"android":"levelo://app?vid=373ed902-180b-432e-82ef-e62ddd478077","ios":"levelo://app?vid=373ed902-180b-432e-82ef-e62ddd478077"},"vehicle_type_id":"4","last_reported":1726078303,"current_range_meters":33600,"station_id":"ce4bhbp2rcd13ifvqesg","pricing_plan_id":"cebpf4jnsgd1na2vs0mg"},{"bike_id":"c61e69cf-4f70-430c-86d1-9e3fc9354735","system_id":"levelo_inurba_marseille","lat":43.29531,"lon":5.3853,"is_reserved":false,"is_disabled":false,"rental_uris":{"android":"levelo://app?vid=c61e69cf-4f70-430c-86d1-9e3fc9354735","ios":"levelo://app?vid=c61e69cf-4f70-430c-86d1-9e3fc9354735"},"vehicle_type_id":"4","last_reported":1726078303,"current_range_meters":40000,"station_id":"ce4bgih2rcd13ifvqba0","pricing_plan_id":"cebpf4jnsgd1na2vs0mg"},{"bike_id":"5c70df26-4b90-4d40-86d0-169a5d39cf40","system_id":"levelo_inurba_marseille","lat":43.24807,"lon":5.37457,"is_reserved":false,"is_disabled":false,"rental_uris":{"android":"levelo://app?vid=5c70df26-4b90-4d40-86d0-169a5d39cf40","ios":"levelo://app?vid=5c70df26-4b90-4d40-86d0-169a5d39cf40"},"vehicle_type_id":"4","last_reported":1726078303,"current_range_meters":9200,"station_id":"ce4bhgh2rcd13ifvqfb0","pricing_plan_id":"cebpf4jnsgd1na2vs0mg"},{"bike_id":"6fe216cb-9232-4676-a1a7-d63c680ddde0","system_id":"levelo_inurba_marseille","lat":43.29871,"lon":5.39732,"is_reserved":false,"is_disabled":false,"rental_uris":{"android":"levelo://app?vid=6fe216cb-9232-4676-a1a7-d63c680ddde0","ios":"levelo://app?vid=6fe216cb-9232-4676-a1a7-d63c680ddde0"},"vehicle_type_id":"4","last_reported":1726078303,"current_range_meters":32800,"station_id":"ce4bh0h2rcd13ifvqd50","pricing_plan_id":"cebpf4jnsgd1na2vs0mg"},{"bike_id":"79a3d395-de76-426d-9e4f-2ea85e536a37","system_id":"levelo_inurba_marseille","lat":43.31074,"lon":5.3836,"is_reserved":false,"is_disabled":false,"rental_uris":{"android":"levelo://app?vid=79a3d395-de76-426d-9e4f-2ea85e536a37","ios":"levelo://app?vid=79a3d395-de76-426d-9e4f-2ea85e536a37"},"vehicle_type_id":"4","last_reported":1726078303,"current_range_meters":9600,"station_id":"ce4bgv92rcd13ifvqcr0","pricing_plan_id":"cebpf4jnsgd1na2vs0mg"},{"bike_id":"64f09720-0cb5-42d2-9954-a39e40e404f3","system_id":"levelo_inurba_marseille","lat":43.28845,"lon":5.39304,"is_reserved":false,"is_disabled":false,"rental_uris":{"android":"levelo://app?vid=64f09720-0cb5-42d2-9954-a39e40e404f3","ios":"levelo://app?vid=64f09720-0cb5-42d2-9954-a39e40e404f3"},"vehicle_type_id":"4","last_reported":1726078303,"current_range_meters":11200,"station_id":"ce4bh2p2rcd13ifvqdi0","pricing_plan_id":"cebpf4jnsgd1na2vs0mg"},{"bike_id":"f67f6f2d-2a1d-4a47-b16c-fbcff4218b90","system_id":"levelo_inurba_marseille","lat":43.26564,"lon":5.39005,"is_reserved":false,"is_disabled":false,"rental_uris":{"android":"levelo://app?vid=f67f6f2d-2a1d-4a47-b16c-fbcff4218b90","ios":"levelo://app?vid=f67f6f2d-2a1d-4a47-b16c-fbcff4218b90"},"vehicle_type_id":"4","last_reported":1726078303,"current_range_meters":4800,"station_id":"ce4bhe12rcd13ifvqf30","pricing_plan_id":"cebpf4jnsgd1na2vs0mg"},{"bike_id":"cc39f4ed-c70a-44ae-af66-9a4e52eeeaed","system_id":"levelo_inurba_marseille","lat":43.29571,"lon":5.39985,"is_reserved":false,"is_disabled":false,"rental_uris":{"android":"levelo://app?vid=cc39f4ed-c70a-44ae-af66-9a4e52eeeaed","ios":"levelo://app?vid=cc39f4ed-c70a-44ae-af66-9a4e52eeeaed"},"vehicle_type_id":"4","last_reported":1726078303,"current_range_meters":35600,"station_id":"ce4bh312rcd13ifvqdj0","pricing_plan_id":"cebpf4jnsgd1na2vs0mg"},{"bike_id":"69165d19-3524-4128-a55e-229672fd4423","system_id":"levelo_inurba_marseille","lat":43.2439,"lon":5.37063,"is_reserved":false,"is_disabled":false,"rental_uris":{"android":"levelo://app?vid=69165d19-3524-4128-a55e-229672fd4423","ios":"levelo://app?vid=69165d19-3524-4128-a55e-229672fd4423"},"vehicle_type_id":"4","last_reported":1726078303,"current_range_meters":25600,"station_id":"ce4bhhh2rcd13ifvqfk0","pricing_plan_id":"cebpf4jnsgd1na2vs0mg"},{"bike_id":"b7a68706-76bc-47c0-b414-6f588fbc30c5","system_id":"levelo_inurba_marseille","lat":43.31716,"lon":5.42396,"is_reserved":false,"is_disabled":false,"rental_uris":{"android":"levelo://app?vid=b7a68706-76bc-47c0-b414-6f588fbc30c5","ios":"levelo://app?vid=b7a68706-76bc-47c0-b414-6f588fbc30c5"},"vehicle_type_id":"4","last_reported":1726078303,"current_range_meters":9200,"station_id":"ce4bhp92rcd13ifvqhbg","pricing_plan_id":"cebpf4jnsgd1na2vs0mg"},{"bike_id":"23dd40db-11b2-4466-ac94-32064395d882","system_id":"levelo_inurba_marseille","lat":43.30433,"lon":5.38887,"is_reserved":false,"is_disabled":false,"rental_uris":{"android":"levelo://app?vid=23dd40db-11b2-4466-ac94-32064395d882","ios":"levelo://app?vid=23dd40db-11b2-4466-ac94-32064395d882"},"vehicle_type_id":"4","last_reported":1726078303,"current_range_meters":9600,"station_id":"ce4bgk12rcd13ifvqbi0","pricing_plan_id":"cebpf4jnsgd1na2vs0mg"},{"bike_id":"88fd0741-25f8-4923-8756-1ae911492f6a","system_id":"levelo_inurba_marseille","lat":43.29,"lon":5.35607,"is_reserved":false,"is_disabled":false,"rental_uris":{"android":"levelo://app?vid=88fd0741-25f8-4923-8756-1ae911492f6a","ios":"levelo://app?vid=88fd0741-25f8-4923-8756-1ae911492f6a"},"vehicle_type_id":"4","last_reported":1726078303,"current_range_meters":36800,"station_id":"ce4bhb92rcd13ifvqen0","pricing_plan_id":"cebpf4jnsgd1na2vs0mg"},{"bike_id":"2ce69ffe-37eb-4c8f-9d89-9ab9ec953960","system_id":"levelo_inurba_marseille","lat":43.29556,"lon":5.42283,"is_reserved":false,"is_disabled":false,"rental_uris":{"android":"levelo://app?vid=2ce69ffe-37eb-4c8f-9d89-9ab9ec953960","ios":"levelo://app?vid=2ce69ffe-37eb-4c8f-9d89-9ab9ec953960"},"vehicle_type_id":"4","last_reported":1726078303,"current_range_meters":30400,"station_id":"ce4bhph2rcd13ifvqhdg","pricing_plan_id":"cebpf4jnsgd1na2vs0mg"},{"bike_id":"7388bcdf-c056-430d-a30d-fc38727e4671","system_id":"levelo_inurba_marseille","lat":43.31529,"lon":5.3803,"is_reserved":false,"is_disabled":false,"rental_uris":{"android":"levelo://app?vid=7388bcdf-c056-430d-a30d-fc38727e4671","ios":"levelo://app?vid=7388bcdf-c056-430d-a30d-fc38727e4671"},"vehicle_type_id":"4","last_reported":1726078303,"current_range_meters":12800,"station_id":"ce4bhsp2rcd13ifvqi50","pricing_plan_id":"cebpf4jnsgd1na2vs0mg"},{"bike_id":"84190c74-bc75-4831-ad8a-5bd417d2e194","system_id":"levelo_inurba_marseille","lat":43.28927,"lon":5.38397,"is_reserved":false,"is_disabled":false,"rental_uris":{"android":"levelo://app?vid=84190c74-bc75-4831-ad8a-5bd417d2e194","ios":"levelo://app?vid=84190c74-bc75-4831-ad8a-5bd417d2e194"},"vehicle_type_id":"4","last_reported":1726078303,"current_range_meters":16800,"station_id":"ce4bh612rcd13ifvqe6g","pricing_plan_id":"cebpf4jnsgd1na2vs0mg"},{"bike_id":"729f692d-02cf-40a7-81c2-6c7c7fd098f7","system_id":"levelo_inurba_marseille","lat":43.27917,"lon":5.39585,"is_reserved":false,"is_disabled":false,"rental_uris":{"android":"levelo://app?vid=729f692d-02cf-40a7-81c2-6c7c7fd098f7","ios":"levelo://app?vid=729f692d-02cf-40a7-81c2-6c7c7fd098f7"},"vehicle_type_id":"4","last_reported":1726078303,"current_range_meters":28000,"station_id":"ce4bhf92rcd13ifvqf40","pricing_plan_id":"cebpf4jnsgd1na2vs0mg"},{"bike_id":"749d6f49-e9ae-49ac-b40b-69cd5755be5d","system_id":"levelo_inurba_marseille","lat":43.24802,"lon":5.37453,"is_reserved":false,"is_disabled":false,"rental_uris":{"android":"levelo://app?vid=749d6f49-e9ae-49ac-b40b-69cd5755be5d","ios":"levelo://app?vid=749d6f49-e9ae-49ac-b40b-69cd5755be5d"},"vehicle_type_id":"4","last_reported":1726078303,"current_range_meters":14400,"station_id":"ce4bhgh2rcd13ifvqfb0","pricing_plan_id":"cebpf4jnsgd1na2vs0mg"},{"bike_id":"7febc141-5a04-4a2c-a79e-f05574b041f1","system_id":"levelo_inurba_marseille","lat":43.24659,"lon":5.38163,"is_reserved":false,"is_disabled":false,"rental_uris":{"android":"levelo://app?vid=7febc141-5a04-4a2c-a79e-f05574b041f1","ios":"levelo://app?vid=7febc141-5a04-4a2c-a79e-f05574b041f1"},"vehicle_type_id":"4","last_reported":1726078303,"current_range_meters":30800,"station_id":"ce4bhih2rcd13ifvqfr0","pricing_plan_id":"cebpf4jnsgd1na2vs0mg"},{"bike_id":"95d59fe8-5dab-403d-9499-a11296f71c5a","system_id":"levelo_inurba_marseille","lat":43.23966,"lon":5.36631,"is_reserved":false,"is_disabled":false,"rental_uris":{"android":"levelo://app?vid=95d59fe8-5dab-403d-9499-a11296f71c5a","ios":"levelo://app?vid=95d59fe8-5dab-403d-9499-a11296f71c5a"},"vehicle_type_id":"4","last_reported":1726078303,"current_range_meters":19200,"station_id":"ce4bhi12rcd13ifvqfp0","pricing_plan_id":"cebpf4jnsgd1na2vs0mg"},{"bike_id":"f91ccea4-e9c9-40e1-880c-5f8eddc6e16f","system_id":"levelo_inurba_marseille","lat":43.29413,"lon":5.38627,"is_reserved":false,"is_disabled":false,"rental_uris":{"android":"levelo://app?vid=f91ccea4-e9c9-40e1-880c-5f8eddc6e16f","ios":"levelo://app?vid=f91ccea4-e9c9-40e1-880c-5f8eddc6e16f"},"vehicle_type_id":"4","last_reported":1726078303,"current_range_meters":38400,"station_id":"ce4bh2h2rcd13ifvqdh0","pricing_plan_id":"cebpf4jnsgd1na2vs0mg"},{"bike_id":"3bc799db-4af6-4db7-b53a-f53e93e461ec","system_id":"levelo_inurba_marseille","lat":43.292976,"lon":5.374648,"is_reserved":false,"is_disabled":false,"rental_uris":{"android":"levelo://app?vid=3bc799db-4af6-4db7-b53a-f53e93e461ec","ios":"levelo://app?vid=3bc799db-4af6-4db7-b53a-f53e93e461ec"},"vehicle_type_id":"4","last_reported":1726078303,"current_range_meters":14000,"station_id":"ce4bgi12rcd13ifvqb70","pricing_plan_id":"cebpf4jnsgd1na2vs0mg"},{"bike_id":"fe3179d1-fabf-4fb1-8167-4c5a1b2b13f0","system_id":"levelo_inurba_marseille","lat":43.24069,"lon":5.37767,"is_reserved":false,"is_disabled":false,"rental_uris":{"android":"levelo://app?vid=fe3179d1-fabf-4fb1-8167-4c5a1b2b13f0","ios":"levelo://app?vid=fe3179d1-fabf-4fb1-8167-4c5a1b2b13f0"},"vehicle_type_id":"4","last_reported":1726078303,"current_range_meters":2000,"station_id":"ce4bhnp2rcd13ifvqgvg","pricing_plan_id":"cebpf4jnsgd1na2vs0mg"},{"bike_id":"bd93ad96-3d66-4dab-a975-716363825001","system_id":"levelo_inurba_marseille","lat":43.31718,"lon":5.42409,"is_reserved":false,"is_disabled":false,"rental_uris":{"android":"levelo://app?vid=bd93ad96-3d66-4dab-a975-716363825001","ios":"levelo://app?vid=bd93ad96-3d66-4dab-a975-716363825001"},"vehicle_type_id":"4","last_reported":1726078303,"current_range_meters":26800,"station_id":"ce4bhp92rcd13ifvqhbg","pricing_plan_id":"cebpf4jnsgd1na2vs0mg"},{"bike_id":"20830e58-6dfa-4d74-b146-cb3e5ad772ce","system_id":"levelo_inurba_marseille","lat":43.29002,"lon":5.3562,"is_reserved":false,"is_disabled":false,"rental_uris":{"android":"levelo://app?vid=20830e58-6dfa-4d74-b146-cb3e5ad772ce","ios":"levelo://app?vid=20830e58-6dfa-4d74-b146-cb3e5ad772ce"},"vehicle_type_id":"4","last_reported":1726078303,"current_range_meters":30800,"station_id":"ce4bhb92rcd13ifvqen0","pricing_plan_id":"cebpf4jnsgd1na2vs0mg"},{"bike_id":"bb75b410-b4dc-4f52-84e0-29894fcaecdf","system_id":"levelo_inurba_marseille","lat":43.33027,"lon":5.3904,"is_reserved":false,"is_disabled":false,"rental_uris":{"android":"levelo://app?vid=bb75b410-b4dc-4f52-84e0-29894fcaecdf","ios":"levelo://app?vid=bb75b410-b4dc-4f52-84e0-29894fcaecdf"},"vehicle_type_id":"4","last_reported":1726078303,"current_range_meters":32800,"station_id":"ce4bhr92rcd13ifvqhrg","pricing_plan_id":"cebpf4jnsgd1na2vs0mg"},{"bike_id":"f030c1e7-ecb4-4320-baa2-65ab98aff5bf","system_id":"levelo_inurba_marseille","lat":43.29006,"lon":5.3562,"is_reserved":false,"is_disabled":false,"rental_uris":{"android":"levelo://app?vid=f030c1e7-ecb4-4320-baa2-65ab98aff5bf","ios":"levelo://app?vid=f030c1e7-ecb4-4320-baa2-65ab98aff5bf"},"vehicle_type_id":"4","last_reported":1726078303,"current_range_meters":38800,"station_id":"ce4bhb92rcd13ifvqen0","pricing_plan_id":"cebpf4jnsgd1na2vs0mg"},{"bike_id":"7ee83454-159d-4406-8f5b-0e7c2df764df","system_id":"levelo_inurba_marseille","lat":43.25505,"lon":5.3766,"is_reserved":false,"is_disabled":false,"rental_uris":{"android":"levelo://app?vid=7ee83454-159d-4406-8f5b-0e7c2df764df","ios":"levelo://app?vid=7ee83454-159d-4406-8f5b-0e7c2df764df"},"vehicle_type_id":"4","last_reported":1726078303,"current_range_meters":40000,"station_id":"ce4bhh12rcd13ifvqff0","pricing_plan_id":"cebpf4jnsgd1na2vs0mg"},{"bike_id":"dd2d66a6-976d-43e6-83be-d6211ff78acc","system_id":"levelo_inurba_marseille","lat":43.33723,"lon":5.39187,"is_reserved":false,"is_disabled":false,"rental_uris":{"android":"levelo://app?vid=dd2d66a6-976d-43e6-83be-d6211ff78acc","ios":"levelo://app?vid=dd2d66a6-976d-43e6-83be-d6211ff78acc"},"vehicle_type_id":"4","last_reported":1726078303,"current_range_meters":16000,"station_id":"ce4bhr92rcd13ifvqhsg","pricing_plan_id":"cebpf4jnsgd1na2vs0mg"},{"bike_id":"8a605714-f43f-4f78-8f78-2c646a323ff5","system_id":"levelo_inurba_marseille","lat":43.2885,"lon":5.35851,"is_reserved":false,"is_disabled":false,"rental_uris":{"android":"levelo://app?vid=8a605714-f43f-4f78-8f78-2c646a323ff5","ios":"levelo://app?vid=8a605714-f43f-4f78-8f78-2c646a323ff5"},"vehicle_type_id":"4","last_reported":1726078303,"current_range_meters":24000,"station_id":"ce4bhb12rcd13ifvqem0","pricing_plan_id":"cebpf4jnsgd1na2vs0mg"},{"bike_id":"dfca9aff-193b-4a23-8248-bac2b2cf6b71","system_id":"levelo_inurba_marseille","lat":43.24812,"lon":5.37451,"is_reserved":false,"is_disabled":false,"rental_uris":{"android":"levelo://app?vid=dfca9aff-193b-4a23-8248-bac2b2cf6b71","ios":"levelo://app?vid=dfca9aff-193b-4a23-8248-bac2b2cf6b71"},"vehicle_type_id":"4","last_reported":1726078303,"current_range_meters":39200,"station_id":"ce4bhgh2rcd13ifvqfb0","pricing_plan_id":"cebpf4jnsgd1na2vs0mg"},{"bike_id":"5ed7c99d-898b-42b8-8f93-6b91532395de","system_id":"levelo_inurba_marseille","lat":43.29023,"lon":5.38145,"is_reserved":false,"is_disabled":false,"rental_uris":{"android":"levelo://app?vid=5ed7c99d-898b-42b8-8f93-6b91532395de","ios":"levelo://app?vid=5ed7c99d-898b-42b8-8f93-6b91532395de"},"vehicle_type_id":"4","last_reported":1726078303,"current_range_meters":32000,"station_id":"ce4bh4p2rcd13ifvqe1g","pricing_plan_id":"cebpf4jnsgd1na2vs0mg"},{"bike_id":"01906d26-6cb4-4012-8836-890840694aea","system_id":"levelo_inurba_marseille","lat":43.28413,"lon":5.3752,"is_reserved":false,"is_disabled":false,"rental_uris":{"android":"levelo://app?vid=01906d26-6cb4-4012-8836-890840694aea","ios":"levelo://app?vid=01906d26-6cb4-4012-8836-890840694aea"},"vehicle_type_id":"4","last_reported":1726078303,"current_range_meters":36000,"station_id":"ce4bh412rcd13ifvqds0","pricing_plan_id":"cebpf4jnsgd1na2vs0mg"},{"bike_id":"674b54fe-5a4b-4166-9da1-34150ea2daa9","system_id":"levelo_inurba_marseille","lat":43.26566,"lon":5.39015,"is_reserved":false,"is_disabled":false,"rental_uris":{"android":"levelo://app?vid=674b54fe-5a4b-4166-9da1-34150ea2daa9","ios":"levelo://app?vid=674b54fe-5a4b-4166-9da1-34150ea2daa9"},"vehicle_type_id":"4","last_reported":1726078303,"current_range_meters":16000,"station_id":"ce4bhe12rcd13ifvqf30","pricing_plan_id":"cebpf4jnsgd1na2vs0mg"},{"bike_id":"5876c5ef-9fac-478d-bd3c-ea1780c21005","system_id":"levelo_inurba_marseille","lat":43.33755,"lon":5.37446,"is_reserved":false,"is_disabled":false,"rental_uris":{"android":"levelo://app?vid=5876c5ef-9fac-478d-bd3c-ea1780c21005","ios":"levelo://app?vid=5876c5ef-9fac-478d-bd3c-ea1780c21005"},"vehicle_type_id":"4","last_reported":1726078303,"current_range_meters":38400,"station_id":"","pricing_plan_id":"cebpf4jnsgd1na2vs0mg"},{"bike_id":"e677b515-5319-4216-9c4c-b1dda00cce1f","system_id":"levelo_inurba_marseille","lat":43.24802,"lon":5.37459,"is_reserved":false,"is_disabled":false,"rental_uris":{"android":"levelo://app?vid=e677b515-5319-4216-9c4c-b1dda00cce1f","ios":"levelo://app?vid=e677b515-5319-4216-9c4c-b1dda00cce1f"},"vehicle_type_id":"4","last_reported":1726078303,"current_range_meters":32400,"station_id":"ce4bhgh2rcd13ifvqfb0","pricing_plan_id":"cebpf4jnsgd1na2vs0mg"},{"bike_id":"393a67a5-6941-47ed-b670-a13f407686f3","system_id":"levelo_inurba_marseille","lat":43.28854,"lon":5.35857,"is_reserved":false,"is_disabled":false,"rental_uris":{"android":"levelo://app?vid=393a67a5-6941-47ed-b670-a13f407686f3","ios":"levelo://app?vid=393a67a5-6941-47ed-b670-a13f407686f3"},"vehicle_type_id":"4","last_reported":1726078303,"current_range_meters":38800,"station_id":"ce4bhb12rcd13ifvqem0","pricing_plan_id":"cebpf4jnsgd1na2vs0mg"},{"bike_id":"5abf28fd-a11a-4eb4-87d0-9bad082219f7","system_id":"levelo_inurba_marseille","lat":43.3229,"lon":5.38283,"is_reserved":false,"is_disabled":false,"rental_uris":{"android":"levelo://app?vid=5abf28fd-a11a-4eb4-87d0-9bad082219f7","ios":"levelo://app?vid=5abf28fd-a11a-4eb4-87d0-9bad082219f7"},"vehicle_type_id":"4","last_reported":1726078303,"current_range_meters":37600,"station_id":"ce4bhr12rcd13ifvqhqg","pricing_plan_id":"cebpf4jnsgd1na2vs0mg"},{"bike_id":"926b2a48-8dd8-4764-aca3-bab40b5d8bd7","system_id":"levelo_inurba_marseille","lat":43.30432,"lon":5.3884,"is_reserved":false,"is_disabled":false,"rental_uris":{"android":"levelo://app?vid=926b2a48-8dd8-4764-aca3-bab40b5d8bd7","ios":"levelo://app?vid=926b2a48-8dd8-4764-aca3-bab40b5d8bd7"},"vehicle_type_id":"4","last_reported":1726078303,"current_range_meters":25200,"station_id":"ce4bgk12rcd13ifvqbi0","pricing_plan_id":"cebpf4jnsgd1na2vs0mg"},{"bike_id":"67a2ab76-61d3-4167-8081-83e14dff3ea1","system_id":"levelo_inurba_marseille","lat":43.29423,"lon":5.38626,"is_reserved":false,"is_disabled":false,"rental_uris":{"android":"levelo://app?vid=67a2ab76-61d3-4167-8081-83e14dff3ea1","ios":"levelo://app?vid=67a2ab76-61d3-4167-8081-83e14dff3ea1"},"vehicle_type_id":"4","last_reported":1726078303,"current_range_meters":36000,"station_id":"ce4bh2h2rcd13ifvqdh0","pricing_plan_id":"cebpf4jnsgd1na2vs0mg"},{"bike_id":"dccadc39-7e75-4ff6-801e-d97b0e1812f2","system_id":"levelo_inurba_marseille","lat":43.33027,"lon":5.39036,"is_reserved":false,"is_disabled":false,"rental_uris":{"android":"levelo://app?vid=dccadc39-7e75-4ff6-801e-d97b0e1812f2","ios":"levelo://app?vid=dccadc39-7e75-4ff6-801e-d97b0e1812f2"},"vehicle_type_id":"4","last_reported":1726078303,"current_range_meters":19600,"station_id":"ce4bhr92rcd13ifvqhrg","pricing_plan_id":"cebpf4jnsgd1na2vs0mg"},{"bike_id":"f9ce26e1-b687-4b9f-a33d-f85d6af9240e","system_id":"levelo_inurba_marseille","lat":43.33024,"lon":5.39041,"is_reserved":false,"is_disabled":false,"rental_uris":{"android":"levelo://app?vid=f9ce26e1-b687-4b9f-a33d-f85d6af9240e","ios":"levelo://app?vid=f9ce26e1-b687-4b9f-a33d-f85d6af9240e"},"vehicle_type_id":"4","last_reported":1726078303,"current_range_meters":26000,"station_id":"ce4bhr92rcd13ifvqhrg","pricing_plan_id":"cebpf4jnsgd1na2vs0mg"},{"bike_id":"982b3d07-a0ca-4bbd-aa3e-a6b54a0961d5","system_id":"levelo_inurba_marseille","lat":43.27665,"lon":5.38906,"is_reserved":false,"is_disabled":false,"rental_uris":{"android":"levelo://app?vid=982b3d07-a0ca-4bbd-aa3e-a6b54a0961d5","ios":"levelo://app?vid=982b3d07-a0ca-4bbd-aa3e-a6b54a0961d5"},"vehicle_type_id":"4","last_reported":1726078303,"current_range_meters":9600,"station_id":"ce4bhi12rcd13ifvqfo0","pricing_plan_id":"cebpf4jnsgd1na2vs0mg"},{"bike_id":"01e88874-8be7-47ec-a3c6-03821019bfd2","system_id":"levelo_inurba_marseille","lat":43.302399,"lon":5.390589,"is_reserved":false,"is_disabled":false,"rental_uris":{"android":"levelo://app?vid=01e88874-8be7-47ec-a3c6-03821019bfd2","ios":"levelo://app?vid=01e88874-8be7-47ec-a3c6-03821019bfd2"},"vehicle_type_id":"4","last_reported":1726078303,"current_range_meters":18000,"station_id":"","pricing_plan_id":"cebpf4jnsgd1na2vs0mg"},{"bike_id":"19fc74b2-0977-409b-9d38-b0cf563ca0ec","system_id":"levelo_inurba_marseille","lat":43.30325,"lon":5.40434,"is_reserved":false,"is_disabled":false,"rental_uris":{"android":"levelo://app?vid=19fc74b2-0977-409b-9d38-b0cf563ca0ec","ios":"levelo://app?vid=19fc74b2-0977-409b-9d38-b0cf563ca0ec"},"vehicle_type_id":"4","last_reported":1726078303,"current_range_meters":3200,"station_id":"ce4bh012rcd13ifvqd10","pricing_plan_id":"cebpf4jnsgd1na2vs0mg"},{"bike_id":"bde64a81-50de-420a-86ad-a10f8f1106aa","system_id":"levelo_inurba_marseille","lat":43.29372,"lon":5.37858,"is_reserved":false,"is_disabled":false,"rental_uris":{"android":"levelo://app?vid=bde64a81-50de-420a-86ad-a10f8f1106aa","ios":"levelo://app?vid=bde64a81-50de-420a-86ad-a10f8f1106aa"},"vehicle_type_id":"4","last_reported":1726078303,"current_range_meters":27200,"station_id":"ce4bgjh2rcd13ifvqbf0","pricing_plan_id":"cebpf4jnsgd1na2vs0mg"},{"bike_id":"118affd2-c3af-440e-93c2-dd44111431ca","system_id":"levelo_inurba_marseille","lat":43.29796,"lon":5.40402,"is_reserved":false,"is_disabled":false,"rental_uris":{"android":"levelo://app?vid=118affd2-c3af-440e-93c2-dd44111431ca","ios":"levelo://app?vid=118affd2-c3af-440e-93c2-dd44111431ca"},"vehicle_type_id":"4","last_reported":1726078303,"current_range_meters":20400,"station_id":"ce4bh112rcd13ifvqd90","pricing_plan_id":"cebpf4jnsgd1na2vs0mg"},{"bike_id":"f74b798f-c4a8-4283-91c2-ed296b2e71fb","system_id":"levelo_inurba_marseille","lat":43.28843,"lon":5.3932,"is_reserved":false,"is_disabled":false,"rental_uris":{"android":"levelo://app?vid=f74b798f-c4a8-4283-91c2-ed296b2e71fb","ios":"levelo://app?vid=f74b798f-c4a8-4283-91c2-ed296b2e71fb"},"vehicle_type_id":"4","last_reported":1726078303,"current_range_meters":4400,"station_id":"ce4bh2p2rcd13ifvqdi0","pricing_plan_id":"cebpf4jnsgd1na2vs0mg"},{"bike_id":"a57604a1-27a9-48b5-81c5-9fb5045c08bc","system_id":"levelo_inurba_marseille","lat":43.25578,"lon":5.38235,"is_reserved":false,"is_disabled":false,"rental_uris":{"android":"levelo://app?vid=a57604a1-27a9-48b5-81c5-9fb5045c08bc","ios":"levelo://app?vid=a57604a1-27a9-48b5-81c5-9fb5045c08bc"},"vehicle_type_id":"4","last_reported":1726078303,"current_range_meters":26000,"station_id":"ce4bhih2rcd13ifvqfs0","pricing_plan_id":"cebpf4jnsgd1na2vs0mg"},{"bike_id":"67b332ee-3073-4323-9626-cafc898d8834","system_id":"levelo_inurba_marseille","lat":43.29966,"lon":5.38495,"is_reserved":false,"is_disabled":false,"rental_uris":{"android":"levelo://app?vid=67b332ee-3073-4323-9626-cafc898d8834","ios":"levelo://app?vid=67b332ee-3073-4323-9626-cafc898d8834"},"vehicle_type_id":"4","last_reported":1726078303,"current_range_meters":32800,"station_id":"ce4bgj92rcd13ifvqbd0","pricing_plan_id":"cebpf4jnsgd1na2vs0mg"},{"bike_id":"270b5ebe-7fd7-444a-b269-5407d56f88b2","system_id":"levelo_inurba_marseille","lat":43.26054,"lon":5.39389,"is_reserved":false,"is_disabled":false,"rental_uris":{"android":"levelo://app?vid=270b5ebe-7fd7-444a-b269-5407d56f88b2","ios":"levelo://app?vid=270b5ebe-7fd7-444a-b269-5407d56f88b2"},"vehicle_type_id":"4","last_reported":1726078303,"current_range_meters":15200,"station_id":"ce4bhh92rcd13ifvqfj0","pricing_plan_id":"cebpf4jnsgd1na2vs0mg"},{"bike_id":"4c386efd-d18a-4ef4-bea2-49d99e7c4947","system_id":"levelo_inurba_marseille","lat":43.28001,"lon":5.40022,"is_reserved":false,"is_disabled":false,"rental_uris":{"android":"levelo://app?vid=4c386efd-d18a-4ef4-bea2-49d99e7c4947","ios":"levelo://app?vid=4c386efd-d18a-4ef4-bea2-49d99e7c4947"},"vehicle_type_id":"4","last_reported":1726078303,"current_range_meters":12800,"station_id":"ce4bho92rcd13ifvqh4g","pricing_plan_id":"cebpf4jnsgd1na2vs0mg"},{"bike_id":"e06bfd01-c40b-47c2-94ca-ace2b2ea2d8f","system_id":"levelo_inurba_marseille","lat":43.25109,"lon":5.40327,"is_reserved":false,"is_disabled":false,"rental_uris":{"android":"levelo://app?vid=e06bfd01-c40b-47c2-94ca-ace2b2ea2d8f","ios":"levelo://app?vid=e06bfd01-c40b-47c2-94ca-ace2b2ea2d8f"},"vehicle_type_id":"4","last_reported":1726078303,"current_range_meters":4000,"station_id":"ce4bhlh2rcd13ifvqgig","pricing_plan_id":"cebpf4jnsgd1na2vs0mg"},{"bike_id":"d9801c90-8b53-4137-8fc1-ec3b156705bb","system_id":"levelo_inurba_marseille","lat":43.26954,"lon":5.38633,"is_reserved":false,"is_disabled":false,"rental_uris":{"android":"levelo://app?vid=d9801c90-8b53-4137-8fc1-ec3b156705bb","ios":"levelo://app?vid=d9801c90-8b53-4137-8fc1-ec3b156705bb"},"vehicle_type_id":"4","last_reported":1726078303,"current_range_meters":38400,"station_id":"ce4bhh92rcd13ifvqfh0","pricing_plan_id":"cebpf4jnsgd1na2vs0mg"},{"bike_id":"9afdd98c-1ad6-42a9-ba81-507dcd50520d","system_id":"levelo_inurba_marseille","lat":43.2511,"lon":5.40324,"is_reserved":false,"is_disabled":false,"rental_uris":{"android":"levelo://app?vid=9afdd98c-1ad6-42a9-ba81-507dcd50520d","ios":"levelo://app?vid=9afdd98c-1ad6-42a9-ba81-507dcd50520d"},"vehicle_type_id":"4","last_reported":1726078303,"current_range_meters":17600,"station_id":"ce4bhlh2rcd13ifvqgig","pricing_plan_id":"cebpf4jnsgd1na2vs0mg"},{"bike_id":"f496ad62-51ea-4198-8413-dc7549e63542","system_id":"levelo_inurba_marseille","lat":43.29004,"lon":5.35609,"is_reserved":false,"is_disabled":false,"rental_uris":{"android":"levelo://app?vid=f496ad62-51ea-4198-8413-dc7549e63542","ios":"levelo://app?vid=f496ad62-51ea-4198-8413-dc7549e63542"},"vehicle_type_id":"4","last_reported":1726078303,"current_range_meters":36400,"station_id":"ce4bhb92rcd13ifvqen0","pricing_plan_id":"cebpf4jnsgd1na2vs0mg"},{"bike_id":"217b12d7-0655-4772-b8b6-d4b4b765627c","system_id":"levelo_inurba_marseille","lat":43.25583,"lon":5.38243,"is_reserved":false,"is_disabled":false,"rental_uris":{"android":"levelo://app?vid=217b12d7-0655-4772-b8b6-d4b4b765627c","ios":"levelo://app?vid=217b12d7-0655-4772-b8b6-d4b4b765627c"},"vehicle_type_id":"4","last_reported":1726078303,"current_range_meters":11600,"station_id":"ce4bhih2rcd13ifvqfs0","pricing_plan_id":"cebpf4jnsgd1na2vs0mg"},{"bike_id":"913b0980-9af3-414f-93d0-679a03b5ff67","system_id":"levelo_inurba_marseille","lat":43.30429,"lon":5.38885,"is_reserved":false,"is_disabled":false,"rental_uris":{"android":"levelo://app?vid=913b0980-9af3-414f-93d0-679a03b5ff67","ios":"levelo://app?vid=913b0980-9af3-414f-93d0-679a03b5ff67"},"vehicle_type_id":"4","last_reported":1726078303,"current_range_meters":14400,"station_id":"ce4bgk12rcd13ifvqbi0","pricing_plan_id":"cebpf4jnsgd1na2vs0mg"},{"bike_id":"e07fa6d2-2d1f-44f3-905c-c692618ea56b","system_id":"levelo_inurba_marseille","lat":43.27964,"lon":5.38744,"is_reserved":false,"is_disabled":false,"rental_uris":{"android":"levelo://app?vid=e07fa6d2-2d1f-44f3-905c-c692618ea56b","ios":"levelo://app?vid=e07fa6d2-2d1f-44f3-905c-c692618ea56b"},"vehicle_type_id":"4","last_reported":1726078303,"current_range_meters":39200,"station_id":"ce4bhg12rcd13ifvqf80","pricing_plan_id":"cebpf4jnsgd1na2vs0mg"},{"bike_id":"711948f4-1efe-4a5d-8186-c193bd60c0d5","system_id":"levelo_inurba_marseille","lat":43.31766,"lon":5.39014,"is_reserved":false,"is_disabled":false,"rental_uris":{"android":"levelo://app?vid=711948f4-1efe-4a5d-8186-c193bd60c0d5","ios":"levelo://app?vid=711948f4-1efe-4a5d-8186-c193bd60c0d5"},"vehicle_type_id":"4","last_reported":1726078303,"current_range_meters":38800,"station_id":"ce4bhqp2rcd13ifvqhng","pricing_plan_id":"cebpf4jnsgd1na2vs0mg"},{"bike_id":"457df945-9155-4966-8c59-7aa564fc9de3","system_id":"levelo_inurba_marseille","lat":43.2962,"lon":5.3715,"is_reserved":false,"is_disabled":false,"rental_uris":{"android":"levelo://app?vid=457df945-9155-4966-8c59-7aa564fc9de3","ios":"levelo://app?vid=457df945-9155-4966-8c59-7aa564fc9de3"},"vehicle_type_id":"4","last_reported":1726078303,"current_range_meters":38800,"station_id":"ce4bgnh2rcd13ifvqc0g","pricing_plan_id":"cebpf4jnsgd1na2vs0mg"},{"bike_id":"8e5ff208-a12a-4da4-89d5-9c92ae4362c6","system_id":"levelo_inurba_marseille","lat":43.23968,"lon":5.36632,"is_reserved":false,"is_disabled":false,"rental_uris":{"android":"levelo://app?vid=8e5ff208-a12a-4da4-89d5-9c92ae4362c6","ios":"levelo://app?vid=8e5ff208-a12a-4da4-89d5-9c92ae4362c6"},"vehicle_type_id":"4","last_reported":1726078303,"current_range_meters":6400,"station_id":"ce4bhi12rcd13ifvqfp0","pricing_plan_id":"cebpf4jnsgd1na2vs0mg"},{"bike_id":"c8e0fcb6-1d3f-4d83-b861-1f56e6b3ab2c","system_id":"levelo_inurba_marseille","lat":43.32211,"lon":5.3871,"is_reserved":false,"is_disabled":false,"rental_uris":{"android":"levelo://app?vid=c8e0fcb6-1d3f-4d83-b861-1f56e6b3ab2c","ios":"levelo://app?vid=c8e0fcb6-1d3f-4d83-b861-1f56e6b3ab2c"},"vehicle_type_id":"4","last_reported":1726078303,"current_range_meters":32800,"station_id":"","pricing_plan_id":"cebpf4jnsgd1na2vs0mg"},{"bike_id":"133114f0-5e65-49e9-86ae-b5ac02efb53d","system_id":"levelo_inurba_marseille","lat":43.31178,"lon":5.39354,"is_reserved":false,"is_disabled":false,"rental_uris":{"android":"levelo://app?vid=133114f0-5e65-49e9-86ae-b5ac02efb53d","ios":"levelo://app?vid=133114f0-5e65-49e9-86ae-b5ac02efb53d"},"vehicle_type_id":"4","last_reported":1726078303,"current_range_meters":2000,"station_id":"","pricing_plan_id":"cebpf4jnsgd1na2vs0mg"},{"bike_id":"dbb7dfb9-8cd4-441c-9327-499b2abe1ad7","system_id":"levelo_inurba_marseille","lat":43.313354,"lon":5.396756,"is_reserved":false,"is_disabled":false,"rental_uris":{"android":"levelo://app?vid=dbb7dfb9-8cd4-441c-9327-499b2abe1ad7","ios":"levelo://app?vid=dbb7dfb9-8cd4-441c-9327-499b2abe1ad7"},"vehicle_type_id":"4","last_reported":1726078303,"current_range_meters":6800,"station_id":"ce4bgvp2rcd13ifvqcu0","pricing_plan_id":"cebpf4jnsgd1na2vs0mg"},{"bike_id":"309a7169-56f1-4c44-a45e-96df3696fc7d","system_id":"levelo_inurba_marseille","lat":43.311141,"lon":5.377725,"is_reserved":false,"is_disabled":false,"rental_uris":{"android":"levelo://app?vid=309a7169-56f1-4c44-a45e-96df3696fc7d","ios":"levelo://app?vid=309a7169-56f1-4c44-a45e-96df3696fc7d"},"vehicle_type_id":"4","last_reported":1726078303,"current_range_meters":36000,"station_id":"ce4bgt92rcd13ifvqcg0","pricing_plan_id":"cebpf4jnsgd1na2vs0mg"},{"bike_id":"24990dba-cb5c-44e3-b39e-9413cf954095","system_id":"levelo_inurba_marseille","lat":43.2319,"lon":5.39986,"is_reserved":false,"is_disabled":false,"rental_uris":{"android":"levelo://app?vid=24990dba-cb5c-44e3-b39e-9413cf954095","ios":"levelo://app?vid=24990dba-cb5c-44e3-b39e-9413cf954095"},"vehicle_type_id":"4","last_reported":1726078303,"current_range_meters":22000,"station_id":"ce4bhn12rcd13ifvqgqg","pricing_plan_id":"cebpf4jnsgd1na2vs0mg"},{"bike_id":"77641ddf-ed47-4bb2-94b9-bb9f7ad845f0","system_id":"levelo_inurba_marseille","lat":43.32042,"lon":5.41568,"is_reserved":false,"is_disabled":false,"rental_uris":{"android":"levelo://app?vid=77641ddf-ed47-4bb2-94b9-bb9f7ad845f0","ios":"levelo://app?vid=77641ddf-ed47-4bb2-94b9-bb9f7ad845f0"},"vehicle_type_id":"4","last_reported":1726078303,"current_range_meters":33600,"station_id":"ce4bhq92rcd13ifvqhkg","pricing_plan_id":"cebpf4jnsgd1na2vs0mg"},{"bike_id":"f7383583-f6d9-4a1f-9651-744703bbb837","system_id":"levelo_inurba_marseille","lat":43.30796,"lon":5.43527,"is_reserved":false,"is_disabled":false,"rental_uris":{"android":"levelo://app?vid=f7383583-f6d9-4a1f-9651-744703bbb837","ios":"levelo://app?vid=f7383583-f6d9-4a1f-9651-744703bbb837"},"vehicle_type_id":"4","last_reported":1726078303,"current_range_meters":6000,"station_id":"ce4bhph2rcd13ifvqheg","pricing_plan_id":"cebpf4jnsgd1na2vs0mg"},{"bike_id":"512fb853-7681-4486-a438-6d2ed2dc77f5","system_id":"levelo_inurba_marseille","lat":43.28703,"lon":5.3999,"is_reserved":false,"is_disabled":false,"rental_uris":{"android":"levelo://app?vid=512fb853-7681-4486-a438-6d2ed2dc77f5","ios":"levelo://app?vid=512fb853-7681-4486-a438-6d2ed2dc77f5"},"vehicle_type_id":"4","last_reported":1726078303,"current_range_meters":7200,"station_id":"","pricing_plan_id":"cebpf4jnsgd1na2vs0mg"},{"bike_id":"54fc95fd-2852-4c59-8eea-f3f9eada4067","system_id":"levelo_inurba_marseille","lat":43.28465,"lon":5.35892,"is_reserved":false,"is_disabled":false,"rental_uris":{"android":"levelo://app?vid=54fc95fd-2852-4c59-8eea-f3f9eada4067","ios":"levelo://app?vid=54fc95fd-2852-4c59-8eea-f3f9eada4067"},"vehicle_type_id":"4","last_reported":1726078303,"current_range_meters":9600,"station_id":"ce4bhah2rcd13ifvqei0","pricing_plan_id":"cebpf4jnsgd1na2vs0mg"},{"bike_id":"5f8714c2-4691-49c6-af6f-ae88c4dd369a","system_id":"levelo_inurba_marseille","lat":43.27997,"lon":5.40012,"is_reserved":false,"is_disabled":false,"rental_uris":{"android":"levelo://app?vid=5f8714c2-4691-49c6-af6f-ae88c4dd369a","ios":"levelo://app?vid=5f8714c2-4691-49c6-af6f-ae88c4dd369a"},"vehicle_type_id":"4","last_reported":1726078303,"current_range_meters":5600,"station_id":"ce4bho92rcd13ifvqh4g","pricing_plan_id":"cebpf4jnsgd1na2vs0mg"},{"bike_id":"b1591eff-e8a3-47a9-abf1-1dcd0498d798","system_id":"levelo_inurba_marseille","lat":43.28936,"lon":5.36388,"is_reserved":false,"is_disabled":false,"rental_uris":{"android":"levelo://app?vid=b1591eff-e8a3-47a9-abf1-1dcd0498d798","ios":"levelo://app?vid=b1591eff-e8a3-47a9-abf1-1dcd0498d798"},"vehicle_type_id":"4","last_reported":1726078303,"current_range_meters":36400,"station_id":"ce4bhc92rcd13ifvqetg","pricing_plan_id":"cebpf4jnsgd1na2vs0mg"},{"bike_id":"874b339c-0d7f-4e45-93ba-e9bc006f94ee","system_id":"levelo_inurba_marseille","lat":43.28405,"lon":5.37511,"is_reserved":false,"is_disabled":false,"rental_uris":{"android":"levelo://app?vid=874b339c-0d7f-4e45-93ba-e9bc006f94ee","ios":"levelo://app?vid=874b339c-0d7f-4e45-93ba-e9bc006f94ee"},"vehicle_type_id":"4","last_reported":1726078303,"current_range_meters":25200,"station_id":"ce4bh412rcd13ifvqds0","pricing_plan_id":"cebpf4jnsgd1na2vs0mg"},{"bike_id":"85260abb-bcc7-4281-aee8-6055ec9bf3a0","system_id":"levelo_inurba_marseille","lat":43.2926,"lon":5.38448,"is_reserved":false,"is_disabled":false,"rental_uris":{"android":"levelo://app?vid=85260abb-bcc7-4281-aee8-6055ec9bf3a0","ios":"levelo://app?vid=85260abb-bcc7-4281-aee8-6055ec9bf3a0"},"vehicle_type_id":"4","last_reported":1726078303,"current_range_meters":38800,"station_id":"ce4bh692rcd13ifvqea0","pricing_plan_id":"cebpf4jnsgd1na2vs0mg"},{"bike_id":"9b15142b-69cb-4281-994a-95134ce6d619","system_id":"levelo_inurba_marseille","lat":43.2742,"lon":5.39416,"is_reserved":false,"is_disabled":false,"rental_uris":{"android":"levelo://app?vid=9b15142b-69cb-4281-994a-95134ce6d619","ios":"levelo://app?vid=9b15142b-69cb-4281-994a-95134ce6d619"},"vehicle_type_id":"4","last_reported":1726078303,"current_range_meters":3200,"station_id":"ce4bhdp2rcd13ifvqf20","pricing_plan_id":"cebpf4jnsgd1na2vs0mg"},{"bike_id":"c097fc37-870d-4768-ab94-ae87094395af","system_id":"levelo_inurba_marseille","lat":43.31757,"lon":5.39021,"is_reserved":false,"is_disabled":false,"rental_uris":{"android":"levelo://app?vid=c097fc37-870d-4768-ab94-ae87094395af","ios":"levelo://app?vid=c097fc37-870d-4768-ab94-ae87094395af"},"vehicle_type_id":"4","last_reported":1726078303,"current_range_meters":22000,"station_id":"ce4bhqp2rcd13ifvqhng","pricing_plan_id":"cebpf4jnsgd1na2vs0mg"},{"bike_id":"f400d370-a20e-4ced-86f0-64f62510749c","system_id":"levelo_inurba_marseille","lat":43.3237,"lon":5.38926,"is_reserved":false,"is_disabled":false,"rental_uris":{"android":"levelo://app?vid=f400d370-a20e-4ced-86f0-64f62510749c","ios":"levelo://app?vid=f400d370-a20e-4ced-86f0-64f62510749c"},"vehicle_type_id":"4","last_reported":1726078303,"current_range_meters":12800,"station_id":"","pricing_plan_id":"cebpf4jnsgd1na2vs0mg"},{"bike_id":"ca5d936b-031c-493c-83e3-59e5f82a2b8e","system_id":"levelo_inurba_marseille","lat":43.31721,"lon":5.42408,"is_reserved":false,"is_disabled":false,"rental_uris":{"android":"levelo://app?vid=ca5d936b-031c-493c-83e3-59e5f82a2b8e","ios":"levelo://app?vid=ca5d936b-031c-493c-83e3-59e5f82a2b8e"},"vehicle_type_id":"4","last_reported":1726078303,"current_range_meters":22800,"station_id":"ce4bhp92rcd13ifvqhbg","pricing_plan_id":"cebpf4jnsgd1na2vs0mg"},{"bike_id":"b5e980e2-3619-401e-bbd1-349e3aaf8a12","system_id":"levelo_inurba_marseille","lat":43.24663,"lon":5.38168,"is_reserved":false,"is_disabled":false,"rental_uris":{"android":"levelo://app?vid=b5e980e2-3619-401e-bbd1-349e3aaf8a12","ios":"levelo://app?vid=b5e980e2-3619-401e-bbd1-349e3aaf8a12"},"vehicle_type_id":"4","last_reported":1726078303,"current_range_meters":16400,"station_id":"ce4bhih2rcd13ifvqfr0","pricing_plan_id":"cebpf4jnsgd1na2vs0mg"},{"bike_id":"3c7e2569-50e4-43f2-a3c4-8e919a6856b2","system_id":"levelo_inurba_marseille","lat":43.2803,"lon":5.36947,"is_reserved":false,"is_disabled":false,"rental_uris":{"android":"levelo://app?vid=3c7e2569-50e4-43f2-a3c4-8e919a6856b2","ios":"levelo://app?vid=3c7e2569-50e4-43f2-a3c4-8e919a6856b2"},"vehicle_type_id":"4","last_reported":1726078303,"current_range_meters":14400,"station_id":"ce4bha12rcd13ifvqef0","pricing_plan_id":"cebpf4jnsgd1na2vs0mg"},{"bike_id":"693a8a68-24a2-4859-9697-adff1b55320a","system_id":"levelo_inurba_marseille","lat":43.31332,"lon":5.39695,"is_reserved":false,"is_disabled":false,"rental_uris":{"android":"levelo://app?vid=693a8a68-24a2-4859-9697-adff1b55320a","ios":"levelo://app?vid=693a8a68-24a2-4859-9697-adff1b55320a"},"vehicle_type_id":"4","last_reported":1726078303,"current_range_meters":29600,"station_id":"ce4bgvp2rcd13ifvqcu0","pricing_plan_id":"cebpf4jnsgd1na2vs0mg"},{"bike_id":"143049cf-4830-4219-a121-2a60df83aa5d","system_id":"levelo_inurba_marseille","lat":43.337444,"lon":5.374475,"is_reserved":false,"is_disabled":false,"rental_uris":{"android":"levelo://app?vid=143049cf-4830-4219-a121-2a60df83aa5d","ios":"levelo://app?vid=143049cf-4830-4219-a121-2a60df83aa5d"},"vehicle_type_id":"4","last_reported":1726078303,"current_range_meters":31200,"station_id":"","pricing_plan_id":"cebpf4jnsgd1na2vs0mg"},{"bike_id":"5752917a-af32-4f05-b5d2-f2f133349789","system_id":"levelo_inurba_marseille","lat":43.30126,"lon":5.39877,"is_reserved":false,"is_disabled":false,"rental_uris":{"android":"levelo://app?vid=5752917a-af32-4f05-b5d2-f2f133349789","ios":"levelo://app?vid=5752917a-af32-4f05-b5d2-f2f133349789"},"vehicle_type_id":"4","last_reported":1726078303,"current_range_meters":9200,"station_id":"ce4bh0h2rcd13ifvqd40","pricing_plan_id":"cebpf4jnsgd1na2vs0mg"},{"bike_id":"3b3bee2d-7053-4676-8fc4-7bcf9f853937","system_id":"levelo_inurba_marseille","lat":43.3229,"lon":5.38275,"is_reserved":false,"is_disabled":false,"rental_uris":{"android":"levelo://app?vid=3b3bee2d-7053-4676-8fc4-7bcf9f853937","ios":"levelo://app?vid=3b3bee2d-7053-4676-8fc4-7bcf9f853937"},"vehicle_type_id":"4","last_reported":1726078303,"current_range_meters":34800,"station_id":"ce4bhr12rcd13ifvqhqg","pricing_plan_id":"cebpf4jnsgd1na2vs0mg"},{"bike_id":"047ad47f-12d9-4e34-a265-8098020725b2","system_id":"levelo_inurba_marseille","lat":43.24807,"lon":5.3746,"is_reserved":false,"is_disabled":false,"rental_uris":{"android":"levelo://app?vid=047ad47f-12d9-4e34-a265-8098020725b2","ios":"levelo://app?vid=047ad47f-12d9-4e34-a265-8098020725b2"},"vehicle_type_id":"4","last_reported":1726078303,"current_range_meters":30800,"station_id":"ce4bhgh2rcd13ifvqfb0","pricing_plan_id":"cebpf4jnsgd1na2vs0mg"},{"bike_id":"a5f48931-9a6a-4a11-90e6-c1f6abc70d4c","system_id":"levelo_inurba_marseille","lat":43.29534,"lon":5.38541,"is_reserved":false,"is_disabled":false,"rental_uris":{"android":"levelo://app?vid=a5f48931-9a6a-4a11-90e6-c1f6abc70d4c","ios":"levelo://app?vid=a5f48931-9a6a-4a11-90e6-c1f6abc70d4c"},"vehicle_type_id":"4","last_reported":1726078303,"current_range_meters":8000,"station_id":"ce4bgih2rcd13ifvqba0","pricing_plan_id":"cebpf4jnsgd1na2vs0mg"},{"bike_id":"a48e3956-21ca-412e-9281-61af4f604359","system_id":"levelo_inurba_marseille","lat":43.27985,"lon":5.41662,"is_reserved":false,"is_disabled":false,"rental_uris":{"android":"levelo://app?vid=a48e3956-21ca-412e-9281-61af4f604359","ios":"levelo://app?vid=a48e3956-21ca-412e-9281-61af4f604359"},"vehicle_type_id":"4","last_reported":1726078303,"current_range_meters":4000,"station_id":"ce4bho12rcd13ifvqh1g","pricing_plan_id":"cebpf4jnsgd1na2vs0mg"},{"bike_id":"4581ffb4-4860-4295-bc13-f823df58b91c","system_id":"levelo_inurba_marseille","lat":43.25724,"lon":5.41106,"is_reserved":false,"is_disabled":false,"rental_uris":{"android":"levelo://app?vid=4581ffb4-4860-4295-bc13-f823df58b91c","ios":"levelo://app?vid=4581ffb4-4860-4295-bc13-f823df58b91c"},"vehicle_type_id":"4","last_reported":1726078303,"current_range_meters":15200,"station_id":"ce4bhkp2rcd13ifvqgd0","pricing_plan_id":"cebpf4jnsgd1na2vs0mg"},{"bike_id":"1bb50ece-9d0e-427f-a917-708ca59f5223","system_id":"levelo_inurba_marseille","lat":43.30424,"lon":5.38898,"is_reserved":false,"is_disabled":false,"rental_uris":{"android":"levelo://app?vid=1bb50ece-9d0e-427f-a917-708ca59f5223","ios":"levelo://app?vid=1bb50ece-9d0e-427f-a917-708ca59f5223"},"vehicle_type_id":"4","last_reported":1726078303,"current_range_meters":34000,"station_id":"ce4bgk12rcd13ifvqbi0","pricing_plan_id":"cebpf4jnsgd1na2vs0mg"},{"bike_id":"a749f59d-c17e-4d7f-8d95-babb8876eb63","system_id":"levelo_inurba_marseille","lat":43.24388,"lon":5.37061,"is_reserved":false,"is_disabled":false,"rental_uris":{"android":"levelo://app?vid=a749f59d-c17e-4d7f-8d95-babb8876eb63","ios":"levelo://app?vid=a749f59d-c17e-4d7f-8d95-babb8876eb63"},"vehicle_type_id":"4","last_reported":1726078303,"current_range_meters":10800,"station_id":"ce4bhhh2rcd13ifvqfk0","pricing_plan_id":"cebpf4jnsgd1na2vs0mg"},{"bike_id":"cec131b6-6c84-4899-9723-159f4b060af5","system_id":"levelo_inurba_marseille","lat":43.31711,"lon":5.37658,"is_reserved":false,"is_disabled":false,"rental_uris":{"android":"levelo://app?vid=cec131b6-6c84-4899-9723-159f4b060af5","ios":"levelo://app?vid=cec131b6-6c84-4899-9723-159f4b060af5"},"vehicle_type_id":"4","last_reported":1726078303,"current_range_meters":6400,"station_id":"","pricing_plan_id":"cebpf4jnsgd1na2vs0mg"},{"bike_id":"f2b3b549-7f8a-4eae-b464-4b6623533f44","system_id":"levelo_inurba_marseille","lat":43.33749,"lon":5.37451,"is_reserved":false,"is_disabled":false,"rental_uris":{"android":"levelo://app?vid=f2b3b549-7f8a-4eae-b464-4b6623533f44","ios":"levelo://app?vid=f2b3b549-7f8a-4eae-b464-4b6623533f44"},"vehicle_type_id":"4","last_reported":1726078303,"current_range_meters":31200,"station_id":"","pricing_plan_id":"cebpf4jnsgd1na2vs0mg"},{"bike_id":"f04611fc-41da-484f-a705-9095a13563c4","system_id":"levelo_inurba_marseille","lat":43.294267,"lon":5.385707,"is_reserved":false,"is_disabled":false,"rental_uris":{"android":"levelo://app?vid=f04611fc-41da-484f-a705-9095a13563c4","ios":"levelo://app?vid=f04611fc-41da-484f-a705-9095a13563c4"},"vehicle_type_id":"4","last_reported":1726078303,"current_range_meters":30000,"station_id":"ce4bh2h2rcd13ifvqdh0","pricing_plan_id":"cebpf4jnsgd1na2vs0mg"},{"bike_id":"fe68c98a-f8e5-439c-92b3-5044fa46ec6d","system_id":"levelo_inurba_marseille","lat":43.31067,"lon":5.38352,"is_reserved":false,"is_disabled":false,"rental_uris":{"android":"levelo://app?vid=fe68c98a-f8e5-439c-92b3-5044fa46ec6d","ios":"levelo://app?vid=fe68c98a-f8e5-439c-92b3-5044fa46ec6d"},"vehicle_type_id":"4","last_reported":1726078303,"current_range_meters":34000,"station_id":"ce4bgv92rcd13ifvqcr0","pricing_plan_id":"cebpf4jnsgd1na2vs0mg"},{"bike_id":"fffbd652-9d9a-47e9-892c-68dc09e02ddb","system_id":"levelo_inurba_marseille","lat":43.2408,"lon":5.37735,"is_reserved":false,"is_disabled":false,"rental_uris":{"android":"levelo://app?vid=fffbd652-9d9a-47e9-892c-68dc09e02ddb","ios":"levelo://app?vid=fffbd652-9d9a-47e9-892c-68dc09e02ddb"},"vehicle_type_id":"4","last_reported":1726078303,"current_range_meters":32000,"station_id":"ce4bhnp2rcd13ifvqgvg","pricing_plan_id":"cebpf4jnsgd1na2vs0mg"},{"bike_id":"9da6e4c3-6aaa-4536-90f1-435c0689f25a","system_id":"levelo_inurba_marseille","lat":43.29535,"lon":5.38546,"is_reserved":false,"is_disabled":false,"rental_uris":{"android":"levelo://app?vid=9da6e4c3-6aaa-4536-90f1-435c0689f25a","ios":"levelo://app?vid=9da6e4c3-6aaa-4536-90f1-435c0689f25a"},"vehicle_type_id":"4","last_reported":1726078303,"current_range_meters":38800,"station_id":"ce4bgih2rcd13ifvqba0","pricing_plan_id":"cebpf4jnsgd1na2vs0mg"},{"bike_id":"a0a148a0-3ff4-4c3e-b861-f993675c022d","system_id":"levelo_inurba_marseille","lat":43.24075,"lon":5.37764,"is_reserved":false,"is_disabled":false,"rental_uris":{"android":"levelo://app?vid=a0a148a0-3ff4-4c3e-b861-f993675c022d","ios":"levelo://app?vid=a0a148a0-3ff4-4c3e-b861-f993675c022d"},"vehicle_type_id":"4","last_reported":1726078303,"current_range_meters":9200,"station_id":"ce4bhnp2rcd13ifvqgvg","pricing_plan_id":"cebpf4jnsgd1na2vs0mg"},{"bike_id":"723e62dc-531d-486b-af0e-910064429ea1","system_id":"levelo_inurba_marseille","lat":43.28709,"lon":5.39997,"is_reserved":false,"is_disabled":false,"rental_uris":{"android":"levelo://app?vid=723e62dc-531d-486b-af0e-910064429ea1","ios":"levelo://app?vid=723e62dc-531d-486b-af0e-910064429ea1"},"vehicle_type_id":"4","last_reported":1726078303,"current_range_meters":3600,"station_id":"ce4bho92rcd13ifvqh3g","pricing_plan_id":"cebpf4jnsgd1na2vs0mg"},{"bike_id":"efc56ccd-19c8-4639-83af-656ebbe55a0b","system_id":"levelo_inurba_marseille","lat":43.29197,"lon":5.35807,"is_reserved":false,"is_disabled":false,"rental_uris":{"android":"levelo://app?vid=efc56ccd-19c8-4639-83af-656ebbe55a0b","ios":"levelo://app?vid=efc56ccd-19c8-4639-83af-656ebbe55a0b"},"vehicle_type_id":"4","last_reported":1726078303,"current_range_meters":36000,"station_id":"ce4bhb12rcd13ifvqel0","pricing_plan_id":"cebpf4jnsgd1na2vs0mg"},{"bike_id":"7924fb8f-0c1a-4225-9c6c-151f56e3757f","system_id":"levelo_inurba_marseille","lat":43.29641,"lon":5.37155,"is_reserved":false,"is_disabled":false,"rental_uris":{"android":"levelo://app?vid=7924fb8f-0c1a-4225-9c6c-151f56e3757f","ios":"levelo://app?vid=7924fb8f-0c1a-4225-9c6c-151f56e3757f"},"vehicle_type_id":"4","last_reported":1726078303,"current_range_meters":37600,"station_id":"ce4bgnh2rcd13ifvqc0g","pricing_plan_id":"cebpf4jnsgd1na2vs0mg"},{"bike_id":"f59775cb-05a0-4410-aa94-6e21fa42ee0c","system_id":"levelo_inurba_marseille","lat":43.29775,"lon":5.37096,"is_reserved":false,"is_disabled":false,"rental_uris":{"android":"levelo://app?vid=f59775cb-05a0-4410-aa94-6e21fa42ee0c","ios":"levelo://app?vid=f59775cb-05a0-4410-aa94-6e21fa42ee0c"},"vehicle_type_id":"4","last_reported":1726078303,"current_range_meters":8000,"station_id":"ce4bgop2rcd13ifvqc1g","pricing_plan_id":"cebpf4jnsgd1na2vs0mg"},{"bike_id":"25931d62-ede3-4f87-9351-4e7567ed8e97","system_id":"levelo_inurba_marseille","lat":43.26201,"lon":5.37936,"is_reserved":false,"is_disabled":false,"rental_uris":{"android":"levelo://app?vid=25931d62-ede3-4f87-9351-4e7567ed8e97","ios":"levelo://app?vid=25931d62-ede3-4f87-9351-4e7567ed8e97"},"vehicle_type_id":"4","last_reported":1726078303,"current_range_meters":26800,"station_id":"ce4bhjp2rcd13ifvqg90","pricing_plan_id":"cebpf4jnsgd1na2vs0mg"},{"bike_id":"a21a8e35-3275-49bf-a570-fc81ada1d378","system_id":"levelo_inurba_marseille","lat":43.27911,"lon":5.38022,"is_reserved":false,"is_disabled":false,"rental_uris":{"android":"levelo://app?vid=a21a8e35-3275-49bf-a570-fc81ada1d378","ios":"levelo://app?vid=a21a8e35-3275-49bf-a570-fc81ada1d378"},"vehicle_type_id":"4","last_reported":1726078303,"current_range_meters":2800,"station_id":"ce4bhf92rcd13ifvqf50","pricing_plan_id":"cebpf4jnsgd1na2vs0mg"},{"bike_id":"11dbe029-1355-4bf7-8aeb-5d13ce051ec3","system_id":"levelo_inurba_marseille","lat":43.26061,"lon":5.39389,"is_reserved":false,"is_disabled":false,"rental_uris":{"android":"levelo://app?vid=11dbe029-1355-4bf7-8aeb-5d13ce051ec3","ios":"levelo://app?vid=11dbe029-1355-4bf7-8aeb-5d13ce051ec3"},"vehicle_type_id":"4","last_reported":1726078303,"current_range_meters":30800,"station_id":"ce4bhh92rcd13ifvqfj0","pricing_plan_id":"cebpf4jnsgd1na2vs0mg"},{"bike_id":"e6be00e5-8ede-4c33-aa85-f99dccd3bec2","system_id":"levelo_inurba_marseille","lat":43.290344,"lon":5.386492,"is_reserved":false,"is_disabled":false,"rental_uris":{"android":"levelo://app?vid=e6be00e5-8ede-4c33-aa85-f99dccd3bec2","ios":"levelo://app?vid=e6be00e5-8ede-4c33-aa85-f99dccd3bec2"},"vehicle_type_id":"4","last_reported":1726078303,"current_range_meters":32400,"station_id":"ce4bh4p2rcd13ifvqe0g","pricing_plan_id":"cebpf4jnsgd1na2vs0mg"},{"bike_id":"4dbd29a4-7aee-4e74-9f1c-d1f8047654f9","system_id":"levelo_inurba_marseille","lat":43.28849,"lon":5.35855,"is_reserved":false,"is_disabled":false,"rental_uris":{"android":"levelo://app?vid=4dbd29a4-7aee-4e74-9f1c-d1f8047654f9","ios":"levelo://app?vid=4dbd29a4-7aee-4e74-9f1c-d1f8047654f9"},"vehicle_type_id":"4","last_reported":1726078303,"current_range_meters":10800,"station_id":"ce4bhb12rcd13ifvqem0","pricing_plan_id":"cebpf4jnsgd1na2vs0mg"},{"bike_id":"6a567ef3-fa44-4ec3-a66a-d59315bd5395","system_id":"levelo_inurba_marseille","lat":43.29578,"lon":5.36744,"is_reserved":false,"is_disabled":false,"rental_uris":{"android":"levelo://app?vid=6a567ef3-fa44-4ec3-a66a-d59315bd5395","ios":"levelo://app?vid=6a567ef3-fa44-4ec3-a66a-d59315bd5395"},"vehicle_type_id":"4","last_reported":1726078303,"current_range_meters":14400,"station_id":"ce4bgph2rcd13ifvqc2g","pricing_plan_id":"cebpf4jnsgd1na2vs0mg"},{"bike_id":"50ddd9b3-02c3-4b2b-ab1e-58c62e9d13a3","system_id":"levelo_inurba_marseille","lat":43.289369,"lon":5.396214,"is_reserved":false,"is_disabled":false,"rental_uris":{"android":"levelo://app?vid=50ddd9b3-02c3-4b2b-ab1e-58c62e9d13a3","ios":"levelo://app?vid=50ddd9b3-02c3-4b2b-ab1e-58c62e9d13a3"},"vehicle_type_id":"4","last_reported":1726078303,"current_range_meters":36400,"station_id":"ce4bh3h2rcd13ifvqdn0","pricing_plan_id":"cebpf4jnsgd1na2vs0mg"},{"bike_id":"db1fc0f3-6bb6-4dbd-b551-5c6de238fbf5","system_id":"levelo_inurba_marseille","lat":43.25686,"lon":5.410384,"is_reserved":false,"is_disabled":false,"rental_uris":{"android":"levelo://app?vid=db1fc0f3-6bb6-4dbd-b551-5c6de238fbf5","ios":"levelo://app?vid=db1fc0f3-6bb6-4dbd-b551-5c6de238fbf5"},"vehicle_type_id":"4","last_reported":1726078303,"current_range_meters":12000,"station_id":"ce4bhkp2rcd13ifvqgd0","pricing_plan_id":"cebpf4jnsgd1na2vs0mg"},{"bike_id":"d968dc65-4001-4456-9e77-4648dded6a24","system_id":"levelo_inurba_marseille","lat":43.286621,"lon":5.386719,"is_reserved":false,"is_disabled":false,"rental_uris":{"android":"levelo://app?vid=d968dc65-4001-4456-9e77-4648dded6a24","ios":"levelo://app?vid=d968dc65-4001-4456-9e77-4648dded6a24"},"vehicle_type_id":"4","last_reported":1726078303,"current_range_meters":38800,"station_id":"ce4bh492rcd13ifvqdug","pricing_plan_id":"cebpf4jnsgd1na2vs0mg"},{"bike_id":"f3dd58dc-ab4b-4ec7-8d1b-661fa0880a62","system_id":"levelo_inurba_marseille","lat":43.29555,"lon":5.42286,"is_reserved":false,"is_disabled":false,"rental_uris":{"android":"levelo://app?vid=f3dd58dc-ab4b-4ec7-8d1b-661fa0880a62","ios":"levelo://app?vid=f3dd58dc-ab4b-4ec7-8d1b-661fa0880a62"},"vehicle_type_id":"4","last_reported":1726078303,"current_range_meters":25200,"station_id":"ce4bhph2rcd13ifvqhdg","pricing_plan_id":"cebpf4jnsgd1na2vs0mg"},{"bike_id":"3c45e72c-a88e-44aa-8bca-e1a0ffd178f8","system_id":"levelo_inurba_marseille","lat":43.27529,"lon":5.43437,"is_reserved":false,"is_disabled":false,"rental_uris":{"android":"levelo://app?vid=3c45e72c-a88e-44aa-8bca-e1a0ffd178f8","ios":"levelo://app?vid=3c45e72c-a88e-44aa-8bca-e1a0ffd178f8"},"vehicle_type_id":"4","last_reported":1726078303,"current_range_meters":4800,"station_id":"","pricing_plan_id":"cebpf4jnsgd1na2vs0mg"},{"bike_id":"42880d3e-8366-4764-a373-e7aa6ec43602","system_id":"levelo_inurba_marseille","lat":43.29024,"lon":5.38142,"is_reserved":false,"is_disabled":false,"rental_uris":{"android":"levelo://app?vid=42880d3e-8366-4764-a373-e7aa6ec43602","ios":"levelo://app?vid=42880d3e-8366-4764-a373-e7aa6ec43602"},"vehicle_type_id":"4","last_reported":1726078303,"current_range_meters":38400,"station_id":"ce4bh4p2rcd13ifvqe1g","pricing_plan_id":"cebpf4jnsgd1na2vs0mg"},{"bike_id":"f05fc4e7-5435-424e-8f86-827fdf979fe4","system_id":"levelo_inurba_marseille","lat":43.29551,"lon":5.42279,"is_reserved":false,"is_disabled":false,"rental_uris":{"android":"levelo://app?vid=f05fc4e7-5435-424e-8f86-827fdf979fe4","ios":"levelo://app?vid=f05fc4e7-5435-424e-8f86-827fdf979fe4"},"vehicle_type_id":"4","last_reported":1726078303,"current_range_meters":33600,"station_id":"ce4bhph2rcd13ifvqhdg","pricing_plan_id":"cebpf4jnsgd1na2vs0mg"},{"bike_id":"32e67cfb-44e9-4243-9475-a0dcc4d6eeaf","system_id":"levelo_inurba_marseille","lat":43.29228,"lon":5.36076,"is_reserved":false,"is_disabled":false,"rental_uris":{"android":"levelo://app?vid=32e67cfb-44e9-4243-9475-a0dcc4d6eeaf","ios":"levelo://app?vid=32e67cfb-44e9-4243-9475-a0dcc4d6eeaf"},"vehicle_type_id":"4","last_reported":1726078303,"current_range_meters":35600,"station_id":"ce4bhbh2rcd13ifvqeqg","pricing_plan_id":"cebpf4jnsgd1na2vs0mg"},{"bike_id":"e09130da-0942-4993-981b-ba7fc84dede4","system_id":"levelo_inurba_marseille","lat":43.30123,"lon":5.39853,"is_reserved":false,"is_disabled":false,"rental_uris":{"android":"levelo://app?vid=e09130da-0942-4993-981b-ba7fc84dede4","ios":"levelo://app?vid=e09130da-0942-4993-981b-ba7fc84dede4"},"vehicle_type_id":"4","last_reported":1726078303,"current_range_meters":23200,"station_id":"ce4bh0h2rcd13ifvqd40","pricing_plan_id":"cebpf4jnsgd1na2vs0mg"},{"bike_id":"00845bbc-fed0-4944-9a96-d4737edc6320","system_id":"levelo_inurba_marseille","lat":43.28417,"lon":5.37518,"is_reserved":false,"is_disabled":false,"rental_uris":{"android":"levelo://app?vid=00845bbc-fed0-4944-9a96-d4737edc6320","ios":"levelo://app?vid=00845bbc-fed0-4944-9a96-d4737edc6320"},"vehicle_type_id":"4","last_reported":1726078303,"current_range_meters":35200,"station_id":"ce4bh412rcd13ifvqds0","pricing_plan_id":"cebpf4jnsgd1na2vs0mg"},{"bike_id":"5db616bf-71a3-4d14-ba78-89622ad53145","system_id":"levelo_inurba_marseille","lat":43.29606,"lon":5.37723,"is_reserved":false,"is_disabled":false,"rental_uris":{"android":"levelo://app?vid=5db616bf-71a3-4d14-ba78-89622ad53145","ios":"levelo://app?vid=5db616bf-71a3-4d14-ba78-89622ad53145"},"vehicle_type_id":"4","last_reported":1726078303,"current_range_meters":17200,"station_id":"ce4bgi92rcd13ifvqb90","pricing_plan_id":"cebpf4jnsgd1na2vs0mg"},{"bike_id":"32846fc3-f252-4e82-a920-099fd3feb84a","system_id":"levelo_inurba_marseille","lat":43.308838,"lon":5.396665,"is_reserved":false,"is_disabled":false,"rental_uris":{"android":"levelo://app?vid=32846fc3-f252-4e82-a920-099fd3feb84a","ios":"levelo://app?vid=32846fc3-f252-4e82-a920-099fd3feb84a"},"vehicle_type_id":"4","last_reported":1726078303,"current_range_meters":27600,"station_id":"ce4bh012rcd13ifvqcv0","pricing_plan_id":"cebpf4jnsgd1na2vs0mg"},{"bike_id":"34cc4144-539e-45b6-b4ec-aa87165b82ec","system_id":"levelo_inurba_marseille","lat":43.25867,"lon":5.39896,"is_reserved":false,"is_disabled":false,"rental_uris":{"android":"levelo://app?vid=34cc4144-539e-45b6-b4ec-aa87165b82ec","ios":"levelo://app?vid=34cc4144-539e-45b6-b4ec-aa87165b82ec"},"vehicle_type_id":"4","last_reported":1726078303,"current_range_meters":14400,"station_id":"ce4bhl92rcd13ifvqghg","pricing_plan_id":"cebpf4jnsgd1na2vs0mg"},{"bike_id":"307f7f95-0104-41bd-b595-994159fbd609","system_id":"levelo_inurba_marseille","lat":43.30758,"lon":5.43518,"is_reserved":false,"is_disabled":false,"rental_uris":{"android":"levelo://app?vid=307f7f95-0104-41bd-b595-994159fbd609","ios":"levelo://app?vid=307f7f95-0104-41bd-b595-994159fbd609"},"vehicle_type_id":"4","last_reported":1726078303,"current_range_meters":12400,"station_id":"ce4bhph2rcd13ifvqheg","pricing_plan_id":"cebpf4jnsgd1na2vs0mg"},{"bike_id":"92de40f4-682d-4cbe-bcdb-54858c14c73f","system_id":"levelo_inurba_marseille","lat":43.25497,"lon":5.37652,"is_reserved":false,"is_disabled":false,"rental_uris":{"android":"levelo://app?vid=92de40f4-682d-4cbe-bcdb-54858c14c73f","ios":"levelo://app?vid=92de40f4-682d-4cbe-bcdb-54858c14c73f"},"vehicle_type_id":"4","last_reported":1726078303,"current_range_meters":10000,"station_id":"ce4bhh12rcd13ifvqff0","pricing_plan_id":"cebpf4jnsgd1na2vs0mg"},{"bike_id":"6cc95b7a-cb37-48e2-8682-a1d2bf2d8e96","system_id":"levelo_inurba_marseille","lat":43.30533,"lon":5.3655,"is_reserved":false,"is_disabled":false,"rental_uris":{"android":"levelo://app?vid=6cc95b7a-cb37-48e2-8682-a1d2bf2d8e96","ios":"levelo://app?vid=6cc95b7a-cb37-48e2-8682-a1d2bf2d8e96"},"vehicle_type_id":"4","last_reported":1726078303,"current_range_meters":6400,"station_id":"ce4bgs12rcd13ifvqcag","pricing_plan_id":"cebpf4jnsgd1na2vs0mg"},{"bike_id":"ee41233d-7057-4ec4-b3c6-63f582836de8","system_id":"levelo_inurba_marseille","lat":43.22934,"lon":5.35376,"is_reserved":false,"is_disabled":false,"rental_uris":{"android":"levelo://app?vid=ee41233d-7057-4ec4-b3c6-63f582836de8","ios":"levelo://app?vid=ee41233d-7057-4ec4-b3c6-63f582836de8"},"vehicle_type_id":"4","last_reported":1726078303,"current_range_meters":31200,"station_id":"cpo3532slgdg3j2ikp40","pricing_plan_id":"cebpf4jnsgd1na2vs0mg"},{"bike_id":"c6700464-43ad-49f8-9ca8-0857e9726903","system_id":"levelo_inurba_marseille","lat":43.260318,"lon":5.375456,"is_reserved":false,"is_disabled":false,"rental_uris":{"android":"levelo://app?vid=c6700464-43ad-49f8-9ca8-0857e9726903","ios":"levelo://app?vid=c6700464-43ad-49f8-9ca8-0857e9726903"},"vehicle_type_id":"4","last_reported":1726078303,"current_range_meters":5600,"station_id":"ce4bhgh2rcd13ifvqfa0","pricing_plan_id":"cebpf4jnsgd1na2vs0mg"},{"bike_id":"d5be0f54-d195-4216-87ae-f9d93a023e34","system_id":"levelo_inurba_marseille","lat":43.24796,"lon":5.37457,"is_reserved":false,"is_disabled":false,"rental_uris":{"android":"levelo://app?vid=d5be0f54-d195-4216-87ae-f9d93a023e34","ios":"levelo://app?vid=d5be0f54-d195-4216-87ae-f9d93a023e34"},"vehicle_type_id":"4","last_reported":1726078303,"current_range_meters":8400,"station_id":"ce4bhgh2rcd13ifvqfb0","pricing_plan_id":"cebpf4jnsgd1na2vs0mg"},{"bike_id":"99929ab7-89dd-4d3c-b411-6d13cf180e00","system_id":"levelo_inurba_marseille","lat":43.29419,"lon":5.38627,"is_reserved":false,"is_disabled":false,"rental_uris":{"android":"levelo://app?vid=99929ab7-89dd-4d3c-b411-6d13cf180e00","ios":"levelo://app?vid=99929ab7-89dd-4d3c-b411-6d13cf180e00"},"vehicle_type_id":"4","last_reported":1726078303,"current_range_meters":38800,"station_id":"ce4bh2h2rcd13ifvqdh0","pricing_plan_id":"cebpf4jnsgd1na2vs0mg"},{"bike_id":"7f1d2e64-2503-44ad-949c-ce9fa2f06b52","system_id":"levelo_inurba_marseille","lat":43.29202,"lon":5.39331,"is_reserved":false,"is_disabled":false,"rental_uris":{"android":"levelo://app?vid=7f1d2e64-2503-44ad-949c-ce9fa2f06b52","ios":"levelo://app?vid=7f1d2e64-2503-44ad-949c-ce9fa2f06b52"},"vehicle_type_id":"4","last_reported":1726078303,"current_range_meters":18800,"station_id":"ce4bh192rcd13ifvqdd0","pricing_plan_id":"cebpf4jnsgd1na2vs0mg"},{"bike_id":"3da08b0d-333b-42dc-9495-64b7586e4b35","system_id":"levelo_inurba_marseille","lat":43.2621,"lon":5.37445,"is_reserved":false,"is_disabled":false,"rental_uris":{"android":"levelo://app?vid=3da08b0d-333b-42dc-9495-64b7586e4b35","ios":"levelo://app?vid=3da08b0d-333b-42dc-9495-64b7586e4b35"},"vehicle_type_id":"4","last_reported":1726078303,"current_range_meters":4000,"station_id":"ce4bhgp2rcd13ifvqfc0","pricing_plan_id":"cebpf4jnsgd1na2vs0mg"},{"bike_id":"f2f97f24-35a1-4f4b-ba49-66e84b93c93c","system_id":"levelo_inurba_marseille","lat":43.27665,"lon":5.38891,"is_reserved":false,"is_disabled":false,"rental_uris":{"android":"levelo://app?vid=f2f97f24-35a1-4f4b-ba49-66e84b93c93c","ios":"levelo://app?vid=f2f97f24-35a1-4f4b-ba49-66e84b93c93c"},"vehicle_type_id":"4","last_reported":1726078303,"current_range_meters":38400,"station_id":"ce4bhi12rcd13ifvqfo0","pricing_plan_id":"cebpf4jnsgd1na2vs0mg"},{"bike_id":"077ae37b-b564-46e7-afed-e64452fa8424","system_id":"levelo_inurba_marseille","lat":43.3133,"lon":5.3969,"is_reserved":false,"is_disabled":false,"rental_uris":{"android":"levelo://app?vid=077ae37b-b564-46e7-afed-e64452fa8424","ios":"levelo://app?vid=077ae37b-b564-46e7-afed-e64452fa8424"},"vehicle_type_id":"4","last_reported":1726078303,"current_range_meters":12400,"station_id":"ce4bgvp2rcd13ifvqcu0","pricing_plan_id":"cebpf4jnsgd1na2vs0mg"},{"bike_id":"56624a4c-7e37-414d-9c6c-d39716aa8f8e","system_id":"levelo_inurba_marseille","lat":43.303,"lon":5.392193,"is_reserved":false,"is_disabled":false,"rental_uris":{"android":"levelo://app?vid=56624a4c-7e37-414d-9c6c-d39716aa8f8e","ios":"levelo://app?vid=56624a4c-7e37-414d-9c6c-d39716aa8f8e"},"vehicle_type_id":"4","last_reported":1726078303,"current_range_meters":18000,"station_id":"ce4bgkh2rcd13ifvqbk0","pricing_plan_id":"cebpf4jnsgd1na2vs0mg"},{"bike_id":"0ee3912a-a0b9-4b08-b032-1d8274b4ed55","system_id":"levelo_inurba_marseille","lat":43.26209,"lon":5.37441,"is_reserved":false,"is_disabled":false,"rental_uris":{"android":"levelo://app?vid=0ee3912a-a0b9-4b08-b032-1d8274b4ed55","ios":"levelo://app?vid=0ee3912a-a0b9-4b08-b032-1d8274b4ed55"},"vehicle_type_id":"4","last_reported":1726078303,"current_range_meters":36400,"station_id":"ce4bhgp2rcd13ifvqfc0","pricing_plan_id":"cebpf4jnsgd1na2vs0mg"},{"bike_id":"b6b2ecb3-40f6-4b6e-8128-15d001bebfcf","system_id":"levelo_inurba_marseille","lat":43.28938,"lon":5.39625,"is_reserved":false,"is_disabled":false,"rental_uris":{"android":"levelo://app?vid=b6b2ecb3-40f6-4b6e-8128-15d001bebfcf","ios":"levelo://app?vid=b6b2ecb3-40f6-4b6e-8128-15d001bebfcf"},"vehicle_type_id":"4","last_reported":1726078303,"current_range_meters":37600,"station_id":"ce4bh3h2rcd13ifvqdn0","pricing_plan_id":"cebpf4jnsgd1na2vs0mg"},{"bike_id":"29072f1f-04e6-4db5-874b-0c299ac394e5","system_id":"levelo_inurba_marseille","lat":43.24796,"lon":5.37448,"is_reserved":false,"is_disabled":false,"rental_uris":{"android":"levelo://app?vid=29072f1f-04e6-4db5-874b-0c299ac394e5","ios":"levelo://app?vid=29072f1f-04e6-4db5-874b-0c299ac394e5"},"vehicle_type_id":"4","last_reported":1726078303,"current_range_meters":28400,"station_id":"ce4bhgh2rcd13ifvqfb0","pricing_plan_id":"cebpf4jnsgd1na2vs0mg"},{"bike_id":"c601711a-bc63-4703-ad21-39f6e811dc4b","system_id":"levelo_inurba_marseille","lat":43.29044,"lon":5.35919,"is_reserved":false,"is_disabled":false,"rental_uris":{"android":"levelo://app?vid=c601711a-bc63-4703-ad21-39f6e811dc4b","ios":"levelo://app?vid=c601711a-bc63-4703-ad21-39f6e811dc4b"},"vehicle_type_id":"4","last_reported":1726078303,"current_range_meters":38800,"station_id":"ce4bha92rcd13ifvqeg0","pricing_plan_id":"cebpf4jnsgd1na2vs0mg"},{"bike_id":"72ee0ec8-b997-4985-8e32-86ead554a8e5","system_id":"levelo_inurba_marseille","lat":43.29561,"lon":5.42285,"is_reserved":false,"is_disabled":false,"rental_uris":{"android":"levelo://app?vid=72ee0ec8-b997-4985-8e32-86ead554a8e5","ios":"levelo://app?vid=72ee0ec8-b997-4985-8e32-86ead554a8e5"},"vehicle_type_id":"4","last_reported":1726078303,"current_range_meters":30400,"station_id":"ce4bhph2rcd13ifvqhdg","pricing_plan_id":"cebpf4jnsgd1na2vs0mg"},{"bike_id":"3332b3bc-b27d-4482-812c-0ca3c89af5fd","system_id":"levelo_inurba_marseille","lat":43.3302,"lon":5.39057,"is_reserved":false,"is_disabled":false,"rental_uris":{"android":"levelo://app?vid=3332b3bc-b27d-4482-812c-0ca3c89af5fd","ios":"levelo://app?vid=3332b3bc-b27d-4482-812c-0ca3c89af5fd"},"vehicle_type_id":"4","last_reported":1726078303,"current_range_meters":38800,"station_id":"ce4bhr92rcd13ifvqhrg","pricing_plan_id":"cebpf4jnsgd1na2vs0mg"},{"bike_id":"42f717ba-525a-4bd5-af9d-1d7771d0450e","system_id":"levelo_inurba_marseille","lat":43.31333,"lon":5.397,"is_reserved":false,"is_disabled":false,"rental_uris":{"android":"levelo://app?vid=42f717ba-525a-4bd5-af9d-1d7771d0450e","ios":"levelo://app?vid=42f717ba-525a-4bd5-af9d-1d7771d0450e"},"vehicle_type_id":"4","last_reported":1726078303,"current_range_meters":6000,"station_id":"ce4bgvp2rcd13ifvqcu0","pricing_plan_id":"cebpf4jnsgd1na2vs0mg"},{"bike_id":"2dca4a70-6592-4a48-b7ff-cf8cb17678e5","system_id":"levelo_inurba_marseille","lat":43.2481,"lon":5.37455,"is_reserved":false,"is_disabled":false,"rental_uris":{"android":"levelo://app?vid=2dca4a70-6592-4a48-b7ff-cf8cb17678e5","ios":"levelo://app?vid=2dca4a70-6592-4a48-b7ff-cf8cb17678e5"},"vehicle_type_id":"4","last_reported":1726078303,"current_range_meters":33600,"station_id":"ce4bhgh2rcd13ifvqfb0","pricing_plan_id":"cebpf4jnsgd1na2vs0mg"},{"bike_id":"f4e77310-7a13-4183-9498-dcf2ffe87816","system_id":"levelo_inurba_marseille","lat":43.28,"lon":5.40012,"is_reserved":false,"is_disabled":false,"rental_uris":{"android":"levelo://app?vid=f4e77310-7a13-4183-9498-dcf2ffe87816","ios":"levelo://app?vid=f4e77310-7a13-4183-9498-dcf2ffe87816"},"vehicle_type_id":"4","last_reported":1726078303,"current_range_meters":18800,"station_id":"ce4bho92rcd13ifvqh4g","pricing_plan_id":"cebpf4jnsgd1na2vs0mg"},{"bike_id":"0af3ecdb-0f05-4d5a-9bc4-159d582128f5","system_id":"levelo_inurba_marseille","lat":43.2407,"lon":5.37765,"is_reserved":false,"is_disabled":false,"rental_uris":{"android":"levelo://app?vid=0af3ecdb-0f05-4d5a-9bc4-159d582128f5","ios":"levelo://app?vid=0af3ecdb-0f05-4d5a-9bc4-159d582128f5"},"vehicle_type_id":"4","last_reported":1726078303,"current_range_meters":24000,"station_id":"ce4bhnp2rcd13ifvqgvg","pricing_plan_id":"cebpf4jnsgd1na2vs0mg"},{"bike_id":"6093c0d1-4895-40ea-a9ff-8a4059771258","system_id":"levelo_inurba_marseille","lat":43.27373,"lon":5.36261,"is_reserved":false,"is_disabled":false,"rental_uris":{"android":"levelo://app?vid=6093c0d1-4895-40ea-a9ff-8a4059771258","ios":"levelo://app?vid=6093c0d1-4895-40ea-a9ff-8a4059771258"},"vehicle_type_id":"4","last_reported":1726078303,"current_range_meters":6400,"station_id":"ce4bhbh2rcd13ifvqeo0","pricing_plan_id":"cebpf4jnsgd1na2vs0mg"},{"bike_id":"b3d152e0-51c5-4bfc-ba58-064a6fc8c1d0","system_id":"levelo_inurba_marseille","lat":43.29263,"lon":5.38438,"is_reserved":false,"is_disabled":false,"rental_uris":{"android":"levelo://app?vid=b3d152e0-51c5-4bfc-ba58-064a6fc8c1d0","ios":"levelo://app?vid=b3d152e0-51c5-4bfc-ba58-064a6fc8c1d0"},"vehicle_type_id":"4","last_reported":1726078303,"current_range_meters":33600,"station_id":"ce4bh692rcd13ifvqea0","pricing_plan_id":"cebpf4jnsgd1na2vs0mg"},{"bike_id":"40dfebef-2ba6-432f-b0c2-3f92ebc8255b","system_id":"levelo_inurba_marseille","lat":43.25501,"lon":5.37647,"is_reserved":false,"is_disabled":false,"rental_uris":{"android":"levelo://app?vid=40dfebef-2ba6-432f-b0c2-3f92ebc8255b","ios":"levelo://app?vid=40dfebef-2ba6-432f-b0c2-3f92ebc8255b"},"vehicle_type_id":"4","last_reported":1726078303,"current_range_meters":40000,"station_id":"ce4bhh12rcd13ifvqff0","pricing_plan_id":"cebpf4jnsgd1na2vs0mg"},{"bike_id":"4252eb53-a0f4-4c4f-b33d-16659295ffaa","system_id":"levelo_inurba_marseille","lat":43.28409,"lon":5.37517,"is_reserved":false,"is_disabled":false,"rental_uris":{"android":"levelo://app?vid=4252eb53-a0f4-4c4f-b33d-16659295ffaa","ios":"levelo://app?vid=4252eb53-a0f4-4c4f-b33d-16659295ffaa"},"vehicle_type_id":"4","last_reported":1726078303,"current_range_meters":33200,"station_id":"ce4bh412rcd13ifvqds0","pricing_plan_id":"cebpf4jnsgd1na2vs0mg"},{"bike_id":"e7d5bce4-8615-4995-b6af-8e5bf7982288","system_id":"levelo_inurba_marseille","lat":43.25106,"lon":5.40326,"is_reserved":false,"is_disabled":false,"rental_uris":{"android":"levelo://app?vid=e7d5bce4-8615-4995-b6af-8e5bf7982288","ios":"levelo://app?vid=e7d5bce4-8615-4995-b6af-8e5bf7982288"},"vehicle_type_id":"4","last_reported":1726078303,"current_range_meters":8800,"station_id":"ce4bhlh2rcd13ifvqgig","pricing_plan_id":"cebpf4jnsgd1na2vs0mg"},{"bike_id":"75a477cd-c680-4c06-8352-a51d0c75693d","system_id":"levelo_inurba_marseille","lat":43.24078,"lon":5.37756,"is_reserved":false,"is_disabled":false,"rental_uris":{"android":"levelo://app?vid=75a477cd-c680-4c06-8352-a51d0c75693d","ios":"levelo://app?vid=75a477cd-c680-4c06-8352-a51d0c75693d"},"vehicle_type_id":"4","last_reported":1726078303,"current_range_meters":38800,"station_id":"ce4bhnp2rcd13ifvqgvg","pricing_plan_id":"cebpf4jnsgd1na2vs0mg"},{"bike_id":"7ae12ee8-4eef-4c77-9661-2faa275c6e56","system_id":"levelo_inurba_marseille","lat":43.33019,"lon":5.39053,"is_reserved":false,"is_disabled":false,"rental_uris":{"android":"levelo://app?vid=7ae12ee8-4eef-4c77-9661-2faa275c6e56","ios":"levelo://app?vid=7ae12ee8-4eef-4c77-9661-2faa275c6e56"},"vehicle_type_id":"4","last_reported":1726078303,"current_range_meters":23200,"station_id":"ce4bhr92rcd13ifvqhrg","pricing_plan_id":"cebpf4jnsgd1na2vs0mg"},{"bike_id":"cae46dfe-97e8-4c5c-9017-c5b9215c92a8","system_id":"levelo_inurba_marseille","lat":43.27814,"lon":5.40708,"is_reserved":false,"is_disabled":false,"rental_uris":{"android":"levelo://app?vid=cae46dfe-97e8-4c5c-9017-c5b9215c92a8","ios":"levelo://app?vid=cae46dfe-97e8-4c5c-9017-c5b9215c92a8"},"vehicle_type_id":"4","last_reported":1726078303,"current_range_meters":4400,"station_id":"ce4bhnh2rcd13ifvqgtg","pricing_plan_id":"cebpf4jnsgd1na2vs0mg"},{"bike_id":"00e064b2-ab2c-49ce-8c26-55aae23aa29d","system_id":"levelo_inurba_marseille","lat":43.27951,"lon":5.41035,"is_reserved":false,"is_disabled":false,"rental_uris":{"android":"levelo://app?vid=00e064b2-ab2c-49ce-8c26-55aae23aa29d","ios":"levelo://app?vid=00e064b2-ab2c-49ce-8c26-55aae23aa29d"},"vehicle_type_id":"4","last_reported":1726078303,"current_range_meters":32000,"station_id":"ce4bhnp2rcd13ifvqh0g","pricing_plan_id":"cebpf4jnsgd1na2vs0mg"},{"bike_id":"38107b97-e58f-45f7-866e-050fa9272a67","system_id":"levelo_inurba_marseille","lat":43.31713,"lon":5.43713,"is_reserved":false,"is_disabled":false,"rental_uris":{"android":"levelo://app?vid=38107b97-e58f-45f7-866e-050fa9272a67","ios":"levelo://app?vid=38107b97-e58f-45f7-866e-050fa9272a67"},"vehicle_type_id":"4","last_reported":1726078303,"current_range_meters":36400,"station_id":"ce4bhp92rcd13ifvqhcg","pricing_plan_id":"cebpf4jnsgd1na2vs0mg"},