{"last_updated":1742504954,"ttl":60,"version":"2.2","data":{"bikes":[{"bike_id":"31fbdcff-d073-4b3a-b023-6f4b04140c19","system_id":"levelo_inurba_marseille","lat":43.27069,"lon":5.42281,"is_reserved":false,"is_disabled":false,"rental_uris":{"android":"levelo://app?vid=31fbdcff-d073-4b3a-b023-6f4b04140c19","ios":"levelo://app?vid=31fbdcff-d073-4b3a-b023-6f4b04140c19"},"vehicle_type_id":"4","last_reported":1742504954,"current_range_meters":2800,"station_id":"ce4bhk92rcd13ifvqgb0","pricing_plan_id":"cebpf4jnsgd1na2vs0mg"},{"bike_id":"efbacec4-d2a2-4658-b963-f539ff7b79ac","system_id":"levelo_inurba_marseille","lat":43.32283,"lon":5.38285,"is_reserved":false,"is_disabled":false,"rental_uris":{"android":"levelo://app?vid=efbacec4-d2a2-4658-b963-f539ff7b79ac","ios":"levelo://app?vid=efbacec4-d2a2-4658-b963-f539ff7b79ac"},"vehicle_type_id":"4","last_reported":1742504954,"current_range_meters":2800,"station_id":"ce4bhr12rcd13ifvqhqg","pricing_plan_id":"cebpf4jnsgd1na2vs0mg"},{"bike_id":"9cf5a5cb-65b0-4fa2-ad7c-969fd489975f","system_id":"levelo_inurba_marseille","lat":43.28698,"lon":5.37394,"is_reserved":false,"is_disabled":true,"rental_uris":{"android":"levelo://app?vid=9cf5a5cb-65b0-4fa2-ad7c-969fd489975f","ios":"levelo://app?vid=9cf5a5cb-65b0-4fa2-ad7c-969fd489975f"},"vehicle_type_id":"4","last_reported":1742504954,"current_range_meters":2800,"station_id":"ce4bh3p2rcd13ifvqdq0","pricing_plan_id":"cebpf4jnsgd1na2vs0mg"},{"bike_id":"0d90aae6-142e-4d77-a6ee-f54878d776d6","system_id":"levelo_inurba_marseille","lat":43.31079,"lon":5.3834,"is_reserved":false,"is_disabled":false,"rental_uris":{"android":"levelo://app?vid=0d90aae6-142e-4d77-a6ee-f54878d776d6","ios":"levelo://app?vid=0d90aae6-142e-4d77-a6ee-f54878d776d6"},"vehicle_type_id":"4","last_reported":1742504954,"current_range_meters":2800,"station_id":"ce4bgv92rcd13ifvqcr0","pricing_plan_id":"cebpf4jnsgd1na2vs0mg"},{"bike_id":"128e4068-f1a5-4d8a-91e7-3be9f17c248a","system_id":"levelo_inurba_marseille","lat":43.278125,"lon":5.407113,"is_reserved":false,"is_disabled":false,"rental_uris":{"android":"levelo://app?vid=128e4068-f1a5-4d8a-91e7-3be9f17c248a","ios":"levelo://app?vid=128e4068-f1a5-4d8a-91e7-3be9f17c248a"},"vehicle_type_id":"4","last_reported":1742504954,"current_range_meters":2800,"station_id":"ce4bhh12rcd13ifvqfg0","pricing_plan_id":"cebpf4jnsgd1na2vs0mg"},{"bike_id":"8d28e9ae-6fdb-40eb-b9e1-5facd42fb9fa","system_id":"levelo_inurba_marseille","lat":43.28994,"lon":5.3785,"is_reserved":false,"is_disabled":true,"rental_uris":{"android":"levelo://app?vid=8d28e9ae-6fdb-40eb-b9e1-5facd42fb9fa","ios":"levelo://app?vid=8d28e9ae-6fdb-40eb-b9e1-5facd42fb9fa"},"vehicle_type_id":"4","last_reported":1742504954,"current_range_meters":3200,"station_id":"ce4bh9p2rcd13ifvqed0","pricing_plan_id":"cebpf4jnsgd1na2vs0mg"},{"bike_id":"cb6f426e-1d7c-4973-81e9-7c69e45bea68","system_id":"levelo_inurba_marseille","lat":43.28927,"lon":5.36609,"is_reserved":false,"is_disabled":false,"rental_uris":{"android":"levelo://app?vid=cb6f426e-1d7c-4973-81e9-7c69e45bea68","ios":"levelo://app?vid=cb6f426e-1d7c-4973-81e9-7c69e45bea68"},"vehicle_type_id":"4","last_reported":1742504954,"current_range_meters":3600,"station_id":"ce4bhap2rcd13ifvqek0","pricing_plan_id":"cebpf4jnsgd1na2vs0mg"},{"bike_id":"a42f218b-b4cb-4387-85e8-1881bcc1e4db","system_id":"levelo_inurba_marseille","lat":43.24544,"lon":5.39528,"is_reserved":false,"is_disabled":false,"rental_uris":{"android":"levelo://app?vid=a42f218b-b4cb-4387-85e8-1881bcc1e4db","ios":"levelo://app?vid=a42f218b-b4cb-4387-85e8-1881bcc1e4db"},"vehicle_type_id":"4","last_reported":1742504954,"current_range_meters":3600,"station_id":"ce4bhlp2rcd13ifvqgjg","pricing_plan_id":"cebpf4jnsgd1na2vs0mg"},{"bike_id":"75fca2c2-72e4-4c07-8de8-e1ef62170fbc","system_id":"levelo_inurba_marseille","lat":43.2671,"lon":5.38252,"is_reserved":false,"is_disabled":true,"rental_uris":{"android":"levelo://app?vid=75fca2c2-72e4-4c07-8de8-e1ef62170fbc","ios":"levelo://app?vid=75fca2c2-72e4-4c07-8de8-e1ef62170fbc"},"vehicle_type_id":"4","last_reported":1742504954,"current_range_meters":3600,"station_id":"ce4bhg92rcd13ifvqf90","pricing_plan_id":"cebpf4jnsgd1na2vs0mg"},{"bike_id":"c4d10f38-78ed-4fa4-9f79-b948b8d83932","system_id":"levelo_inurba_marseille","lat":43.32368,"lon":5.38884,"is_reserved":false,"is_disabled":false,"rental_uris":{"android":"levelo://app?vid=c4d10f38-78ed-4fa4-9f79-b948b8d83932","ios":"levelo://app?vid=c4d10f38-78ed-4fa4-9f79-b948b8d83932"},"vehicle_type_id":"4","last_reported":1742504954,"current_range_meters":3600,"station_id":"ce4bhqp2rcd13ifvqhog","pricing_plan_id":"cebpf4jnsgd1na2vs0mg"},{"bike_id":"42c369b4-1023-475d-8170-2e3eee5cc291","system_id":"levelo_inurba_marseille","lat":43.30204,"lon":5.39482,"is_reserved":false,"is_disabled":false,"rental_uris":{"android":"levelo://app?vid=42c369b4-1023-475d-8170-2e3eee5cc291","ios":"levelo://app?vid=42c369b4-1023-475d-8170-2e3eee5cc291"},"vehicle_type_id":"4","last_reported":1742504954,"current_range_meters":3600,"station_id":"ce4bh0p2rcd13ifvqd70","pricing_plan_id":"cebpf4jnsgd1na2vs0mg"},{"bike_id":"086babdb-a3ce-4160-843c-808328517186","system_id":"levelo_inurba_marseille","lat":43.25501,"lon":5.37648,"is_reserved":false,"is_disabled":false,"rental_uris":{"android":"levelo://app?vid=086babdb-a3ce-4160-843c-808328517186","ios":"levelo://app?vid=086babdb-a3ce-4160-843c-808328517186"},"vehicle_type_id":"4","last_reported":1742504954,"current_range_meters":3600,"station_id":"ce4bhh12rcd13ifvqff0","pricing_plan_id":"cebpf4jnsgd1na2vs0mg"},{"bike_id":"788bb78e-f182-411f-989b-2e1813909415","system_id":"levelo_inurba_marseille","lat":43.27994,"lon":5.41654,"is_reserved":false,"is_disabled":false,"rental_uris":{"android":"levelo://app?vid=788bb78e-f182-411f-989b-2e1813909415","ios":"levelo://app?vid=788bb78e-f182-411f-989b-2e1813909415"},"vehicle_type_id":"4","last_reported":1742504954,"current_range_meters":3600,"station_id":"ce4bho12rcd13ifvqh1g","pricing_plan_id":"cebpf4jnsgd1na2vs0mg"},{"bike_id":"b5c43e6d-28da-433a-8f37-49b884771968","system_id":"levelo_inurba_marseille","lat":43.29278,"lon":5.384275,"is_reserved":false,"is_disabled":false,"rental_uris":{"android":"levelo://app?vid=b5c43e6d-28da-433a-8f37-49b884771968","ios":"levelo://app?vid=b5c43e6d-28da-433a-8f37-49b884771968"},"vehicle_type_id":"4","last_reported":1742504954,"current_range_meters":4000,"station_id":"ce4bh692rcd13ifvqea0","pricing_plan_id":"cebpf4jnsgd1na2vs0mg"},{"bike_id":"0ac88873-519d-4842-b1aa-d185be3d8831","system_id":"levelo_inurba_marseille","lat":43.27575,"lon":5.38416,"is_reserved":false,"is_disabled":false,"rental_uris":{"android":"levelo://app?vid=0ac88873-519d-4842-b1aa-d185be3d8831","ios":"levelo://app?vid=0ac88873-519d-4842-b1aa-d185be3d8831"},"vehicle_type_id":"4","last_reported":1742504954,"current_range_meters":4000,"station_id":"ce4bhh92rcd13ifvqfi0","pricing_plan_id":"cebpf4jnsgd1na2vs0mg"},{"bike_id":"9128601a-f956-4e67-957d-684d6e79451c","system_id":"levelo_inurba_marseille","lat":43.29199,"lon":5.39339,"is_reserved":false,"is_disabled":false,"rental_uris":{"android":"levelo://app?vid=9128601a-f956-4e67-957d-684d6e79451c","ios":"levelo://app?vid=9128601a-f956-4e67-957d-684d6e79451c"},"vehicle_type_id":"4","last_reported":1742504954,"current_range_meters":4000,"station_id":"ce4bh192rcd13ifvqdd0","pricing_plan_id":"cebpf4jnsgd1na2vs0mg"},{"bike_id":"b6b55721-b180-4355-a096-a2357f93b352","system_id":"levelo_inurba_marseille","lat":43.28004,"lon":5.40001,"is_reserved":false,"is_disabled":false,"rental_uris":{"android":"levelo://app?vid=b6b55721-b180-4355-a096-a2357f93b352","ios":"levelo://app?vid=b6b55721-b180-4355-a096-a2357f93b352"},"vehicle_type_id":"4","last_reported":1742504954,"current_range_meters":4400,"station_id":"ce4bho92rcd13ifvqh4g","pricing_plan_id":"cebpf4jnsgd1na2vs0mg"},{"bike_id":"42b3cdbc-800d-4bee-883e-cfa636aa6e56","system_id":"levelo_inurba_marseille","lat":43.30274,"lon":5.39694,"is_reserved":false,"is_disabled":false,"rental_uris":{"android":"levelo://app?vid=42b3cdbc-800d-4bee-883e-cfa636aa6e56","ios":"levelo://app?vid=42b3cdbc-800d-4bee-883e-cfa636aa6e56"},"vehicle_type_id":"4","last_reported":1742504954,"current_range_meters":4400,"station_id":"","pricing_plan_id":"cebpf4jnsgd1na2vs0mg"},{"bike_id":"99743687-257a-444c-b1d0-3101ba257cca","system_id":"levelo_inurba_marseille","lat":43.28095,"lon":5.39847,"is_reserved":false,"is_disabled":false,"rental_uris":{"android":"levelo://app?vid=99743687-257a-444c-b1d0-3101ba257cca","ios":"levelo://app?vid=99743687-257a-444c-b1d0-3101ba257cca"},"vehicle_type_id":"4","last_reported":1742504954,"current_range_meters":4400,"station_id":"","pricing_plan_id":"cebpf4jnsgd1na2vs0mg"},{"bike_id":"b5273684-9660-485c-a23b-d3d608fe52ad","system_id":"levelo_inurba_marseille","lat":43.28351,"lon":5.3811,"is_reserved":false,"is_disabled":false,"rental_uris":{"android":"levelo://app?vid=b5273684-9660-485c-a23b-d3d608fe52ad","ios":"levelo://app?vid=b5273684-9660-485c-a23b-d3d608fe52ad"},"vehicle_type_id":"4","last_reported":1742504954,"current_range_meters":4400,"station_id":"ce4bh412rcd13ifvqdr0","pricing_plan_id":"cebpf4jnsgd1na2vs0mg"},{"bike_id":"b1cfa601-5b57-4a04-8c79-cbc90bdc56fc","system_id":"levelo_inurba_marseille","lat":43.28401,"lon":5.37515,"is_reserved":false,"is_disabled":false,"rental_uris":{"android":"levelo://app?vid=b1cfa601-5b57-4a04-8c79-cbc90bdc56fc","ios":"levelo://app?vid=b1cfa601-5b57-4a04-8c79-cbc90bdc56fc"},"vehicle_type_id":"4","last_reported":1742504954,"current_range_meters":4400,"station_id":"ce4bh412rcd13ifvqds0","pricing_plan_id":"cebpf4jnsgd1na2vs0mg"},{"bike_id":"c1b2ac8b-aa9a-4eb8-9a76-828f440b36e4","system_id":"levelo_inurba_marseille","lat":43.281015,"lon":5.378494,"is_reserved":false,"is_disabled":false,"rental_uris":{"android":"levelo://app?vid=c1b2ac8b-aa9a-4eb8-9a76-828f440b36e4","ios":"levelo://app?vid=c1b2ac8b-aa9a-4eb8-9a76-828f440b36e4"},"vehicle_type_id":"4","last_reported":1742504954,"current_range_meters":4400,"station_id":"ce4bha12rcd13ifvqee0","pricing_plan_id":"cebpf4jnsgd1na2vs0mg"},{"bike_id":"74c29b28-7311-4e2a-81ee-8477bcd2a427","system_id":"levelo_inurba_marseille","lat":43.29267,"lon":5.38448,"is_reserved":false,"is_disabled":false,"rental_uris":{"android":"levelo://app?vid=74c29b28-7311-4e2a-81ee-8477bcd2a427","ios":"levelo://app?vid=74c29b28-7311-4e2a-81ee-8477bcd2a427"},"vehicle_type_id":"4","last_reported":1742504954,"current_range_meters":4800,"station_id":"ce4bh692rcd13ifvqea0","pricing_plan_id":"cebpf4jnsgd1na2vs0mg"},{"bike_id":"f965501c-7407-402a-8db4-f27889313cff","system_id":"levelo_inurba_marseille","lat":43.25816,"lon":5.39448,"is_reserved":false,"is_disabled":false,"rental_uris":{"android":"levelo://app?vid=f965501c-7407-402a-8db4-f27889313cff","ios":"levelo://app?vid=f965501c-7407-402a-8db4-f27889313cff"},"vehicle_type_id":"4","last_reported":1742504954,"current_range_meters":4800,"station_id":"ce4bhip2rcd13ifvqft0","pricing_plan_id":"cebpf4jnsgd1na2vs0mg"},{"bike_id":"96727543-c60f-47b1-80cf-d4f342396cce","system_id":"levelo_inurba_marseille","lat":43.28662,"lon":5.36354,"is_reserved":false,"is_disabled":false,"rental_uris":{"android":"levelo://app?vid=96727543-c60f-47b1-80cf-d4f342396cce","ios":"levelo://app?vid=96727543-c60f-47b1-80cf-d4f342396cce"},"vehicle_type_id":"4","last_reported":1742504954,"current_range_meters":4800,"station_id":"ce4bhah2rcd13ifvqej0","pricing_plan_id":"cebpf4jnsgd1na2vs0mg"},{"bike_id":"3455258b-4135-46b9-9a26-10bf95160e40","system_id":"levelo_inurba_marseille","lat":43.23189,"lon":5.35556,"is_reserved":false,"is_disabled":false,"rental_uris":{"android":"levelo://app?vid=3455258b-4135-46b9-9a26-10bf95160e40","ios":"levelo://app?vid=3455258b-4135-46b9-9a26-10bf95160e40"},"vehicle_type_id":"4","last_reported":1742504954,"current_range_meters":4800,"station_id":"ce4bhu92rcd13ifvqi70","pricing_plan_id":"cebpf4jnsgd1na2vs0mg"},{"bike_id":"09e8a026-0b77-4888-9d6c-72ba8f52c99d","system_id":"levelo_inurba_marseille","lat":43.29868,"lon":5.39733,"is_reserved":false,"is_disabled":false,"rental_uris":{"android":"levelo://app?vid=09e8a026-0b77-4888-9d6c-72ba8f52c99d","ios":"levelo://app?vid=09e8a026-0b77-4888-9d6c-72ba8f52c99d"},"vehicle_type_id":"4","last_reported":1742504954,"current_range_meters":4800,"station_id":"ce4bh0h2rcd13ifvqd50","pricing_plan_id":"cebpf4jnsgd1na2vs0mg"},{"bike_id":"4d07b038-7b86-4c91-a7dc-8736f41d1db7","system_id":"levelo_inurba_marseille","lat":43.27828,"lon":5.39201,"is_reserved":false,"is_disabled":false,"rental_uris":{"android":"levelo://app?vid=4d07b038-7b86-4c91-a7dc-8736f41d1db7","ios":"levelo://app?vid=4d07b038-7b86-4c91-a7dc-8736f41d1db7"},"vehicle_type_id":"4","last_reported":1742504954,"current_range_meters":4800,"station_id":"ce4bhjp2rcd13ifvqga0","pricing_plan_id":"cebpf4jnsgd1na2vs0mg"},{"bike_id":"30448cfc-53ac-4088-86ed-3a624fbeb1f7","system_id":"levelo_inurba_marseille","lat":43.23957,"lon":5.36629,"is_reserved":false,"is_disabled":false,"rental_uris":{"android":"levelo://app?vid=30448cfc-53ac-4088-86ed-3a624fbeb1f7","ios":"levelo://app?vid=30448cfc-53ac-4088-86ed-3a624fbeb1f7"},"vehicle_type_id":"4","last_reported":1742504954,"current_range_meters":4800,"station_id":"ce4bhi12rcd13ifvqfp0","pricing_plan_id":"cebpf4jnsgd1na2vs0mg"},{"bike_id":"c1db5d4a-fa51-4cbb-929e-18900f4feb45","system_id":"levelo_inurba_marseille","lat":43.24648,"lon":5.38895,"is_reserved":false,"is_disabled":false,"rental_uris":{"android":"levelo://app?vid=c1db5d4a-fa51-4cbb-929e-18900f4feb45","ios":"levelo://app?vid=c1db5d4a-fa51-4cbb-929e-18900f4feb45"},"vehicle_type_id":"4","last_reported":1742504954,"current_range_meters":4800,"station_id":"ce4bhg12rcd13ifvqf60","pricing_plan_id":"cebpf4jnsgd1na2vs0mg"},{"bike_id":"a62dad32-94db-43d3-8661-3e72329e09e1","system_id":"levelo_inurba_marseille","lat":43.2791,"lon":5.39588,"is_reserved":false,"is_disabled":false,"rental_uris":{"android":"levelo://app?vid=a62dad32-94db-43d3-8661-3e72329e09e1","ios":"levelo://app?vid=a62dad32-94db-43d3-8661-3e72329e09e1"},"vehicle_type_id":"4","last_reported":1742504954,"current_range_meters":4800,"station_id":"ce4bhf92rcd13ifvqf40","pricing_plan_id":"cebpf4jnsgd1na2vs0mg"},{"bike_id":"88fe2203-e128-474a-9ca4-54f88ab2ac47","system_id":"levelo_inurba_marseille","lat":43.31073,"lon":5.38359,"is_reserved":false,"is_disabled":false,"rental_uris":{"android":"levelo://app?vid=88fe2203-e128-474a-9ca4-54f88ab2ac47","ios":"levelo://app?vid=88fe2203-e128-474a-9ca4-54f88ab2ac47"},"vehicle_type_id":"4","last_reported":1742504954,"current_range_meters":4800,"station_id":"ce4bgv92rcd13ifvqcr0","pricing_plan_id":"cebpf4jnsgd1na2vs0mg"},{"bike_id":"28a07579-9ac3-4da1-82a2-f9d200b8d575","system_id":"levelo_inurba_marseille","lat":43.24652,"lon":5.38897,"is_reserved":false,"is_disabled":false,"rental_uris":{"android":"levelo://app?vid=28a07579-9ac3-4da1-82a2-f9d200b8d575","ios":"levelo://app?vid=28a07579-9ac3-4da1-82a2-f9d200b8d575"},"vehicle_type_id":"4","last_reported":1742504954,"current_range_meters":4800,"station_id":"ce4bhg12rcd13ifvqf60","pricing_plan_id":"cebpf4jnsgd1na2vs0mg"},{"bike_id":"c60b36fe-08fd-4129-a9d9-1693230dcb0c","system_id":"levelo_inurba_marseille","lat":43.28926,"lon":5.38415,"is_reserved":false,"is_disabled":false,"rental_uris":{"android":"levelo://app?vid=c60b36fe-08fd-4129-a9d9-1693230dcb0c","ios":"levelo://app?vid=c60b36fe-08fd-4129-a9d9-1693230dcb0c"},"vehicle_type_id":"4","last_reported":1742504954,"current_range_meters":4800,"station_id":"ce4bh612rcd13ifvqe6g","pricing_plan_id":"cebpf4jnsgd1na2vs0mg"},{"bike_id":"6ad236bc-a2d1-4643-abe7-47295a697ba3","system_id":"levelo_inurba_marseille","lat":43.28838,"lon":5.37904,"is_reserved":false,"is_disabled":false,"rental_uris":{"android":"levelo://app?vid=6ad236bc-a2d1-4643-abe7-47295a697ba3","ios":"levelo://app?vid=6ad236bc-a2d1-4643-abe7-47295a697ba3"},"vehicle_type_id":"4","last_reported":1742504954,"current_range_meters":5600,"station_id":"","pricing_plan_id":"cebpf4jnsgd1na2vs0mg"},{"bike_id":"6fb8d408-85b5-4079-80a5-359db11eacf6","system_id":"levelo_inurba_marseille","lat":43.29179,"lon":5.37146,"is_reserved":false,"is_disabled":false,"rental_uris":{"android":"levelo://app?vid=6fb8d408-85b5-4079-80a5-359db11eacf6","ios":"levelo://app?vid=6fb8d408-85b5-4079-80a5-359db11eacf6"},"vehicle_type_id":"4","last_reported":1742504954,"current_range_meters":5600,"station_id":"ce4bha92rcd13ifvqeh0","pricing_plan_id":"cebpf4jnsgd1na2vs0mg"},{"bike_id":"ef18834d-9847-4f01-92af-3b09513275e8","system_id":"levelo_inurba_marseille","lat":43.31074,"lon":5.38349,"is_reserved":false,"is_disabled":false,"rental_uris":{"android":"levelo://app?vid=ef18834d-9847-4f01-92af-3b09513275e8","ios":"levelo://app?vid=ef18834d-9847-4f01-92af-3b09513275e8"},"vehicle_type_id":"4","last_reported":1742504954,"current_range_meters":5600,"station_id":"ce4bgv92rcd13ifvqcr0","pricing_plan_id":"cebpf4jnsgd1na2vs0mg"},{"bike_id":"4f4285f9-a7df-4d23-bcb2-b1cd2878145d","system_id":"levelo_inurba_marseille","lat":43.27494,"lon":5.42451,"is_reserved":false,"is_disabled":false,"rental_uris":{"android":"levelo://app?vid=4f4285f9-a7df-4d23-bcb2-b1cd2878145d","ios":"levelo://app?vid=4f4285f9-a7df-4d23-bcb2-b1cd2878145d"},"vehicle_type_id":"4","last_reported":1742504954,"current_range_meters":5600,"station_id":"ce4bhn92rcd13ifvqgrg","pricing_plan_id":"cebpf4jnsgd1na2vs0mg"},{"bike_id":"43dc8f3b-65da-4a56-968e-8b5bbd89e63d","system_id":"levelo_inurba_marseille","lat":43.31499,"lon":5.37295,"is_reserved":false,"is_disabled":false,"rental_uris":{"android":"levelo://app?vid=43dc8f3b-65da-4a56-968e-8b5bbd89e63d","ios":"levelo://app?vid=43dc8f3b-65da-4a56-968e-8b5bbd89e63d"},"vehicle_type_id":"4","last_reported":1742504954,"current_range_meters":5600,"station_id":"ce4bgt12rcd13ifvqcd0","pricing_plan_id":"cebpf4jnsgd1na2vs0mg"},{"bike_id":"56417d02-75b4-47a9-aff6-9889ad77151d","system_id":"levelo_inurba_marseille","lat":43.32288,"lon":5.38276,"is_reserved":false,"is_disabled":false,"rental_uris":{"android":"levelo://app?vid=56417d02-75b4-47a9-aff6-9889ad77151d","ios":"levelo://app?vid=56417d02-75b4-47a9-aff6-9889ad77151d"},"vehicle_type_id":"4","last_reported":1742504954,"current_range_meters":5600,"station_id":"ce4bhr12rcd13ifvqhqg","pricing_plan_id":"cebpf4jnsgd1na2vs0mg"},{"bike_id":"24b2118f-02ab-4671-a662-022606ccdaf2","system_id":"levelo_inurba_marseille","lat":43.29873,"lon":5.38911,"is_reserved":false,"is_disabled":false,"rental_uris":{"android":"levelo://app?vid=24b2118f-02ab-4671-a662-022606ccdaf2","ios":"levelo://app?vid=24b2118f-02ab-4671-a662-022606ccdaf2"},"vehicle_type_id":"4","last_reported":1742504954,"current_range_meters":5600,"station_id":"ce4bh392rcd13ifvqdl0","pricing_plan_id":"cebpf4jnsgd1na2vs0mg"},{"bike_id":"97bcb5d3-3984-4782-9dc2-f9e7f9f5103b","system_id":"levelo_inurba_marseille","lat":43.30798,"lon":5.38164,"is_reserved":false,"is_disabled":false,"rental_uris":{"android":"levelo://app?vid=97bcb5d3-3984-4782-9dc2-f9e7f9f5103b","ios":"levelo://app?vid=97bcb5d3-3984-4782-9dc2-f9e7f9f5103b"},"vehicle_type_id":"4","last_reported":1742504954,"current_range_meters":5600,"station_id":"ce4bgt12rcd13ifvqce0","pricing_plan_id":"cebpf4jnsgd1na2vs0mg"},{"bike_id":"dd3884dc-0b6b-4a2b-8af5-b0f72ae3a61b","system_id":"levelo_inurba_marseille","lat":43.23212,"lon":5.35549,"is_reserved":false,"is_disabled":false,"rental_uris":{"android":"levelo://app?vid=dd3884dc-0b6b-4a2b-8af5-b0f72ae3a61b","ios":"levelo://app?vid=dd3884dc-0b6b-4a2b-8af5-b0f72ae3a61b"},"vehicle_type_id":"4","last_reported":1742504954,"current_range_meters":5600,"station_id":"ce4bhu92rcd13ifvqi70","pricing_plan_id":"cebpf4jnsgd1na2vs0mg"},{"bike_id":"adf22955-6d26-4c37-9e62-ce75c087c1a3","system_id":"levelo_inurba_marseille","lat":43.31987,"lon":5.38147,"is_reserved":false,"is_disabled":false,"rental_uris":{"android":"levelo://app?vid=adf22955-6d26-4c37-9e62-ce75c087c1a3","ios":"levelo://app?vid=adf22955-6d26-4c37-9e62-ce75c087c1a3"},"vehicle_type_id":"4","last_reported":1742504954,"current_range_meters":5600,"station_id":"ce4bhr12rcd13ifvqhpg","pricing_plan_id":"cebpf4jnsgd1na2vs0mg"},{"bike_id":"93346c00-108a-4a63-9169-b0a90fc9072b","system_id":"levelo_inurba_marseille","lat":43.2835,"lon":5.38092,"is_reserved":false,"is_disabled":false,"rental_uris":{"android":"levelo://app?vid=93346c00-108a-4a63-9169-b0a90fc9072b","ios":"levelo://app?vid=93346c00-108a-4a63-9169-b0a90fc9072b"},"vehicle_type_id":"4","last_reported":1742504954,"current_range_meters":5600,"station_id":"ce4bh412rcd13ifvqdr0","pricing_plan_id":"cebpf4jnsgd1na2vs0mg"},{"bike_id":"01a91cc3-f878-4d26-a609-ff52dfd38f39","system_id":"levelo_inurba_marseille","lat":43.28367,"lon":5.38637,"is_reserved":false,"is_disabled":false,"rental_uris":{"android":"levelo://app?vid=01a91cc3-f878-4d26-a609-ff52dfd38f39","ios":"levelo://app?vid=01a91cc3-f878-4d26-a609-ff52dfd38f39"},"vehicle_type_id":"4","last_reported":1742504954,"current_range_meters":5600,"station_id":"ce4bh492rcd13ifvqdvg","pricing_plan_id":"cebpf4jnsgd1na2vs0mg"},{"bike_id":"c67e2bdf-f1ac-41c1-a996-d50f3d9f2e4a","system_id":"levelo_inurba_marseille","lat":43.33609,"lon":5.41035,"is_reserved":false,"is_disabled":false,"rental_uris":{"android":"levelo://app?vid=c67e2bdf-f1ac-41c1-a996-d50f3d9f2e4a","ios":"levelo://app?vid=c67e2bdf-f1ac-41c1-a996-d50f3d9f2e4a"},"vehicle_type_id":"4","last_reported":1742504954,"current_range_meters":6000,"station_id":"ce4bhqh2rcd13ifvqhmg","pricing_plan_id":"cebpf4jnsgd1na2vs0mg"},{"bike_id":"5e392e7f-04c4-4e48-9def-f15bcc8a4749","system_id":"levelo_inurba_marseille","lat":43.25079,"lon":5.39517,"is_reserved":false,"is_disabled":false,"rental_uris":{"android":"levelo://app?vid=5e392e7f-04c4-4e48-9def-f15bcc8a4749","ios":"levelo://app?vid=5e392e7f-04c4-4e48-9def-f15bcc8a4749"},"vehicle_type_id":"4","last_reported":1742504954,"current_range_meters":6000,"station_id":"ce4bhm12rcd13ifvqgkg","pricing_plan_id":"cebpf4jnsgd1na2vs0mg"},{"bike_id":"abc16553-8c19-4c2a-8ae6-2755ac13bae6","system_id":"levelo_inurba_marseille","lat":43.30957,"lon":5.39028,"is_reserved":false,"is_disabled":true,"rental_uris":{"android":"levelo://app?vid=abc16553-8c19-4c2a-8ae6-2755ac13bae6","ios":"levelo://app?vid=abc16553-8c19-4c2a-8ae6-2755ac13bae6"},"vehicle_type_id":"4","last_reported":1742504954,"current_range_meters":6000,"station_id":"ce4bgup2rcd13ifvqco0","pricing_plan_id":"cebpf4jnsgd1na2vs0mg"},{"bike_id":"a27e9e25-06bf-4175-9bd6-9c00c02ad86d","system_id":"levelo_inurba_marseille","lat":43.24391,"lon":5.37057,"is_reserved":false,"is_disabled":false,"rental_uris":{"android":"levelo://app?vid=a27e9e25-06bf-4175-9bd6-9c00c02ad86d","ios":"levelo://app?vid=a27e9e25-06bf-4175-9bd6-9c00c02ad86d"},"vehicle_type_id":"4","last_reported":1742504954,"current_range_meters":6000,"station_id":"ce4bhhh2rcd13ifvqfk0","pricing_plan_id":"cebpf4jnsgd1na2vs0mg"},{"bike_id":"181a4fde-9b69-4103-90f9-7e9ef00b3a7a","system_id":"levelo_inurba_marseille","lat":43.24809,"lon":5.37459,"is_reserved":false,"is_disabled":false,"rental_uris":{"android":"levelo://app?vid=181a4fde-9b69-4103-90f9-7e9ef00b3a7a","ios":"levelo://app?vid=181a4fde-9b69-4103-90f9-7e9ef00b3a7a"},"vehicle_type_id":"4","last_reported":1742504954,"current_range_meters":6000,"station_id":"ce4bhgh2rcd13ifvqfb0","pricing_plan_id":"cebpf4jnsgd1na2vs0mg"},{"bike_id":"02f43b01-3b74-45fa-a40e-2df823c84cda","system_id":"levelo_inurba_marseille","lat":43.2419,"lon":5.39717,"is_reserved":false,"is_disabled":false,"rental_uris":{"android":"levelo://app?vid=02f43b01-3b74-45fa-a40e-2df823c84cda","ios":"levelo://app?vid=02f43b01-3b74-45fa-a40e-2df823c84cda"},"vehicle_type_id":"4","last_reported":1742504954,"current_range_meters":6000,"station_id":"ce4bhn12rcd13ifvqgpg","pricing_plan_id":"cebpf4jnsgd1na2vs0mg"},{"bike_id":"b92f3d05-9f5c-4305-8d4c-6f2dbeca87c4","system_id":"levelo_inurba_marseille","lat":43.28403,"lon":5.37519,"is_reserved":false,"is_disabled":false,"rental_uris":{"android":"levelo://app?vid=b92f3d05-9f5c-4305-8d4c-6f2dbeca87c4","ios":"levelo://app?vid=b92f3d05-9f5c-4305-8d4c-6f2dbeca87c4"},"vehicle_type_id":"4","last_reported":1742504954,"current_range_meters":6000,"station_id":"ce4bh412rcd13ifvqds0","pricing_plan_id":"cebpf4jnsgd1na2vs0mg"},{"bike_id":"ba9a59da-ca87-40c5-a87c-3837aa5b63d8","system_id":"levelo_inurba_marseille","lat":43.29541,"lon":5.38541,"is_reserved":false,"is_disabled":false,"rental_uris":{"android":"levelo://app?vid=ba9a59da-ca87-40c5-a87c-3837aa5b63d8","ios":"levelo://app?vid=ba9a59da-ca87-40c5-a87c-3837aa5b63d8"},"vehicle_type_id":"4","last_reported":1742504954,"current_range_meters":6000,"station_id":"ce4bgih2rcd13ifvqba0","pricing_plan_id":"cebpf4jnsgd1na2vs0mg"},{"bike_id":"459acd98-b1c3-4229-b278-dae2d9cae0d9","system_id":"levelo_inurba_marseille","lat":43.26498,"lon":5.39532,"is_reserved":false,"is_disabled":false,"rental_uris":{"android":"levelo://app?vid=459acd98-b1c3-4229-b278-dae2d9cae0d9","ios":"levelo://app?vid=459acd98-b1c3-4229-b278-dae2d9cae0d9"},"vehicle_type_id":"4","last_reported":1742504954,"current_range_meters":5600,"station_id":"ce4bhi12rcd13ifvqfq0","pricing_plan_id":"cebpf4jnsgd1na2vs0mg"},{"bike_id":"caee4412-4e45-4e98-a1db-7160ecb5cb52","system_id":"levelo_inurba_marseille","lat":43.29173,"lon":5.37147,"is_reserved":false,"is_disabled":false,"rental_uris":{"android":"levelo://app?vid=caee4412-4e45-4e98-a1db-7160ecb5cb52","ios":"levelo://app?vid=caee4412-4e45-4e98-a1db-7160ecb5cb52"},"vehicle_type_id":"4","last_reported":1742504954,"current_range_meters":6000,"station_id":"ce4bha92rcd13ifvqeh0","pricing_plan_id":"cebpf4jnsgd1na2vs0mg"},{"bike_id":"9ca04de1-e0f1-4186-9bba-159fbcc2fc30","system_id":"levelo_inurba_marseille","lat":43.26191,"lon":5.37934,"is_reserved":false,"is_disabled":true,"rental_uris":{"android":"levelo://app?vid=9ca04de1-e0f1-4186-9bba-159fbcc2fc30","ios":"levelo://app?vid=9ca04de1-e0f1-4186-9bba-159fbcc2fc30"},"vehicle_type_id":"4","last_reported":1742504954,"current_range_meters":6000,"station_id":"ce4bhjp2rcd13ifvqg90","pricing_plan_id":"cebpf4jnsgd1na2vs0mg"},{"bike_id":"3b276e99-234c-4646-acfe-1384ad70d051","system_id":"levelo_inurba_marseille","lat":43.25113,"lon":5.39503,"is_reserved":false,"is_disabled":false,"rental_uris":{"android":"levelo://app?vid=3b276e99-234c-4646-acfe-1384ad70d051","ios":"levelo://app?vid=3b276e99-234c-4646-acfe-1384ad70d051"},"vehicle_type_id":"4","last_reported":1742504954,"current_range_meters":6400,"station_id":"ce4bhm12rcd13ifvqgkg","pricing_plan_id":"cebpf4jnsgd1na2vs0mg"},{"bike_id":"9a6e2ba2-f2b0-463e-aed1-752a3cc20324","system_id":"levelo_inurba_marseille","lat":43.29446,"lon":5.39739,"is_reserved":false,"is_disabled":false,"rental_uris":{"android":"levelo://app?vid=9a6e2ba2-f2b0-463e-aed1-752a3cc20324","ios":"levelo://app?vid=9a6e2ba2-f2b0-463e-aed1-752a3cc20324"},"vehicle_type_id":"4","last_reported":1742504954,"current_range_meters":6400,"station_id":"ce4bh3h2rcd13ifvqdo0","pricing_plan_id":"cebpf4jnsgd1na2vs0mg"},{"bike_id":"13df20cc-ee25-400a-b899-98a0972c74e3","system_id":"levelo_inurba_marseille","lat":43.29196,"lon":5.35798,"is_reserved":false,"is_disabled":false,"rental_uris":{"android":"levelo://app?vid=13df20cc-ee25-400a-b899-98a0972c74e3","ios":"levelo://app?vid=13df20cc-ee25-400a-b899-98a0972c74e3"},"vehicle_type_id":"4","last_reported":1742504954,"current_range_meters":6400,"station_id":"ce4bhb12rcd13ifvqel0","pricing_plan_id":"cebpf4jnsgd1na2vs0mg"},{"bike_id":"88cbf02b-c14a-4882-939f-788787cf05ef","system_id":"levelo_inurba_marseille","lat":43.30428,"lon":5.39745,"is_reserved":false,"is_disabled":false,"rental_uris":{"android":"levelo://app?vid=88cbf02b-c14a-4882-939f-788787cf05ef","ios":"levelo://app?vid=88cbf02b-c14a-4882-939f-788787cf05ef"},"vehicle_type_id":"4","last_reported":1742504954,"current_range_meters":6400,"station_id":"ce4bh092rcd13ifvqd20","pricing_plan_id":"cebpf4jnsgd1na2vs0mg"},{"bike_id":"19a6c0c8-7941-45af-bfde-617a7678db90","system_id":"levelo_inurba_marseille","lat":43.28939,"lon":5.39633,"is_reserved":false,"is_disabled":false,"rental_uris":{"android":"levelo://app?vid=19a6c0c8-7941-45af-bfde-617a7678db90","ios":"levelo://app?vid=19a6c0c8-7941-45af-bfde-617a7678db90"},"vehicle_type_id":"4","last_reported":1742504954,"current_range_meters":6400,"station_id":"ce4bh3h2rcd13ifvqdn0","pricing_plan_id":"cebpf4jnsgd1na2vs0mg"},{"bike_id":"36f5e0b3-fb09-4335-b1e4-03aac5478eef","system_id":"levelo_inurba_marseille","lat":43.29038,"lon":5.3591,"is_reserved":false,"is_disabled":false,"rental_uris":{"android":"levelo://app?vid=36f5e0b3-fb09-4335-b1e4-03aac5478eef","ios":"levelo://app?vid=36f5e0b3-fb09-4335-b1e4-03aac5478eef"},"vehicle_type_id":"4","last_reported":1742504954,"current_range_meters":6400,"station_id":"ce4bha92rcd13ifvqeg0","pricing_plan_id":"cebpf4jnsgd1na2vs0mg"},{"bike_id":"dce07b25-f16c-4ffd-8728-2ccfb43c6292","system_id":"levelo_inurba_marseille","lat":43.29018,"lon":5.38661,"is_reserved":false,"is_disabled":false,"rental_uris":{"android":"levelo://app?vid=dce07b25-f16c-4ffd-8728-2ccfb43c6292","ios":"levelo://app?vid=dce07b25-f16c-4ffd-8728-2ccfb43c6292"},"vehicle_type_id":"4","last_reported":1742504954,"current_range_meters":6400,"station_id":"ce4bh4p2rcd13ifvqe0g","pricing_plan_id":"cebpf4jnsgd1na2vs0mg"},{"bike_id":"9d26c008-8ec1-4269-9cd2-f45774f03ccb","system_id":"levelo_inurba_marseille","lat":43.27918,"lon":5.37928,"is_reserved":false,"is_disabled":false,"rental_uris":{"android":"levelo://app?vid=9d26c008-8ec1-4269-9cd2-f45774f03ccb","ios":"levelo://app?vid=9d26c008-8ec1-4269-9cd2-f45774f03ccb"},"vehicle_type_id":"4","last_reported":1742504954,"current_range_meters":6400,"station_id":"","pricing_plan_id":"cebpf4jnsgd1na2vs0mg"},{"bike_id":"d526b6e2-b103-4339-baa5-b85128efba8c","system_id":"levelo_inurba_marseille","lat":43.23058,"lon":5.35489,"is_reserved":false,"is_disabled":false,"rental_uris":{"android":"levelo://app?vid=d526b6e2-b103-4339-baa5-b85128efba8c","ios":"levelo://app?vid=d526b6e2-b103-4339-baa5-b85128efba8c"},"vehicle_type_id":"4","last_reported":1742504954,"current_range_meters":6400,"station_id":"cpo3342slgdg3j2ifvpg","pricing_plan_id":"cebpf4jnsgd1na2vs0mg"},{"bike_id":"3ae4f3bd-c485-4c98-8e8e-3c9bb312423a","system_id":"levelo_inurba_marseille","lat":43.2483,"lon":5.3744,"is_reserved":false,"is_disabled":false,"rental_uris":{"android":"levelo://app?vid=3ae4f3bd-c485-4c98-8e8e-3c9bb312423a","ios":"levelo://app?vid=3ae4f3bd-c485-4c98-8e8e-3c9bb312423a"},"vehicle_type_id":"4","last_reported":1742504954,"current_range_meters":6800,"station_id":"ce4bhgh2rcd13ifvqfb0","pricing_plan_id":"cebpf4jnsgd1na2vs0mg"},{"bike_id":"a8b8dae1-87ef-4f8a-a2c8-fe9fd9bf0f77","system_id":"levelo_inurba_marseille","lat":43.23551,"lon":5.37758,"is_reserved":false,"is_disabled":false,"rental_uris":{"android":"levelo://app?vid=a8b8dae1-87ef-4f8a-a2c8-fe9fd9bf0f77","ios":"levelo://app?vid=a8b8dae1-87ef-4f8a-a2c8-fe9fd9bf0f77"},"vehicle_type_id":"4","last_reported":1742504954,"current_range_meters":6800,"station_id":"","pricing_plan_id":"cebpf4jnsgd1na2vs0mg"},{"bike_id":"e6c6012c-5a57-4b90-971f-9808c015cff2","system_id":"levelo_inurba_marseille","lat":43.31356,"lon":5.38502,"is_reserved":false,"is_disabled":false,"rental_uris":{"android":"levelo://app?vid=e6c6012c-5a57-4b90-971f-9808c015cff2","ios":"levelo://app?vid=e6c6012c-5a57-4b90-971f-9808c015cff2"},"vehicle_type_id":"4","last_reported":1742504954,"current_range_meters":6800,"station_id":"ce4bgt92rcd13ifvqcf0","pricing_plan_id":"cebpf4jnsgd1na2vs0mg"},{"bike_id":"767d994c-8aa1-4579-b604-16533835aae1","system_id":"levelo_inurba_marseille","lat":43.31065,"lon":5.38344,"is_reserved":false,"is_disabled":false,"rental_uris":{"android":"levelo://app?vid=767d994c-8aa1-4579-b604-16533835aae1","ios":"levelo://app?vid=767d994c-8aa1-4579-b604-16533835aae1"},"vehicle_type_id":"4","last_reported":1742504954,"current_range_meters":6800,"station_id":"ce4bgv92rcd13ifvqcr0","pricing_plan_id":"cebpf4jnsgd1na2vs0mg"},{"bike_id":"90e30534-300b-4c7d-a549-211f21035f8c","system_id":"levelo_inurba_marseille","lat":43.32289,"lon":5.38281,"is_reserved":false,"is_disabled":false,"rental_uris":{"android":"levelo://app?vid=90e30534-300b-4c7d-a549-211f21035f8c","ios":"levelo://app?vid=90e30534-300b-4c7d-a549-211f21035f8c"},"vehicle_type_id":"4","last_reported":1742504954,"current_range_meters":6800,"station_id":"ce4bhr12rcd13ifvqhqg","pricing_plan_id":"cebpf4jnsgd1na2vs0mg"},{"bike_id":"c6b711d2-5e61-4326-b7d9-3466523d1c47","system_id":"levelo_inurba_marseille","lat":43.280005,"lon":5.400142,"is_reserved":false,"is_disabled":false,"rental_uris":{"android":"levelo://app?vid=c6b711d2-5e61-4326-b7d9-3466523d1c47","ios":"levelo://app?vid=c6b711d2-5e61-4326-b7d9-3466523d1c47"},"vehicle_type_id":"4","last_reported":1742504954,"current_range_meters":6800,"station_id":"ce4bh412rcd13ifvqdr0","pricing_plan_id":"cebpf4jnsgd1na2vs0mg"},{"bike_id":"28f34723-7aef-4dd9-ba81-7d6deba682cf","system_id":"levelo_inurba_marseille","lat":43.28162,"lon":5.42661,"is_reserved":false,"is_disabled":false,"rental_uris":{"android":"levelo://app?vid=28f34723-7aef-4dd9-ba81-7d6deba682cf","ios":"levelo://app?vid=28f34723-7aef-4dd9-ba81-7d6deba682cf"},"vehicle_type_id":"4","last_reported":1742504954,"current_range_meters":6800,"station_id":"ce4bhnh2rcd13ifvqgug","pricing_plan_id":"cebpf4jnsgd1na2vs0mg"},{"bike_id":"4dffb029-0204-4cef-9472-b17edb393558","system_id":"levelo_inurba_marseille","lat":43.26062,"lon":5.39397,"is_reserved":false,"is_disabled":false,"rental_uris":{"android":"levelo://app?vid=4dffb029-0204-4cef-9472-b17edb393558","ios":"levelo://app?vid=4dffb029-0204-4cef-9472-b17edb393558"},"vehicle_type_id":"4","last_reported":1742504954,"current_range_meters":6800,"station_id":"ce4bhh92rcd13ifvqfj0","pricing_plan_id":"cebpf4jnsgd1na2vs0mg"},{"bike_id":"9cb0cd48-c912-4e95-a0b3-623322292242","system_id":"levelo_inurba_marseille","lat":43.31076,"lon":5.38344,"is_reserved":false,"is_disabled":false,"rental_uris":{"android":"levelo://app?vid=9cb0cd48-c912-4e95-a0b3-623322292242","ios":"levelo://app?vid=9cb0cd48-c912-4e95-a0b3-623322292242"},"vehicle_type_id":"4","last_reported":1742504954,"current_range_meters":6800,"station_id":"ce4bgv92rcd13ifvqcr0","pricing_plan_id":"cebpf4jnsgd1na2vs0mg"},{"bike_id":"176d2e0b-da43-4b98-b92e-b45d4ab12b2f","system_id":"levelo_inurba_marseille","lat":43.30237,"lon":5.38463,"is_reserved":false,"is_disabled":false,"rental_uris":{"android":"levelo://app?vid=176d2e0b-da43-4b98-b92e-b45d4ab12b2f","ios":"levelo://app?vid=176d2e0b-da43-4b98-b92e-b45d4ab12b2f"},"vehicle_type_id":"4","last_reported":1742504954,"current_range_meters":6800,"station_id":"","pricing_plan_id":"cebpf4jnsgd1na2vs0mg"},{"bike_id":"6eb98e18-92f8-411c-92c0-82d5569fb85c","system_id":"levelo_inurba_marseille","lat":43.32367,"lon":5.36748,"is_reserved":false,"is_disabled":false,"rental_uris":{"android":"levelo://app?vid=6eb98e18-92f8-411c-92c0-82d5569fb85c","ios":"levelo://app?vid=6eb98e18-92f8-411c-92c0-82d5569fb85c"},"vehicle_type_id":"4","last_reported":1742504954,"current_range_meters":7200,"station_id":"ce4bhsh2rcd13ifvqi2g","pricing_plan_id":"cebpf4jnsgd1na2vs0mg"},{"bike_id":"b8462f73-89fd-4d3d-b5cb-b9bced4b8630","system_id":"levelo_inurba_marseille","lat":43.30641,"lon":5.40086,"is_reserved":false,"is_disabled":false,"rental_uris":{"android":"levelo://app?vid=b8462f73-89fd-4d3d-b5cb-b9bced4b8630","ios":"levelo://app?vid=b8462f73-89fd-4d3d-b5cb-b9bced4b8630"},"vehicle_type_id":"4","last_reported":1742504954,"current_range_meters":7200,"station_id":"ce4bh112rcd13ifvqda0","pricing_plan_id":"cebpf4jnsgd1na2vs0mg"},{"bike_id":"f28dca1c-2ce1-454b-a69d-599aa0f34ab1","system_id":"levelo_inurba_marseille","lat":43.28695,"lon":5.39987,"is_reserved":false,"is_disabled":false,"rental_uris":{"android":"levelo://app?vid=f28dca1c-2ce1-454b-a69d-599aa0f34ab1","ios":"levelo://app?vid=f28dca1c-2ce1-454b-a69d-599aa0f34ab1"},"vehicle_type_id":"4","last_reported":1742504954,"current_range_meters":7200,"station_id":"ce4bho92rcd13ifvqh3g","pricing_plan_id":"cebpf4jnsgd1na2vs0mg"},{"bike_id":"fc222273-d050-4743-b8b5-353fd8ca2aff","system_id":"levelo_inurba_marseille","lat":43.31121,"lon":5.377746,"is_reserved":false,"is_disabled":false,"rental_uris":{"android":"levelo://app?vid=fc222273-d050-4743-b8b5-353fd8ca2aff","ios":"levelo://app?vid=fc222273-d050-4743-b8b5-353fd8ca2aff"},"vehicle_type_id":"4","last_reported":1742504954,"current_range_meters":7200,"station_id":"ce4bgt92rcd13ifvqcg0","pricing_plan_id":"cebpf4jnsgd1na2vs0mg"},{"bike_id":"62a39bb5-f526-4629-9f64-ad67b9dc6ad1","system_id":"levelo_inurba_marseille","lat":43.28664,"lon":5.36351,"is_reserved":false,"is_disabled":false,"rental_uris":{"android":"levelo://app?vid=62a39bb5-f526-4629-9f64-ad67b9dc6ad1","ios":"levelo://app?vid=62a39bb5-f526-4629-9f64-ad67b9dc6ad1"},"vehicle_type_id":"4","last_reported":1742504954,"current_range_meters":7200,"station_id":"ce4bhah2rcd13ifvqej0","pricing_plan_id":"cebpf4jnsgd1na2vs0mg"},{"bike_id":"bb7e8b33-995d-46c0-8354-8f1269ac7669","system_id":"levelo_inurba_marseille","lat":43.299315,"lon":5.372126,"is_reserved":false,"is_disabled":false,"rental_uris":{"android":"levelo://app?vid=bb7e8b33-995d-46c0-8354-8f1269ac7669","ios":"levelo://app?vid=bb7e8b33-995d-46c0-8354-8f1269ac7669"},"vehicle_type_id":"4","last_reported":1742504954,"current_range_meters":7200,"station_id":"ce4bgqh2rcd13ifvqc5g","pricing_plan_id":"cebpf4jnsgd1na2vs0mg"},{"bike_id":"0a57a4f6-3e5e-4d8b-81e8-69e3a2b871c2","system_id":"levelo_inurba_marseille","lat":43.29554,"lon":5.4228,"is_reserved":false,"is_disabled":false,"rental_uris":{"android":"levelo://app?vid=0a57a4f6-3e5e-4d8b-81e8-69e3a2b871c2","ios":"levelo://app?vid=0a57a4f6-3e5e-4d8b-81e8-69e3a2b871c2"},"vehicle_type_id":"4","last_reported":1742504954,"current_range_meters":7200,"station_id":"ce4bhph2rcd13ifvqhdg","pricing_plan_id":"cebpf4jnsgd1na2vs0mg"},{"bike_id":"ed5cea79-0bea-4c86-8c80-f8de23687c7f","system_id":"levelo_inurba_marseille","lat":43.27501,"lon":5.43988,"is_reserved":false,"is_disabled":false,"rental_uris":{"android":"levelo://app?vid=ed5cea79-0bea-4c86-8c80-f8de23687c7f","ios":"levelo://app?vid=ed5cea79-0bea-4c86-8c80-f8de23687c7f"},"vehicle_type_id":"4","last_reported":1742504954,"current_range_meters":7200,"station_id":"","pricing_plan_id":"cebpf4jnsgd1na2vs0mg"},{"bike_id":"471b8c1a-1a85-4080-b533-fb41f3dbfd81","system_id":"levelo_inurba_marseille","lat":43.23187,"lon":5.35541,"is_reserved":false,"is_disabled":false,"rental_uris":{"android":"levelo://app?vid=471b8c1a-1a85-4080-b533-fb41f3dbfd81","ios":"levelo://app?vid=471b8c1a-1a85-4080-b533-fb41f3dbfd81"},"vehicle_type_id":"4","last_reported":1742504954,"current_range_meters":7200,"station_id":"ce4bhu92rcd13ifvqi70","pricing_plan_id":"cebpf4jnsgd1na2vs0mg"},{"bike_id":"53f4054b-a45e-433d-8c1a-7ccaf2434e2c","system_id":"levelo_inurba_marseille","lat":43.31073,"lon":5.38353,"is_reserved":false,"is_disabled":false,"rental_uris":{"android":"levelo://app?vid=53f4054b-a45e-433d-8c1a-7ccaf2434e2c","ios":"levelo://app?vid=53f4054b-a45e-433d-8c1a-7ccaf2434e2c"},"vehicle_type_id":"4","last_reported":1742504954,"current_range_meters":7200,"station_id":"ce4bgv92rcd13ifvqcr0","pricing_plan_id":"cebpf4jnsgd1na2vs0mg"},{"bike_id":"0de773f6-90bb-4966-9e55-1628b3d7ea12","system_id":"levelo_inurba_marseille","lat":43.2464,"lon":5.38897,"is_reserved":false,"is_disabled":false,"rental_uris":{"android":"levelo://app?vid=0de773f6-90bb-4966-9e55-1628b3d7ea12","ios":"levelo://app?vid=0de773f6-90bb-4966-9e55-1628b3d7ea12"},"vehicle_type_id":"4","last_reported":1742504954,"current_range_meters":7200,"station_id":"ce4bhg12rcd13ifvqf60","pricing_plan_id":"cebpf4jnsgd1na2vs0mg"},{"bike_id":"88e25ac3-0135-41c2-97f4-77a2ce5a36d8","system_id":"levelo_inurba_marseille","lat":43.29004,"lon":5.35609,"is_reserved":false,"is_disabled":false,"rental_uris":{"android":"levelo://app?vid=88e25ac3-0135-41c2-97f4-77a2ce5a36d8","ios":"levelo://app?vid=88e25ac3-0135-41c2-97f4-77a2ce5a36d8"},"vehicle_type_id":"4","last_reported":1742504954,"current_range_meters":7200,"station_id":"ce4bhb92rcd13ifvqen0","pricing_plan_id":"cebpf4jnsgd1na2vs0mg"},{"bike_id":"b290a832-9566-47d3-ba61-076568387192","system_id":"levelo_inurba_marseille","lat":43.25726,"lon":5.41107,"is_reserved":false,"is_disabled":false,"rental_uris":{"android":"levelo://app?vid=b290a832-9566-47d3-ba61-076568387192","ios":"levelo://app?vid=b290a832-9566-47d3-ba61-076568387192"},"vehicle_type_id":"4","last_reported":1742504954,"current_range_meters":7200,"station_id":"ce4bhkp2rcd13ifvqgd0","pricing_plan_id":"cebpf4jnsgd1na2vs0mg"},{"bike_id":"bf77bd74-149f-4d17-8b94-71829beb4299","system_id":"levelo_inurba_marseille","lat":43.30599,"lon":5.37236,"is_reserved":false,"is_disabled":false,"rental_uris":{"android":"levelo://app?vid=bf77bd74-149f-4d17-8b94-71829beb4299","ios":"levelo://app?vid=bf77bd74-149f-4d17-8b94-71829beb4299"},"vehicle_type_id":"4","last_reported":1742504954,"current_range_meters":8000,"station_id":"ce4bgqh2rcd13ifvqc4g","pricing_plan_id":"cebpf4jnsgd1na2vs0mg"},{"bike_id":"304459b3-67a6-43ef-92a7-878fae315948","system_id":"levelo_inurba_marseille","lat":43.28406,"lon":5.37531,"is_reserved":false,"is_disabled":false,"rental_uris":{"android":"levelo://app?vid=304459b3-67a6-43ef-92a7-878fae315948","ios":"levelo://app?vid=304459b3-67a6-43ef-92a7-878fae315948"},"vehicle_type_id":"4","last_reported":1742504954,"current_range_meters":8000,"station_id":"ce4bh412rcd13ifvqds0","pricing_plan_id":"cebpf4jnsgd1na2vs0mg"},{"bike_id":"f3cb6c6a-3189-4787-9af4-59ae82f81eef","system_id":"levelo_inurba_marseille","lat":43.31513,"lon":5.37011,"is_reserved":false,"is_disabled":false,"rental_uris":{"android":"levelo://app?vid=f3cb6c6a-3189-4787-9af4-59ae82f81eef","ios":"levelo://app?vid=f3cb6c6a-3189-4787-9af4-59ae82f81eef"},"vehicle_type_id":"4","last_reported":1742504954,"current_range_meters":8000,"station_id":"","pricing_plan_id":"cebpf4jnsgd1na2vs0mg"},{"bike_id":"e1508fcf-9fea-48ee-a346-e778a5a0da1f","system_id":"levelo_inurba_marseille","lat":43.27985,"lon":5.41659,"is_reserved":false,"is_disabled":false,"rental_uris":{"android":"levelo://app?vid=e1508fcf-9fea-48ee-a346-e778a5a0da1f","ios":"levelo://app?vid=e1508fcf-9fea-48ee-a346-e778a5a0da1f"},"vehicle_type_id":"4","last_reported":1742504954,"current_range_meters":8000,"station_id":"ce4bho12rcd13ifvqh1g","pricing_plan_id":"cebpf4jnsgd1na2vs0mg"},{"bike_id":"c31cd50f-6035-4372-ad1f-b2017eb69a05","system_id":"levelo_inurba_marseille","lat":43.24165,"lon":5.36391,"is_reserved":false,"is_disabled":false,"rental_uris":{"android":"levelo://app?vid=c31cd50f-6035-4372-ad1f-b2017eb69a05","ios":"levelo://app?vid=c31cd50f-6035-4372-ad1f-b2017eb69a05"},"vehicle_type_id":"4","last_reported":1742504954,"current_range_meters":8000,"station_id":"cpo36qri1sfpv3e86is0","pricing_plan_id":"cebpf4jnsgd1na2vs0mg"},{"bike_id":"7be09a3c-509d-4c60-ba8f-c6a44a778c75","system_id":"levelo_inurba_marseille","lat":43.301942,"lon":5.366284,"is_reserved":false,"is_disabled":false,"rental_uris":{"android":"levelo://app?vid=7be09a3c-509d-4c60-ba8f-c6a44a778c75","ios":"levelo://app?vid=7be09a3c-509d-4c60-ba8f-c6a44a778c75"},"vehicle_type_id":"4","last_reported":1742504954,"current_range_meters":7200,"station_id":"ce4bgrh2rcd13ifvqc8g","pricing_plan_id":"cebpf4jnsgd1na2vs0mg"},{"bike_id":"aa0c7091-1f8d-4294-97bb-df9bff05a5bb","system_id":"levelo_inurba_marseille","lat":43.29544,"lon":5.42295,"is_reserved":false,"is_disabled":false,"rental_uris":{"android":"levelo://app?vid=aa0c7091-1f8d-4294-97bb-df9bff05a5bb","ios":"levelo://app?vid=aa0c7091-1f8d-4294-97bb-df9bff05a5bb"},"vehicle_type_id":"4","last_reported":1742504954,"current_range_meters":8000,"station_id":"ce4bhph2rcd13ifvqhdg","pricing_plan_id":"cebpf4jnsgd1na2vs0mg"},{"bike_id":"671210b1-9e8f-4893-953f-985ab8b97e34","system_id":"levelo_inurba_marseille","lat":43.321126,"lon":5.367756,"is_reserved":false,"is_disabled":false,"rental_uris":{"android":"levelo://app?vid=671210b1-9e8f-4893-953f-985ab8b97e34","ios":"levelo://app?vid=671210b1-9e8f-4893-953f-985ab8b97e34"},"vehicle_type_id":"4","last_reported":1742504954,"current_range_meters":8000,"station_id":"ce4bhrh2rcd13ifvqhug","pricing_plan_id":"cebpf4jnsgd1na2vs0mg"},{"bike_id":"88235f40-31c6-4a2f-8946-34e3a8b8f4b1","system_id":"levelo_inurba_marseille","lat":43.29882,"lon":5.39754,"is_reserved":false,"is_disabled":false,"rental_uris":{"android":"levelo://app?vid=88235f40-31c6-4a2f-8946-34e3a8b8f4b1","ios":"levelo://app?vid=88235f40-31c6-4a2f-8946-34e3a8b8f4b1"},"vehicle_type_id":"4","last_reported":1742504954,"current_range_meters":8000,"station_id":"ce4bh0h2rcd13ifvqd50","pricing_plan_id":"cebpf4jnsgd1na2vs0mg"},{"bike_id":"bb55ab9d-3223-4c62-9ba4-1c929d3f7ca3","system_id":"levelo_inurba_marseille","lat":43.299,"lon":5.43669,"is_reserved":false,"is_disabled":false,"rental_uris":{"android":"levelo://app?vid=bb55ab9d-3223-4c62-9ba4-1c929d3f7ca3","ios":"levelo://app?vid=bb55ab9d-3223-4c62-9ba4-1c929d3f7ca3"},"vehicle_type_id":"4","last_reported":1742504954,"current_range_meters":8000,"station_id":"ce4bhpp2rcd13ifvqhfg","pricing_plan_id":"cebpf4jnsgd1na2vs0mg"},{"bike_id":"f8e69801-e786-4f8e-84e0-e330fc8defd7","system_id":"levelo_inurba_marseille","lat":43.32712,"lon":5.38328,"is_reserved":false,"is_disabled":false,"rental_uris":{"android":"levelo://app?vid=f8e69801-e786-4f8e-84e0-e330fc8defd7","ios":"levelo://app?vid=f8e69801-e786-4f8e-84e0-e330fc8defd7"},"vehicle_type_id":"4","last_reported":1742504954,"current_range_meters":8000,"station_id":"","pricing_plan_id":"cebpf4jnsgd1na2vs0mg"},{"bike_id":"4b944f26-267f-49c2-9cdf-984a3ef97478","system_id":"levelo_inurba_marseille","lat":43.33605,"lon":5.41022,"is_reserved":false,"is_disabled":false,"rental_uris":{"android":"levelo://app?vid=4b944f26-267f-49c2-9cdf-984a3ef97478","ios":"levelo://app?vid=4b944f26-267f-49c2-9cdf-984a3ef97478"},"vehicle_type_id":"4","last_reported":1742504954,"current_range_meters":8000,"station_id":"ce4bhqh2rcd13ifvqhmg","pricing_plan_id":"cebpf4jnsgd1na2vs0mg"},{"bike_id":"cb6062cd-3cfa-4917-b79b-5707b99e3c03","system_id":"levelo_inurba_marseille","lat":43.321185,"lon":5.367534,"is_reserved":false,"is_disabled":false,"rental_uris":{"android":"levelo://app?vid=cb6062cd-3cfa-4917-b79b-5707b99e3c03","ios":"levelo://app?vid=cb6062cd-3cfa-4917-b79b-5707b99e3c03"},"vehicle_type_id":"4","last_reported":1742504954,"current_range_meters":8400,"station_id":"ce4bho92rcd13ifvqh3g","pricing_plan_id":"cebpf4jnsgd1na2vs0mg"},{"bike_id":"8ab24f30-e748-4130-b7ee-43e212e41c2f","system_id":"levelo_inurba_marseille","lat":43.24385,"lon":5.37053,"is_reserved":false,"is_disabled":false,"rental_uris":{"android":"levelo://app?vid=8ab24f30-e748-4130-b7ee-43e212e41c2f","ios":"levelo://app?vid=8ab24f30-e748-4130-b7ee-43e212e41c2f"},"vehicle_type_id":"4","last_reported":1742504954,"current_range_meters":8000,"station_id":"ce4bhhh2rcd13ifvqfk0","pricing_plan_id":"cebpf4jnsgd1na2vs0mg"},{"bike_id":"2916d7dc-590b-4121-bfa3-f3b10c548cce","system_id":"levelo_inurba_marseille","lat":43.29184,"lon":5.37141,"is_reserved":false,"is_disabled":false,"rental_uris":{"android":"levelo://app?vid=2916d7dc-590b-4121-bfa3-f3b10c548cce","ios":"levelo://app?vid=2916d7dc-590b-4121-bfa3-f3b10c548cce"},"vehicle_type_id":"4","last_reported":1742504954,"current_range_meters":8400,"station_id":"ce4bha92rcd13ifvqeh0","pricing_plan_id":"cebpf4jnsgd1na2vs0mg"},{"bike_id":"9b2a4ae1-45d2-42a7-b1d8-970226b193d0","system_id":"levelo_inurba_marseille","lat":43.24181,"lon":5.3972,"is_reserved":false,"is_disabled":false,"rental_uris":{"android":"levelo://app?vid=9b2a4ae1-45d2-42a7-b1d8-970226b193d0","ios":"levelo://app?vid=9b2a4ae1-45d2-42a7-b1d8-970226b193d0"},"vehicle_type_id":"4","last_reported":1742504954,"current_range_meters":8400,"station_id":"ce4bhn12rcd13ifvqgpg","pricing_plan_id":"cebpf4jnsgd1na2vs0mg"},{"bike_id":"d33ebc01-4bb7-4759-b3f0-c2402a693d75","system_id":"levelo_inurba_marseille","lat":43.29774,"lon":5.39381,"is_reserved":false,"is_disabled":false,"rental_uris":{"android":"levelo://app?vid=d33ebc01-4bb7-4759-b3f0-c2402a693d75","ios":"levelo://app?vid=d33ebc01-4bb7-4759-b3f0-c2402a693d75"},"vehicle_type_id":"4","last_reported":1742504954,"current_range_meters":8400,"station_id":"chh1huq6cuj3fo74tm60","pricing_plan_id":"cebpf4jnsgd1na2vs0mg"},{"bike_id":"397a4bde-aeba-43ea-98d8-4e8e97b2e020","system_id":"levelo_inurba_marseille","lat":43.28085,"lon":5.39643,"is_reserved":false,"is_disabled":false,"rental_uris":{"android":"levelo://app?vid=397a4bde-aeba-43ea-98d8-4e8e97b2e020","ios":"levelo://app?vid=397a4bde-aeba-43ea-98d8-4e8e97b2e020"},"vehicle_type_id":"4","last_reported":1742504954,"current_range_meters":8400,"station_id":"ce4bho12rcd13ifvqh2g","pricing_plan_id":"cebpf4jnsgd1na2vs0mg"},{"bike_id":"9613c572-2bd9-4a6f-8a90-874824097844","system_id":"levelo_inurba_marseille","lat":43.25714,"lon":5.41113,"is_reserved":false,"is_disabled":false,"rental_uris":{"android":"levelo://app?vid=9613c572-2bd9-4a6f-8a90-874824097844","ios":"levelo://app?vid=9613c572-2bd9-4a6f-8a90-874824097844"},"vehicle_type_id":"4","last_reported":1742504954,"current_range_meters":8400,"station_id":"ce4bhkp2rcd13ifvqgd0","pricing_plan_id":"cebpf4jnsgd1na2vs0mg"},{"bike_id":"5a6c9776-ac53-4eaa-95d2-797679de5a2e","system_id":"levelo_inurba_marseille","lat":43.29789,"lon":5.39343,"is_reserved":false,"is_disabled":false,"rental_uris":{"android":"levelo://app?vid=5a6c9776-ac53-4eaa-95d2-797679de5a2e","ios":"levelo://app?vid=5a6c9776-ac53-4eaa-95d2-797679de5a2e"},"vehicle_type_id":"4","last_reported":1742504954,"current_range_meters":8400,"station_id":"chh1huq6cuj3fo74tm60","pricing_plan_id":"cebpf4jnsgd1na2vs0mg"},{"bike_id":"4da38abe-63fe-44a7-abd3-4bad6629a678","system_id":"levelo_inurba_marseille","lat":43.29709,"lon":5.37325,"is_reserved":false,"is_disabled":false,"rental_uris":{"android":"levelo://app?vid=4da38abe-63fe-44a7-abd3-4bad6629a678","ios":"levelo://app?vid=4da38abe-63fe-44a7-abd3-4bad6629a678"},"vehicle_type_id":"4","last_reported":1742504954,"current_range_meters":8400,"station_id":"ce4bgk12rcd13ifvqbj0","pricing_plan_id":"cebpf4jnsgd1na2vs0mg"},{"bike_id":"20eeab25-1a21-40ce-bf91-ee12f5a2e3d8","system_id":"levelo_inurba_marseille","lat":43.24666,"lon":5.38863,"is_reserved":false,"is_disabled":false,"rental_uris":{"android":"levelo://app?vid=20eeab25-1a21-40ce-bf91-ee12f5a2e3d8","ios":"levelo://app?vid=20eeab25-1a21-40ce-bf91-ee12f5a2e3d8"},"vehicle_type_id":"4","last_reported":1742504954,"current_range_meters":8400,"station_id":"ce4bhg12rcd13ifvqf60","pricing_plan_id":"cebpf4jnsgd1na2vs0mg"},{"bike_id":"1983241e-dcf4-412a-b965-b9e661a9d6d5","system_id":"levelo_inurba_marseille","lat":43.29822,"lon":5.40186,"is_reserved":false,"is_disabled":false,"rental_uris":{"android":"levelo://app?vid=1983241e-dcf4-412a-b965-b9e661a9d6d5","ios":"levelo://app?vid=1983241e-dcf4-412a-b965-b9e661a9d6d5"},"vehicle_type_id":"4","last_reported":1742504954,"current_range_meters":8400,"station_id":"","pricing_plan_id":"cebpf4jnsgd1na2vs0mg"},{"bike_id":"df446069-6124-47b5-871e-1e0922d42d2c","system_id":"levelo_inurba_marseille","lat":43.24158,"lon":5.39708,"is_reserved":false,"is_disabled":false,"rental_uris":{"android":"levelo://app?vid=df446069-6124-47b5-871e-1e0922d42d2c","ios":"levelo://app?vid=df446069-6124-47b5-871e-1e0922d42d2c"},"vehicle_type_id":"4","last_reported":1742504954,"current_range_meters":8800,"station_id":"ce4bhn12rcd13ifvqgpg","pricing_plan_id":"cebpf4jnsgd1na2vs0mg"},{"bike_id":"01dc1d34-dc51-4ff7-957b-080747d44d62","system_id":"levelo_inurba_marseille","lat":43.3118,"lon":5.38727,"is_reserved":false,"is_disabled":false,"rental_uris":{"android":"levelo://app?vid=01dc1d34-dc51-4ff7-957b-080747d44d62","ios":"levelo://app?vid=01dc1d34-dc51-4ff7-957b-080747d44d62"},"vehicle_type_id":"4","last_reported":1742504954,"current_range_meters":8800,"station_id":"ce4bgv12rcd13ifvqcp0","pricing_plan_id":"cebpf4jnsgd1na2vs0mg"},{"bike_id":"294818fe-f961-4f2d-85c2-45f9b2579a29","system_id":"levelo_inurba_marseille","lat":43.27683,"lon":5.39063,"is_reserved":false,"is_disabled":false,"rental_uris":{"android":"levelo://app?vid=294818fe-f961-4f2d-85c2-45f9b2579a29","ios":"levelo://app?vid=294818fe-f961-4f2d-85c2-45f9b2579a29"},"vehicle_type_id":"4","last_reported":1742504954,"current_range_meters":8800,"station_id":"","pricing_plan_id":"cebpf4jnsgd1na2vs0mg"},{"bike_id":"b0ce47a3-709d-47a5-8da5-31f168002e83","system_id":"levelo_inurba_marseille","lat":43.29165,"lon":5.37151,"is_reserved":false,"is_disabled":false,"rental_uris":{"android":"levelo://app?vid=b0ce47a3-709d-47a5-8da5-31f168002e83","ios":"levelo://app?vid=b0ce47a3-709d-47a5-8da5-31f168002e83"},"vehicle_type_id":"4","last_reported":1742504954,"current_range_meters":8800,"station_id":"ce4bha92rcd13ifvqeh0","pricing_plan_id":"cebpf4jnsgd1na2vs0mg"},{"bike_id":"a115a50a-6b07-4e25-ae5a-9408c0c21195","system_id":"levelo_inurba_marseille","lat":43.29308,"lon":5.37169,"is_reserved":false,"is_disabled":false,"rental_uris":{"android":"levelo://app?vid=a115a50a-6b07-4e25-ae5a-9408c0c21195","ios":"levelo://app?vid=a115a50a-6b07-4e25-ae5a-9408c0c21195"},"vehicle_type_id":"4","last_reported":1742504954,"current_range_meters":8800,"station_id":"ce4bgh92rcd13ifvqb40","pricing_plan_id":"cebpf4jnsgd1na2vs0mg"},{"bike_id":"76a129e6-b305-42b8-a863-5a99730d4d66","system_id":"levelo_inurba_marseille","lat":43.30411,"lon":5.41283,"is_reserved":false,"is_disabled":false,"rental_uris":{"android":"levelo://app?vid=76a129e6-b305-42b8-a863-5a99730d4d66","ios":"levelo://app?vid=76a129e6-b305-42b8-a863-5a99730d4d66"},"vehicle_type_id":"4","last_reported":1742504954,"current_range_meters":8800,"station_id":"ce4bhop2rcd13ifvqh8g","pricing_plan_id":"cebpf4jnsgd1na2vs0mg"},{"bike_id":"bfb8aceb-271f-407e-8f66-f0880d7ac280","system_id":"levelo_inurba_marseille","lat":43.31321,"lon":5.39738,"is_reserved":false,"is_disabled":false,"rental_uris":{"android":"levelo://app?vid=bfb8aceb-271f-407e-8f66-f0880d7ac280","ios":"levelo://app?vid=bfb8aceb-271f-407e-8f66-f0880d7ac280"},"vehicle_type_id":"4","last_reported":1742504954,"current_range_meters":8800,"station_id":"ce4bgvp2rcd13ifvqcu0","pricing_plan_id":"cebpf4jnsgd1na2vs0mg"},{"bike_id":"be111b0f-1f72-4ed6-9ae8-0137038913ce","system_id":"levelo_inurba_marseille","lat":43.28436,"lon":5.39193,"is_reserved":false,"is_disabled":false,"rental_uris":{"android":"levelo://app?vid=be111b0f-1f72-4ed6-9ae8-0137038913ce","ios":"levelo://app?vid=be111b0f-1f72-4ed6-9ae8-0137038913ce"},"vehicle_type_id":"4","last_reported":1742504954,"current_range_meters":8800,"station_id":"ce4bhoh2rcd13ifvqh5g","pricing_plan_id":"cebpf4jnsgd1na2vs0mg"},{"bike_id":"d7645557-54c5-44ed-8c44-41e433a350da","system_id":"levelo_inurba_marseille","lat":43.29469,"lon":5.35569,"is_reserved":false,"is_disabled":false,"rental_uris":{"android":"levelo://app?vid=d7645557-54c5-44ed-8c44-41e433a350da","ios":"levelo://app?vid=d7645557-54c5-44ed-8c44-41e433a350da"},"vehicle_type_id":"4","last_reported":1742504954,"current_range_meters":8800,"station_id":"","pricing_plan_id":"cebpf4jnsgd1na2vs0mg"},{"bike_id":"a0deeb6c-62a7-4efb-834c-1bec837aaba6","system_id":"levelo_inurba_marseille","lat":43.33718,"lon":5.37812,"is_reserved":false,"is_disabled":false,"rental_uris":{"android":"levelo://app?vid=a0deeb6c-62a7-4efb-834c-1bec837aaba6","ios":"levelo://app?vid=a0deeb6c-62a7-4efb-834c-1bec837aaba6"},"vehicle_type_id":"4","last_reported":1742504954,"current_range_meters":9200,"station_id":"","pricing_plan_id":"cebpf4jnsgd1na2vs0mg"},{"bike_id":"ffbee1c9-ab8d-45ee-b606-c546ab78c5f2","system_id":"levelo_inurba_marseille","lat":43.29713,"lon":5.37824,"is_reserved":false,"is_disabled":false,"rental_uris":{"android":"levelo://app?vid=ffbee1c9-ab8d-45ee-b606-c546ab78c5f2","ios":"levelo://app?vid=ffbee1c9-ab8d-45ee-b606-c546ab78c5f2"},"vehicle_type_id":"4","last_reported":1742504954,"current_range_meters":9200,"station_id":"","pricing_plan_id":"cebpf4jnsgd1na2vs0mg"},{"bike_id":"a8b62a97-0d7d-42e6-9378-3710b04239d3","system_id":"levelo_inurba_marseille","lat":43.2606,"lon":5.39396,"is_reserved":false,"is_disabled":false,"rental_uris":{"android":"levelo://app?vid=a8b62a97-0d7d-42e6-9378-3710b04239d3","ios":"levelo://app?vid=a8b62a97-0d7d-42e6-9378-3710b04239d3"},"vehicle_type_id":"4","last_reported":1742504954,"current_range_meters":9200,"station_id":"ce4bhh92rcd13ifvqfj0","pricing_plan_id":"cebpf4jnsgd1na2vs0mg"},{"bike_id":"c5bb5dca-1dc9-450e-9a3d-9fa737cf345d","system_id":"levelo_inurba_marseille","lat":43.24632,"lon":5.38888,"is_reserved":false,"is_disabled":false,"rental_uris":{"android":"levelo://app?vid=c5bb5dca-1dc9-450e-9a3d-9fa737cf345d","ios":"levelo://app?vid=c5bb5dca-1dc9-450e-9a3d-9fa737cf345d"},"vehicle_type_id":"4","last_reported":1742504954,"current_range_meters":9200,"station_id":"ce4bhg12rcd13ifvqf60","pricing_plan_id":"cebpf4jnsgd1na2vs0mg"},{"bike_id":"5b034f6c-b781-4614-b284-b1b81a5bd187","system_id":"levelo_inurba_marseille","lat":43.31177,"lon":5.38722,"is_reserved":false,"is_disabled":false,"rental_uris":{"android":"levelo://app?vid=5b034f6c-b781-4614-b284-b1b81a5bd187","ios":"levelo://app?vid=5b034f6c-b781-4614-b284-b1b81a5bd187"},"vehicle_type_id":"4","last_reported":1742504954,"current_range_meters":9600,"station_id":"ce4bgv12rcd13ifvqcp0","pricing_plan_id":"cebpf4jnsgd1na2vs0mg"},{"bike_id":"feb56253-4a63-4940-9b3d-2354add15506","system_id":"levelo_inurba_marseille","lat":43.29317,"lon":5.3718,"is_reserved":false,"is_disabled":false,"rental_uris":{"android":"levelo://app?vid=feb56253-4a63-4940-9b3d-2354add15506","ios":"levelo://app?vid=feb56253-4a63-4940-9b3d-2354add15506"},"vehicle_type_id":"4","last_reported":1742504954,"current_range_meters":9600,"station_id":"ce4bgh92rcd13ifvqb40","pricing_plan_id":"cebpf4jnsgd1na2vs0mg"},{"bike_id":"6c3117c3-09fd-4d54-96ed-b753848a5cec","system_id":"levelo_inurba_marseille","lat":43.27995,"lon":5.40011,"is_reserved":false,"is_disabled":false,"rental_uris":{"android":"levelo://app?vid=6c3117c3-09fd-4d54-96ed-b753848a5cec","ios":"levelo://app?vid=6c3117c3-09fd-4d54-96ed-b753848a5cec"},"vehicle_type_id":"4","last_reported":1742504954,"current_range_meters":9600,"station_id":"ce4bho92rcd13ifvqh4g","pricing_plan_id":"cebpf4jnsgd1na2vs0mg"},{"bike_id":"1b72dce5-42b7-49bb-8b47-d1da09987f69","system_id":"levelo_inurba_marseille","lat":43.30322,"lon":5.40445,"is_reserved":false,"is_disabled":false,"rental_uris":{"android":"levelo://app?vid=1b72dce5-42b7-49bb-8b47-d1da09987f69","ios":"levelo://app?vid=1b72dce5-42b7-49bb-8b47-d1da09987f69"},"vehicle_type_id":"4","last_reported":1742504954,"current_range_meters":9600,"station_id":"ce4bh012rcd13ifvqd10","pricing_plan_id":"cebpf4jnsgd1na2vs0mg"},{"bike_id":"20979594-235c-4805-803c-c9b788b6f70d","system_id":"levelo_inurba_marseille","lat":43.25727,"lon":5.41107,"is_reserved":false,"is_disabled":false,"rental_uris":{"android":"levelo://app?vid=20979594-235c-4805-803c-c9b788b6f70d","ios":"levelo://app?vid=20979594-235c-4805-803c-c9b788b6f70d"},"vehicle_type_id":"4","last_reported":1742504954,"current_range_meters":9600,"station_id":"ce4bhkp2rcd13ifvqgd0","pricing_plan_id":"cebpf4jnsgd1na2vs0mg"},{"bike_id":"4fdfb7d6-8ab3-43f7-8bc5-8c9a50e46a96","system_id":"levelo_inurba_marseille","lat":43.26556,"lon":5.3733,"is_reserved":false,"is_disabled":false,"rental_uris":{"android":"levelo://app?vid=4fdfb7d6-8ab3-43f7-8bc5-8c9a50e46a96","ios":"levelo://app?vid=4fdfb7d6-8ab3-43f7-8bc5-8c9a50e46a96"},"vehicle_type_id":"4","last_reported":1742504954,"current_range_meters":9600,"station_id":"ce4bhg12rcd13ifvqf70","pricing_plan_id":"cebpf4jnsgd1na2vs0mg"},{"bike_id":"663c6a42-1f63-4393-899e-1be967f2af3a","system_id":"levelo_inurba_marseille","lat":43.29531,"lon":5.38539,"is_reserved":false,"is_disabled":false,"rental_uris":{"android":"levelo://app?vid=663c6a42-1f63-4393-899e-1be967f2af3a","ios":"levelo://app?vid=663c6a42-1f63-4393-899e-1be967f2af3a"},"vehicle_type_id":"4","last_reported":1742504954,"current_range_meters":9600,"station_id":"ce4bgih2rcd13ifvqba0","pricing_plan_id":"cebpf4jnsgd1na2vs0mg"},{"bike_id":"298094ff-1b8f-403e-b315-5326030acb86","system_id":"levelo_inurba_marseille","lat":43.28158,"lon":5.42645,"is_reserved":false,"is_disabled":false,"rental_uris":{"android":"levelo://app?vid=298094ff-1b8f-403e-b315-5326030acb86","ios":"levelo://app?vid=298094ff-1b8f-403e-b315-5326030acb86"},"vehicle_type_id":"4","last_reported":1742504954,"current_range_meters":9600,"station_id":"ce4bhnh2rcd13ifvqgug","pricing_plan_id":"cebpf4jnsgd1na2vs0mg"},{"bike_id":"b9e4bdd0-024c-4547-9a94-39d0c7923642","system_id":"levelo_inurba_marseille","lat":43.24169,"lon":5.36408,"is_reserved":false,"is_disabled":false,"rental_uris":{"android":"levelo://app?vid=b9e4bdd0-024c-4547-9a94-39d0c7923642","ios":"levelo://app?vid=b9e4bdd0-024c-4547-9a94-39d0c7923642"},"vehicle_type_id":"4","last_reported":1742504954,"current_range_meters":9600,"station_id":"cpo36qri1sfpv3e86is0","pricing_plan_id":"cebpf4jnsgd1na2vs0mg"},{"bike_id":"d56a9ba1-15be-4e29-8bb9-71b08ff1739c","system_id":"levelo_inurba_marseille","lat":43.306,"lon":5.37216,"is_reserved":false,"is_disabled":false,"rental_uris":{"android":"levelo://app?vid=d56a9ba1-15be-4e29-8bb9-71b08ff1739c","ios":"levelo://app?vid=d56a9ba1-15be-4e29-8bb9-71b08ff1739c"},"vehicle_type_id":"4","last_reported":1742504954,"current_range_meters":9600,"station_id":"ce4bgqh2rcd13ifvqc4g","pricing_plan_id":"cebpf4jnsgd1na2vs0mg"},{"bike_id":"a1d4474e-dc54-4e96-8359-81b099ba1a93","system_id":"levelo_inurba_marseille","lat":43.23182,"lon":5.39985,"is_reserved":false,"is_disabled":false,"rental_uris":{"android":"levelo://app?vid=a1d4474e-dc54-4e96-8359-81b099ba1a93","ios":"levelo://app?vid=a1d4474e-dc54-4e96-8359-81b099ba1a93"},"vehicle_type_id":"4","last_reported":1742504954,"current_range_meters":10000,"station_id":"ce4bhn12rcd13ifvqgqg","pricing_plan_id":"cebpf4jnsgd1na2vs0mg"},{"bike_id":"69a1267d-4f9b-471a-98e9-7d2631052ef0","system_id":"levelo_inurba_marseille","lat":43.28005,"lon":5.40023,"is_reserved":false,"is_disabled":false,"rental_uris":{"android":"levelo://app?vid=69a1267d-4f9b-471a-98e9-7d2631052ef0","ios":"levelo://app?vid=69a1267d-4f9b-471a-98e9-7d2631052ef0"},"vehicle_type_id":"4","last_reported":1742504954,"current_range_meters":10000,"station_id":"ce4bho92rcd13ifvqh4g","pricing_plan_id":"cebpf4jnsgd1na2vs0mg"},{"bike_id":"10040ff5-09c7-4549-9697-fbeae20cf216","system_id":"levelo_inurba_marseille","lat":43.24654,"lon":5.38893,"is_reserved":false,"is_disabled":false,"rental_uris":{"android":"levelo://app?vid=10040ff5-09c7-4549-9697-fbeae20cf216","ios":"levelo://app?vid=10040ff5-09c7-4549-9697-fbeae20cf216"},"vehicle_type_id":"4","last_reported":1742504954,"current_range_meters":10000,"station_id":"ce4bhg12rcd13ifvqf60","pricing_plan_id":"cebpf4jnsgd1na2vs0mg"},{"bike_id":"d4b8f3ac-69da-4a13-8307-f3070663ea65","system_id":"levelo_inurba_marseille","lat":43.28456,"lon":5.3589,"is_reserved":false,"is_disabled":false,"rental_uris":{"android":"levelo://app?vid=d4b8f3ac-69da-4a13-8307-f3070663ea65","ios":"levelo://app?vid=d4b8f3ac-69da-4a13-8307-f3070663ea65"},"vehicle_type_id":"4","last_reported":1742504954,"current_range_meters":10000,"station_id":"ce4bhah2rcd13ifvqei0","pricing_plan_id":"cebpf4jnsgd1na2vs0mg"},{"bike_id":"295451a4-a71a-48b3-9f2c-dfa8b727f166","system_id":"levelo_inurba_marseille","lat":43.28401,"lon":5.37524,"is_reserved":false,"is_disabled":false,"rental_uris":{"android":"levelo://app?vid=295451a4-a71a-48b3-9f2c-dfa8b727f166","ios":"levelo://app?vid=295451a4-a71a-48b3-9f2c-dfa8b727f166"},"vehicle_type_id":"4","last_reported":1742504954,"current_range_meters":10000,"station_id":"ce4bh412rcd13ifvqds0","pricing_plan_id":"cebpf4jnsgd1na2vs0mg"},{"bike_id":"dcc18eac-d2e5-4e6e-91aa-19e270f58587","system_id":"levelo_inurba_marseille","lat":43.31324,"lon":5.39709,"is_reserved":false,"is_disabled":false,"rental_uris":{"android":"levelo://app?vid=dcc18eac-d2e5-4e6e-91aa-19e270f58587","ios":"levelo://app?vid=dcc18eac-d2e5-4e6e-91aa-19e270f58587"},"vehicle_type_id":"4","last_reported":1742504954,"current_range_meters":10000,"station_id":"ce4bgvp2rcd13ifvqcu0","pricing_plan_id":"cebpf4jnsgd1na2vs0mg"},{"bike_id":"58fff273-0466-4a6d-9bdb-a4807895bd1a","system_id":"levelo_inurba_marseille","lat":43.29529,"lon":5.39016,"is_reserved":false,"is_disabled":false,"rental_uris":{"android":"levelo://app?vid=58fff273-0466-4a6d-9bdb-a4807895bd1a","ios":"levelo://app?vid=58fff273-0466-4a6d-9bdb-a4807895bd1a"},"vehicle_type_id":"4","last_reported":1742504954,"current_range_meters":12400,"station_id":"ce4bh3p2rcd13ifvqdp0","pricing_plan_id":"cebpf4jnsgd1na2vs0mg"},{"bike_id":"0cf01fd1-5c97-4ea7-861c-a60b1158b5df","system_id":"levelo_inurba_marseille","lat":43.33027,"lon":5.39042,"is_reserved":false,"is_disabled":false,"rental_uris":{"android":"levelo://app?vid=0cf01fd1-5c97-4ea7-861c-a60b1158b5df","ios":"levelo://app?vid=0cf01fd1-5c97-4ea7-861c-a60b1158b5df"},"vehicle_type_id":"4","last_reported":1742504954,"current_range_meters":10000,"station_id":"ce4bhr92rcd13ifvqhrg","pricing_plan_id":"cebpf4jnsgd1na2vs0mg"},{"bike_id":"7ccd7d1b-e80d-4e4c-8c7d-8306c27fa828","system_id":"levelo_inurba_marseille","lat":43.28357,"lon":5.38632,"is_reserved":false,"is_disabled":false,"rental_uris":{"android":"levelo://app?vid=7ccd7d1b-e80d-4e4c-8c7d-8306c27fa828","ios":"levelo://app?vid=7ccd7d1b-e80d-4e4c-8c7d-8306c27fa828"},"vehicle_type_id":"4","last_reported":1742504954,"current_range_meters":10000,"station_id":"ce4bh492rcd13ifvqdvg","pricing_plan_id":"cebpf4jnsgd1na2vs0mg"},{"bike_id":"eaf0e84f-132e-4cc9-9549-dcdbdc99004b","system_id":"levelo_inurba_marseille","lat":43.29841,"lon":5.36272,"is_reserved":false,"is_disabled":false,"rental_uris":{"android":"levelo://app?vid=eaf0e84f-132e-4cc9-9549-dcdbdc99004b","ios":"levelo://app?vid=eaf0e84f-132e-4cc9-9549-dcdbdc99004b"},"vehicle_type_id":"4","last_reported":1742504954,"current_range_meters":10800,"station_id":"ce4bgpp2rcd13ifvqc3g","pricing_plan_id":"cebpf4jnsgd1na2vs0mg"},{"bike_id":"ce3fb986-9790-4457-a575-321e2fbef041","system_id":"levelo_inurba_marseille","lat":43.2809,"lon":5.37863,"is_reserved":false,"is_disabled":false,"rental_uris":{"android":"levelo://app?vid=ce3fb986-9790-4457-a575-321e2fbef041","ios":"levelo://app?vid=ce3fb986-9790-4457-a575-321e2fbef041"},"vehicle_type_id":"4","last_reported":1742504954,"current_range_meters":10800,"station_id":"ce4bha12rcd13ifvqee0","pricing_plan_id":"cebpf4jnsgd1na2vs0mg"},{"bike_id":"bb532565-2202-409c-9683-9edd37326f1b","system_id":"levelo_inurba_marseille","lat":43.28706,"lon":5.37394,"is_reserved":false,"is_disabled":false,"rental_uris":{"android":"levelo://app?vid=bb532565-2202-409c-9683-9edd37326f1b","ios":"levelo://app?vid=bb532565-2202-409c-9683-9edd37326f1b"},"vehicle_type_id":"4","last_reported":1742504954,"current_range_meters":10800,"station_id":"ce4bh3p2rcd13ifvqdq0","pricing_plan_id":"cebpf4jnsgd1na2vs0mg"},{"bike_id":"9f5b80fc-8e66-46f1-bdb8-51b3dd89e118","system_id":"levelo_inurba_marseille","lat":43.31075,"lon":5.3835,"is_reserved":false,"is_disabled":false,"rental_uris":{"android":"levelo://app?vid=9f5b80fc-8e66-46f1-bdb8-51b3dd89e118","ios":"levelo://app?vid=9f5b80fc-8e66-46f1-bdb8-51b3dd89e118"},"vehicle_type_id":"4","last_reported":1742504954,"current_range_meters":10800,"station_id":"ce4bgv92rcd13ifvqcr0","pricing_plan_id":"cebpf4jnsgd1na2vs0mg"},{"bike_id":"a83d89b4-34dc-4f00-ab7a-a53ca0d404af","system_id":"levelo_inurba_marseille","lat":43.28467,"lon":5.35885,"is_reserved":false,"is_disabled":false,"rental_uris":{"android":"levelo://app?vid=a83d89b4-34dc-4f00-ab7a-a53ca0d404af","ios":"levelo://app?vid=a83d89b4-34dc-4f00-ab7a-a53ca0d404af"},"vehicle_type_id":"4","last_reported":1742504954,"current_range_meters":10800,"station_id":"ce4bhah2rcd13ifvqei0","pricing_plan_id":"cebpf4jnsgd1na2vs0mg"},{"bike_id":"d80d9367-b4c7-4495-9d42-12d632cf5a06","system_id":"levelo_inurba_marseille","lat":43.28401,"lon":5.37535,"is_reserved":false,"is_disabled":false,"rental_uris":{"android":"levelo://app?vid=d80d9367-b4c7-4495-9d42-12d632cf5a06","ios":"levelo://app?vid=d80d9367-b4c7-4495-9d42-12d632cf5a06"},"vehicle_type_id":"4","last_reported":1742504954,"current_range_meters":10800,"station_id":"ce4bh412rcd13ifvqds0","pricing_plan_id":"cebpf4jnsgd1na2vs0mg"},{"bike_id":"c4185f15-0329-49c9-82d9-f59405c4a69c","system_id":"levelo_inurba_marseille","lat":43.30259,"lon":5.40062,"is_reserved":false,"is_disabled":false,"rental_uris":{"android":"levelo://app?vid=c4185f15-0329-49c9-82d9-f59405c4a69c","ios":"levelo://app?vid=c4185f15-0329-49c9-82d9-f59405c4a69c"},"vehicle_type_id":"4","last_reported":1742504954,"current_range_meters":10800,"station_id":"ce4bgvh2rcd13ifvqcs0","pricing_plan_id":"cebpf4jnsgd1na2vs0mg"},{"bike_id":"a5789bed-f7cb-4559-b17b-a8763c23b88c","system_id":"levelo_inurba_marseille","lat":43.30567,"lon":5.36539,"is_reserved":false,"is_disabled":false,"rental_uris":{"android":"levelo://app?vid=a5789bed-f7cb-4559-b17b-a8763c23b88c","ios":"levelo://app?vid=a5789bed-f7cb-4559-b17b-a8763c23b88c"},"vehicle_type_id":"4","last_reported":1742504954,"current_range_meters":10800,"station_id":"ce4bgs12rcd13ifvqcag","pricing_plan_id":"cebpf4jnsgd1na2vs0mg"},{"bike_id":"f75d32cd-32c5-4f70-9df2-f2320d24a18d","system_id":"levelo_inurba_marseille","lat":43.31999,"lon":5.38153,"is_reserved":false,"is_disabled":false,"rental_uris":{"android":"levelo://app?vid=f75d32cd-32c5-4f70-9df2-f2320d24a18d","ios":"levelo://app?vid=f75d32cd-32c5-4f70-9df2-f2320d24a18d"},"vehicle_type_id":"4","last_reported":1742504954,"current_range_meters":10800,"station_id":"ce4bhr12rcd13ifvqhpg","pricing_plan_id":"cebpf4jnsgd1na2vs0mg"},{"bike_id":"64eb4326-a936-4815-87ad-b69bb6fce8ba","system_id":"levelo_inurba_marseille","lat":43.29264,"lon":5.36845,"is_reserved":false,"is_disabled":false,"rental_uris":{"android":"levelo://app?vid=64eb4326-a936-4815-87ad-b69bb6fce8ba","ios":"levelo://app?vid=64eb4326-a936-4815-87ad-b69bb6fce8ba"},"vehicle_type_id":"4","last_reported":1742504954,"current_range_meters":11200,"station_id":"ce4bhbp2rcd13ifvqesg","pricing_plan_id":"cebpf4jnsgd1na2vs0mg"},{"bike_id":"1c3b5361-695c-4ccc-94f9-aca7f37b6d45","system_id":"levelo_inurba_marseille","lat":43.23181,"lon":5.35584,"is_reserved":false,"is_disabled":false,"rental_uris":{"android":"levelo://app?vid=1c3b5361-695c-4ccc-94f9-aca7f37b6d45","ios":"levelo://app?vid=1c3b5361-695c-4ccc-94f9-aca7f37b6d45"},"vehicle_type_id":"4","last_reported":1742504954,"current_range_meters":11200,"station_id":"ce4bhu92rcd13ifvqi70","pricing_plan_id":"cebpf4jnsgd1na2vs0mg"},{"bike_id":"82ebedbb-ce2e-43e2-9f6a-790708582ba9","system_id":"levelo_inurba_marseille","lat":43.31277,"lon":5.40172,"is_reserved":false,"is_disabled":false,"rental_uris":{"android":"levelo://app?vid=82ebedbb-ce2e-43e2-9f6a-790708582ba9","ios":"levelo://app?vid=82ebedbb-ce2e-43e2-9f6a-790708582ba9"},"vehicle_type_id":"4","last_reported":1742504954,"current_range_meters":11200,"station_id":"ce4bh092rcd13ifvqd30","pricing_plan_id":"cebpf4jnsgd1na2vs0mg"},{"bike_id":"00ca0197-50c9-4fc8-bfd3-df93e9fcc5eb","system_id":"levelo_inurba_marseille","lat":43.28698,"lon":5.39978,"is_reserved":false,"is_disabled":false,"rental_uris":{"android":"levelo://app?vid=00ca0197-50c9-4fc8-bfd3-df93e9fcc5eb","ios":"levelo://app?vid=00ca0197-50c9-4fc8-bfd3-df93e9fcc5eb"},"vehicle_type_id":"4","last_reported":1742504954,"current_range_meters":11200,"station_id":"ce4bho92rcd13ifvqh3g","pricing_plan_id":"cebpf4jnsgd1na2vs0mg"},{"bike_id":"39036aae-8f0c-4ed2-8157-a35d0a4f55ee","system_id":"levelo_inurba_marseille","lat":43.23983,"lon":5.36636,"is_reserved":false,"is_disabled":false,"rental_uris":{"android":"levelo://app?vid=39036aae-8f0c-4ed2-8157-a35d0a4f55ee","ios":"levelo://app?vid=39036aae-8f0c-4ed2-8157-a35d0a4f55ee"},"vehicle_type_id":"4","last_reported":1742504954,"current_range_meters":11200,"station_id":"ce4bhi12rcd13ifvqfp0","pricing_plan_id":"cebpf4jnsgd1na2vs0mg"},{"bike_id":"5682795d-e829-4c2a-be82-5d5f7a227b99","system_id":"levelo_inurba_marseille","lat":43.31788,"lon":5.37358,"is_reserved":false,"is_disabled":false,"rental_uris":{"android":"levelo://app?vid=5682795d-e829-4c2a-be82-5d5f7a227b99","ios":"levelo://app?vid=5682795d-e829-4c2a-be82-5d5f7a227b99"},"vehicle_type_id":"4","last_reported":1742504954,"current_range_meters":11200,"station_id":"","pricing_plan_id":"cebpf4jnsgd1na2vs0mg"},{"bike_id":"f930d63c-f5ce-4fd6-901c-3aceb31e4a48","system_id":"levelo_inurba_marseille","lat":43.29845,"lon":5.36262,"is_reserved":false,"is_disabled":false,"rental_uris":{"android":"levelo://app?vid=f930d63c-f5ce-4fd6-901c-3aceb31e4a48","ios":"levelo://app?vid=f930d63c-f5ce-4fd6-901c-3aceb31e4a48"},"vehicle_type_id":"4","last_reported":1742504954,"current_range_meters":10800,"station_id":"ce4bgpp2rcd13ifvqc3g","pricing_plan_id":"cebpf4jnsgd1na2vs0mg"},{"bike_id":"bf1827b2-9807-48b9-8b0b-2e2096f695ce","system_id":"levelo_inurba_marseille","lat":43.26225,"lon":5.40452,"is_reserved":false,"is_disabled":false,"rental_uris":{"android":"levelo://app?vid=bf1827b2-9807-48b9-8b0b-2e2096f695ce","ios":"levelo://app?vid=bf1827b2-9807-48b9-8b0b-2e2096f695ce"},"vehicle_type_id":"4","last_reported":1742504954,"current_range_meters":11200,"station_id":"ce4bhmh2rcd13ifvqgmg","pricing_plan_id":"cebpf4jnsgd1na2vs0mg"},{"bike_id":"a7fe0957-19c5-4692-9769-cafab82db1eb","system_id":"levelo_inurba_marseille","lat":43.289473,"lon":5.36396,"is_reserved":false,"is_disabled":false,"rental_uris":{"android":"levelo://app?vid=a7fe0957-19c5-4692-9769-cafab82db1eb","ios":"levelo://app?vid=a7fe0957-19c5-4692-9769-cafab82db1eb"},"vehicle_type_id":"4","last_reported":1742504954,"current_range_meters":11200,"station_id":"ce4bhc92rcd13ifvqetg","pricing_plan_id":"cebpf4jnsgd1na2vs0mg"},{"bike_id":"9d72b590-376e-48de-9f71-fb9c3868a5c2","system_id":"levelo_inurba_marseille","lat":43.28402,"lon":5.37535,"is_reserved":false,"is_disabled":false,"rental_uris":{"android":"levelo://app?vid=9d72b590-376e-48de-9f71-fb9c3868a5c2","ios":"levelo://app?vid=9d72b590-376e-48de-9f71-fb9c3868a5c2"},"vehicle_type_id":"4","last_reported":1742504954,"current_range_meters":11200,"station_id":"ce4bh412rcd13ifvqds0","pricing_plan_id":"cebpf4jnsgd1na2vs0mg"},{"bike_id":"d44778e8-1bb1-4731-a3b6-df7901299486","system_id":"levelo_inurba_marseille","lat":43.31067,"lon":5.38339,"is_reserved":false,"is_disabled":false,"rental_uris":{"android":"levelo://app?vid=d44778e8-1bb1-4731-a3b6-df7901299486","ios":"levelo://app?vid=d44778e8-1bb1-4731-a3b6-df7901299486"},"vehicle_type_id":"4","last_reported":1742504954,"current_range_meters":11200,"station_id":"ce4bgv92rcd13ifvqcr0","pricing_plan_id":"cebpf4jnsgd1na2vs0mg"},{"bike_id":"a674ca9e-fc9f-43a3-8cf2-5e28c3dc54d7","system_id":"levelo_inurba_marseille","lat":43.29572,"lon":5.39977,"is_reserved":false,"is_disabled":false,"rental_uris":{"android":"levelo://app?vid=a674ca9e-fc9f-43a3-8cf2-5e28c3dc54d7","ios":"levelo://app?vid=a674ca9e-fc9f-43a3-8cf2-5e28c3dc54d7"},"vehicle_type_id":"4","last_reported":1742504954,"current_range_meters":11200,"station_id":"ce4bh312rcd13ifvqdj0","pricing_plan_id":"cebpf4jnsgd1na2vs0mg"},{"bike_id":"13b40ed5-bac7-4994-8482-fe1837487301","system_id":"levelo_inurba_marseille","lat":43.29412,"lon":5.38625,"is_reserved":false,"is_disabled":false,"rental_uris":{"android":"levelo://app?vid=13b40ed5-bac7-4994-8482-fe1837487301","ios":"levelo://app?vid=13b40ed5-bac7-4994-8482-fe1837487301"},"vehicle_type_id":"4","last_reported":1742504954,"current_range_meters":11200,"station_id":"ce4bh2h2rcd13ifvqdh0","pricing_plan_id":"cebpf4jnsgd1na2vs0mg"},{"bike_id":"ee6dcfff-de64-43d2-9d0d-fec54596b674","system_id":"levelo_inurba_marseille","lat":43.29542,"lon":5.38542,"is_reserved":false,"is_disabled":false,"rental_uris":{"android":"levelo://app?vid=ee6dcfff-de64-43d2-9d0d-fec54596b674","ios":"levelo://app?vid=ee6dcfff-de64-43d2-9d0d-fec54596b674"},"vehicle_type_id":"4","last_reported":1742504954,"current_range_meters":11200,"station_id":"ce4bgih2rcd13ifvqba0","pricing_plan_id":"cebpf4jnsgd1na2vs0mg"},{"bike_id":"86859bc8-cdf3-4c55-a231-e1ff87943727","system_id":"levelo_inurba_marseille","lat":43.31476,"lon":5.37305,"is_reserved":false,"is_disabled":false,"rental_uris":{"android":"levelo://app?vid=86859bc8-cdf3-4c55-a231-e1ff87943727","ios":"levelo://app?vid=86859bc8-cdf3-4c55-a231-e1ff87943727"},"vehicle_type_id":"4","last_reported":1742504954,"current_range_meters":11600,"station_id":"ce4bgt12rcd13ifvqcd0","pricing_plan_id":"cebpf4jnsgd1na2vs0mg"},{"bike_id":"c0794326-8ccf-4cb5-8fdb-04082c74a467","system_id":"levelo_inurba_marseille","lat":43.31337,"lon":5.3671,"is_reserved":false,"is_disabled":false,"rental_uris":{"android":"levelo://app?vid=c0794326-8ccf-4cb5-8fdb-04082c74a467","ios":"levelo://app?vid=c0794326-8ccf-4cb5-8fdb-04082c74a467"},"vehicle_type_id":"4","last_reported":1742504954,"current_range_meters":11600,"station_id":"ce4bgr92rcd13ifvqc6g","pricing_plan_id":"cebpf4jnsgd1na2vs0mg"},{"bike_id":"b3719746-c60a-4842-88f3-18ffa13da340","system_id":"levelo_inurba_marseille","lat":43.2783,"lon":5.39213,"is_reserved":false,"is_disabled":false,"rental_uris":{"android":"levelo://app?vid=b3719746-c60a-4842-88f3-18ffa13da340","ios":"levelo://app?vid=b3719746-c60a-4842-88f3-18ffa13da340"},"vehicle_type_id":"4","last_reported":1742504954,"current_range_meters":11600,"station_id":"ce4bhjp2rcd13ifvqga0","pricing_plan_id":"cebpf4jnsgd1na2vs0mg"},{"bike_id":"611cf6a7-c612-4e85-9234-539bfc7b6df7","system_id":"levelo_inurba_marseille","lat":43.34137,"lon":5.40901,"is_reserved":false,"is_disabled":false,"rental_uris":{"android":"levelo://app?vid=611cf6a7-c612-4e85-9234-539bfc7b6df7","ios":"levelo://app?vid=611cf6a7-c612-4e85-9234-539bfc7b6df7"},"vehicle_type_id":"4","last_reported":1742504954,"current_range_meters":11600,"station_id":"ce4bhqh2rcd13ifvqhlg","pricing_plan_id":"cebpf4jnsgd1na2vs0mg"},{"bike_id":"2678929a-312d-4089-b116-1e816de7db90","system_id":"levelo_inurba_marseille","lat":43.32124,"lon":5.36756,"is_reserved":false,"is_disabled":false,"rental_uris":{"android":"levelo://app?vid=2678929a-312d-4089-b116-1e816de7db90","ios":"levelo://app?vid=2678929a-312d-4089-b116-1e816de7db90"},"vehicle_type_id":"4","last_reported":1742504954,"current_range_meters":11600,"station_id":"ce4bhrh2rcd13ifvqhug","pricing_plan_id":"cebpf4jnsgd1na2vs0mg"},{"bike_id":"a8e54271-f43e-4238-be61-5a0d0f7d1259","system_id":"levelo_inurba_marseille","lat":43.24707,"lon":5.38126,"is_reserved":false,"is_disabled":false,"rental_uris":{"android":"levelo://app?vid=a8e54271-f43e-4238-be61-5a0d0f7d1259","ios":"levelo://app?vid=a8e54271-f43e-4238-be61-5a0d0f7d1259"},"vehicle_type_id":"4","last_reported":1742504954,"current_range_meters":11600,"station_id":"ce4bhih2rcd13ifvqfr0","pricing_plan_id":"cebpf4jnsgd1na2vs0mg"},{"bike_id":"6f1cc75a-800d-4037-bf36-968b0433235e","system_id":"levelo_inurba_marseille","lat":43.297123,"lon":5.366016,"is_reserved":false,"is_disabled":false,"rental_uris":{"android":"levelo://app?vid=6f1cc75a-800d-4037-bf36-968b0433235e","ios":"levelo://app?vid=6f1cc75a-800d-4037-bf36-968b0433235e"},"vehicle_type_id":"4","last_reported":1742504954,"current_range_meters":11600,"station_id":"ce4bh612rcd13ifvqe6g","pricing_plan_id":"cebpf4jnsgd1na2vs0mg"},{"bike_id":"1295e912-beee-47fe-a5c8-2ae149d6d129","system_id":"levelo_inurba_marseille","lat":43.31723,"lon":5.3773,"is_reserved":false,"is_disabled":false,"rental_uris":{"android":"levelo://app?vid=1295e912-beee-47fe-a5c8-2ae149d6d129","ios":"levelo://app?vid=1295e912-beee-47fe-a5c8-2ae149d6d129"},"vehicle_type_id":"4","last_reported":1742504954,"current_range_meters":11600,"station_id":"ce4bgth2rcd13ifvqch0","pricing_plan_id":"cebpf4jnsgd1na2vs0mg"},{"bike_id":"24016567-79c9-417a-ad0a-921105cb0978","system_id":"levelo_inurba_marseille","lat":43.32324,"lon":5.38889,"is_reserved":false,"is_disabled":false,"rental_uris":{"android":"levelo://app?vid=24016567-79c9-417a-ad0a-921105cb0978","ios":"levelo://app?vid=24016567-79c9-417a-ad0a-921105cb0978"},"vehicle_type_id":"4","last_reported":1742504954,"current_range_meters":11600,"station_id":"ce4bhqp2rcd13ifvqhog","pricing_plan_id":"cebpf4jnsgd1na2vs0mg"},{"bike_id":"2b124485-3f63-417d-9cde-2aed42bc55d1","system_id":"levelo_inurba_marseille","lat":43.28113,"lon":5.37836,"is_reserved":false,"is_disabled":false,"rental_uris":{"android":"levelo://app?vid=2b124485-3f63-417d-9cde-2aed42bc55d1","ios":"levelo://app?vid=2b124485-3f63-417d-9cde-2aed42bc55d1"},"vehicle_type_id":"4","last_reported":1742504954,"current_range_meters":11600,"station_id":"ce4bha12rcd13ifvqee0","pricing_plan_id":"cebpf4jnsgd1na2vs0mg"},{"bike_id":"02d92700-8163-4b32-bca7-c3f8c60ce5b9","system_id":"levelo_inurba_marseille","lat":43.25125,"lon":5.4031,"is_reserved":false,"is_disabled":false,"rental_uris":{"android":"levelo://app?vid=02d92700-8163-4b32-bca7-c3f8c60ce5b9","ios":"levelo://app?vid=02d92700-8163-4b32-bca7-c3f8c60ce5b9"},"vehicle_type_id":"4","last_reported":1742504954,"current_range_meters":11600,"station_id":"ce4bhlh2rcd13ifvqgig","pricing_plan_id":"cebpf4jnsgd1na2vs0mg"},{"bike_id":"9d2ff536-e19a-4caa-b96e-52ad76a59ec0","system_id":"levelo_inurba_marseille","lat":43.31165,"lon":5.38722,"is_reserved":false,"is_disabled":false,"rental_uris":{"android":"levelo://app?vid=9d2ff536-e19a-4caa-b96e-52ad76a59ec0","ios":"levelo://app?vid=9d2ff536-e19a-4caa-b96e-52ad76a59ec0"},"vehicle_type_id":"4","last_reported":1742504954,"current_range_meters":11600,"station_id":"ce4bgv12rcd13ifvqcp0","pricing_plan_id":"cebpf4jnsgd1na2vs0mg"},{"bike_id":"ea8117b5-be8a-4eb4-b34f-ca48496db485","system_id":"levelo_inurba_marseille","lat":43.2906,"lon":5.37156,"is_reserved":false,"is_disabled":false,"rental_uris":{"android":"levelo://app?vid=ea8117b5-be8a-4eb4-b34f-ca48496db485","ios":"levelo://app?vid=ea8117b5-be8a-4eb4-b34f-ca48496db485"},"vehicle_type_id":"4","last_reported":1742504954,"current_range_meters":11600,"station_id":"ce4bh5p2rcd13ifvqe4g","pricing_plan_id":"cebpf4jnsgd1na2vs0mg"},{"bike_id":"fa4d95d1-8784-4d6d-b5b6-d62c478aad3f","system_id":"levelo_inurba_marseille","lat":43.29523,"lon":5.39394,"is_reserved":false,"is_disabled":false,"rental_uris":{"android":"levelo://app?vid=fa4d95d1-8784-4d6d-b5b6-d62c478aad3f","ios":"levelo://app?vid=fa4d95d1-8784-4d6d-b5b6-d62c478aad3f"},"vehicle_type_id":"4","last_reported":1742504954,"current_range_meters":12000,"station_id":"ce4bh292rcd13ifvqdf0","pricing_plan_id":"cebpf4jnsgd1na2vs0mg"},{"bike_id":"eca27a81-a303-407b-9584-1b4a67bf83d4","system_id":"levelo_inurba_marseille","lat":43.24072,"lon":5.37762,"is_reserved":false,"is_disabled":false,"rental_uris":{"android":"levelo://app?vid=eca27a81-a303-407b-9584-1b4a67bf83d4","ios":"levelo://app?vid=eca27a81-a303-407b-9584-1b4a67bf83d4"},"vehicle_type_id":"4","last_reported":1742504954,"current_range_meters":12000,"station_id":"ce4bhnp2rcd13ifvqgvg","pricing_plan_id":"cebpf4jnsgd1na2vs0mg"},{"bike_id":"34007fb0-4805-47bb-9eb5-a0b31c89d91e","system_id":"levelo_inurba_marseille","lat":43.29875,"lon":5.39729,"is_reserved":false,"is_disabled":false,"rental_uris":{"android":"levelo://app?vid=34007fb0-4805-47bb-9eb5-a0b31c89d91e","ios":"levelo://app?vid=34007fb0-4805-47bb-9eb5-a0b31c89d91e"},"vehicle_type_id":"4","last_reported":1742504954,"current_range_meters":12000,"station_id":"ce4bh0h2rcd13ifvqd50","pricing_plan_id":"cebpf4jnsgd1na2vs0mg"},{"bike_id":"a67c54b6-5ce9-4632-8070-5ca7d5b7fc9e","system_id":"levelo_inurba_marseille","lat":43.23068,"lon":5.3549,"is_reserved":false,"is_disabled":false,"rental_uris":{"android":"levelo://app?vid=a67c54b6-5ce9-4632-8070-5ca7d5b7fc9e","ios":"levelo://app?vid=a67c54b6-5ce9-4632-8070-5ca7d5b7fc9e"},"vehicle_type_id":"4","last_reported":1742504954,"current_range_meters":12000,"station_id":"cpo3342slgdg3j2ifvpg","pricing_plan_id":"cebpf4jnsgd1na2vs0mg"},{"bike_id":"cd6d272d-7f4c-4a49-87e6-6c3630524a40","system_id":"levelo_inurba_marseille","lat":43.25571,"lon":5.38238,"is_reserved":false,"is_disabled":false,"rental_uris":{"android":"levelo://app?vid=cd6d272d-7f4c-4a49-87e6-6c3630524a40","ios":"levelo://app?vid=cd6d272d-7f4c-4a49-87e6-6c3630524a40"},"vehicle_type_id":"4","last_reported":1742504954,"current_range_meters":12000,"station_id":"ce4bhih2rcd13ifvqfs0","pricing_plan_id":"cebpf4jnsgd1na2vs0mg"},{"bike_id":"127f04cb-152d-4157-a29d-035e26177aec","system_id":"levelo_inurba_marseille","lat":43.28569,"lon":5.39498,"is_reserved":false,"is_disabled":false,"rental_uris":{"android":"levelo://app?vid=127f04cb-152d-4157-a29d-035e26177aec","ios":"levelo://app?vid=127f04cb-152d-4157-a29d-035e26177aec"},"vehicle_type_id":"4","last_reported":1742504954,"current_range_meters":12400,"station_id":"ce4bh292rcd13ifvqdg0","pricing_plan_id":"cebpf4jnsgd1na2vs0mg"},{"bike_id":"267c0ddd-8a3b-4953-8f7f-743c96a7de97","system_id":"levelo_inurba_marseille","lat":43.29552,"lon":5.42289,"is_reserved":false,"is_disabled":false,"rental_uris":{"android":"levelo://app?vid=267c0ddd-8a3b-4953-8f7f-743c96a7de97","ios":"levelo://app?vid=267c0ddd-8a3b-4953-8f7f-743c96a7de97"},"vehicle_type_id":"4","last_reported":1742504954,"current_range_meters":12400,"station_id":"ce4bhph2rcd13ifvqhdg","pricing_plan_id":"cebpf4jnsgd1na2vs0mg"},{"bike_id":"90ed294f-924d-4f4d-b687-f15c2e696ec8","system_id":"levelo_inurba_marseille","lat":43.2845,"lon":5.3589,"is_reserved":false,"is_disabled":false,"rental_uris":{"android":"levelo://app?vid=90ed294f-924d-4f4d-b687-f15c2e696ec8","ios":"levelo://app?vid=90ed294f-924d-4f4d-b687-f15c2e696ec8"},"vehicle_type_id":"4","last_reported":1742504954,"current_range_meters":12400,"station_id":"ce4bhah2rcd13ifvqei0","pricing_plan_id":"cebpf4jnsgd1na2vs0mg"},{"bike_id":"bf5d7bdb-65a8-4310-b955-6a76e2cbd7fe","system_id":"levelo_inurba_marseille","lat":43.33731,"lon":5.39181,"is_reserved":false,"is_disabled":false,"rental_uris":{"android":"levelo://app?vid=bf5d7bdb-65a8-4310-b955-6a76e2cbd7fe","ios":"levelo://app?vid=bf5d7bdb-65a8-4310-b955-6a76e2cbd7fe"},"vehicle_type_id":"4","last_reported":1742504954,"current_range_meters":12400,"station_id":"ce4bhr92rcd13ifvqhsg","pricing_plan_id":"cebpf4jnsgd1na2vs0mg"},{"bike_id":"45e10d91-7143-467f-a982-673436c38be7","system_id":"levelo_inurba_marseille","lat":43.27661,"lon":5.38911,"is_reserved":false,"is_disabled":false,"rental_uris":{"android":"levelo://app?vid=45e10d91-7143-467f-a982-673436c38be7","ios":"levelo://app?vid=45e10d91-7143-467f-a982-673436c38be7"},"vehicle_type_id":"4","last_reported":1742504954,"current_range_meters":12000,"station_id":"ce4bhi12rcd13ifvqfo0","pricing_plan_id":"cebpf4jnsgd1na2vs0mg"},{"bike_id":"047e5970-8daa-41b8-aeee-f3b49ecc2693","system_id":"levelo_inurba_marseille","lat":43.28461,"lon":5.35878,"is_reserved":false,"is_disabled":false,"rental_uris":{"android":"levelo://app?vid=047e5970-8daa-41b8-aeee-f3b49ecc2693","ios":"levelo://app?vid=047e5970-8daa-41b8-aeee-f3b49ecc2693"},"vehicle_type_id":"4","last_reported":1742504954,"current_range_meters":12400,"station_id":"ce4bhah2rcd13ifvqei0","pricing_plan_id":"cebpf4jnsgd1na2vs0mg"},{"bike_id":"53c5623d-273f-4f47-b264-a64d42ca6e47","system_id":"levelo_inurba_marseille","lat":43.31409,"lon":5.37425,"is_reserved":false,"is_disabled":false,"rental_uris":{"android":"levelo://app?vid=53c5623d-273f-4f47-b264-a64d42ca6e47","ios":"levelo://app?vid=53c5623d-273f-4f47-b264-a64d42ca6e47"},"vehicle_type_id":"4","last_reported":1742504954,"current_range_meters":12400,"station_id":"","pricing_plan_id":"cebpf4jnsgd1na2vs0mg"},{"bike_id":"e7099a91-f011-4f51-8f8e-c8f0d1018eb5","system_id":"levelo_inurba_marseille","lat":43.23189,"lon":5.39966,"is_reserved":false,"is_disabled":false,"rental_uris":{"android":"levelo://app?vid=e7099a91-f011-4f51-8f8e-c8f0d1018eb5","ios":"levelo://app?vid=e7099a91-f011-4f51-8f8e-c8f0d1018eb5"},"vehicle_type_id":"4","last_reported":1742504954,"current_range_meters":12400,"station_id":"ce4bhn12rcd13ifvqgqg","pricing_plan_id":"cebpf4jnsgd1na2vs0mg"},{"bike_id":"ff637776-2d40-4944-870f-2327b29b45f0","system_id":"levelo_inurba_marseille","lat":43.28702,"lon":5.37388,"is_reserved":false,"is_disabled":false,"rental_uris":{"android":"levelo://app?vid=ff637776-2d40-4944-870f-2327b29b45f0","ios":"levelo://app?vid=ff637776-2d40-4944-870f-2327b29b45f0"},"vehicle_type_id":"4","last_reported":1742504954,"current_range_meters":12400,"station_id":"ce4bh3p2rcd13ifvqdq0","pricing_plan_id":"cebpf4jnsgd1na2vs0mg"},{"bike_id":"f2387910-c486-4275-a7ab-dbeb87afdc12","system_id":"levelo_inurba_marseille","lat":43.33718,"lon":5.39183,"is_reserved":false,"is_disabled":false,"rental_uris":{"android":"levelo://app?vid=f2387910-c486-4275-a7ab-dbeb87afdc12","ios":"levelo://app?vid=f2387910-c486-4275-a7ab-dbeb87afdc12"},"vehicle_type_id":"4","last_reported":1742504954,"current_range_meters":12800,"station_id":"ce4bhr92rcd13ifvqhsg","pricing_plan_id":"cebpf4jnsgd1na2vs0mg"},{"bike_id":"28a8c5cb-d6b9-4354-80f8-901f45b27f4f","system_id":"levelo_inurba_marseille","lat":43.31081,"lon":5.38349,"is_reserved":false,"is_disabled":false,"rental_uris":{"android":"levelo://app?vid=28a8c5cb-d6b9-4354-80f8-901f45b27f4f","ios":"levelo://app?vid=28a8c5cb-d6b9-4354-80f8-901f45b27f4f"},"vehicle_type_id":"4","last_reported":1742504954,"current_range_meters":12800,"station_id":"ce4bgv92rcd13ifvqcr0","pricing_plan_id":"cebpf4jnsgd1na2vs0mg"},{"bike_id":"58994512-dced-4148-9bcf-500258c8aa19","system_id":"levelo_inurba_marseille","lat":43.28262,"lon":5.35067,"is_reserved":false,"is_disabled":false,"rental_uris":{"android":"levelo://app?vid=58994512-dced-4148-9bcf-500258c8aa19","ios":"levelo://app?vid=58994512-dced-4148-9bcf-500258c8aa19"},"vehicle_type_id":"4","last_reported":1742504954,"current_range_meters":12800,"station_id":"ce4bhbp2rcd13ifvqerg","pricing_plan_id":"cebpf4jnsgd1na2vs0mg"},{"bike_id":"6c330427-92a6-4314-a091-866c54ffa826","system_id":"levelo_inurba_marseille","lat":43.2943,"lon":5.38616,"is_reserved":false,"is_disabled":false,"rental_uris":{"android":"levelo://app?vid=6c330427-92a6-4314-a091-866c54ffa826","ios":"levelo://app?vid=6c330427-92a6-4314-a091-866c54ffa826"},"vehicle_type_id":"4","last_reported":1742504954,"current_range_meters":12800,"station_id":"ce4bh2h2rcd13ifvqdh0","pricing_plan_id":"cebpf4jnsgd1na2vs0mg"},{"bike_id":"adf1442b-34a0-4885-b3ba-d26a7beec424","system_id":"levelo_inurba_marseille","lat":43.25074,"lon":5.39514,"is_reserved":false,"is_disabled":false,"rental_uris":{"android":"levelo://app?vid=adf1442b-34a0-4885-b3ba-d26a7beec424","ios":"levelo://app?vid=adf1442b-34a0-4885-b3ba-d26a7beec424"},"vehicle_type_id":"4","last_reported":1742504954,"current_range_meters":12800,"station_id":"ce4bhm12rcd13ifvqgkg","pricing_plan_id":"cebpf4jnsgd1na2vs0mg"},{"bike_id":"94ea12e2-4f7a-41b1-9bbe-5736f367cd97","system_id":"levelo_inurba_marseille","lat":43.27982,"lon":5.40064,"is_reserved":false,"is_disabled":false,"rental_uris":{"android":"levelo://app?vid=94ea12e2-4f7a-41b1-9bbe-5736f367cd97","ios":"levelo://app?vid=94ea12e2-4f7a-41b1-9bbe-5736f367cd97"},"vehicle_type_id":"4","last_reported":1742504954,"current_range_meters":12800,"station_id":"ce4bho92rcd13ifvqh4g","pricing_plan_id":"cebpf4jnsgd1na2vs0mg"},{"bike_id":"ff066277-3122-404f-8fc9-18b331abea9b","system_id":"levelo_inurba_marseille","lat":43.23187,"lon":5.39993,"is_reserved":false,"is_disabled":false,"rental_uris":{"android":"levelo://app?vid=ff066277-3122-404f-8fc9-18b331abea9b","ios":"levelo://app?vid=ff066277-3122-404f-8fc9-18b331abea9b"},"vehicle_type_id":"4","last_reported":1742504954,"current_range_meters":12800,"station_id":"ce4bhn12rcd13ifvqgqg","pricing_plan_id":"cebpf4jnsgd1na2vs0mg"},{"bike_id":"aba7a31c-d1db-4bb4-ba56-e84838fed699","system_id":"levelo_inurba_marseille","lat":43.24653,"lon":5.389,"is_reserved":false,"is_disabled":false,"rental_uris":{"android":"levelo://app?vid=aba7a31c-d1db-4bb4-ba56-e84838fed699","ios":"levelo://app?vid=aba7a31c-d1db-4bb4-ba56-e84838fed699"},"vehicle_type_id":"4","last_reported":1742504954,"current_range_meters":12800,"station_id":"ce4bhg12rcd13ifvqf60","pricing_plan_id":"cebpf4jnsgd1na2vs0mg"},{"bike_id":"64f3f160-3d41-4047-a7c4-5d9924ce80c7","system_id":"levelo_inurba_marseille","lat":43.25825,"lon":5.39461,"is_reserved":false,"is_disabled":false,"rental_uris":{"android":"levelo://app?vid=64f3f160-3d41-4047-a7c4-5d9924ce80c7","ios":"levelo://app?vid=64f3f160-3d41-4047-a7c4-5d9924ce80c7"},"vehicle_type_id":"4","last_reported":1742504954,"current_range_meters":12800,"station_id":"ce4bhip2rcd13ifvqft0","pricing_plan_id":"cebpf4jnsgd1na2vs0mg"},{"bike_id":"7dc3877e-60b6-41b6-adfc-10dc6e37ab70","system_id":"levelo_inurba_marseille","lat":43.29522,"lon":5.38533,"is_reserved":false,"is_disabled":false,"rental_uris":{"android":"levelo://app?vid=7dc3877e-60b6-41b6-adfc-10dc6e37ab70","ios":"levelo://app?vid=7dc3877e-60b6-41b6-adfc-10dc6e37ab70"},"vehicle_type_id":"4","last_reported":1742504954,"current_range_meters":13600,"station_id":"ce4bgih2rcd13ifvqba0","pricing_plan_id":"cebpf4jnsgd1na2vs0mg"},{"bike_id":"14da4850-f67c-4735-8949-7d2104a1e24b","system_id":"levelo_inurba_marseille","lat":43.2397,"lon":5.36625,"is_reserved":false,"is_disabled":false,"rental_uris":{"android":"levelo://app?vid=14da4850-f67c-4735-8949-7d2104a1e24b","ios":"levelo://app?vid=14da4850-f67c-4735-8949-7d2104a1e24b"},"vehicle_type_id":"4","last_reported":1742504954,"current_range_meters":13600,"station_id":"ce4bhi12rcd13ifvqfp0","pricing_plan_id":"cebpf4jnsgd1na2vs0mg"},{"bike_id":"0b019192-8c6b-4858-837a-0a5ae7ca41a8","system_id":"levelo_inurba_marseille","lat":43.29894,"lon":5.38867,"is_reserved":false,"is_disabled":false,"rental_uris":{"android":"levelo://app?vid=0b019192-8c6b-4858-837a-0a5ae7ca41a8","ios":"levelo://app?vid=0b019192-8c6b-4858-837a-0a5ae7ca41a8"},"vehicle_type_id":"4","last_reported":1742504954,"current_range_meters":13600,"station_id":"ce4bh392rcd13ifvqdl0","pricing_plan_id":"cebpf4jnsgd1na2vs0mg"},{"bike_id":"f4533999-a426-48de-99cd-0bd7fa053307","system_id":"levelo_inurba_marseille","lat":43.27552,"lon":5.43706,"is_reserved":false,"is_disabled":false,"rental_uris":{"android":"levelo://app?vid=f4533999-a426-48de-99cd-0bd7fa053307","ios":"levelo://app?vid=f4533999-a426-48de-99cd-0bd7fa053307"},"vehicle_type_id":"4","last_reported":1742504954,"current_range_meters":13600,"station_id":"","pricing_plan_id":"cebpf4jnsgd1na2vs0mg"},{"bike_id":"9ec0e5f2-fcfa-4dc0-8f5c-1c539a075b5a","system_id":"levelo_inurba_marseille","lat":43.26227,"lon":5.40448,"is_reserved":false,"is_disabled":false,"rental_uris":{"android":"levelo://app?vid=9ec0e5f2-fcfa-4dc0-8f5c-1c539a075b5a","ios":"levelo://app?vid=9ec0e5f2-fcfa-4dc0-8f5c-1c539a075b5a"},"vehicle_type_id":"4","last_reported":1742504954,"current_range_meters":13600,"station_id":"ce4bhmh2rcd13ifvqgmg","pricing_plan_id":"cebpf4jnsgd1na2vs0mg"},{"bike_id":"6ba2c72d-d1b6-4104-b483-11eb2cd9cb1f","system_id":"levelo_inurba_marseille","lat":43.24697,"lon":5.38131,"is_reserved":false,"is_disabled":false,"rental_uris":{"android":"levelo://app?vid=6ba2c72d-d1b6-4104-b483-11eb2cd9cb1f","ios":"levelo://app?vid=6ba2c72d-d1b6-4104-b483-11eb2cd9cb1f"},"vehicle_type_id":"4","last_reported":1742504954,"current_range_meters":13600,"station_id":"ce4bhih2rcd13ifvqfr0","pricing_plan_id":"cebpf4jnsgd1na2vs0mg"},{"bike_id":"6c45e6f5-2aee-4298-90f3-a0fdc7724ae1","system_id":"levelo_inurba_marseille","lat":43.29184,"lon":5.35794,"is_reserved":false,"is_disabled":false,"rental_uris":{"android":"levelo://app?vid=6c45e6f5-2aee-4298-90f3-a0fdc7724ae1","ios":"levelo://app?vid=6c45e6f5-2aee-4298-90f3-a0fdc7724ae1"},"vehicle_type_id":"4","last_reported":1742504954,"current_range_meters":13600,"station_id":"ce4bhb12rcd13ifvqel0","pricing_plan_id":"cebpf4jnsgd1na2vs0mg"},{"bike_id":"acedcbad-f439-4ac2-b583-efb5f44eba1d","system_id":"levelo_inurba_marseille","lat":43.29416,"lon":5.38611,"is_reserved":false,"is_disabled":true,"rental_uris":{"android":"levelo://app?vid=acedcbad-f439-4ac2-b583-efb5f44eba1d","ios":"levelo://app?vid=acedcbad-f439-4ac2-b583-efb5f44eba1d"},"vehicle_type_id":"4","last_reported":1742504954,"current_range_meters":13600,"station_id":"ce4bh2h2rcd13ifvqdh0","pricing_plan_id":"cebpf4jnsgd1na2vs0mg"},{"bike_id":"e93c5d1e-aec2-48d6-9b14-d8ef7c2d803d","system_id":"levelo_inurba_marseille","lat":43.30249,"lon":5.40049,"is_reserved":false,"is_disabled":false,"rental_uris":{"android":"levelo://app?vid=e93c5d1e-aec2-48d6-9b14-d8ef7c2d803d","ios":"levelo://app?vid=e93c5d1e-aec2-48d6-9b14-d8ef7c2d803d"},"vehicle_type_id":"4","last_reported":1742504954,"current_range_meters":13600,"station_id":"ce4bgvh2rcd13ifvqcs0","pricing_plan_id":"cebpf4jnsgd1na2vs0mg"},{"bike_id":"2605817b-6d9d-44a7-bb7f-db92a902278f","system_id":"levelo_inurba_marseille","lat":43.24076,"lon":5.37759,"is_reserved":false,"is_disabled":false,"rental_uris":{"android":"levelo://app?vid=2605817b-6d9d-44a7-bb7f-db92a902278f","ios":"levelo://app?vid=2605817b-6d9d-44a7-bb7f-db92a902278f"},"vehicle_type_id":"4","last_reported":1742504954,"current_range_meters":14000,"station_id":"ce4bhnp2rcd13ifvqgvg","pricing_plan_id":"cebpf4jnsgd1na2vs0mg"},{"bike_id":"b7dcef9e-c626-4f67-8635-e69c0d23398b","system_id":"levelo_inurba_marseille","lat":43.28365,"lon":5.38644,"is_reserved":false,"is_disabled":false,"rental_uris":{"android":"levelo://app?vid=b7dcef9e-c626-4f67-8635-e69c0d23398b","ios":"levelo://app?vid=b7dcef9e-c626-4f67-8635-e69c0d23398b"},"vehicle_type_id":"4","last_reported":1742504954,"current_range_meters":14000,"station_id":"ce4bh492rcd13ifvqdvg","pricing_plan_id":"cebpf4jnsgd1na2vs0mg"},{"bike_id":"d95e8599-7c3a-4015-83ce-3263f4b5326c","system_id":"levelo_inurba_marseille","lat":43.25719,"lon":5.41119,"is_reserved":false,"is_disabled":false,"rental_uris":{"android":"levelo://app?vid=d95e8599-7c3a-4015-83ce-3263f4b5326c","ios":"levelo://app?vid=d95e8599-7c3a-4015-83ce-3263f4b5326c"},"vehicle_type_id":"4","last_reported":1742504954,"current_range_meters":14000,"station_id":"ce4bhkp2rcd13ifvqgd0","pricing_plan_id":"cebpf4jnsgd1na2vs0mg"},{"bike_id":"a81e7547-55d7-4c1c-a724-2c96fce552a8","system_id":"levelo_inurba_marseille","lat":43.2396,"lon":5.36638,"is_reserved":false,"is_disabled":false,"rental_uris":{"android":"levelo://app?vid=a81e7547-55d7-4c1c-a724-2c96fce552a8","ios":"levelo://app?vid=a81e7547-55d7-4c1c-a724-2c96fce552a8"},"vehicle_type_id":"4","last_reported":1742504954,"current_range_meters":14000,"station_id":"ce4bhi12rcd13ifvqfp0","pricing_plan_id":"cebpf4jnsgd1na2vs0mg"},{"bike_id":"50846038-c6b0-4085-acbb-6487c7594222","system_id":"levelo_inurba_marseille","lat":43.28446,"lon":5.39201,"is_reserved":false,"is_disabled":false,"rental_uris":{"android":"levelo://app?vid=50846038-c6b0-4085-acbb-6487c7594222","ios":"levelo://app?vid=50846038-c6b0-4085-acbb-6487c7594222"},"vehicle_type_id":"4","last_reported":1742504954,"current_range_meters":14000,"station_id":"ce4bhoh2rcd13ifvqh5g","pricing_plan_id":"cebpf4jnsgd1na2vs0mg"},{"bike_id":"9b513519-6571-4512-9426-8178711eafb7","system_id":"levelo_inurba_marseille","lat":43.29456,"lon":5.39737,"is_reserved":false,"is_disabled":true,"rental_uris":{"android":"levelo://app?vid=9b513519-6571-4512-9426-8178711eafb7","ios":"levelo://app?vid=9b513519-6571-4512-9426-8178711eafb7"},"vehicle_type_id":"4","last_reported":1742504954,"current_range_meters":14000,"station_id":"ce4bh3h2rcd13ifvqdo0","pricing_plan_id":"cebpf4jnsgd1na2vs0mg"},{"bike_id":"563086a8-8515-4d07-a2d8-6c7fc246f529","system_id":"levelo_inurba_marseille","lat":43.25831,"lon":5.39431,"is_reserved":false,"is_disabled":false,"rental_uris":{"android":"levelo://app?vid=563086a8-8515-4d07-a2d8-6c7fc246f529","ios":"levelo://app?vid=563086a8-8515-4d07-a2d8-6c7fc246f529"},"vehicle_type_id":"4","last_reported":1742504954,"current_range_meters":14400,"station_id":"ce4bhip2rcd13ifvqft0","pricing_plan_id":"cebpf4jnsgd1na2vs0mg"},{"bike_id":"be874d91-1e07-4653-802e-2a65c0cadf30","system_id":"levelo_inurba_marseille","lat":43.28107,"lon":5.37837,"is_reserved":false,"is_disabled":false,"rental_uris":{"android":"levelo://app?vid=be874d91-1e07-4653-802e-2a65c0cadf30","ios":"levelo://app?vid=be874d91-1e07-4653-802e-2a65c0cadf30"},