{"last_updated":1731690465,"ttl":60,"version":"2.2","data":{"bikes":[{"bike_id":"ff72190c-7ee7-4bff-85e1-c80630b9211b","system_id":"levelo_inurba_marseille","lat":43.26805,"lon":5.40267,"is_reserved":false,"is_disabled":false,"rental_uris":{"android":"levelo://app?vid=ff72190c-7ee7-4bff-85e1-c80630b9211b","ios":"levelo://app?vid=ff72190c-7ee7-4bff-85e1-c80630b9211b"},"vehicle_type_id":"4","last_reported":1731690465,"current_range_meters":24400,"station_id":"ce501612rcd8frsf0b60","pricing_plan_id":"cebpf4jnsgd1na2vs0mg"},{"bike_id":"a6f560c6-d6c4-41ef-9b9f-29abb0ca022d","system_id":"levelo_inurba_marseille","lat":43.29279,"lon":5.4012,"is_reserved":false,"is_disabled":false,"rental_uris":{"android":"levelo://app?vid=a6f560c6-d6c4-41ef-9b9f-29abb0ca022d","ios":"levelo://app?vid=a6f560c6-d6c4-41ef-9b9f-29abb0ca022d"},"vehicle_type_id":"4","last_reported":1731690465,"current_range_meters":19200,"station_id":"ce4bh312rcd13ifvqdk0","pricing_plan_id":"cebpf4jnsgd1na2vs0mg"},{"bike_id":"fd18e261-343a-408c-bb22-16c05f2ef21a","system_id":"levelo_inurba_marseille","lat":43.31688,"lon":5.40476,"is_reserved":false,"is_disabled":false,"rental_uris":{"android":"levelo://app?vid=fd18e261-343a-408c-bb22-16c05f2ef21a","ios":"levelo://app?vid=fd18e261-343a-408c-bb22-16c05f2ef21a"},"vehicle_type_id":"4","last_reported":1731690465,"current_range_meters":20400,"station_id":"ce4bh012rcd13ifvqd00","pricing_plan_id":"cebpf4jnsgd1na2vs0mg"},{"bike_id":"5856ad94-bc0e-4f57-993d-864d7234767f","system_id":"levelo_inurba_marseille","lat":43.33763,"lon":5.37483,"is_reserved":false,"is_disabled":false,"rental_uris":{"android":"levelo://app?vid=5856ad94-bc0e-4f57-993d-864d7234767f","ios":"levelo://app?vid=5856ad94-bc0e-4f57-993d-864d7234767f"},"vehicle_type_id":"4","last_reported":1731690465,"current_range_meters":36800,"station_id":"","pricing_plan_id":"cebpf4jnsgd1na2vs0mg"},{"bike_id":"5394dc6a-7e94-422e-a425-0f0097280ab0","system_id":"levelo_inurba_marseille","lat":43.29415,"lon":5.3862,"is_reserved":false,"is_disabled":false,"rental_uris":{"android":"levelo://app?vid=5394dc6a-7e94-422e-a425-0f0097280ab0","ios":"levelo://app?vid=5394dc6a-7e94-422e-a425-0f0097280ab0"},"vehicle_type_id":"4","last_reported":1731690465,"current_range_meters":20000,"station_id":"ce4bh2h2rcd13ifvqdh0","pricing_plan_id":"cebpf4jnsgd1na2vs0mg"},{"bike_id":"098b9b8d-9219-4b1b-a073-336dbd2b0610","system_id":"levelo_inurba_marseille","lat":43.27835,"lon":5.39206,"is_reserved":false,"is_disabled":false,"rental_uris":{"android":"levelo://app?vid=098b9b8d-9219-4b1b-a073-336dbd2b0610","ios":"levelo://app?vid=098b9b8d-9219-4b1b-a073-336dbd2b0610"},"vehicle_type_id":"4","last_reported":1731690465,"current_range_meters":28400,"station_id":"ce4bhjp2rcd13ifvqga0","pricing_plan_id":"cebpf4jnsgd1na2vs0mg"},{"bike_id":"f3fc4d79-1b4f-48a6-be4e-3557890b86ab","system_id":"levelo_inurba_marseille","lat":43.29377,"lon":5.3783,"is_reserved":false,"is_disabled":false,"rental_uris":{"android":"levelo://app?vid=f3fc4d79-1b4f-48a6-be4e-3557890b86ab","ios":"levelo://app?vid=f3fc4d79-1b4f-48a6-be4e-3557890b86ab"},"vehicle_type_id":"4","last_reported":1731690465,"current_range_meters":36400,"station_id":"ce4bgjh2rcd13ifvqbf0","pricing_plan_id":"cebpf4jnsgd1na2vs0mg"},{"bike_id":"27805799-039f-451f-a30a-9aefe9d40447","system_id":"levelo_inurba_marseille","lat":43.29437,"lon":5.39766,"is_reserved":false,"is_disabled":false,"rental_uris":{"android":"levelo://app?vid=27805799-039f-451f-a30a-9aefe9d40447","ios":"levelo://app?vid=27805799-039f-451f-a30a-9aefe9d40447"},"vehicle_type_id":"4","last_reported":1731690465,"current_range_meters":13600,"station_id":"ce4bh3h2rcd13ifvqdo0","pricing_plan_id":"cebpf4jnsgd1na2vs0mg"},{"bike_id":"10c06adc-4535-4981-8dab-8cc15da57141","system_id":"levelo_inurba_marseille","lat":43.33023,"lon":5.39043,"is_reserved":false,"is_disabled":false,"rental_uris":{"android":"levelo://app?vid=10c06adc-4535-4981-8dab-8cc15da57141","ios":"levelo://app?vid=10c06adc-4535-4981-8dab-8cc15da57141"},"vehicle_type_id":"4","last_reported":1731690465,"current_range_meters":24800,"station_id":"ce4bhr92rcd13ifvqhrg","pricing_plan_id":"cebpf4jnsgd1na2vs0mg"},{"bike_id":"67374101-d99b-4b8f-b590-c1ffc28c319b","system_id":"levelo_inurba_marseille","lat":43.28693,"lon":5.37392,"is_reserved":false,"is_disabled":false,"rental_uris":{"android":"levelo://app?vid=67374101-d99b-4b8f-b590-c1ffc28c319b","ios":"levelo://app?vid=67374101-d99b-4b8f-b590-c1ffc28c319b"},"vehicle_type_id":"4","last_reported":1731690465,"current_range_meters":34800,"station_id":"ce4bh3p2rcd13ifvqdq0","pricing_plan_id":"cebpf4jnsgd1na2vs0mg"},{"bike_id":"82e2de84-af0c-4c00-81d2-103a8947b0a0","system_id":"levelo_inurba_marseille","lat":43.29275,"lon":5.36845,"is_reserved":false,"is_disabled":false,"rental_uris":{"android":"levelo://app?vid=82e2de84-af0c-4c00-81d2-103a8947b0a0","ios":"levelo://app?vid=82e2de84-af0c-4c00-81d2-103a8947b0a0"},"vehicle_type_id":"4","last_reported":1731690465,"current_range_meters":19200,"station_id":"ce4bhbp2rcd13ifvqesg","pricing_plan_id":"cebpf4jnsgd1na2vs0mg"},{"bike_id":"18ba07a1-8b59-40ad-870c-9309a2285808","system_id":"levelo_inurba_marseille","lat":43.28613,"lon":5.35107,"is_reserved":false,"is_disabled":false,"rental_uris":{"android":"levelo://app?vid=18ba07a1-8b59-40ad-870c-9309a2285808","ios":"levelo://app?vid=18ba07a1-8b59-40ad-870c-9309a2285808"},"vehicle_type_id":"4","last_reported":1731690465,"current_range_meters":7200,"station_id":"ce4bhch2rcd13ifvqeug","pricing_plan_id":"cebpf4jnsgd1na2vs0mg"},{"bike_id":"9df95880-813e-4180-adff-bcba9a3900b5","system_id":"levelo_inurba_marseille","lat":43.31535,"lon":5.38026,"is_reserved":false,"is_disabled":false,"rental_uris":{"android":"levelo://app?vid=9df95880-813e-4180-adff-bcba9a3900b5","ios":"levelo://app?vid=9df95880-813e-4180-adff-bcba9a3900b5"},"vehicle_type_id":"4","last_reported":1731690465,"current_range_meters":38800,"station_id":"ce4bhsp2rcd13ifvqi50","pricing_plan_id":"cebpf4jnsgd1na2vs0mg"},{"bike_id":"8dbd9bd9-d1e0-42d4-bf49-72e92787acb1","system_id":"levelo_inurba_marseille","lat":43.30093,"lon":5.39077,"is_reserved":false,"is_disabled":false,"rental_uris":{"android":"levelo://app?vid=8dbd9bd9-d1e0-42d4-bf49-72e92787acb1","ios":"levelo://app?vid=8dbd9bd9-d1e0-42d4-bf49-72e92787acb1"},"vehicle_type_id":"4","last_reported":1731690465,"current_range_meters":24000,"station_id":"ce4bh192rcd13ifvqdb0","pricing_plan_id":"cebpf4jnsgd1na2vs0mg"},{"bike_id":"022d2c29-7e08-48a4-b518-c97be78c48ce","system_id":"levelo_inurba_marseille","lat":43.25867,"lon":5.39896,"is_reserved":false,"is_disabled":false,"rental_uris":{"android":"levelo://app?vid=022d2c29-7e08-48a4-b518-c97be78c48ce","ios":"levelo://app?vid=022d2c29-7e08-48a4-b518-c97be78c48ce"},"vehicle_type_id":"4","last_reported":1731690465,"current_range_meters":10800,"station_id":"ce4bhl92rcd13ifvqghg","pricing_plan_id":"cebpf4jnsgd1na2vs0mg"},{"bike_id":"2f3bba98-bb30-4076-bbaa-2adce8076f18","system_id":"levelo_inurba_marseille","lat":43.299633,"lon":5.371656,"is_reserved":false,"is_disabled":false,"rental_uris":{"android":"levelo://app?vid=2f3bba98-bb30-4076-bbaa-2adce8076f18","ios":"levelo://app?vid=2f3bba98-bb30-4076-bbaa-2adce8076f18"},"vehicle_type_id":"4","last_reported":1731690465,"current_range_meters":33600,"station_id":"ce4bgr92rcd13ifvqc7g","pricing_plan_id":"cebpf4jnsgd1na2vs0mg"},{"bike_id":"ca5b00f9-723d-465a-b8db-382062cc70a0","system_id":"levelo_inurba_marseille","lat":43.27939,"lon":5.41048,"is_reserved":false,"is_disabled":false,"rental_uris":{"android":"levelo://app?vid=ca5b00f9-723d-465a-b8db-382062cc70a0","ios":"levelo://app?vid=ca5b00f9-723d-465a-b8db-382062cc70a0"},"vehicle_type_id":"4","last_reported":1731690465,"current_range_meters":34000,"station_id":"ce4bhnp2rcd13ifvqh0g","pricing_plan_id":"cebpf4jnsgd1na2vs0mg"},{"bike_id":"723a9f03-ba1d-41f4-a92b-80b54a88f039","system_id":"levelo_inurba_marseille","lat":43.29787,"lon":5.3934,"is_reserved":false,"is_disabled":false,"rental_uris":{"android":"levelo://app?vid=723a9f03-ba1d-41f4-a92b-80b54a88f039","ios":"levelo://app?vid=723a9f03-ba1d-41f4-a92b-80b54a88f039"},"vehicle_type_id":"4","last_reported":1731690465,"current_range_meters":38400,"station_id":"chh1huq6cuj3fo74tm60","pricing_plan_id":"cebpf4jnsgd1na2vs0mg"},{"bike_id":"c6d679a5-ad02-4461-95b5-e992fed0115a","system_id":"levelo_inurba_marseille","lat":43.29258,"lon":5.40913,"is_reserved":false,"is_disabled":false,"rental_uris":{"android":"levelo://app?vid=c6d679a5-ad02-4461-95b5-e992fed0115a","ios":"levelo://app?vid=c6d679a5-ad02-4461-95b5-e992fed0115a"},"vehicle_type_id":"4","last_reported":1731690465,"current_range_meters":5600,"station_id":"ce4bh192rcd13ifvqdc0","pricing_plan_id":"cebpf4jnsgd1na2vs0mg"},{"bike_id":"6b0ea79e-cb12-4a50-9845-e4686b3cacc8","system_id":"levelo_inurba_marseille","lat":43.295751,"lon":5.399791,"is_reserved":false,"is_disabled":false,"rental_uris":{"android":"levelo://app?vid=6b0ea79e-cb12-4a50-9845-e4686b3cacc8","ios":"levelo://app?vid=6b0ea79e-cb12-4a50-9845-e4686b3cacc8"},"vehicle_type_id":"4","last_reported":1731690465,"current_range_meters":17600,"station_id":"","pricing_plan_id":"cebpf4jnsgd1na2vs0mg"},{"bike_id":"d4dac542-fd81-4ca5-b6d3-c1ef7b86403a","system_id":"levelo_inurba_marseille","lat":43.26196,"lon":5.37445,"is_reserved":false,"is_disabled":false,"rental_uris":{"android":"levelo://app?vid=d4dac542-fd81-4ca5-b6d3-c1ef7b86403a","ios":"levelo://app?vid=d4dac542-fd81-4ca5-b6d3-c1ef7b86403a"},"vehicle_type_id":"4","last_reported":1731690465,"current_range_meters":6400,"station_id":"ce4bhgp2rcd13ifvqfc0","pricing_plan_id":"cebpf4jnsgd1na2vs0mg"},{"bike_id":"f4f73398-cc9e-435d-b87c-618244f6fad2","system_id":"levelo_inurba_marseille","lat":43.29296,"lon":5.37461,"is_reserved":false,"is_disabled":false,"rental_uris":{"android":"levelo://app?vid=f4f73398-cc9e-435d-b87c-618244f6fad2","ios":"levelo://app?vid=f4f73398-cc9e-435d-b87c-618244f6fad2"},"vehicle_type_id":"4","last_reported":1731690465,"current_range_meters":36400,"station_id":"ce4bgi12rcd13ifvqb70","pricing_plan_id":"cebpf4jnsgd1na2vs0mg"},{"bike_id":"94367a3b-75b7-42f5-a1e2-f7b17695f1f9","system_id":"levelo_inurba_marseille","lat":43.29888,"lon":5.38903,"is_reserved":false,"is_disabled":false,"rental_uris":{"android":"levelo://app?vid=94367a3b-75b7-42f5-a1e2-f7b17695f1f9","ios":"levelo://app?vid=94367a3b-75b7-42f5-a1e2-f7b17695f1f9"},"vehicle_type_id":"4","last_reported":1731690465,"current_range_meters":24400,"station_id":"ce4bh392rcd13ifvqdl0","pricing_plan_id":"cebpf4jnsgd1na2vs0mg"},{"bike_id":"4a74f469-1d99-48ee-a8ca-9199898c00a4","system_id":"levelo_inurba_marseille","lat":43.232,"lon":5.35547,"is_reserved":false,"is_disabled":false,"rental_uris":{"android":"levelo://app?vid=4a74f469-1d99-48ee-a8ca-9199898c00a4","ios":"levelo://app?vid=4a74f469-1d99-48ee-a8ca-9199898c00a4"},"vehicle_type_id":"4","last_reported":1731690465,"current_range_meters":14000,"station_id":"ce4bhu92rcd13ifvqi70","pricing_plan_id":"cebpf4jnsgd1na2vs0mg"},{"bike_id":"082698a6-47e2-4b08-9b41-1779c9ce70bd","system_id":"levelo_inurba_marseille","lat":43.30586,"lon":5.37253,"is_reserved":false,"is_disabled":false,"rental_uris":{"android":"levelo://app?vid=082698a6-47e2-4b08-9b41-1779c9ce70bd","ios":"levelo://app?vid=082698a6-47e2-4b08-9b41-1779c9ce70bd"},"vehicle_type_id":"4","last_reported":1731690465,"current_range_meters":7200,"station_id":"ce4bgqh2rcd13ifvqc4g","pricing_plan_id":"cebpf4jnsgd1na2vs0mg"},{"bike_id":"009a1245-d8fa-4d51-8a76-bbc94b2108b6","system_id":"levelo_inurba_marseille","lat":43.267975,"lon":5.402633,"is_reserved":false,"is_disabled":false,"rental_uris":{"android":"levelo://app?vid=009a1245-d8fa-4d51-8a76-bbc94b2108b6","ios":"levelo://app?vid=009a1245-d8fa-4d51-8a76-bbc94b2108b6"},"vehicle_type_id":"4","last_reported":1731690465,"current_range_meters":28400,"station_id":"ce501612rcd8frsf0b60","pricing_plan_id":"cebpf4jnsgd1na2vs0mg"},{"bike_id":"0b0b7ed7-88d6-4ea6-b0eb-6229f44cf76c","system_id":"levelo_inurba_marseille","lat":43.23153,"lon":5.43707,"is_reserved":false,"is_disabled":false,"rental_uris":{"android":"levelo://app?vid=0b0b7ed7-88d6-4ea6-b0eb-6229f44cf76c","ios":"levelo://app?vid=0b0b7ed7-88d6-4ea6-b0eb-6229f44cf76c"},"vehicle_type_id":"4","last_reported":1731690465,"current_range_meters":36800,"station_id":"ce4bhmp2rcd13ifvqgog","pricing_plan_id":"cebpf4jnsgd1na2vs0mg"},{"bike_id":"2f621740-7510-4137-8fb1-4ec0f895c1fd","system_id":"levelo_inurba_marseille","lat":43.28916,"lon":5.364,"is_reserved":false,"is_disabled":false,"rental_uris":{"android":"levelo://app?vid=2f621740-7510-4137-8fb1-4ec0f895c1fd","ios":"levelo://app?vid=2f621740-7510-4137-8fb1-4ec0f895c1fd"},"vehicle_type_id":"4","last_reported":1731690465,"current_range_meters":38800,"station_id":"ce4bhc92rcd13ifvqetg","pricing_plan_id":"cebpf4jnsgd1na2vs0mg"},{"bike_id":"2070cfad-2562-49da-a47f-977ebd3d9417","system_id":"levelo_inurba_marseille","lat":43.30209,"lon":5.39456,"is_reserved":false,"is_disabled":false,"rental_uris":{"android":"levelo://app?vid=2070cfad-2562-49da-a47f-977ebd3d9417","ios":"levelo://app?vid=2070cfad-2562-49da-a47f-977ebd3d9417"},"vehicle_type_id":"4","last_reported":1731690465,"current_range_meters":27600,"station_id":"ce4bh0p2rcd13ifvqd70","pricing_plan_id":"cebpf4jnsgd1na2vs0mg"},{"bike_id":"4e14cb09-7e09-4d94-b55e-4d4d1d103257","system_id":"levelo_inurba_marseille","lat":43.25944,"lon":5.40907,"is_reserved":false,"is_disabled":false,"rental_uris":{"android":"levelo://app?vid=4e14cb09-7e09-4d94-b55e-4d4d1d103257","ios":"levelo://app?vid=4e14cb09-7e09-4d94-b55e-4d4d1d103257"},"vehicle_type_id":"4","last_reported":1731690465,"current_range_meters":38800,"station_id":"ce4bhm92rcd13ifvqglg","pricing_plan_id":"cebpf4jnsgd1na2vs0mg"},{"bike_id":"36ffa88a-9fee-4383-9f36-5862be7aa7e2","system_id":"levelo_inurba_marseille","lat":43.28861,"lon":5.35853,"is_reserved":false,"is_disabled":false,"rental_uris":{"android":"levelo://app?vid=36ffa88a-9fee-4383-9f36-5862be7aa7e2","ios":"levelo://app?vid=36ffa88a-9fee-4383-9f36-5862be7aa7e2"},"vehicle_type_id":"4","last_reported":1731690465,"current_range_meters":12000,"station_id":"ce4bhb12rcd13ifvqem0","pricing_plan_id":"cebpf4jnsgd1na2vs0mg"},{"bike_id":"50c4e2db-02d5-478c-8d49-db41ad6a1473","system_id":"levelo_inurba_marseille","lat":43.28155,"lon":5.42647,"is_reserved":false,"is_disabled":false,"rental_uris":{"android":"levelo://app?vid=50c4e2db-02d5-478c-8d49-db41ad6a1473","ios":"levelo://app?vid=50c4e2db-02d5-478c-8d49-db41ad6a1473"},"vehicle_type_id":"4","last_reported":1731690465,"current_range_meters":5600,"station_id":"ce4bhnh2rcd13ifvqgug","pricing_plan_id":"cebpf4jnsgd1na2vs0mg"},{"bike_id":"cbca327e-80bd-4349-ba89-92525ca09613","system_id":"levelo_inurba_marseille","lat":43.30943,"lon":5.39035,"is_reserved":false,"is_disabled":false,"rental_uris":{"android":"levelo://app?vid=cbca327e-80bd-4349-ba89-92525ca09613","ios":"levelo://app?vid=cbca327e-80bd-4349-ba89-92525ca09613"},"vehicle_type_id":"4","last_reported":1731690465,"current_range_meters":7200,"station_id":"ce4bgup2rcd13ifvqco0","pricing_plan_id":"cebpf4jnsgd1na2vs0mg"},{"bike_id":"8792b8e0-44cd-472d-8142-10e73f3caa09","system_id":"levelo_inurba_marseille","lat":43.29535,"lon":5.37465,"is_reserved":false,"is_disabled":false,"rental_uris":{"android":"levelo://app?vid=8792b8e0-44cd-472d-8142-10e73f3caa09","ios":"levelo://app?vid=8792b8e0-44cd-472d-8142-10e73f3caa09"},"vehicle_type_id":"4","last_reported":1731690465,"current_range_meters":6000,"station_id":"ce4bh0h2rcd13ifvqd40","pricing_plan_id":"cebpf4jnsgd1na2vs0mg"},{"bike_id":"89c4eeee-2a29-472a-9119-824e2a3f89bb","system_id":"levelo_inurba_marseille","lat":43.24167,"lon":5.36385,"is_reserved":false,"is_disabled":false,"rental_uris":{"android":"levelo://app?vid=89c4eeee-2a29-472a-9119-824e2a3f89bb","ios":"levelo://app?vid=89c4eeee-2a29-472a-9119-824e2a3f89bb"},"vehicle_type_id":"4","last_reported":1731690465,"current_range_meters":16400,"station_id":"cpo36qri1sfpv3e86is0","pricing_plan_id":"cebpf4jnsgd1na2vs0mg"},{"bike_id":"6c382073-4e33-4b1c-8eb6-41422bb09fab","system_id":"levelo_inurba_marseille","lat":43.2978,"lon":5.37095,"is_reserved":false,"is_disabled":false,"rental_uris":{"android":"levelo://app?vid=6c382073-4e33-4b1c-8eb6-41422bb09fab","ios":"levelo://app?vid=6c382073-4e33-4b1c-8eb6-41422bb09fab"},"vehicle_type_id":"4","last_reported":1731690465,"current_range_meters":8000,"station_id":"ce4bgop2rcd13ifvqc1g","pricing_plan_id":"cebpf4jnsgd1na2vs0mg"},{"bike_id":"c8cba179-3cf0-42e2-993a-845728c427ad","system_id":"levelo_inurba_marseille","lat":43.25721,"lon":5.41116,"is_reserved":false,"is_disabled":false,"rental_uris":{"android":"levelo://app?vid=c8cba179-3cf0-42e2-993a-845728c427ad","ios":"levelo://app?vid=c8cba179-3cf0-42e2-993a-845728c427ad"},"vehicle_type_id":"4","last_reported":1731690465,"current_range_meters":16000,"station_id":"ce4bhkp2rcd13ifvqgd0","pricing_plan_id":"cebpf4jnsgd1na2vs0mg"},{"bike_id":"cfc64ff7-dc3b-4520-b280-796a140bdc16","system_id":"levelo_inurba_marseille","lat":43.29788,"lon":5.38107,"is_reserved":false,"is_disabled":false,"rental_uris":{"android":"levelo://app?vid=cfc64ff7-dc3b-4520-b280-796a140bdc16","ios":"levelo://app?vid=cfc64ff7-dc3b-4520-b280-796a140bdc16"},"vehicle_type_id":"4","last_reported":1731690465,"current_range_meters":8000,"station_id":"ce4bgip2rcd13ifvqbb0","pricing_plan_id":"cebpf4jnsgd1na2vs0mg"},{"bike_id":"00f7d1f4-ab3c-4240-ba90-c1c8d0b56d78","system_id":"levelo_inurba_marseille","lat":43.2737,"lon":5.36262,"is_reserved":false,"is_disabled":false,"rental_uris":{"android":"levelo://app?vid=00f7d1f4-ab3c-4240-ba90-c1c8d0b56d78","ios":"levelo://app?vid=00f7d1f4-ab3c-4240-ba90-c1c8d0b56d78"},"vehicle_type_id":"4","last_reported":1731690465,"current_range_meters":26800,"station_id":"ce4bhbh2rcd13ifvqeo0","pricing_plan_id":"cebpf4jnsgd1na2vs0mg"},{"bike_id":"89e40877-dc63-466e-86d5-115b808df076","system_id":"levelo_inurba_marseille","lat":43.270675,"lon":5.402652,"is_reserved":false,"is_disabled":false,"rental_uris":{"android":"levelo://app?vid=89e40877-dc63-466e-86d5-115b808df076","ios":"levelo://app?vid=89e40877-dc63-466e-86d5-115b808df076"},"vehicle_type_id":"4","last_reported":1731690465,"current_range_meters":16800,"station_id":"ce4bhk92rcd13ifvqgc0","pricing_plan_id":"cebpf4jnsgd1na2vs0mg"},{"bike_id":"8380ebf1-e63e-4c53-9999-0833f40a35c0","system_id":"levelo_inurba_marseille","lat":43.29435,"lon":5.3976,"is_reserved":false,"is_disabled":false,"rental_uris":{"android":"levelo://app?vid=8380ebf1-e63e-4c53-9999-0833f40a35c0","ios":"levelo://app?vid=8380ebf1-e63e-4c53-9999-0833f40a35c0"},"vehicle_type_id":"4","last_reported":1731690465,"current_range_meters":23200,"station_id":"ce4bh3h2rcd13ifvqdo0","pricing_plan_id":"cebpf4jnsgd1na2vs0mg"},{"bike_id":"ec2a35d8-3761-4bbc-9003-dac10621c5e4","system_id":"levelo_inurba_marseille","lat":43.250619,"lon":5.389228,"is_reserved":false,"is_disabled":false,"rental_uris":{"android":"levelo://app?vid=ec2a35d8-3761-4bbc-9003-dac10621c5e4","ios":"levelo://app?vid=ec2a35d8-3761-4bbc-9003-dac10621c5e4"},"vehicle_type_id":"4","last_reported":1731690465,"current_range_meters":11600,"station_id":"ce4bhgp2rcd13ifvqfd0","pricing_plan_id":"cebpf4jnsgd1na2vs0mg"},{"bike_id":"93ebab0a-b53f-428d-b33b-fe1b830f1938","system_id":"levelo_inurba_marseille","lat":43.2318,"lon":5.39986,"is_reserved":false,"is_disabled":false,"rental_uris":{"android":"levelo://app?vid=93ebab0a-b53f-428d-b33b-fe1b830f1938","ios":"levelo://app?vid=93ebab0a-b53f-428d-b33b-fe1b830f1938"},"vehicle_type_id":"4","last_reported":1731690465,"current_range_meters":26800,"station_id":"ce4bhn12rcd13ifvqgqg","pricing_plan_id":"cebpf4jnsgd1na2vs0mg"},{"bike_id":"3a7114f8-474f-46d1-b271-84f5f3e41ffc","system_id":"levelo_inurba_marseille","lat":43.27117,"lon":5.38952,"is_reserved":false,"is_disabled":false,"rental_uris":{"android":"levelo://app?vid=3a7114f8-474f-46d1-b271-84f5f3e41ffc","ios":"levelo://app?vid=3a7114f8-474f-46d1-b271-84f5f3e41ffc"},"vehicle_type_id":"4","last_reported":1731690465,"current_range_meters":16000,"station_id":"ce4bhdp2rcd13ifvqf20","pricing_plan_id":"cebpf4jnsgd1na2vs0mg"},{"bike_id":"19b87f46-3c89-4f3a-b8bd-0962d5543c22","system_id":"levelo_inurba_marseille","lat":43.25114,"lon":5.4032,"is_reserved":false,"is_disabled":false,"rental_uris":{"android":"levelo://app?vid=19b87f46-3c89-4f3a-b8bd-0962d5543c22","ios":"levelo://app?vid=19b87f46-3c89-4f3a-b8bd-0962d5543c22"},"vehicle_type_id":"4","last_reported":1731690465,"current_range_meters":30000,"station_id":"ce4bhlh2rcd13ifvqgig","pricing_plan_id":"cebpf4jnsgd1na2vs0mg"},{"bike_id":"d966fc4e-ee3e-4b36-8269-8e75b3663939","system_id":"levelo_inurba_marseille","lat":43.30882,"lon":5.39654,"is_reserved":false,"is_disabled":false,"rental_uris":{"android":"levelo://app?vid=d966fc4e-ee3e-4b36-8269-8e75b3663939","ios":"levelo://app?vid=d966fc4e-ee3e-4b36-8269-8e75b3663939"},"vehicle_type_id":"4","last_reported":1731690465,"current_range_meters":20400,"station_id":"ce4bh012rcd13ifvqcv0","pricing_plan_id":"cebpf4jnsgd1na2vs0mg"},{"bike_id":"e7199012-0e98-477a-9b13-bc9e31fe3c00","system_id":"levelo_inurba_marseille","lat":43.29257,"lon":5.40905,"is_reserved":false,"is_disabled":false,"rental_uris":{"android":"levelo://app?vid=e7199012-0e98-477a-9b13-bc9e31fe3c00","ios":"levelo://app?vid=e7199012-0e98-477a-9b13-bc9e31fe3c00"},"vehicle_type_id":"4","last_reported":1731690465,"current_range_meters":27600,"station_id":"ce4bh192rcd13ifvqdc0","pricing_plan_id":"cebpf4jnsgd1na2vs0mg"},{"bike_id":"b1df3c6e-f661-44fb-b3ab-0e03348f2e25","system_id":"levelo_inurba_marseille","lat":43.27627,"lon":5.36104,"is_reserved":false,"is_disabled":false,"rental_uris":{"android":"levelo://app?vid=b1df3c6e-f661-44fb-b3ab-0e03348f2e25","ios":"levelo://app?vid=b1df3c6e-f661-44fb-b3ab-0e03348f2e25"},"vehicle_type_id":"4","last_reported":1731690465,"current_range_meters":24800,"station_id":"ce4bgj92rcd13ifvqbe0","pricing_plan_id":"cebpf4jnsgd1na2vs0mg"},{"bike_id":"6b8eba9e-251e-401f-9b82-4a96d08ef40f","system_id":"levelo_inurba_marseille","lat":43.33015,"lon":5.39043,"is_reserved":false,"is_disabled":false,"rental_uris":{"android":"levelo://app?vid=6b8eba9e-251e-401f-9b82-4a96d08ef40f","ios":"levelo://app?vid=6b8eba9e-251e-401f-9b82-4a96d08ef40f"},"vehicle_type_id":"4","last_reported":1731690465,"current_range_meters":22800,"station_id":"ce4bhr92rcd13ifvqhrg","pricing_plan_id":"cebpf4jnsgd1na2vs0mg"},{"bike_id":"e7ac81d6-de10-4a59-a489-72aca3b7274d","system_id":"levelo_inurba_marseille","lat":43.28457,"lon":5.3589,"is_reserved":false,"is_disabled":false,"rental_uris":{"android":"levelo://app?vid=e7ac81d6-de10-4a59-a489-72aca3b7274d","ios":"levelo://app?vid=e7ac81d6-de10-4a59-a489-72aca3b7274d"},"vehicle_type_id":"4","last_reported":1731690465,"current_range_meters":18000,"station_id":"ce4bhah2rcd13ifvqei0","pricing_plan_id":"cebpf4jnsgd1na2vs0mg"},{"bike_id":"c974cc8b-299b-4d52-81c8-4e50a91b9225","system_id":"levelo_inurba_marseille","lat":43.33745,"lon":5.37487,"is_reserved":false,"is_disabled":false,"rental_uris":{"android":"levelo://app?vid=c974cc8b-299b-4d52-81c8-4e50a91b9225","ios":"levelo://app?vid=c974cc8b-299b-4d52-81c8-4e50a91b9225"},"vehicle_type_id":"4","last_reported":1731690465,"current_range_meters":38400,"station_id":"","pricing_plan_id":"cebpf4jnsgd1na2vs0mg"},{"bike_id":"f86a601e-26e3-440e-a7e5-894f75bad9f4","system_id":"levelo_inurba_marseille","lat":43.337444,"lon":5.374475,"is_reserved":false,"is_disabled":false,"rental_uris":{"android":"levelo://app?vid=f86a601e-26e3-440e-a7e5-894f75bad9f4","ios":"levelo://app?vid=f86a601e-26e3-440e-a7e5-894f75bad9f4"},"vehicle_type_id":"4","last_reported":1731690465,"current_range_meters":22800,"station_id":"","pricing_plan_id":"cebpf4jnsgd1na2vs0mg"},{"bike_id":"1bb454a8-df30-4801-9db8-557209805fe3","system_id":"levelo_inurba_marseille","lat":43.2997,"lon":5.37169,"is_reserved":false,"is_disabled":false,"rental_uris":{"android":"levelo://app?vid=1bb454a8-df30-4801-9db8-557209805fe3","ios":"levelo://app?vid=1bb454a8-df30-4801-9db8-557209805fe3"},"vehicle_type_id":"4","last_reported":1731690465,"current_range_meters":22400,"station_id":"ce4bgr92rcd13ifvqc7g","pricing_plan_id":"cebpf4jnsgd1na2vs0mg"},{"bike_id":"83fa495e-d431-44b6-b894-1a2ef95f335d","system_id":"levelo_inurba_marseille","lat":43.28855,"lon":5.35844,"is_reserved":false,"is_disabled":false,"rental_uris":{"android":"levelo://app?vid=83fa495e-d431-44b6-b894-1a2ef95f335d","ios":"levelo://app?vid=83fa495e-d431-44b6-b894-1a2ef95f335d"},"vehicle_type_id":"4","last_reported":1731690465,"current_range_meters":16400,"station_id":"ce4bhb12rcd13ifvqem0","pricing_plan_id":"cebpf4jnsgd1na2vs0mg"},{"bike_id":"4b344130-095a-4a12-b810-e50ba61ea15a","system_id":"levelo_inurba_marseille","lat":43.29718,"lon":5.37702,"is_reserved":false,"is_disabled":false,"rental_uris":{"android":"levelo://app?vid=4b344130-095a-4a12-b810-e50ba61ea15a","ios":"levelo://app?vid=4b344130-095a-4a12-b810-e50ba61ea15a"},"vehicle_type_id":"4","last_reported":1731690465,"current_range_meters":17600,"station_id":"ce4bgkh2rcd13ifvqbl0","pricing_plan_id":"cebpf4jnsgd1na2vs0mg"},{"bike_id":"ca9a273d-8d5d-40bc-92db-8e9e90cf4039","system_id":"levelo_inurba_marseille","lat":43.29594,"lon":5.38099,"is_reserved":false,"is_disabled":false,"rental_uris":{"android":"levelo://app?vid=ca9a273d-8d5d-40bc-92db-8e9e90cf4039","ios":"levelo://app?vid=ca9a273d-8d5d-40bc-92db-8e9e90cf4039"},"vehicle_type_id":"4","last_reported":1731690465,"current_range_meters":32400,"station_id":"ce4bgl12rcd13ifvqbo0","pricing_plan_id":"cebpf4jnsgd1na2vs0mg"},{"bike_id":"9ad43583-2faf-4a2a-8600-0d4f1cdd1ab6","system_id":"levelo_inurba_marseille","lat":43.26804,"lon":5.4027,"is_reserved":false,"is_disabled":false,"rental_uris":{"android":"levelo://app?vid=9ad43583-2faf-4a2a-8600-0d4f1cdd1ab6","ios":"levelo://app?vid=9ad43583-2faf-4a2a-8600-0d4f1cdd1ab6"},"vehicle_type_id":"4","last_reported":1731690465,"current_range_meters":16000,"station_id":"ce501612rcd8frsf0b60","pricing_plan_id":"cebpf4jnsgd1na2vs0mg"},{"bike_id":"d36ddd4f-1e93-4673-86f6-eb78a5f1ca9c","system_id":"levelo_inurba_marseille","lat":43.31529,"lon":5.38037,"is_reserved":false,"is_disabled":false,"rental_uris":{"android":"levelo://app?vid=d36ddd4f-1e93-4673-86f6-eb78a5f1ca9c","ios":"levelo://app?vid=d36ddd4f-1e93-4673-86f6-eb78a5f1ca9c"},"vehicle_type_id":"4","last_reported":1731690465,"current_range_meters":22800,"station_id":"ce4bhsp2rcd13ifvqi50","pricing_plan_id":"cebpf4jnsgd1na2vs0mg"},{"bike_id":"18dfb232-29d7-4f6a-94cc-e32392c53951","system_id":"levelo_inurba_marseille","lat":43.29532,"lon":5.3855,"is_reserved":false,"is_disabled":false,"rental_uris":{"android":"levelo://app?vid=18dfb232-29d7-4f6a-94cc-e32392c53951","ios":"levelo://app?vid=18dfb232-29d7-4f6a-94cc-e32392c53951"},"vehicle_type_id":"4","last_reported":1731690465,"current_range_meters":30800,"station_id":"ce4bgih2rcd13ifvqba0","pricing_plan_id":"cebpf4jnsgd1na2vs0mg"},{"bike_id":"253978b1-00be-45ee-ad21-54cf551469ff","system_id":"levelo_inurba_marseille","lat":43.29874,"lon":5.3976,"is_reserved":false,"is_disabled":false,"rental_uris":{"android":"levelo://app?vid=253978b1-00be-45ee-ad21-54cf551469ff","ios":"levelo://app?vid=253978b1-00be-45ee-ad21-54cf551469ff"},"vehicle_type_id":"4","last_reported":1731690465,"current_range_meters":4000,"station_id":"ce4bh0h2rcd13ifvqd50","pricing_plan_id":"cebpf4jnsgd1na2vs0mg"},{"bike_id":"39db2668-3791-490e-a1a3-52475d635099","system_id":"levelo_inurba_marseille","lat":43.29533,"lon":5.394,"is_reserved":false,"is_disabled":false,"rental_uris":{"android":"levelo://app?vid=39db2668-3791-490e-a1a3-52475d635099","ios":"levelo://app?vid=39db2668-3791-490e-a1a3-52475d635099"},"vehicle_type_id":"4","last_reported":1731690465,"current_range_meters":38800,"station_id":"ce4bh292rcd13ifvqdf0","pricing_plan_id":"cebpf4jnsgd1na2vs0mg"},{"bike_id":"15e98427-a730-4221-ac08-7f36079c50b3","system_id":"levelo_inurba_marseille","lat":43.258187,"lon":5.394426,"is_reserved":false,"is_disabled":false,"rental_uris":{"android":"levelo://app?vid=15e98427-a730-4221-ac08-7f36079c50b3","ios":"levelo://app?vid=15e98427-a730-4221-ac08-7f36079c50b3"},"vehicle_type_id":"4","last_reported":1731690465,"current_range_meters":22400,"station_id":"ce4bhip2rcd13ifvqft0","pricing_plan_id":"cebpf4jnsgd1na2vs0mg"},{"bike_id":"0f2a2d4a-773f-4d46-93a1-1e556918fae4","system_id":"levelo_inurba_marseille","lat":43.3373,"lon":5.39188,"is_reserved":false,"is_disabled":false,"rental_uris":{"android":"levelo://app?vid=0f2a2d4a-773f-4d46-93a1-1e556918fae4","ios":"levelo://app?vid=0f2a2d4a-773f-4d46-93a1-1e556918fae4"},"vehicle_type_id":"4","last_reported":1731690465,"current_range_meters":10800,"station_id":"ce4bhr92rcd13ifvqhsg","pricing_plan_id":"cebpf4jnsgd1na2vs0mg"},{"bike_id":"2c7da520-bf3f-4579-bbaf-d8bed38515fb","system_id":"levelo_inurba_marseille","lat":43.27564,"lon":5.38427,"is_reserved":false,"is_disabled":false,"rental_uris":{"android":"levelo://app?vid=2c7da520-bf3f-4579-bbaf-d8bed38515fb","ios":"levelo://app?vid=2c7da520-bf3f-4579-bbaf-d8bed38515fb"},"vehicle_type_id":"4","last_reported":1731690465,"current_range_meters":14800,"station_id":"ce4bhg12rcd13ifvqf60","pricing_plan_id":"cebpf4jnsgd1na2vs0mg"},{"bike_id":"60346686-846e-43e0-b1f0-095f872d71c2","system_id":"levelo_inurba_marseille","lat":43.337444,"lon":5.374475,"is_reserved":false,"is_disabled":false,"rental_uris":{"android":"levelo://app?vid=60346686-846e-43e0-b1f0-095f872d71c2","ios":"levelo://app?vid=60346686-846e-43e0-b1f0-095f872d71c2"},"vehicle_type_id":"4","last_reported":1731690465,"current_range_meters":38400,"station_id":"","pricing_plan_id":"cebpf4jnsgd1na2vs0mg"},{"bike_id":"add2da5f-d734-42b5-8a56-43919f5c8fcd","system_id":"levelo_inurba_marseille","lat":43.31707,"lon":5.37765,"is_reserved":false,"is_disabled":false,"rental_uris":{"android":"levelo://app?vid=add2da5f-d734-42b5-8a56-43919f5c8fcd","ios":"levelo://app?vid=add2da5f-d734-42b5-8a56-43919f5c8fcd"},"vehicle_type_id":"4","last_reported":1731690465,"current_range_meters":19200,"station_id":"ce4bgth2rcd13ifvqch0","pricing_plan_id":"cebpf4jnsgd1na2vs0mg"},{"bike_id":"2b466666-2194-4a25-9013-ed4b4883c1c5","system_id":"levelo_inurba_marseille","lat":43.300171,"lon":5.391803,"is_reserved":false,"is_disabled":false,"rental_uris":{"android":"levelo://app?vid=2b466666-2194-4a25-9013-ed4b4883c1c5","ios":"levelo://app?vid=2b466666-2194-4a25-9013-ed4b4883c1c5"},"vehicle_type_id":"4","last_reported":1731690465,"current_range_meters":2800,"station_id":"ce4bh192rcd13ifvqdb0","pricing_plan_id":"cebpf4jnsgd1na2vs0mg"},{"bike_id":"d206d41a-8ea1-48b7-8dea-76f005b54e28","system_id":"levelo_inurba_marseille","lat":43.337444,"lon":5.374475,"is_reserved":false,"is_disabled":false,"rental_uris":{"android":"levelo://app?vid=d206d41a-8ea1-48b7-8dea-76f005b54e28","ios":"levelo://app?vid=d206d41a-8ea1-48b7-8dea-76f005b54e28"},"vehicle_type_id":"4","last_reported":1731690465,"current_range_meters":27200,"station_id":"","pricing_plan_id":"cebpf4jnsgd1na2vs0mg"},{"bike_id":"be41768a-e75d-459d-a694-a8658f2684b0","system_id":"levelo_inurba_marseille","lat":43.25814,"lon":5.39436,"is_reserved":false,"is_disabled":false,"rental_uris":{"android":"levelo://app?vid=be41768a-e75d-459d-a694-a8658f2684b0","ios":"levelo://app?vid=be41768a-e75d-459d-a694-a8658f2684b0"},"vehicle_type_id":"4","last_reported":1731690465,"current_range_meters":25600,"station_id":"ce4bhip2rcd13ifvqft0","pricing_plan_id":"cebpf4jnsgd1na2vs0mg"},{"bike_id":"3d258e2d-e6bd-48be-bed5-926eaa9bf498","system_id":"levelo_inurba_marseille","lat":43.29534,"lon":5.38546,"is_reserved":false,"is_disabled":false,"rental_uris":{"android":"levelo://app?vid=3d258e2d-e6bd-48be-bed5-926eaa9bf498","ios":"levelo://app?vid=3d258e2d-e6bd-48be-bed5-926eaa9bf498"},"vehicle_type_id":"4","last_reported":1731690465,"current_range_meters":31200,"station_id":"ce4bgih2rcd13ifvqba0","pricing_plan_id":"cebpf4jnsgd1na2vs0mg"},{"bike_id":"3a520272-6ef5-43eb-a6f8-a907cd0ad0f8","system_id":"levelo_inurba_marseille","lat":43.28096,"lon":5.37845,"is_reserved":false,"is_disabled":false,"rental_uris":{"android":"levelo://app?vid=3a520272-6ef5-43eb-a6f8-a907cd0ad0f8","ios":"levelo://app?vid=3a520272-6ef5-43eb-a6f8-a907cd0ad0f8"},"vehicle_type_id":"4","last_reported":1731690465,"current_range_meters":24000,"station_id":"ce4bha12rcd13ifvqee0","pricing_plan_id":"cebpf4jnsgd1na2vs0mg"},{"bike_id":"965b3a46-4f76-4aa9-b5ba-b1a6e45b1bb3","system_id":"levelo_inurba_marseille","lat":43.31428,"lon":5.38356,"is_reserved":false,"is_disabled":false,"rental_uris":{"android":"levelo://app?vid=965b3a46-4f76-4aa9-b5ba-b1a6e45b1bb3","ios":"levelo://app?vid=965b3a46-4f76-4aa9-b5ba-b1a6e45b1bb3"},"vehicle_type_id":"4","last_reported":1731690465,"current_range_meters":6800,"station_id":"","pricing_plan_id":"cebpf4jnsgd1na2vs0mg"},{"bike_id":"0e56f252-0e43-47b5-a384-4600d3cf176d","system_id":"levelo_inurba_marseille","lat":43.30269,"lon":5.37725,"is_reserved":false,"is_disabled":false,"rental_uris":{"android":"levelo://app?vid=0e56f252-0e43-47b5-a384-4600d3cf176d","ios":"levelo://app?vid=0e56f252-0e43-47b5-a384-4600d3cf176d"},"vehicle_type_id":"4","last_reported":1731690465,"current_range_meters":37600,"station_id":"ce4bguh2rcd13ifvqcj0","pricing_plan_id":"cebpf4jnsgd1na2vs0mg"},{"bike_id":"5326c5f8-bba7-40e6-bfc7-8e986a3bddf3","system_id":"levelo_inurba_marseille","lat":43.31343,"lon":5.3767,"is_reserved":false,"is_disabled":false,"rental_uris":{"android":"levelo://app?vid=5326c5f8-bba7-40e6-bfc7-8e986a3bddf3","ios":"levelo://app?vid=5326c5f8-bba7-40e6-bfc7-8e986a3bddf3"},"vehicle_type_id":"4","last_reported":1731690465,"current_range_meters":22400,"station_id":"","pricing_plan_id":"cebpf4jnsgd1na2vs0mg"},{"bike_id":"894ad813-9c92-423f-925c-4872437a7869","system_id":"levelo_inurba_marseille","lat":43.25494,"lon":5.37651,"is_reserved":false,"is_disabled":false,"rental_uris":{"android":"levelo://app?vid=894ad813-9c92-423f-925c-4872437a7869","ios":"levelo://app?vid=894ad813-9c92-423f-925c-4872437a7869"},"vehicle_type_id":"4","last_reported":1731690465,"current_range_meters":38400,"station_id":"ce4bhh12rcd13ifvqff0","pricing_plan_id":"cebpf4jnsgd1na2vs0mg"},{"bike_id":"4d6096a1-304c-4797-af36-dae4e4940ced","system_id":"levelo_inurba_marseille","lat":43.29289,"lon":5.37468,"is_reserved":false,"is_disabled":false,"rental_uris":{"android":"levelo://app?vid=4d6096a1-304c-4797-af36-dae4e4940ced","ios":"levelo://app?vid=4d6096a1-304c-4797-af36-dae4e4940ced"},"vehicle_type_id":"4","last_reported":1731690465,"current_range_meters":3200,"station_id":"ce4bgi12rcd13ifvqb70","pricing_plan_id":"cebpf4jnsgd1na2vs0mg"},{"bike_id":"d8c45f4f-4737-44a2-bdbf-dc1f3ec49cf5","system_id":"levelo_inurba_marseille","lat":43.29632,"lon":5.405876,"is_reserved":false,"is_disabled":false,"rental_uris":{"android":"levelo://app?vid=d8c45f4f-4737-44a2-bdbf-dc1f3ec49cf5","ios":"levelo://app?vid=d8c45f4f-4737-44a2-bdbf-dc1f3ec49cf5"},"vehicle_type_id":"4","last_reported":1731690465,"current_range_meters":26800,"station_id":"ce4bgg92rcd13ifvqb30","pricing_plan_id":"cebpf4jnsgd1na2vs0mg"},{"bike_id":"c172e8e4-26a2-47cc-9091-18ed7c75f860","system_id":"levelo_inurba_marseille","lat":43.29443,"lon":5.39749,"is_reserved":false,"is_disabled":false,"rental_uris":{"android":"levelo://app?vid=c172e8e4-26a2-47cc-9091-18ed7c75f860","ios":"levelo://app?vid=c172e8e4-26a2-47cc-9091-18ed7c75f860"},"vehicle_type_id":"4","last_reported":1731690465,"current_range_meters":14000,"station_id":"ce4bh3h2rcd13ifvqdo0","pricing_plan_id":"cebpf4jnsgd1na2vs0mg"},{"bike_id":"a43e83fc-6940-4781-889b-4f7506e58be1","system_id":"levelo_inurba_marseille","lat":43.28272,"lon":5.35068,"is_reserved":false,"is_disabled":false,"rental_uris":{"android":"levelo://app?vid=a43e83fc-6940-4781-889b-4f7506e58be1","ios":"levelo://app?vid=a43e83fc-6940-4781-889b-4f7506e58be1"},"vehicle_type_id":"4","last_reported":1731690465,"current_range_meters":20800,"station_id":"ce4bhbp2rcd13ifvqerg","pricing_plan_id":"cebpf4jnsgd1na2vs0mg"},{"bike_id":"87156f78-2e09-4e66-89df-0a85c184e89b","system_id":"levelo_inurba_marseille","lat":43.27946,"lon":5.41047,"is_reserved":false,"is_disabled":false,"rental_uris":{"android":"levelo://app?vid=87156f78-2e09-4e66-89df-0a85c184e89b","ios":"levelo://app?vid=87156f78-2e09-4e66-89df-0a85c184e89b"},"vehicle_type_id":"4","last_reported":1731690465,"current_range_meters":28400,"station_id":"ce4bhnp2rcd13ifvqh0g","pricing_plan_id":"cebpf4jnsgd1na2vs0mg"},{"bike_id":"2307c0be-c717-4c96-858c-0dc2b95f103e","system_id":"levelo_inurba_marseille","lat":43.29526,"lon":5.39033,"is_reserved":false,"is_disabled":false,"rental_uris":{"android":"levelo://app?vid=2307c0be-c717-4c96-858c-0dc2b95f103e","ios":"levelo://app?vid=2307c0be-c717-4c96-858c-0dc2b95f103e"},"vehicle_type_id":"4","last_reported":1731690465,"current_range_meters":3600,"station_id":"ce4bh3p2rcd13ifvqdp0","pricing_plan_id":"cebpf4jnsgd1na2vs0mg"},{"bike_id":"60467706-61c9-404e-ba60-2ce63f77fa0c","system_id":"levelo_inurba_marseille","lat":43.28445,"lon":5.39204,"is_reserved":false,"is_disabled":false,"rental_uris":{"android":"levelo://app?vid=60467706-61c9-404e-ba60-2ce63f77fa0c","ios":"levelo://app?vid=60467706-61c9-404e-ba60-2ce63f77fa0c"},"vehicle_type_id":"4","last_reported":1731690465,"current_range_meters":38000,"station_id":"ce4bhoh2rcd13ifvqh5g","pricing_plan_id":"cebpf4jnsgd1na2vs0mg"},{"bike_id":"555f83bb-9fe2-40e8-be6d-2b975f2ea562","system_id":"levelo_inurba_marseille","lat":43.27998,"lon":5.4001,"is_reserved":false,"is_disabled":false,"rental_uris":{"android":"levelo://app?vid=555f83bb-9fe2-40e8-be6d-2b975f2ea562","ios":"levelo://app?vid=555f83bb-9fe2-40e8-be6d-2b975f2ea562"},"vehicle_type_id":"4","last_reported":1731690465,"current_range_meters":22400,"station_id":"ce4bho92rcd13ifvqh4g","pricing_plan_id":"cebpf4jnsgd1na2vs0mg"},{"bike_id":"e40acb1f-7c3b-464f-a385-d83d7c01e615","system_id":"levelo_inurba_marseille","lat":43.32287,"lon":5.38267,"is_reserved":false,"is_disabled":false,"rental_uris":{"android":"levelo://app?vid=e40acb1f-7c3b-464f-a385-d83d7c01e615","ios":"levelo://app?vid=e40acb1f-7c3b-464f-a385-d83d7c01e615"},"vehicle_type_id":"4","last_reported":1731690465,"current_range_meters":20800,"station_id":"ce4bhr12rcd13ifvqhqg","pricing_plan_id":"cebpf4jnsgd1na2vs0mg"},{"bike_id":"383dbfdd-dadc-4957-9c5a-2d452e2c74c2","system_id":"levelo_inurba_marseille","lat":43.29533,"lon":5.38543,"is_reserved":false,"is_disabled":false,"rental_uris":{"android":"levelo://app?vid=383dbfdd-dadc-4957-9c5a-2d452e2c74c2","ios":"levelo://app?vid=383dbfdd-dadc-4957-9c5a-2d452e2c74c2"},"vehicle_type_id":"4","last_reported":1731690465,"current_range_meters":36800,"station_id":"ce4bgih2rcd13ifvqba0","pricing_plan_id":"cebpf4jnsgd1na2vs0mg"},{"bike_id":"6130b50e-237e-4455-bf2d-e5209d08270f","system_id":"levelo_inurba_marseille","lat":43.33023,"lon":5.39044,"is_reserved":false,"is_disabled":false,"rental_uris":{"android":"levelo://app?vid=6130b50e-237e-4455-bf2d-e5209d08270f","ios":"levelo://app?vid=6130b50e-237e-4455-bf2d-e5209d08270f"},"vehicle_type_id":"4","last_reported":1731690465,"current_range_meters":16400,"station_id":"ce4bhr92rcd13ifvqhrg","pricing_plan_id":"cebpf4jnsgd1na2vs0mg"},{"bike_id":"a864e236-0496-4a4e-ae47-3579f4163e98","system_id":"levelo_inurba_marseille","lat":43.25719,"lon":5.41119,"is_reserved":false,"is_disabled":false,"rental_uris":{"android":"levelo://app?vid=a864e236-0496-4a4e-ae47-3579f4163e98","ios":"levelo://app?vid=a864e236-0496-4a4e-ae47-3579f4163e98"},"vehicle_type_id":"4","last_reported":1731690465,"current_range_meters":39200,"station_id":"ce4bhkp2rcd13ifvqgd0","pricing_plan_id":"cebpf4jnsgd1na2vs0mg"},{"bike_id":"1cf741d7-e403-4869-b6f3-8348c73bd258","system_id":"levelo_inurba_marseille","lat":43.27995,"lon":5.40009,"is_reserved":false,"is_disabled":false,"rental_uris":{"android":"levelo://app?vid=1cf741d7-e403-4869-b6f3-8348c73bd258","ios":"levelo://app?vid=1cf741d7-e403-4869-b6f3-8348c73bd258"},"vehicle_type_id":"4","last_reported":1731690465,"current_range_meters":7200,"station_id":"ce4bho92rcd13ifvqh4g","pricing_plan_id":"cebpf4jnsgd1na2vs0mg"},{"bike_id":"c74f110d-168f-41a7-a48a-157d79ae2196","system_id":"levelo_inurba_marseille","lat":43.33026,"lon":5.39043,"is_reserved":false,"is_disabled":false,"rental_uris":{"android":"levelo://app?vid=c74f110d-168f-41a7-a48a-157d79ae2196","ios":"levelo://app?vid=c74f110d-168f-41a7-a48a-157d79ae2196"},"vehicle_type_id":"4","last_reported":1731690465,"current_range_meters":38400,"station_id":"ce4bhr92rcd13ifvqhrg","pricing_plan_id":"cebpf4jnsgd1na2vs0mg"},{"bike_id":"0346a0b5-5372-494a-ae49-398c07c6e5e2","system_id":"levelo_inurba_marseille","lat":43.30648,"lon":5.40087,"is_reserved":false,"is_disabled":false,"rental_uris":{"android":"levelo://app?vid=0346a0b5-5372-494a-ae49-398c07c6e5e2","ios":"levelo://app?vid=0346a0b5-5372-494a-ae49-398c07c6e5e2"},"vehicle_type_id":"4","last_reported":1731690465,"current_range_meters":10000,"station_id":"ce4bh112rcd13ifvqda0","pricing_plan_id":"cebpf4jnsgd1na2vs0mg"},{"bike_id":"f5bcb332-b8ba-4ea7-b06c-23ba3e56385b","system_id":"levelo_inurba_marseille","lat":43.28977,"lon":5.37838,"is_reserved":false,"is_disabled":false,"rental_uris":{"android":"levelo://app?vid=f5bcb332-b8ba-4ea7-b06c-23ba3e56385b","ios":"levelo://app?vid=f5bcb332-b8ba-4ea7-b06c-23ba3e56385b"},"vehicle_type_id":"4","last_reported":1731690465,"current_range_meters":37600,"station_id":"ce4bh9p2rcd13ifvqed0","pricing_plan_id":"cebpf4jnsgd1na2vs0mg"},{"bike_id":"76fda271-4bcd-4529-8397-8074a1eff7fe","system_id":"levelo_inurba_marseille","lat":43.337444,"lon":5.374475,"is_reserved":false,"is_disabled":false,"rental_uris":{"android":"levelo://app?vid=76fda271-4bcd-4529-8397-8074a1eff7fe","ios":"levelo://app?vid=76fda271-4bcd-4529-8397-8074a1eff7fe"},"vehicle_type_id":"4","last_reported":1731690465,"current_range_meters":36800,"station_id":"","pricing_plan_id":"cebpf4jnsgd1na2vs0mg"},{"bike_id":"7125cda5-6cac-4f0d-b24c-2d801b2955b5","system_id":"levelo_inurba_marseille","lat":43.23182,"lon":5.399866,"is_reserved":false,"is_disabled":false,"rental_uris":{"android":"levelo://app?vid=7125cda5-6cac-4f0d-b24c-2d801b2955b5","ios":"levelo://app?vid=7125cda5-6cac-4f0d-b24c-2d801b2955b5"},"vehicle_type_id":"4","last_reported":1731690465,"current_range_meters":38800,"station_id":"ce4bhn12rcd13ifvqgqg","pricing_plan_id":"cebpf4jnsgd1na2vs0mg"},{"bike_id":"e1d99038-7e04-4349-85a1-8e294cfb582c","system_id":"levelo_inurba_marseille","lat":43.30906,"lon":5.36855,"is_reserved":false,"is_disabled":false,"rental_uris":{"android":"levelo://app?vid=e1d99038-7e04-4349-85a1-8e294cfb582c","ios":"levelo://app?vid=e1d99038-7e04-4349-85a1-8e294cfb582c"},"vehicle_type_id":"4","last_reported":1731690465,"current_range_meters":28400,"station_id":"ce4bgn92rcd13ifvqbvg","pricing_plan_id":"cebpf4jnsgd1na2vs0mg"},{"bike_id":"08d2e57d-c7cd-4b8a-907a-9f25492842e0","system_id":"levelo_inurba_marseille","lat":43.31528,"lon":5.3804,"is_reserved":false,"is_disabled":false,"rental_uris":{"android":"levelo://app?vid=08d2e57d-c7cd-4b8a-907a-9f25492842e0","ios":"levelo://app?vid=08d2e57d-c7cd-4b8a-907a-9f25492842e0"},"vehicle_type_id":"4","last_reported":1731690465,"current_range_meters":9200,"station_id":"ce4bhsp2rcd13ifvqi50","pricing_plan_id":"cebpf4jnsgd1na2vs0mg"},{"bike_id":"94067e3f-2384-43c9-a474-9039c79d3d50","system_id":"levelo_inurba_marseille","lat":43.2315,"lon":5.43715,"is_reserved":false,"is_disabled":false,"rental_uris":{"android":"levelo://app?vid=94067e3f-2384-43c9-a474-9039c79d3d50","ios":"levelo://app?vid=94067e3f-2384-43c9-a474-9039c79d3d50"},"vehicle_type_id":"4","last_reported":1731690465,"current_range_meters":38800,"station_id":"ce4bhmp2rcd13ifvqgog","pricing_plan_id":"cebpf4jnsgd1na2vs0mg"},{"bike_id":"539f0c14-7bb6-493b-9fa5-aa616197103d","system_id":"levelo_inurba_marseille","lat":43.29564,"lon":5.37513,"is_reserved":false,"is_disabled":false,"rental_uris":{"android":"levelo://app?vid=539f0c14-7bb6-493b-9fa5-aa616197103d","ios":"levelo://app?vid=539f0c14-7bb6-493b-9fa5-aa616197103d"},"vehicle_type_id":"4","last_reported":1731690465,"current_range_meters":37600,"station_id":"ce4bgh92rcd13ifvqb50","pricing_plan_id":"cebpf4jnsgd1na2vs0mg"},{"bike_id":"6d757fef-4f26-43f9-ac2c-ffab39bf7dae","system_id":"levelo_inurba_marseille","lat":43.32249,"lon":5.36901,"is_reserved":false,"is_disabled":false,"rental_uris":{"android":"levelo://app?vid=6d757fef-4f26-43f9-ac2c-ffab39bf7dae","ios":"levelo://app?vid=6d757fef-4f26-43f9-ac2c-ffab39bf7dae"},"vehicle_type_id":"4","last_reported":1731690465,"current_range_meters":23200,"station_id":"","pricing_plan_id":"cebpf4jnsgd1na2vs0mg"},{"bike_id":"f02f7adf-8409-4de0-b289-a3af96cd945a","system_id":"levelo_inurba_marseille","lat":43.2816,"lon":5.42636,"is_reserved":false,"is_disabled":false,"rental_uris":{"android":"levelo://app?vid=f02f7adf-8409-4de0-b289-a3af96cd945a","ios":"levelo://app?vid=f02f7adf-8409-4de0-b289-a3af96cd945a"},"vehicle_type_id":"4","last_reported":1731690465,"current_range_meters":15200,"station_id":"ce4bhnh2rcd13ifvqgug","pricing_plan_id":"cebpf4jnsgd1na2vs0mg"},{"bike_id":"7be3dee4-c133-4b95-9d18-2d1a7cc78f0b","system_id":"levelo_inurba_marseille","lat":43.29002,"lon":5.35616,"is_reserved":false,"is_disabled":false,"rental_uris":{"android":"levelo://app?vid=7be3dee4-c133-4b95-9d18-2d1a7cc78f0b","ios":"levelo://app?vid=7be3dee4-c133-4b95-9d18-2d1a7cc78f0b"},"vehicle_type_id":"4","last_reported":1731690465,"current_range_meters":10800,"station_id":"ce4bhb92rcd13ifvqen0","pricing_plan_id":"cebpf4jnsgd1na2vs0mg"},{"bike_id":"7aaaa027-3143-4b43-8382-07c37a53a6d0","system_id":"levelo_inurba_marseille","lat":43.25579,"lon":5.38232,"is_reserved":false,"is_disabled":false,"rental_uris":{"android":"levelo://app?vid=7aaaa027-3143-4b43-8382-07c37a53a6d0","ios":"levelo://app?vid=7aaaa027-3143-4b43-8382-07c37a53a6d0"},"vehicle_type_id":"4","last_reported":1731690465,"current_range_meters":8800,"station_id":"ce4bhih2rcd13ifvqfs0","pricing_plan_id":"cebpf4jnsgd1na2vs0mg"},{"bike_id":"6aee74fd-9094-416f-8ce1-7a1e6d33c4e6","system_id":"levelo_inurba_marseille","lat":43.32289,"lon":5.38287,"is_reserved":false,"is_disabled":false,"rental_uris":{"android":"levelo://app?vid=6aee74fd-9094-416f-8ce1-7a1e6d33c4e6","ios":"levelo://app?vid=6aee74fd-9094-416f-8ce1-7a1e6d33c4e6"},"vehicle_type_id":"4","last_reported":1731690465,"current_range_meters":10000,"station_id":"ce4bhr12rcd13ifvqhqg","pricing_plan_id":"cebpf4jnsgd1na2vs0mg"},{"bike_id":"aa6dc477-f689-4f54-a32c-590a92ca76b2","system_id":"levelo_inurba_marseille","lat":43.23183,"lon":5.39991,"is_reserved":false,"is_disabled":false,"rental_uris":{"android":"levelo://app?vid=aa6dc477-f689-4f54-a32c-590a92ca76b2","ios":"levelo://app?vid=aa6dc477-f689-4f54-a32c-590a92ca76b2"},"vehicle_type_id":"4","last_reported":1731690465,"current_range_meters":5600,"station_id":"ce4bhn12rcd13ifvqgqg","pricing_plan_id":"cebpf4jnsgd1na2vs0mg"},{"bike_id":"bad94056-7525-47ae-929c-6f5d770d1699","system_id":"levelo_inurba_marseille","lat":43.26057,"lon":5.39401,"is_reserved":false,"is_disabled":false,"rental_uris":{"android":"levelo://app?vid=bad94056-7525-47ae-929c-6f5d770d1699","ios":"levelo://app?vid=bad94056-7525-47ae-929c-6f5d770d1699"},"vehicle_type_id":"4","last_reported":1731690465,"current_range_meters":14800,"station_id":"ce4bhh92rcd13ifvqfj0","pricing_plan_id":"cebpf4jnsgd1na2vs0mg"},{"bike_id":"696faa80-7da0-4320-9d2f-b8fc33dca77f","system_id":"levelo_inurba_marseille","lat":43.32032,"lon":5.41535,"is_reserved":false,"is_disabled":false,"rental_uris":{"android":"levelo://app?vid=696faa80-7da0-4320-9d2f-b8fc33dca77f","ios":"levelo://app?vid=696faa80-7da0-4320-9d2f-b8fc33dca77f"},"vehicle_type_id":"4","last_reported":1731690465,"current_range_meters":3200,"station_id":"ce4bhq92rcd13ifvqhkg","pricing_plan_id":"cebpf4jnsgd1na2vs0mg"},{"bike_id":"17aa3284-92db-43dd-af70-225e250ba6ed","system_id":"levelo_inurba_marseille","lat":43.29519,"lon":5.39402,"is_reserved":false,"is_disabled":false,"rental_uris":{"android":"levelo://app?vid=17aa3284-92db-43dd-af70-225e250ba6ed","ios":"levelo://app?vid=17aa3284-92db-43dd-af70-225e250ba6ed"},"vehicle_type_id":"4","last_reported":1731690465,"current_range_meters":25200,"station_id":"ce4bh292rcd13ifvqdf0","pricing_plan_id":"cebpf4jnsgd1na2vs0mg"},{"bike_id":"82e3afb1-ca8b-4df0-b72a-9a31e53b6ba1","system_id":"levelo_inurba_marseille","lat":43.3055,"lon":5.36556,"is_reserved":false,"is_disabled":false,"rental_uris":{"android":"levelo://app?vid=82e3afb1-ca8b-4df0-b72a-9a31e53b6ba1","ios":"levelo://app?vid=82e3afb1-ca8b-4df0-b72a-9a31e53b6ba1"},"vehicle_type_id":"4","last_reported":1731690465,"current_range_meters":10000,"station_id":"","pricing_plan_id":"cebpf4jnsgd1na2vs0mg"},{"bike_id":"279a1aeb-91cc-412a-b34c-2e9db781d997","system_id":"levelo_inurba_marseille","lat":43.2979,"lon":5.39343,"is_reserved":false,"is_disabled":false,"rental_uris":{"android":"levelo://app?vid=279a1aeb-91cc-412a-b34c-2e9db781d997","ios":"levelo://app?vid=279a1aeb-91cc-412a-b34c-2e9db781d997"},"vehicle_type_id":"4","last_reported":1731690465,"current_range_meters":38800,"station_id":"chh1huq6cuj3fo74tm60","pricing_plan_id":"cebpf4jnsgd1na2vs0mg"},{"bike_id":"37bb428b-fe05-4a2e-8ba8-75741613c834","system_id":"levelo_inurba_marseille","lat":43.25824,"lon":5.39435,"is_reserved":false,"is_disabled":false,"rental_uris":{"android":"levelo://app?vid=37bb428b-fe05-4a2e-8ba8-75741613c834","ios":"levelo://app?vid=37bb428b-fe05-4a2e-8ba8-75741613c834"},"vehicle_type_id":"4","last_reported":1731690465,"current_range_meters":38400,"station_id":"ce4bhip2rcd13ifvqft0","pricing_plan_id":"cebpf4jnsgd1na2vs0mg"},{"bike_id":"9b0ddf99-7db8-41b3-a2fe-dd37e4f05770","system_id":"levelo_inurba_marseille","lat":43.30288,"lon":5.37698,"is_reserved":false,"is_disabled":false,"rental_uris":{"android":"levelo://app?vid=9b0ddf99-7db8-41b3-a2fe-dd37e4f05770","ios":"levelo://app?vid=9b0ddf99-7db8-41b3-a2fe-dd37e4f05770"},"vehicle_type_id":"4","last_reported":1731690465,"current_range_meters":24400,"station_id":"ce4bguh2rcd13ifvqcj0","pricing_plan_id":"cebpf4jnsgd1na2vs0mg"},{"bike_id":"68c9b493-bbdd-4643-a166-d507c7f2b77b","system_id":"levelo_inurba_marseille","lat":43.31692,"lon":5.40477,"is_reserved":false,"is_disabled":false,"rental_uris":{"android":"levelo://app?vid=68c9b493-bbdd-4643-a166-d507c7f2b77b","ios":"levelo://app?vid=68c9b493-bbdd-4643-a166-d507c7f2b77b"},"vehicle_type_id":"4","last_reported":1731690465,"current_range_meters":25600,"station_id":"ce4bh012rcd13ifvqd00","pricing_plan_id":"cebpf4jnsgd1na2vs0mg"},{"bike_id":"e2fe024f-a59d-4c5d-82fa-8dcd6a429744","system_id":"levelo_inurba_marseille","lat":43.28411,"lon":5.3751,"is_reserved":false,"is_disabled":false,"rental_uris":{"android":"levelo://app?vid=e2fe024f-a59d-4c5d-82fa-8dcd6a429744","ios":"levelo://app?vid=e2fe024f-a59d-4c5d-82fa-8dcd6a429744"},"vehicle_type_id":"4","last_reported":1731690465,"current_range_meters":6800,"station_id":"ce4bh412rcd13ifvqds0","pricing_plan_id":"cebpf4jnsgd1na2vs0mg"},{"bike_id":"85dad442-5742-4ee1-93f3-6cdcb2afd771","system_id":"levelo_inurba_marseille","lat":43.30137,"lon":5.38922,"is_reserved":false,"is_disabled":false,"rental_uris":{"android":"levelo://app?vid=85dad442-5742-4ee1-93f3-6cdcb2afd771","ios":"levelo://app?vid=85dad442-5742-4ee1-93f3-6cdcb2afd771"},"vehicle_type_id":"4","last_reported":1731690465,"current_range_meters":30400,"station_id":"","pricing_plan_id":"cebpf4jnsgd1na2vs0mg"},{"bike_id":"f18a9be6-e06c-47af-8bf1-067173c124c6","system_id":"levelo_inurba_marseille","lat":43.29586,"lon":5.3674,"is_reserved":false,"is_disabled":false,"rental_uris":{"android":"levelo://app?vid=f18a9be6-e06c-47af-8bf1-067173c124c6","ios":"levelo://app?vid=f18a9be6-e06c-47af-8bf1-067173c124c6"},"vehicle_type_id":"4","last_reported":1731690465,"current_range_meters":14400,"station_id":"ce4bgph2rcd13ifvqc2g","pricing_plan_id":"cebpf4jnsgd1na2vs0mg"},{"bike_id":"b61706e7-a709-4016-a24e-a0b6d715ba54","system_id":"levelo_inurba_marseille","lat":43.28656,"lon":5.3636,"is_reserved":false,"is_disabled":false,"rental_uris":{"android":"levelo://app?vid=b61706e7-a709-4016-a24e-a0b6d715ba54","ios":"levelo://app?vid=b61706e7-a709-4016-a24e-a0b6d715ba54"},"vehicle_type_id":"4","last_reported":1731690465,"current_range_meters":6000,"station_id":"ce4bhah2rcd13ifvqej0","pricing_plan_id":"cebpf4jnsgd1na2vs0mg"},{"bike_id":"b44943cc-19b6-417c-866f-0d31c7490588","system_id":"levelo_inurba_marseille","lat":43.30645,"lon":5.40084,"is_reserved":false,"is_disabled":false,"rental_uris":{"android":"levelo://app?vid=b44943cc-19b6-417c-866f-0d31c7490588","ios":"levelo://app?vid=b44943cc-19b6-417c-866f-0d31c7490588"},"vehicle_type_id":"4","last_reported":1731690465,"current_range_meters":5600,"station_id":"ce4bh112rcd13ifvqda0","pricing_plan_id":"cebpf4jnsgd1na2vs0mg"},{"bike_id":"d9958fac-26ab-4175-9ec0-26ae3290563a","system_id":"levelo_inurba_marseille","lat":43.27997,"lon":5.41664,"is_reserved":false,"is_disabled":false,"rental_uris":{"android":"levelo://app?vid=d9958fac-26ab-4175-9ec0-26ae3290563a","ios":"levelo://app?vid=d9958fac-26ab-4175-9ec0-26ae3290563a"},"vehicle_type_id":"4","last_reported":1731690465,"current_range_meters":15200,"station_id":"ce4bho12rcd13ifvqh1g","pricing_plan_id":"cebpf4jnsgd1na2vs0mg"},{"bike_id":"6c87ba47-6ec5-4928-a4ff-5f89bdc81b1c","system_id":"levelo_inurba_marseille","lat":43.29095,"lon":5.3812,"is_reserved":false,"is_disabled":false,"rental_uris":{"android":"levelo://app?vid=6c87ba47-6ec5-4928-a4ff-5f89bdc81b1c","ios":"levelo://app?vid=6c87ba47-6ec5-4928-a4ff-5f89bdc81b1c"},"vehicle_type_id":"4","last_reported":1731690465,"current_range_meters":25600,"station_id":"ce4bh512rcd13ifvqe2g","pricing_plan_id":"cebpf4jnsgd1na2vs0mg"},{"bike_id":"8040124f-b3ed-490f-bb8a-08a5d4c99350","system_id":"levelo_inurba_marseille","lat":43.24183,"lon":5.39725,"is_reserved":false,"is_disabled":false,"rental_uris":{"android":"levelo://app?vid=8040124f-b3ed-490f-bb8a-08a5d4c99350","ios":"levelo://app?vid=8040124f-b3ed-490f-bb8a-08a5d4c99350"},"vehicle_type_id":"4","last_reported":1731690465,"current_range_meters":4800,"station_id":"ce4bhn12rcd13ifvqgpg","pricing_plan_id":"cebpf4jnsgd1na2vs0mg"},{"bike_id":"5a5e1aa6-3505-499c-9c37-55df6d921e47","system_id":"levelo_inurba_marseille","lat":43.28567,"lon":5.39494,"is_reserved":false,"is_disabled":false,"rental_uris":{"android":"levelo://app?vid=5a5e1aa6-3505-499c-9c37-55df6d921e47","ios":"levelo://app?vid=5a5e1aa6-3505-499c-9c37-55df6d921e47"},"vehicle_type_id":"4","last_reported":1731690465,"current_range_meters":14400,"station_id":"ce4bh292rcd13ifvqdg0","pricing_plan_id":"cebpf4jnsgd1na2vs0mg"},{"bike_id":"b54f4471-f146-477a-ade3-58e1dea1b85e","system_id":"levelo_inurba_marseille","lat":43.337444,"lon":5.374475,"is_reserved":false,"is_disabled":false,"rental_uris":{"android":"levelo://app?vid=b54f4471-f146-477a-ade3-58e1dea1b85e","ios":"levelo://app?vid=b54f4471-f146-477a-ade3-58e1dea1b85e"},"vehicle_type_id":"4","last_reported":1731690465,"current_range_meters":36400,"station_id":"","pricing_plan_id":"cebpf4jnsgd1na2vs0mg"},{"bike_id":"71b088a9-6eb7-4a37-a37b-975dc63e11b2","system_id":"levelo_inurba_marseille","lat":43.311492,"lon":5.387313,"is_reserved":false,"is_disabled":false,"rental_uris":{"android":"levelo://app?vid=71b088a9-6eb7-4a37-a37b-975dc63e11b2","ios":"levelo://app?vid=71b088a9-6eb7-4a37-a37b-975dc63e11b2"},"vehicle_type_id":"4","last_reported":1731690465,"current_range_meters":27600,"station_id":"ce4bgv12rcd13ifvqcp0","pricing_plan_id":"cebpf4jnsgd1na2vs0mg"},{"bike_id":"ff7ac09f-f3e7-4a0a-baba-b2d9ae8828b2","system_id":"levelo_inurba_marseille","lat":43.27997,"lon":5.41663,"is_reserved":false,"is_disabled":false,"rental_uris":{"android":"levelo://app?vid=ff7ac09f-f3e7-4a0a-baba-b2d9ae8828b2","ios":"levelo://app?vid=ff7ac09f-f3e7-4a0a-baba-b2d9ae8828b2"},"vehicle_type_id":"4","last_reported":1731690465,"current_range_meters":8800,"station_id":"ce4bho12rcd13ifvqh1g","pricing_plan_id":"cebpf4jnsgd1na2vs0mg"},{"bike_id":"792531a3-4da6-4082-bd0a-16451cbb2558","system_id":"levelo_inurba_marseille","lat":43.26026,"lon":5.3755,"is_reserved":false,"is_disabled":false,"rental_uris":{"android":"levelo://app?vid=792531a3-4da6-4082-bd0a-16451cbb2558","ios":"levelo://app?vid=792531a3-4da6-4082-bd0a-16451cbb2558"},"vehicle_type_id":"4","last_reported":1731690465,"current_range_meters":20400,"station_id":"ce4bhgh2rcd13ifvqfa0","pricing_plan_id":"cebpf4jnsgd1na2vs0mg"},{"bike_id":"805cfe6b-be44-4949-bab5-57b1ce8478a4","system_id":"levelo_inurba_marseille","lat":43.33752,"lon":5.37459,"is_reserved":false,"is_disabled":false,"rental_uris":{"android":"levelo://app?vid=805cfe6b-be44-4949-bab5-57b1ce8478a4","ios":"levelo://app?vid=805cfe6b-be44-4949-bab5-57b1ce8478a4"},"vehicle_type_id":"4","last_reported":1731690465,"current_range_meters":32800,"station_id":"","pricing_plan_id":"cebpf4jnsgd1na2vs0mg"},{"bike_id":"4b0cd02b-710e-4206-bb23-694dd52e493b","system_id":"levelo_inurba_marseille","lat":43.26032,"lon":5.37549,"is_reserved":false,"is_disabled":false,"rental_uris":{"android":"levelo://app?vid=4b0cd02b-710e-4206-bb23-694dd52e493b","ios":"levelo://app?vid=4b0cd02b-710e-4206-bb23-694dd52e493b"},"vehicle_type_id":"4","last_reported":1731690465,"current_range_meters":38800,"station_id":"ce4bhgh2rcd13ifvqfa0","pricing_plan_id":"cebpf4jnsgd1na2vs0mg"},{"bike_id":"b38c59a0-ce08-4eb9-b870-02b578ca24a3","system_id":"levelo_inurba_marseille","lat":43.3193,"lon":5.38598,"is_reserved":false,"is_disabled":false,"rental_uris":{"android":"levelo://app?vid=b38c59a0-ce08-4eb9-b870-02b578ca24a3","ios":"levelo://app?vid=b38c59a0-ce08-4eb9-b870-02b578ca24a3"},"vehicle_type_id":"4","last_reported":1731690465,"current_range_meters":30800,"station_id":"","pricing_plan_id":"cebpf4jnsgd1na2vs0mg"},{"bike_id":"79bc3797-24d7-414c-9b31-84fb58bd4c5e","system_id":"levelo_inurba_marseille","lat":43.295748,"lon":5.375201,"is_reserved":false,"is_disabled":false,"rental_uris":{"android":"levelo://app?vid=79bc3797-24d7-414c-9b31-84fb58bd4c5e","ios":"levelo://app?vid=79bc3797-24d7-414c-9b31-84fb58bd4c5e"},"vehicle_type_id":"4","last_reported":1731690465,"current_range_meters":18000,"station_id":"ce4bgh92rcd13ifvqb50","pricing_plan_id":"cebpf4jnsgd1na2vs0mg"},{"bike_id":"ca655f3b-8380-4045-b3f8-8acaa0e83ede","system_id":"levelo_inurba_marseille","lat":43.33733,"lon":5.37456,"is_reserved":false,"is_disabled":false,"rental_uris":{"android":"levelo://app?vid=ca655f3b-8380-4045-b3f8-8acaa0e83ede","ios":"levelo://app?vid=ca655f3b-8380-4045-b3f8-8acaa0e83ede"},"vehicle_type_id":"4","last_reported":1731690465,"current_range_meters":36000,"station_id":"","pricing_plan_id":"cebpf4jnsgd1na2vs0mg"},{"bike_id":"b2c5afb2-775c-40c1-8a4b-46f1b26d6d05","system_id":"levelo_inurba_marseille","lat":43.304962,"lon":5.399009,"is_reserved":false,"is_disabled":false,"rental_uris":{"android":"levelo://app?vid=b2c5afb2-775c-40c1-8a4b-46f1b26d6d05","ios":"levelo://app?vid=b2c5afb2-775c-40c1-8a4b-46f1b26d6d05"},"vehicle_type_id":"4","last_reported":1731690465,"current_range_meters":25200,"station_id":"ce4bh092rcd13ifvqd20","pricing_plan_id":"cebpf4jnsgd1na2vs0mg"},{"bike_id":"a6b8c285-acc9-4039-9531-1aae39136a33","system_id":"levelo_inurba_marseille","lat":43.312042,"lon":5.367348,"is_reserved":false,"is_disabled":false,"rental_uris":{"android":"levelo://app?vid=a6b8c285-acc9-4039-9531-1aae39136a33","ios":"levelo://app?vid=a6b8c285-acc9-4039-9531-1aae39136a33"},"vehicle_type_id":"4","last_reported":1731690465,"current_range_meters":18800,"station_id":"","pricing_plan_id":"cebpf4jnsgd1na2vs0mg"},{"bike_id":"48569d0f-1982-41d0-952c-7b04e97bca53","system_id":"levelo_inurba_marseille","lat":43.30117,"lon":5.39846,"is_reserved":false,"is_disabled":false,"rental_uris":{"android":"levelo://app?vid=48569d0f-1982-41d0-952c-7b04e97bca53","ios":"levelo://app?vid=48569d0f-1982-41d0-952c-7b04e97bca53"},"vehicle_type_id":"4","last_reported":1731690465,"current_range_meters":29600,"station_id":"ce4bh0h2rcd13ifvqd40","pricing_plan_id":"cebpf4jnsgd1na2vs0mg"},{"bike_id":"5c254126-8805-4ed8-9520-9f63561143b3","system_id":"levelo_inurba_marseille","lat":43.2417,"lon":5.36403,"is_reserved":false,"is_disabled":false,"rental_uris":{"android":"levelo://app?vid=5c254126-8805-4ed8-9520-9f63561143b3","ios":"levelo://app?vid=5c254126-8805-4ed8-9520-9f63561143b3"},"vehicle_type_id":"4","last_reported":1731690465,"current_range_meters":26000,"station_id":"cpo36qri1sfpv3e86is0","pricing_plan_id":"cebpf4jnsgd1na2vs0mg"},{"bike_id":"988983bd-36fc-47eb-948a-a568ec42ac29","system_id":"levelo_inurba_marseille","lat":43.28921,"lon":5.38421,"is_reserved":false,"is_disabled":false,"rental_uris":{"android":"levelo://app?vid=988983bd-36fc-47eb-948a-a568ec42ac29","ios":"levelo://app?vid=988983bd-36fc-47eb-948a-a568ec42ac29"},"vehicle_type_id":"4","last_reported":1731690465,"current_range_meters":22000,"station_id":"ce4bh612rcd13ifvqe6g","pricing_plan_id":"cebpf4jnsgd1na2vs0mg"},{"bike_id":"efe2cc7d-fa1e-4bf8-9e96-4f426ad99094","system_id":"levelo_inurba_marseille","lat":43.29862,"lon":5.39732,"is_reserved":false,"is_disabled":false,"rental_uris":{"android":"levelo://app?vid=efe2cc7d-fa1e-4bf8-9e96-4f426ad99094","ios":"levelo://app?vid=efe2cc7d-fa1e-4bf8-9e96-4f426ad99094"},"vehicle_type_id":"4","last_reported":1731690465,"current_range_meters":16800,"station_id":"ce4bh0h2rcd13ifvqd50","pricing_plan_id":"cebpf4jnsgd1na2vs0mg"},{"bike_id":"1ae8fe75-00ad-479b-a755-74d45d76bfbe","system_id":"levelo_inurba_marseille","lat":43.24169,"lon":5.36404,"is_reserved":false,"is_disabled":false,"rental_uris":{"android":"levelo://app?vid=1ae8fe75-00ad-479b-a755-74d45d76bfbe","ios":"levelo://app?vid=1ae8fe75-00ad-479b-a755-74d45d76bfbe"},"vehicle_type_id":"4","last_reported":1731690465,"current_range_meters":10000,"station_id":"cpo36qri1sfpv3e86is0","pricing_plan_id":"cebpf4jnsgd1na2vs0mg"},{"bike_id":"5df34f29-1a7a-4221-97e5-c009d97a2929","system_id":"levelo_inurba_marseille","lat":43.23845,"lon":5.36542,"is_reserved":false,"is_disabled":false,"rental_uris":{"android":"levelo://app?vid=5df34f29-1a7a-4221-97e5-c009d97a2929","ios":"levelo://app?vid=5df34f29-1a7a-4221-97e5-c009d97a2929"},"vehicle_type_id":"4","last_reported":1731690465,"current_range_meters":14000,"station_id":"","pricing_plan_id":"cebpf4jnsgd1na2vs0mg"},{"bike_id":"92ac4858-87d6-4ceb-8f6e-004635a816a8","system_id":"levelo_inurba_marseille","lat":43.27785,"lon":5.40741,"is_reserved":false,"is_disabled":false,"rental_uris":{"android":"levelo://app?vid=92ac4858-87d6-4ceb-8f6e-004635a816a8","ios":"levelo://app?vid=92ac4858-87d6-4ceb-8f6e-004635a816a8"},"vehicle_type_id":"4","last_reported":1731690465,"current_range_meters":36400,"station_id":"ce4bhnh2rcd13ifvqgtg","pricing_plan_id":"cebpf4jnsgd1na2vs0mg"},{"bike_id":"acbc00e5-ee7b-4767-84c7-75c9975437bd","system_id":"levelo_inurba_marseille","lat":43.31082,"lon":5.4243,"is_reserved":false,"is_disabled":false,"rental_uris":{"android":"levelo://app?vid=acbc00e5-ee7b-4767-84c7-75c9975437bd","ios":"levelo://app?vid=acbc00e5-ee7b-4767-84c7-75c9975437bd"},"vehicle_type_id":"4","last_reported":1731690465,"current_range_meters":13600,"station_id":"ce4bhp92rcd13ifvqhag","pricing_plan_id":"cebpf4jnsgd1na2vs0mg"},{"bike_id":"acccc9dd-ae8e-4182-bf16-701672e8ed55","system_id":"levelo_inurba_marseille","lat":43.25718,"lon":5.41106,"is_reserved":false,"is_disabled":false,"rental_uris":{"android":"levelo://app?vid=acccc9dd-ae8e-4182-bf16-701672e8ed55","ios":"levelo://app?vid=acccc9dd-ae8e-4182-bf16-701672e8ed55"},"vehicle_type_id":"4","last_reported":1731690465,"current_range_meters":38800,"station_id":"ce4bhkp2rcd13ifvqgd0","pricing_plan_id":"cebpf4jnsgd1na2vs0mg"},{"bike_id":"d37a5777-a5f5-4b7f-b7f5-a1dae307da91","system_id":"levelo_inurba_marseille","lat":43.23191,"lon":5.3556,"is_reserved":false,"is_disabled":false,"rental_uris":{"android":"levelo://app?vid=d37a5777-a5f5-4b7f-b7f5-a1dae307da91","ios":"levelo://app?vid=d37a5777-a5f5-4b7f-b7f5-a1dae307da91"},"vehicle_type_id":"4","last_reported":1731690465,"current_range_meters":36400,"station_id":"ce4bhu92rcd13ifvqi70","pricing_plan_id":"cebpf4jnsgd1na2vs0mg"},{"bike_id":"e376d725-0f03-4d40-addb-58fb81761dd4","system_id":"levelo_inurba_marseille","lat":43.2956,"lon":5.42294,"is_reserved":false,"is_disabled":false,"rental_uris":{"android":"levelo://app?vid=e376d725-0f03-4d40-addb-58fb81761dd4","ios":"levelo://app?vid=e376d725-0f03-4d40-addb-58fb81761dd4"},"vehicle_type_id":"4","last_reported":1731690465,"current_range_meters":22800,"station_id":"ce4bhph2rcd13ifvqhdg","pricing_plan_id":"cebpf4jnsgd1na2vs0mg"},{"bike_id":"dab495ce-e6da-4601-8891-055371fb41ba","system_id":"levelo_inurba_marseille","lat":43.29628,"lon":5.40588,"is_reserved":false,"is_disabled":false,"rental_uris":{"android":"levelo://app?vid=dab495ce-e6da-4601-8891-055371fb41ba","ios":"levelo://app?vid=dab495ce-e6da-4601-8891-055371fb41ba"},"vehicle_type_id":"4","last_reported":1731690465,"current_range_meters":38400,"station_id":"ce4bh0h2rcd13ifvqd60","pricing_plan_id":"cebpf4jnsgd1na2vs0mg"},{"bike_id":"139d00fc-e67b-449a-9fd4-0db893561dc2","system_id":"levelo_inurba_marseille","lat":43.33756,"lon":5.37418,"is_reserved":false,"is_disabled":false,"rental_uris":{"android":"levelo://app?vid=139d00fc-e67b-449a-9fd4-0db893561dc2","ios":"levelo://app?vid=139d00fc-e67b-449a-9fd4-0db893561dc2"},"vehicle_type_id":"4","last_reported":1731690465,"current_range_meters":8800,"station_id":"","pricing_plan_id":"cebpf4jnsgd1na2vs0mg"},{"bike_id":"bdda4347-118f-4304-b506-09b4b5e15b39","system_id":"levelo_inurba_marseille","lat":43.3373,"lon":5.39179,"is_reserved":false,"is_disabled":false,"rental_uris":{"android":"levelo://app?vid=bdda4347-118f-4304-b506-09b4b5e15b39","ios":"levelo://app?vid=bdda4347-118f-4304-b506-09b4b5e15b39"},"vehicle_type_id":"4","last_reported":1731690465,"current_range_meters":18800,"station_id":"ce4bhr92rcd13ifvqhsg","pricing_plan_id":"cebpf4jnsgd1na2vs0mg"},{"bike_id":"2f8c1752-f43e-4cf5-b920-fc1eb31d24aa","system_id":"levelo_inurba_marseille","lat":43.30787,"lon":5.37647,"is_reserved":false,"is_disabled":false,"rental_uris":{"android":"levelo://app?vid=2f8c1752-f43e-4cf5-b920-fc1eb31d24aa","ios":"levelo://app?vid=2f8c1752-f43e-4cf5-b920-fc1eb31d24aa"},"vehicle_type_id":"4","last_reported":1731690465,"current_range_meters":15200,"station_id":"ce4bgv92rcd13ifvqcq0","pricing_plan_id":"cebpf4jnsgd1na2vs0mg"},{"bike_id":"dafc6c3a-e1c4-42a4-aa6f-38a75a0af61d","system_id":"levelo_inurba_marseille","lat":43.30425,"lon":5.38838,"is_reserved":false,"is_disabled":false,"rental_uris":{"android":"levelo://app?vid=dafc6c3a-e1c4-42a4-aa6f-38a75a0af61d","ios":"levelo://app?vid=dafc6c3a-e1c4-42a4-aa6f-38a75a0af61d"},"vehicle_type_id":"4","last_reported":1731690465,"current_range_meters":38400,"station_id":"ce4bgk12rcd13ifvqbi0","pricing_plan_id":"cebpf4jnsgd1na2vs0mg"},{"bike_id":"1251cdec-4e0b-4865-8190-36fd90191faa","system_id":"levelo_inurba_marseille","lat":43.30803,"lon":5.36976,"is_reserved":false,"is_disabled":false,"rental_uris":{"android":"levelo://app?vid=1251cdec-4e0b-4865-8190-36fd90191faa","ios":"levelo://app?vid=1251cdec-4e0b-4865-8190-36fd90191faa"},"vehicle_type_id":"4","last_reported":1731690465,"current_range_meters":22000,"station_id":"","pricing_plan_id":"cebpf4jnsgd1na2vs0mg"},{"bike_id":"4a1fe4b6-4fb5-4e32-accc-8ae521e4b74c","system_id":"levelo_inurba_marseille","lat":43.29899,"lon":5.43676,"is_reserved":false,"is_disabled":false,"rental_uris":{"android":"levelo://app?vid=4a1fe4b6-4fb5-4e32-accc-8ae521e4b74c","ios":"levelo://app?vid=4a1fe4b6-4fb5-4e32-accc-8ae521e4b74c"},"vehicle_type_id":"4","last_reported":1731690465,"current_range_meters":20800,"station_id":"ce4bhpp2rcd13ifvqhfg","pricing_plan_id":"cebpf4jnsgd1na2vs0mg"},{"bike_id":"7660a514-1f3c-4506-95ec-30e34e7c9869","system_id":"levelo_inurba_marseille","lat":43.30795,"lon":5.38157,"is_reserved":false,"is_disabled":false,"rental_uris":{"android":"levelo://app?vid=7660a514-1f3c-4506-95ec-30e34e7c9869","ios":"levelo://app?vid=7660a514-1f3c-4506-95ec-30e34e7c9869"},"vehicle_type_id":"4","last_reported":1731690465,"current_range_meters":9600,"station_id":"ce4bgt12rcd13ifvqce0","pricing_plan_id":"cebpf4jnsgd1na2vs0mg"},{"bike_id":"6d6992bf-ade3-4a22-a168-306dafdc4544","system_id":"levelo_inurba_marseille","lat":43.24167,"lon":5.36403,"is_reserved":false,"is_disabled":false,"rental_uris":{"android":"levelo://app?vid=6d6992bf-ade3-4a22-a168-306dafdc4544","ios":"levelo://app?vid=6d6992bf-ade3-4a22-a168-306dafdc4544"},"vehicle_type_id":"4","last_reported":1731690465,"current_range_meters":37600,"station_id":"cpo36qri1sfpv3e86is0","pricing_plan_id":"cebpf4jnsgd1na2vs0mg"},{"bike_id":"e01f957f-7853-4dc9-9279-ab147b16f1d1","system_id":"levelo_inurba_marseille","lat":43.25085,"lon":5.39488,"is_reserved":false,"is_disabled":false,"rental_uris":{"android":"levelo://app?vid=e01f957f-7853-4dc9-9279-ab147b16f1d1","ios":"levelo://app?vid=e01f957f-7853-4dc9-9279-ab147b16f1d1"},"vehicle_type_id":"4","last_reported":1731690465,"current_range_meters":36800,"station_id":"ce4bhm12rcd13ifvqgkg","pricing_plan_id":"cebpf4jnsgd1na2vs0mg"},{"bike_id":"cf60e077-4249-4def-861d-e96ddd0bd30e","system_id":"levelo_inurba_marseille","lat":43.28406,"lon":5.37517,"is_reserved":false,"is_disabled":false,"rental_uris":{"android":"levelo://app?vid=cf60e077-4249-4def-861d-e96ddd0bd30e","ios":"levelo://app?vid=cf60e077-4249-4def-861d-e96ddd0bd30e"},"vehicle_type_id":"4","last_reported":1731690465,"current_range_meters":28400,"station_id":"ce4bh412rcd13ifvqds0","pricing_plan_id":"cebpf4jnsgd1na2vs0mg"},{"bike_id":"eef5d37c-5bfd-4c76-81bd-46afa511c5a9","system_id":"levelo_inurba_marseille","lat":43.33019,"lon":5.39038,"is_reserved":false,"is_disabled":false,"rental_uris":{"android":"levelo://app?vid=eef5d37c-5bfd-4c76-81bd-46afa511c5a9","ios":"levelo://app?vid=eef5d37c-5bfd-4c76-81bd-46afa511c5a9"},"vehicle_type_id":"4","last_reported":1731690465,"current_range_meters":38800,"station_id":"ce4bhr92rcd13ifvqhrg","pricing_plan_id":"cebpf4jnsgd1na2vs0mg"},{"bike_id":"1707cb1e-404f-449a-8ec1-810d24d3f970","system_id":"levelo_inurba_marseille","lat":43.23175,"lon":5.40008,"is_reserved":false,"is_disabled":false,"rental_uris":{"android":"levelo://app?vid=1707cb1e-404f-449a-8ec1-810d24d3f970","ios":"levelo://app?vid=1707cb1e-404f-449a-8ec1-810d24d3f970"},"vehicle_type_id":"4","last_reported":1731690465,"current_range_meters":29600,"station_id":"ce4bhn12rcd13ifvqgqg","pricing_plan_id":"cebpf4jnsgd1na2vs0mg"},{"bike_id":"ba451a21-b3d6-40c4-a9a3-d2f82340246b","system_id":"levelo_inurba_marseille","lat":43.26064,"lon":5.39398,"is_reserved":false,"is_disabled":false,"rental_uris":{"android":"levelo://app?vid=ba451a21-b3d6-40c4-a9a3-d2f82340246b","ios":"levelo://app?vid=ba451a21-b3d6-40c4-a9a3-d2f82340246b"},"vehicle_type_id":"4","last_reported":1731690465,"current_range_meters":27600,"station_id":"ce4bhh92rcd13ifvqfj0","pricing_plan_id":"cebpf4jnsgd1na2vs0mg"},{"bike_id":"88dd240f-d126-4fcb-b8f1-745b255553af","system_id":"levelo_inurba_marseille","lat":43.30449,"lon":5.3791,"is_reserved":false,"is_disabled":false,"rental_uris":{"android":"levelo://app?vid=88dd240f-d126-4fcb-b8f1-745b255553af","ios":"levelo://app?vid=88dd240f-d126-4fcb-b8f1-745b255553af"},"vehicle_type_id":"4","last_reported":1731690465,"current_range_meters":17200,"station_id":"ce4bgup2rcd13ifvqcn0","pricing_plan_id":"cebpf4jnsgd1na2vs0mg"},{"bike_id":"f10b955c-3239-4ebd-92cb-f0500581981a","system_id":"levelo_inurba_marseille","lat":43.28946,"lon":5.36639,"is_reserved":false,"is_disabled":false,"rental_uris":{"android":"levelo://app?vid=f10b955c-3239-4ebd-92cb-f0500581981a","ios":"levelo://app?vid=f10b955c-3239-4ebd-92cb-f0500581981a"},"vehicle_type_id":"4","last_reported":1731690465,"current_range_meters":4400,"station_id":"ce4bhap2rcd13ifvqek0","pricing_plan_id":"cebpf4jnsgd1na2vs0mg"},{"bike_id":"d16a3ab2-1e66-4885-87f3-db6f711d3103","system_id":"levelo_inurba_marseille","lat":43.2894,"lon":5.36641,"is_reserved":false,"is_disabled":false,"rental_uris":{"android":"levelo://app?vid=d16a3ab2-1e66-4885-87f3-db6f711d3103","ios":"levelo://app?vid=d16a3ab2-1e66-4885-87f3-db6f711d3103"},"vehicle_type_id":"4","last_reported":1731690465,"current_range_meters":9200,"station_id":"ce4bhap2rcd13ifvqek0","pricing_plan_id":"cebpf4jnsgd1na2vs0mg"},{"bike_id":"ff273380-c91d-4de0-97f4-4e62bfd1e6c1","system_id":"levelo_inurba_marseille","lat":43.29649,"lon":5.37648,"is_reserved":false,"is_disabled":false,"rental_uris":{"android":"levelo://app?vid=ff273380-c91d-4de0-97f4-4e62bfd1e6c1","ios":"levelo://app?vid=ff273380-c91d-4de0-97f4-4e62bfd1e6c1"},"vehicle_type_id":"4","last_reported":1731690465,"current_range_meters":16400,"station_id":"","pricing_plan_id":"cebpf4jnsgd1na2vs0mg"},{"bike_id":"4ee4605c-22f2-4532-b44d-f5fb03fd5142","system_id":"levelo_inurba_marseille","lat":43.30811,"lon":5.43532,"is_reserved":false,"is_disabled":false,"rental_uris":{"android":"levelo://app?vid=4ee4605c-22f2-4532-b44d-f5fb03fd5142","ios":"levelo://app?vid=4ee4605c-22f2-4532-b44d-f5fb03fd5142"},"vehicle_type_id":"4","last_reported":1731690465,"current_range_meters":24400,"station_id":"ce4bhph2rcd13ifvqheg","pricing_plan_id":"cebpf4jnsgd1na2vs0mg"},{"bike_id":"d169c287-1326-41bf-b2ce-b2fe7051b958","system_id":"levelo_inurba_marseille","lat":43.29534,"lon":5.38543,"is_reserved":false,"is_disabled":false,"rental_uris":{"android":"levelo://app?vid=d169c287-1326-41bf-b2ce-b2fe7051b958","ios":"levelo://app?vid=d169c287-1326-41bf-b2ce-b2fe7051b958"},"vehicle_type_id":"4","last_reported":1731690465,"current_range_meters":38800,"station_id":"ce4bgih2rcd13ifvqba0","pricing_plan_id":"cebpf4jnsgd1na2vs0mg"},{"bike_id":"f915aedc-ffac-4f8e-b5cc-80fde1e7dfb5","system_id":"levelo_inurba_marseille","lat":43.31712,"lon":5.43705,"is_reserved":false,"is_disabled":false,"rental_uris":{"android":"levelo://app?vid=f915aedc-ffac-4f8e-b5cc-80fde1e7dfb5","ios":"levelo://app?vid=f915aedc-ffac-4f8e-b5cc-80fde1e7dfb5"},"vehicle_type_id":"4","last_reported":1731690465,"current_range_meters":12800,"station_id":"ce4bhp92rcd13ifvqhcg","pricing_plan_id":"cebpf4jnsgd1na2vs0mg"},{"bike_id":"e901ef70-3dfb-45c6-8d6b-62c61e13ac6e","system_id":"levelo_inurba_marseille","lat":43.32373,"lon":5.38889,"is_reserved":false,"is_disabled":false,"rental_uris":{"android":"levelo://app?vid=e901ef70-3dfb-45c6-8d6b-62c61e13ac6e","ios":"levelo://app?vid=e901ef70-3dfb-45c6-8d6b-62c61e13ac6e"},"vehicle_type_id":"4","last_reported":1731690465,"current_range_meters":32400,"station_id":"ce4bhqp2rcd13ifvqhog","pricing_plan_id":"cebpf4jnsgd1na2vs0mg"},{"bike_id":"d3b68281-ff13-45bf-8dd4-610969e13205","system_id":"levelo_inurba_marseille","lat":43.28685,"lon":5.38643,"is_reserved":false,"is_disabled":false,"rental_uris":{"android":"levelo://app?vid=d3b68281-ff13-45bf-8dd4-610969e13205","ios":"levelo://app?vid=d3b68281-ff13-45bf-8dd4-610969e13205"},"vehicle_type_id":"4","last_reported":1731690465,"current_range_meters":8400,"station_id":"ce4bh492rcd13ifvqdug","pricing_plan_id":"cebpf4jnsgd1na2vs0mg"},{"bike_id":"53f7ce58-d1b6-4ab2-abef-6c3d37b336dd","system_id":"levelo_inurba_marseille","lat":43.33726,"lon":5.39193,"is_reserved":false,"is_disabled":false,"rental_uris":{"android":"levelo://app?vid=53f7ce58-d1b6-4ab2-abef-6c3d37b336dd","ios":"levelo://app?vid=53f7ce58-d1b6-4ab2-abef-6c3d37b336dd"},"vehicle_type_id":"4","last_reported":1731690465,"current_range_meters":40000,"station_id":"ce4bhr92rcd13ifvqhsg","pricing_plan_id":"cebpf4jnsgd1na2vs0mg"},{"bike_id":"d3485e1d-e690-4fc1-83ac-54889af0f4c3","system_id":"levelo_inurba_marseille","lat":43.25115,"lon":5.40317,"is_reserved":false,"is_disabled":false,"rental_uris":{"android":"levelo://app?vid=d3485e1d-e690-4fc1-83ac-54889af0f4c3","ios":"levelo://app?vid=d3485e1d-e690-4fc1-83ac-54889af0f4c3"},"vehicle_type_id":"4","last_reported":1731690465,"current_range_meters":35600,"station_id":"ce4bhlh2rcd13ifvqgig","pricing_plan_id":"cebpf4jnsgd1na2vs0mg"},{"bike_id":"859b214b-3827-4c77-a6a6-9a6de82e15a8","system_id":"levelo_inurba_marseille","lat":43.3266,"lon":5.40993,"is_reserved":false,"is_disabled":false,"rental_uris":{"android":"levelo://app?vid=859b214b-3827-4c77-a6a6-9a6de82e15a8","ios":"levelo://app?vid=859b214b-3827-4c77-a6a6-9a6de82e15a8"},"vehicle_type_id":"4","last_reported":1731690465,"current_range_meters":3200,"station_id":"ce4bhpp2rcd13ifvqhgg","pricing_plan_id":"cebpf4jnsgd1na2vs0mg"},{"bike_id":"6b4b3276-eb43-421a-a841-dac91cc15593","system_id":"levelo_inurba_marseille","lat":43.29625,"lon":5.40599,"is_reserved":false,"is_disabled":false,"rental_uris":{"android":"levelo://app?vid=6b4b3276-eb43-421a-a841-dac91cc15593","ios":"levelo://app?vid=6b4b3276-eb43-421a-a841-dac91cc15593"},"vehicle_type_id":"4","last_reported":1731690465,"current_range_meters":4400,"station_id":"ce4bh0h2rcd13ifvqd60","pricing_plan_id":"cebpf4jnsgd1na2vs0mg"},{"bike_id":"0fec92b4-8ee7-4944-88b7-7c56e75e9782","system_id":"levelo_inurba_marseille","lat":43.27995,"lon":5.41664,"is_reserved":false,"is_disabled":false,"rental_uris":{"android":"levelo://app?vid=0fec92b4-8ee7-4944-88b7-7c56e75e9782","ios":"levelo://app?vid=0fec92b4-8ee7-4944-88b7-7c56e75e9782"},"vehicle_type_id":"4","last_reported":1731690465,"current_range_meters":6400,"station_id":"ce4bho12rcd13ifvqh1g","pricing_plan_id":"cebpf4jnsgd1na2vs0mg"},{"bike_id":"c5c288bc-ebcc-4fb1-8df2-e660f9151137","system_id":"levelo_inurba_marseille","lat":43.23153,"lon":5.43705,"is_reserved":false,"is_disabled":false,"rental_uris":{"android":"levelo://app?vid=c5c288bc-ebcc-4fb1-8df2-e660f9151137","ios":"levelo://app?vid=c5c288bc-ebcc-4fb1-8df2-e660f9151137"},"vehicle_type_id":"4","last_reported":1731690465,"current_range_meters":11200,"station_id":"ce4bhmp2rcd13ifvqgog","pricing_plan_id":"cebpf4jnsgd1na2vs0mg"},{"bike_id":"1b15a180-920c-4b83-a9e6-e2077beb9566","system_id":"levelo_inurba_marseille","lat":43.288422,"lon":5.393177,"is_reserved":false,"is_disabled":false,"rental_uris":{"android":"levelo://app?vid=1b15a180-920c-4b83-a9e6-e2077beb9566","ios":"levelo://app?vid=1b15a180-920c-4b83-a9e6-e2077beb9566"},"vehicle_type_id":"4","last_reported":1731690465,"current_range_meters":17600,"station_id":"ce4bh2p2rcd13ifvqdi0","pricing_plan_id":"cebpf4jnsgd1na2vs0mg"},{"bike_id":"f2af9365-fdc2-4b99-9391-e30a9e3e43b3","system_id":"levelo_inurba_marseille","lat":43.32357,"lon":5.36753,"is_reserved":false,"is_disabled":false,"rental_uris":{"android":"levelo://app?vid=f2af9365-fdc2-4b99-9391-e30a9e3e43b3","ios":"levelo://app?vid=f2af9365-fdc2-4b99-9391-e30a9e3e43b3"},"vehicle_type_id":"4","last_reported":1731690465,"current_range_meters":25600,"station_id":"ce4bhsh2rcd13ifvqi2g","pricing_plan_id":"cebpf4jnsgd1na2vs0mg"},{"bike_id":"bb522734-48ce-4de6-8330-a5f77169e2f2","system_id":"levelo_inurba_marseille","lat":43.29905,"lon":5.43669,"is_reserved":false,"is_disabled":false,"rental_uris":{"android":"levelo://app?vid=bb522734-48ce-4de6-8330-a5f77169e2f2","ios":"levelo://app?vid=bb522734-48ce-4de6-8330-a5f77169e2f2"},"vehicle_type_id":"4","last_reported":1731690465,"current_range_meters":10000,"station_id":"ce4bhpp2rcd13ifvqhfg","pricing_plan_id":"cebpf4jnsgd1na2vs0mg"},{"bike_id":"413caa41-ccc4-4e96-af8f-dd00e06dca3f","system_id":"levelo_inurba_marseille","lat":43.30589,"lon":5.39359,"is_reserved":false,"is_disabled":false,"rental_uris":{"android":"levelo://app?vid=413caa41-ccc4-4e96-af8f-dd00e06dca3f","ios":"levelo://app?vid=413caa41-ccc4-4e96-af8f-dd00e06dca3f"},"vehicle_type_id":"4","last_reported":1731690465,"current_range_meters":36800,"station_id":"ce4bh0p2rcd13ifvqd80","pricing_plan_id":"cebpf4jnsgd1na2vs0mg"},{"bike_id":"be1ab07b-1354-48f5-bd63-1ac7dcaa8b28","system_id":"levelo_inurba_marseille","lat":43.29005,"lon":5.35608,"is_reserved":false,"is_disabled":false,"rental_uris":{"android":"levelo://app?vid=be1ab07b-1354-48f5-bd63-1ac7dcaa8b28","ios":"levelo://app?vid=be1ab07b-1354-48f5-bd63-1ac7dcaa8b28"},"vehicle_type_id":"4","last_reported":1731690465,"current_range_meters":4000,"station_id":"ce4bhb92rcd13ifvqen0","pricing_plan_id":"cebpf4jnsgd1na2vs0mg"},{"bike_id":"6cceeb09-431c-4b48-a5cf-db847b8faddb","system_id":"levelo_inurba_marseille","lat":43.337444,"lon":5.374475,"is_reserved":false,"is_disabled":false,"rental_uris":{"android":"levelo://app?vid=6cceeb09-431c-4b48-a5cf-db847b8faddb","ios":"levelo://app?vid=6cceeb09-431c-4b48-a5cf-db847b8faddb"},"vehicle_type_id":"4","last_reported":1731690465,"current_range_meters":33600,"station_id":"","pricing_plan_id":"cebpf4jnsgd1na2vs0mg"},{"bike_id":"1767b4fb-d867-46c4-88ad-8f4754749db5","system_id":"levelo_inurba_marseille","lat":43.30266,"lon":5.37727,"is_reserved":false,"is_disabled":false,"rental_uris":{"android":"levelo://app?vid=1767b4fb-d867-46c4-88ad-8f4754749db5","ios":"levelo://app?vid=1767b4fb-d867-46c4-88ad-8f4754749db5"},"vehicle_type_id":"4","last_reported":1731690465,"current_range_meters":2800,"station_id":"ce4bguh2rcd13ifvqcj0","pricing_plan_id":"cebpf4jnsgd1na2vs0mg"},{"bike_id":"4d164941-a4fe-429f-977f-982f0af93299","system_id":"levelo_inurba_marseille","lat":43.32609,"lon":5.37508,"is_reserved":false,"is_disabled":false,"rental_uris":{"android":"levelo://app?vid=4d164941-a4fe-429f-977f-982f0af93299","ios":"levelo://app?vid=4d164941-a4fe-429f-977f-982f0af93299"},"vehicle_type_id":"4","last_reported":1731690465,"current_range_meters":38800,"station_id":"","pricing_plan_id":"cebpf4jnsgd1na2vs0mg"},{"bike_id":"00ce84f2-9bf9-4c94-a214-37b087f23fdb","system_id":"levelo_inurba_marseille","lat":43.290509,"lon":5.399772,"is_reserved":false,"is_disabled":false,"rental_uris":{"android":"levelo://app?vid=00ce84f2-9bf9-4c94-a214-37b087f23fdb","ios":"levelo://app?vid=00ce84f2-9bf9-4c94-a214-37b087f23fdb"},"vehicle_type_id":"4","last_reported":1731690465,"current_range_meters":18800,"station_id":"ce4bh392rcd13ifvqdm0","pricing_plan_id":"cebpf4jnsgd1na2vs0mg"},{"bike_id":"fe34e79d-89a4-4c9d-9e26-e258e0391b41","system_id":"levelo_inurba_marseille","lat":43.23188,"lon":5.39986,"is_reserved":false,"is_disabled":false,"rental_uris":{"android":"levelo://app?vid=fe34e79d-89a4-4c9d-9e26-e258e0391b41","ios":"levelo://app?vid=fe34e79d-89a4-4c9d-9e26-e258e0391b41"},"vehicle_type_id":"4","last_reported":1731690465,"current_range_meters":37600,"station_id":"ce4bhn12rcd13ifvqgqg","pricing_plan_id":"cebpf4jnsgd1na2vs0mg"},{"bike_id":"03a78b5f-061c-4009-845b-cbe5c61d8ff3","system_id":"levelo_inurba_marseille","lat":43.32363,"lon":5.38887,"is_reserved":false,"is_disabled":false,"rental_uris":{"android":"levelo://app?vid=03a78b5f-061c-4009-845b-cbe5c61d8ff3","ios":"levelo://app?vid=03a78b5f-061c-4009-845b-cbe5c61d8ff3"},"vehicle_type_id":"4","last_reported":1731690465,"current_range_meters":30400,"station_id":"ce4bhqp2rcd13ifvqhog","pricing_plan_id":"cebpf4jnsgd1na2vs0mg"},{"bike_id":"80a8e716-1486-4baa-bdbf-3f9e2b7c69fe","system_id":"levelo_inurba_marseille","lat":43.337444,"lon":5.374475,"is_reserved":false,"is_disabled":false,"rental_uris":{"android":"levelo://app?vid=80a8e716-1486-4baa-bdbf-3f9e2b7c69fe","ios":"levelo://app?vid=80a8e716-1486-4baa-bdbf-3f9e2b7c69fe"},"vehicle_type_id":"4","last_reported":1731690465,"current_range_meters":38000,"station_id":"","pricing_plan_id":"cebpf4jnsgd1na2vs0mg"},{"bike_id":"95a68933-1a2b-47f5-a10b-ec8f36e2e7f4","system_id":"levelo_inurba_marseille","lat":43.31994,"lon":5.38166,"is_reserved":false,"is_disabled":false,"rental_uris":{"android":"levelo://app?vid=95a68933-1a2b-47f5-a10b-ec8f36e2e7f4","ios":"levelo://app?vid=95a68933-1a2b-47f5-a10b-ec8f36e2e7f4"},"vehicle_type_id":"4","last_reported":1731690465,"current_range_meters":26800,"station_id":"ce4bhr12rcd13ifvqhpg","pricing_plan_id":"cebpf4jnsgd1na2vs0mg"},{"bike_id":"2cb27abb-2711-408e-be69-af02adda7d4c","system_id":"levelo_inurba_marseille","lat":43.30533,"lon":5.36706,"is_reserved":false,"is_disabled":false,"rental_uris":{"android":"levelo://app?vid=2cb27abb-2711-408e-be69-af02adda7d4c","ios":"levelo://app?vid=2cb27abb-2711-408e-be69-af02adda7d4c"},"vehicle_type_id":"4","last_reported":1731690465,"current_range_meters":8800,"station_id":"ce4bgrp2rcd13ifvqc9g","pricing_plan_id":"cebpf4jnsgd1na2vs0mg"},{"bike_id":"2ca69a67-d117-434a-9c2e-44f2422b1233","system_id":"levelo_inurba_marseille","lat":43.29527,"lon":5.38543,"is_reserved":false,"is_disabled":false,"rental_uris":{"android":"levelo://app?vid=2ca69a67-d117-434a-9c2e-44f2422b1233","ios":"levelo://app?vid=2ca69a67-d117-434a-9c2e-44f2422b1233"},"vehicle_type_id":"4","last_reported":1731690465,"current_range_meters":24400,"station_id":"ce4bgih2rcd13ifvqba0","pricing_plan_id":"cebpf4jnsgd1na2vs0mg"},{"bike_id":"b62286e9-308a-4640-af35-79c550e9f684","system_id":"levelo_inurba_marseille","lat":43.30832,"lon":5.36989,"is_reserved":false,"is_disabled":false,"rental_uris":{"android":"levelo://app?vid=b62286e9-308a-4640-af35-79c550e9f684","ios":"levelo://app?vid=b62286e9-308a-4640-af35-79c550e9f684"},"vehicle_type_id":"4","last_reported":1731690465,"current_range_meters":8400,"station_id":"","pricing_plan_id":"cebpf4jnsgd1na2vs0mg"},{"bike_id":"eba69487-f5b4-44ae-a917-d61c7745cd51","system_id":"levelo_inurba_marseille","lat":43.28665,"lon":5.38659,"is_reserved":false,"is_disabled":false,"rental_uris":{"android":"levelo://app?vid=eba69487-f5b4-44ae-a917-d61c7745cd51","ios":"levelo://app?vid=eba69487-f5b4-44ae-a917-d61c7745cd51"},"vehicle_type_id":"4","last_reported":1731690465,"current_range_meters":3200,"station_id":"ce4bh492rcd13ifvqdug","pricing_plan_id":"cebpf4jnsgd1na2vs0mg"},{"bike_id":"0822730c-e1d8-48e9-822a-7d7d1685ef52","system_id":"levelo_inurba_marseille","lat":43.29627,"lon":5.37717,"is_reserved":false,"is_disabled":false,"rental_uris":{"android":"levelo://app?vid=0822730c-e1d8-48e9-822a-7d7d1685ef52","ios":"levelo://app?vid=0822730c-e1d8-48e9-822a-7d7d1685ef52"},"vehicle_type_id":"4","last_reported":1731690465,"current_range_meters":32000,"station_id":"ce4bgi92rcd13ifvqb90","pricing_plan_id":"cebpf4jnsgd1na2vs0mg"},{"bike_id":"68ef0691-fd36-4fc3-9c86-1195c57223fe","system_id":"levelo_inurba_marseille","lat":43.32106,"lon":5.36771,"is_reserved":false,"is_disabled":false,"rental_uris":{"android":"levelo://app?vid=68ef0691-fd36-4fc3-9c86-1195c57223fe","ios":"levelo://app?vid=68ef0691-fd36-4fc3-9c86-1195c57223fe"},"vehicle_type_id":"4","last_reported":1731690465,"current_range_meters":16000,"station_id":"ce4bhrh2rcd13ifvqhug","pricing_plan_id":"cebpf4jnsgd1na2vs0mg"},{"bike_id":"45d3f939-5531-4636-916f-0d69d50d5f1a","system_id":"levelo_inurba_marseille","lat":43.24082,"lon":5.37754,"is_reserved":false,"is_disabled":false,"rental_uris":{"android":"levelo://app?vid=45d3f939-5531-4636-916f-0d69d50d5f1a","ios":"levelo://app?vid=45d3f939-5531-4636-916f-0d69d50d5f1a"},"vehicle_type_id":"4","last_reported":1731690465,"current_range_meters":18000,"station_id":"ce4bhnp2rcd13ifvqgvg","pricing_plan_id":"cebpf4jnsgd1na2vs0mg"},{"bike_id":"66bf9d61-1e95-4f8b-800f-47b6b32f7ca8","system_id":"levelo_inurba_marseille","lat":43.28698,"lon":5.37391,"is_reserved":false,"is_disabled":false,"rental_uris":{"android":"levelo://app?vid=66bf9d61-1e95-4f8b-800f-47b6b32f7ca8","ios":"levelo://app?vid=66bf9d61-1e95-4f8b-800f-47b6b32f7ca8"},"vehicle_type_id":"4","last_reported":1731690465,"current_range_meters":16800,"station_id":"ce4bh3p2rcd13ifvqdq0","pricing_plan_id":"cebpf4jnsgd1na2vs0mg"},{"bike_id":"2ee424ce-655a-44b8-aa81-59574fed389b","system_id":"levelo_inurba_marseille","lat":43.337444,"lon":5.374475,"is_reserved":false,"is_disabled":false,"rental_uris":{"android":"levelo://app?vid=2ee424ce-655a-44b8-aa81-59574fed389b","ios":"levelo://app?vid=2ee424ce-655a-44b8-aa81-59574fed389b"},"vehicle_type_id":"4","last_reported":1731690465,"current_range_meters":22400,"station_id":"","pricing_plan_id":"cebpf4jnsgd1na2vs0mg"},{"bike_id":"c19b8800-0be4-4d22-a9cd-aec5d1ca91cf","system_id":"levelo_inurba_marseille","lat":43.28152,"lon":5.42651,"is_reserved":false,"is_disabled":false,"rental_uris":{"android":"levelo://app?vid=c19b8800-0be4-4d22-a9cd-aec5d1ca91cf","ios":"levelo://app?vid=c19b8800-0be4-4d22-a9cd-aec5d1ca91cf"},"vehicle_type_id":"4","last_reported":1731690465,"current_range_meters":11200,"station_id":"ce4bhnh2rcd13ifvqgug","pricing_plan_id":"cebpf4jnsgd1na2vs0mg"},{"bike_id":"549e75dd-af75-4e80-8bf3-763890571cd1","system_id":"levelo_inurba_marseille","lat":43.29418,"lon":5.38631,"is_reserved":false,"is_disabled":false,"rental_uris":{"android":"levelo://app?vid=549e75dd-af75-4e80-8bf3-763890571cd1","ios":"levelo://app?vid=549e75dd-af75-4e80-8bf3-763890571cd1"},"vehicle_type_id":"4","last_reported":1731690465,"current_range_meters":38800,"station_id":"ce4bh2h2rcd13ifvqdh0","pricing_plan_id":"cebpf4jnsgd1na2vs0mg"},{"bike_id":"74c0cd7d-aa20-4ef3-8423-ac67c8684f4a","system_id":"levelo_inurba_marseille","lat":43.27179,"lon":5.40996,"is_reserved":false,"is_disabled":false,"rental_uris":{"android":"levelo://app?vid=74c0cd7d-aa20-4ef3-8423-ac67c8684f4a","ios":"levelo://app?vid=74c0cd7d-aa20-4ef3-8423-ac67c8684f4a"},"vehicle_type_id":"4","last_reported":1731690465,"current_range_meters":16800,"station_id":"ce4bhl12rcd13ifvqgf0","pricing_plan_id":"cebpf4jnsgd1na2vs0mg"},{"bike_id":"938371a6-d85e-45db-aad4-71960a161830","system_id":"levelo_inurba_marseille","lat":43.33735,"lon":5.39194,"is_reserved":false,"is_disabled":false,"rental_uris":{"android":"levelo://app?vid=938371a6-d85e-45db-aad4-71960a161830","ios":"levelo://app?vid=938371a6-d85e-45db-aad4-71960a161830"},"vehicle_type_id":"4","last_reported":1731690465,"current_range_meters":27200,"station_id":"ce4bhr92rcd13ifvqhsg","pricing_plan_id":"cebpf4jnsgd1na2vs0mg"},{"bike_id":"9eedf4b8-a58a-414b-976b-f1bc6c228b63","system_id":"levelo_inurba_marseille","lat":43.3229,"lon":5.38257,"is_reserved":false,"is_disabled":false,"rental_uris":{"android":"levelo://app?vid=9eedf4b8-a58a-414b-976b-f1bc6c228b63","ios":"levelo://app?vid=9eedf4b8-a58a-414b-976b-f1bc6c228b63"},"vehicle_type_id":"4","last_reported":1731690465,"current_range_meters":6800,"station_id":"ce4bhr12rcd13ifvqhqg","pricing_plan_id":"cebpf4jnsgd1na2vs0mg"},{"bike_id":"2db8f5f6-496d-4a0b-825d-a39ac64d16d7","system_id":"levelo_inurba_marseille","lat":43.289468,"lon":5.363966,"is_reserved":false,"is_disabled":false,"rental_uris":{"android":"levelo://app?vid=2db8f5f6-496d-4a0b-825d-a39ac64d16d7","ios":"levelo://app?vid=2db8f5f6-496d-4a0b-825d-a39ac64d16d7"},"vehicle_type_id":"4","last_reported":1731690465,"current_range_meters":6800,"station_id":"ce4bhc92rcd13ifvqetg","pricing_plan_id":"cebpf4jnsgd1na2vs0mg"},{"bike_id":"905e7fab-b646-4bc7-98ab-ffa855b64b75","system_id":"levelo_inurba_marseille","lat":43.292633,"lon":5.384201,"is_reserved":false,"is_disabled":false,"rental_uris":{"android":"levelo://app?vid=905e7fab-b646-4bc7-98ab-ffa855b64b75","ios":"levelo://app?vid=905e7fab-b646-4bc7-98ab-ffa855b64b75"},"vehicle_type_id":"4","last_reported":1731690465,"current_range_meters":28400,"station_id":"ce4bh692rcd13ifvqea0","pricing_plan_id":"cebpf4jnsgd1na2vs0mg"},{"bike_id":"53ff987b-b703-44da-87af-df035073340c","system_id":"levelo_inurba_marseille","lat":43.30554,"lon":5.36717,"is_reserved":false,"is_disabled":false,"rental_uris":{"android":"levelo://app?vid=53ff987b-b703-44da-87af-df035073340c","ios":"levelo://app?vid=53ff987b-b703-44da-87af-df035073340c"},"vehicle_type_id":"4","last_reported":1731690465,"current_range_meters":18800,"station_id":"ce4bgrp2rcd13ifvqc9g","pricing_plan_id":"cebpf4jnsgd1na2vs0mg"},{"bike_id":"ea08ecfd-ff51-42c7-b726-a0e07d925551","system_id":"levelo_inurba_marseille","lat":43.30587,"lon":5.39354,"is_reserved":false,"is_disabled":false,"rental_uris":{"android":"levelo://app?vid=ea08ecfd-ff51-42c7-b726-a0e07d925551","ios":"levelo://app?vid=ea08ecfd-ff51-42c7-b726-a0e07d925551"},"vehicle_type_id":"4","last_reported":1731690465,"current_range_meters":27200,"station_id":"ce4bh0p2rcd13ifvqd80","pricing_plan_id":"cebpf4jnsgd1na2vs0mg"},{"bike_id":"2b258f30-e57c-4dca-8229-79e922410f2b","system_id":"levelo_inurba_marseille","lat":43.25489,"lon":5.37652,"is_reserved":false,"is_disabled":false,"rental_uris":{"android":"levelo://app?vid=2b258f30-e57c-4dca-8229-79e922410f2b","ios":"levelo://app?vid=2b258f30-e57c-4dca-8229-79e922410f2b"},"vehicle_type_id":"4","last_reported":1731690465,"current_range_meters":30400,"station_id":"ce4bhh12rcd13ifvqff0","pricing_plan_id":"cebpf4jnsgd1na2vs0mg"},{"bike_id":"a59856a1-f6b3-4f7f-870a-15b98ef19af9","system_id":"levelo_inurba_marseille","lat":43.29524,"lon":5.39399,"is_reserved":false,"is_disabled":false,"rental_uris":{"android":"levelo://app?vid=a59856a1-f6b3-4f7f-870a-15b98ef19af9","ios":"levelo://app?vid=a59856a1-f6b3-4f7f-870a-15b98ef19af9"},"vehicle_type_id":"4","last_reported":1731690465,"current_range_meters":26800,"station_id":"ce4bh292rcd13ifvqdf0","pricing_plan_id":"cebpf4jnsgd1na2vs0mg"},{"bike_id":"62096680-1b7d-4867-aa51-f443ac512b71","system_id":"levelo_inurba_marseille","lat":43.3031,"lon":5.36914,"is_reserved":false,"is_disabled":false,"rental_uris":{"android":"levelo://app?vid=62096680-1b7d-4867-aa51-f443ac512b71","ios":"levelo://app?vid=62096680-1b7d-4867-aa51-f443ac512b71"},"vehicle_type_id":"4","last_reported":1731690465,"current_range_meters":15200,"station_id":"ce4bgqh2rcd13ifvqc5g","pricing_plan_id":"cebpf4jnsgd1na2vs0mg"},{"bike_id":"93ceee4d-3c23-4382-81b5-a9568b79d11d","system_id":"levelo_inurba_marseille","lat":43.26036,"lon":5.37546,"is_reserved":false,"is_disabled":false,"rental_uris":{"android":"levelo://app?vid=93ceee4d-3c23-4382-81b5-a9568b79d11d","ios":"levelo://app?vid=93ceee4d-3c23-4382-81b5-a9568b79d11d"},"vehicle_type_id":"4","last_reported":1731690465,"current_range_meters":38800,"station_id":"ce4bhgh2rcd13ifvqfa0","pricing_plan_id":"cebpf4jnsgd1na2vs0mg"},{"bike_id":"94582a67-670f-4c9a-9d21-58244d348b24","system_id":"levelo_inurba_marseille","lat":43.26562,"lon":5.37284,"is_reserved":false,"is_disabled":false,"rental_uris":{"android":"levelo://app?vid=94582a67-670f-4c9a-9d21-58244d348b24","ios":"levelo://app?vid=94582a67-670f-4c9a-9d21-58244d348b24"},"vehicle_type_id":"4","last_reported":1731690465,"current_range_meters":30000,"station_id":"ce4bhg12rcd13ifvqf70","pricing_plan_id":"cebpf4jnsgd1na2vs0mg"},{"bike_id":"b6113c07-aad1-4950-a846-0bc318e16c73","system_id":"levelo_inurba_marseille","lat":43.24179,"lon":5.39724,"is_reserved":false,"is_disabled":false,"rental_uris":{"android":"levelo://app?vid=b6113c07-aad1-4950-a846-0bc318e16c73","ios":"levelo://app?vid=b6113c07-aad1-4950-a846-0bc318e16c73"},"vehicle_type_id":"4","last_reported":1731690465,"current_range_meters":18000,"station_id":"ce4bhn12rcd13ifvqgpg","pricing_plan_id":"cebpf4jnsgd1na2vs0mg"},{"bike_id":"211e51e8-dbf7-4d22-b6f1-8020f0c8fa6e","system_id":"levelo_inurba_marseille","lat":43.24173,"lon":5.36406,"is_reserved":false,"is_disabled":false,"rental_uris":{"android":"levelo://app?vid=211e51e8-dbf7-4d22-b6f1-8020f0c8fa6e","ios":"levelo://app?vid=211e51e8-dbf7-4d22-b6f1-8020f0c8fa6e"},"vehicle_type_id":"4","last_reported":1731690465,"current_range_meters":30000,"station_id":"cpo36qri1sfpv3e86is0","pricing_plan_id":"cebpf4jnsgd1na2vs0mg"},{"bike_id":"c1ec9cdd-48ef-4b11-af76-7517bcff55e6","system_id":"levelo_inurba_marseille","lat":43.30535,"lon":5.36709,"is_reserved":false,"is_disabled":false,"rental_uris":{"android":"levelo://app?vid=c1ec9cdd-48ef-4b11-af76-7517bcff55e6","ios":"levelo://app?vid=c1ec9cdd-48ef-4b11-af76-7517bcff55e6"},"vehicle_type_id":"4","last_reported":1731690465,"current_range_meters":30800,"station_id":"ce4bgrp2rcd13ifvqc9g","pricing_plan_id":"cebpf4jnsgd1na2vs0mg"},{"bike_id":"848ff124-4b32-4a97-941c-e36064c7a840","system_id":"levelo_inurba_marseille","lat":43.28406,"lon":5.37518,"is_reserved":false,"is_disabled":false,"rental_uris":{"android":"levelo://app?vid=848ff124-4b32-4a97-941c-e36064c7a840","ios":"levelo://app?vid=848ff124-4b32-4a97-941c-e36064c7a840"},"vehicle_type_id":"4","last_reported":1731690465,"current_range_meters":34000,"station_id":"ce4bh412rcd13ifvqds0","pricing_plan_id":"cebpf4jnsgd1na2vs0mg"},{"bike_id":"179bd699-5dc4-4e18-b597-4bb53a92d2e1","system_id":"levelo_inurba_marseille","lat":43.29831,"lon":5.36249,"is_reserved":false,"is_disabled":false,"rental_uris":{"android":"levelo://app?vid=179bd699-5dc4-4e18-b597-4bb53a92d2e1","ios":"levelo://app?vid=179bd699-5dc4-4e18-b597-4bb53a92d2e1"},"vehicle_type_id":"4","last_reported":1731690465,"current_range_meters":38800,"station_id":"ce4bgpp2rcd13ifvqc3g","pricing_plan_id":"cebpf4jnsgd1na2vs0mg"},{"bike_id":"9092046c-b5f9-431d-9f28-de313477be4b","system_id":"levelo_inurba_marseille","lat":43.232,"lon":5.35551,"is_reserved":false,"is_disabled":false,"rental_uris":{"android":"levelo://app?vid=9092046c-b5f9-431d-9f28-de313477be4b","ios":"levelo://app?vid=9092046c-b5f9-431d-9f28-de313477be4b"},"vehicle_type_id":"4","last_reported":1731690465,"current_range_meters":32000,"station_id":"ce4bhu92rcd13ifvqi70","pricing_plan_id":"cebpf4jnsgd1na2vs0mg"},{"bike_id":"1bbde8f3-9aa0-43cc-bc14-881459fb168e","system_id":"levelo_inurba_marseille","lat":43.25724,"lon":5.41106,"is_reserved":false,"is_disabled":false,"rental_uris":{"android":"levelo://app?vid=1bbde8f3-9aa0-43cc-bc14-881459fb168e","ios":"levelo://app?vid=1bbde8f3-9aa0-43cc-bc14-881459fb168e"},"vehicle_type_id":"4","last_reported":1731690465,"current_range_meters":12400,"station_id":"ce4bhkp2rcd13ifvqgd0","pricing_plan_id":"cebpf4jnsgd1na2vs0mg"},{"bike_id":"aa0ae16c-58f9-46b8-be1a-bba2d31caecc","system_id":"levelo_inurba_marseille","lat":43.32111,"lon":5.36777,"is_reserved":false,"is_disabled":false,"rental_uris":{"android":"levelo://app?vid=aa0ae16c-58f9-46b8-be1a-bba2d31caecc","ios":"levelo://app?vid=aa0ae16c-58f9-46b8-be1a-bba2d31caecc"},"vehicle_type_id":"4","last_reported":1731690465,"current_range_meters":25600,"station_id":"ce4bhrh2rcd13ifvqhug","pricing_plan_id":"cebpf4jnsgd1na2vs0mg"},{"bike_id":"ac2aac2a-e750-4a99-b868-d37e9f200b5e","system_id":"levelo_inurba_marseille","lat":43.30353,"lon":5.36826,"is_reserved":false,"is_disabled":false,"rental_uris":{"android":"levelo://app?vid=ac2aac2a-e750-4a99-b868-d37e9f200b5e","ios":"levelo://app?vid=ac2aac2a-e750-4a99-b868-d37e9f200b5e"},"vehicle_type_id":"4","last_reported":1731690465,"current_range_meters":29600,"station_id":"","pricing_plan_id":"cebpf4jnsgd1na2vs0mg"},{"bike_id":"bc5982c5-027d-4af4-8fae-c04d58bdd000","system_id":"levelo_inurba_marseille","lat":43.29064,"lon":5.37166,"is_reserved":false,"is_disabled":false,"rental_uris":{"android":"levelo://app?vid=bc5982c5-027d-4af4-8fae-c04d58bdd000","ios":"levelo://app?vid=bc5982c5-027d-4af4-8fae-c04d58bdd000"},"vehicle_type_id":"4","last_reported":1731690465,"current_range_meters":16000,"station_id":"ce4bh5p2rcd13ifvqe4g","pricing_plan_id":"cebpf4jnsgd1na2vs0mg"},{"bike_id":"98efb307-ba4d-455f-a20b-eb26638aa5be","system_id":"levelo_inurba_marseille","lat":43.28847,"lon":5.35846,"is_reserved":false,"is_disabled":false,"rental_uris":{"android":"levelo://app?vid=98efb307-ba4d-455f-a20b-eb26638aa5be","ios":"levelo://app?vid=98efb307-ba4d-455f-a20b-eb26638aa5be"},"vehicle_type_id":"4","last_reported":1731690465,"current_range_meters":8800,"station_id":"ce4bhb12rcd13ifvqem0","pricing_plan_id":"cebpf4jnsgd1na2vs0mg"},{"bike_id":"006a97df-f68e-44a7-9366-c3e9011cf1b1","system_id":"levelo_inurba_marseille","lat":43.24168,"lon":5.36396,"is_reserved":false,"is_disabled":false,"rental_uris":{"android":"levelo://app?vid=006a97df-f68e-44a7-9366-c3e9011cf1b1","ios":"levelo://app?vid=006a97df-f68e-44a7-9366-c3e9011cf1b1"},"vehicle_type_id":"4","last_reported":1731690465,"current_range_meters":11600,"station_id":"cpo36qri1sfpv3e86is0","pricing_plan_id":"cebpf4jnsgd1na2vs0mg"},{"bike_id":"580d1387-c5ae-4be0-8566-495b75825ffb","system_id":"levelo_inurba_marseille","lat":43.290527,"lon":5.359046,"is_reserved":false,"is_disabled":false,"rental_uris":{"android":"levelo://app?vid=580d1387-c5ae-4be0-8566-495b75825ffb","ios":"levelo://app?vid=580d1387-c5ae-4be0-8566-495b75825ffb"},