{"last_updated":1743872864,"ttl":60,"version":"2.2","data":{"bikes":[{"bike_id":"83d3f7a2-be70-45ec-88e2-0e7856fdfd0c","system_id":"levelo_inurba_marseille","lat":43.29201,"lon":5.35786,"is_reserved":false,"is_disabled":false,"rental_uris":{"android":"levelo://app?vid=83d3f7a2-be70-45ec-88e2-0e7856fdfd0c","ios":"levelo://app?vid=83d3f7a2-be70-45ec-88e2-0e7856fdfd0c"},"vehicle_type_id":"4","last_reported":1743872864,"current_range_meters":2000,"station_id":"ce4bhb12rcd13ifvqel0","pricing_plan_id":"cebpf4jnsgd1na2vs0mg"},{"bike_id":"2947ce29-c55a-4f00-b57b-cb647d290c55","system_id":"levelo_inurba_marseille","lat":43.2481,"lon":5.37454,"is_reserved":false,"is_disabled":true,"rental_uris":{"android":"levelo://app?vid=2947ce29-c55a-4f00-b57b-cb647d290c55","ios":"levelo://app?vid=2947ce29-c55a-4f00-b57b-cb647d290c55"},"vehicle_type_id":"4","last_reported":1743872864,"current_range_meters":2800,"station_id":"ce4bhgh2rcd13ifvqfb0","pricing_plan_id":"cebpf4jnsgd1na2vs0mg"},{"bike_id":"bac19940-4544-44b0-a82b-5c8c07727200","system_id":"levelo_inurba_marseille","lat":43.28945,"lon":5.36381,"is_reserved":false,"is_disabled":false,"rental_uris":{"android":"levelo://app?vid=bac19940-4544-44b0-a82b-5c8c07727200","ios":"levelo://app?vid=bac19940-4544-44b0-a82b-5c8c07727200"},"vehicle_type_id":"4","last_reported":1743872864,"current_range_meters":2800,"station_id":"ce4bhc92rcd13ifvqetg","pricing_plan_id":"cebpf4jnsgd1na2vs0mg"},{"bike_id":"c334e90a-a1ae-4b1c-a131-dfc94bbc62e8","system_id":"levelo_inurba_marseille","lat":43.28957,"lon":5.36389,"is_reserved":false,"is_disabled":true,"rental_uris":{"android":"levelo://app?vid=c334e90a-a1ae-4b1c-a131-dfc94bbc62e8","ios":"levelo://app?vid=c334e90a-a1ae-4b1c-a131-dfc94bbc62e8"},"vehicle_type_id":"4","last_reported":1743872864,"current_range_meters":2800,"station_id":"ce4bhc92rcd13ifvqetg","pricing_plan_id":"cebpf4jnsgd1na2vs0mg"},{"bike_id":"36d84f86-b601-4916-bc7f-eb922b490de8","system_id":"levelo_inurba_marseille","lat":43.24812,"lon":5.37469,"is_reserved":false,"is_disabled":false,"rental_uris":{"android":"levelo://app?vid=36d84f86-b601-4916-bc7f-eb922b490de8","ios":"levelo://app?vid=36d84f86-b601-4916-bc7f-eb922b490de8"},"vehicle_type_id":"4","last_reported":1743872864,"current_range_meters":2800,"station_id":"ce4bhgh2rcd13ifvqfb0","pricing_plan_id":"cebpf4jnsgd1na2vs0mg"},{"bike_id":"59d4693c-8187-4653-8b5e-db941c7e7910","system_id":"levelo_inurba_marseille","lat":43.249088,"lon":5.37509,"is_reserved":false,"is_disabled":false,"rental_uris":{"android":"levelo://app?vid=59d4693c-8187-4653-8b5e-db941c7e7910","ios":"levelo://app?vid=59d4693c-8187-4653-8b5e-db941c7e7910"},"vehicle_type_id":"4","last_reported":1743872864,"current_range_meters":3200,"station_id":"ce4bgnh2rcd13ifvqc0g","pricing_plan_id":"cebpf4jnsgd1na2vs0mg"},{"bike_id":"d583da9a-3a37-4782-ab09-b35fdf11d08b","system_id":"levelo_inurba_marseille","lat":43.2737,"lon":5.3626,"is_reserved":false,"is_disabled":false,"rental_uris":{"android":"levelo://app?vid=d583da9a-3a37-4782-ab09-b35fdf11d08b","ios":"levelo://app?vid=d583da9a-3a37-4782-ab09-b35fdf11d08b"},"vehicle_type_id":"4","last_reported":1743872864,"current_range_meters":3200,"station_id":"ce4bhbh2rcd13ifvqeo0","pricing_plan_id":"cebpf4jnsgd1na2vs0mg"},{"bike_id":"e6c91fb2-b94d-44b5-bcd9-38b52b2d032b","system_id":"levelo_inurba_marseille","lat":43.29804,"lon":5.40399,"is_reserved":false,"is_disabled":false,"rental_uris":{"android":"levelo://app?vid=e6c91fb2-b94d-44b5-bcd9-38b52b2d032b","ios":"levelo://app?vid=e6c91fb2-b94d-44b5-bcd9-38b52b2d032b"},"vehicle_type_id":"4","last_reported":1743872864,"current_range_meters":3200,"station_id":"ce4bh112rcd13ifvqd90","pricing_plan_id":"cebpf4jnsgd1na2vs0mg"},{"bike_id":"fbc2e9a9-1062-4f61-87d6-b39d93af0271","system_id":"levelo_inurba_marseille","lat":43.286128,"lon":5.351084,"is_reserved":false,"is_disabled":false,"rental_uris":{"android":"levelo://app?vid=fbc2e9a9-1062-4f61-87d6-b39d93af0271","ios":"levelo://app?vid=fbc2e9a9-1062-4f61-87d6-b39d93af0271"},"vehicle_type_id":"4","last_reported":1743872864,"current_range_meters":3200,"station_id":"ce4bhch2rcd13ifvqeug","pricing_plan_id":"cebpf4jnsgd1na2vs0mg"},{"bike_id":"c91e02cd-5d52-419d-b44c-a49ec0eba664","system_id":"levelo_inurba_marseille","lat":43.27995,"lon":5.38755,"is_reserved":false,"is_disabled":false,"rental_uris":{"android":"levelo://app?vid=c91e02cd-5d52-419d-b44c-a49ec0eba664","ios":"levelo://app?vid=c91e02cd-5d52-419d-b44c-a49ec0eba664"},"vehicle_type_id":"4","last_reported":1743872864,"current_range_meters":3200,"station_id":"ce4bhg12rcd13ifvqf80","pricing_plan_id":"cebpf4jnsgd1na2vs0mg"},{"bike_id":"59907bfd-23e1-403c-ac41-33838923b893","system_id":"levelo_inurba_marseille","lat":43.28938,"lon":5.36637,"is_reserved":false,"is_disabled":false,"rental_uris":{"android":"levelo://app?vid=59907bfd-23e1-403c-ac41-33838923b893","ios":"levelo://app?vid=59907bfd-23e1-403c-ac41-33838923b893"},"vehicle_type_id":"4","last_reported":1743872864,"current_range_meters":2800,"station_id":"ce4bhap2rcd13ifvqek0","pricing_plan_id":"cebpf4jnsgd1na2vs0mg"},{"bike_id":"3ead1b55-d8b5-4af8-8c4c-a95aef9cd324","system_id":"levelo_inurba_marseille","lat":43.28463,"lon":5.35898,"is_reserved":false,"is_disabled":false,"rental_uris":{"android":"levelo://app?vid=3ead1b55-d8b5-4af8-8c4c-a95aef9cd324","ios":"levelo://app?vid=3ead1b55-d8b5-4af8-8c4c-a95aef9cd324"},"vehicle_type_id":"4","last_reported":1743872864,"current_range_meters":3200,"station_id":"ce4bhah2rcd13ifvqei0","pricing_plan_id":"cebpf4jnsgd1na2vs0mg"},{"bike_id":"061407be-a6c4-42c6-8fb7-a639eefc3444","system_id":"levelo_inurba_marseille","lat":43.273128,"lon":5.390783,"is_reserved":false,"is_disabled":false,"rental_uris":{"android":"levelo://app?vid=061407be-a6c4-42c6-8fb7-a639eefc3444","ios":"levelo://app?vid=061407be-a6c4-42c6-8fb7-a639eefc3444"},"vehicle_type_id":"4","last_reported":1743872864,"current_range_meters":3200,"station_id":"ce4bgrh2rcd13ifvqc8g","pricing_plan_id":"cebpf4jnsgd1na2vs0mg"},{"bike_id":"cccf24cd-47b4-4347-b71d-aae6955601c6","system_id":"levelo_inurba_marseille","lat":43.29101,"lon":5.38131,"is_reserved":false,"is_disabled":false,"rental_uris":{"android":"levelo://app?vid=cccf24cd-47b4-4347-b71d-aae6955601c6","ios":"levelo://app?vid=cccf24cd-47b4-4347-b71d-aae6955601c6"},"vehicle_type_id":"4","last_reported":1743872864,"current_range_meters":3200,"station_id":"ce4bh512rcd13ifvqe2g","pricing_plan_id":"cebpf4jnsgd1na2vs0mg"},{"bike_id":"b5349f7b-6f69-44a5-82f3-2980fe38c852","system_id":"levelo_inurba_marseille","lat":43.24811,"lon":5.37453,"is_reserved":false,"is_disabled":false,"rental_uris":{"android":"levelo://app?vid=b5349f7b-6f69-44a5-82f3-2980fe38c852","ios":"levelo://app?vid=b5349f7b-6f69-44a5-82f3-2980fe38c852"},"vehicle_type_id":"4","last_reported":1743872864,"current_range_meters":3600,"station_id":"ce4bhgh2rcd13ifvqfb0","pricing_plan_id":"cebpf4jnsgd1na2vs0mg"},{"bike_id":"59dcfe41-c3b9-48d8-9ce1-32c6f94cfe69","system_id":"levelo_inurba_marseille","lat":43.297821,"lon":5.365754,"is_reserved":false,"is_disabled":false,"rental_uris":{"android":"levelo://app?vid=59dcfe41-c3b9-48d8-9ce1-32c6f94cfe69","ios":"levelo://app?vid=59dcfe41-c3b9-48d8-9ce1-32c6f94cfe69"},"vehicle_type_id":"4","last_reported":1743872864,"current_range_meters":3600,"station_id":"ce4bgn12rcd13ifvqbt0","pricing_plan_id":"cebpf4jnsgd1na2vs0mg"},{"bike_id":"55100573-c869-4164-9d3e-0270b748aa59","system_id":"levelo_inurba_marseille","lat":43.28668,"lon":5.36358,"is_reserved":false,"is_disabled":false,"rental_uris":{"android":"levelo://app?vid=55100573-c869-4164-9d3e-0270b748aa59","ios":"levelo://app?vid=55100573-c869-4164-9d3e-0270b748aa59"},"vehicle_type_id":"4","last_reported":1743872864,"current_range_meters":3600,"station_id":"ce4bhah2rcd13ifvqej0","pricing_plan_id":"cebpf4jnsgd1na2vs0mg"},{"bike_id":"999f056d-9515-43eb-a5f6-9a483d7da8d0","system_id":"levelo_inurba_marseille","lat":43.279533,"lon":5.41051,"is_reserved":false,"is_disabled":false,"rental_uris":{"android":"levelo://app?vid=999f056d-9515-43eb-a5f6-9a483d7da8d0","ios":"levelo://app?vid=999f056d-9515-43eb-a5f6-9a483d7da8d0"},"vehicle_type_id":"4","last_reported":1743872864,"current_range_meters":3600,"station_id":"ce4bhbp2rcd13ifvqesg","pricing_plan_id":"cebpf4jnsgd1na2vs0mg"},{"bike_id":"a4302f0a-3489-415a-8597-991e9c00e3be","system_id":"levelo_inurba_marseille","lat":43.27375,"lon":5.36259,"is_reserved":false,"is_disabled":false,"rental_uris":{"android":"levelo://app?vid=a4302f0a-3489-415a-8597-991e9c00e3be","ios":"levelo://app?vid=a4302f0a-3489-415a-8597-991e9c00e3be"},"vehicle_type_id":"4","last_reported":1743872864,"current_range_meters":0,"station_id":"ce4bhbh2rcd13ifvqeo0","pricing_plan_id":"cebpf4jnsgd1na2vs0mg"},{"bike_id":"ff003b63-f451-40fd-b8e4-526986a98d0f","system_id":"levelo_inurba_marseille","lat":43.25496,"lon":5.37647,"is_reserved":false,"is_disabled":false,"rental_uris":{"android":"levelo://app?vid=ff003b63-f451-40fd-b8e4-526986a98d0f","ios":"levelo://app?vid=ff003b63-f451-40fd-b8e4-526986a98d0f"},"vehicle_type_id":"4","last_reported":1743872864,"current_range_meters":3600,"station_id":"ce4bhh12rcd13ifvqff0","pricing_plan_id":"cebpf4jnsgd1na2vs0mg"},{"bike_id":"fed25cf4-7be8-408e-848d-a778b08cb7e9","system_id":"levelo_inurba_marseille","lat":43.29903,"lon":5.4366,"is_reserved":false,"is_disabled":false,"rental_uris":{"android":"levelo://app?vid=fed25cf4-7be8-408e-848d-a778b08cb7e9","ios":"levelo://app?vid=fed25cf4-7be8-408e-848d-a778b08cb7e9"},"vehicle_type_id":"4","last_reported":1743872864,"current_range_meters":3600,"station_id":"ce4bhpp2rcd13ifvqhfg","pricing_plan_id":"cebpf4jnsgd1na2vs0mg"},{"bike_id":"02dd5f37-e4ce-4efc-9ce6-2776472fc632","system_id":"levelo_inurba_marseille","lat":43.251,"lon":5.40362,"is_reserved":false,"is_disabled":false,"rental_uris":{"android":"levelo://app?vid=02dd5f37-e4ce-4efc-9ce6-2776472fc632","ios":"levelo://app?vid=02dd5f37-e4ce-4efc-9ce6-2776472fc632"},"vehicle_type_id":"4","last_reported":1743872864,"current_range_meters":3600,"station_id":"ce4bhlh2rcd13ifvqgig","pricing_plan_id":"cebpf4jnsgd1na2vs0mg"},{"bike_id":"b86ee190-1e75-4e39-9cf4-e0696b3782e1","system_id":"levelo_inurba_marseille","lat":43.27378,"lon":5.36254,"is_reserved":false,"is_disabled":false,"rental_uris":{"android":"levelo://app?vid=b86ee190-1e75-4e39-9cf4-e0696b3782e1","ios":"levelo://app?vid=b86ee190-1e75-4e39-9cf4-e0696b3782e1"},"vehicle_type_id":"4","last_reported":1743872864,"current_range_meters":4000,"station_id":"ce4bhbh2rcd13ifvqeo0","pricing_plan_id":"cebpf4jnsgd1na2vs0mg"},{"bike_id":"a2da2917-fca4-4c71-985a-4b4ee1f635b0","system_id":"levelo_inurba_marseille","lat":43.29018,"lon":5.38138,"is_reserved":false,"is_disabled":false,"rental_uris":{"android":"levelo://app?vid=a2da2917-fca4-4c71-985a-4b4ee1f635b0","ios":"levelo://app?vid=a2da2917-fca4-4c71-985a-4b4ee1f635b0"},"vehicle_type_id":"4","last_reported":1743872864,"current_range_meters":4000,"station_id":"ce4bh4p2rcd13ifvqe1g","pricing_plan_id":"cebpf4jnsgd1na2vs0mg"},{"bike_id":"1ee29c2f-536e-4459-b738-2dd43265198d","system_id":"levelo_inurba_marseille","lat":43.2841,"lon":5.34992,"is_reserved":false,"is_disabled":false,"rental_uris":{"android":"levelo://app?vid=1ee29c2f-536e-4459-b738-2dd43265198d","ios":"levelo://app?vid=1ee29c2f-536e-4459-b738-2dd43265198d"},"vehicle_type_id":"4","last_reported":1743872864,"current_range_meters":4000,"station_id":"ce4bhbh2rcd13ifvqepg","pricing_plan_id":"cebpf4jnsgd1na2vs0mg"},{"bike_id":"a6a4aada-4dec-4c66-9029-bd9ebff46b38","system_id":"levelo_inurba_marseille","lat":43.31331,"lon":5.39694,"is_reserved":false,"is_disabled":false,"rental_uris":{"android":"levelo://app?vid=a6a4aada-4dec-4c66-9029-bd9ebff46b38","ios":"levelo://app?vid=a6a4aada-4dec-4c66-9029-bd9ebff46b38"},"vehicle_type_id":"4","last_reported":1743872864,"current_range_meters":8800,"station_id":"ce4bgvp2rcd13ifvqcu0","pricing_plan_id":"cebpf4jnsgd1na2vs0mg"},{"bike_id":"87a0a116-ce30-4db6-9d0c-6d4a58c7b8fb","system_id":"levelo_inurba_marseille","lat":43.28934,"lon":5.36634,"is_reserved":false,"is_disabled":false,"rental_uris":{"android":"levelo://app?vid=87a0a116-ce30-4db6-9d0c-6d4a58c7b8fb","ios":"levelo://app?vid=87a0a116-ce30-4db6-9d0c-6d4a58c7b8fb"},"vehicle_type_id":"4","last_reported":1743872864,"current_range_meters":3600,"station_id":"ce4bhap2rcd13ifvqek0","pricing_plan_id":"cebpf4jnsgd1na2vs0mg"},{"bike_id":"1fd1459a-45a5-4250-902c-113427f83e39","system_id":"levelo_inurba_marseille","lat":43.28044,"lon":5.36974,"is_reserved":false,"is_disabled":false,"rental_uris":{"android":"levelo://app?vid=1fd1459a-45a5-4250-902c-113427f83e39","ios":"levelo://app?vid=1fd1459a-45a5-4250-902c-113427f83e39"},"vehicle_type_id":"4","last_reported":1743872864,"current_range_meters":4400,"station_id":"ce4bha12rcd13ifvqef0","pricing_plan_id":"cebpf4jnsgd1na2vs0mg"},{"bike_id":"c0db06a7-37e0-4833-910e-c37d1d54405f","system_id":"levelo_inurba_marseille","lat":43.31896,"lon":5.40735,"is_reserved":false,"is_disabled":false,"rental_uris":{"android":"levelo://app?vid=c0db06a7-37e0-4833-910e-c37d1d54405f","ios":"levelo://app?vid=c0db06a7-37e0-4833-910e-c37d1d54405f"},"vehicle_type_id":"4","last_reported":1743872864,"current_range_meters":4400,"station_id":"ce4bhq12rcd13ifvqhig","pricing_plan_id":"cebpf4jnsgd1na2vs0mg"},{"bike_id":"b6b8484c-4cfe-4d87-accb-59b1f72b80ca","system_id":"levelo_inurba_marseille","lat":43.25011,"lon":5.38923,"is_reserved":false,"is_disabled":false,"rental_uris":{"android":"levelo://app?vid=b6b8484c-4cfe-4d87-accb-59b1f72b80ca","ios":"levelo://app?vid=b6b8484c-4cfe-4d87-accb-59b1f72b80ca"},"vehicle_type_id":"4","last_reported":1743872864,"current_range_meters":4400,"station_id":"ce4bhgp2rcd13ifvqfd0","pricing_plan_id":"cebpf4jnsgd1na2vs0mg"},{"bike_id":"3b7b213e-22a7-4fef-b783-d62e414fad77","system_id":"levelo_inurba_marseille","lat":43.24809,"lon":5.37464,"is_reserved":false,"is_disabled":false,"rental_uris":{"android":"levelo://app?vid=3b7b213e-22a7-4fef-b783-d62e414fad77","ios":"levelo://app?vid=3b7b213e-22a7-4fef-b783-d62e414fad77"},"vehicle_type_id":"4","last_reported":1743872864,"current_range_meters":4400,"station_id":"ce4bhgh2rcd13ifvqfb0","pricing_plan_id":"cebpf4jnsgd1na2vs0mg"},{"bike_id":"962776e6-1660-41a5-9082-9334ede4dd93","system_id":"levelo_inurba_marseille","lat":43.29102,"lon":5.38138,"is_reserved":false,"is_disabled":false,"rental_uris":{"android":"levelo://app?vid=962776e6-1660-41a5-9082-9334ede4dd93","ios":"levelo://app?vid=962776e6-1660-41a5-9082-9334ede4dd93"},"vehicle_type_id":"4","last_reported":1743872864,"current_range_meters":4400,"station_id":"ce4bh512rcd13ifvqe2g","pricing_plan_id":"cebpf4jnsgd1na2vs0mg"},{"bike_id":"19549f90-7932-422b-b254-829772f18cf8","system_id":"levelo_inurba_marseille","lat":43.29453,"lon":5.39739,"is_reserved":false,"is_disabled":false,"rental_uris":{"android":"levelo://app?vid=19549f90-7932-422b-b254-829772f18cf8","ios":"levelo://app?vid=19549f90-7932-422b-b254-829772f18cf8"},"vehicle_type_id":"4","last_reported":1743872864,"current_range_meters":4000,"station_id":"ce4bh3h2rcd13ifvqdo0","pricing_plan_id":"cebpf4jnsgd1na2vs0mg"},{"bike_id":"607b7c8f-640e-4b63-89be-4dccd15025da","system_id":"levelo_inurba_marseille","lat":43.30888,"lon":5.3966,"is_reserved":false,"is_disabled":false,"rental_uris":{"android":"levelo://app?vid=607b7c8f-640e-4b63-89be-4dccd15025da","ios":"levelo://app?vid=607b7c8f-640e-4b63-89be-4dccd15025da"},"vehicle_type_id":"4","last_reported":1743872864,"current_range_meters":4400,"station_id":"ce4bh012rcd13ifvqcv0","pricing_plan_id":"cebpf4jnsgd1na2vs0mg"},{"bike_id":"a6ed7d55-4106-48bb-9c99-deb74dd690fc","system_id":"levelo_inurba_marseille","lat":43.2862,"lon":5.351,"is_reserved":false,"is_disabled":false,"rental_uris":{"android":"levelo://app?vid=a6ed7d55-4106-48bb-9c99-deb74dd690fc","ios":"levelo://app?vid=a6ed7d55-4106-48bb-9c99-deb74dd690fc"},"vehicle_type_id":"4","last_reported":1743872864,"current_range_meters":4800,"station_id":"ce4bhch2rcd13ifvqeug","pricing_plan_id":"cebpf4jnsgd1na2vs0mg"},{"bike_id":"8fa92ff1-c2cb-4fa2-b3ce-e14c12ce1bf4","system_id":"levelo_inurba_marseille","lat":43.281555,"lon":5.426399,"is_reserved":false,"is_disabled":false,"rental_uris":{"android":"levelo://app?vid=8fa92ff1-c2cb-4fa2-b3ce-e14c12ce1bf4","ios":"levelo://app?vid=8fa92ff1-c2cb-4fa2-b3ce-e14c12ce1bf4"},"vehicle_type_id":"4","last_reported":1743872864,"current_range_meters":4800,"station_id":"ce4bhnh2rcd13ifvqgug","pricing_plan_id":"cebpf4jnsgd1na2vs0mg"},{"bike_id":"d6555a29-aa37-436e-8215-6dfd95a35409","system_id":"levelo_inurba_marseille","lat":43.291984,"lon":5.393107,"is_reserved":false,"is_disabled":false,"rental_uris":{"android":"levelo://app?vid=d6555a29-aa37-436e-8215-6dfd95a35409","ios":"levelo://app?vid=d6555a29-aa37-436e-8215-6dfd95a35409"},"vehicle_type_id":"4","last_reported":1743872864,"current_range_meters":4800,"station_id":"ce4bh192rcd13ifvqdd0","pricing_plan_id":"cebpf4jnsgd1na2vs0mg"},{"bike_id":"81f940ad-1926-4e4c-86d2-585fbb6e2ed4","system_id":"levelo_inurba_marseille","lat":43.28419,"lon":5.35,"is_reserved":false,"is_disabled":false,"rental_uris":{"android":"levelo://app?vid=81f940ad-1926-4e4c-86d2-585fbb6e2ed4","ios":"levelo://app?vid=81f940ad-1926-4e4c-86d2-585fbb6e2ed4"},"vehicle_type_id":"4","last_reported":1743872864,"current_range_meters":4800,"station_id":"ce4bhbh2rcd13ifvqepg","pricing_plan_id":"cebpf4jnsgd1na2vs0mg"},{"bike_id":"0e6205fa-d5c9-4f8b-b8cb-281b3153b52d","system_id":"levelo_inurba_marseille","lat":43.248027,"lon":5.374604,"is_reserved":false,"is_disabled":false,"rental_uris":{"android":"levelo://app?vid=0e6205fa-d5c9-4f8b-b8cb-281b3153b52d","ios":"levelo://app?vid=0e6205fa-d5c9-4f8b-b8cb-281b3153b52d"},"vehicle_type_id":"4","last_reported":1743872864,"current_range_meters":4800,"station_id":"ce4bhgh2rcd13ifvqfb0","pricing_plan_id":"cebpf4jnsgd1na2vs0mg"},{"bike_id":"b1008fcd-0dc9-4593-9116-aad71d0553db","system_id":"levelo_inurba_marseille","lat":43.25876,"lon":5.3989,"is_reserved":false,"is_disabled":false,"rental_uris":{"android":"levelo://app?vid=b1008fcd-0dc9-4593-9116-aad71d0553db","ios":"levelo://app?vid=b1008fcd-0dc9-4593-9116-aad71d0553db"},"vehicle_type_id":"4","last_reported":1743872864,"current_range_meters":4800,"station_id":"ce4bhl92rcd13ifvqghg","pricing_plan_id":"cebpf4jnsgd1na2vs0mg"},{"bike_id":"f50be04d-af26-49b7-92f2-c10b3d7d1212","system_id":"levelo_inurba_marseille","lat":43.28942,"lon":5.3664,"is_reserved":false,"is_disabled":false,"rental_uris":{"android":"levelo://app?vid=f50be04d-af26-49b7-92f2-c10b3d7d1212","ios":"levelo://app?vid=f50be04d-af26-49b7-92f2-c10b3d7d1212"},"vehicle_type_id":"4","last_reported":1743872864,"current_range_meters":5600,"station_id":"ce4bhap2rcd13ifvqek0","pricing_plan_id":"cebpf4jnsgd1na2vs0mg"},{"bike_id":"2b829cb4-e166-4fe2-b281-85746037f1ad","system_id":"levelo_inurba_marseille","lat":43.30369,"lon":5.42484,"is_reserved":false,"is_disabled":false,"rental_uris":{"android":"levelo://app?vid=2b829cb4-e166-4fe2-b281-85746037f1ad","ios":"levelo://app?vid=2b829cb4-e166-4fe2-b281-85746037f1ad"},"vehicle_type_id":"4","last_reported":1743872864,"current_range_meters":5600,"station_id":"ce4bhoh2rcd13ifvqh6g","pricing_plan_id":"cebpf4jnsgd1na2vs0mg"},{"bike_id":"852171e8-9d6e-4275-a892-99bfcdd7c38b","system_id":"levelo_inurba_marseille","lat":43.27073,"lon":5.42281,"is_reserved":false,"is_disabled":false,"rental_uris":{"android":"levelo://app?vid=852171e8-9d6e-4275-a892-99bfcdd7c38b","ios":"levelo://app?vid=852171e8-9d6e-4275-a892-99bfcdd7c38b"},"vehicle_type_id":"4","last_reported":1743872864,"current_range_meters":5600,"station_id":"ce4bhk92rcd13ifvqgb0","pricing_plan_id":"cebpf4jnsgd1na2vs0mg"},{"bike_id":"b78a56fb-d10b-41eb-aa43-d2217560c18e","system_id":"levelo_inurba_marseille","lat":43.29925,"lon":5.37454,"is_reserved":false,"is_disabled":false,"rental_uris":{"android":"levelo://app?vid=b78a56fb-d10b-41eb-aa43-d2217560c18e","ios":"levelo://app?vid=b78a56fb-d10b-41eb-aa43-d2217560c18e"},"vehicle_type_id":"4","last_reported":1743872864,"current_range_meters":5600,"station_id":"ce4bgjh2rcd13ifvqbg0","pricing_plan_id":"cebpf4jnsgd1na2vs0mg"},{"bike_id":"078f6eaa-73b9-4054-9e20-1905fb72c82c","system_id":"levelo_inurba_marseille","lat":43.31498,"lon":5.37311,"is_reserved":false,"is_disabled":false,"rental_uris":{"android":"levelo://app?vid=078f6eaa-73b9-4054-9e20-1905fb72c82c","ios":"levelo://app?vid=078f6eaa-73b9-4054-9e20-1905fb72c82c"},"vehicle_type_id":"4","last_reported":1743872864,"current_range_meters":4800,"station_id":"ce4bgt12rcd13ifvqcd0","pricing_plan_id":"cebpf4jnsgd1na2vs0mg"},{"bike_id":"237f1b82-943b-42b4-a3d0-f51047276ea0","system_id":"levelo_inurba_marseille","lat":43.2841,"lon":5.37511,"is_reserved":false,"is_disabled":false,"rental_uris":{"android":"levelo://app?vid=237f1b82-943b-42b4-a3d0-f51047276ea0","ios":"levelo://app?vid=237f1b82-943b-42b4-a3d0-f51047276ea0"},"vehicle_type_id":"4","last_reported":1743872864,"current_range_meters":5600,"station_id":"ce4bh412rcd13ifvqds0","pricing_plan_id":"cebpf4jnsgd1na2vs0mg"},{"bike_id":"1ff98881-43d6-410c-a24c-4a7303697a25","system_id":"levelo_inurba_marseille","lat":43.28852,"lon":5.39305,"is_reserved":false,"is_disabled":false,"rental_uris":{"android":"levelo://app?vid=1ff98881-43d6-410c-a24c-4a7303697a25","ios":"levelo://app?vid=1ff98881-43d6-410c-a24c-4a7303697a25"},"vehicle_type_id":"4","last_reported":1743872864,"current_range_meters":6000,"station_id":"ce4bh2p2rcd13ifvqdi0","pricing_plan_id":"cebpf4jnsgd1na2vs0mg"},{"bike_id":"557e4ad0-6ec1-4983-8042-00aad118748b","system_id":"levelo_inurba_marseille","lat":43.30811,"lon":5.4352,"is_reserved":false,"is_disabled":false,"rental_uris":{"android":"levelo://app?vid=557e4ad0-6ec1-4983-8042-00aad118748b","ios":"levelo://app?vid=557e4ad0-6ec1-4983-8042-00aad118748b"},"vehicle_type_id":"4","last_reported":1743872864,"current_range_meters":6000,"station_id":"ce4bhph2rcd13ifvqheg","pricing_plan_id":"cebpf4jnsgd1na2vs0mg"},{"bike_id":"b991118a-b3fd-4081-a6c6-23b69168496a","system_id":"levelo_inurba_marseille","lat":43.21758,"lon":5.34598,"is_reserved":false,"is_disabled":true,"rental_uris":{"android":"levelo://app?vid=b991118a-b3fd-4081-a6c6-23b69168496a","ios":"levelo://app?vid=b991118a-b3fd-4081-a6c6-23b69168496a"},"vehicle_type_id":"4","last_reported":1743872864,"current_range_meters":6000,"station_id":"","pricing_plan_id":"cebpf4jnsgd1na2vs0mg"},{"bike_id":"5eeaee7a-36ab-4806-922d-b761407bc2a5","system_id":"levelo_inurba_marseille","lat":43.29281,"lon":5.36841,"is_reserved":false,"is_disabled":false,"rental_uris":{"android":"levelo://app?vid=5eeaee7a-36ab-4806-922d-b761407bc2a5","ios":"levelo://app?vid=5eeaee7a-36ab-4806-922d-b761407bc2a5"},"vehicle_type_id":"4","last_reported":1743872864,"current_range_meters":6000,"station_id":"ce4bhbp2rcd13ifvqesg","pricing_plan_id":"cebpf4jnsgd1na2vs0mg"},{"bike_id":"50297066-959d-45c5-a71e-b062cc3724ec","system_id":"levelo_inurba_marseille","lat":43.30809,"lon":5.37342,"is_reserved":false,"is_disabled":false,"rental_uris":{"android":"levelo://app?vid=50297066-959d-45c5-a71e-b062cc3724ec","ios":"levelo://app?vid=50297066-959d-45c5-a71e-b062cc3724ec"},"vehicle_type_id":"4","last_reported":1743872864,"current_range_meters":6000,"station_id":"","pricing_plan_id":"cebpf4jnsgd1na2vs0mg"},{"bike_id":"79ba4fce-727f-409c-ba51-0aad07b7a017","system_id":"levelo_inurba_marseille","lat":43.28362,"lon":5.3812,"is_reserved":false,"is_disabled":false,"rental_uris":{"android":"levelo://app?vid=79ba4fce-727f-409c-ba51-0aad07b7a017","ios":"levelo://app?vid=79ba4fce-727f-409c-ba51-0aad07b7a017"},"vehicle_type_id":"4","last_reported":1743872864,"current_range_meters":6400,"station_id":"ce4bh412rcd13ifvqdr0","pricing_plan_id":"cebpf4jnsgd1na2vs0mg"},{"bike_id":"eb1099fb-29c4-4fb7-b020-4d31e0150ff9","system_id":"levelo_inurba_marseille","lat":43.28157,"lon":5.42639,"is_reserved":false,"is_disabled":false,"rental_uris":{"android":"levelo://app?vid=eb1099fb-29c4-4fb7-b020-4d31e0150ff9","ios":"levelo://app?vid=eb1099fb-29c4-4fb7-b020-4d31e0150ff9"},"vehicle_type_id":"4","last_reported":1743872864,"current_range_meters":6400,"station_id":"ce4bhnh2rcd13ifvqgug","pricing_plan_id":"cebpf4jnsgd1na2vs0mg"},{"bike_id":"b2d06068-2890-4b87-b6eb-55e03948f6c7","system_id":"levelo_inurba_marseille","lat":43.28616,"lon":5.35115,"is_reserved":false,"is_disabled":false,"rental_uris":{"android":"levelo://app?vid=b2d06068-2890-4b87-b6eb-55e03948f6c7","ios":"levelo://app?vid=b2d06068-2890-4b87-b6eb-55e03948f6c7"},"vehicle_type_id":"4","last_reported":1743872864,"current_range_meters":6400,"station_id":"ce4bhch2rcd13ifvqeug","pricing_plan_id":"cebpf4jnsgd1na2vs0mg"},{"bike_id":"43fe2ba1-31d3-42fc-b0e3-8377005f35b2","system_id":"levelo_inurba_marseille","lat":43.29265,"lon":5.37626,"is_reserved":false,"is_disabled":false,"rental_uris":{"android":"levelo://app?vid=43fe2ba1-31d3-42fc-b0e3-8377005f35b2","ios":"levelo://app?vid=43fe2ba1-31d3-42fc-b0e3-8377005f35b2"},"vehicle_type_id":"4","last_reported":1743872864,"current_range_meters":6400,"station_id":"ce4bgi12rcd13ifvqb80","pricing_plan_id":"cebpf4jnsgd1na2vs0mg"},{"bike_id":"95ebc31d-ba2c-4855-9413-141191b5e202","system_id":"levelo_inurba_marseille","lat":43.29263,"lon":5.40211,"is_reserved":false,"is_disabled":true,"rental_uris":{"android":"levelo://app?vid=95ebc31d-ba2c-4855-9413-141191b5e202","ios":"levelo://app?vid=95ebc31d-ba2c-4855-9413-141191b5e202"},"vehicle_type_id":"4","last_reported":1743872864,"current_range_meters":6400,"station_id":"ce4bh312rcd13ifvqdk0","pricing_plan_id":"cebpf4jnsgd1na2vs0mg"},{"bike_id":"a23e633b-bd68-44a4-833a-aead692d0588","system_id":"levelo_inurba_marseille","lat":43.285999,"lon":5.370659,"is_reserved":false,"is_disabled":false,"rental_uris":{"android":"levelo://app?vid=a23e633b-bd68-44a4-833a-aead692d0588","ios":"levelo://app?vid=a23e633b-bd68-44a4-833a-aead692d0588"},"vehicle_type_id":"4","last_reported":1743872864,"current_range_meters":6800,"station_id":"ce4bht12rcd13ifvqi60","pricing_plan_id":"cebpf4jnsgd1na2vs0mg"},{"bike_id":"0835d01c-3d20-4fce-95ca-c7aad3683735","system_id":"levelo_inurba_marseille","lat":43.25107,"lon":5.40301,"is_reserved":false,"is_disabled":false,"rental_uris":{"android":"levelo://app?vid=0835d01c-3d20-4fce-95ca-c7aad3683735","ios":"levelo://app?vid=0835d01c-3d20-4fce-95ca-c7aad3683735"},"vehicle_type_id":"4","last_reported":1743872864,"current_range_meters":6800,"station_id":"ce4bhlh2rcd13ifvqgig","pricing_plan_id":"cebpf4jnsgd1na2vs0mg"},{"bike_id":"58e995be-8542-4cb5-9530-547d7f09e84f","system_id":"levelo_inurba_marseille","lat":43.28982,"lon":5.35648,"is_reserved":false,"is_disabled":false,"rental_uris":{"android":"levelo://app?vid=58e995be-8542-4cb5-9530-547d7f09e84f","ios":"levelo://app?vid=58e995be-8542-4cb5-9530-547d7f09e84f"},"vehicle_type_id":"4","last_reported":1743872864,"current_range_meters":6800,"station_id":"ce4bhb92rcd13ifvqen0","pricing_plan_id":"cebpf4jnsgd1na2vs0mg"},{"bike_id":"f3f2b7cb-8a97-43b7-84b7-620627ca2323","system_id":"levelo_inurba_marseille","lat":43.28939,"lon":5.39626,"is_reserved":false,"is_disabled":false,"rental_uris":{"android":"levelo://app?vid=f3f2b7cb-8a97-43b7-84b7-620627ca2323","ios":"levelo://app?vid=f3f2b7cb-8a97-43b7-84b7-620627ca2323"},"vehicle_type_id":"4","last_reported":1743872864,"current_range_meters":6800,"station_id":"ce4bh3h2rcd13ifvqdn0","pricing_plan_id":"cebpf4jnsgd1na2vs0mg"},{"bike_id":"9d70d010-a364-4ffe-b53f-b5c1db71d6b8","system_id":"levelo_inurba_marseille","lat":43.27377,"lon":5.36258,"is_reserved":false,"is_disabled":false,"rental_uris":{"android":"levelo://app?vid=9d70d010-a364-4ffe-b53f-b5c1db71d6b8","ios":"levelo://app?vid=9d70d010-a364-4ffe-b53f-b5c1db71d6b8"},"vehicle_type_id":"4","last_reported":1743872864,"current_range_meters":10000,"station_id":"ce4bhbh2rcd13ifvqeo0","pricing_plan_id":"cebpf4jnsgd1na2vs0mg"},{"bike_id":"f1a18076-cb60-4709-9875-8e0e054a7844","system_id":"levelo_inurba_marseille","lat":43.2762,"lon":5.36105,"is_reserved":false,"is_disabled":false,"rental_uris":{"android":"levelo://app?vid=f1a18076-cb60-4709-9875-8e0e054a7844","ios":"levelo://app?vid=f1a18076-cb60-4709-9875-8e0e054a7844"},"vehicle_type_id":"4","last_reported":1743872864,"current_range_meters":6800,"station_id":"ce4bgj92rcd13ifvqbe0","pricing_plan_id":"cebpf4jnsgd1na2vs0mg"},{"bike_id":"3a673a01-13fc-4ed6-b9b1-08a0faf2fd75","system_id":"levelo_inurba_marseille","lat":43.23187,"lon":5.40009,"is_reserved":false,"is_disabled":false,"rental_uris":{"android":"levelo://app?vid=3a673a01-13fc-4ed6-b9b1-08a0faf2fd75","ios":"levelo://app?vid=3a673a01-13fc-4ed6-b9b1-08a0faf2fd75"},"vehicle_type_id":"4","last_reported":1743872864,"current_range_meters":6800,"station_id":"ce4bhn12rcd13ifvqgqg","pricing_plan_id":"cebpf4jnsgd1na2vs0mg"},{"bike_id":"270dd208-a3a3-4046-a7c7-2fde58f035e2","system_id":"levelo_inurba_marseille","lat":43.28474,"lon":5.38426,"is_reserved":false,"is_disabled":false,"rental_uris":{"android":"levelo://app?vid=270dd208-a3a3-4046-a7c7-2fde58f035e2","ios":"levelo://app?vid=270dd208-a3a3-4046-a7c7-2fde58f035e2"},"vehicle_type_id":"4","last_reported":1743872864,"current_range_meters":6800,"station_id":"ce4bh512rcd13ifvqe3g","pricing_plan_id":"cebpf4jnsgd1na2vs0mg"},{"bike_id":"6c683381-51da-44ee-b3b7-e62c264b2112","system_id":"levelo_inurba_marseille","lat":43.29312,"lon":5.37184,"is_reserved":false,"is_disabled":false,"rental_uris":{"android":"levelo://app?vid=6c683381-51da-44ee-b3b7-e62c264b2112","ios":"levelo://app?vid=6c683381-51da-44ee-b3b7-e62c264b2112"},"vehicle_type_id":"4","last_reported":1743872864,"current_range_meters":6800,"station_id":"ce4bgh92rcd13ifvqb40","pricing_plan_id":"cebpf4jnsgd1na2vs0mg"},{"bike_id":"af726636-1d50-47a5-be29-6a38a6b6271f","system_id":"levelo_inurba_marseille","lat":43.273825,"lon":5.362545,"is_reserved":false,"is_disabled":false,"rental_uris":{"android":"levelo://app?vid=af726636-1d50-47a5-be29-6a38a6b6271f","ios":"levelo://app?vid=af726636-1d50-47a5-be29-6a38a6b6271f"},"vehicle_type_id":"4","last_reported":1743872864,"current_range_meters":7200,"station_id":"ce4bhbh2rcd13ifvqeo0","pricing_plan_id":"cebpf4jnsgd1na2vs0mg"},{"bike_id":"e7b956ce-2ab2-4301-8fd3-6312d753e8f6","system_id":"levelo_inurba_marseille","lat":43.24657,"lon":5.381673,"is_reserved":false,"is_disabled":true,"rental_uris":{"android":"levelo://app?vid=e7b956ce-2ab2-4301-8fd3-6312d753e8f6","ios":"levelo://app?vid=e7b956ce-2ab2-4301-8fd3-6312d753e8f6"},"vehicle_type_id":"4","last_reported":1743872864,"current_range_meters":7200,"station_id":"ce4bhih2rcd13ifvqfr0","pricing_plan_id":"cebpf4jnsgd1na2vs0mg"},{"bike_id":"783ef245-163c-4c81-b038-df23059b7c57","system_id":"levelo_inurba_marseille","lat":43.310755,"lon":5.383546,"is_reserved":false,"is_disabled":false,"rental_uris":{"android":"levelo://app?vid=783ef245-163c-4c81-b038-df23059b7c57","ios":"levelo://app?vid=783ef245-163c-4c81-b038-df23059b7c57"},"vehicle_type_id":"4","last_reported":1743872864,"current_range_meters":7200,"station_id":"","pricing_plan_id":"cebpf4jnsgd1na2vs0mg"},{"bike_id":"908c0033-ebf3-400a-acb3-0a621b83539f","system_id":"levelo_inurba_marseille","lat":43.231899,"lon":5.39978,"is_reserved":false,"is_disabled":false,"rental_uris":{"android":"levelo://app?vid=908c0033-ebf3-400a-acb3-0a621b83539f","ios":"levelo://app?vid=908c0033-ebf3-400a-acb3-0a621b83539f"},"vehicle_type_id":"4","last_reported":1743872864,"current_range_meters":7200,"station_id":"ce4bhn12rcd13ifvqgqg","pricing_plan_id":"cebpf4jnsgd1na2vs0mg"},{"bike_id":"e1d234d1-866d-497b-962d-6fc13a139f2f","system_id":"levelo_inurba_marseille","lat":43.28607,"lon":5.35117,"is_reserved":false,"is_disabled":false,"rental_uris":{"android":"levelo://app?vid=e1d234d1-866d-497b-962d-6fc13a139f2f","ios":"levelo://app?vid=e1d234d1-866d-497b-962d-6fc13a139f2f"},"vehicle_type_id":"4","last_reported":1743872864,"current_range_meters":7200,"station_id":"ce4bhch2rcd13ifvqeug","pricing_plan_id":"cebpf4jnsgd1na2vs0mg"},{"bike_id":"70f4aea4-f216-44ce-80ed-bd6ec9b915ce","system_id":"levelo_inurba_marseille","lat":43.27904,"lon":5.38016,"is_reserved":false,"is_disabled":false,"rental_uris":{"android":"levelo://app?vid=70f4aea4-f216-44ce-80ed-bd6ec9b915ce","ios":"levelo://app?vid=70f4aea4-f216-44ce-80ed-bd6ec9b915ce"},"vehicle_type_id":"4","last_reported":1743872864,"current_range_meters":6400,"station_id":"ce4bhf92rcd13ifvqf50","pricing_plan_id":"cebpf4jnsgd1na2vs0mg"},{"bike_id":"011c3a3d-f6fb-451e-a47a-8473306c83e1","system_id":"levelo_inurba_marseille","lat":43.29274,"lon":5.38438,"is_reserved":false,"is_disabled":false,"rental_uris":{"android":"levelo://app?vid=011c3a3d-f6fb-451e-a47a-8473306c83e1","ios":"levelo://app?vid=011c3a3d-f6fb-451e-a47a-8473306c83e1"},"vehicle_type_id":"4","last_reported":1743872864,"current_range_meters":7200,"station_id":"ce4bh692rcd13ifvqea0","pricing_plan_id":"cebpf4jnsgd1na2vs0mg"},{"bike_id":"ba991623-d196-4285-bb24-378dab583942","system_id":"levelo_inurba_marseille","lat":43.32289,"lon":5.38262,"is_reserved":false,"is_disabled":false,"rental_uris":{"android":"levelo://app?vid=ba991623-d196-4285-bb24-378dab583942","ios":"levelo://app?vid=ba991623-d196-4285-bb24-378dab583942"},"vehicle_type_id":"4","last_reported":1743872864,"current_range_meters":7200,"station_id":"ce4bhr12rcd13ifvqhqg","pricing_plan_id":"cebpf4jnsgd1na2vs0mg"},{"bike_id":"11101b03-02c0-4bb4-a9dc-326497f91f4e","system_id":"levelo_inurba_marseille","lat":43.29254,"lon":5.40931,"is_reserved":false,"is_disabled":true,"rental_uris":{"android":"levelo://app?vid=11101b03-02c0-4bb4-a9dc-326497f91f4e","ios":"levelo://app?vid=11101b03-02c0-4bb4-a9dc-326497f91f4e"},"vehicle_type_id":"4","last_reported":1743872864,"current_range_meters":7200,"station_id":"ce4bh192rcd13ifvqdc0","pricing_plan_id":"cebpf4jnsgd1na2vs0mg"},{"bike_id":"cafb09de-7a6e-4f0b-833f-a6f73e58b6fd","system_id":"levelo_inurba_marseille","lat":43.26559,"lon":5.37281,"is_reserved":false,"is_disabled":false,"rental_uris":{"android":"levelo://app?vid=cafb09de-7a6e-4f0b-833f-a6f73e58b6fd","ios":"levelo://app?vid=cafb09de-7a6e-4f0b-833f-a6f73e58b6fd"},"vehicle_type_id":"4","last_reported":1743872864,"current_range_meters":10000,"station_id":"ce4bhg12rcd13ifvqf70","pricing_plan_id":"cebpf4jnsgd1na2vs0mg"},{"bike_id":"a9bee0e3-04a3-4248-90c3-47dda797419d","system_id":"levelo_inurba_marseille","lat":43.27374,"lon":5.36275,"is_reserved":false,"is_disabled":false,"rental_uris":{"android":"levelo://app?vid=a9bee0e3-04a3-4248-90c3-47dda797419d","ios":"levelo://app?vid=a9bee0e3-04a3-4248-90c3-47dda797419d"},"vehicle_type_id":"4","last_reported":1743872864,"current_range_meters":7200,"station_id":"ce4bhbh2rcd13ifvqeo0","pricing_plan_id":"cebpf4jnsgd1na2vs0mg"},{"bike_id":"debf89b2-4073-4a24-9a57-c607535d7822","system_id":"levelo_inurba_marseille","lat":43.28674,"lon":5.3866,"is_reserved":false,"is_disabled":false,"rental_uris":{"android":"levelo://app?vid=debf89b2-4073-4a24-9a57-c607535d7822","ios":"levelo://app?vid=debf89b2-4073-4a24-9a57-c607535d7822"},"vehicle_type_id":"4","last_reported":1743872864,"current_range_meters":8000,"station_id":"ce4bh492rcd13ifvqdug","pricing_plan_id":"cebpf4jnsgd1na2vs0mg"},{"bike_id":"be60df2c-7c52-49f4-9684-907f5602e689","system_id":"levelo_inurba_marseille","lat":43.27969,"lon":5.38752,"is_reserved":false,"is_disabled":false,"rental_uris":{"android":"levelo://app?vid=be60df2c-7c52-49f4-9684-907f5602e689","ios":"levelo://app?vid=be60df2c-7c52-49f4-9684-907f5602e689"},"vehicle_type_id":"4","last_reported":1743872864,"current_range_meters":6400,"station_id":"ce4bhg12rcd13ifvqf80","pricing_plan_id":"cebpf4jnsgd1na2vs0mg"},{"bike_id":"03559430-ab03-4eec-9fb5-c281119af9c1","system_id":"levelo_inurba_marseille","lat":43.28852,"lon":5.39303,"is_reserved":false,"is_disabled":false,"rental_uris":{"android":"levelo://app?vid=03559430-ab03-4eec-9fb5-c281119af9c1","ios":"levelo://app?vid=03559430-ab03-4eec-9fb5-c281119af9c1"},"vehicle_type_id":"4","last_reported":1743872864,"current_range_meters":8000,"station_id":"ce4bh2p2rcd13ifvqdi0","pricing_plan_id":"cebpf4jnsgd1na2vs0mg"},{"bike_id":"26d956d3-d500-47b0-ad66-253d3c5b198f","system_id":"levelo_inurba_marseille","lat":43.26225,"lon":5.40447,"is_reserved":false,"is_disabled":false,"rental_uris":{"android":"levelo://app?vid=26d956d3-d500-47b0-ad66-253d3c5b198f","ios":"levelo://app?vid=26d956d3-d500-47b0-ad66-253d3c5b198f"},"vehicle_type_id":"4","last_reported":1743872864,"current_range_meters":8000,"station_id":"ce4bhmh2rcd13ifvqgmg","pricing_plan_id":"cebpf4jnsgd1na2vs0mg"},{"bike_id":"9a36e749-313f-43fc-ac90-b52b5015306e","system_id":"levelo_inurba_marseille","lat":43.21193,"lon":5.35068,"is_reserved":false,"is_disabled":false,"rental_uris":{"android":"levelo://app?vid=9a36e749-313f-43fc-ac90-b52b5015306e","ios":"levelo://app?vid=9a36e749-313f-43fc-ac90-b52b5015306e"},"vehicle_type_id":"4","last_reported":1743872864,"current_range_meters":8000,"station_id":"st_cvj6sg6p6f1abm77japg","pricing_plan_id":"cebpf4jnsgd1na2vs0mg"},{"bike_id":"0300ed36-144c-47d9-a922-f93668338414","system_id":"levelo_inurba_marseille","lat":43.23958,"lon":5.3663,"is_reserved":false,"is_disabled":false,"rental_uris":{"android":"levelo://app?vid=0300ed36-144c-47d9-a922-f93668338414","ios":"levelo://app?vid=0300ed36-144c-47d9-a922-f93668338414"},"vehicle_type_id":"4","last_reported":1743872864,"current_range_meters":8000,"station_id":"ce4bhi12rcd13ifvqfp0","pricing_plan_id":"cebpf4jnsgd1na2vs0mg"},{"bike_id":"e96646e0-e8a4-4a0f-bf6e-1a0f5585bf39","system_id":"levelo_inurba_marseille","lat":43.280206,"lon":5.369478,"is_reserved":false,"is_disabled":false,"rental_uris":{"android":"levelo://app?vid=e96646e0-e8a4-4a0f-bf6e-1a0f5585bf39","ios":"levelo://app?vid=e96646e0-e8a4-4a0f-bf6e-1a0f5585bf39"},"vehicle_type_id":"4","last_reported":1743872864,"current_range_meters":8000,"station_id":"ce4bha12rcd13ifvqef0","pricing_plan_id":"cebpf4jnsgd1na2vs0mg"},{"bike_id":"d82d3a36-2adf-4361-9cd5-c3e8159f2b0f","system_id":"levelo_inurba_marseille","lat":43.30947,"lon":5.39039,"is_reserved":false,"is_disabled":false,"rental_uris":{"android":"levelo://app?vid=d82d3a36-2adf-4361-9cd5-c3e8159f2b0f","ios":"levelo://app?vid=d82d3a36-2adf-4361-9cd5-c3e8159f2b0f"},"vehicle_type_id":"4","last_reported":1743872864,"current_range_meters":8000,"station_id":"ce4bgup2rcd13ifvqco0","pricing_plan_id":"cebpf4jnsgd1na2vs0mg"},{"bike_id":"dcb3bde2-257c-4352-a361-bd53150773b3","system_id":"levelo_inurba_marseille","lat":43.28857,"lon":5.3584,"is_reserved":false,"is_disabled":false,"rental_uris":{"android":"levelo://app?vid=dcb3bde2-257c-4352-a361-bd53150773b3","ios":"levelo://app?vid=dcb3bde2-257c-4352-a361-bd53150773b3"},"vehicle_type_id":"4","last_reported":1743872864,"current_range_meters":8000,"station_id":"ce4bhb12rcd13ifvqem0","pricing_plan_id":"cebpf4jnsgd1na2vs0mg"},{"bike_id":"9bd375bb-500a-4bbf-83cd-2b926511ad3d","system_id":"levelo_inurba_marseille","lat":43.29258,"lon":5.40911,"is_reserved":false,"is_disabled":false,"rental_uris":{"android":"levelo://app?vid=9bd375bb-500a-4bbf-83cd-2b926511ad3d","ios":"levelo://app?vid=9bd375bb-500a-4bbf-83cd-2b926511ad3d"},"vehicle_type_id":"4","last_reported":1743872864,"current_range_meters":4400,"station_id":"ce4bh192rcd13ifvqdc0","pricing_plan_id":"cebpf4jnsgd1na2vs0mg"},{"bike_id":"302e20fc-69fc-49f0-8de6-173b152fb085","system_id":"levelo_inurba_marseille","lat":43.30881,"lon":5.39641,"is_reserved":false,"is_disabled":false,"rental_uris":{"android":"levelo://app?vid=302e20fc-69fc-49f0-8de6-173b152fb085","ios":"levelo://app?vid=302e20fc-69fc-49f0-8de6-173b152fb085"},"vehicle_type_id":"4","last_reported":1743872864,"current_range_meters":8000,"station_id":"ce4bh012rcd13ifvqcv0","pricing_plan_id":"cebpf4jnsgd1na2vs0mg"},{"bike_id":"feb6e46c-3fb2-45a9-a2fb-22ac62feb505","system_id":"levelo_inurba_marseille","lat":43.23053,"lon":5.3549,"is_reserved":false,"is_disabled":true,"rental_uris":{"android":"levelo://app?vid=feb6e46c-3fb2-45a9-a2fb-22ac62feb505","ios":"levelo://app?vid=feb6e46c-3fb2-45a9-a2fb-22ac62feb505"},"vehicle_type_id":"4","last_reported":1743872864,"current_range_meters":8000,"station_id":"cpo3342slgdg3j2ifvpg","pricing_plan_id":"cebpf4jnsgd1na2vs0mg"},{"bike_id":"5e593199-5293-4994-b2ae-23597c419d54","system_id":"levelo_inurba_marseille","lat":43.2988,"lon":5.38902,"is_reserved":false,"is_disabled":false,"rental_uris":{"android":"levelo://app?vid=5e593199-5293-4994-b2ae-23597c419d54","ios":"levelo://app?vid=5e593199-5293-4994-b2ae-23597c419d54"},"vehicle_type_id":"4","last_reported":1743872864,"current_range_meters":7200,"station_id":"ce4bh392rcd13ifvqdl0","pricing_plan_id":"cebpf4jnsgd1na2vs0mg"},{"bike_id":"81c2d4b3-e866-48fc-b647-5a83cfc4706d","system_id":"levelo_inurba_marseille","lat":43.29967,"lon":5.38504,"is_reserved":false,"is_disabled":false,"rental_uris":{"android":"levelo://app?vid=81c2d4b3-e866-48fc-b647-5a83cfc4706d","ios":"levelo://app?vid=81c2d4b3-e866-48fc-b647-5a83cfc4706d"},"vehicle_type_id":"4","last_reported":1743872864,"current_range_meters":8400,"station_id":"ce4bgj92rcd13ifvqbd0","pricing_plan_id":"cebpf4jnsgd1na2vs0mg"},{"bike_id":"3b4ad8c6-6244-4378-90d7-dac703d1508d","system_id":"levelo_inurba_marseille","lat":43.23192,"lon":5.35562,"is_reserved":false,"is_disabled":false,"rental_uris":{"android":"levelo://app?vid=3b4ad8c6-6244-4378-90d7-dac703d1508d","ios":"levelo://app?vid=3b4ad8c6-6244-4378-90d7-dac703d1508d"},"vehicle_type_id":"4","last_reported":1743872864,"current_range_meters":8400,"station_id":"ce4bhu92rcd13ifvqi70","pricing_plan_id":"cebpf4jnsgd1na2vs0mg"},{"bike_id":"ea2482ee-0d42-4afd-8c67-98121c66569c","system_id":"levelo_inurba_marseille","lat":43.28941,"lon":5.36637,"is_reserved":false,"is_disabled":false,"rental_uris":{"android":"levelo://app?vid=ea2482ee-0d42-4afd-8c67-98121c66569c","ios":"levelo://app?vid=ea2482ee-0d42-4afd-8c67-98121c66569c"},"vehicle_type_id":"4","last_reported":1743872864,"current_range_meters":8400,"station_id":"ce4bhap2rcd13ifvqek0","pricing_plan_id":"cebpf4jnsgd1na2vs0mg"},{"bike_id":"373a1380-80c3-4fd2-b5f8-87f0ef9ef1dc","system_id":"levelo_inurba_marseille","lat":43.25501,"lon":5.3765,"is_reserved":false,"is_disabled":false,"rental_uris":{"android":"levelo://app?vid=373a1380-80c3-4fd2-b5f8-87f0ef9ef1dc","ios":"levelo://app?vid=373a1380-80c3-4fd2-b5f8-87f0ef9ef1dc"},"vehicle_type_id":"4","last_reported":1743872864,"current_range_meters":8400,"station_id":"ce4bhh12rcd13ifvqff0","pricing_plan_id":"cebpf4jnsgd1na2vs0mg"},{"bike_id":"0314bab5-7060-4db4-b3f2-12aee6f3ad34","system_id":"levelo_inurba_marseille","lat":43.23067,"lon":5.35508,"is_reserved":false,"is_disabled":false,"rental_uris":{"android":"levelo://app?vid=0314bab5-7060-4db4-b3f2-12aee6f3ad34","ios":"levelo://app?vid=0314bab5-7060-4db4-b3f2-12aee6f3ad34"},"vehicle_type_id":"4","last_reported":1743872864,"current_range_meters":8400,"station_id":"cpo3342slgdg3j2ifvpg","pricing_plan_id":"cebpf4jnsgd1na2vs0mg"},{"bike_id":"fb0d4993-67fa-4314-9525-ef2ba9197c72","system_id":"levelo_inurba_marseille","lat":43.30321,"lon":5.4059,"is_reserved":false,"is_disabled":false,"rental_uris":{"android":"levelo://app?vid=fb0d4993-67fa-4314-9525-ef2ba9197c72","ios":"levelo://app?vid=fb0d4993-67fa-4314-9525-ef2ba9197c72"},"vehicle_type_id":"4","last_reported":1743872864,"current_range_meters":8800,"station_id":"","pricing_plan_id":"cebpf4jnsgd1na2vs0mg"},{"bike_id":"f229a08a-9237-44f3-870a-72cc9aa4aa81","system_id":"levelo_inurba_marseille","lat":43.27376,"lon":5.36266,"is_reserved":false,"is_disabled":false,"rental_uris":{"android":"levelo://app?vid=f229a08a-9237-44f3-870a-72cc9aa4aa81","ios":"levelo://app?vid=f229a08a-9237-44f3-870a-72cc9aa4aa81"},"vehicle_type_id":"4","last_reported":1743872864,"current_range_meters":8400,"station_id":"ce4bhbh2rcd13ifvqeo0","pricing_plan_id":"cebpf4jnsgd1na2vs0mg"},{"bike_id":"4a01353d-6b43-4ce9-9297-15c443e756f9","system_id":"levelo_inurba_marseille","lat":43.25102,"lon":5.40328,"is_reserved":false,"is_disabled":false,"rental_uris":{"android":"levelo://app?vid=4a01353d-6b43-4ce9-9297-15c443e756f9","ios":"levelo://app?vid=4a01353d-6b43-4ce9-9297-15c443e756f9"},"vehicle_type_id":"4","last_reported":1743872864,"current_range_meters":8400,"station_id":"ce4bhlh2rcd13ifvqgig","pricing_plan_id":"cebpf4jnsgd1na2vs0mg"},{"bike_id":"ded13164-63e7-4dd8-9712-e1b0d2e895a1","system_id":"levelo_inurba_marseille","lat":43.292915,"lon":5.374628,"is_reserved":false,"is_disabled":false,"rental_uris":{"android":"levelo://app?vid=ded13164-63e7-4dd8-9712-e1b0d2e895a1","ios":"levelo://app?vid=ded13164-63e7-4dd8-9712-e1b0d2e895a1"},"vehicle_type_id":"4","last_reported":1743872864,"current_range_meters":8400,"station_id":"ce4bgi12rcd13ifvqb70","pricing_plan_id":"cebpf4jnsgd1na2vs0mg"},{"bike_id":"25911f27-ec73-4dd8-90fe-c1e00076a931","system_id":"levelo_inurba_marseille","lat":43.28463,"lon":5.35887,"is_reserved":false,"is_disabled":false,"rental_uris":{"android":"levelo://app?vid=25911f27-ec73-4dd8-90fe-c1e00076a931","ios":"levelo://app?vid=25911f27-ec73-4dd8-90fe-c1e00076a931"},"vehicle_type_id":"4","last_reported":1743872864,"current_range_meters":8400,"station_id":"ce4bhah2rcd13ifvqei0","pricing_plan_id":"cebpf4jnsgd1na2vs0mg"},{"bike_id":"7a389fd7-a90a-47b4-8c7e-a1a93df13874","system_id":"levelo_inurba_marseille","lat":43.27373,"lon":5.36248,"is_reserved":false,"is_disabled":false,"rental_uris":{"android":"levelo://app?vid=7a389fd7-a90a-47b4-8c7e-a1a93df13874","ios":"levelo://app?vid=7a389fd7-a90a-47b4-8c7e-a1a93df13874"},"vehicle_type_id":"4","last_reported":1743872864,"current_range_meters":8400,"station_id":"ce4bhbh2rcd13ifvqeo0","pricing_plan_id":"cebpf4jnsgd1na2vs0mg"},{"bike_id":"66b14ad6-0def-4b23-976b-6d33d29ea53a","system_id":"levelo_inurba_marseille","lat":43.28052,"lon":5.34813,"is_reserved":false,"is_disabled":false,"rental_uris":{"android":"levelo://app?vid=66b14ad6-0def-4b23-976b-6d33d29ea53a","ios":"levelo://app?vid=66b14ad6-0def-4b23-976b-6d33d29ea53a"},"vehicle_type_id":"4","last_reported":1743872864,"current_range_meters":8400,"station_id":"","pricing_plan_id":"cebpf4jnsgd1na2vs0mg"},{"bike_id":"3711451d-d57b-48d1-b38d-2c23f7a389b8","system_id":"levelo_inurba_marseille","lat":43.27845,"lon":5.39203,"is_reserved":false,"is_disabled":false,"rental_uris":{"android":"levelo://app?vid=3711451d-d57b-48d1-b38d-2c23f7a389b8","ios":"levelo://app?vid=3711451d-d57b-48d1-b38d-2c23f7a389b8"},"vehicle_type_id":"4","last_reported":1743872864,"current_range_meters":8400,"station_id":"ce4bhjp2rcd13ifvqga0","pricing_plan_id":"cebpf4jnsgd1na2vs0mg"},{"bike_id":"64b95692-e4e9-4fa3-a7f5-157fd7c607f2","system_id":"levelo_inurba_marseille","lat":43.25,"lon":5.38928,"is_reserved":false,"is_disabled":false,"rental_uris":{"android":"levelo://app?vid=64b95692-e4e9-4fa3-a7f5-157fd7c607f2","ios":"levelo://app?vid=64b95692-e4e9-4fa3-a7f5-157fd7c607f2"},"vehicle_type_id":"4","last_reported":1743872864,"current_range_meters":8400,"station_id":"ce4bhgp2rcd13ifvqfd0","pricing_plan_id":"cebpf4jnsgd1na2vs0mg"},{"bike_id":"6b8df6c6-e69f-416d-869f-6c58b572d426","system_id":"levelo_inurba_marseille","lat":43.23169,"lon":5.39995,"is_reserved":false,"is_disabled":false,"rental_uris":{"android":"levelo://app?vid=6b8df6c6-e69f-416d-869f-6c58b572d426","ios":"levelo://app?vid=6b8df6c6-e69f-416d-869f-6c58b572d426"},"vehicle_type_id":"4","last_reported":1743872864,"current_range_meters":8800,"station_id":"ce4bhn12rcd13ifvqgqg","pricing_plan_id":"cebpf4jnsgd1na2vs0mg"},{"bike_id":"669db11b-2556-4b80-a6ce-3084533af008","system_id":"levelo_inurba_marseille","lat":43.28598,"lon":5.370596,"is_reserved":false,"is_disabled":false,"rental_uris":{"android":"levelo://app?vid=669db11b-2556-4b80-a6ce-3084533af008","ios":"levelo://app?vid=669db11b-2556-4b80-a6ce-3084533af008"},"vehicle_type_id":"4","last_reported":1743872864,"current_range_meters":8800,"station_id":"ce4bht12rcd13ifvqi60","pricing_plan_id":"cebpf4jnsgd1na2vs0mg"},{"bike_id":"648f7476-494f-4f92-85e7-6a96e5b7989a","system_id":"levelo_inurba_marseille","lat":43.29286,"lon":5.37454,"is_reserved":false,"is_disabled":false,"rental_uris":{"android":"levelo://app?vid=648f7476-494f-4f92-85e7-6a96e5b7989a","ios":"levelo://app?vid=648f7476-494f-4f92-85e7-6a96e5b7989a"},"vehicle_type_id":"4","last_reported":1743872864,"current_range_meters":8800,"station_id":"ce4bgi12rcd13ifvqb70","pricing_plan_id":"cebpf4jnsgd1na2vs0mg"},{"bike_id":"36b40002-a941-4025-8496-6f64ad8c3f60","system_id":"levelo_inurba_marseille","lat":43.232,"lon":5.39973,"is_reserved":false,"is_disabled":false,"rental_uris":{"android":"levelo://app?vid=36b40002-a941-4025-8496-6f64ad8c3f60","ios":"levelo://app?vid=36b40002-a941-4025-8496-6f64ad8c3f60"},"vehicle_type_id":"4","last_reported":1743872864,"current_range_meters":8800,"station_id":"ce4bhn12rcd13ifvqgqg","pricing_plan_id":"cebpf4jnsgd1na2vs0mg"},{"bike_id":"ecf8a1da-e90b-48d6-acb8-7b5e022a5bf7","system_id":"levelo_inurba_marseille","lat":43.308,"lon":5.38154,"is_reserved":false,"is_disabled":false,"rental_uris":{"android":"levelo://app?vid=ecf8a1da-e90b-48d6-acb8-7b5e022a5bf7","ios":"levelo://app?vid=ecf8a1da-e90b-48d6-acb8-7b5e022a5bf7"},"vehicle_type_id":"4","last_reported":1743872864,"current_range_meters":7200,"station_id":"ce4bgt12rcd13ifvqce0","pricing_plan_id":"cebpf4jnsgd1na2vs0mg"},{"bike_id":"23457e9c-32ba-4ad5-a7a7-90f08752b2fa","system_id":"levelo_inurba_marseille","lat":43.3014,"lon":5.3742,"is_reserved":false,"is_disabled":false,"rental_uris":{"android":"levelo://app?vid=23457e9c-32ba-4ad5-a7a7-90f08752b2fa","ios":"levelo://app?vid=23457e9c-32ba-4ad5-a7a7-90f08752b2fa"},"vehicle_type_id":"4","last_reported":1743872864,"current_range_meters":8800,"station_id":"ce4bgs92rcd13ifvqcc0","pricing_plan_id":"cebpf4jnsgd1na2vs0mg"},{"bike_id":"ac7a85da-6a1d-42f4-b3e0-decaec458451","system_id":"levelo_inurba_marseille","lat":43.22926,"lon":5.3537,"is_reserved":false,"is_disabled":true,"rental_uris":{"android":"levelo://app?vid=ac7a85da-6a1d-42f4-b3e0-decaec458451","ios":"levelo://app?vid=ac7a85da-6a1d-42f4-b3e0-decaec458451"},"vehicle_type_id":"4","last_reported":1743872864,"current_range_meters":8800,"station_id":"cpo3532slgdg3j2ikp40","pricing_plan_id":"cebpf4jnsgd1na2vs0mg"},{"bike_id":"3d23369b-786b-4689-a3c1-a79aa3389f8c","system_id":"levelo_inurba_marseille","lat":43.28614,"lon":5.35113,"is_reserved":false,"is_disabled":false,"rental_uris":{"android":"levelo://app?vid=3d23369b-786b-4689-a3c1-a79aa3389f8c","ios":"levelo://app?vid=3d23369b-786b-4689-a3c1-a79aa3389f8c"},"vehicle_type_id":"4","last_reported":1743872864,"current_range_meters":8800,"station_id":"ce4bhch2rcd13ifvqeug","pricing_plan_id":"cebpf4jnsgd1na2vs0mg"},{"bike_id":"6319de77-24b4-405e-ac12-c34d64d9602b","system_id":"levelo_inurba_marseille","lat":43.26214,"lon":5.37448,"is_reserved":false,"is_disabled":false,"rental_uris":{"android":"levelo://app?vid=6319de77-24b4-405e-ac12-c34d64d9602b","ios":"levelo://app?vid=6319de77-24b4-405e-ac12-c34d64d9602b"},"vehicle_type_id":"4","last_reported":1743872864,"current_range_meters":8800,"station_id":"ce4bhgp2rcd13ifvqfc0","pricing_plan_id":"cebpf4jnsgd1na2vs0mg"},{"bike_id":"eb79d1f9-7c91-4ea2-b5f8-796189743e1a","system_id":"levelo_inurba_marseille","lat":43.33726,"lon":5.39156,"is_reserved":false,"is_disabled":false,"rental_uris":{"android":"levelo://app?vid=eb79d1f9-7c91-4ea2-b5f8-796189743e1a","ios":"levelo://app?vid=eb79d1f9-7c91-4ea2-b5f8-796189743e1a"},"vehicle_type_id":"4","last_reported":1743872864,"current_range_meters":9200,"station_id":"ce4bhr92rcd13ifvqhsg","pricing_plan_id":"cebpf4jnsgd1na2vs0mg"},{"bike_id":"e1aaa616-1145-4448-9bbe-139a4fa2bce0","system_id":"levelo_inurba_marseille","lat":43.29981,"lon":5.38488,"is_reserved":false,"is_disabled":false,"rental_uris":{"android":"levelo://app?vid=e1aaa616-1145-4448-9bbe-139a4fa2bce0","ios":"levelo://app?vid=e1aaa616-1145-4448-9bbe-139a4fa2bce0"},"vehicle_type_id":"4","last_reported":1743872864,"current_range_meters":8800,"station_id":"ce4bgj92rcd13ifvqbd0","pricing_plan_id":"cebpf4jnsgd1na2vs0mg"},{"bike_id":"a7eeb0cd-597e-4047-a128-fc0506038ac3","system_id":"levelo_inurba_marseille","lat":43.27618,"lon":5.36131,"is_reserved":false,"is_disabled":false,"rental_uris":{"android":"levelo://app?vid=a7eeb0cd-597e-4047-a128-fc0506038ac3","ios":"levelo://app?vid=a7eeb0cd-597e-4047-a128-fc0506038ac3"},"vehicle_type_id":"4","last_reported":1743872864,"current_range_meters":9200,"station_id":"ce4bgj92rcd13ifvqbe0","pricing_plan_id":"cebpf4jnsgd1na2vs0mg"},{"bike_id":"49b429e8-10d3-4076-938d-2d571f200b63","system_id":"levelo_inurba_marseille","lat":43.255,"lon":5.37647,"is_reserved":false,"is_disabled":false,"rental_uris":{"android":"levelo://app?vid=49b429e8-10d3-4076-938d-2d571f200b63","ios":"levelo://app?vid=49b429e8-10d3-4076-938d-2d571f200b63"},"vehicle_type_id":"4","last_reported":1743872864,"current_range_meters":9200,"station_id":"ce4bhh12rcd13ifvqff0","pricing_plan_id":"cebpf4jnsgd1na2vs0mg"},{"bike_id":"d89bb348-a2b2-475f-b66f-22fe74c882fd","system_id":"levelo_inurba_marseille","lat":43.23194,"lon":5.39973,"is_reserved":false,"is_disabled":false,"rental_uris":{"android":"levelo://app?vid=d89bb348-a2b2-475f-b66f-22fe74c882fd","ios":"levelo://app?vid=d89bb348-a2b2-475f-b66f-22fe74c882fd"},"vehicle_type_id":"4","last_reported":1743872864,"current_range_meters":9200,"station_id":"ce4bhn12rcd13ifvqgqg","pricing_plan_id":"cebpf4jnsgd1na2vs0mg"},{"bike_id":"ff9510e3-3981-4481-80e5-aced86784002","system_id":"levelo_inurba_marseille","lat":43.24073,"lon":5.37734,"is_reserved":false,"is_disabled":false,"rental_uris":{"android":"levelo://app?vid=ff9510e3-3981-4481-80e5-aced86784002","ios":"levelo://app?vid=ff9510e3-3981-4481-80e5-aced86784002"},"vehicle_type_id":"4","last_reported":1743872864,"current_range_meters":9200,"station_id":"ce4bhnp2rcd13ifvqgvg","pricing_plan_id":"cebpf4jnsgd1na2vs0mg"},{"bike_id":"ebcd2558-8155-4dd3-a897-34ecd5188508","system_id":"levelo_inurba_marseille","lat":43.31724,"lon":5.42393,"is_reserved":false,"is_disabled":false,"rental_uris":{"android":"levelo://app?vid=ebcd2558-8155-4dd3-a897-34ecd5188508","ios":"levelo://app?vid=ebcd2558-8155-4dd3-a897-34ecd5188508"},"vehicle_type_id":"4","last_reported":1743872864,"current_range_meters":9200,"station_id":"ce4bhp92rcd13ifvqhbg","pricing_plan_id":"cebpf4jnsgd1na2vs0mg"},{"bike_id":"fdad6e5e-1467-4616-9d72-68b29d343e00","system_id":"levelo_inurba_marseille","lat":43.32283,"lon":5.38279,"is_reserved":false,"is_disabled":false,"rental_uris":{"android":"levelo://app?vid=fdad6e5e-1467-4616-9d72-68b29d343e00","ios":"levelo://app?vid=fdad6e5e-1467-4616-9d72-68b29d343e00"},"vehicle_type_id":"4","last_reported":1743872864,"current_range_meters":9200,"station_id":"ce4bhr12rcd13ifvqhqg","pricing_plan_id":"cebpf4jnsgd1na2vs0mg"},{"bike_id":"8e8105ce-63e2-4441-9ebe-d6a09a08a22e","system_id":"levelo_inurba_marseille","lat":43.29668,"lon":5.36204,"is_reserved":false,"is_disabled":false,"rental_uris":{"android":"levelo://app?vid=8e8105ce-63e2-4441-9ebe-d6a09a08a22e","ios":"levelo://app?vid=8e8105ce-63e2-4441-9ebe-d6a09a08a22e"},"vehicle_type_id":"4","last_reported":1743872864,"current_range_meters":9200,"station_id":"","pricing_plan_id":"cebpf4jnsgd1na2vs0mg"},{"bike_id":"14d24ed7-cea7-43de-94b5-d3ed5551437a","system_id":"levelo_inurba_marseille","lat":43.23056,"lon":5.35503,"is_reserved":false,"is_disabled":false,"rental_uris":{"android":"levelo://app?vid=14d24ed7-cea7-43de-94b5-d3ed5551437a","ios":"levelo://app?vid=14d24ed7-cea7-43de-94b5-d3ed5551437a"},"vehicle_type_id":"4","last_reported":1743872864,"current_range_meters":9200,"station_id":"cpo3342slgdg3j2ifvpg","pricing_plan_id":"cebpf4jnsgd1na2vs0mg"},{"bike_id":"c257bbcd-146b-45af-83da-f5cd9b66b354","system_id":"levelo_inurba_marseille","lat":43.25581,"lon":5.38232,"is_reserved":false,"is_disabled":false,"rental_uris":{"android":"levelo://app?vid=c257bbcd-146b-45af-83da-f5cd9b66b354","ios":"levelo://app?vid=c257bbcd-146b-45af-83da-f5cd9b66b354"},"vehicle_type_id":"4","last_reported":1743872864,"current_range_meters":9200,"station_id":"ce4bhih2rcd13ifvqfs0","pricing_plan_id":"cebpf4jnsgd1na2vs0mg"},{"bike_id":"c0542686-49df-47d2-beb0-a74919288973","system_id":"levelo_inurba_marseille","lat":43.31328,"lon":5.39692,"is_reserved":false,"is_disabled":false,"rental_uris":{"android":"levelo://app?vid=c0542686-49df-47d2-beb0-a74919288973","ios":"levelo://app?vid=c0542686-49df-47d2-beb0-a74919288973"},"vehicle_type_id":"4","last_reported":1743872864,"current_range_meters":8800,"station_id":"ce4bgvp2rcd13ifvqcu0","pricing_plan_id":"cebpf4jnsgd1na2vs0mg"},{"bike_id":"e096d1a9-c0a7-4974-8c7d-387f953f5d11","system_id":"levelo_inurba_marseille","lat":43.2795,"lon":5.41045,"is_reserved":false,"is_disabled":false,"rental_uris":{"android":"levelo://app?vid=e096d1a9-c0a7-4974-8c7d-387f953f5d11","ios":"levelo://app?vid=e096d1a9-c0a7-4974-8c7d-387f953f5d11"},"vehicle_type_id":"4","last_reported":1743872864,"current_range_meters":9200,"station_id":"ce4bhnp2rcd13ifvqh0g","pricing_plan_id":"cebpf4jnsgd1na2vs0mg"},{"bike_id":"8d49f4f3-d52d-4ac4-8228-0b705a5776d1","system_id":"levelo_inurba_marseille","lat":43.2862,"lon":5.35103,"is_reserved":false,"is_disabled":false,"rental_uris":{"android":"levelo://app?vid=8d49f4f3-d52d-4ac4-8228-0b705a5776d1","ios":"levelo://app?vid=8d49f4f3-d52d-4ac4-8228-0b705a5776d1"},"vehicle_type_id":"4","last_reported":1743872864,"current_range_meters":9600,"station_id":"ce4bhch2rcd13ifvqeug","pricing_plan_id":"cebpf4jnsgd1na2vs0mg"},{"bike_id":"0f6f5bd1-4091-4904-83e4-bacfd6e724ca","system_id":"levelo_inurba_marseille","lat":43.28002,"lon":5.40014,"is_reserved":false,"is_disabled":false,"rental_uris":{"android":"levelo://app?vid=0f6f5bd1-4091-4904-83e4-bacfd6e724ca","ios":"levelo://app?vid=0f6f5bd1-4091-4904-83e4-bacfd6e724ca"},"vehicle_type_id":"4","last_reported":1743872864,"current_range_meters":9200,"station_id":"ce4bho92rcd13ifvqh4g","pricing_plan_id":"cebpf4jnsgd1na2vs0mg"},{"bike_id":"8556af88-daaf-42e0-b67a-04f02050beb0","system_id":"levelo_inurba_marseille","lat":43.27376,"lon":5.36259,"is_reserved":false,"is_disabled":false,"rental_uris":{"android":"levelo://app?vid=8556af88-daaf-42e0-b67a-04f02050beb0","ios":"levelo://app?vid=8556af88-daaf-42e0-b67a-04f02050beb0"},"vehicle_type_id":"4","last_reported":1743872864,"current_range_meters":9600,"station_id":"ce4bhbh2rcd13ifvqeo0","pricing_plan_id":"cebpf4jnsgd1na2vs0mg"},{"bike_id":"ec1d3458-0a90-4120-8a34-a42a38cc7495","system_id":"levelo_inurba_marseille","lat":43.28415,"lon":5.34981,"is_reserved":false,"is_disabled":false,"rental_uris":{"android":"levelo://app?vid=ec1d3458-0a90-4120-8a34-a42a38cc7495","ios":"levelo://app?vid=ec1d3458-0a90-4120-8a34-a42a38cc7495"},"vehicle_type_id":"4","last_reported":1743872864,"current_range_meters":9600,"station_id":"ce4bhbh2rcd13ifvqepg","pricing_plan_id":"cebpf4jnsgd1na2vs0mg"},{"bike_id":"022f6b09-7f2c-405d-a55a-3bdc66700b60","system_id":"levelo_inurba_marseille","lat":43.28462,"lon":5.35887,"is_reserved":false,"is_disabled":false,"rental_uris":{"android":"levelo://app?vid=022f6b09-7f2c-405d-a55a-3bdc66700b60","ios":"levelo://app?vid=022f6b09-7f2c-405d-a55a-3bdc66700b60"},"vehicle_type_id":"4","last_reported":1743872864,"current_range_meters":8400,"station_id":"ce4bhah2rcd13ifvqei0","pricing_plan_id":"cebpf4jnsgd1na2vs0mg"},{"bike_id":"d5e984d3-343e-4e16-bd54-bc3ebbd48639","system_id":"levelo_inurba_marseille","lat":43.30164,"lon":5.38609,"is_reserved":false,"is_disabled":true,"rental_uris":{"android":"levelo://app?vid=d5e984d3-343e-4e16-bd54-bc3ebbd48639","ios":"levelo://app?vid=d5e984d3-343e-4e16-bd54-bc3ebbd48639"},"vehicle_type_id":"4","last_reported":1743872864,"current_range_meters":10000,"station_id":"","pricing_plan_id":"cebpf4jnsgd1na2vs0mg"},{"bike_id":"fd7aa04f-55dd-458d-ad10-56073bfd2836","system_id":"levelo_inurba_marseille","lat":43.29974,"lon":5.38496,"is_reserved":false,"is_disabled":false,"rental_uris":{"android":"levelo://app?vid=fd7aa04f-55dd-458d-ad10-56073bfd2836","ios":"levelo://app?vid=fd7aa04f-55dd-458d-ad10-56073bfd2836"},"vehicle_type_id":"4","last_reported":1743872864,"current_range_meters":10000,"station_id":"ce4bgj92rcd13ifvqbd0","pricing_plan_id":"cebpf4jnsgd1na2vs0mg"},{"bike_id":"db5b074a-d935-442f-b4d3-96df771d91d1","system_id":"levelo_inurba_marseille","lat":43.24808,"lon":5.37459,"is_reserved":false,"is_disabled":false,"rental_uris":{"android":"levelo://app?vid=db5b074a-d935-442f-b4d3-96df771d91d1","ios":"levelo://app?vid=db5b074a-d935-442f-b4d3-96df771d91d1"},"vehicle_type_id":"4","last_reported":1743872864,"current_range_meters":10000,"station_id":"ce4bhgh2rcd13ifvqfb0","pricing_plan_id":"cebpf4jnsgd1na2vs0mg"},{"bike_id":"42ab7ec9-7572-4019-b002-e0550bc6e62f","system_id":"levelo_inurba_marseille","lat":43.2718,"lon":5.40993,"is_reserved":false,"is_disabled":false,"rental_uris":{"android":"levelo://app?vid=42ab7ec9-7572-4019-b002-e0550bc6e62f","ios":"levelo://app?vid=42ab7ec9-7572-4019-b002-e0550bc6e62f"},"vehicle_type_id":"4","last_reported":1743872864,"current_range_meters":12000,"station_id":"ce4bhl12rcd13ifvqgf0","pricing_plan_id":"cebpf4jnsgd1na2vs0mg"},{"bike_id":"3247f4df-0565-468a-8d62-a79c4814cf8e","system_id":"levelo_inurba_marseille","lat":43.27625,"lon":5.36107,"is_reserved":false,"is_disabled":false,"rental_uris":{"android":"levelo://app?vid=3247f4df-0565-468a-8d62-a79c4814cf8e","ios":"levelo://app?vid=3247f4df-0565-468a-8d62-a79c4814cf8e"},"vehicle_type_id":"4","last_reported":1743872864,"current_range_meters":10000,"station_id":"ce4bgj92rcd13ifvqbe0","pricing_plan_id":"cebpf4jnsgd1na2vs0mg"},{"bike_id":"30b57730-cb66-4122-bd93-7dabcaba84e7","system_id":"levelo_inurba_marseille","lat":43.24924,"lon":5.40726,"is_reserved":false,"is_disabled":false,"rental_uris":{"android":"levelo://app?vid=30b57730-cb66-4122-bd93-7dabcaba84e7","ios":"levelo://app?vid=30b57730-cb66-4122-bd93-7dabcaba84e7"},"vehicle_type_id":"4","last_reported":1743872864,"current_range_meters":10000,"station_id":"","pricing_plan_id":"cebpf4jnsgd1na2vs0mg"},{"bike_id":"dead8f93-f34c-4e4f-90de-48ab8c026ca7","system_id":"levelo_inurba_marseille","lat":43.2804,"lon":5.36956,"is_reserved":false,"is_disabled":false,"rental_uris":{"android":"levelo://app?vid=dead8f93-f34c-4e4f-90de-48ab8c026ca7","ios":"levelo://app?vid=dead8f93-f34c-4e4f-90de-48ab8c026ca7"},"vehicle_type_id":"4","last_reported":1743872864,"current_range_meters":10000,"station_id":"ce4bha12rcd13ifvqef0","pricing_plan_id":"cebpf4jnsgd1na2vs0mg"},{"bike_id":"fcfb6284-7fdd-401c-af5a-24770accdd55","system_id":"levelo_inurba_marseille","lat":43.24664,"lon":5.38169,"is_reserved":false,"is_disabled":false,"rental_uris":{"android":"levelo://app?vid=fcfb6284-7fdd-401c-af5a-24770accdd55","ios":"levelo://app?vid=fcfb6284-7fdd-401c-af5a-24770accdd55"},"vehicle_type_id":"4","last_reported":1743872864,"current_range_meters":10000,"station_id":"ce4bhih2rcd13ifvqfr0","pricing_plan_id":"cebpf4jnsgd1na2vs0mg"},{"bike_id":"c596065b-46d5-4c6d-aee7-1bd7afa28924","system_id":"levelo_inurba_marseille","lat":43.28155,"lon":5.42645,"is_reserved":false,"is_disabled":false,"rental_uris":{"android":"levelo://app?vid=c596065b-46d5-4c6d-aee7-1bd7afa28924","ios":"levelo://app?vid=c596065b-46d5-4c6d-aee7-1bd7afa28924"},"vehicle_type_id":"4","last_reported":1743872864,"current_range_meters":10000,"station_id":"ce4bhnh2rcd13ifvqgug","pricing_plan_id":"cebpf4jnsgd1na2vs0mg"},{"bike_id":"db29433a-c7f6-40d6-b0e1-3a1f0abf15ab","system_id":"levelo_inurba_marseille","lat":43.241712,"lon":5.364041,"is_reserved":false,"is_disabled":true,"rental_uris":{"android":"levelo://app?vid=db29433a-c7f6-40d6-b0e1-3a1f0abf15ab","ios":"levelo://app?vid=db29433a-c7f6-40d6-b0e1-3a1f0abf15ab"},"vehicle_type_id":"4","last_reported":1743872864,"current_range_meters":10800,"station_id":"ce4bh412rcd13ifvqdr0","pricing_plan_id":"cebpf4jnsgd1na2vs0mg"},{"bike_id":"58b17406-9bc6-4a67-b002-5d6db4195932","system_id":"levelo_inurba_marseille","lat":43.26228,"lon":5.40449,"is_reserved":false,"is_disabled":false,"rental_uris":{"android":"levelo://app?vid=58b17406-9bc6-4a67-b002-5d6db4195932","ios":"levelo://app?vid=58b17406-9bc6-4a67-b002-5d6db4195932"},"vehicle_type_id":"4","last_reported":1743872864,"current_range_meters":12400,"station_id":"ce4bhmh2rcd13ifvqgmg","pricing_plan_id":"cebpf4jnsgd1na2vs0mg"},{"bike_id":"8c04198a-2755-4dcf-8ee9-98900092ba78","system_id":"levelo_inurba_marseille","lat":43.27379,"lon":5.36255,"is_reserved":false,"is_disabled":false,"rental_uris":{"android":"levelo://app?vid=8c04198a-2755-4dcf-8ee9-98900092ba78","ios":"levelo://app?vid=8c04198a-2755-4dcf-8ee9-98900092ba78"},"vehicle_type_id":"4","last_reported":1743872864,"current_range_meters":10800,"station_id":"ce4bhbh2rcd13ifvqeo0","pricing_plan_id":"cebpf4jnsgd1na2vs0mg"},{"bike_id":"f16eb2fc-c551-48a4-987f-b5820636b1d3","system_id":"levelo_inurba_marseille","lat":43.29609,"lon":5.38107,"is_reserved":false,"is_disabled":false,"rental_uris":{"android":"levelo://app?vid=f16eb2fc-c551-48a4-987f-b5820636b1d3","ios":"levelo://app?vid=f16eb2fc-c551-48a4-987f-b5820636b1d3"},"vehicle_type_id":"4","last_reported":1743872864,"current_range_meters":10800,"station_id":"ce4bgl12rcd13ifvqbo0","pricing_plan_id":"cebpf4jnsgd1na2vs0mg"},{"bike_id":"7a935817-47e2-4cb3-8324-a647fdf3a140","system_id":"levelo_inurba_marseille","lat":43.29537,"lon":5.38547,"is_reserved":false,"is_disabled":true,"rental_uris":{"android":"levelo://app?vid=7a935817-47e2-4cb3-8324-a647fdf3a140","ios":"levelo://app?vid=7a935817-47e2-4cb3-8324-a647fdf3a140"},"vehicle_type_id":"4","last_reported":1743872864,"current_range_meters":10800,"station_id":"ce4bgih2rcd13ifvqba0","pricing_plan_id":"cebpf4jnsgd1na2vs0mg"},{"bike_id":"fb7a6658-65a4-4af9-acc1-679ce624548f","system_id":"levelo_inurba_marseille","lat":43.26227,"lon":5.40464,"is_reserved":false,"is_disabled":false,"rental_uris":{"android":"levelo://app?vid=fb7a6658-65a4-4af9-acc1-679ce624548f","ios":"levelo://app?vid=fb7a6658-65a4-4af9-acc1-679ce624548f"},"vehicle_type_id":"4","last_reported":1743872864,"current_range_meters":11200,"station_id":"ce4bhmh2rcd13ifvqgmg","pricing_plan_id":"cebpf4jnsgd1na2vs0mg"},{"bike_id":"2b0fbaea-bbb7-42cb-a2fe-625d571217b5","system_id":"levelo_inurba_marseille","lat":43.25581,"lon":5.38227,"is_reserved":false,"is_disabled":false,"rental_uris":{"android":"levelo://app?vid=2b0fbaea-bbb7-42cb-a2fe-625d571217b5","ios":"levelo://app?vid=2b0fbaea-bbb7-42cb-a2fe-625d571217b5"},"vehicle_type_id":"4","last_reported":1743872864,"current_range_meters":11200,"station_id":"ce4bhih2rcd13ifvqfs0","pricing_plan_id":"cebpf4jnsgd1na2vs0mg"},{"bike_id":"1b998e2a-79cf-4439-83c1-dbcf69426e1d","system_id":"levelo_inurba_marseille","lat":43.28725,"lon":5.37936,"is_reserved":false,"is_disabled":false,"rental_uris":{"android":"levelo://app?vid=1b998e2a-79cf-4439-83c1-dbcf69426e1d","ios":"levelo://app?vid=1b998e2a-79cf-4439-83c1-dbcf69426e1d"},"vehicle_type_id":"4","last_reported":1743872864,"current_range_meters":11200,"station_id":"ce4bh9p2rcd13ifvqec0","pricing_plan_id":"cebpf4jnsgd1na2vs0mg"},{"bike_id":"9e74c90f-7b6a-4af2-a8be-0d734dfa27eb","system_id":"levelo_inurba_marseille","lat":43.28947,"lon":5.36655,"is_reserved":false,"is_disabled":false,"rental_uris":{"android":"levelo://app?vid=9e74c90f-7b6a-4af2-a8be-0d734dfa27eb","ios":"levelo://app?vid=9e74c90f-7b6a-4af2-a8be-0d734dfa27eb"},"vehicle_type_id":"4","last_reported":1743872864,"current_range_meters":11600,"station_id":"ce4bhap2rcd13ifvqek0","pricing_plan_id":"cebpf4jnsgd1na2vs0mg"},{"bike_id":"3f4f9a1d-f38d-4f71-b7ed-c417bf4df9b5","system_id":"levelo_inurba_marseille","lat":43.32291,"lon":5.38271,"is_reserved":false,"is_disabled":false,"rental_uris":{"android":"levelo://app?vid=3f4f9a1d-f38d-4f71-b7ed-c417bf4df9b5","ios":"levelo://app?vid=3f4f9a1d-f38d-4f71-b7ed-c417bf4df9b5"},"vehicle_type_id":"4","last_reported":1743872864,"current_range_meters":11600,"station_id":"ce4bhr12rcd13ifvqhqg","pricing_plan_id":"cebpf4jnsgd1na2vs0mg"},{"bike_id":"e2852d31-95ff-4e30-a3a8-ef4801645ad5","system_id":"levelo_inurba_marseille","lat":43.28621,"lon":5.35107,"is_reserved":false,"is_disabled":false,"rental_uris":{"android":"levelo://app?vid=e2852d31-95ff-4e30-a3a8-ef4801645ad5","ios":"levelo://app?vid=e2852d31-95ff-4e30-a3a8-ef4801645ad5"},"vehicle_type_id":"4","last_reported":1743872864,"current_range_meters":11600,"station_id":"ce4bhch2rcd13ifvqeug","pricing_plan_id":"cebpf4jnsgd1na2vs0mg"},{"bike_id":"6997f07c-880c-4d96-bd08-dae9ed1f69c4","system_id":"levelo_inurba_marseille","lat":43.29605,"lon":5.37729,"is_reserved":false,"is_disabled":true,"rental_uris":{"android":"levelo://app?vid=6997f07c-880c-4d96-bd08-dae9ed1f69c4","ios":"levelo://app?vid=6997f07c-880c-4d96-bd08-dae9ed1f69c4"},"vehicle_type_id":"4","last_reported":1743872864,"current_range_meters":11600,"station_id":"ce4bgi92rcd13ifvqb90","pricing_plan_id":"cebpf4jnsgd1na2vs0mg"},{"bike_id":"7d32dcf1-be61-4f93-99ef-2671ef5a40bd","system_id":"levelo_inurba_marseille","lat":43.29247,"lon":5.36491,"is_reserved":false,"is_disabled":false,"rental_uris":{"android":"levelo://app?vid=7d32dcf1-be61-4f93-99ef-2671ef5a40bd","ios":"levelo://app?vid=7d32dcf1-be61-4f93-99ef-2671ef5a40bd"},"vehicle_type_id":"4","last_reported":1743872864,"current_range_meters":11600,"station_id":"","pricing_plan_id":"cebpf4jnsgd1na2vs0mg"},{"bike_id":"7b29d7d6-0b8c-4fc6-b509-001abaa6fc3b","system_id":"levelo_inurba_marseille","lat":43.29201,"lon":5.35818,"is_reserved":false,"is_disabled":false,"rental_uris":{"android":"levelo://app?vid=7b29d7d6-0b8c-4fc6-b509-001abaa6fc3b","ios":"levelo://app?vid=7b29d7d6-0b8c-4fc6-b509-001abaa6fc3b"},"vehicle_type_id":"4","last_reported":1743872864,"current_range_meters":11600,"station_id":"ce4bhb12rcd13ifvqel0","pricing_plan_id":"cebpf4jnsgd1na2vs0mg"},{"bike_id":"3a4ddc82-3be1-4056-8cce-a5d400df90fd","system_id":"levelo_inurba_marseille","lat":43.28604,"lon":5.3512,"is_reserved":false,"is_disabled":false,"rental_uris":{"android":"levelo://app?vid=3a4ddc82-3be1-4056-8cce-a5d400df90fd","ios":"levelo://app?vid=3a4ddc82-3be1-4056-8cce-a5d400df90fd"},"vehicle_type_id":"4","last_reported":1743872864,"current_range_meters":11600,"station_id":"ce4bhch2rcd13ifvqeug","pricing_plan_id":"cebpf4jnsgd1na2vs0mg"},{"bike_id":"03e6679f-e6f4-435e-9fb8-e4b8b5b7b398","system_id":"levelo_inurba_marseille","lat":43.28982,"lon":5.37141,"is_reserved":false,"is_disabled":false,"rental_uris":{"android":"levelo://app?vid=03e6679f-e6f4-435e-9fb8-e4b8b5b7b398","ios":"levelo://app?vid=03e6679f-e6f4-435e-9fb8-e4b8b5b7b398"},"vehicle_type_id":"4","last_reported":1743872864,"current_range_meters":11600,"station_id":"","pricing_plan_id":"cebpf4jnsgd1na2vs0mg"},{"bike_id":"9b28574b-5a8f-4ca1-a2a8-7046c5dc6fa4","system_id":"levelo_inurba_marseille","lat":43.27373,"lon":5.36296,"is_reserved":false,"is_disabled":false,"rental_uris":{"android":"levelo://app?vid=9b28574b-5a8f-4ca1-a2a8-7046c5dc6fa4","ios":"levelo://app?vid=9b28574b-5a8f-4ca1-a2a8-7046c5dc6fa4"},"vehicle_type_id":"4","last_reported":1743872864,"current_range_meters":11600,"station_id":"ce4bhbh2rcd13ifvqeo0","pricing_plan_id":"cebpf4jnsgd1na2vs0mg"},{"bike_id":"9aa4ca5a-6324-43c9-a1b6-ee5ecd718ce9","system_id":"levelo_inurba_marseille","lat":43.31265,"lon":5.40162,"is_reserved":false,"is_disabled":false,"rental_uris":{"android":"levelo://app?vid=9aa4ca5a-6324-43c9-a1b6-ee5ecd718ce9","ios":"levelo://app?vid=9aa4ca5a-6324-43c9-a1b6-ee5ecd718ce9"},"vehicle_type_id":"4","last_reported":1743872864,"current_range_meters":12000,"station_id":"ce4bh092rcd13ifvqd30","pricing_plan_id":"cebpf4jnsgd1na2vs0mg"},{"bike_id":"0f3d6cb8-7efe-42ee-ab50-2a663f90e5af","system_id":"levelo_inurba_marseille","lat":43.27656,"lon":5.36144,"is_reserved":false,"is_disabled":false,"rental_uris":{"android":"levelo://app?vid=0f3d6cb8-7efe-42ee-ab50-2a663f90e5af","ios":"levelo://app?vid=0f3d6cb8-7efe-42ee-ab50-2a663f90e5af"},"vehicle_type_id":"4","last_reported":1743872864,"current_range_meters":12000,"station_id":"","pricing_plan_id":"cebpf4jnsgd1na2vs0mg"},{"bike_id":"b0412265-97a4-4d80-9f47-9c6e2e7a8414","system_id":"levelo_inurba_marseille","lat":43.26207,"lon":5.37451,"is_reserved":false,"is_disabled":false,"rental_uris":{"android":"levelo://app?vid=b0412265-97a4-4d80-9f47-9c6e2e7a8414","ios":"levelo://app?vid=b0412265-97a4-4d80-9f47-9c6e2e7a8414"},"vehicle_type_id":"4","last_reported":1743872864,"current_range_meters":0,"station_id":"ce4bhgp2rcd13ifvqfc0","pricing_plan_id":"cebpf4jnsgd1na2vs0mg"},{"bike_id":"662ffd59-5368-4e64-a996-9a85895e5ac9","system_id":"levelo_inurba_marseille","lat":43.25006,"lon":5.389207,"is_reserved":false,"is_disabled":false,"rental_uris":{"android":"levelo://app?vid=662ffd59-5368-4e64-a996-9a85895e5ac9","ios":"levelo://app?vid=662ffd59-5368-4e64-a996-9a85895e5ac9"},"vehicle_type_id":"4","last_reported":1743872864,"current_range_meters":11600,"station_id":"ce4bhgp2rcd13ifvqfd0","pricing_plan_id":"cebpf4jnsgd1na2vs0mg"},{"bike_id":"80e196b0-275f-40e3-90b0-cb208ca8b6f7","system_id":"levelo_inurba_marseille","lat":43.25724,"lon":5.41112,"is_reserved":false,"is_disabled":false,"rental_uris":{"android":"levelo://app?vid=80e196b0-275f-40e3-90b0-cb208ca8b6f7","ios":"levelo://app?vid=80e196b0-275f-40e3-90b0-cb208ca8b6f7"},"vehicle_type_id":"4","last_reported":1743872864,"current_range_meters":12400,"station_id":"ce4bhkp2rcd13ifvqgd0","pricing_plan_id":"cebpf4jnsgd1na2vs0mg"},{"bike_id":"730f249e-d9b5-4cdf-b2e5-be9a82372f6e","system_id":"levelo_inurba_marseille","lat":43.27372,"lon":5.36252,"is_reserved":false,"is_disabled":false,"rental_uris":{"android":"levelo://app?vid=730f249e-d9b5-4cdf-b2e5-be9a82372f6e","ios":"levelo://app?vid=730f249e-d9b5-4cdf-b2e5-be9a82372f6e"},"vehicle_type_id":"4","last_reported":1743872864,"current_range_meters":12400,"station_id":"ce4bhbh2rcd13ifvqeo0","pricing_plan_id":"cebpf4jnsgd1na2vs0mg"},{"bike_id":"9ff6fe59-e728-4212-8f9c-db0cc47b7e52","system_id":"levelo_inurba_marseille","lat":43.27174,"lon":5.40992,"is_reserved":false,"is_disabled":false,"rental_uris":{"android":"levelo://app?vid=9ff6fe59-e728-4212-8f9c-db0cc47b7e52","ios":"levelo://app?vid=9ff6fe59-e728-4212-8f9c-db0cc47b7e52"},"vehicle_type_id":"4","last_reported":1743872864,"current_range_meters":12400,"station_id":"ce4bhl12rcd13ifvqgf0","pricing_plan_id":"cebpf4jnsgd1na2vs0mg"},{"bike_id":"f03c74bc-2e61-414c-82bc-6197d20f68f2","system_id":"levelo_inurba_marseille","lat":43.31224,"lon":5.36869,"is_reserved":false,"is_disabled":false,"rental_uris":{"android":"levelo://app?vid=f03c74bc-2e61-414c-82bc-6197d20f68f2","ios":"levelo://app?vid=f03c74bc-2e61-414c-82bc-6197d20f68f2"},"vehicle_type_id":"4","last_reported":1743872864,"current_range_meters":12400,"station_id":"ce4bgl92rcd13ifvqbq0","pricing_plan_id":"cebpf4jnsgd1na2vs0mg"},{"bike_id":"b967cd06-4181-482c-8ae7-bc67d4d59269","system_id":"levelo_inurba_marseille","lat":43.31088,"lon":5.42442,"is_reserved":false,"is_disabled":false,"rental_uris":{"android":"levelo://app?vid=b967cd06-4181-482c-8ae7-bc67d4d59269","ios":"levelo://app?vid=b967cd06-4181-482c-8ae7-bc67d4d59269"},"vehicle_type_id":"4","last_reported":1743872864,"current_range_meters":12800,"station_id":"ce4bhp92rcd13ifvqhag","pricing_plan_id":"cebpf4jnsgd1na2vs0mg"},{"bike_id":"fab3a0a2-ba3f-4160-92d6-2af481a5e282","system_id":"levelo_inurba_marseille","lat":43.28613,"lon":5.35154,"is_reserved":false,"is_disabled":false,"rental_uris":{"android":"levelo://app?vid=fab3a0a2-ba3f-4160-92d6-2af481a5e282","ios":"levelo://app?vid=fab3a0a2-ba3f-4160-92d6-2af481a5e282"},"vehicle_type_id":"4","last_reported":1743872864,"current_range_meters":12800,"station_id":"ce4bhch2rcd13ifvqeug","pricing_plan_id":"cebpf4jnsgd1na2vs0mg"},{"bike_id":"97d77224-5748-4443-848a-6ab951c45d6d","system_id":"levelo_inurba_marseille","lat":43.32289,"lon":5.383,"is_reserved":false,"is_disabled":false,"rental_uris":{"android":"levelo://app?vid=97d77224-5748-4443-848a-6ab951c45d6d","ios":"levelo://app?vid=97d77224-5748-4443-848a-6ab951c45d6d"},"vehicle_type_id":"4","last_reported":1743872864,"current_range_meters":12800,"station_id":"ce4bhr12rcd13ifvqhqg","pricing_plan_id":"cebpf4jnsgd1na2vs0mg"},{"bike_id":"5c5f349b-f939-478c-aa52-89011ed03280","system_id":"levelo_inurba_marseille","lat":43.28444,"lon":5.39167,"is_reserved":false,"is_disabled":false,"rental_uris":{"android":"levelo://app?vid=5c5f349b-f939-478c-aa52-89011ed03280","ios":"levelo://app?vid=5c5f349b-f939-478c-aa52-89011ed03280"},"vehicle_type_id":"4","last_reported":1743872864,"current_range_meters":12800,"station_id":"ce4bhoh2rcd13ifvqh5g","pricing_plan_id":"cebpf4jnsgd1na2vs0mg"},{"bike_id":"ff1aed9a-810c-44f8-b1b2-35bd75b208c5","system_id":"levelo_inurba_marseille","lat":43.28937,"lon":5.36625,"is_reserved":false,"is_disabled":false,"rental_uris":{"android":"levelo://app?vid=ff1aed9a-810c-44f8-b1b2-35bd75b208c5","ios":"levelo://app?vid=ff1aed9a-810c-44f8-b1b2-35bd75b208c5"},"vehicle_type_id":"4","last_reported":1743872864,"current_range_meters":12800,"station_id":"ce4bhap2rcd13ifvqek0","pricing_plan_id":"cebpf4jnsgd1na2vs0mg"},{"bike_id":"7b03dc44-fde9-4d6e-bcac-447a82ab9b5d","system_id":"levelo_inurba_marseille","lat":43.28686,"lon":5.38657,"is_reserved":false,"is_disabled":false,"rental_uris":{"android":"levelo://app?vid=7b03dc44-fde9-4d6e-bcac-447a82ab9b5d","ios":"levelo://app?vid=7b03dc44-fde9-4d6e-bcac-447a82ab9b5d"},"vehicle_type_id":"4","last_reported":1743872864,"current_range_meters":12800,"station_id":"ce4bh492rcd13ifvqdug","pricing_plan_id":"cebpf4jnsgd1na2vs0mg"},{"bike_id":"7414c52f-8b5a-4d5f-a63d-394014521f10","system_id":"levelo_inurba_marseille","lat":43.24817,"lon":5.37462,"is_reserved":false,"is_disabled":false,"rental_uris":{"android":"levelo://app?vid=7414c52f-8b5a-4d5f-a63d-394014521f10","ios":"levelo://app?vid=7414c52f-8b5a-4d5f-a63d-394014521f10"},"vehicle_type_id":"4","last_reported":1743872864,"current_range_meters":12800,"station_id":"ce4bhgh2rcd13ifvqfb0","pricing_plan_id":"cebpf4jnsgd1na2vs0mg"},{"bike_id":"b54a25d0-074b-44d7-905c-c154cbce68cf","system_id":"levelo_inurba_marseille","lat":43.24388,"lon":5.37057,"is_reserved":false,"is_disabled":false,"rental_uris":{"android":"levelo://app?vid=b54a25d0-074b-44d7-905c-c154cbce68cf","ios":"levelo://app?vid=b54a25d0-074b-44d7-905c-c154cbce68cf"},"vehicle_type_id":"4","last_reported":1743872864,"current_range_meters":12400,"station_id":"ce4bhhh2rcd13ifvqfk0","pricing_plan_id":"cebpf4jnsgd1na2vs0mg"},{"bike_id":"d161b9cf-3cb7-41e7-9414-da873e665b3c","system_id":"levelo_inurba_marseille","lat":43.2587,"lon":5.399,"is_reserved":false,"is_disabled":false,"rental_uris":{"android":"levelo://app?vid=d161b9cf-3cb7-41e7-9414-da873e665b3c","ios":"levelo://app?vid=d161b9cf-3cb7-41e7-9414-da873e665b3c"},"vehicle_type_id":"4","last_reported":1743872864,"current_range_meters":13600,"station_id":"ce4bhl92rcd13ifvqghg","pricing_plan_id":"cebpf4jnsgd1na2vs0mg"},{"bike_id":"765800b3-7d59-4044-905f-f4d4f483d0ef","system_id":"levelo_inurba_marseille","lat":43.27374,"lon":5.3626,"is_reserved":false,"is_disabled":false,"rental_uris":{"android":"levelo://app?vid=765800b3-7d59-4044-905f-f4d4f483d0ef","ios":"levelo://app?vid=765800b3-7d59-4044-905f-f4d4f483d0ef"},"vehicle_type_id":"4","last_reported":1743872864,"current_range_meters":13600,"station_id":"ce4bhbh2rcd13ifvqeo0","pricing_plan_id":"cebpf4jnsgd1na2vs0mg"},{"bike_id":"73272853-088e-4b39-8e6e-94fe10fc353c","system_id":"levelo_inurba_marseille","lat":43.33758,"lon":5.37528,"is_reserved":false,"is_disabled":false,"rental_uris":{"android":"levelo://app?vid=73272853-088e-4b39-8e6e-94fe10fc353c","ios":"levelo://app?vid=73272853-088e-4b39-8e6e-94fe10fc353c"},"vehicle_type_id":"4","last_reported":1743872864,"current_range_meters":13600,"station_id":"","pricing_plan_id":"cebpf4jnsgd1na2vs0mg"},{"bike_id":"47b07b93-ccac-488a-af36-f7491c69152c","system_id":"levelo_inurba_marseille","lat":43.28614,"lon":5.35105,"is_reserved":false,"is_disabled":false,"rental_uris":{"android":"levelo://app?vid=47b07b93-ccac-488a-af36-f7491c69152c","ios":"levelo://app?vid=47b07b93-ccac-488a-af36-f7491c69152c"},"vehicle_type_id":"4","last_reported":1743872864,"current_range_meters":14000,"station_id":"ce4bhch2rcd13ifvqeug","pricing_plan_id":"cebpf4jnsgd1na2vs0mg"},{"bike_id":"7ea77597-aa94-4d6e-bfba-017ddbe44b4f","system_id":"levelo_inurba_marseille","lat":43.28618,"lon":5.35098,"is_reserved":false,"is_disabled":false,"rental_uris":{"android":"levelo://app?vid=7ea77597-aa94-4d6e-bfba-017ddbe44b4f","ios":"levelo://app?vid=7ea77597-aa94-4d6e-bfba-017ddbe44b4f"},"vehicle_type_id":"4","last_reported":1743872864,"current_range_meters":14000,"station_id":"ce4bhch2rcd13ifvqeug","pricing_plan_id":"cebpf4jnsgd1na2vs0mg"},{"bike_id":"b485d751-da50-4d09-832a-6418121fee5e","system_id":"levelo_inurba_marseille","lat":43.33025,"lon":5.39046,"is_reserved":false,"is_disabled":false,"rental_uris":{"android":"levelo://app?vid=b485d751-da50-4d09-832a-6418121fee5e","ios":"levelo://app?vid=b485d751-da50-4d09-832a-6418121fee5e"},"vehicle_type_id":"4","last_reported":1743872864,"current_range_meters":13600,"station_id":"ce4bhr92rcd13ifvqhrg","pricing_plan_id":"cebpf4jnsgd1na2vs0mg"},{"bike_id":"b01f2b6c-7fe9-48f0-afe1-7f525943b944","system_id":"levelo_inurba_marseille","lat":43.26198,"lon":5.37931,"is_reserved":false,"is_disabled":false,"rental_uris":{"android":"levelo://app?vid=b01f2b6c-7fe9-48f0-afe1-7f525943b944","ios":"levelo://app?vid=b01f2b6c-7fe9-48f0-afe1-7f525943b944"},"vehicle_type_id":"4","last_reported":1743872864,"current_range_meters":14000,"station_id":"ce4bhjp2rcd13ifvqg90","pricing_plan_id":"cebpf4jnsgd1na2vs0mg"},{"bike_id":"6edb76e6-ce4b-4615-8cfa-39963ec48957","system_id":"levelo_inurba_marseille","lat":43.30312,"lon":5.392,"is_reserved":false,"is_disabled":false,"rental_uris":{"android":"levelo://app?vid=6edb76e6-ce4b-4615-8cfa-39963ec48957","ios":"levelo://app?vid=6edb76e6-ce4b-4615-8cfa-39963ec48957"},"vehicle_type_id":"4","last_reported":1743872864,"current_range_meters":14000,"station_id":"ce4bgkh2rcd13ifvqbk0","pricing_plan_id":"cebpf4jnsgd1na2vs0mg"},{"bike_id":"0ca1e25e-5bb6-4819-a153-992a47535a39","system_id":"levelo_inurba_marseille","lat":43.25113,"lon":5.40321,"is_reserved":false,"is_disabled":false,"rental_uris":{"android":"levelo://app?vid=0ca1e25e-5bb6-4819-a153-992a47535a39","ios":"levelo://app?vid=0ca1e25e-5bb6-4819-a153-992a47535a39"},"vehicle_type_id":"4","last_reported":1743872864,"current_range_meters":14000,"station_id":"ce4bhlh2rcd13ifvqgig","pricing_plan_id":"cebpf4jnsgd1na2vs0mg"},{"bike_id":"c50edd2b-88dd-434e-b794-36692e2c1f27","system_id":"levelo_inurba_marseille","lat":43.284188,"lon":5.349819,"is_reserved":false,"is_disabled":false,"rental_uris":{"android":"levelo://app?vid=c50edd2b-88dd-434e-b794-36692e2c1f27","ios":"levelo://app?vid=c50edd2b-88dd-434e-b794-36692e2c1f27"},"vehicle_type_id":"4","last_reported":1743872864,"current_range_meters":14000,"station_id":"ce4bhbh2rcd13ifvqepg","pricing_plan_id":"cebpf4jnsgd1na2vs0mg"},{"bike_id":"0045a748-8b3d-4103-bebc-a315a37563fd","system_id":"levelo_inurba_marseille","lat":43.2908,"lon":5.37153,"is_reserved":false,"is_disabled":false,"rental_uris":{"android":"levelo://app?vid=0045a748-8b3d-4103-bebc-a315a37563fd","ios":"levelo://app?vid=0045a748-8b3d-4103-bebc-a315a37563fd"},"vehicle_type_id":"4","last_reported":1743872864,"current_range_meters":14800,"station_id":"ce4bh5p2rcd13ifvqe4g","pricing_plan_id":"cebpf4jnsgd1na2vs0mg"},{"bike_id":"e02a961d-2935-4e1b-aecb-f85264f5e02e","system_id":"levelo_inurba_marseille","lat":43.28153,"lon":5.42669,"is_reserved":false,"is_disabled":false,"rental_uris":{"android":"levelo://app?vid=e02a961d-2935-4e1b-aecb-f85264f5e02e","ios":"levelo://app?vid=e02a961d-2935-4e1b-aecb-f85264f5e02e"},"vehicle_type_id":"4","last_reported":1743872864,"current_range_meters":14000,"station_id":"ce4bhnh2rcd13ifvqgug","pricing_plan_id":"cebpf4jnsgd1na2vs0mg"},{"bike_id":"6023584e-870f-454d-88b0-bf3dc0e21fbe","system_id":"levelo_inurba_marseille","lat":43.24391,"lon":5.37063,"is_reserved":false,"is_disabled":true,"rental_uris":{"android":"levelo://app?vid=6023584e-870f-454d-88b0-bf3dc0e21fbe","ios":"levelo://app?vid=6023584e-870f-454d-88b0-bf3dc0e21fbe"},"vehicle_type_id":"4","last_reported":1743872864,"current_range_meters":14000,"station_id":"ce4bhhh2rcd13ifvqfk0","pricing_plan_id":"cebpf4jnsgd1na2vs0mg"},{"bike_id":"912d888b-1cfa-432b-9972-70b2dd68197c","system_id":"levelo_inurba_marseille","lat":43.23961,"lon":5.36637,"is_reserved":false,"is_disabled":false,"rental_uris":{"android":"levelo://app?vid=912d888b-1cfa-432b-9972-70b2dd68197c","ios":"levelo://app?vid=912d888b-1cfa-432b-9972-70b2dd68197c"},"vehicle_type_id":"4","last_reported":1743872864,"current_range_meters":14000,"station_id":"ce4bhi12rcd13ifvqfp0","pricing_plan_id":"cebpf4jnsgd1na2vs0mg"},{"bike_id":"d8b4f1e7-2026-41c2-80a4-fee5ef280305","system_id":"levelo_inurba_marseille","lat":43.30806,"lon":5.43518,"is_reserved":false,"is_disabled":false,"rental_uris":{"android":"levelo://app?vid=d8b4f1e7-2026-41c2-80a4-fee5ef280305","ios":"levelo://app?vid=d8b4f1e7-2026-41c2-80a4-fee5ef280305"},"vehicle_type_id":"4","last_reported":1743872864,"current_range_meters":14400,"station_id":"ce4bhph2rcd13ifvqheg","pricing_plan_id":"cebpf4jnsgd1na2vs0mg"},{"bike_id":"6082a6d8-29f3-4441-bd82-d0f95ead75d7","system_id":"levelo_inurba_marseille","lat":43.23184,"lon":5.35553,"is_reserved":false,"is_disabled":false,"rental_uris":{"android":"levelo://app?vid=6082a6d8-29f3-4441-bd82-d0f95ead75d7","ios":"levelo://app?vid=6082a6d8-29f3-4441-bd82-d0f95ead75d7"},"vehicle_type_id":"4","last_reported":1743872864,"current_range_meters":14400,"station_id":"ce4bhu92rcd13ifvqi70","pricing_plan_id":"cebpf4jnsgd1na2vs0mg"},{"bike_id":"9a05abc0-2320-4ac0-beb8-bb75e474a689","system_id":"levelo_inurba_marseille","lat":43.27428,"lon":5.3941,"is_reserved":false,"is_disabled":false,"rental_uris":{"android":"levelo://app?vid=9a05abc0-2320-4ac0-beb8-bb75e474a689","ios":"levelo://app?vid=9a05abc0-2320-4ac0-beb8-bb75e474a689"},"vehicle_type_id":"4","last_reported":1743872864,"current_range_meters":14400,"station_id":"ce4bhdp2rcd13ifvqf20","pricing_plan_id":"cebpf4jnsgd1na2vs0mg"},{"bike_id":"c6813ed1-ee70-43ab-be80-249753dea5f2","system_id":"levelo_inurba_marseille","lat":43.24666,"lon":5.38171,"is_reserved":false,"is_disabled":false,"rental_uris":{"android":"levelo://app?vid=c6813ed1-ee70-43ab-be80-249753dea5f2","ios":"levelo://app?vid=c6813ed1-ee70-43ab-be80-249753dea5f2"},"vehicle_type_id":"4","last_reported":1743872864,"current_range_meters":14000,"station_id":"ce4bhih2rcd13ifvqfr0","pricing_plan_id":"cebpf4jnsgd1na2vs0mg"},{"bike_id":"4e665b33-6a6b-465d-8bd2-80e5a714fa7e","system_id":"levelo_inurba_marseille","lat":43.24795,"lon":5.37459,"is_reserved":false,"is_disabled":false,"rental_uris":{"android":"levelo://app?vid=4e665b33-6a6b-465d-8bd2-80e5a714fa7e","ios":"levelo://app?vid=4e665b33-6a6b-465d-8bd2-80e5a714fa7e"},"vehicle_type_id":"4","last_reported":1743872864,"current_range_meters":14800,"station_id":"ce4bhgh2rcd13ifvqfb0","pricing_plan_id":"cebpf4jnsgd1na2vs0mg"},{"bike_id":"87908f94-d8aa-4a33-8565-205213af20b1","system_id":"levelo_inurba_marseille","lat":43.32114,"lon":5.36799,"is_reserved":false,"is_disabled":false,"rental_uris":{"android":"levelo://app?vid=87908f94-d8aa-4a33-8565-205213af20b1","ios":"levelo://app?vid=87908f94-d8aa-4a33-8565-205213af20b1"},"vehicle_type_id":"4","last_reported":1743872864,"current_range_meters":14800,"station_id":"ce4bhrh2rcd13ifvqhug","pricing_plan_id":"cebpf4jnsgd1na2vs0mg"},{"bike_id":"5083760f-7d2a-470e-987f-0f6d72914d22","system_id":"levelo_inurba_marseille","lat":43.27072,"lon":5.42279,"is_reserved":false,"is_disabled":false,"rental_uris":{"android":"levelo://app?vid=5083760f-7d2a-470e-987f-0f6d72914d22","ios":"levelo://app?vid=5083760f-7d2a-470e-987f-0f6d72914d22"},"vehicle_type_id":"4","last_reported":1743872864,"current_range_meters":14800,"station_id":"ce4bhk92rcd13ifvqgb0","pricing_plan_id":"cebpf4jnsgd1na2vs0mg"},{"bike_id":"c1b50e89-53cf-4e3f-8bb9-965b51be5b9e","system_id":"levelo_inurba_marseille","lat":43.28401,"lon":5.37513,"is_reserved":false,"is_disabled":false,"rental_uris":{"android":"levelo://app?vid=c1b50e89-53cf-4e3f-8bb9-965b51be5b9e","ios":"levelo://app?vid=c1b50e89-53cf-4e3f-8bb9-965b51be5b9e"},"vehicle_type_id":"4","last_reported":1743872864,"current_range_meters":14800,"station_id":"ce4bh412rcd13ifvqds0","pricing_plan_id":"cebpf4jnsgd1na2vs0mg"},{"bike_id":"a58762d2-8fa4-4da1-bcbc-5508ad8b82e7","system_id":"levelo_inurba_marseille","lat":43.286126,"lon":5.351043,"is_reserved":false,"is_disabled":false,"rental_uris":{"android":"levelo://app?vid=a58762d2-8fa4-4da1-bcbc-5508ad8b82e7","ios":"levelo://app?vid=a58762d2-8fa4-4da1-bcbc-5508ad8b82e7"},"vehicle_type_id":"4","last_reported":1743872864,"current_range_meters":14800,"station_id":"ce4bh2h2rcd13ifvqdh0","pricing_plan_id":"cebpf4jnsgd1na2vs0mg"},{"bike_id":"02a2ebe5-01b3-478b-ab16-31d1a26f4bfa","system_id":"levelo_inurba_marseille","lat":43.23964,"lon":5.36629,"is_reserved":false,"is_disabled":false,"rental_uris":{"android":"levelo://app?vid=02a2ebe5-01b3-478b-ab16-31d1a26f4bfa","ios":"levelo://app?vid=02a2ebe5-01b3-478b-ab16-31d1a26f4bfa"},"vehicle_type_id":"4","last_reported":1743872864,"current_range_meters":14800,"station_id":"ce4bhi12rcd13ifvqfp0","pricing_plan_id":"cebpf4jnsgd1na2vs0mg"},{"bike_id":"ed235a88-d1c3-450b-8efd-bed62d8a2784","system_id":"levelo_inurba_marseille","lat":43.29072,"lon":5.37164,"is_reserved":false,"is_disabled":false,"rental_uris":{"android":"levelo://app?vid=ed235a88-d1c3-450b-8efd-bed62d8a2784","ios":"levelo://app?vid=ed235a88-d1c3-450b-8efd-bed62d8a2784"},"vehicle_type_id":"4","last_reported":1743872864,"current_range_meters":15200,"station_id":"ce4bh5p2rcd13ifvqe4g","pricing_plan_id":"cebpf4jnsgd1na2vs0mg"},{"bike_id":"540195b7-a2ca-42b1-9931-1c7d12f5d705","system_id":"levelo_inurba_marseille","lat":43.29547,"lon":5.37497,"is_reserved":false,"is_disabled":false,"rental_uris":{"android":"levelo://app?vid=540195b7-a2ca-42b1-9931-1c7d12f5d705","ios":"levelo://app?vid=540195b7-a2ca-42b1-9931-1c7d12f5d705"},"vehicle_type_id":"4","last_reported":1743872864,"current_range_meters":15200,"station_id":"ce4bgkp2rcd13ifvqbmg","pricing_plan_id":"cebpf4jnsgd1na2vs0mg"},{"bike_id":"f24a394a-266f-4198-804d-8e0e669141cd","system_id":"levelo_inurba_marseille","lat":43.232048,"lon":5.355494,"is_reserved":false,"is_disabled":false,"rental_uris":{"android":"levelo://app?vid=f24a394a-266f-4198-804d-8e0e669141cd","ios":"levelo://app?vid=f24a394a-266f-4198-804d-8e0e669141cd"},"vehicle_type_id":"4","last_reported":1743872864,"current_range_meters":14800,"station_id":"ce4bhu92rcd13ifvqi70","pricing_plan_id":"cebpf4jnsgd1na2vs0mg"},{"bike_id":"ceba594e-ff69-4140-828e-f8a961103e51","system_id":"levelo_inurba_marseille","lat":43.2418,"lon":5.36408,"is_reserved":false,"is_disabled":false,"rental_uris":{"android":"levelo://app?vid=ceba594e-ff69-4140-828e-f8a961103e51","ios":"levelo://app?vid=ceba594e-ff69-4140-828e-f8a961103e51"},"vehicle_type_id":"4","last_reported":1743872864,"current_range_meters":15200,"station_id":"cpo36qri1sfpv3e86is0","pricing_plan_id":"cebpf4jnsgd1na2vs0mg"},{"bike_id":"22e9cead-a32d-4268-9309-aa7d1a796aac","system_id":"levelo_inurba_marseille","lat":43.29614,"lon":5.38108,"is_reserved":false,"is_disabled":false,"rental_uris":{"android":"levelo://app?vid=22e9cead-a32d-4268-9309-aa7d1a796aac","ios":"levelo://app?vid=22e9cead-a32d-4268-9309-aa7d1a796aac"},"vehicle_type_id":"4","last_reported":1743872864,"current_range_meters":15200,"station_id":"ce4bgl12rcd13ifvqbo0","pricing_plan_id":"cebpf4jnsgd1na2vs0mg"},{"bike_id":"b56277a1-0ed1-471c-bec4-d75f6ed36eb4","system_id":"levelo_inurba_marseille","lat":43.27374,"lon":5.36261,"is_reserved":false,"is_disabled":false,"rental_uris":{"android":"levelo://app?vid=b56277a1-0ed1-471c-bec4-d75f6ed36eb4","ios":"levelo://app?vid=b56277a1-0ed1-471c-bec4-d75f6ed36eb4"},"vehicle_type_id":"4","last_reported":1743872864,"current_range_meters":15200,"station_id":"ce4bhbh2rcd13ifvqeo0","pricing_plan_id":"cebpf4jnsgd1na2vs0mg"},{"bike_id":"59b043b3-f678-4889-b9ff-d450b9ae810c","system_id":"levelo_inurba_marseille","lat":43.30314,"lon":5.39221,"is_reserved":false,"is_disabled":false,"rental_uris":{"android":"levelo://app?vid=59b043b3-f678-4889-b9ff-d450b9ae810c","ios":"levelo://app?vid=59b043b3-f678-4889-b9ff-d450b9ae810c"},"vehicle_type_id":"4","last_reported":1743872864,"current_range_meters":15200,"station_id":"ce4bgkh2rcd13ifvqbk0","pricing_plan_id":"cebpf4jnsgd1na2vs0mg"},{"bike_id":"d553dd87-8cd1-4b81-808e-8aeb82a0fa0c","system_id":"levelo_inurba_marseille","lat":43.28051,"lon":5.3694,"is_reserved":false,"is_disabled":true,"rental_uris":{"android":"levelo://app?vid=d553dd87-8cd1-4b81-808e-8aeb82a0fa0c","ios":"levelo://app?vid=d553dd87-8cd1-4b81-808e-8aeb82a0fa0c"},"vehicle_type_id":"4","last_reported":1743872864,"current_range_meters":15200,"station_id":"ce4bha12rcd13ifvqef0","pricing_plan_id":"cebpf4jnsgd1na2vs0mg"},{"bike_id":"5420e474-5232-43f0-bd62-51e2359e3157","system_id":"levelo_inurba_marseille","lat":43.313492,"lon":5.370193,"is_reserved":false,"is_disabled":false,"rental_uris":{"android":"levelo://app?vid=5420e474-5232-43f0-bd62-51e2359e3157","ios":"levelo://app?vid=5420e474-5232-43f0-bd62-51e2359e3157"},"vehicle_type_id":"4","last_reported":1743872864,"current_range_meters":16000,"station_id":"","pricing_plan_id":"cebpf4jnsgd1na2vs0mg"},{"bike_id":"c3ce9e0a-b185-4eff-8463-efedcb0d5d00","system_id":"levelo_inurba_marseille","lat":43.30214,"lon":5.39484,"is_reserved":false,"is_disabled":false,"rental_uris":{"android":"levelo://app?vid=c3ce9e0a-b185-4eff-8463-efedcb0d5d00","ios":"levelo://app?vid=c3ce9e0a-b185-4eff-8463-efedcb0d5d00"},"vehicle_type_id":"4","last_reported":1743872864,"current_range_meters":16000,"station_id":"ce4bh0p2rcd13ifvqd70","pricing_plan_id":"cebpf4jnsgd1na2vs0mg"},{"bike_id":"84b8e111-4467-4f57-b6f7-41adfeccf68b","system_id":"levelo_inurba_marseille","lat":43.23077,"lon":5.35527,"is_reserved":false,"is_disabled":false,"rental_uris":{"android":"levelo://app?vid=84b8e111-4467-4f57-b6f7-41adfeccf68b","ios":"levelo://app?vid=84b8e111-4467-4f57-b6f7-41adfeccf68b"},"vehicle_type_id":"4","last_reported":1743872864,"current_range_meters":16000,"station_id":"cpo3342slgdg3j2ifvpg","pricing_plan_id":"cebpf4jnsgd1na2vs0mg"},{"bike_id":"c3e6d442-6282-4c88-9f90-93d85aff9e76","system_id":"levelo_inurba_marseille","lat":43.28182,"lon":5.42631,"is_reserved":false,"is_disabled":false,"rental_uris":{"android":"levelo://app?vid=c3e6d442-6282-4c88-9f90-93d85aff9e76","ios":"levelo://app?vid=c3e6d442-6282-4c88-9f90-93d85aff9e76"},"vehicle_type_id":"4","last_reported":1743872864,"current_range_meters":16000,"station_id":"ce4bhnh2rcd13ifvqgug","pricing_plan_id":"cebpf4jnsgd1na2vs0mg"},{"bike_id":"7fd0635d-68ad-4ce6-a52b-daef56987b4b","system_id":"levelo_inurba_marseille","lat":43.30919,"lon":5.38618,"is_reserved":false,"is_disabled":false,"rental_uris":{"android":"levelo://app?vid=7fd0635d-68ad-4ce6-a52b-daef56987b4b","ios":"levelo://app?vid=7fd0635d-68ad-4ce6-a52b-daef56987b4b"},"vehicle_type_id":"4","last_reported":1743872864,"current_range_meters":16000,"station_id":"","pricing_plan_id":"cebpf4jnsgd1na2vs0mg"},{"bike_id":"a95ec5eb-3065-4811-a177-9a9036b39c9a","system_id":"levelo_inurba_marseille","lat":43.288543,"lon":5.358435,"is_reserved":false,"is_disabled":false,"rental_uris":{"android":"levelo://app?vid=a95ec5eb-3065-4811-a177-9a9036b39c9a","ios":"levelo://app?vid=a95ec5eb-3065-4811-a177-9a9036b39c9a"},"vehicle_type_id":"4","last_reported":1743872864,"current_range_meters":16000,"station_id":"ce4bhb12rcd13ifvqem0","pricing_plan_id":"cebpf4jnsgd1na2vs0mg"},{"bike_id":"136b6e45-ee21-453e-aa22-e07947db9071","system_id":"levelo_inurba_marseille","lat":43.23154,"lon":5.43695,"is_reserved":false,"is_disabled":true,"rental_uris":{"android":"levelo://app?vid=136b6e45-ee21-453e-aa22-e07947db9071","ios":"levelo://app?vid=136b6e45-ee21-453e-aa22-e07947db9071"},"vehicle_type_id":"4","last_reported":1743872864,"current_range_meters":16000,"station_id":"ce4bhmp2rcd13ifvqgog","pricing_plan_id":"cebpf4jnsgd1na2vs0mg"},{"bike_id":"2493d3d2-2fa9-461b-bd4a-12f2d6d15d11","system_id":"levelo_inurba_marseille","lat":43.30599,"lon":5.39367,"is_reserved":false,"is_disabled":false,"rental_uris":{"android":"levelo://app?vid=2493d3d2-2fa9-461b-bd4a-12f2d6d15d11","ios":"levelo://app?vid=2493d3d2-2fa9-461b-bd4a-12f2d6d15d11"},"vehicle_type_id":"4","last_reported":1743872864,"current_range_meters":16400,"station_id":"ce4bh0p2rcd13ifvqd80","pricing_plan_id":"cebpf4jnsgd1na2vs0mg"},{"bike_id":"10fcb9cb-a965-4411-83a1-0928f28b7034","system_id":"levelo_inurba_marseille","lat":43.299372,"lon":5.365539,"is_reserved":false,"is_disabled":false,"rental_uris":{"android":"levelo://app?vid=10fcb9cb-a965-4411-83a1-0928f28b7034","ios":"levelo://app?vid=10fcb9cb-a965-4411-83a1-0928f28b7034"},"vehicle_type_id":"4","last_reported":1743872864,"current_range_meters":16400,"station_id":"ce4bh412rcd13ifvqds0","pricing_plan_id":"cebpf4jnsgd1na2vs0mg"},{"bike_id":"f5290d19-f9a4-43ad-a49e-f4af7634048e","system_id":"levelo_inurba_marseille","lat":43.28629,"lon":5.35087,"is_reserved":false,"is_disabled":false,"rental_uris":{"android":"levelo://app?vid=f5290d19-f9a4-43ad-a49e-f4af7634048e","ios":"levelo://app?vid=f5290d19-f9a4-43ad-a49e-f4af7634048e"},"vehicle_type_id":"4","last_reported":1743872864,"current_range_meters":16400,"station_id":"ce4bhch2rcd13ifvqeug","pricing_plan_id":"cebpf4jnsgd1na2vs0mg"},{"bike_id":"d060bd77-0ba5-46dc-815c-862819ffc241","system_id":"levelo_inurba_marseille","lat":43.3171,"lon":5.37745,"is_reserved":false,"is_disabled":false,"rental_uris":{"android":"levelo://app?vid=d060bd77-0ba5-46dc-815c-862819ffc241","ios":"levelo://app?vid=d060bd77-0ba5-46dc-815c-862819ffc241"},"vehicle_type_id":"4","last_reported":1743872864,"current_range_meters":16400,"station_id":"ce4bgth2rcd13ifvqch0","pricing_plan_id":"cebpf4jnsgd1na2vs0mg"},{"bike_id":"d51112fa-996a-447a-87e3-4eece5afdf1c","system_id":"levelo_inurba_marseille","lat":43.27177,"lon":5.40989,"is_reserved":false,"is_disabled":false,"rental_uris":{"android":"levelo://app?vid=d51112fa-996a-447a-87e3-4eece5afdf1c","ios":"levelo://app?vid=d51112fa-996a-447a-87e3-4eece5afdf1c"},"vehicle_type_id":"4","last_reported":1743872864,"current_range_meters":16400,"station_id":"ce4bhl12rcd13ifvqgf0","pricing_plan_id":"cebpf4jnsgd1na2vs0mg"},{"bike_id":"f2a4a726-900d-43d4-8328-76c9d2f6012d","system_id":"levelo_inurba_marseille","lat":43.29017,"lon":5.35633,"is_reserved":false,"is_disabled":true,"rental_uris":{"android":"levelo://app?vid=f2a4a726-900d-43d4-8328-76c9d2f6012d","ios":"levelo://app?vid=f2a4a726-900d-43d4-8328-76c9d2f6012d"},"vehicle_type_id":"4","last_reported":1743872864,"current_range_meters":16400,"station_id":"ce4bhb92rcd13ifvqen0","pricing_plan_id":"cebpf4jnsgd1na2vs0mg"},{"bike_id":"a409c3f0-8991-4228-afb5-57b19bb06658","system_id":"levelo_inurba_marseille","lat":43.32401,"lon":5.38997,"is_reserved":false,"is_disabled":false,"rental_uris":{"android":"levelo://app?vid=a409c3f0-8991-4228-afb5-57b19bb06658","ios":"levelo://app?vid=a409c3f0-8991-4228-afb5-57b19bb06658"},"vehicle_type_id":"4","last_reported":1743872864,"current_range_meters":16800,"station_id":"","pricing_plan_id":"cebpf4jnsgd1na2vs0mg"},{"bike_id":"fea27f28-ba10-4c5d-b02e-cb536c0cf527","system_id":"levelo_inurba_marseille","lat":43.28582,"lon":5.35175,"is_reserved":false,"is_disabled":false,"rental_uris":{"android":"levelo://app?vid=fea27f28-ba10-4c5d-b02e-cb536c0cf527","ios":"levelo://app?vid=fea27f28-ba10-4c5d-b02e-cb536c0cf527"},"vehicle_type_id":"4","last_reported":1743872864,"current_range_meters":16800,"station_id":"","pricing_plan_id":"cebpf4jnsgd1na2vs0mg"},{"bike_id":"d7f62e3c-4e4c-46cb-b79b-f308d26c23b7","system_id":"levelo_inurba_marseille","lat":43.31727,"lon":5.42397,"is_reserved":false,"is_disabled":false,"rental_uris":{"android":"levelo://app?vid=d7f62e3c-4e4c-46cb-b79b-f308d26c23b7","ios":"levelo://app?vid=d7f62e3c-4e4c-46cb-b79b-f308d26c23b7"},