{"last_updated":1758784243,"ttl":60,"version":"2.2","data":{"bikes":[{"bike_id":"d3dd4735-79f9-4dc6-82a8-e2f76cdbba74","system_id":"levelo_inurba_marseille","lat":43.31208,"lon":5.3685,"is_reserved":false,"is_disabled":false,"rental_uris":{"android":"levelo://app?vid=d3dd4735-79f9-4dc6-82a8-e2f76cdbba74","ios":"levelo://app?vid=d3dd4735-79f9-4dc6-82a8-e2f76cdbba74"},"vehicle_type_id":"4","last_reported":1758784243,"current_range_meters":2800,"station_id":"ce4bgl92rcd13ifvqbq0","pricing_plan_id":"cebpf4jnsgd1na2vs0mg"},{"bike_id":"d2cd1382-05b4-48c4-ac83-122c76a6437d","system_id":"levelo_inurba_marseille","lat":43.30144,"lon":5.37427,"is_reserved":false,"is_disabled":false,"rental_uris":{"android":"levelo://app?vid=d2cd1382-05b4-48c4-ac83-122c76a6437d","ios":"levelo://app?vid=d2cd1382-05b4-48c4-ac83-122c76a6437d"},"vehicle_type_id":"4","last_reported":1758784243,"current_range_meters":2800,"station_id":"ce4bgs92rcd13ifvqcc0","pricing_plan_id":"cebpf4jnsgd1na2vs0mg"},{"bike_id":"22e84bf7-c20b-4fc0-a056-04e7da4e5e0e","system_id":"levelo_inurba_marseille","lat":43.28722,"lon":5.37943,"is_reserved":false,"is_disabled":false,"rental_uris":{"android":"levelo://app?vid=22e84bf7-c20b-4fc0-a056-04e7da4e5e0e","ios":"levelo://app?vid=22e84bf7-c20b-4fc0-a056-04e7da4e5e0e"},"vehicle_type_id":"4","last_reported":1758784243,"current_range_meters":2000,"station_id":"ce4bh9p2rcd13ifvqec0","pricing_plan_id":"cebpf4jnsgd1na2vs0mg"},{"bike_id":"e7979630-b2b5-428b-85a0-a6174c949731","system_id":"levelo_inurba_marseille","lat":43.25725,"lon":5.4111,"is_reserved":false,"is_disabled":false,"rental_uris":{"android":"levelo://app?vid=e7979630-b2b5-428b-85a0-a6174c949731","ios":"levelo://app?vid=e7979630-b2b5-428b-85a0-a6174c949731"},"vehicle_type_id":"4","last_reported":1758784243,"current_range_meters":2800,"station_id":"ce4bhkp2rcd13ifvqgd0","pricing_plan_id":"cebpf4jnsgd1na2vs0mg"},{"bike_id":"30dda90e-6c8c-4b1d-b534-6663cba9479e","system_id":"levelo_inurba_marseille","lat":43.24083,"lon":5.37753,"is_reserved":false,"is_disabled":false,"rental_uris":{"android":"levelo://app?vid=30dda90e-6c8c-4b1d-b534-6663cba9479e","ios":"levelo://app?vid=30dda90e-6c8c-4b1d-b534-6663cba9479e"},"vehicle_type_id":"4","last_reported":1758784243,"current_range_meters":2800,"station_id":"ce4bhnp2rcd13ifvqgvg","pricing_plan_id":"cebpf4jnsgd1na2vs0mg"},{"bike_id":"77e1743a-0134-4350-9610-0500c2df2190","system_id":"levelo_inurba_marseille","lat":43.30266,"lon":5.37721,"is_reserved":false,"is_disabled":false,"rental_uris":{"android":"levelo://app?vid=77e1743a-0134-4350-9610-0500c2df2190","ios":"levelo://app?vid=77e1743a-0134-4350-9610-0500c2df2190"},"vehicle_type_id":"4","last_reported":1758784243,"current_range_meters":3200,"station_id":"ce4bguh2rcd13ifvqcj0","pricing_plan_id":"cebpf4jnsgd1na2vs0mg"},{"bike_id":"6bd9fd41-42e6-40eb-80d6-6cb44b9adc78","system_id":"levelo_inurba_marseille","lat":43.31349,"lon":5.36715,"is_reserved":false,"is_disabled":false,"rental_uris":{"android":"levelo://app?vid=6bd9fd41-42e6-40eb-80d6-6cb44b9adc78","ios":"levelo://app?vid=6bd9fd41-42e6-40eb-80d6-6cb44b9adc78"},"vehicle_type_id":"4","last_reported":1758784243,"current_range_meters":3200,"station_id":"ce4bgr92rcd13ifvqc6g","pricing_plan_id":"cebpf4jnsgd1na2vs0mg"},{"bike_id":"0d62ee39-a014-4477-98b0-3a63d0d80ac2","system_id":"levelo_inurba_marseille","lat":43.3361,"lon":5.41019,"is_reserved":false,"is_disabled":false,"rental_uris":{"android":"levelo://app?vid=0d62ee39-a014-4477-98b0-3a63d0d80ac2","ios":"levelo://app?vid=0d62ee39-a014-4477-98b0-3a63d0d80ac2"},"vehicle_type_id":"4","last_reported":1758784243,"current_range_meters":3200,"station_id":"ce4bhqh2rcd13ifvqhmg","pricing_plan_id":"cebpf4jnsgd1na2vs0mg"},{"bike_id":"a7a8fda1-fb28-4ce7-b8c1-94f454135a15","system_id":"levelo_inurba_marseille","lat":43.23963,"lon":5.36629,"is_reserved":false,"is_disabled":false,"rental_uris":{"android":"levelo://app?vid=a7a8fda1-fb28-4ce7-b8c1-94f454135a15","ios":"levelo://app?vid=a7a8fda1-fb28-4ce7-b8c1-94f454135a15"},"vehicle_type_id":"4","last_reported":1758784243,"current_range_meters":2800,"station_id":"ce4bhi12rcd13ifvqfp0","pricing_plan_id":"cebpf4jnsgd1na2vs0mg"},{"bike_id":"ed651e5f-9231-4895-a7fa-a94da9e407ff","system_id":"levelo_inurba_marseille","lat":43.31367,"lon":5.36763,"is_reserved":false,"is_disabled":false,"rental_uris":{"android":"levelo://app?vid=ed651e5f-9231-4895-a7fa-a94da9e407ff","ios":"levelo://app?vid=ed651e5f-9231-4895-a7fa-a94da9e407ff"},"vehicle_type_id":"4","last_reported":1758784243,"current_range_meters":3200,"station_id":"ce4bgr92rcd13ifvqc6g","pricing_plan_id":"cebpf4jnsgd1na2vs0mg"},{"bike_id":"d6129cbe-76e8-4dad-a66d-2cf8b11cf745","system_id":"levelo_inurba_marseille","lat":43.30496,"lon":5.37873,"is_reserved":false,"is_disabled":false,"rental_uris":{"android":"levelo://app?vid=d6129cbe-76e8-4dad-a66d-2cf8b11cf745","ios":"levelo://app?vid=d6129cbe-76e8-4dad-a66d-2cf8b11cf745"},"vehicle_type_id":"4","last_reported":1758784243,"current_range_meters":3200,"station_id":"","pricing_plan_id":"cebpf4jnsgd1na2vs0mg"},{"bike_id":"08f79d89-a442-461f-92a5-dea9cb0b0897","system_id":"levelo_inurba_marseille","lat":43.300855,"lon":5.379992,"is_reserved":false,"is_disabled":false,"rental_uris":{"android":"levelo://app?vid=08f79d89-a442-461f-92a5-dea9cb0b0897","ios":"levelo://app?vid=08f79d89-a442-461f-92a5-dea9cb0b0897"},"vehicle_type_id":"4","last_reported":1758784243,"current_range_meters":3600,"station_id":"ce4bgjp2rcd13ifvqbh0","pricing_plan_id":"cebpf4jnsgd1na2vs0mg"},{"bike_id":"c0e09fcd-6eb3-4487-95c6-c6f132f39de3","system_id":"levelo_inurba_marseille","lat":43.22537,"lon":5.3485,"is_reserved":false,"is_disabled":false,"rental_uris":{"android":"levelo://app?vid=c0e09fcd-6eb3-4487-95c6-c6f132f39de3","ios":"levelo://app?vid=c0e09fcd-6eb3-4487-95c6-c6f132f39de3"},"vehicle_type_id":"4","last_reported":1758784243,"current_range_meters":3600,"station_id":"","pricing_plan_id":"cebpf4jnsgd1na2vs0mg"},{"bike_id":"c5e49ffe-58b8-4f3f-845b-5f21432fc6c3","system_id":"levelo_inurba_marseille","lat":43.257337,"lon":5.411098,"is_reserved":false,"is_disabled":false,"rental_uris":{"android":"levelo://app?vid=c5e49ffe-58b8-4f3f-845b-5f21432fc6c3","ios":"levelo://app?vid=c5e49ffe-58b8-4f3f-845b-5f21432fc6c3"},"vehicle_type_id":"4","last_reported":1758784243,"current_range_meters":3600,"station_id":"ce4bhkp2rcd13ifvqgd0","pricing_plan_id":"cebpf4jnsgd1na2vs0mg"},{"bike_id":"de4c7667-b3ce-4824-861d-5a0cd7f29e7a","system_id":"levelo_inurba_marseille","lat":43.288942,"lon":5.400021,"is_reserved":false,"is_disabled":false,"rental_uris":{"android":"levelo://app?vid=de4c7667-b3ce-4824-861d-5a0cd7f29e7a","ios":"levelo://app?vid=de4c7667-b3ce-4824-861d-5a0cd7f29e7a"},"vehicle_type_id":"4","last_reported":1758784243,"current_range_meters":3600,"station_id":"ce4bh392rcd13ifvqdm0","pricing_plan_id":"cebpf4jnsgd1na2vs0mg"},{"bike_id":"fb723777-764c-48f4-afc8-935ef00d4017","system_id":"levelo_inurba_marseille","lat":43.312192,"lon":5.368535,"is_reserved":false,"is_disabled":false,"rental_uris":{"android":"levelo://app?vid=fb723777-764c-48f4-afc8-935ef00d4017","ios":"levelo://app?vid=fb723777-764c-48f4-afc8-935ef00d4017"},"vehicle_type_id":"4","last_reported":1758784243,"current_range_meters":3600,"station_id":"ce4bgl92rcd13ifvqbq0","pricing_plan_id":"cebpf4jnsgd1na2vs0mg"},{"bike_id":"5022abe6-ef1f-4c1a-82cc-71bfb8acd4e5","system_id":"levelo_inurba_marseille","lat":43.296643,"lon":5.374586,"is_reserved":false,"is_disabled":false,"rental_uris":{"android":"levelo://app?vid=5022abe6-ef1f-4c1a-82cc-71bfb8acd4e5","ios":"levelo://app?vid=5022abe6-ef1f-4c1a-82cc-71bfb8acd4e5"},"vehicle_type_id":"4","last_reported":1758784243,"current_range_meters":4000,"station_id":"ce4bgs92rcd13ifvqcc0","pricing_plan_id":"cebpf4jnsgd1na2vs0mg"},{"bike_id":"f0b85770-ed36-4836-a125-956431f0e54b","system_id":"levelo_inurba_marseille","lat":43.292021,"lon":5.358672,"is_reserved":false,"is_disabled":false,"rental_uris":{"android":"levelo://app?vid=f0b85770-ed36-4836-a125-956431f0e54b","ios":"levelo://app?vid=f0b85770-ed36-4836-a125-956431f0e54b"},"vehicle_type_id":"4","last_reported":1758784243,"current_range_meters":4000,"station_id":"ce4bhb12rcd13ifvqel0","pricing_plan_id":"cebpf4jnsgd1na2vs0mg"},{"bike_id":"73a1a6d1-7de9-4078-91eb-f0abce70cfac","system_id":"levelo_inurba_marseille","lat":43.30144,"lon":5.38063,"is_reserved":false,"is_disabled":false,"rental_uris":{"android":"levelo://app?vid=73a1a6d1-7de9-4078-91eb-f0abce70cfac","ios":"levelo://app?vid=73a1a6d1-7de9-4078-91eb-f0abce70cfac"},"vehicle_type_id":"4","last_reported":1758784243,"current_range_meters":4400,"station_id":"ce4bgjp2rcd13ifvqbh0","pricing_plan_id":"cebpf4jnsgd1na2vs0mg"},{"bike_id":"b2dbd3c2-7a94-4dbd-a59f-24bc2a32bb7e","system_id":"levelo_inurba_marseille","lat":43.2316,"lon":5.4372,"is_reserved":false,"is_disabled":false,"rental_uris":{"android":"levelo://app?vid=b2dbd3c2-7a94-4dbd-a59f-24bc2a32bb7e","ios":"levelo://app?vid=b2dbd3c2-7a94-4dbd-a59f-24bc2a32bb7e"},"vehicle_type_id":"4","last_reported":1758784243,"current_range_meters":4000,"station_id":"ce4bhmp2rcd13ifvqgog","pricing_plan_id":"cebpf4jnsgd1na2vs0mg"},{"bike_id":"4793670f-254e-4b04-b5c6-8e2d8c50bf41","system_id":"levelo_inurba_marseille","lat":43.25011,"lon":5.38925,"is_reserved":false,"is_disabled":false,"rental_uris":{"android":"levelo://app?vid=4793670f-254e-4b04-b5c6-8e2d8c50bf41","ios":"levelo://app?vid=4793670f-254e-4b04-b5c6-8e2d8c50bf41"},"vehicle_type_id":"4","last_reported":1758784243,"current_range_meters":4000,"station_id":"ce4bhgp2rcd13ifvqfd0","pricing_plan_id":"cebpf4jnsgd1na2vs0mg"},{"bike_id":"1efddf8d-578f-4e4c-8c3f-e3a8bd592ba4","system_id":"levelo_inurba_marseille","lat":43.29965,"lon":5.37378,"is_reserved":false,"is_disabled":false,"rental_uris":{"android":"levelo://app?vid=1efddf8d-578f-4e4c-8c3f-e3a8bd592ba4","ios":"levelo://app?vid=1efddf8d-578f-4e4c-8c3f-e3a8bd592ba4"},"vehicle_type_id":"4","last_reported":1758784243,"current_range_meters":4400,"station_id":"","pricing_plan_id":"cebpf4jnsgd1na2vs0mg"},{"bike_id":"7dd9a3c2-a3dc-4688-89e6-c975c803615a","system_id":"levelo_inurba_marseille","lat":43.28932,"lon":5.36642,"is_reserved":false,"is_disabled":false,"rental_uris":{"android":"levelo://app?vid=7dd9a3c2-a3dc-4688-89e6-c975c803615a","ios":"levelo://app?vid=7dd9a3c2-a3dc-4688-89e6-c975c803615a"},"vehicle_type_id":"4","last_reported":1758784243,"current_range_meters":4400,"station_id":"ce4bhap2rcd13ifvqek0","pricing_plan_id":"cebpf4jnsgd1na2vs0mg"},{"bike_id":"e4ab1c41-936f-4d69-9f33-6a80828d7e20","system_id":"levelo_inurba_marseille","lat":43.33611,"lon":5.41014,"is_reserved":false,"is_disabled":false,"rental_uris":{"android":"levelo://app?vid=e4ab1c41-936f-4d69-9f33-6a80828d7e20","ios":"levelo://app?vid=e4ab1c41-936f-4d69-9f33-6a80828d7e20"},"vehicle_type_id":"4","last_reported":1758784243,"current_range_meters":4400,"station_id":"ce4bhqh2rcd13ifvqhmg","pricing_plan_id":"cebpf4jnsgd1na2vs0mg"},{"bike_id":"a1298cf3-e570-4cd2-9d7f-46eeff667a76","system_id":"levelo_inurba_marseille","lat":43.2455,"lon":5.39515,"is_reserved":false,"is_disabled":false,"rental_uris":{"android":"levelo://app?vid=a1298cf3-e570-4cd2-9d7f-46eeff667a76","ios":"levelo://app?vid=a1298cf3-e570-4cd2-9d7f-46eeff667a76"},"vehicle_type_id":"4","last_reported":1758784243,"current_range_meters":4400,"station_id":"ce4bhlp2rcd13ifvqgjg","pricing_plan_id":"cebpf4jnsgd1na2vs0mg"},{"bike_id":"255502d9-3a34-4c47-bd2a-5dc833d943f1","system_id":"levelo_inurba_marseille","lat":43.3056,"lon":5.36557,"is_reserved":false,"is_disabled":false,"rental_uris":{"android":"levelo://app?vid=255502d9-3a34-4c47-bd2a-5dc833d943f1","ios":"levelo://app?vid=255502d9-3a34-4c47-bd2a-5dc833d943f1"},"vehicle_type_id":"4","last_reported":1758784243,"current_range_meters":4400,"station_id":"ce4bgs12rcd13ifvqcag","pricing_plan_id":"cebpf4jnsgd1na2vs0mg"},{"bike_id":"f9a0beb6-20be-41b0-a82a-986c54aec557","system_id":"levelo_inurba_marseille","lat":43.26228,"lon":5.40444,"is_reserved":false,"is_disabled":false,"rental_uris":{"android":"levelo://app?vid=f9a0beb6-20be-41b0-a82a-986c54aec557","ios":"levelo://app?vid=f9a0beb6-20be-41b0-a82a-986c54aec557"},"vehicle_type_id":"4","last_reported":1758784243,"current_range_meters":4800,"station_id":"ce4bhmh2rcd13ifvqgmg","pricing_plan_id":"cebpf4jnsgd1na2vs0mg"},{"bike_id":"e6b5dcce-dc29-4084-898e-86582c45af68","system_id":"levelo_inurba_marseille","lat":43.29042,"lon":5.39972,"is_reserved":false,"is_disabled":false,"rental_uris":{"android":"levelo://app?vid=e6b5dcce-dc29-4084-898e-86582c45af68","ios":"levelo://app?vid=e6b5dcce-dc29-4084-898e-86582c45af68"},"vehicle_type_id":"4","last_reported":1758784243,"current_range_meters":4800,"station_id":"ce4bh392rcd13ifvqdm0","pricing_plan_id":"cebpf4jnsgd1na2vs0mg"},{"bike_id":"193e42a1-b115-4790-8f0b-86e6f864d184","system_id":"levelo_inurba_marseille","lat":43.250175,"lon":5.389235,"is_reserved":false,"is_disabled":false,"rental_uris":{"android":"levelo://app?vid=193e42a1-b115-4790-8f0b-86e6f864d184","ios":"levelo://app?vid=193e42a1-b115-4790-8f0b-86e6f864d184"},"vehicle_type_id":"4","last_reported":1758784243,"current_range_meters":4800,"station_id":"ce4bhgp2rcd13ifvqfd0","pricing_plan_id":"cebpf4jnsgd1na2vs0mg"},{"bike_id":"64087d49-c83c-4445-bdbd-6082a833d4ef","system_id":"levelo_inurba_marseille","lat":43.290306,"lon":5.386493,"is_reserved":false,"is_disabled":false,"rental_uris":{"android":"levelo://app?vid=64087d49-c83c-4445-bdbd-6082a833d4ef","ios":"levelo://app?vid=64087d49-c83c-4445-bdbd-6082a833d4ef"},"vehicle_type_id":"4","last_reported":1758784243,"current_range_meters":9200,"station_id":"ce4bh4p2rcd13ifvqe0g","pricing_plan_id":"cebpf4jnsgd1na2vs0mg"},{"bike_id":"243d2d2a-0a97-4f46-b334-83d58dd04283","system_id":"levelo_inurba_marseille","lat":43.3046,"lon":5.37915,"is_reserved":false,"is_disabled":false,"rental_uris":{"android":"levelo://app?vid=243d2d2a-0a97-4f46-b334-83d58dd04283","ios":"levelo://app?vid=243d2d2a-0a97-4f46-b334-83d58dd04283"},"vehicle_type_id":"4","last_reported":1758784243,"current_range_meters":4000,"station_id":"ce4bgup2rcd13ifvqcn0","pricing_plan_id":"cebpf4jnsgd1na2vs0mg"},{"bike_id":"9446425e-0a86-42ae-bc3c-f72ad738e590","system_id":"levelo_inurba_marseille","lat":43.3365,"lon":5.36301,"is_reserved":false,"is_disabled":false,"rental_uris":{"android":"levelo://app?vid=9446425e-0a86-42ae-bc3c-f72ad738e590","ios":"levelo://app?vid=9446425e-0a86-42ae-bc3c-f72ad738e590"},"vehicle_type_id":"4","last_reported":1758784243,"current_range_meters":5600,"station_id":"","pricing_plan_id":"cebpf4jnsgd1na2vs0mg"},{"bike_id":"939538dc-20bd-4d94-8a10-8e1e0a179bc7","system_id":"levelo_inurba_marseille","lat":43.30846,"lon":5.36808,"is_reserved":false,"is_disabled":false,"rental_uris":{"android":"levelo://app?vid=939538dc-20bd-4d94-8a10-8e1e0a179bc7","ios":"levelo://app?vid=939538dc-20bd-4d94-8a10-8e1e0a179bc7"},"vehicle_type_id":"4","last_reported":1758784243,"current_range_meters":5600,"station_id":"","pricing_plan_id":"cebpf4jnsgd1na2vs0mg"},{"bike_id":"5a9b45ec-a215-4f5e-a90c-94a89d013488","system_id":"levelo_inurba_marseille","lat":43.30537,"lon":5.36696,"is_reserved":false,"is_disabled":true,"rental_uris":{"android":"levelo://app?vid=5a9b45ec-a215-4f5e-a90c-94a89d013488","ios":"levelo://app?vid=5a9b45ec-a215-4f5e-a90c-94a89d013488"},"vehicle_type_id":"4","last_reported":1758784243,"current_range_meters":5600,"station_id":"ce4bgrp2rcd13ifvqc9g","pricing_plan_id":"cebpf4jnsgd1na2vs0mg"},{"bike_id":"f34a244f-3227-4ea6-bdb5-334464331e7e","system_id":"levelo_inurba_marseille","lat":43.33717,"lon":5.39188,"is_reserved":false,"is_disabled":false,"rental_uris":{"android":"levelo://app?vid=f34a244f-3227-4ea6-bdb5-334464331e7e","ios":"levelo://app?vid=f34a244f-3227-4ea6-bdb5-334464331e7e"},"vehicle_type_id":"4","last_reported":1758784243,"current_range_meters":5600,"station_id":"ce4bhr92rcd13ifvqhsg","pricing_plan_id":"cebpf4jnsgd1na2vs0mg"},{"bike_id":"7c0482c3-9253-4d1b-b4f3-be55cdb7721d","system_id":"levelo_inurba_marseille","lat":43.33757,"lon":5.37466,"is_reserved":false,"is_disabled":false,"rental_uris":{"android":"levelo://app?vid=7c0482c3-9253-4d1b-b4f3-be55cdb7721d","ios":"levelo://app?vid=7c0482c3-9253-4d1b-b4f3-be55cdb7721d"},"vehicle_type_id":"4","last_reported":1758784243,"current_range_meters":6400,"station_id":"","pricing_plan_id":"cebpf4jnsgd1na2vs0mg"},{"bike_id":"ea93c4e7-0906-4128-b4fc-1b4c74a5c843","system_id":"levelo_inurba_marseille","lat":43.248088,"lon":5.374657,"is_reserved":false,"is_disabled":true,"rental_uris":{"android":"levelo://app?vid=ea93c4e7-0906-4128-b4fc-1b4c74a5c843","ios":"levelo://app?vid=ea93c4e7-0906-4128-b4fc-1b4c74a5c843"},"vehicle_type_id":"4","last_reported":1758784243,"current_range_meters":6400,"station_id":"ce4bhgh2rcd13ifvqfb0","pricing_plan_id":"cebpf4jnsgd1na2vs0mg"},{"bike_id":"2c22d2c6-fa85-4126-acfc-97cf7a3ffa54","system_id":"levelo_inurba_marseille","lat":43.30889,"lon":5.37202,"is_reserved":false,"is_disabled":false,"rental_uris":{"android":"levelo://app?vid=2c22d2c6-fa85-4126-acfc-97cf7a3ffa54","ios":"levelo://app?vid=2c22d2c6-fa85-4126-acfc-97cf7a3ffa54"},"vehicle_type_id":"4","last_reported":1758784243,"current_range_meters":6400,"station_id":"ce4bguh2rcd13ifvqckg","pricing_plan_id":"cebpf4jnsgd1na2vs0mg"},{"bike_id":"16147935-d03b-445f-bb54-9f2019b76aa0","system_id":"levelo_inurba_marseille","lat":43.26558,"lon":5.37283,"is_reserved":false,"is_disabled":false,"rental_uris":{"android":"levelo://app?vid=16147935-d03b-445f-bb54-9f2019b76aa0","ios":"levelo://app?vid=16147935-d03b-445f-bb54-9f2019b76aa0"},"vehicle_type_id":"4","last_reported":1758784243,"current_range_meters":6400,"station_id":"ce4bhg12rcd13ifvqf70","pricing_plan_id":"cebpf4jnsgd1na2vs0mg"},{"bike_id":"54c26ee4-8d67-48eb-9a5d-c204545837ba","system_id":"levelo_inurba_marseille","lat":43.29787,"lon":5.39342,"is_reserved":false,"is_disabled":false,"rental_uris":{"android":"levelo://app?vid=54c26ee4-8d67-48eb-9a5d-c204545837ba","ios":"levelo://app?vid=54c26ee4-8d67-48eb-9a5d-c204545837ba"},"vehicle_type_id":"4","last_reported":1758784243,"current_range_meters":6400,"station_id":"chh1huq6cuj3fo74tm60","pricing_plan_id":"cebpf4jnsgd1na2vs0mg"},{"bike_id":"e804e8c8-5889-461f-9ee8-4ad1711c5f41","system_id":"levelo_inurba_marseille","lat":43.29582,"lon":5.37723,"is_reserved":false,"is_disabled":false,"rental_uris":{"android":"levelo://app?vid=e804e8c8-5889-461f-9ee8-4ad1711c5f41","ios":"levelo://app?vid=e804e8c8-5889-461f-9ee8-4ad1711c5f41"},"vehicle_type_id":"4","last_reported":1758784243,"current_range_meters":6400,"station_id":"","pricing_plan_id":"cebpf4jnsgd1na2vs0mg"},{"bike_id":"9765fd3b-7472-4f3c-b5ea-2cb20800a3a9","system_id":"levelo_inurba_marseille","lat":43.24633,"lon":5.39595,"is_reserved":false,"is_disabled":true,"rental_uris":{"android":"levelo://app?vid=9765fd3b-7472-4f3c-b5ea-2cb20800a3a9","ios":"levelo://app?vid=9765fd3b-7472-4f3c-b5ea-2cb20800a3a9"},"vehicle_type_id":"4","last_reported":1758784243,"current_range_meters":6400,"station_id":"","pricing_plan_id":"cebpf4jnsgd1na2vs0mg"},{"bike_id":"17fc5d58-96c8-400b-9260-e7b81773c20c","system_id":"levelo_inurba_marseille","lat":43.29264,"lon":5.37639,"is_reserved":false,"is_disabled":false,"rental_uris":{"android":"levelo://app?vid=17fc5d58-96c8-400b-9260-e7b81773c20c","ios":"levelo://app?vid=17fc5d58-96c8-400b-9260-e7b81773c20c"},"vehicle_type_id":"4","last_reported":1758784243,"current_range_meters":6400,"station_id":"ce4bgi12rcd13ifvqb80","pricing_plan_id":"cebpf4jnsgd1na2vs0mg"},{"bike_id":"43d57fd4-047e-4ac8-97e5-ec9b96239472","system_id":"levelo_inurba_marseille","lat":43.33231,"lon":5.39821,"is_reserved":false,"is_disabled":false,"rental_uris":{"android":"levelo://app?vid=43d57fd4-047e-4ac8-97e5-ec9b96239472","ios":"levelo://app?vid=43d57fd4-047e-4ac8-97e5-ec9b96239472"},"vehicle_type_id":"4","last_reported":1758784243,"current_range_meters":6400,"station_id":"","pricing_plan_id":"cebpf4jnsgd1na2vs0mg"},{"bike_id":"2bd3d88f-f2aa-42bb-a59b-7add998186ea","system_id":"levelo_inurba_marseille","lat":43.26217,"lon":5.37472,"is_reserved":false,"is_disabled":false,"rental_uris":{"android":"levelo://app?vid=2bd3d88f-f2aa-42bb-a59b-7add998186ea","ios":"levelo://app?vid=2bd3d88f-f2aa-42bb-a59b-7add998186ea"},"vehicle_type_id":"4","last_reported":1758784243,"current_range_meters":6800,"station_id":"ce4bhgp2rcd13ifvqfc0","pricing_plan_id":"cebpf4jnsgd1na2vs0mg"},{"bike_id":"ab88293b-6a16-4ace-923e-285a91b5eea5","system_id":"levelo_inurba_marseille","lat":43.24085,"lon":5.37765,"is_reserved":false,"is_disabled":false,"rental_uris":{"android":"levelo://app?vid=ab88293b-6a16-4ace-923e-285a91b5eea5","ios":"levelo://app?vid=ab88293b-6a16-4ace-923e-285a91b5eea5"},"vehicle_type_id":"4","last_reported":1758784243,"current_range_meters":6800,"station_id":"ce4bhnp2rcd13ifvqgvg","pricing_plan_id":"cebpf4jnsgd1na2vs0mg"},{"bike_id":"5f7a5080-e77c-4892-a096-c578510b27d0","system_id":"levelo_inurba_marseille","lat":43.27946,"lon":5.41057,"is_reserved":false,"is_disabled":true,"rental_uris":{"android":"levelo://app?vid=5f7a5080-e77c-4892-a096-c578510b27d0","ios":"levelo://app?vid=5f7a5080-e77c-4892-a096-c578510b27d0"},"vehicle_type_id":"4","last_reported":1758784243,"current_range_meters":7200,"station_id":"ce4bhnp2rcd13ifvqh0g","pricing_plan_id":"cebpf4jnsgd1na2vs0mg"},{"bike_id":"34ca5e83-e461-4329-bd48-29c4d6070be0","system_id":"levelo_inurba_marseille","lat":43.2573,"lon":5.41148,"is_reserved":false,"is_disabled":false,"rental_uris":{"android":"levelo://app?vid=34ca5e83-e461-4329-bd48-29c4d6070be0","ios":"levelo://app?vid=34ca5e83-e461-4329-bd48-29c4d6070be0"},"vehicle_type_id":"4","last_reported":1758784243,"current_range_meters":7200,"station_id":"ce4bhkp2rcd13ifvqgd0","pricing_plan_id":"cebpf4jnsgd1na2vs0mg"},{"bike_id":"a672c1de-73c4-4d4b-88fc-5f16d1f22315","system_id":"levelo_inurba_marseille","lat":43.29973,"lon":5.37175,"is_reserved":false,"is_disabled":false,"rental_uris":{"android":"levelo://app?vid=a672c1de-73c4-4d4b-88fc-5f16d1f22315","ios":"levelo://app?vid=a672c1de-73c4-4d4b-88fc-5f16d1f22315"},"vehicle_type_id":"4","last_reported":1758784243,"current_range_meters":6800,"station_id":"ce4bgr92rcd13ifvqc7g","pricing_plan_id":"cebpf4jnsgd1na2vs0mg"},{"bike_id":"86142f4f-fd69-4449-8734-3892caef0dcf","system_id":"levelo_inurba_marseille","lat":43.29783,"lon":5.37098,"is_reserved":false,"is_disabled":false,"rental_uris":{"android":"levelo://app?vid=86142f4f-fd69-4449-8734-3892caef0dcf","ios":"levelo://app?vid=86142f4f-fd69-4449-8734-3892caef0dcf"},"vehicle_type_id":"4","last_reported":1758784243,"current_range_meters":7200,"station_id":"ce4bgop2rcd13ifvqc1g","pricing_plan_id":"cebpf4jnsgd1na2vs0mg"},{"bike_id":"9c4a7bdb-c552-4dfd-8efb-40b9e0b0b147","system_id":"levelo_inurba_marseille","lat":43.30913,"lon":5.3673,"is_reserved":false,"is_disabled":false,"rental_uris":{"android":"levelo://app?vid=9c4a7bdb-c552-4dfd-8efb-40b9e0b0b147","ios":"levelo://app?vid=9c4a7bdb-c552-4dfd-8efb-40b9e0b0b147"},"vehicle_type_id":"4","last_reported":1758784243,"current_range_meters":7200,"station_id":"","pricing_plan_id":"cebpf4jnsgd1na2vs0mg"},{"bike_id":"cb3d83dd-8277-415b-bc5d-a118e1200728","system_id":"levelo_inurba_marseille","lat":43.30101,"lon":5.41043,"is_reserved":false,"is_disabled":false,"rental_uris":{"android":"levelo://app?vid=cb3d83dd-8277-415b-bc5d-a118e1200728","ios":"levelo://app?vid=cb3d83dd-8277-415b-bc5d-a118e1200728"},"vehicle_type_id":"4","last_reported":1758784243,"current_range_meters":7200,"station_id":"","pricing_plan_id":"cebpf4jnsgd1na2vs0mg"},{"bike_id":"2a22c247-40b7-486d-99f5-b8632a8c6256","system_id":"levelo_inurba_marseille","lat":43.29041,"lon":5.39968,"is_reserved":false,"is_disabled":false,"rental_uris":{"android":"levelo://app?vid=2a22c247-40b7-486d-99f5-b8632a8c6256","ios":"levelo://app?vid=2a22c247-40b7-486d-99f5-b8632a8c6256"},"vehicle_type_id":"4","last_reported":1758784243,"current_range_meters":7200,"station_id":"ce4bh392rcd13ifvqdm0","pricing_plan_id":"cebpf4jnsgd1na2vs0mg"},{"bike_id":"6cad1878-f2c7-420c-8b2c-2b1f25ba450d","system_id":"levelo_inurba_marseille","lat":43.23753,"lon":5.43584,"is_reserved":false,"is_disabled":false,"rental_uris":{"android":"levelo://app?vid=6cad1878-f2c7-420c-8b2c-2b1f25ba450d","ios":"levelo://app?vid=6cad1878-f2c7-420c-8b2c-2b1f25ba450d"},"vehicle_type_id":"4","last_reported":1758784243,"current_range_meters":7200,"station_id":"","pricing_plan_id":"cebpf4jnsgd1na2vs0mg"},{"bike_id":"3c327943-29c5-446c-9dbf-088ed0163424","system_id":"levelo_inurba_marseille","lat":43.25328,"lon":5.42179,"is_reserved":false,"is_disabled":true,"rental_uris":{"android":"levelo://app?vid=3c327943-29c5-446c-9dbf-088ed0163424","ios":"levelo://app?vid=3c327943-29c5-446c-9dbf-088ed0163424"},"vehicle_type_id":"4","last_reported":1758784243,"current_range_meters":7200,"station_id":"st_d2m65c5bi1j21697t3ng","pricing_plan_id":"cebpf4jnsgd1na2vs0mg"},{"bike_id":"96f55b17-b95b-4fd1-8126-e9ac17da0bdc","system_id":"levelo_inurba_marseille","lat":43.32536,"lon":5.41485,"is_reserved":false,"is_disabled":false,"rental_uris":{"android":"levelo://app?vid=96f55b17-b95b-4fd1-8126-e9ac17da0bdc","ios":"levelo://app?vid=96f55b17-b95b-4fd1-8126-e9ac17da0bdc"},"vehicle_type_id":"4","last_reported":1758784243,"current_range_meters":8000,"station_id":"ce4bhq12rcd13ifvqhhg","pricing_plan_id":"cebpf4jnsgd1na2vs0mg"},{"bike_id":"908eee75-9d32-4450-a731-99844c761e3d","system_id":"levelo_inurba_marseille","lat":43.274655,"lon":5.394419,"is_reserved":false,"is_disabled":false,"rental_uris":{"android":"levelo://app?vid=908eee75-9d32-4450-a731-99844c761e3d","ios":"levelo://app?vid=908eee75-9d32-4450-a731-99844c761e3d"},"vehicle_type_id":"4","last_reported":1758784243,"current_range_meters":8000,"station_id":"ce4bhdp2rcd13ifvqf20","pricing_plan_id":"cebpf4jnsgd1na2vs0mg"},{"bike_id":"1846e412-a89b-48c3-8a86-f911e8ea2c2e","system_id":"levelo_inurba_marseille","lat":43.212,"lon":5.35087,"is_reserved":false,"is_disabled":false,"rental_uris":{"android":"levelo://app?vid=1846e412-a89b-48c3-8a86-f911e8ea2c2e","ios":"levelo://app?vid=1846e412-a89b-48c3-8a86-f911e8ea2c2e"},"vehicle_type_id":"4","last_reported":1758784243,"current_range_meters":8000,"station_id":"st_cvj6sg6p6f1abm77japg","pricing_plan_id":"cebpf4jnsgd1na2vs0mg"},{"bike_id":"0b32ab4b-5a52-4710-ba0a-e3a3433b73e8","system_id":"levelo_inurba_marseille","lat":43.33621,"lon":5.41023,"is_reserved":false,"is_disabled":false,"rental_uris":{"android":"levelo://app?vid=0b32ab4b-5a52-4710-ba0a-e3a3433b73e8","ios":"levelo://app?vid=0b32ab4b-5a52-4710-ba0a-e3a3433b73e8"},"vehicle_type_id":"4","last_reported":1758784243,"current_range_meters":8000,"station_id":"ce4bhqh2rcd13ifvqhmg","pricing_plan_id":"cebpf4jnsgd1na2vs0mg"},{"bike_id":"90f26e36-9af6-46d2-ae5d-d049cd4c0825","system_id":"levelo_inurba_marseille","lat":43.23149,"lon":5.43719,"is_reserved":false,"is_disabled":false,"rental_uris":{"android":"levelo://app?vid=90f26e36-9af6-46d2-ae5d-d049cd4c0825","ios":"levelo://app?vid=90f26e36-9af6-46d2-ae5d-d049cd4c0825"},"vehicle_type_id":"4","last_reported":1758784243,"current_range_meters":8000,"station_id":"ce4bhmp2rcd13ifvqgog","pricing_plan_id":"cebpf4jnsgd1na2vs0mg"},{"bike_id":"3b31d633-b5d5-4cb8-bc19-6e3745360861","system_id":"levelo_inurba_marseille","lat":43.31222,"lon":5.36872,"is_reserved":false,"is_disabled":false,"rental_uris":{"android":"levelo://app?vid=3b31d633-b5d5-4cb8-bc19-6e3745360861","ios":"levelo://app?vid=3b31d633-b5d5-4cb8-bc19-6e3745360861"},"vehicle_type_id":"4","last_reported":1758784243,"current_range_meters":8000,"station_id":"ce4bgl92rcd13ifvqbq0","pricing_plan_id":"cebpf4jnsgd1na2vs0mg"},{"bike_id":"136a707a-b224-4c44-8119-f846f7b7d0a7","system_id":"levelo_inurba_marseille","lat":43.29516,"lon":5.37375,"is_reserved":false,"is_disabled":false,"rental_uris":{"android":"levelo://app?vid=136a707a-b224-4c44-8119-f846f7b7d0a7","ios":"levelo://app?vid=136a707a-b224-4c44-8119-f846f7b7d0a7"},"vehicle_type_id":"4","last_reported":1758784243,"current_range_meters":8400,"station_id":"","pricing_plan_id":"cebpf4jnsgd1na2vs0mg"},{"bike_id":"72cc0e0f-f835-4806-8937-0981330acdab","system_id":"levelo_inurba_marseille","lat":43.274943,"lon":5.424608,"is_reserved":false,"is_disabled":false,"rental_uris":{"android":"levelo://app?vid=72cc0e0f-f835-4806-8937-0981330acdab","ios":"levelo://app?vid=72cc0e0f-f835-4806-8937-0981330acdab"},"vehicle_type_id":"4","last_reported":1758784243,"current_range_meters":8400,"station_id":"ce4bhn92rcd13ifvqgrg","pricing_plan_id":"cebpf4jnsgd1na2vs0mg"},{"bike_id":"52c5c985-826d-4a6d-a042-1501fc76669b","system_id":"levelo_inurba_marseille","lat":43.292315,"lon":5.360717,"is_reserved":false,"is_disabled":false,"rental_uris":{"android":"levelo://app?vid=52c5c985-826d-4a6d-a042-1501fc76669b","ios":"levelo://app?vid=52c5c985-826d-4a6d-a042-1501fc76669b"},"vehicle_type_id":"4","last_reported":1758784243,"current_range_meters":8400,"station_id":"ce4bhbh2rcd13ifvqeqg","pricing_plan_id":"cebpf4jnsgd1na2vs0mg"},{"bike_id":"154e1601-119f-40e6-9b6a-a3b636e4c77c","system_id":"levelo_inurba_marseille","lat":43.30551,"lon":5.36563,"is_reserved":false,"is_disabled":false,"rental_uris":{"android":"levelo://app?vid=154e1601-119f-40e6-9b6a-a3b636e4c77c","ios":"levelo://app?vid=154e1601-119f-40e6-9b6a-a3b636e4c77c"},"vehicle_type_id":"4","last_reported":1758784243,"current_range_meters":8800,"station_id":"ce4bgs12rcd13ifvqcag","pricing_plan_id":"cebpf4jnsgd1na2vs0mg"},{"bike_id":"edb3a296-06c5-42e7-9154-8b8b0089e91f","system_id":"levelo_inurba_marseille","lat":43.27496,"lon":5.4247,"is_reserved":false,"is_disabled":false,"rental_uris":{"android":"levelo://app?vid=edb3a296-06c5-42e7-9154-8b8b0089e91f","ios":"levelo://app?vid=edb3a296-06c5-42e7-9154-8b8b0089e91f"},"vehicle_type_id":"4","last_reported":1758784243,"current_range_meters":8800,"station_id":"ce4bhn92rcd13ifvqgrg","pricing_plan_id":"cebpf4jnsgd1na2vs0mg"},{"bike_id":"4e737411-53ce-4bdf-9802-c3bc30d9bc94","system_id":"levelo_inurba_marseille","lat":43.29545,"lon":5.40672,"is_reserved":false,"is_disabled":false,"rental_uris":{"android":"levelo://app?vid=4e737411-53ce-4bdf-9802-c3bc30d9bc94","ios":"levelo://app?vid=4e737411-53ce-4bdf-9802-c3bc30d9bc94"},"vehicle_type_id":"4","last_reported":1758784243,"current_range_meters":8800,"station_id":"","pricing_plan_id":"cebpf4jnsgd1na2vs0mg"},{"bike_id":"35b29339-dba8-4e1a-a84b-b2cb4cbeab88","system_id":"levelo_inurba_marseille","lat":43.31044,"lon":5.4007,"is_reserved":false,"is_disabled":false,"rental_uris":{"android":"levelo://app?vid=35b29339-dba8-4e1a-a84b-b2cb4cbeab88","ios":"levelo://app?vid=35b29339-dba8-4e1a-a84b-b2cb4cbeab88"},"vehicle_type_id":"4","last_reported":1758784243,"current_range_meters":8800,"station_id":"","pricing_plan_id":"cebpf4jnsgd1na2vs0mg"},{"bike_id":"eb433969-9791-4b75-994b-57be851e0f5e","system_id":"levelo_inurba_marseille","lat":43.29974,"lon":5.372,"is_reserved":false,"is_disabled":false,"rental_uris":{"android":"levelo://app?vid=eb433969-9791-4b75-994b-57be851e0f5e","ios":"levelo://app?vid=eb433969-9791-4b75-994b-57be851e0f5e"},"vehicle_type_id":"4","last_reported":1758784243,"current_range_meters":8400,"station_id":"ce4bgr92rcd13ifvqc7g","pricing_plan_id":"cebpf4jnsgd1na2vs0mg"},{"bike_id":"e0c93186-be55-4b1d-81b7-d2dbfb287e3e","system_id":"levelo_inurba_marseille","lat":43.32477,"lon":5.36574,"is_reserved":false,"is_disabled":false,"rental_uris":{"android":"levelo://app?vid=e0c93186-be55-4b1d-81b7-d2dbfb287e3e","ios":"levelo://app?vid=e0c93186-be55-4b1d-81b7-d2dbfb287e3e"},"vehicle_type_id":"4","last_reported":1758784243,"current_range_meters":9200,"station_id":"ce4bhs12rcd13ifvqhvg","pricing_plan_id":"cebpf4jnsgd1na2vs0mg"},{"bike_id":"c2af318a-7d44-4fd1-b6d5-bb0761cb7551","system_id":"levelo_inurba_marseille","lat":43.24635,"lon":5.43132,"is_reserved":false,"is_disabled":false,"rental_uris":{"android":"levelo://app?vid=c2af318a-7d44-4fd1-b6d5-bb0761cb7551","ios":"levelo://app?vid=c2af318a-7d44-4fd1-b6d5-bb0761cb7551"},"vehicle_type_id":"4","last_reported":1758784243,"current_range_meters":9200,"station_id":"st_d2m6c4gdas8pm72e190g","pricing_plan_id":"cebpf4jnsgd1na2vs0mg"},{"bike_id":"cf718b5d-d0c2-4f31-bc0b-7e2a09caac50","system_id":"levelo_inurba_marseille","lat":43.28484,"lon":5.38552,"is_reserved":false,"is_disabled":false,"rental_uris":{"android":"levelo://app?vid=cf718b5d-d0c2-4f31-bc0b-7e2a09caac50","ios":"levelo://app?vid=cf718b5d-d0c2-4f31-bc0b-7e2a09caac50"},"vehicle_type_id":"4","last_reported":1758784243,"current_range_meters":9200,"station_id":"ce4bh8p2rcd13ifvqeb0","pricing_plan_id":"cebpf4jnsgd1na2vs0mg"},{"bike_id":"b857bbe2-4106-4fb1-aac7-8beb6d849587","system_id":"levelo_inurba_marseille","lat":43.33606,"lon":5.4099,"is_reserved":false,"is_disabled":false,"rental_uris":{"android":"levelo://app?vid=b857bbe2-4106-4fb1-aac7-8beb6d849587","ios":"levelo://app?vid=b857bbe2-4106-4fb1-aac7-8beb6d849587"},"vehicle_type_id":"4","last_reported":1758784243,"current_range_meters":9200,"station_id":"ce4bhqh2rcd13ifvqhmg","pricing_plan_id":"cebpf4jnsgd1na2vs0mg"},{"bike_id":"79e6850f-ea38-4524-b072-c5d0069fc95d","system_id":"levelo_inurba_marseille","lat":43.28981,"lon":5.37831,"is_reserved":false,"is_disabled":false,"rental_uris":{"android":"levelo://app?vid=79e6850f-ea38-4524-b072-c5d0069fc95d","ios":"levelo://app?vid=79e6850f-ea38-4524-b072-c5d0069fc95d"},"vehicle_type_id":"4","last_reported":1758784243,"current_range_meters":8800,"station_id":"ce4bh9p2rcd13ifvqed0","pricing_plan_id":"cebpf4jnsgd1na2vs0mg"},{"bike_id":"9b41e809-a39d-4a8f-a8fa-beddb4a223d3","system_id":"levelo_inurba_marseille","lat":43.31224,"lon":5.36816,"is_reserved":false,"is_disabled":false,"rental_uris":{"android":"levelo://app?vid=9b41e809-a39d-4a8f-a8fa-beddb4a223d3","ios":"levelo://app?vid=9b41e809-a39d-4a8f-a8fa-beddb4a223d3"},"vehicle_type_id":"4","last_reported":1758784243,"current_range_meters":9200,"station_id":"ce4bgl92rcd13ifvqbq0","pricing_plan_id":"cebpf4jnsgd1na2vs0mg"},{"bike_id":"66babdd6-2063-4ef2-8d32-dd5db0e9e852","system_id":"levelo_inurba_marseille","lat":43.32474,"lon":5.36576,"is_reserved":false,"is_disabled":false,"rental_uris":{"android":"levelo://app?vid=66babdd6-2063-4ef2-8d32-dd5db0e9e852","ios":"levelo://app?vid=66babdd6-2063-4ef2-8d32-dd5db0e9e852"},"vehicle_type_id":"4","last_reported":1758784243,"current_range_meters":9200,"station_id":"ce4bhs12rcd13ifvqhvg","pricing_plan_id":"cebpf4jnsgd1na2vs0mg"},{"bike_id":"2a748234-9779-422d-8d2c-13d02c51989c","system_id":"levelo_inurba_marseille","lat":43.24391,"lon":5.37059,"is_reserved":false,"is_disabled":false,"rental_uris":{"android":"levelo://app?vid=2a748234-9779-422d-8d2c-13d02c51989c","ios":"levelo://app?vid=2a748234-9779-422d-8d2c-13d02c51989c"},"vehicle_type_id":"4","last_reported":1758784243,"current_range_meters":9200,"station_id":"ce4bhhh2rcd13ifvqfk0","pricing_plan_id":"cebpf4jnsgd1na2vs0mg"},{"bike_id":"54ffa8a3-f2df-42ba-883f-c2ce0090f095","system_id":"levelo_inurba_marseille","lat":43.27498,"lon":5.42455,"is_reserved":false,"is_disabled":false,"rental_uris":{"android":"levelo://app?vid=54ffa8a3-f2df-42ba-883f-c2ce0090f095","ios":"levelo://app?vid=54ffa8a3-f2df-42ba-883f-c2ce0090f095"},"vehicle_type_id":"4","last_reported":1758784243,"current_range_meters":9200,"station_id":"ce4bhn92rcd13ifvqgrg","pricing_plan_id":"cebpf4jnsgd1na2vs0mg"},{"bike_id":"438ead59-de14-4fa0-a61d-03a70a4122ae","system_id":"levelo_inurba_marseille","lat":43.97269,"lon":4.89111,"is_reserved":false,"is_disabled":true,"rental_uris":{"android":"levelo://app?vid=438ead59-de14-4fa0-a61d-03a70a4122ae","ios":"levelo://app?vid=438ead59-de14-4fa0-a61d-03a70a4122ae"},"vehicle_type_id":"4","last_reported":1758784243,"current_range_meters":9200,"station_id":"","pricing_plan_id":"cebpf4jnsgd1na2vs0mg"},{"bike_id":"083b8a8a-8198-4b9f-ac98-3193b779738d","system_id":"levelo_inurba_marseille","lat":43.30949,"lon":5.39031,"is_reserved":false,"is_disabled":false,"rental_uris":{"android":"levelo://app?vid=083b8a8a-8198-4b9f-ac98-3193b779738d","ios":"levelo://app?vid=083b8a8a-8198-4b9f-ac98-3193b779738d"},"vehicle_type_id":"4","last_reported":1758784243,"current_range_meters":9200,"station_id":"ce4bgup2rcd13ifvqco0","pricing_plan_id":"cebpf4jnsgd1na2vs0mg"},{"bike_id":"d3347a0b-09f5-41c5-af67-b54e534dd49e","system_id":"levelo_inurba_marseille","lat":43.3091,"lon":5.36846,"is_reserved":false,"is_disabled":false,"rental_uris":{"android":"levelo://app?vid=d3347a0b-09f5-41c5-af67-b54e534dd49e","ios":"levelo://app?vid=d3347a0b-09f5-41c5-af67-b54e534dd49e"},"vehicle_type_id":"4","last_reported":1758784243,"current_range_meters":9200,"station_id":"ce4bgn92rcd13ifvqbvg","pricing_plan_id":"cebpf4jnsgd1na2vs0mg"},{"bike_id":"7981bd57-1a91-436b-8601-50130d20e8be","system_id":"levelo_inurba_marseille","lat":43.21192,"lon":5.35101,"is_reserved":false,"is_disabled":false,"rental_uris":{"android":"levelo://app?vid=7981bd57-1a91-436b-8601-50130d20e8be","ios":"levelo://app?vid=7981bd57-1a91-436b-8601-50130d20e8be"},"vehicle_type_id":"4","last_reported":1758784243,"current_range_meters":9600,"station_id":"st_cvj6sg6p6f1abm77japg","pricing_plan_id":"cebpf4jnsgd1na2vs0mg"},{"bike_id":"b5097eea-9912-4be2-9cf9-14c224c5fab6","system_id":"levelo_inurba_marseille","lat":43.23176,"lon":5.3555,"is_reserved":false,"is_disabled":false,"rental_uris":{"android":"levelo://app?vid=b5097eea-9912-4be2-9cf9-14c224c5fab6","ios":"levelo://app?vid=b5097eea-9912-4be2-9cf9-14c224c5fab6"},"vehicle_type_id":"4","last_reported":1758784243,"current_range_meters":9600,"station_id":"ce4bhu92rcd13ifvqi70","pricing_plan_id":"cebpf4jnsgd1na2vs0mg"},{"bike_id":"6afca416-8d38-40fb-8704-74f981d39276","system_id":"levelo_inurba_marseille","lat":43.309175,"lon":5.368365,"is_reserved":false,"is_disabled":false,"rental_uris":{"android":"levelo://app?vid=6afca416-8d38-40fb-8704-74f981d39276","ios":"levelo://app?vid=6afca416-8d38-40fb-8704-74f981d39276"},"vehicle_type_id":"4","last_reported":1758784243,"current_range_meters":9600,"station_id":"ce4bgn92rcd13ifvqbvg","pricing_plan_id":"cebpf4jnsgd1na2vs0mg"},{"bike_id":"68b3104f-c05f-4601-991b-ab6fee32432b","system_id":"levelo_inurba_marseille","lat":43.316959,"lon":5.404651,"is_reserved":false,"is_disabled":false,"rental_uris":{"android":"levelo://app?vid=68b3104f-c05f-4601-991b-ab6fee32432b","ios":"levelo://app?vid=68b3104f-c05f-4601-991b-ab6fee32432b"},"vehicle_type_id":"4","last_reported":1758784243,"current_range_meters":9600,"station_id":"ce4bh012rcd13ifvqd00","pricing_plan_id":"cebpf4jnsgd1na2vs0mg"},{"bike_id":"28d4a21e-ffb6-4b82-b7cf-186e5f61b989","system_id":"levelo_inurba_marseille","lat":43.28623,"lon":5.35083,"is_reserved":false,"is_disabled":false,"rental_uris":{"android":"levelo://app?vid=28d4a21e-ffb6-4b82-b7cf-186e5f61b989","ios":"levelo://app?vid=28d4a21e-ffb6-4b82-b7cf-186e5f61b989"},"vehicle_type_id":"4","last_reported":1758784243,"current_range_meters":9600,"station_id":"ce4bhch2rcd13ifvqeug","pricing_plan_id":"cebpf4jnsgd1na2vs0mg"},{"bike_id":"87536fe5-9457-4062-8d30-1782727d98b6","system_id":"levelo_inurba_marseille","lat":43.24388,"lon":5.37066,"is_reserved":false,"is_disabled":false,"rental_uris":{"android":"levelo://app?vid=87536fe5-9457-4062-8d30-1782727d98b6","ios":"levelo://app?vid=87536fe5-9457-4062-8d30-1782727d98b6"},"vehicle_type_id":"4","last_reported":1758784243,"current_range_meters":9200,"station_id":"ce4bhhh2rcd13ifvqfk0","pricing_plan_id":"cebpf4jnsgd1na2vs0mg"},{"bike_id":"ee1f389e-be66-4fb8-82df-c9dfc622d8f6","system_id":"levelo_inurba_marseille","lat":43.30947,"lon":5.39041,"is_reserved":false,"is_disabled":false,"rental_uris":{"android":"levelo://app?vid=ee1f389e-be66-4fb8-82df-c9dfc622d8f6","ios":"levelo://app?vid=ee1f389e-be66-4fb8-82df-c9dfc622d8f6"},"vehicle_type_id":"4","last_reported":1758784243,"current_range_meters":9600,"station_id":"ce4bgup2rcd13ifvqco0","pricing_plan_id":"cebpf4jnsgd1na2vs0mg"},{"bike_id":"3f53fe53-a77d-4f5f-937f-c1412d985ac6","system_id":"levelo_inurba_marseille","lat":43.30142,"lon":5.37408,"is_reserved":false,"is_disabled":false,"rental_uris":{"android":"levelo://app?vid=3f53fe53-a77d-4f5f-937f-c1412d985ac6","ios":"levelo://app?vid=3f53fe53-a77d-4f5f-937f-c1412d985ac6"},"vehicle_type_id":"4","last_reported":1758784243,"current_range_meters":9600,"station_id":"ce4bgs92rcd13ifvqcc0","pricing_plan_id":"cebpf4jnsgd1na2vs0mg"},{"bike_id":"1221f52f-da48-4205-afc8-b6dd9d4b3e5e","system_id":"levelo_inurba_marseille","lat":43.2575,"lon":5.41104,"is_reserved":false,"is_disabled":true,"rental_uris":{"android":"levelo://app?vid=1221f52f-da48-4205-afc8-b6dd9d4b3e5e","ios":"levelo://app?vid=1221f52f-da48-4205-afc8-b6dd9d4b3e5e"},"vehicle_type_id":"4","last_reported":1758784243,"current_range_meters":10000,"station_id":"ce4bhkp2rcd13ifvqgd0","pricing_plan_id":"cebpf4jnsgd1na2vs0mg"},{"bike_id":"dfc6616d-fac8-446b-b270-4ca8177f4872","system_id":"levelo_inurba_marseille","lat":43.2406,"lon":5.37736,"is_reserved":false,"is_disabled":false,"rental_uris":{"android":"levelo://app?vid=dfc6616d-fac8-446b-b270-4ca8177f4872","ios":"levelo://app?vid=dfc6616d-fac8-446b-b270-4ca8177f4872"},"vehicle_type_id":"4","last_reported":1758784243,"current_range_meters":10000,"station_id":"ce4bhnp2rcd13ifvqgvg","pricing_plan_id":"cebpf4jnsgd1na2vs0mg"},{"bike_id":"ae4d123c-65ee-4c52-8933-f4b14d3f9582","system_id":"levelo_inurba_marseille","lat":43.22567,"lon":5.41659,"is_reserved":false,"is_disabled":false,"rental_uris":{"android":"levelo://app?vid=ae4d123c-65ee-4c52-8933-f4b14d3f9582","ios":"levelo://app?vid=ae4d123c-65ee-4c52-8933-f4b14d3f9582"},"vehicle_type_id":"4","last_reported":1758784243,"current_range_meters":10000,"station_id":"st_d2o4gvlbi1j2169b742g","pricing_plan_id":"cebpf4jnsgd1na2vs0mg"},{"bike_id":"d8019219-f2fc-42a1-b19a-6e6eaa0678a0","system_id":"levelo_inurba_marseille","lat":43.245466,"lon":5.380118,"is_reserved":false,"is_disabled":false,"rental_uris":{"android":"levelo://app?vid=d8019219-f2fc-42a1-b19a-6e6eaa0678a0","ios":"levelo://app?vid=d8019219-f2fc-42a1-b19a-6e6eaa0678a0"},"vehicle_type_id":"4","last_reported":1758784243,"current_range_meters":10000,"station_id":"ce4bhnp2rcd13ifvqgvg","pricing_plan_id":"cebpf4jnsgd1na2vs0mg"},{"bike_id":"52dacbc4-f20b-4fde-bf4d-e41b4317d16d","system_id":"levelo_inurba_marseille","lat":43.25935,"lon":5.40941,"is_reserved":false,"is_disabled":false,"rental_uris":{"android":"levelo://app?vid=52dacbc4-f20b-4fde-bf4d-e41b4317d16d","ios":"levelo://app?vid=52dacbc4-f20b-4fde-bf4d-e41b4317d16d"},"vehicle_type_id":"4","last_reported":1758784243,"current_range_meters":10000,"station_id":"ce4bhm92rcd13ifvqglg","pricing_plan_id":"cebpf4jnsgd1na2vs0mg"},{"bike_id":"06c10839-75c7-457b-804b-f341157fb4f3","system_id":"levelo_inurba_marseille","lat":43.2506,"lon":5.40485,"is_reserved":false,"is_disabled":false,"rental_uris":{"android":"levelo://app?vid=06c10839-75c7-457b-804b-f341157fb4f3","ios":"levelo://app?vid=06c10839-75c7-457b-804b-f341157fb4f3"},"vehicle_type_id":"4","last_reported":1758784243,"current_range_meters":10000,"station_id":"","pricing_plan_id":"cebpf4jnsgd1na2vs0mg"},{"bike_id":"a851cae0-b395-441e-9dd1-21300baf3396","system_id":"levelo_inurba_marseille","lat":43.31515,"lon":5.38679,"is_reserved":false,"is_disabled":false,"rental_uris":{"android":"levelo://app?vid=a851cae0-b395-441e-9dd1-21300baf3396","ios":"levelo://app?vid=a851cae0-b395-441e-9dd1-21300baf3396"},"vehicle_type_id":"4","last_reported":1758784243,"current_range_meters":10000,"station_id":"","pricing_plan_id":"cebpf4jnsgd1na2vs0mg"},{"bike_id":"9c5f0cd5-5776-4bde-8898-ac0d0582f527","system_id":"levelo_inurba_marseille","lat":43.30948,"lon":5.39037,"is_reserved":false,"is_disabled":false,"rental_uris":{"android":"levelo://app?vid=9c5f0cd5-5776-4bde-8898-ac0d0582f527","ios":"levelo://app?vid=9c5f0cd5-5776-4bde-8898-ac0d0582f527"},"vehicle_type_id":"4","last_reported":1758784243,"current_range_meters":11200,"station_id":"ce4bgup2rcd13ifvqco0","pricing_plan_id":"cebpf4jnsgd1na2vs0mg"},{"bike_id":"6cf3e5a6-7237-453a-9c2d-d22ea6de2276","system_id":"levelo_inurba_marseille","lat":43.239627,"lon":5.366347,"is_reserved":false,"is_disabled":false,"rental_uris":{"android":"levelo://app?vid=6cf3e5a6-7237-453a-9c2d-d22ea6de2276","ios":"levelo://app?vid=6cf3e5a6-7237-453a-9c2d-d22ea6de2276"},"vehicle_type_id":"4","last_reported":1758784243,"current_range_meters":9600,"station_id":"ce4bhi12rcd13ifvqfp0","pricing_plan_id":"cebpf4jnsgd1na2vs0mg"},{"bike_id":"fca2cd76-1e31-47dc-b6ce-18776c40295a","system_id":"levelo_inurba_marseille","lat":43.27367,"lon":5.36264,"is_reserved":false,"is_disabled":true,"rental_uris":{"android":"levelo://app?vid=fca2cd76-1e31-47dc-b6ce-18776c40295a","ios":"levelo://app?vid=fca2cd76-1e31-47dc-b6ce-18776c40295a"},"vehicle_type_id":"4","last_reported":1758784243,"current_range_meters":10000,"station_id":"ce4bhbh2rcd13ifvqeo0","pricing_plan_id":"cebpf4jnsgd1na2vs0mg"},{"bike_id":"5fbe240b-53fb-428d-978a-e46e6a2551ae","system_id":"levelo_inurba_marseille","lat":43.25573,"lon":5.38241,"is_reserved":false,"is_disabled":false,"rental_uris":{"android":"levelo://app?vid=5fbe240b-53fb-428d-978a-e46e6a2551ae","ios":"levelo://app?vid=5fbe240b-53fb-428d-978a-e46e6a2551ae"},"vehicle_type_id":"4","last_reported":1758784243,"current_range_meters":10000,"station_id":"ce4bhih2rcd13ifvqfs0","pricing_plan_id":"cebpf4jnsgd1na2vs0mg"},{"bike_id":"450844ba-2fc2-47be-9959-8fee61f07fb6","system_id":"levelo_inurba_marseille","lat":43.31741,"lon":5.39024,"is_reserved":false,"is_disabled":false,"rental_uris":{"android":"levelo://app?vid=450844ba-2fc2-47be-9959-8fee61f07fb6","ios":"levelo://app?vid=450844ba-2fc2-47be-9959-8fee61f07fb6"},"vehicle_type_id":"4","last_reported":1758784243,"current_range_meters":10800,"station_id":"ce4bhqp2rcd13ifvqhng","pricing_plan_id":"cebpf4jnsgd1na2vs0mg"},{"bike_id":"bf1244d3-d7e7-45bd-8580-d0cbc34b36e3","system_id":"levelo_inurba_marseille","lat":43.22565,"lon":5.41646,"is_reserved":false,"is_disabled":false,"rental_uris":{"android":"levelo://app?vid=bf1244d3-d7e7-45bd-8580-d0cbc34b36e3","ios":"levelo://app?vid=bf1244d3-d7e7-45bd-8580-d0cbc34b36e3"},"vehicle_type_id":"4","last_reported":1758784243,"current_range_meters":10800,"station_id":"st_d2o4gvlbi1j2169b742g","pricing_plan_id":"cebpf4jnsgd1na2vs0mg"},{"bike_id":"009807b1-ea40-4cd4-a19f-8f56bd4c3297","system_id":"levelo_inurba_marseille","lat":43.24082,"lon":5.37755,"is_reserved":false,"is_disabled":false,"rental_uris":{"android":"levelo://app?vid=009807b1-ea40-4cd4-a19f-8f56bd4c3297","ios":"levelo://app?vid=009807b1-ea40-4cd4-a19f-8f56bd4c3297"},"vehicle_type_id":"4","last_reported":1758784243,"current_range_meters":10800,"station_id":"ce4bhnp2rcd13ifvqgvg","pricing_plan_id":"cebpf4jnsgd1na2vs0mg"},{"bike_id":"db289146-0b82-4262-a7e3-8d61a53712c9","system_id":"levelo_inurba_marseille","lat":43.30308,"lon":5.36898,"is_reserved":false,"is_disabled":false,"rental_uris":{"android":"levelo://app?vid=db289146-0b82-4262-a7e3-8d61a53712c9","ios":"levelo://app?vid=db289146-0b82-4262-a7e3-8d61a53712c9"},"vehicle_type_id":"4","last_reported":1758784243,"current_range_meters":10800,"station_id":"ce4bgqh2rcd13ifvqc5g","pricing_plan_id":"cebpf4jnsgd1na2vs0mg"},{"bike_id":"e1f6ea02-3dcd-4760-958d-a4be47a2bc76","system_id":"levelo_inurba_marseille","lat":43.24651,"lon":5.38918,"is_reserved":false,"is_disabled":false,"rental_uris":{"android":"levelo://app?vid=e1f6ea02-3dcd-4760-958d-a4be47a2bc76","ios":"levelo://app?vid=e1f6ea02-3dcd-4760-958d-a4be47a2bc76"},"vehicle_type_id":"4","last_reported":1758784243,"current_range_meters":10800,"station_id":"ce4bhg12rcd13ifvqf60","pricing_plan_id":"cebpf4jnsgd1na2vs0mg"},{"bike_id":"985b6a4a-f326-407b-9c5a-497fce1eb6cb","system_id":"levelo_inurba_marseille","lat":43.2749,"lon":5.42478,"is_reserved":false,"is_disabled":false,"rental_uris":{"android":"levelo://app?vid=985b6a4a-f326-407b-9c5a-497fce1eb6cb","ios":"levelo://app?vid=985b6a4a-f326-407b-9c5a-497fce1eb6cb"},"vehicle_type_id":"4","last_reported":1758784243,"current_range_meters":9600,"station_id":"ce4bhn92rcd13ifvqgrg","pricing_plan_id":"cebpf4jnsgd1na2vs0mg"},{"bike_id":"e8c6e97d-cff4-4ccc-a110-963897e52446","system_id":"levelo_inurba_marseille","lat":43.25928,"lon":5.40935,"is_reserved":false,"is_disabled":true,"rental_uris":{"android":"levelo://app?vid=e8c6e97d-cff4-4ccc-a110-963897e52446","ios":"levelo://app?vid=e8c6e97d-cff4-4ccc-a110-963897e52446"},"vehicle_type_id":"4","last_reported":1758784243,"current_range_meters":10800,"station_id":"ce4bhm92rcd13ifvqglg","pricing_plan_id":"cebpf4jnsgd1na2vs0mg"},{"bike_id":"514b5fdb-f81d-41c3-afe2-e88866964916","system_id":"levelo_inurba_marseille","lat":43.2511,"lon":5.39526,"is_reserved":false,"is_disabled":true,"rental_uris":{"android":"levelo://app?vid=514b5fdb-f81d-41c3-afe2-e88866964916","ios":"levelo://app?vid=514b5fdb-f81d-41c3-afe2-e88866964916"},"vehicle_type_id":"4","last_reported":1758784243,"current_range_meters":10800,"station_id":"ce4bhm12rcd13ifvqgkg","pricing_plan_id":"cebpf4jnsgd1na2vs0mg"},{"bike_id":"9d3a1f3b-9f72-43df-bb3c-64f9814c6cf2","system_id":"levelo_inurba_marseille","lat":43.33603,"lon":5.41038,"is_reserved":false,"is_disabled":false,"rental_uris":{"android":"levelo://app?vid=9d3a1f3b-9f72-43df-bb3c-64f9814c6cf2","ios":"levelo://app?vid=9d3a1f3b-9f72-43df-bb3c-64f9814c6cf2"},"vehicle_type_id":"4","last_reported":1758784243,"current_range_meters":10800,"station_id":"ce4bhqh2rcd13ifvqhmg","pricing_plan_id":"cebpf4jnsgd1na2vs0mg"},{"bike_id":"5ce576e1-5a8a-4407-9d3e-39d6005fe7f6","system_id":"levelo_inurba_marseille","lat":43.24539,"lon":5.39525,"is_reserved":false,"is_disabled":false,"rental_uris":{"android":"levelo://app?vid=5ce576e1-5a8a-4407-9d3e-39d6005fe7f6","ios":"levelo://app?vid=5ce576e1-5a8a-4407-9d3e-39d6005fe7f6"},"vehicle_type_id":"4","last_reported":1758784243,"current_range_meters":10800,"station_id":"ce4bhlp2rcd13ifvqgjg","pricing_plan_id":"cebpf4jnsgd1na2vs0mg"},{"bike_id":"d916c420-f032-4b9a-b23d-f63c79747ecc","system_id":"levelo_inurba_marseille","lat":43.258241,"lon":5.39439,"is_reserved":false,"is_disabled":false,"rental_uris":{"android":"levelo://app?vid=d916c420-f032-4b9a-b23d-f63c79747ecc","ios":"levelo://app?vid=d916c420-f032-4b9a-b23d-f63c79747ecc"},"vehicle_type_id":"4","last_reported":1758784243,"current_range_meters":10800,"station_id":"ce4bhip2rcd13ifvqft0","pricing_plan_id":"cebpf4jnsgd1na2vs0mg"},{"bike_id":"eda92ad9-8a94-47a4-b32a-5decc62a9136","system_id":"levelo_inurba_marseille","lat":43.337444,"lon":5.374475,"is_reserved":false,"is_disabled":true,"rental_uris":{"android":"levelo://app?vid=eda92ad9-8a94-47a4-b32a-5decc62a9136","ios":"levelo://app?vid=eda92ad9-8a94-47a4-b32a-5decc62a9136"},"vehicle_type_id":"4","last_reported":1758784243,"current_range_meters":10800,"station_id":"","pricing_plan_id":"cebpf4jnsgd1na2vs0mg"},{"bike_id":"c8637c17-e495-4fed-a145-df5590e10632","system_id":"levelo_inurba_marseille","lat":43.73996,"lon":5.101144,"is_reserved":false,"is_disabled":false,"rental_uris":{"android":"levelo://app?vid=c8637c17-e495-4fed-a145-df5590e10632","ios":"levelo://app?vid=c8637c17-e495-4fed-a145-df5590e10632"},"vehicle_type_id":"4","last_reported":1758784243,"current_range_meters":10000,"station_id":"ce4bho12rcd13ifvqh2g","pricing_plan_id":"cebpf4jnsgd1na2vs0mg"},{"bike_id":"8cc5fb18-4f42-4bdf-81d2-6092fb84ea6c","system_id":"levelo_inurba_marseille","lat":43.27496,"lon":5.42458,"is_reserved":false,"is_disabled":false,"rental_uris":{"android":"levelo://app?vid=8cc5fb18-4f42-4bdf-81d2-6092fb84ea6c","ios":"levelo://app?vid=8cc5fb18-4f42-4bdf-81d2-6092fb84ea6c"},"vehicle_type_id":"4","last_reported":1758784243,"current_range_meters":10800,"station_id":"ce4bhn92rcd13ifvqgrg","pricing_plan_id":"cebpf4jnsgd1na2vs0mg"},{"bike_id":"cefe824f-f105-4f13-9eba-8570b14ccab2","system_id":"levelo_inurba_marseille","lat":43.25941,"lon":5.40898,"is_reserved":false,"is_disabled":false,"rental_uris":{"android":"levelo://app?vid=cefe824f-f105-4f13-9eba-8570b14ccab2","ios":"levelo://app?vid=cefe824f-f105-4f13-9eba-8570b14ccab2"},"vehicle_type_id":"4","last_reported":1758784243,"current_range_meters":10800,"station_id":"ce4bhm92rcd13ifvqglg","pricing_plan_id":"cebpf4jnsgd1na2vs0mg"},{"bike_id":"db723ad1-5902-432d-a95f-69f497e76ee4","system_id":"levelo_inurba_marseille","lat":43.33609,"lon":5.41036,"is_reserved":false,"is_disabled":false,"rental_uris":{"android":"levelo://app?vid=db723ad1-5902-432d-a95f-69f497e76ee4","ios":"levelo://app?vid=db723ad1-5902-432d-a95f-69f497e76ee4"},"vehicle_type_id":"4","last_reported":1758784243,"current_range_meters":11200,"station_id":"ce4bhqh2rcd13ifvqhmg","pricing_plan_id":"cebpf4jnsgd1na2vs0mg"},{"bike_id":"b3e95158-1f24-4a27-a73a-d79e0a465478","system_id":"levelo_inurba_marseille","lat":43.24074,"lon":5.37756,"is_reserved":false,"is_disabled":false,"rental_uris":{"android":"levelo://app?vid=b3e95158-1f24-4a27-a73a-d79e0a465478","ios":"levelo://app?vid=b3e95158-1f24-4a27-a73a-d79e0a465478"},"vehicle_type_id":"4","last_reported":1758784243,"current_range_meters":11200,"station_id":"ce4bhnp2rcd13ifvqgvg","pricing_plan_id":"cebpf4jnsgd1na2vs0mg"},{"bike_id":"ef00c611-56e3-4d87-83a8-6fad9627913a","system_id":"levelo_inurba_marseille","lat":43.308894,"lon":5.371943,"is_reserved":false,"is_disabled":false,"rental_uris":{"android":"levelo://app?vid=ef00c611-56e3-4d87-83a8-6fad9627913a","ios":"levelo://app?vid=ef00c611-56e3-4d87-83a8-6fad9627913a"},"vehicle_type_id":"4","last_reported":1758784243,"current_range_meters":11200,"station_id":"ce4bguh2rcd13ifvqckg","pricing_plan_id":"cebpf4jnsgd1na2vs0mg"},{"bike_id":"2920338a-f4a9-41d2-ae72-2cc4e5251ce8","system_id":"levelo_inurba_marseille","lat":43.30156,"lon":5.38086,"is_reserved":false,"is_disabled":false,"rental_uris":{"android":"levelo://app?vid=2920338a-f4a9-41d2-ae72-2cc4e5251ce8","ios":"levelo://app?vid=2920338a-f4a9-41d2-ae72-2cc4e5251ce8"},"vehicle_type_id":"4","last_reported":1758784243,"current_range_meters":11200,"station_id":"ce4bgjp2rcd13ifvqbh0","pricing_plan_id":"cebpf4jnsgd1na2vs0mg"},{"bike_id":"180964ab-854b-4723-8e34-976bba8f39e3","system_id":"levelo_inurba_marseille","lat":43.23144,"lon":5.43737,"is_reserved":false,"is_disabled":false,"rental_uris":{"android":"levelo://app?vid=180964ab-854b-4723-8e34-976bba8f39e3","ios":"levelo://app?vid=180964ab-854b-4723-8e34-976bba8f39e3"},"vehicle_type_id":"4","last_reported":1758784243,"current_range_meters":11200,"station_id":"ce4bhmp2rcd13ifvqgog","pricing_plan_id":"cebpf4jnsgd1na2vs0mg"},{"bike_id":"e19472f1-87e0-4943-97f3-e785d2a10054","system_id":"levelo_inurba_marseille","lat":43.28852,"lon":5.42523,"is_reserved":false,"is_disabled":false,"rental_uris":{"android":"levelo://app?vid=e19472f1-87e0-4943-97f3-e785d2a10054","ios":"levelo://app?vid=e19472f1-87e0-4943-97f3-e785d2a10054"},"vehicle_type_id":"4","last_reported":1758784243,"current_range_meters":11200,"station_id":"","pricing_plan_id":"cebpf4jnsgd1na2vs0mg"},{"bike_id":"3a83ddcd-ce03-4ed4-a7fa-b273c2464f02","system_id":"levelo_inurba_marseille","lat":43.27952,"lon":5.36335,"is_reserved":false,"is_disabled":false,"rental_uris":{"android":"levelo://app?vid=3a83ddcd-ce03-4ed4-a7fa-b273c2464f02","ios":"levelo://app?vid=3a83ddcd-ce03-4ed4-a7fa-b273c2464f02"},"vehicle_type_id":"4","last_reported":1758784243,"current_range_meters":11200,"station_id":"","pricing_plan_id":"cebpf4jnsgd1na2vs0mg"},{"bike_id":"16cee2f9-0604-4f00-85ee-c5690b0410f0","system_id":"levelo_inurba_marseille","lat":43.28614,"lon":5.351,"is_reserved":false,"is_disabled":false,"rental_uris":{"android":"levelo://app?vid=16cee2f9-0604-4f00-85ee-c5690b0410f0","ios":"levelo://app?vid=16cee2f9-0604-4f00-85ee-c5690b0410f0"},"vehicle_type_id":"4","last_reported":1758784243,"current_range_meters":11200,"station_id":"ce4bhch2rcd13ifvqeug","pricing_plan_id":"cebpf4jnsgd1na2vs0mg"},{"bike_id":"57b14c92-2a17-45b3-beb1-cbb460ef441b","system_id":"levelo_inurba_marseille","lat":43.23171,"lon":5.39999,"is_reserved":false,"is_disabled":false,"rental_uris":{"android":"levelo://app?vid=57b14c92-2a17-45b3-beb1-cbb460ef441b","ios":"levelo://app?vid=57b14c92-2a17-45b3-beb1-cbb460ef441b"},"vehicle_type_id":"4","last_reported":1758784243,"current_range_meters":11600,"station_id":"ce4bhn12rcd13ifvqgqg","pricing_plan_id":"cebpf4jnsgd1na2vs0mg"},{"bike_id":"17b6e890-308f-4e08-9acd-7090f69670ec","system_id":"levelo_inurba_marseille","lat":43.312849,"lon":5.368374,"is_reserved":false,"is_disabled":false,"rental_uris":{"android":"levelo://app?vid=17b6e890-308f-4e08-9acd-7090f69670ec","ios":"levelo://app?vid=17b6e890-308f-4e08-9acd-7090f69670ec"},"vehicle_type_id":"4","last_reported":1758784243,"current_range_meters":11600,"station_id":"ce4bgl92rcd13ifvqbq0","pricing_plan_id":"cebpf4jnsgd1na2vs0mg"},{"bike_id":"d2be082e-bd73-4203-addb-18871b3a9587","system_id":"levelo_inurba_marseille","lat":43.29416,"lon":5.37493,"is_reserved":false,"is_disabled":false,"rental_uris":{"android":"levelo://app?vid=d2be082e-bd73-4203-addb-18871b3a9587","ios":"levelo://app?vid=d2be082e-bd73-4203-addb-18871b3a9587"},"vehicle_type_id":"4","last_reported":1758784243,"current_range_meters":11600,"station_id":"","pricing_plan_id":"cebpf4jnsgd1na2vs0mg"},{"bike_id":"27f3f393-b63a-410a-bb41-b3580b9f722d","system_id":"levelo_inurba_marseille","lat":43.30905,"lon":5.36843,"is_reserved":false,"is_disabled":false,"rental_uris":{"android":"levelo://app?vid=27f3f393-b63a-410a-bb41-b3580b9f722d","ios":"levelo://app?vid=27f3f393-b63a-410a-bb41-b3580b9f722d"},"vehicle_type_id":"4","last_reported":1758784243,"current_range_meters":11600,"station_id":"ce4bgn92rcd13ifvqbvg","pricing_plan_id":"cebpf4jnsgd1na2vs0mg"},{"bike_id":"b53bf81f-76c4-4feb-b644-5de64af5e954","system_id":"levelo_inurba_marseille","lat":43.27352,"lon":5.42404,"is_reserved":false,"is_disabled":true,"rental_uris":{"android":"levelo://app?vid=b53bf81f-76c4-4feb-b644-5de64af5e954","ios":"levelo://app?vid=b53bf81f-76c4-4feb-b644-5de64af5e954"},"vehicle_type_id":"4","last_reported":1758784243,"current_range_meters":11600,"station_id":"","pricing_plan_id":"cebpf4jnsgd1na2vs0mg"},{"bike_id":"2edaff00-298a-43bb-9b1b-fbee07f158c1","system_id":"levelo_inurba_marseille","lat":43.321,"lon":5.36757,"is_reserved":false,"is_disabled":false,"rental_uris":{"android":"levelo://app?vid=2edaff00-298a-43bb-9b1b-fbee07f158c1","ios":"levelo://app?vid=2edaff00-298a-43bb-9b1b-fbee07f158c1"},"vehicle_type_id":"4","last_reported":1758784243,"current_range_meters":11600,"station_id":"ce4bhrh2rcd13ifvqhug","pricing_plan_id":"cebpf4jnsgd1na2vs0mg"},{"bike_id":"9486ee68-de2b-4dd7-bbde-04e41f847d5d","system_id":"levelo_inurba_marseille","lat":43.269279,"lon":5.389272,"is_reserved":false,"is_disabled":false,"rental_uris":{"android":"levelo://app?vid=9486ee68-de2b-4dd7-bbde-04e41f847d5d","ios":"levelo://app?vid=9486ee68-de2b-4dd7-bbde-04e41f847d5d"},"vehicle_type_id":"4","last_reported":1758784243,"current_range_meters":12000,"station_id":"ce4bhhh2rcd13ifvqfl0","pricing_plan_id":"cebpf4jnsgd1na2vs0mg"},{"bike_id":"3cb1dae7-6bcd-41e5-b1b7-c1d25c751a99","system_id":"levelo_inurba_marseille","lat":43.337594,"lon":5.374419,"is_reserved":false,"is_disabled":false,"rental_uris":{"android":"levelo://app?vid=3cb1dae7-6bcd-41e5-b1b7-c1d25c751a99","ios":"levelo://app?vid=3cb1dae7-6bcd-41e5-b1b7-c1d25c751a99"},"vehicle_type_id":"4","last_reported":1758784243,"current_range_meters":12000,"station_id":"","pricing_plan_id":"cebpf4jnsgd1na2vs0mg"},{"bike_id":"eb66878b-353d-4ca8-bda1-de1f6e30ff3a","system_id":"levelo_inurba_marseille","lat":43.30945,"lon":5.39034,"is_reserved":false,"is_disabled":false,"rental_uris":{"android":"levelo://app?vid=eb66878b-353d-4ca8-bda1-de1f6e30ff3a","ios":"levelo://app?vid=eb66878b-353d-4ca8-bda1-de1f6e30ff3a"},"vehicle_type_id":"4","last_reported":1758784243,"current_range_meters":12000,"station_id":"ce4bgup2rcd13ifvqco0","pricing_plan_id":"cebpf4jnsgd1na2vs0mg"},{"bike_id":"9de4d60d-7948-4741-899d-b39b0db37ad8","system_id":"levelo_inurba_marseille","lat":43.290428,"lon":5.399535,"is_reserved":false,"is_disabled":false,"rental_uris":{"android":"levelo://app?vid=9de4d60d-7948-4741-899d-b39b0db37ad8","ios":"levelo://app?vid=9de4d60d-7948-4741-899d-b39b0db37ad8"},"vehicle_type_id":"4","last_reported":1758784243,"current_range_meters":12000,"station_id":"ce4bh392rcd13ifvqdm0","pricing_plan_id":"cebpf4jnsgd1na2vs0mg"},{"bike_id":"0e9ca394-4351-4bf8-a641-f4e5215baf20","system_id":"levelo_inurba_marseille","lat":43.28276,"lon":5.35067,"is_reserved":false,"is_disabled":true,"rental_uris":{"android":"levelo://app?vid=0e9ca394-4351-4bf8-a641-f4e5215baf20","ios":"levelo://app?vid=0e9ca394-4351-4bf8-a641-f4e5215baf20"},"vehicle_type_id":"4","last_reported":1758784243,"current_range_meters":12000,"station_id":"ce4bhbp2rcd13ifvqerg","pricing_plan_id":"cebpf4jnsgd1na2vs0mg"},{"bike_id":"002673c7-e49b-40c2-82da-6cf2f4393eb8","system_id":"levelo_inurba_marseille","lat":43.30466,"lon":5.37903,"is_reserved":false,"is_disabled":true,"rental_uris":{"android":"levelo://app?vid=002673c7-e49b-40c2-82da-6cf2f4393eb8","ios":"levelo://app?vid=002673c7-e49b-40c2-82da-6cf2f4393eb8"},"vehicle_type_id":"4","last_reported":1758784243,"current_range_meters":12000,"station_id":"ce4bgup2rcd13ifvqcn0","pricing_plan_id":"cebpf4jnsgd1na2vs0mg"},{"bike_id":"107e215b-4b6d-484a-b03f-b1bb804cfa98","system_id":"levelo_inurba_marseille","lat":43.32535,"lon":5.41448,"is_reserved":false,"is_disabled":false,"rental_uris":{"android":"levelo://app?vid=107e215b-4b6d-484a-b03f-b1bb804cfa98","ios":"levelo://app?vid=107e215b-4b6d-484a-b03f-b1bb804cfa98"},"vehicle_type_id":"4","last_reported":1758784243,"current_range_meters":12000,"station_id":"ce4bhq12rcd13ifvqhhg","pricing_plan_id":"cebpf4jnsgd1na2vs0mg"},{"bike_id":"e63016fb-c641-4bba-99e9-c10fbfaa54dc","system_id":"levelo_inurba_marseille","lat":43.312546,"lon":5.371744,"is_reserved":false,"is_disabled":false,"rental_uris":{"android":"levelo://app?vid=e63016fb-c641-4bba-99e9-c10fbfaa54dc","ios":"levelo://app?vid=e63016fb-c641-4bba-99e9-c10fbfaa54dc"},"vehicle_type_id":"4","last_reported":1758784243,"current_range_meters":12000,"station_id":"ce4bhs12rcd13ifvqhvg","pricing_plan_id":"cebpf4jnsgd1na2vs0mg"},{"bike_id":"c34cd464-5d4b-462e-a363-5b3baac95668","system_id":"levelo_inurba_marseille","lat":43.33777,"lon":5.37418,"is_reserved":false,"is_disabled":false,"rental_uris":{"android":"levelo://app?vid=c34cd464-5d4b-462e-a363-5b3baac95668","ios":"levelo://app?vid=c34cd464-5d4b-462e-a363-5b3baac95668"},"vehicle_type_id":"4","last_reported":1758784243,"current_range_meters":12000,"station_id":"","pricing_plan_id":"cebpf4jnsgd1na2vs0mg"},{"bike_id":"eb5d1eb1-9132-4acd-b318-e3869271baf2","system_id":"levelo_inurba_marseille","lat":43.3248,"lon":5.36574,"is_reserved":false,"is_disabled":false,"rental_uris":{"android":"levelo://app?vid=eb5d1eb1-9132-4acd-b318-e3869271baf2","ios":"levelo://app?vid=eb5d1eb1-9132-4acd-b318-e3869271baf2"},"vehicle_type_id":"4","last_reported":1758784243,"current_range_meters":12000,"station_id":"ce4bhs12rcd13ifvqhvg","pricing_plan_id":"cebpf4jnsgd1na2vs0mg"},{"bike_id":"ad9a6248-1b43-4fc5-bfba-44f7d3067aab","system_id":"levelo_inurba_marseille","lat":43.21191,"lon":5.35082,"is_reserved":false,"is_disabled":false,"rental_uris":{"android":"levelo://app?vid=ad9a6248-1b43-4fc5-bfba-44f7d3067aab","ios":"levelo://app?vid=ad9a6248-1b43-4fc5-bfba-44f7d3067aab"},"vehicle_type_id":"4","last_reported":1758784243,"current_range_meters":12000,"station_id":"st_cvj6sg6p6f1abm77japg","pricing_plan_id":"cebpf4jnsgd1na2vs0mg"},{"bike_id":"8584eb3e-f7b4-4300-97fe-005a37d8d75b","system_id":"levelo_inurba_marseille","lat":43.367631,"lon":5.363164,"is_reserved":false,"is_disabled":false,"rental_uris":{"android":"levelo://app?vid=8584eb3e-f7b4-4300-97fe-005a37d8d75b","ios":"levelo://app?vid=8584eb3e-f7b4-4300-97fe-005a37d8d75b"},"vehicle_type_id":"4","last_reported":1758784243,"current_range_meters":12000,"station_id":"","pricing_plan_id":"cebpf4jnsgd1na2vs0mg"},{"bike_id":"cd47ff18-b4a0-4217-850e-5a93a6ae064a","system_id":"levelo_inurba_marseille","lat":43.29021,"lon":5.38132,"is_reserved":false,"is_disabled":false,"rental_uris":{"android":"levelo://app?vid=cd47ff18-b4a0-4217-850e-5a93a6ae064a","ios":"levelo://app?vid=cd47ff18-b4a0-4217-850e-5a93a6ae064a"},"vehicle_type_id":"4","last_reported":1758784243,"current_range_meters":12000,"station_id":"ce4bh4p2rcd13ifvqe1g","pricing_plan_id":"cebpf4jnsgd1na2vs0mg"},{"bike_id":"6f747660-8c20-4dda-9cd6-0e2730641d78","system_id":"levelo_inurba_marseille","lat":43.31217,"lon":5.36859,"is_reserved":false,"is_disabled":false,"rental_uris":{"android":"levelo://app?vid=6f747660-8c20-4dda-9cd6-0e2730641d78","ios":"levelo://app?vid=6f747660-8c20-4dda-9cd6-0e2730641d78"},"vehicle_type_id":"4","last_reported":1758784243,"current_range_meters":12400,"station_id":"ce4bgl92rcd13ifvqbq0","pricing_plan_id":"cebpf4jnsgd1na2vs0mg"},{"bike_id":"8eae954c-dab6-4303-94f5-569e1c483f62","system_id":"levelo_inurba_marseille","lat":43.29448,"lon":5.4077,"is_reserved":false,"is_disabled":false,"rental_uris":{"android":"levelo://app?vid=8eae954c-dab6-4303-94f5-569e1c483f62","ios":"levelo://app?vid=8eae954c-dab6-4303-94f5-569e1c483f62"},"vehicle_type_id":"4","last_reported":1758784243,"current_range_meters":12400,"station_id":"","pricing_plan_id":"cebpf4jnsgd1na2vs0mg"},{"bike_id":"0334c664-c853-4f38-a46f-30751b2874a4","system_id":"levelo_inurba_marseille","lat":43.2904,"lon":5.3592,"is_reserved":false,"is_disabled":true,"rental_uris":{"android":"levelo://app?vid=0334c664-c853-4f38-a46f-30751b2874a4","ios":"levelo://app?vid=0334c664-c853-4f38-a46f-30751b2874a4"},"vehicle_type_id":"4","last_reported":1758784243,"current_range_meters":12400,"station_id":"ce4bha92rcd13ifvqeg0","pricing_plan_id":"cebpf4jnsgd1na2vs0mg"},{"bike_id":"0791e2d5-da66-4533-a35f-88d4525a65fd","system_id":"levelo_inurba_marseille","lat":43.30151,"lon":5.38082,"is_reserved":false,"is_disabled":false,"rental_uris":{"android":"levelo://app?vid=0791e2d5-da66-4533-a35f-88d4525a65fd","ios":"levelo://app?vid=0791e2d5-da66-4533-a35f-88d4525a65fd"},"vehicle_type_id":"4","last_reported":1758784243,"current_range_meters":12400,"station_id":"ce4bgjp2rcd13ifvqbh0","pricing_plan_id":"cebpf4jnsgd1na2vs0mg"},{"bike_id":"3ded841e-30ff-49f2-8f2b-964ea55a5690","system_id":"levelo_inurba_marseille","lat":43.27495,"lon":5.42467,"is_reserved":false,"is_disabled":false,"rental_uris":{"android":"levelo://app?vid=3ded841e-30ff-49f2-8f2b-964ea55a5690","ios":"levelo://app?vid=3ded841e-30ff-49f2-8f2b-964ea55a5690"},"vehicle_type_id":"4","last_reported":1758784243,"current_range_meters":12400,"station_id":"ce4bhn92rcd13ifvqgrg","pricing_plan_id":"cebpf4jnsgd1na2vs0mg"},{"bike_id":"e572fab3-c689-4e56-ae5e-3cbdf7730069","system_id":"levelo_inurba_marseille","lat":43.25939,"lon":5.40915,"is_reserved":false,"is_disabled":false,"rental_uris":{"android":"levelo://app?vid=e572fab3-c689-4e56-ae5e-3cbdf7730069","ios":"levelo://app?vid=e572fab3-c689-4e56-ae5e-3cbdf7730069"},"vehicle_type_id":"4","last_reported":1758784243,"current_range_meters":12400,"station_id":"ce4bhm92rcd13ifvqglg","pricing_plan_id":"cebpf4jnsgd1na2vs0mg"},{"bike_id":"f9af076b-c426-46f0-97f6-f6a5a530c8e2","system_id":"levelo_inurba_marseille","lat":43.33212,"lon":5.3988,"is_reserved":false,"is_disabled":false,"rental_uris":{"android":"levelo://app?vid=f9af076b-c426-46f0-97f6-f6a5a530c8e2","ios":"levelo://app?vid=f9af076b-c426-46f0-97f6-f6a5a530c8e2"},"vehicle_type_id":"4","last_reported":1758784243,"current_range_meters":12400,"station_id":"","pricing_plan_id":"cebpf4jnsgd1na2vs0mg"},{"bike_id":"d25a7e98-5372-4086-9b32-8462bc691f38","system_id":"levelo_inurba_marseille","lat":43.2315,"lon":5.43712,"is_reserved":false,"is_disabled":false,"rental_uris":{"android":"levelo://app?vid=d25a7e98-5372-4086-9b32-8462bc691f38","ios":"levelo://app?vid=d25a7e98-5372-4086-9b32-8462bc691f38"},"vehicle_type_id":"4","last_reported":1758784243,"current_range_meters":12400,"station_id":"ce4bhmp2rcd13ifvqgog","pricing_plan_id":"cebpf4jnsgd1na2vs0mg"},{"bike_id":"0f1a4732-5d6e-448c-acb8-9a3c982191d2","system_id":"levelo_inurba_marseille","lat":43.29536,"lon":5.39026,"is_reserved":false,"is_disabled":false,"rental_uris":{"android":"levelo://app?vid=0f1a4732-5d6e-448c-acb8-9a3c982191d2","ios":"levelo://app?vid=0f1a4732-5d6e-448c-acb8-9a3c982191d2"},"vehicle_type_id":"4","last_reported":1758784243,"current_range_meters":12800,"station_id":"ce4bh3p2rcd13ifvqdp0","pricing_plan_id":"cebpf4jnsgd1na2vs0mg"},{"bike_id":"d8d6f31a-c510-424a-9731-839758fd1c1d","system_id":"levelo_inurba_marseille","lat":43.24645,"lon":5.38952,"is_reserved":false,"is_disabled":false,"rental_uris":{"android":"levelo://app?vid=d8d6f31a-c510-424a-9731-839758fd1c1d","ios":"levelo://app?vid=d8d6f31a-c510-424a-9731-839758fd1c1d"},"vehicle_type_id":"4","last_reported":1758784243,"current_range_meters":12800,"station_id":"ce4bhg12rcd13ifvqf60","pricing_plan_id":"cebpf4jnsgd1na2vs0mg"},{"bike_id":"07a3d4c7-1e16-4294-ac54-213740c507f1","system_id":"levelo_inurba_marseille","lat":43.30948,"lon":5.39038,"is_reserved":false,"is_disabled":false,"rental_uris":{"android":"levelo://app?vid=07a3d4c7-1e16-4294-ac54-213740c507f1","ios":"levelo://app?vid=07a3d4c7-1e16-4294-ac54-213740c507f1"},"vehicle_type_id":"4","last_reported":1758784243,"current_range_meters":12400,"station_id":"ce4bgup2rcd13ifvqco0","pricing_plan_id":"cebpf4jnsgd1na2vs0mg"},{"bike_id":"10ef4df9-8c67-46e8-8a7e-0888744bb3f2","system_id":"levelo_inurba_marseille","lat":43.2408,"lon":5.37754,"is_reserved":false,"is_disabled":false,"rental_uris":{"android":"levelo://app?vid=10ef4df9-8c67-46e8-8a7e-0888744bb3f2","ios":"levelo://app?vid=10ef4df9-8c67-46e8-8a7e-0888744bb3f2"},"vehicle_type_id":"4","last_reported":1758784243,"current_range_meters":12800,"station_id":"ce4bhnp2rcd13ifvqgvg","pricing_plan_id":"cebpf4jnsgd1na2vs0mg"},{"bike_id":"f5c852b2-548c-4ba5-a23e-58341d1949a6","system_id":"levelo_inurba_marseille","lat":43.21747,"lon":5.34618,"is_reserved":false,"is_disabled":false,"rental_uris":{"android":"levelo://app?vid=f5c852b2-548c-4ba5-a23e-58341d1949a6","ios":"levelo://app?vid=f5c852b2-548c-4ba5-a23e-58341d1949a6"},"vehicle_type_id":"4","last_reported":1758784243,"current_range_meters":12800,"station_id":"st_cvj6r9ubvosntc0bgbag","pricing_plan_id":"cebpf4jnsgd1na2vs0mg"},{"bike_id":"6e8d53eb-fa13-49d1-8109-4082efd89ceb","system_id":"levelo_inurba_marseille","lat":43.30482,"lon":5.37917,"is_reserved":false,"is_disabled":false,"rental_uris":{"android":"levelo://app?vid=6e8d53eb-fa13-49d1-8109-4082efd89ceb","ios":"levelo://app?vid=6e8d53eb-fa13-49d1-8109-4082efd89ceb"},"vehicle_type_id":"4","last_reported":1758784243,"current_range_meters":12800,"station_id":"ce4bgup2rcd13ifvqcn0","pricing_plan_id":"cebpf4jnsgd1na2vs0mg"},{"bike_id":"29745861-e9c1-453c-8b33-c1ef78b0c553","system_id":"levelo_inurba_marseille","lat":43.30142,"lon":5.37422,"is_reserved":false,"is_disabled":false,"rental_uris":{"android":"levelo://app?vid=29745861-e9c1-453c-8b33-c1ef78b0c553","ios":"levelo://app?vid=29745861-e9c1-453c-8b33-c1ef78b0c553"},"vehicle_type_id":"4","last_reported":1758784243,"current_range_meters":12800,"station_id":"ce4bgs92rcd13ifvqcc0","pricing_plan_id":"cebpf4jnsgd1na2vs0mg"},{"bike_id":"a6ad0c6c-868d-42f3-ba54-573e1a175a36","system_id":"levelo_inurba_marseille","lat":43.26272,"lon":5.41284,"is_reserved":false,"is_disabled":false,"rental_uris":{"android":"levelo://app?vid=a6ad0c6c-868d-42f3-ba54-573e1a175a36","ios":"levelo://app?vid=a6ad0c6c-868d-42f3-ba54-573e1a175a36"},"vehicle_type_id":"4","last_reported":1758784243,"current_range_meters":12800,"station_id":"","pricing_plan_id":"cebpf4jnsgd1na2vs0mg"},{"bike_id":"bdec3261-de13-477f-818b-7af8ae1d1f6a","system_id":"levelo_inurba_marseille","lat":43.23964,"lon":5.37682,"is_reserved":false,"is_disabled":false,"rental_uris":{"android":"levelo://app?vid=bdec3261-de13-477f-818b-7af8ae1d1f6a","ios":"levelo://app?vid=bdec3261-de13-477f-818b-7af8ae1d1f6a"},"vehicle_type_id":"4","last_reported":1758784243,"current_range_meters":13600,"station_id":"","pricing_plan_id":"cebpf4jnsgd1na2vs0mg"},{"bike_id":"cfb06f15-a9e5-4228-89a1-36be08151eaa","system_id":"levelo_inurba_marseille","lat":43.29805,"lon":5.38108,"is_reserved":false,"is_disabled":false,"rental_uris":{"android":"levelo://app?vid=cfb06f15-a9e5-4228-89a1-36be08151eaa","ios":"levelo://app?vid=cfb06f15-a9e5-4228-89a1-36be08151eaa"},"vehicle_type_id":"4","last_reported":1758784243,"current_range_meters":13600,"station_id":"ce4bgip2rcd13ifvqbb0","pricing_plan_id":"cebpf4jnsgd1na2vs0mg"},{"bike_id":"a7f90678-07c2-4f03-8a02-e1b4554e0a14","system_id":"levelo_inurba_marseille","lat":43.31249,"lon":5.36875,"is_reserved":false,"is_disabled":false,"rental_uris":{"android":"levelo://app?vid=a7f90678-07c2-4f03-8a02-e1b4554e0a14","ios":"levelo://app?vid=a7f90678-07c2-4f03-8a02-e1b4554e0a14"},"vehicle_type_id":"4","last_reported":1758784243,"current_range_meters":13600,"station_id":"ce4bgl92rcd13ifvqbq0","pricing_plan_id":"cebpf4jnsgd1na2vs0mg"},{"bike_id":"4772b595-ae6b-4383-8677-84c89d05c370","system_id":"levelo_inurba_marseille","lat":43.24074,"lon":5.37746,"is_reserved":false,"is_disabled":false,"rental_uris":{"android":"levelo://app?vid=4772b595-ae6b-4383-8677-84c89d05c370","ios":"levelo://app?vid=4772b595-ae6b-4383-8677-84c89d05c370"},"vehicle_type_id":"4","last_reported":1758784243,"current_range_meters":13600,"station_id":"ce4bhnp2rcd13ifvqgvg","pricing_plan_id":"cebpf4jnsgd1na2vs0mg"},{"bike_id":"003515e8-8117-44bb-979d-5f47e8d50fda","system_id":"levelo_inurba_marseille","lat":43.30611,"lon":5.3754,"is_reserved":false,"is_disabled":false,"rental_uris":{"android":"levelo://app?vid=003515e8-8117-44bb-979d-5f47e8d50fda","ios":"levelo://app?vid=003515e8-8117-44bb-979d-5f47e8d50fda"},"vehicle_type_id":"4","last_reported":1758784243,"current_range_meters":14000,"station_id":"","pricing_plan_id":"cebpf4jnsgd1na2vs0mg"},{"bike_id":"4a0cc4d0-7096-4b7a-9ad6-3ce2fc5c74df","system_id":"levelo_inurba_marseille","lat":43.26681,"lon":5.38274,"is_reserved":false,"is_disabled":false,"rental_uris":{"android":"levelo://app?vid=4a0cc4d0-7096-4b7a-9ad6-3ce2fc5c74df","ios":"levelo://app?vid=4a0cc4d0-7096-4b7a-9ad6-3ce2fc5c74df"},"vehicle_type_id":"4","last_reported":1758784243,"current_range_meters":13600,"station_id":"ce4bhg92rcd13ifvqf90","pricing_plan_id":"cebpf4jnsgd1na2vs0mg"},{"bike_id":"ea8d0177-eedf-42b9-895a-a8a8b2bbc1f2","system_id":"levelo_inurba_marseille","lat":43.32109,"lon":5.36808,"is_reserved":false,"is_disabled":false,"rental_uris":{"android":"levelo://app?vid=ea8d0177-eedf-42b9-895a-a8a8b2bbc1f2","ios":"levelo://app?vid=ea8d0177-eedf-42b9-895a-a8a8b2bbc1f2"},"vehicle_type_id":"4","last_reported":1758784243,"current_range_meters":14000,"station_id":"ce4bhrh2rcd13ifvqhug","pricing_plan_id":"cebpf4jnsgd1na2vs0mg"},{"bike_id":"429b97eb-f7cc-4d35-b219-e8e26e3f47e0","system_id":"levelo_inurba_marseille","lat":43.27383,"lon":5.3626,"is_reserved":false,"is_disabled":false,"rental_uris":{"android":"levelo://app?vid=429b97eb-f7cc-4d35-b219-e8e26e3f47e0","ios":"levelo://app?vid=429b97eb-f7cc-4d35-b219-e8e26e3f47e0"},"vehicle_type_id":"4","last_reported":1758784243,"current_range_meters":14000,"station_id":"ce4bhbh2rcd13ifvqeo0","pricing_plan_id":"cebpf4jnsgd1na2vs0mg"},{"bike_id":"2bd2a176-8590-4e06-8b8c-a96b49b7b36a","system_id":"levelo_inurba_marseille","lat":43.262237,"lon":5.404538,"is_reserved":false,"is_disabled":false,"rental_uris":{"android":"levelo://app?vid=2bd2a176-8590-4e06-8b8c-a96b49b7b36a","ios":"levelo://app?vid=2bd2a176-8590-4e06-8b8c-a96b49b7b36a"},"vehicle_type_id":"4","last_reported":1758784243,"current_range_meters":14000,"station_id":"","pricing_plan_id":"cebpf4jnsgd1na2vs0mg"},{"bike_id":"6ce97256-6e29-4ee4-b817-ac92bdd5aea1","system_id":"levelo_inurba_marseille","lat":43.22534,"lon":5.34835,"is_reserved":false,"is_disabled":false,"rental_uris":{"android":"levelo://app?vid=6ce97256-6e29-4ee4-b817-ac92bdd5aea1","ios":"levelo://app?vid=6ce97256-6e29-4ee4-b817-ac92bdd5aea1"},"vehicle_type_id":"4","last_reported":1758784243,"current_range_meters":14000,"station_id":"","pricing_plan_id":"cebpf4jnsgd1na2vs0mg"},{"bike_id":"129c8450-4cca-4e9f-b9f6-538b0080ad49","system_id":"levelo_inurba_marseille","lat":43.32545,"lon":5.38883,"is_reserved":false,"is_disabled":false,"rental_uris":{"android":"levelo://app?vid=129c8450-4cca-4e9f-b9f6-538b0080ad49","ios":"levelo://app?vid=129c8450-4cca-4e9f-b9f6-538b0080ad49"},"vehicle_type_id":"4","last_reported":1758784243,"current_range_meters":14000,"station_id":"","pricing_plan_id":"cebpf4jnsgd1na2vs0mg"},{"bike_id":"1cc39c85-fde6-4c4e-90eb-faab84a42516","system_id":"levelo_inurba_marseille","lat":43.27208,"lon":5.39181,"is_reserved":false,"is_disabled":false,"rental_uris":{"android":"levelo://app?vid=1cc39c85-fde6-4c4e-90eb-faab84a42516","ios":"levelo://app?vid=1cc39c85-fde6-4c4e-90eb-faab84a42516"},"vehicle_type_id":"4","last_reported":1758784243,"current_range_meters":14000,"station_id":"ce4bhhp2rcd13ifvqfm0","pricing_plan_id":"cebpf4jnsgd1na2vs0mg"},{"bike_id":"6caa89c6-2658-4ac8-8d83-c6001f5f980c","system_id":"levelo_inurba_marseille","lat":43.25581,"lon":5.38258,"is_reserved":false,"is_disabled":false,"rental_uris":{"android":"levelo://app?vid=6caa89c6-2658-4ac8-8d83-c6001f5f980c","ios":"levelo://app?vid=6caa89c6-2658-4ac8-8d83-c6001f5f980c"},"vehicle_type_id":"4","last_reported":1758784243,"current_range_meters":14000,"station_id":"ce4bhih2rcd13ifvqfs0","pricing_plan_id":"cebpf4jnsgd1na2vs0mg"},{"bike_id":"207ddadf-d954-4789-b705-a807dbb8d0a0","system_id":"levelo_inurba_marseille","lat":43.29076,"lon":5.37176,"is_reserved":false,"is_disabled":false,"rental_uris":{"android":"levelo://app?vid=207ddadf-d954-4789-b705-a807dbb8d0a0","ios":"levelo://app?vid=207ddadf-d954-4789-b705-a807dbb8d0a0"},"vehicle_type_id":"4","last_reported":1758784243,"current_range_meters":13600,"station_id":"ce4bh5p2rcd13ifvqe4g","pricing_plan_id":"cebpf4jnsgd1na2vs0mg"},{"bike_id":"46923300-e0d3-40c1-8c76-7dadc761100f","system_id":"levelo_inurba_marseille","lat":43.29012,"lon":5.35641,"is_reserved":false,"is_disabled":false,"rental_uris":{"android":"levelo://app?vid=46923300-e0d3-40c1-8c76-7dadc761100f","ios":"levelo://app?vid=46923300-e0d3-40c1-8c76-7dadc761100f"},"vehicle_type_id":"4","last_reported":1758784243,"current_range_meters":14000,"station_id":"ce4bhb92rcd13ifvqen0","pricing_plan_id":"cebpf4jnsgd1na2vs0mg"},{"bike_id":"d1035cda-0828-4480-ab90-b06087f3ef72","system_id":"levelo_inurba_marseille","lat":43.25581,"lon":5.38267,"is_reserved":false,"is_disabled":false,"rental_uris":{"android":"levelo://app?vid=d1035cda-0828-4480-ab90-b06087f3ef72","ios":"levelo://app?vid=d1035cda-0828-4480-ab90-b06087f3ef72"},"vehicle_type_id":"4","last_reported":1758784243,"current_range_meters":14000,"station_id":"ce4bhih2rcd13ifvqfs0","pricing_plan_id":"cebpf4jnsgd1na2vs0mg"},{"bike_id":"212de2eb-8bbc-413c-b204-9fe1facd76e8","system_id":"levelo_inurba_marseille","lat":43.31255,"lon":5.37845,"is_reserved":false,"is_disabled":false,"rental_uris":{"android":"levelo://app?vid=212de2eb-8bbc-413c-b204-9fe1facd76e8","ios":"levelo://app?vid=212de2eb-8bbc-413c-b204-9fe1facd76e8"},"vehicle_type_id":"4","last_reported":1758784243,"current_range_meters":14000,"station_id":"","pricing_plan_id":"cebpf4jnsgd1na2vs0mg"},{"bike_id":"f0c5386a-9938-4d6a-81e8-14ec0c5e2580","system_id":"levelo_inurba_marseille","lat":43.31821,"lon":5.37714,"is_reserved":false,"is_disabled":false,"rental_uris":{"android":"levelo://app?vid=f0c5386a-9938-4d6a-81e8-14ec0c5e2580","ios":"levelo://app?vid=f0c5386a-9938-4d6a-81e8-14ec0c5e2580"},"vehicle_type_id":"4","last_reported":1758784243,"current_range_meters":14000,"station_id":"","pricing_plan_id":"cebpf4jnsgd1na2vs0mg"},{"bike_id":"85b270f1-cec7-4662-80a3-06a08fccb2fb","system_id":"levelo_inurba_marseille","lat":43.291757,"lon":5.37158,"is_reserved":false,"is_disabled":false,"rental_uris":{"android":"levelo://app?vid=85b270f1-cec7-4662-80a3-06a08fccb2fb","ios":"levelo://app?vid=85b270f1-cec7-4662-80a3-06a08fccb2fb"},"vehicle_type_id":"4","last_reported":1758784243,"current_range_meters":14400,"station_id":"ce4bha92rcd13ifvqeh0","pricing_plan_id":"cebpf4jnsgd1na2vs0mg"},{"bike_id":"0c16ac8a-a536-4d89-a0b4-2803631fd83e","system_id":"levelo_inurba_marseille","lat":43.25006,"lon":5.38933,"is_reserved":false,"is_disabled":false,"rental_uris":{"android":"levelo://app?vid=0c16ac8a-a536-4d89-a0b4-2803631fd83e","ios":"levelo://app?vid=0c16ac8a-a536-4d89-a0b4-2803631fd83e"},"vehicle_type_id":"4","last_reported":1758784243,"current_range_meters":14400,"station_id":"ce4bhgp2rcd13ifvqfd0","pricing_plan_id":"cebpf4jnsgd1na2vs0mg"},{"bike_id":"106f5819-4458-4cf3-be82-2b8db4597466","system_id":"levelo_inurba_marseille","lat":43.30543,"lon":5.367346,"is_reserved":false,"is_disabled":false,"rental_uris":{"android":"levelo://app?vid=106f5819-4458-4cf3-be82-2b8db4597466","ios":"levelo://app?vid=106f5819-4458-4cf3-be82-2b8db4597466"},"vehicle_type_id":"4","last_reported":1758784243,"current_range_meters":14400,"station_id":"ce4bgrp2rcd13ifvqc9g","pricing_plan_id":"cebpf4jnsgd1na2vs0mg"},{"bike_id":"857641d1-652f-4f9d-8dc1-e6d9de46535c","system_id":"levelo_inurba_marseille","lat":43.272042,"lon":5.391852,"is_reserved":false,"is_disabled":false,"rental_uris":{"android":"levelo://app?vid=857641d1-652f-4f9d-8dc1-e6d9de46535c","ios":"levelo://app?vid=857641d1-652f-4f9d-8dc1-e6d9de46535c"},"vehicle_type_id":"4","last_reported":1758784243,"current_range_meters":9600,"station_id":"ce4bhhp2rcd13ifvqfm0","pricing_plan_id":"cebpf4jnsgd1na2vs0mg"},{"bike_id":"97f2002c-d7c7-417f-850b-0b930a44f212","system_id":"levelo_inurba_marseille","lat":43.24178,"lon":5.39734,"is_reserved":false,"is_disabled":false,"rental_uris":{"android":"levelo://app?vid=97f2002c-d7c7-417f-850b-0b930a44f212","ios":"levelo://app?vid=97f2002c-d7c7-417f-850b-0b930a44f212"},"vehicle_type_id":"4","last_reported":1758784243,"current_range_meters":14400,"station_id":"ce4bhn12rcd13ifvqgpg","pricing_plan_id":"cebpf4jnsgd1na2vs0mg"},{"bike_id":"43009bdc-c1d2-476d-8753-a235cb8d1a73","system_id":"levelo_inurba_marseille","lat":43.25014,"lon":5.38928,"is_reserved":false,"is_disabled":false,"rental_uris":{"android":"levelo://app?vid=43009bdc-c1d2-476d-8753-a235cb8d1a73","ios":"levelo://app?vid=43009bdc-c1d2-476d-8753-a235cb8d1a73"},"vehicle_type_id":"4","last_reported":1758784243,"current_range_meters":14400,"station_id":"ce4bhgp2rcd13ifvqfd0","pricing_plan_id":"cebpf4jnsgd1na2vs0mg"},{"bike_id":"e910a9fb-61d5-4c1f-9f27-9e0e019b86d0","system_id":"levelo_inurba_marseille","lat":43.29187,"lon":5.35816,"is_reserved":false,"is_disabled":false,"rental_uris":{"android":"levelo://app?vid=e910a9fb-61d5-4c1f-9f27-9e0e019b86d0","ios":"levelo://app?vid=e910a9fb-61d5-4c1f-9f27-9e0e019b86d0"},"vehicle_type_id":"4","last_reported":1758784243,"current_range_meters":14400,"station_id":"ce4bhb12rcd13ifvqel0","pricing_plan_id":"cebpf4jnsgd1na2vs0mg"},{"bike_id":"876b621b-296e-404a-ad49-9db1dcd88c57","system_id":"levelo_inurba_marseille","lat":43.28564,"lon":5.3949,"is_reserved":false,"is_disabled":true,"rental_uris":{"android":"levelo://app?vid=876b621b-296e-404a-ad49-9db1dcd88c57","ios":"levelo://app?vid=876b621b-296e-404a-ad49-9db1dcd88c57"},"vehicle_type_id":"4","last_reported":1758784243,"current_range_meters":14800,"station_id":"ce4bh292rcd13ifvqdg0","pricing_plan_id":"cebpf4jnsgd1na2vs0mg"},{"bike_id":"d55f7cff-ce18-4107-992e-8cb8fb12b05f","system_id":"levelo_inurba_marseille","lat":43.23155,"lon":5.35558,"is_reserved":false,"is_disabled":false,"rental_uris":{"android":"levelo://app?vid=d55f7cff-ce18-4107-992e-8cb8fb12b05f","ios":"levelo://app?vid=d55f7cff-ce18-4107-992e-8cb8fb12b05f"},"vehicle_type_id":"4","last_reported":1758784243,"current_range_meters":15200,"station_id":"ce4bhu92rcd13ifvqi70","pricing_plan_id":"cebpf4jnsgd1na2vs0mg"},{"bike_id":"1fc89b0f-4ae4-42ad-8b3c-72934312e01f","system_id":"levelo_inurba_marseille","lat":43.23152,"lon":5.43711,"is_reserved":false,"is_disabled":false,"rental_uris":{"android":"levelo://app?vid=1fc89b0f-4ae4-42ad-8b3c-72934312e01f","ios":"levelo://app?vid=1fc89b0f-4ae4-42ad-8b3c-72934312e01f"},"vehicle_type_id":"4","last_reported":1758784243,"current_range_meters":15200,"station_id":"ce4bhmp2rcd13ifvqgog","pricing_plan_id":"cebpf4jnsgd1na2vs0mg"},{"bike_id":"a23a2c44-db9f-4812-919c-0895393a4a35","system_id":"levelo_inurba_marseille","lat":43.30273,"lon":5.37728,"is_reserved":false,"is_disabled":false,"rental_uris":{"android":"levelo://app?vid=a23a2c44-db9f-4812-919c-0895393a4a35","ios":"levelo://app?vid=a23a2c44-db9f-4812-919c-0895393a4a35"},"vehicle_type_id":"4","last_reported":1758784243,"current_range_meters":15200,"station_id":"ce4bguh2rcd13ifvqcj0","pricing_plan_id":"cebpf4jnsgd1na2vs0mg"},{"bike_id":"1b20e7b2-029e-485f-b298-949b9e96bacd","system_id":"levelo_inurba_marseille","lat":43.33603,"lon":5.41005,"is_reserved":false,"is_disabled":false,"rental_uris":{"android":"levelo://app?vid=1b20e7b2-029e-485f-b298-949b9e96bacd","ios":"levelo://app?vid=1b20e7b2-029e-485f-b298-949b9e96bacd"},"vehicle_type_id":"4","last_reported":1758784243,"current_range_meters":15200,"station_id":"ce4bhqh2rcd13ifvqhmg","pricing_plan_id":"cebpf4jnsgd1na2vs0mg"},{"bike_id":"c079ba81-118b-4507-b713-c6c7f9771d56","system_id":"levelo_inurba_marseille","lat":43.30279,"lon":5.37718,"is_reserved":false,"is_disabled":false,"rental_uris":{"android":"levelo://app?vid=c079ba81-118b-4507-b713-c6c7f9771d56","ios":"levelo://app?vid=c079ba81-118b-4507-b713-c6c7f9771d56"},"vehicle_type_id":"4","last_reported":1758784243,"current_range_meters":15200,"station_id":"ce4bguh2rcd13ifvqcj0","pricing_plan_id":"cebpf4jnsgd1na2vs0mg"},{"bike_id":"488c09fa-a1dd-4086-b7a5-77f646e1d139","system_id":"levelo_inurba_marseille","lat":43.24174,"lon":5.39727,"is_reserved":false,"is_disabled":false,"rental_uris":{"android":"levelo://app?vid=488c09fa-a1dd-4086-b7a5-77f646e1d139","ios":"levelo://app?vid=488c09fa-a1dd-4086-b7a5-77f646e1d139"},"vehicle_type_id":"4","last_reported":1758784243,"current_range_meters":15200,"station_id":"ce4bhn12rcd13ifvqgpg","pricing_plan_id":"cebpf4jnsgd1na2vs0mg"},{"bike_id":"dbc0eee6-28fa-427a-85ec-5eecd2501373","system_id":"levelo_inurba_marseille","lat":43.27499,"lon":5.42479,"is_reserved":false,"is_disabled":false,"rental_uris":{"android":"levelo://app?vid=dbc0eee6-28fa-427a-85ec-5eecd2501373","ios":"levelo://app?vid=dbc0eee6-28fa-427a-85ec-5eecd2501373"},"vehicle_type_id":"4","last_reported":1758784243,"current_range_meters":15200,"station_id":"ce4bhn92rcd13ifvqgrg","pricing_plan_id":"cebpf4jnsgd1na2vs0mg"},{"bike_id":"af60c407-5d0d-4124-90bc-f5c672eb5129","system_id":"levelo_inurba_marseille","lat":43.31711,"lon":5.40495,"is_reserved":false,"is_disabled":false,"rental_uris":{"android":"levelo://app?vid=af60c407-5d0d-4124-90bc-f5c672eb5129","ios":"levelo://app?vid=af60c407-5d0d-4124-90bc-f5c672eb5129"},"vehicle_type_id":"4","last_reported":1758784243,"current_range_meters":16000,"station_id":"ce4bh012rcd13ifvqd00","pricing_plan_id":"cebpf4jnsgd1na2vs0mg"},{"bike_id":"f897d300-643c-4c7a-951b-f56d70ef23ca","system_id":"levelo_inurba_marseille","lat":43.30325,"lon":5.3908,"is_reserved":false,"is_disabled":false,"rental_uris":{"android":"levelo://app?vid=f897d300-643c-4c7a-951b-f56d70ef23ca","ios":"levelo://app?vid=f897d300-643c-4c7a-951b-f56d70ef23ca"},"vehicle_type_id":"4","last_reported":1758784243,"current_range_meters":16000,"station_id":"","pricing_plan_id":"cebpf4jnsgd1na2vs0mg"},{"bike_id":"8bbf4cbb-fc94-482f-8a85-7cf2babde5f8","system_id":"levelo_inurba_marseille","lat":43.34152,"lon":5.409,"is_reserved":false,"is_disabled":false,"rental_uris":{"android":"levelo://app?vid=8bbf4cbb-fc94-482f-8a85-7cf2babde5f8","ios":"levelo://app?vid=8bbf4cbb-fc94-482f-8a85-7cf2babde5f8"},"vehicle_type_id":"4","last_reported":1758784243,"current_range_meters":16000,"station_id":"ce4bhqh2rcd13ifvqhlg","pricing_plan_id":"cebpf4jnsgd1na2vs0mg"},{"bike_id":"725b1ff1-3894-44f1-a38e-91bc39cbab7e","system_id":"levelo_inurba_marseille","lat":43.24638,"lon":5.43142,"is_reserved":false,"is_disabled":false,"rental_uris":{"android":"levelo://app?vid=725b1ff1-3894-44f1-a38e-91bc39cbab7e","ios":"levelo://app?vid=725b1ff1-3894-44f1-a38e-91bc39cbab7e"},"vehicle_type_id":"4","last_reported":1758784243,"current_range_meters":16000,"station_id":"st_d2m6c4gdas8pm72e190g","pricing_plan_id":"cebpf4jnsgd1na2vs0mg"},{"bike_id":"6abff3ff-6f25-403c-932e-68932b6e0682","system_id":"levelo_inurba_marseille","lat":43.231526,"lon":5.437175,"is_reserved":false,"is_disabled":false,"rental_uris":{"android":"levelo://app?vid=6abff3ff-6f25-403c-932e-68932b6e0682","ios":"levelo://app?vid=6abff3ff-6f25-403c-932e-68932b6e0682"},"vehicle_type_id":"4","last_reported":1758784243,"current_range_meters":16000,"station_id":"ce4bhmp2rcd13ifvqgog","pricing_plan_id":"cebpf4jnsgd1na2vs0mg"},{"bike_id":"f799cfee-8db6-47d0-9211-1dd04a3e1a27","system_id":"levelo_inurba_marseille","lat":43.2417,"lon":5.3972,"is_reserved":false,"is_disabled":true,"rental_uris":{"android":"levelo://app?vid=f799cfee-8db6-47d0-9211-1dd04a3e1a27","ios":"levelo://app?vid=f799cfee-8db6-47d0-9211-1dd04a3e1a27"},"vehicle_type_id":"4","last_reported":1758784243,"current_range_meters":16000,"station_id":"ce4bhn12rcd13ifvqgpg","pricing_plan_id":"cebpf4jnsgd1na2vs0mg"},{"bike_id":"3731e4b4-e57b-4ad8-affe-801decac42ca","system_id":"levelo_inurba_marseille","lat":43.25938,"lon":5.40896,"is_reserved":false,"is_disabled":false,"rental_uris":{"android":"levelo://app?vid=3731e4b4-e57b-4ad8-affe-801decac42ca","ios":"levelo://app?vid=3731e4b4-e57b-4ad8-affe-801decac42ca"},"vehicle_type_id":"4","last_reported":1758784243,"current_range_meters":16000,"station_id":"ce4bhm92rcd13ifvqglg","pricing_plan_id":"cebpf4jnsgd1na2vs0mg"},{"bike_id":"fa4a88be-0fc2-4f59-99dc-bd5351f1237c","system_id":"levelo_inurba_marseille","lat":43.266785,"lon":5.382683,"is_reserved":false,"is_disabled":false,"rental_uris":{"android":"levelo://app?vid=fa4a88be-0fc2-4f59-99dc-bd5351f1237c","ios":"levelo://app?vid=fa4a88be-0fc2-4f59-99dc-bd5351f1237c"},"vehicle_type_id":"4","last_reported":1758784243,"current_range_meters":16000,"station_id":"ce4bhg92rcd13ifvqf90","pricing_plan_id":"cebpf4jnsgd1na2vs0mg"},{"bike_id":"fd25e2ef-39d4-41b3-8c1f-90a073805b4d","system_id":"levelo_inurba_marseille","lat":43.30945,"lon":5.39036,"is_reserved":false,"is_disabled":false,"rental_uris":{"android":"levelo://app?vid=fd25e2ef-39d4-41b3-8c1f-90a073805b4d","ios":"levelo://app?vid=fd25e2ef-39d4-41b3-8c1f-90a073805b4d"},"vehicle_type_id":"4","last_reported":1758784243,"current_range_meters":16000,"station_id":"ce4bgup2rcd13ifvqco0","pricing_plan_id":"cebpf4jnsgd1na2vs0mg"},{"bike_id":"d31d856a-933d-49cf-948f-ce03657dfc74","system_id":"levelo_inurba_marseille","lat":43.28429,"lon":5.34984,"is_reserved":false,"is_disabled":false,"rental_uris":{"android":"levelo://app?vid=d31d856a-933d-49cf-948f-ce03657dfc74","ios":"levelo://app?vid=d31d856a-933d-49cf-948f-ce03657dfc74"},"vehicle_type_id":"4","last_reported":1758784243,"current_range_meters":16000,"station_id":"ce4bhbh2rcd13ifvqepg","pricing_plan_id":"cebpf4jnsgd1na2vs0mg"},{"bike_id":"c7f6a08b-c655-4213-b2ba-7d02e7f382fe","system_id":"levelo_inurba_marseille","lat":43.27988,"lon":5.39483,"is_reserved":false,"is_disabled":false,"rental_uris":{"android":"levelo://app?vid=c7f6a08b-c655-4213-b2ba-7d02e7f382fe","ios":"levelo://app?vid=c7f6a08b-c655-4213-b2ba-7d02e7f382fe"},"vehicle_type_id":"4","last_reported":1758784243,"current_range_meters":16000,"station_id":"","pricing_plan_id":"cebpf4jnsgd1na2vs0mg"},{"bike_id":"7f8f342e-064e-4ff4-97b9-ede294c6aa07","system_id":"levelo_inurba_marseille","lat":43.31344,"lon":5.36728,"is_reserved":false,"is_disabled":false,"rental_uris":{"android":"levelo://app?vid=7f8f342e-064e-4ff4-97b9-ede294c6aa07","ios":"levelo://app?vid=7f8f342e-064e-4ff4-97b9-ede294c6aa07"},"vehicle_type_id":"4","last_reported":1758784243,"current_range_meters":16000,"station_id":"ce4bgr92rcd13ifvqc6g","pricing_plan_id":"cebpf4jnsgd1na2vs0mg"},{"bike_id":"fd4b0929-5dae-4f92-bfeb-801c6778a0f5","system_id":"levelo_inurba_marseille","lat":43.26533,"lon":5.37312,"is_reserved":false,"is_disabled":true,"rental_uris":{"android":"levelo://app?vid=fd4b0929-5dae-4f92-bfeb-801c6778a0f5","ios":"levelo://app?vid=fd4b0929-5dae-4f92-bfeb-801c6778a0f5"},"vehicle_type_id":"4","last_reported":1758784243,"current_range_meters":16000,"station_id":"ce4bhg12rcd13ifvqf70","pricing_plan_id":"cebpf4jnsgd1na2vs0mg"},{"bike_id":"e5303607-da03-4ac7-b81e-b332ede84cf7","system_id":"levelo_inurba_marseille","lat":43.31304,"lon":5.37825,"is_reserved":false,"is_disabled":false,"rental_uris":{"android":"levelo://app?vid=e5303607-da03-4ac7-b81e-b332ede84cf7","ios":"levelo://app?vid=e5303607-da03-4ac7-b81e-b332ede84cf7"},"vehicle_type_id":"4","last_reported":1758784243,"current_range_meters":16000,"station_id":"","pricing_plan_id":"cebpf4jnsgd1na2vs0mg"},{"bike_id":"1ec3f682-f068-4472-8329-000c712f0903","system_id":"levelo_inurba_marseille","lat":43.31078,"lon":5.42433,"is_reserved":false,"is_disabled":false,"rental_uris":{"android":"levelo://app?vid=1ec3f682-f068-4472-8329-000c712f0903","ios":"levelo://app?vid=1ec3f682-f068-4472-8329-000c712f0903"},"vehicle_type_id":"4","last_reported":1758784243,"current_range_meters":16000,"station_id":"","pricing_plan_id":"cebpf4jnsgd1na2vs0mg"},{"bike_id":"d0ab217b-9f27-4cac-b840-b23dfb7ff4b5","system_id":"levelo_inurba_marseille","lat":43.279967,"lon":5.400083,"is_reserved":false,"is_disabled":false,"rental_uris":{"android":"levelo://app?vid=d0ab217b-9f27-4cac-b840-b23dfb7ff4b5","ios":"levelo://app?vid=d0ab217b-9f27-4cac-b840-b23dfb7ff4b5"},"vehicle_type_id":"4","last_reported":1758784243,"current_range_meters":16400,"station_id":"","pricing_plan_id":"cebpf4jnsgd1na2vs0mg"},{"bike_id":"2b2ec586-da18-45d5-aa30-d8887bf17ffa","system_id":"levelo_inurba_marseille","lat":43.24079,"lon":5.3777,"is_reserved":false,"is_disabled":false,"rental_uris":{"android":"levelo://app?vid=2b2ec586-da18-45d5-aa30-d8887bf17ffa","ios":"levelo://app?vid=2b2ec586-da18-45d5-aa30-d8887bf17ffa"},"vehicle_type_id":"4","last_reported":1758784243,"current_range_meters":16400,"station_id":"ce4bhnp2rcd13ifvqgvg","pricing_plan_id":"cebpf4jnsgd1na2vs0mg"},{"bike_id":"041cd397-24ab-4e04-af23-07b961e161f4","system_id":"levelo_inurba_marseille","lat":43.337444,"lon":5.374475,"is_reserved":false,"is_disabled":false,"rental_uris":{"android":"levelo://app?vid=041cd397-24ab-4e04-af23-07b961e161f4","ios":"levelo://app?vid=041cd397-24ab-4e04-af23-07b961e161f4"},"vehicle_type_id":"4","last_reported":1758784243,"current_range_meters":16400,"station_id":"","pricing_plan_id":"cebpf4jnsgd1na2vs0mg"},{"bike_id":"cfad2f5d-afe0-4616-8022-8b8acf69eb61","system_id":"levelo_inurba_marseille","lat":43.30924,"lon":5.40144,"is_reserved":false,"is_disabled":false,"rental_uris":{"android":"levelo://app?vid=cfad2f5d-afe0-4616-8022-8b8acf69eb61","ios":"levelo://app?vid=cfad2f5d-afe0-4616-8022-8b8acf69eb61"},"vehicle_type_id":"4","last_reported":1758784243,"current_range_meters":18800,"station_id":"ce4bgvp2rcd13ifvqct0","pricing_plan_id":"cebpf4jnsgd1na2vs0mg"},{"bike_id":"cc942bdd-1e3c-4c47-8140-42c4711f9698","system_id":"levelo_inurba_marseille","lat":43.324672,"lon":5.365613,"is_reserved":false,"is_disabled":false,"rental_uris":{"android":"levelo://app?vid=cc942bdd-1e3c-4c47-8140-42c4711f9698","ios":"levelo://app?vid=cc942bdd-1e3c-4c47-8140-42c4711f9698"},"vehicle_type_id":"4","last_reported":1758784243,"current_range_meters":16800,"station_id":"ce4bhs12rcd13ifvqhvg","pricing_plan_id":"cebpf4jnsgd1na2vs0mg"},{"bike_id":"98864238-dfdb-4f16-825f-424130848f7c","system_id":"levelo_inurba_marseille","lat":43.34142,"lon":5.40906,"is_reserved":false,"is_disabled":false,"rental_uris":{"android":"levelo://app?vid=98864238-dfdb-4f16-825f-424130848f7c","ios":"levelo://app?vid=98864238-dfdb-4f16-825f-424130848f7c"},"vehicle_type_id":"4","last_reported":1758784243,"current_range_meters":16800,"station_id":"ce4bhqh2rcd13ifvqhlg","pricing_plan_id":"cebpf4jnsgd1na2vs0mg"},{"bike_id":"bf5707dd-29df-4978-aed7-b2fc5b0c3e76","system_id":"levelo_inurba_marseille","lat":43.26785,"lon":5.39412,"is_reserved":false,"is_disabled":false,"rental_uris":{"android":"levelo://app?vid=bf5707dd-29df-4978-aed7-b2fc5b0c3e76","ios":"levelo://app?vid=bf5707dd-29df-4978-aed7-b2fc5b0c3e76"},"vehicle_type_id":"4","last_reported":1758784243,"current_range_meters":16800,"station_id":"ce4bhh12rcd13ifvqfg0","pricing_plan_id":"cebpf4jnsgd1na2vs0mg"},{"bike_id":"7c4ad0e1-6c14-4cb3-bded-113bec18a207","system_id":"levelo_inurba_marseille","lat":43.33599,"lon":5.40979,"is_reserved":false,"is_disabled":false,"rental_uris":{"android":"levelo://app?vid=7c4ad0e1-6c14-4cb3-bded-113bec18a207","ios":"levelo://app?vid=7c4ad0e1-6c14-4cb3-bded-113bec18a207"},"vehicle_type_id":"4","last_reported":1758784243,"current_range_meters":16400,"station_id":"ce4bhqh2rcd13ifvqhmg","pricing_plan_id":"cebpf4jnsgd1na2vs0mg"},{"bike_id":"cf64f5a1-85bb-4012-acd5-309d066b1fe7","system_id":"levelo_inurba_marseille","lat":43.24195,"lon":5.39743,"is_reserved":false,"is_disabled":true,"rental_uris":{"android":"levelo://app?vid=cf64f5a1-85bb-4012-acd5-309d066b1fe7","ios":"levelo://app?vid=cf64f5a1-85bb-4012-acd5-309d066b1fe7"},"vehicle_type_id":"4","last_reported":1758784243,"current_range_meters":16800,"station_id":"ce4bhn12rcd13ifvqgpg","pricing_plan_id":"cebpf4jnsgd1na2vs0mg"},{"bike_id":"445145f8-2500-4fe9-bb54-3a5778df8b99","system_id":"levelo_inurba_marseille","lat":43.25924,"lon":5.40912,"is_reserved":false,"is_disabled":false,"rental_uris":{"android":"levelo://app?vid=445145f8-2500-4fe9-bb54-3a5778df8b99","ios":"levelo://app?vid=445145f8-2500-4fe9-bb54-3a5778df8b99"},"vehicle_type_id":"4","last_reported":1758784243,"current_range_meters":16800,"station_id":"ce4bhm92rcd13ifvqglg","pricing_plan_id":"cebpf4jnsgd1na2vs0mg"},{"bike_id":"5009bb5b-d2d2-4409-8386-469e136e5a7d","system_id":"levelo_inurba_marseille","lat":43.33604,"lon":5.41037,"is_reserved":false,"is_disabled":false,"rental_uris":{"android":"levelo://app?vid=5009bb5b-d2d2-4409-8386-469e136e5a7d","ios":"levelo://app?vid=5009bb5b-d2d2-4409-8386-469e136e5a7d"},"vehicle_type_id":"4","last_reported":1758784243,"current_range_meters":16400,"station_id":"ce4bhqh2rcd13ifvqhmg","pricing_plan_id":"cebpf4jnsgd1na2vs0mg"},{"bike_id":"b6ff3672-4e7c-404c-ab2a-bd902cf95e14","system_id":"levelo_inurba_marseille","lat":43.26851,"lon":5.40674,"is_reserved":false,"is_disabled":false,"rental_uris":{"android":"levelo://app?vid=b6ff3672-4e7c-404c-ab2a-bd902cf95e14","ios":"levelo://app?vid=b6ff3672-4e7c-404c-ab2a-bd902cf95e14"},"vehicle_type_id":"4","last_reported":1758784243,"current_range_meters":16800,"station_id":"","pricing_plan_id":"cebpf4jnsgd1na2vs0mg"},{"bike_id":"f7f54815-5ad2-49c1-b5de-88f2bd88119c","system_id":"levelo_inurba_marseille","lat":43.25935,"lon":5.40903,"is_reserved":false,"is_disabled":false,"rental_uris":{"android":"levelo://app?vid=f7f54815-5ad2-49c1-b5de-88f2bd88119c","ios":"levelo://app?vid=f7f54815-5ad2-49c1-b5de-88f2bd88119c"},"vehicle_type_id":"4","last_reported":1758784243,"current_range_meters":16800,"station_id":"ce4bhm92rcd13ifvqglg","pricing_plan_id":"cebpf4jnsgd1na2vs0mg"},{"bike_id":"01d5b44a-5c8a-4518-9b4d-60e0a260b130","system_id":"levelo_inurba_marseille","lat":43.26934,"lon":5.38923,"is_reserved":false,"is_disabled":false,"rental_uris":{"android":"levelo://app?vid=01d5b44a-5c8a-4518-9b4d-60e0a260b130","ios":"levelo://app?vid=01d5b44a-5c8a-4518-9b4d-60e0a260b130"},"vehicle_type_id":"4","last_reported":1758784243,"current_range_meters":16800,"station_id":"ce4bhhh2rcd13ifvqfl0","pricing_plan_id":"cebpf4jnsgd1na2vs0mg"},{"bike_id":"e272de5d-c37b-4836-8081-748ba206ef88","system_id":"levelo_inurba_marseille","lat":43.27994,"lon":5.41667,"is_reserved":false,"is_disabled":false,"rental_uris":{"android":"levelo://app?vid=e272de5d-c37b-4836-8081-748ba206ef88","ios":"levelo://app?vid=e272de5d-c37b-4836-8081-748ba206ef88"},