{"last_updated":1777145846,"ttl":60,"version":"2.2","data":{"bikes":[{"bike_id":"b77d6780-bc79-4deb-ace0-b2f200bd3427","system_id":"levelo_inurba_marseille","lat":43.28708,"lon":5.4671,"is_reserved":false,"is_disabled":false,"rental_uris":{"android":"levelo://app?vid=b77d6780-bc79-4deb-ace0-b2f200bd3427","ios":"levelo://app?vid=b77d6780-bc79-4deb-ace0-b2f200bd3427"},"vehicle_type_id":"4","last_reported":1777145847,"current_range_meters":1200,"station_id":"st_d6tc3vkotcvc738tfjhg","pricing_plan_id":"cebpf4jnsgd1na2vs0mg"},{"bike_id":"8abac1b2-aca5-4376-b464-f5bc6999888e","system_id":"levelo_inurba_marseille","lat":43.29792,"lon":5.37061,"is_reserved":false,"is_disabled":false,"rental_uris":{"android":"levelo://app?vid=8abac1b2-aca5-4376-b464-f5bc6999888e","ios":"levelo://app?vid=8abac1b2-aca5-4376-b464-f5bc6999888e"},"vehicle_type_id":"4","last_reported":1777145847,"current_range_meters":2800,"station_id":"ce4bgop2rcd13ifvqc1g","pricing_plan_id":"cebpf4jnsgd1na2vs0mg"},{"bike_id":"c35ef435-7351-4292-8bd0-8be9078d3a7d","system_id":"levelo_inurba_marseille","lat":43.3096,"lon":5.3905,"is_reserved":false,"is_disabled":true,"rental_uris":{"android":"levelo://app?vid=c35ef435-7351-4292-8bd0-8be9078d3a7d","ios":"levelo://app?vid=c35ef435-7351-4292-8bd0-8be9078d3a7d"},"vehicle_type_id":"4","last_reported":1777145847,"current_range_meters":2800,"station_id":"ce4bgup2rcd13ifvqco0","pricing_plan_id":"cebpf4jnsgd1na2vs0mg"},{"bike_id":"676f4845-6b49-4773-b82f-ef4c6a0d7c2d","system_id":"levelo_inurba_marseille","lat":43.26103,"lon":5.37518,"is_reserved":false,"is_disabled":false,"rental_uris":{"android":"levelo://app?vid=676f4845-6b49-4773-b82f-ef4c6a0d7c2d","ios":"levelo://app?vid=676f4845-6b49-4773-b82f-ef4c6a0d7c2d"},"vehicle_type_id":"4","last_reported":1777145847,"current_range_meters":2800,"station_id":"","pricing_plan_id":"cebpf4jnsgd1na2vs0mg"},{"bike_id":"4be05301-4abf-4d35-9e6e-de5538c50788","system_id":"levelo_inurba_marseille","lat":43.32997,"lon":5.39038,"is_reserved":false,"is_disabled":false,"rental_uris":{"android":"levelo://app?vid=4be05301-4abf-4d35-9e6e-de5538c50788","ios":"levelo://app?vid=4be05301-4abf-4d35-9e6e-de5538c50788"},"vehicle_type_id":"4","last_reported":1777145847,"current_range_meters":2800,"station_id":"ce4bhr92rcd13ifvqhrg","pricing_plan_id":"cebpf4jnsgd1na2vs0mg"},{"bike_id":"da115ce5-f664-4e9c-a832-1d1f79122b78","system_id":"levelo_inurba_marseille","lat":43.290222,"lon":5.375677,"is_reserved":false,"is_disabled":false,"rental_uris":{"android":"levelo://app?vid=da115ce5-f664-4e9c-a832-1d1f79122b78","ios":"levelo://app?vid=da115ce5-f664-4e9c-a832-1d1f79122b78"},"vehicle_type_id":"4","last_reported":1777145847,"current_range_meters":2800,"station_id":"ce4bh692rcd13ifvqe90","pricing_plan_id":"cebpf4jnsgd1na2vs0mg"},{"bike_id":"99c36aef-4777-4109-96b1-4f95e9a3b9bb","system_id":"levelo_inurba_marseille","lat":43.30802,"lon":5.38156,"is_reserved":false,"is_disabled":false,"rental_uris":{"android":"levelo://app?vid=99c36aef-4777-4109-96b1-4f95e9a3b9bb","ios":"levelo://app?vid=99c36aef-4777-4109-96b1-4f95e9a3b9bb"},"vehicle_type_id":"4","last_reported":1777145847,"current_range_meters":2800,"station_id":"ce4bgt12rcd13ifvqce0","pricing_plan_id":"cebpf4jnsgd1na2vs0mg"},{"bike_id":"5f8cdfbc-37c6-486e-8a09-9620e14e43ce","system_id":"levelo_inurba_marseille","lat":43.23891,"lon":5.37466,"is_reserved":false,"is_disabled":true,"rental_uris":{"android":"levelo://app?vid=5f8cdfbc-37c6-486e-8a09-9620e14e43ce","ios":"levelo://app?vid=5f8cdfbc-37c6-486e-8a09-9620e14e43ce"},"vehicle_type_id":"4","last_reported":1777145847,"current_range_meters":2800,"station_id":"st_d6sm7csbq4hs73f8fpjg","pricing_plan_id":"cebpf4jnsgd1na2vs0mg"},{"bike_id":"e150a8cf-4efe-40af-9467-f24e18330374","system_id":"levelo_inurba_marseille","lat":43.25506,"lon":5.37633,"is_reserved":false,"is_disabled":false,"rental_uris":{"android":"levelo://app?vid=e150a8cf-4efe-40af-9467-f24e18330374","ios":"levelo://app?vid=e150a8cf-4efe-40af-9467-f24e18330374"},"vehicle_type_id":"4","last_reported":1777145847,"current_range_meters":2800,"station_id":"ce4bhh12rcd13ifvqff0","pricing_plan_id":"cebpf4jnsgd1na2vs0mg"},{"bike_id":"ccecfb0f-c1ad-4e9d-a879-1d3d4553be01","system_id":"levelo_inurba_marseille","lat":43.25333,"lon":5.42175,"is_reserved":false,"is_disabled":false,"rental_uris":{"android":"levelo://app?vid=ccecfb0f-c1ad-4e9d-a879-1d3d4553be01","ios":"levelo://app?vid=ccecfb0f-c1ad-4e9d-a879-1d3d4553be01"},"vehicle_type_id":"4","last_reported":1777145847,"current_range_meters":2800,"station_id":"st_d2m65c5bi1j21697t3ng","pricing_plan_id":"cebpf4jnsgd1na2vs0mg"},{"bike_id":"8e1ab35c-8494-44b5-90eb-97c7a87f8e3a","system_id":"levelo_inurba_marseille","lat":43.22935,"lon":5.35374,"is_reserved":false,"is_disabled":false,"rental_uris":{"android":"levelo://app?vid=8e1ab35c-8494-44b5-90eb-97c7a87f8e3a","ios":"levelo://app?vid=8e1ab35c-8494-44b5-90eb-97c7a87f8e3a"},"vehicle_type_id":"4","last_reported":1777145847,"current_range_meters":3200,"station_id":"cpo3532slgdg3j2ikp40","pricing_plan_id":"cebpf4jnsgd1na2vs0mg"},{"bike_id":"168b5534-ff13-4dc9-af35-5eae8b61ed60","system_id":"levelo_inurba_marseille","lat":43.22556,"lon":5.41623,"is_reserved":false,"is_disabled":false,"rental_uris":{"android":"levelo://app?vid=168b5534-ff13-4dc9-af35-5eae8b61ed60","ios":"levelo://app?vid=168b5534-ff13-4dc9-af35-5eae8b61ed60"},"vehicle_type_id":"4","last_reported":1777145847,"current_range_meters":3200,"station_id":"st_d2o4gvlbi1j2169b742g","pricing_plan_id":"cebpf4jnsgd1na2vs0mg"},{"bike_id":"8f1a7dbf-8f8d-4802-9ed0-e611a274e6d6","system_id":"levelo_inurba_marseille","lat":43.2293,"lon":5.35377,"is_reserved":false,"is_disabled":false,"rental_uris":{"android":"levelo://app?vid=8f1a7dbf-8f8d-4802-9ed0-e611a274e6d6","ios":"levelo://app?vid=8f1a7dbf-8f8d-4802-9ed0-e611a274e6d6"},"vehicle_type_id":"4","last_reported":1777145847,"current_range_meters":3200,"station_id":"cpo3532slgdg3j2ikp40","pricing_plan_id":"cebpf4jnsgd1na2vs0mg"},{"bike_id":"b38d89b8-c3c9-4fae-b6f2-09980d89f2e9","system_id":"levelo_inurba_marseille","lat":43.28485,"lon":5.48419,"is_reserved":false,"is_disabled":false,"rental_uris":{"android":"levelo://app?vid=b38d89b8-c3c9-4fae-b6f2-09980d89f2e9","ios":"levelo://app?vid=b38d89b8-c3c9-4fae-b6f2-09980d89f2e9"},"vehicle_type_id":"4","last_reported":1777145847,"current_range_meters":3200,"station_id":"","pricing_plan_id":"cebpf4jnsgd1na2vs0mg"},{"bike_id":"616ae45d-d641-4a69-8d81-2261107b5285","system_id":"levelo_inurba_marseille","lat":43.23961,"lon":5.36628,"is_reserved":false,"is_disabled":false,"rental_uris":{"android":"levelo://app?vid=616ae45d-d641-4a69-8d81-2261107b5285","ios":"levelo://app?vid=616ae45d-d641-4a69-8d81-2261107b5285"},"vehicle_type_id":"4","last_reported":1777145847,"current_range_meters":3200,"station_id":"ce4bhi12rcd13ifvqfp0","pricing_plan_id":"cebpf4jnsgd1na2vs0mg"},{"bike_id":"df69b054-70d6-42c5-81a7-ce156d076e79","system_id":"levelo_inurba_marseille","lat":43.30443,"lon":5.38902,"is_reserved":false,"is_disabled":false,"rental_uris":{"android":"levelo://app?vid=df69b054-70d6-42c5-81a7-ce156d076e79","ios":"levelo://app?vid=df69b054-70d6-42c5-81a7-ce156d076e79"},"vehicle_type_id":"4","last_reported":1777145847,"current_range_meters":3200,"station_id":"ce4bgk12rcd13ifvqbi0","pricing_plan_id":"cebpf4jnsgd1na2vs0mg"},{"bike_id":"6a62f6c9-8c72-47b2-903c-0f369154abf9","system_id":"levelo_inurba_marseille","lat":43.27611,"lon":5.36126,"is_reserved":false,"is_disabled":false,"rental_uris":{"android":"levelo://app?vid=6a62f6c9-8c72-47b2-903c-0f369154abf9","ios":"levelo://app?vid=6a62f6c9-8c72-47b2-903c-0f369154abf9"},"vehicle_type_id":"4","last_reported":1777145847,"current_range_meters":3200,"station_id":"ce4bgj92rcd13ifvqbe0","pricing_plan_id":"cebpf4jnsgd1na2vs0mg"},{"bike_id":"05fc231b-c398-4e00-a1ad-8667138b69ec","system_id":"levelo_inurba_marseille","lat":43.29486,"lon":5.4331,"is_reserved":false,"is_disabled":false,"rental_uris":{"android":"levelo://app?vid=05fc231b-c398-4e00-a1ad-8667138b69ec","ios":"levelo://app?vid=05fc231b-c398-4e00-a1ad-8667138b69ec"},"vehicle_type_id":"4","last_reported":1777145847,"current_range_meters":3200,"station_id":"st_d3j5ugp08ojc73fj9d10","pricing_plan_id":"cebpf4jnsgd1na2vs0mg"},{"bike_id":"7ab9e9d2-55c6-492f-8e60-126c7a6965ab","system_id":"levelo_inurba_marseille","lat":43.27961,"lon":5.37037,"is_reserved":false,"is_disabled":false,"rental_uris":{"android":"levelo://app?vid=7ab9e9d2-55c6-492f-8e60-126c7a6965ab","ios":"levelo://app?vid=7ab9e9d2-55c6-492f-8e60-126c7a6965ab"},"vehicle_type_id":"4","last_reported":1777145847,"current_range_meters":3200,"station_id":"","pricing_plan_id":"cebpf4jnsgd1na2vs0mg"},{"bike_id":"30ae163a-44ad-49ad-bf51-c1f54df5559c","system_id":"levelo_inurba_marseille","lat":43.2886,"lon":5.42517,"is_reserved":false,"is_disabled":false,"rental_uris":{"android":"levelo://app?vid=30ae163a-44ad-49ad-bf51-c1f54df5559c","ios":"levelo://app?vid=30ae163a-44ad-49ad-bf51-c1f54df5559c"},"vehicle_type_id":"4","last_reported":1777145847,"current_range_meters":3200,"station_id":"st_d3b462108ojc7389ooeg","pricing_plan_id":"cebpf4jnsgd1na2vs0mg"},{"bike_id":"38ee7da5-65e7-4997-97cb-9531b47e81d6","system_id":"levelo_inurba_marseille","lat":43.26555,"lon":5.39019,"is_reserved":false,"is_disabled":false,"rental_uris":{"android":"levelo://app?vid=38ee7da5-65e7-4997-97cb-9531b47e81d6","ios":"levelo://app?vid=38ee7da5-65e7-4997-97cb-9531b47e81d6"},"vehicle_type_id":"4","last_reported":1777145847,"current_range_meters":3200,"station_id":"ce4bhe12rcd13ifvqf30","pricing_plan_id":"cebpf4jnsgd1na2vs0mg"},{"bike_id":"01cc38eb-420b-4f54-b5bf-e23efb2a175c","system_id":"levelo_inurba_marseille","lat":43.29481,"lon":5.4332,"is_reserved":false,"is_disabled":false,"rental_uris":{"android":"levelo://app?vid=01cc38eb-420b-4f54-b5bf-e23efb2a175c","ios":"levelo://app?vid=01cc38eb-420b-4f54-b5bf-e23efb2a175c"},"vehicle_type_id":"4","last_reported":1777145847,"current_range_meters":3200,"station_id":"st_d3j5ugp08ojc73fj9d10","pricing_plan_id":"cebpf4jnsgd1na2vs0mg"},{"bike_id":"3f6ca1fc-08e5-41c7-a575-b74f63826df2","system_id":"levelo_inurba_marseille","lat":43.28497,"lon":5.38414,"is_reserved":false,"is_disabled":false,"rental_uris":{"android":"levelo://app?vid=3f6ca1fc-08e5-41c7-a575-b74f63826df2","ios":"levelo://app?vid=3f6ca1fc-08e5-41c7-a575-b74f63826df2"},"vehicle_type_id":"4","last_reported":1777145847,"current_range_meters":3600,"station_id":"ce4bh512rcd13ifvqe3g","pricing_plan_id":"cebpf4jnsgd1na2vs0mg"},{"bike_id":"35f763f0-2040-4017-9c4b-1f9f4cbf81cc","system_id":"levelo_inurba_marseille","lat":43.2971,"lon":5.36612,"is_reserved":false,"is_disabled":false,"rental_uris":{"android":"levelo://app?vid=35f763f0-2040-4017-9c4b-1f9f4cbf81cc","ios":"levelo://app?vid=35f763f0-2040-4017-9c4b-1f9f4cbf81cc"},"vehicle_type_id":"4","last_reported":1777145847,"current_range_meters":3600,"station_id":"ce4bgn12rcd13ifvqbt0","pricing_plan_id":"cebpf4jnsgd1na2vs0mg"},{"bike_id":"2ab29a56-c576-4462-b479-31fe8e239371","system_id":"levelo_inurba_marseille","lat":43.28,"lon":5.37006,"is_reserved":false,"is_disabled":false,"rental_uris":{"android":"levelo://app?vid=2ab29a56-c576-4462-b479-31fe8e239371","ios":"levelo://app?vid=2ab29a56-c576-4462-b479-31fe8e239371"},"vehicle_type_id":"4","last_reported":1777145847,"current_range_meters":3600,"station_id":"ce4bha12rcd13ifvqef0","pricing_plan_id":"cebpf4jnsgd1na2vs0mg"},{"bike_id":"146ddef1-acc5-4bd0-9eba-c390873ad619","system_id":"levelo_inurba_marseille","lat":43.29021,"lon":5.38608,"is_reserved":false,"is_disabled":false,"rental_uris":{"android":"levelo://app?vid=146ddef1-acc5-4bd0-9eba-c390873ad619","ios":"levelo://app?vid=146ddef1-acc5-4bd0-9eba-c390873ad619"},"vehicle_type_id":"4","last_reported":1777145847,"current_range_meters":3600,"station_id":"ce4bh4p2rcd13ifvqe0g","pricing_plan_id":"cebpf4jnsgd1na2vs0mg"},{"bike_id":"e4f83293-1029-45e1-a0e6-eb54273bfa97","system_id":"levelo_inurba_marseille","lat":43.289331,"lon":5.36643,"is_reserved":false,"is_disabled":false,"rental_uris":{"android":"levelo://app?vid=e4f83293-1029-45e1-a0e6-eb54273bfa97","ios":"levelo://app?vid=e4f83293-1029-45e1-a0e6-eb54273bfa97"},"vehicle_type_id":"4","last_reported":1777145847,"current_range_meters":3600,"station_id":"ce4bhap2rcd13ifvqek0","pricing_plan_id":"cebpf4jnsgd1na2vs0mg"},{"bike_id":"8e370a67-a4b6-478e-beae-4d7e04bb1fa9","system_id":"levelo_inurba_marseille","lat":43.301819,"lon":5.373588,"is_reserved":false,"is_disabled":false,"rental_uris":{"android":"levelo://app?vid=8e370a67-a4b6-478e-beae-4d7e04bb1fa9","ios":"levelo://app?vid=8e370a67-a4b6-478e-beae-4d7e04bb1fa9"},"vehicle_type_id":"4","last_reported":1777145847,"current_range_meters":3600,"station_id":"ce4bgs92rcd13ifvqcc0","pricing_plan_id":"cebpf4jnsgd1na2vs0mg"},{"bike_id":"0e17a7c5-83b0-410b-aede-cf7863dd9254","system_id":"levelo_inurba_marseille","lat":43.25581,"lon":5.38232,"is_reserved":false,"is_disabled":false,"rental_uris":{"android":"levelo://app?vid=0e17a7c5-83b0-410b-aede-cf7863dd9254","ios":"levelo://app?vid=0e17a7c5-83b0-410b-aede-cf7863dd9254"},"vehicle_type_id":"4","last_reported":1777145847,"current_range_meters":4000,"station_id":"ce4bhih2rcd13ifvqfs0","pricing_plan_id":"cebpf4jnsgd1na2vs0mg"},{"bike_id":"4af5f932-71ad-4954-ac3b-fecb2a352994","system_id":"levelo_inurba_marseille","lat":43.32367,"lon":5.36748,"is_reserved":false,"is_disabled":false,"rental_uris":{"android":"levelo://app?vid=4af5f932-71ad-4954-ac3b-fecb2a352994","ios":"levelo://app?vid=4af5f932-71ad-4954-ac3b-fecb2a352994"},"vehicle_type_id":"4","last_reported":1777145847,"current_range_meters":4000,"station_id":"ce4bhsh2rcd13ifvqi2g","pricing_plan_id":"cebpf4jnsgd1na2vs0mg"},{"bike_id":"eeb9a8eb-5bdb-4ac6-ae3c-fba0c7d926a1","system_id":"levelo_inurba_marseille","lat":43.29706,"lon":5.37696,"is_reserved":false,"is_disabled":false,"rental_uris":{"android":"levelo://app?vid=eeb9a8eb-5bdb-4ac6-ae3c-fba0c7d926a1","ios":"levelo://app?vid=eeb9a8eb-5bdb-4ac6-ae3c-fba0c7d926a1"},"vehicle_type_id":"4","last_reported":1777145847,"current_range_meters":4000,"station_id":"ce4bgkh2rcd13ifvqbl0","pricing_plan_id":"cebpf4jnsgd1na2vs0mg"},{"bike_id":"196cf3f1-21a5-47dc-ba7c-3de76966c3f7","system_id":"levelo_inurba_marseille","lat":43.31272,"lon":5.40185,"is_reserved":false,"is_disabled":false,"rental_uris":{"android":"levelo://app?vid=196cf3f1-21a5-47dc-ba7c-3de76966c3f7","ios":"levelo://app?vid=196cf3f1-21a5-47dc-ba7c-3de76966c3f7"},"vehicle_type_id":"4","last_reported":1777145847,"current_range_meters":4000,"station_id":"ce4bh092rcd13ifvqd30","pricing_plan_id":"cebpf4jnsgd1na2vs0mg"},{"bike_id":"1370c3f0-6074-43de-a93b-f7f87c829b3b","system_id":"levelo_inurba_marseille","lat":43.2912,"lon":5.39985,"is_reserved":false,"is_disabled":false,"rental_uris":{"android":"levelo://app?vid=1370c3f0-6074-43de-a93b-f7f87c829b3b","ios":"levelo://app?vid=1370c3f0-6074-43de-a93b-f7f87c829b3b"},"vehicle_type_id":"4","last_reported":1777145847,"current_range_meters":4000,"station_id":"","pricing_plan_id":"cebpf4jnsgd1na2vs0mg"},{"bike_id":"4d5b4915-5fc0-4782-a3a4-e445cc2cf470","system_id":"levelo_inurba_marseille","lat":43.29871,"lon":5.42101,"is_reserved":false,"is_disabled":false,"rental_uris":{"android":"levelo://app?vid=4d5b4915-5fc0-4782-a3a4-e445cc2cf470","ios":"levelo://app?vid=4d5b4915-5fc0-4782-a3a4-e445cc2cf470"},"vehicle_type_id":"4","last_reported":1777145847,"current_range_meters":4000,"station_id":"st_d6tc004otcvc738tfe70","pricing_plan_id":"cebpf4jnsgd1na2vs0mg"},{"bike_id":"ec91c01b-63b1-4278-b8de-9dad76b76c9c","system_id":"levelo_inurba_marseille","lat":43.3187,"lon":5.40005,"is_reserved":false,"is_disabled":false,"rental_uris":{"android":"levelo://app?vid=ec91c01b-63b1-4278-b8de-9dad76b76c9c","ios":"levelo://app?vid=ec91c01b-63b1-4278-b8de-9dad76b76c9c"},"vehicle_type_id":"4","last_reported":1777145847,"current_range_meters":4000,"station_id":"","pricing_plan_id":"cebpf4jnsgd1na2vs0mg"},{"bike_id":"261b4d20-3fce-4a9a-b1df-f7d9447249df","system_id":"levelo_inurba_marseille","lat":43.28471,"lon":5.48362,"is_reserved":false,"is_disabled":false,"rental_uris":{"android":"levelo://app?vid=261b4d20-3fce-4a9a-b1df-f7d9447249df","ios":"levelo://app?vid=261b4d20-3fce-4a9a-b1df-f7d9447249df"},"vehicle_type_id":"4","last_reported":1777145847,"current_range_meters":4000,"station_id":"st_d3svhcjqgbts73a3dn0g","pricing_plan_id":"cebpf4jnsgd1na2vs0mg"},{"bike_id":"a262a019-9638-4de2-9bc3-7ee0d2e13ead","system_id":"levelo_inurba_marseille","lat":43.29875,"lon":5.39731,"is_reserved":false,"is_disabled":false,"rental_uris":{"android":"levelo://app?vid=a262a019-9638-4de2-9bc3-7ee0d2e13ead","ios":"levelo://app?vid=a262a019-9638-4de2-9bc3-7ee0d2e13ead"},"vehicle_type_id":"4","last_reported":1777145847,"current_range_meters":4000,"station_id":"ce4bh0h2rcd13ifvqd50","pricing_plan_id":"cebpf4jnsgd1na2vs0mg"},{"bike_id":"c7ac0306-6afc-4781-8692-f962ddfe1a23","system_id":"levelo_inurba_marseille","lat":43.32354,"lon":5.36731,"is_reserved":false,"is_disabled":false,"rental_uris":{"android":"levelo://app?vid=c7ac0306-6afc-4781-8692-f962ddfe1a23","ios":"levelo://app?vid=c7ac0306-6afc-4781-8692-f962ddfe1a23"},"vehicle_type_id":"4","last_reported":1777145847,"current_range_meters":4000,"station_id":"ce4bhsh2rcd13ifvqi2g","pricing_plan_id":"cebpf4jnsgd1na2vs0mg"},{"bike_id":"f8b71621-9ee0-4284-b9b2-be8fa047ba8a","system_id":"levelo_inurba_marseille","lat":43.30136,"lon":5.43124,"is_reserved":false,"is_disabled":false,"rental_uris":{"android":"levelo://app?vid=f8b71621-9ee0-4284-b9b2-be8fa047ba8a","ios":"levelo://app?vid=f8b71621-9ee0-4284-b9b2-be8fa047ba8a"},"vehicle_type_id":"4","last_reported":1777145847,"current_range_meters":4000,"station_id":"st_d3js3co5814s73ftftug","pricing_plan_id":"cebpf4jnsgd1na2vs0mg"},{"bike_id":"e4b23b4a-9598-4a35-97fd-3f93f565f5dd","system_id":"levelo_inurba_marseille","lat":43.292761,"lon":5.368397,"is_reserved":false,"is_disabled":false,"rental_uris":{"android":"levelo://app?vid=e4b23b4a-9598-4a35-97fd-3f93f565f5dd","ios":"levelo://app?vid=e4b23b4a-9598-4a35-97fd-3f93f565f5dd"},"vehicle_type_id":"4","last_reported":1777145847,"current_range_meters":4000,"station_id":"ce4bhbp2rcd13ifvqesg","pricing_plan_id":"cebpf4jnsgd1na2vs0mg"},{"bike_id":"ca39fbb9-26c6-4d55-ac84-563dbdba695c","system_id":"levelo_inurba_marseille","lat":43.28927,"lon":5.383939,"is_reserved":false,"is_disabled":false,"rental_uris":{"android":"levelo://app?vid=ca39fbb9-26c6-4d55-ac84-563dbdba695c","ios":"levelo://app?vid=ca39fbb9-26c6-4d55-ac84-563dbdba695c"},"vehicle_type_id":"4","last_reported":1777145847,"current_range_meters":4000,"station_id":"ce4bh612rcd13ifvqe6g","pricing_plan_id":"cebpf4jnsgd1na2vs0mg"},{"bike_id":"284bb20f-7bbf-450c-9c94-2dc57069e2bf","system_id":"levelo_inurba_marseille","lat":43.27079,"lon":5.42274,"is_reserved":false,"is_disabled":false,"rental_uris":{"android":"levelo://app?vid=284bb20f-7bbf-450c-9c94-2dc57069e2bf","ios":"levelo://app?vid=284bb20f-7bbf-450c-9c94-2dc57069e2bf"},"vehicle_type_id":"4","last_reported":1777145847,"current_range_meters":4000,"station_id":"ce4bhk92rcd13ifvqgb0","pricing_plan_id":"cebpf4jnsgd1na2vs0mg"},{"bike_id":"1d368fe1-0c8f-4a40-864c-b54082c58fa1","system_id":"levelo_inurba_marseille","lat":43.33526,"lon":5.37465,"is_reserved":false,"is_disabled":false,"rental_uris":{"android":"levelo://app?vid=1d368fe1-0c8f-4a40-864c-b54082c58fa1","ios":"levelo://app?vid=1d368fe1-0c8f-4a40-864c-b54082c58fa1"},"vehicle_type_id":"4","last_reported":1777145847,"current_range_meters":4400,"station_id":"st_d46tts09ee8s73dlu43g","pricing_plan_id":"cebpf4jnsgd1na2vs0mg"},{"bike_id":"0fb20b22-105a-49c6-b3c4-7ef833992223","system_id":"levelo_inurba_marseille","lat":43.31681,"lon":5.40477,"is_reserved":false,"is_disabled":false,"rental_uris":{"android":"levelo://app?vid=0fb20b22-105a-49c6-b3c4-7ef833992223","ios":"levelo://app?vid=0fb20b22-105a-49c6-b3c4-7ef833992223"},"vehicle_type_id":"4","last_reported":1777145847,"current_range_meters":4400,"station_id":"ce4bh012rcd13ifvqd00","pricing_plan_id":"cebpf4jnsgd1na2vs0mg"},{"bike_id":"09dca68d-a96e-4c7c-8c93-084a9274aaf6","system_id":"levelo_inurba_marseille","lat":43.22526,"lon":5.34827,"is_reserved":false,"is_disabled":false,"rental_uris":{"android":"levelo://app?vid=09dca68d-a96e-4c7c-8c93-084a9274aaf6","ios":"levelo://app?vid=09dca68d-a96e-4c7c-8c93-084a9274aaf6"},"vehicle_type_id":"4","last_reported":1777145847,"current_range_meters":4400,"station_id":"st_cvj5dfep6f1abm77gieg","pricing_plan_id":"cebpf4jnsgd1na2vs0mg"},{"bike_id":"466e0073-ee81-4c09-83a5-0816354b098b","system_id":"levelo_inurba_marseille","lat":43.315255,"lon":5.380341,"is_reserved":false,"is_disabled":false,"rental_uris":{"android":"levelo://app?vid=466e0073-ee81-4c09-83a5-0816354b098b","ios":"levelo://app?vid=466e0073-ee81-4c09-83a5-0816354b098b"},"vehicle_type_id":"4","last_reported":1777145847,"current_range_meters":4400,"station_id":"ce4bhsp2rcd13ifvqi50","pricing_plan_id":"cebpf4jnsgd1na2vs0mg"},{"bike_id":"eef9a020-2f76-4609-8cd3-26b9669d032c","system_id":"levelo_inurba_marseille","lat":43.2463,"lon":5.43439,"is_reserved":false,"is_disabled":false,"rental_uris":{"android":"levelo://app?vid=eef9a020-2f76-4609-8cd3-26b9669d032c","ios":"levelo://app?vid=eef9a020-2f76-4609-8cd3-26b9669d032c"},"vehicle_type_id":"4","last_reported":1777145847,"current_range_meters":4400,"station_id":"ce4bgg92rcd13ifvqb30","pricing_plan_id":"cebpf4jnsgd1na2vs0mg"},{"bike_id":"8f869201-a78c-443e-a49c-dbafe857f1ed","system_id":"levelo_inurba_marseille","lat":43.30089,"lon":5.3907,"is_reserved":false,"is_disabled":false,"rental_uris":{"android":"levelo://app?vid=8f869201-a78c-443e-a49c-dbafe857f1ed","ios":"levelo://app?vid=8f869201-a78c-443e-a49c-dbafe857f1ed"},"vehicle_type_id":"4","last_reported":1777145847,"current_range_meters":4400,"station_id":"ce4bh192rcd13ifvqdb0","pricing_plan_id":"cebpf4jnsgd1na2vs0mg"},{"bike_id":"a972fa6f-0255-4be8-9023-097b824b7023","system_id":"levelo_inurba_marseille","lat":43.29031,"lon":5.38109,"is_reserved":false,"is_disabled":false,"rental_uris":{"android":"levelo://app?vid=a972fa6f-0255-4be8-9023-097b824b7023","ios":"levelo://app?vid=a972fa6f-0255-4be8-9023-097b824b7023"},"vehicle_type_id":"4","last_reported":1777145847,"current_range_meters":4400,"station_id":"ce4bh4p2rcd13ifvqe1g","pricing_plan_id":"cebpf4jnsgd1na2vs0mg"},{"bike_id":"e243155c-2775-42d9-9d4e-ad6e7e6fab95","system_id":"levelo_inurba_marseille","lat":43.23887,"lon":5.37449,"is_reserved":false,"is_disabled":false,"rental_uris":{"android":"levelo://app?vid=e243155c-2775-42d9-9d4e-ad6e7e6fab95","ios":"levelo://app?vid=e243155c-2775-42d9-9d4e-ad6e7e6fab95"},"vehicle_type_id":"4","last_reported":1777145847,"current_range_meters":4400,"station_id":"","pricing_plan_id":"cebpf4jnsgd1na2vs0mg"},{"bike_id":"071eb1fd-1dcf-4e3a-a611-a7bf2415e8af","system_id":"levelo_inurba_marseille","lat":43.26047,"lon":5.37554,"is_reserved":false,"is_disabled":false,"rental_uris":{"android":"levelo://app?vid=071eb1fd-1dcf-4e3a-a611-a7bf2415e8af","ios":"levelo://app?vid=071eb1fd-1dcf-4e3a-a611-a7bf2415e8af"},"vehicle_type_id":"4","last_reported":1777145847,"current_range_meters":4800,"station_id":"ce4bhgh2rcd13ifvqfa0","pricing_plan_id":"cebpf4jnsgd1na2vs0mg"},{"bike_id":"8c8d3a1e-3e2c-407c-b8ad-af868cc54226","system_id":"levelo_inurba_marseille","lat":43.294882,"lon":5.393907,"is_reserved":false,"is_disabled":false,"rental_uris":{"android":"levelo://app?vid=8c8d3a1e-3e2c-407c-b8ad-af868cc54226","ios":"levelo://app?vid=8c8d3a1e-3e2c-407c-b8ad-af868cc54226"},"vehicle_type_id":"4","last_reported":1777145847,"current_range_meters":4800,"station_id":"","pricing_plan_id":"cebpf4jnsgd1na2vs0mg"},{"bike_id":"f645e30b-5616-45b3-a17d-faf4a49d971d","system_id":"levelo_inurba_marseille","lat":43.31,"lon":5.37533,"is_reserved":false,"is_disabled":false,"rental_uris":{"android":"levelo://app?vid=f645e30b-5616-45b3-a17d-faf4a49d971d","ios":"levelo://app?vid=f645e30b-5616-45b3-a17d-faf4a49d971d"},"vehicle_type_id":"4","last_reported":1777145847,"current_range_meters":4800,"station_id":"","pricing_plan_id":"cebpf4jnsgd1na2vs0mg"},{"bike_id":"45ad0d0e-efdd-4c05-bbcd-19b309dc3892","system_id":"levelo_inurba_marseille","lat":43.28,"lon":5.41657,"is_reserved":false,"is_disabled":false,"rental_uris":{"android":"levelo://app?vid=45ad0d0e-efdd-4c05-bbcd-19b309dc3892","ios":"levelo://app?vid=45ad0d0e-efdd-4c05-bbcd-19b309dc3892"},"vehicle_type_id":"4","last_reported":1777145847,"current_range_meters":4800,"station_id":"ce4bho12rcd13ifvqh1g","pricing_plan_id":"cebpf4jnsgd1na2vs0mg"},{"bike_id":"229e4557-384d-4a68-9d9c-a426b264692f","system_id":"levelo_inurba_marseille","lat":43.26022,"lon":5.37521,"is_reserved":false,"is_disabled":false,"rental_uris":{"android":"levelo://app?vid=229e4557-384d-4a68-9d9c-a426b264692f","ios":"levelo://app?vid=229e4557-384d-4a68-9d9c-a426b264692f"},"vehicle_type_id":"4","last_reported":1777145847,"current_range_meters":4800,"station_id":"ce4bhgh2rcd13ifvqfa0","pricing_plan_id":"cebpf4jnsgd1na2vs0mg"},{"bike_id":"a3dee876-3af2-46d4-9131-1dd0997e500a","system_id":"levelo_inurba_marseille","lat":43.24397,"lon":5.37052,"is_reserved":false,"is_disabled":true,"rental_uris":{"android":"levelo://app?vid=a3dee876-3af2-46d4-9131-1dd0997e500a","ios":"levelo://app?vid=a3dee876-3af2-46d4-9131-1dd0997e500a"},"vehicle_type_id":"4","last_reported":1777145847,"current_range_meters":4800,"station_id":"ce4bhhh2rcd13ifvqfk0","pricing_plan_id":"cebpf4jnsgd1na2vs0mg"},{"bike_id":"69688320-fc94-4eeb-b07a-722aeb59cd49","system_id":"levelo_inurba_marseille","lat":43.29886,"lon":5.3891,"is_reserved":false,"is_disabled":false,"rental_uris":{"android":"levelo://app?vid=69688320-fc94-4eeb-b07a-722aeb59cd49","ios":"levelo://app?vid=69688320-fc94-4eeb-b07a-722aeb59cd49"},"vehicle_type_id":"4","last_reported":1777145847,"current_range_meters":4800,"station_id":"ce4bh392rcd13ifvqdl0","pricing_plan_id":"cebpf4jnsgd1na2vs0mg"},{"bike_id":"021c3599-d960-4255-bf18-8b3b47549997","system_id":"levelo_inurba_marseille","lat":43.30189,"lon":5.43082,"is_reserved":false,"is_disabled":false,"rental_uris":{"android":"levelo://app?vid=021c3599-d960-4255-bf18-8b3b47549997","ios":"levelo://app?vid=021c3599-d960-4255-bf18-8b3b47549997"},"vehicle_type_id":"4","last_reported":1777145847,"current_range_meters":4800,"station_id":"","pricing_plan_id":"cebpf4jnsgd1na2vs0mg"},{"bike_id":"62a20b6e-e98d-4cc9-b298-e865d7184b00","system_id":"levelo_inurba_marseille","lat":43.25506,"lon":5.37626,"is_reserved":false,"is_disabled":false,"rental_uris":{"android":"levelo://app?vid=62a20b6e-e98d-4cc9-b298-e865d7184b00","ios":"levelo://app?vid=62a20b6e-e98d-4cc9-b298-e865d7184b00"},"vehicle_type_id":"4","last_reported":1777145847,"current_range_meters":4800,"station_id":"ce4bhh12rcd13ifvqff0","pricing_plan_id":"cebpf4jnsgd1na2vs0mg"},{"bike_id":"a208aaea-8a96-4766-b9c0-0e1750657c56","system_id":"levelo_inurba_marseille","lat":43.26194,"lon":5.37453,"is_reserved":false,"is_disabled":false,"rental_uris":{"android":"levelo://app?vid=a208aaea-8a96-4766-b9c0-0e1750657c56","ios":"levelo://app?vid=a208aaea-8a96-4766-b9c0-0e1750657c56"},"vehicle_type_id":"4","last_reported":1777145847,"current_range_meters":4800,"station_id":"ce4bhgp2rcd13ifvqfc0","pricing_plan_id":"cebpf4jnsgd1na2vs0mg"},{"bike_id":"f13cbeb5-e880-445e-bdac-edb536f92a53","system_id":"levelo_inurba_marseille","lat":43.284119,"lon":5.375065,"is_reserved":false,"is_disabled":false,"rental_uris":{"android":"levelo://app?vid=f13cbeb5-e880-445e-bdac-edb536f92a53","ios":"levelo://app?vid=f13cbeb5-e880-445e-bdac-edb536f92a53"},"vehicle_type_id":"4","last_reported":1777145847,"current_range_meters":4800,"station_id":"ce4bh412rcd13ifvqds0","pricing_plan_id":"cebpf4jnsgd1na2vs0mg"},{"bike_id":"6b498e23-233c-44e7-bdf2-4e8481886ee3","system_id":"levelo_inurba_marseille","lat":43.25522,"lon":5.37604,"is_reserved":false,"is_disabled":false,"rental_uris":{"android":"levelo://app?vid=6b498e23-233c-44e7-bdf2-4e8481886ee3","ios":"levelo://app?vid=6b498e23-233c-44e7-bdf2-4e8481886ee3"},"vehicle_type_id":"4","last_reported":1777145847,"current_range_meters":4800,"station_id":"ce4bhh12rcd13ifvqff0","pricing_plan_id":"cebpf4jnsgd1na2vs0mg"},{"bike_id":"00ec9811-c491-4632-b144-7c61702dd074","system_id":"levelo_inurba_marseille","lat":43.30298,"lon":5.39207,"is_reserved":false,"is_disabled":false,"rental_uris":{"android":"levelo://app?vid=00ec9811-c491-4632-b144-7c61702dd074","ios":"levelo://app?vid=00ec9811-c491-4632-b144-7c61702dd074"},"vehicle_type_id":"4","last_reported":1777145847,"current_range_meters":4800,"station_id":"ce4bgkh2rcd13ifvqbk0","pricing_plan_id":"cebpf4jnsgd1na2vs0mg"},{"bike_id":"9e736a24-151b-4861-9d3c-68515cd11e0f","system_id":"levelo_inurba_marseille","lat":43.32087,"lon":5.36776,"is_reserved":false,"is_disabled":false,"rental_uris":{"android":"levelo://app?vid=9e736a24-151b-4861-9d3c-68515cd11e0f","ios":"levelo://app?vid=9e736a24-151b-4861-9d3c-68515cd11e0f"},"vehicle_type_id":"4","last_reported":1777145847,"current_range_meters":4800,"station_id":"ce4bhrh2rcd13ifvqhug","pricing_plan_id":"cebpf4jnsgd1na2vs0mg"},{"bike_id":"10e3c355-43b1-42ea-bf9c-d9bafe71e9b1","system_id":"levelo_inurba_marseille","lat":43.243961,"lon":5.370769,"is_reserved":false,"is_disabled":false,"rental_uris":{"android":"levelo://app?vid=10e3c355-43b1-42ea-bf9c-d9bafe71e9b1","ios":"levelo://app?vid=10e3c355-43b1-42ea-bf9c-d9bafe71e9b1"},"vehicle_type_id":"4","last_reported":1777145847,"current_range_meters":4800,"station_id":"ce4bhhh2rcd13ifvqfk0","pricing_plan_id":"cebpf4jnsgd1na2vs0mg"},{"bike_id":"39f6bad4-bf10-485c-9377-fd2a81bc23cd","system_id":"levelo_inurba_marseille","lat":43.29409,"lon":5.42619,"is_reserved":false,"is_disabled":false,"rental_uris":{"android":"levelo://app?vid=39f6bad4-bf10-485c-9377-fd2a81bc23cd","ios":"levelo://app?vid=39f6bad4-bf10-485c-9377-fd2a81bc23cd"},"vehicle_type_id":"4","last_reported":1777145847,"current_range_meters":4800,"station_id":"","pricing_plan_id":"cebpf4jnsgd1na2vs0mg"},{"bike_id":"931d703e-4043-4cf3-8b49-a4394f33276a","system_id":"levelo_inurba_marseille","lat":43.27815,"lon":5.40724,"is_reserved":false,"is_disabled":false,"rental_uris":{"android":"levelo://app?vid=931d703e-4043-4cf3-8b49-a4394f33276a","ios":"levelo://app?vid=931d703e-4043-4cf3-8b49-a4394f33276a"},"vehicle_type_id":"4","last_reported":1777145847,"current_range_meters":4800,"station_id":"ce4bhnh2rcd13ifvqgtg","pricing_plan_id":"cebpf4jnsgd1na2vs0mg"},{"bike_id":"29bcf56b-a251-43a4-8a86-cc7e3f97bfe9","system_id":"levelo_inurba_marseille","lat":43.289298,"lon":5.383977,"is_reserved":false,"is_disabled":false,"rental_uris":{"android":"levelo://app?vid=29bcf56b-a251-43a4-8a86-cc7e3f97bfe9","ios":"levelo://app?vid=29bcf56b-a251-43a4-8a86-cc7e3f97bfe9"},"vehicle_type_id":"4","last_reported":1777145847,"current_range_meters":4800,"station_id":"ce4bh612rcd13ifvqe6g","pricing_plan_id":"cebpf4jnsgd1na2vs0mg"},{"bike_id":"7c0d7be3-2138-4647-b769-46f1621ebe65","system_id":"levelo_inurba_marseille","lat":43.29264,"lon":5.38439,"is_reserved":false,"is_disabled":false,"rental_uris":{"android":"levelo://app?vid=7c0d7be3-2138-4647-b769-46f1621ebe65","ios":"levelo://app?vid=7c0d7be3-2138-4647-b769-46f1621ebe65"},"vehicle_type_id":"4","last_reported":1777145847,"current_range_meters":5600,"station_id":"ce4bh692rcd13ifvqea0","pricing_plan_id":"cebpf4jnsgd1na2vs0mg"},{"bike_id":"ed1a87dd-7119-49fa-a74d-a0c0816a0770","system_id":"levelo_inurba_marseille","lat":43.29167,"lon":5.3716,"is_reserved":false,"is_disabled":false,"rental_uris":{"android":"levelo://app?vid=ed1a87dd-7119-49fa-a74d-a0c0816a0770","ios":"levelo://app?vid=ed1a87dd-7119-49fa-a74d-a0c0816a0770"},"vehicle_type_id":"4","last_reported":1777145847,"current_range_meters":5600,"station_id":"ce4bha92rcd13ifvqeh0","pricing_plan_id":"cebpf4jnsgd1na2vs0mg"},{"bike_id":"0ce641a1-ca62-4f05-b894-4a72f77b98f2","system_id":"levelo_inurba_marseille","lat":43.32345,"lon":5.36757,"is_reserved":false,"is_disabled":false,"rental_uris":{"android":"levelo://app?vid=0ce641a1-ca62-4f05-b894-4a72f77b98f2","ios":"levelo://app?vid=0ce641a1-ca62-4f05-b894-4a72f77b98f2"},"vehicle_type_id":"4","last_reported":1777145847,"current_range_meters":5600,"station_id":"ce4bhsh2rcd13ifvqi2g","pricing_plan_id":"cebpf4jnsgd1na2vs0mg"},{"bike_id":"54dd0309-49d2-49f6-bbb2-520a1e5622f4","system_id":"levelo_inurba_marseille","lat":43.24155,"lon":5.36419,"is_reserved":false,"is_disabled":false,"rental_uris":{"android":"levelo://app?vid=54dd0309-49d2-49f6-bbb2-520a1e5622f4","ios":"levelo://app?vid=54dd0309-49d2-49f6-bbb2-520a1e5622f4"},"vehicle_type_id":"4","last_reported":1777145847,"current_range_meters":5600,"station_id":"cpo36qri1sfpv3e86is0","pricing_plan_id":"cebpf4jnsgd1na2vs0mg"},{"bike_id":"38cefda9-7cce-4e87-b758-bb391bf5fcee","system_id":"levelo_inurba_marseille","lat":43.24814,"lon":5.37461,"is_reserved":false,"is_disabled":false,"rental_uris":{"android":"levelo://app?vid=38cefda9-7cce-4e87-b758-bb391bf5fcee","ios":"levelo://app?vid=38cefda9-7cce-4e87-b758-bb391bf5fcee"},"vehicle_type_id":"4","last_reported":1777145847,"current_range_meters":5600,"station_id":"ce4bhgh2rcd13ifvqfb0","pricing_plan_id":"cebpf4jnsgd1na2vs0mg"},{"bike_id":"797253f7-9e44-4f79-a87c-300c0f9b90fb","system_id":"levelo_inurba_marseille","lat":43.29962,"lon":5.38532,"is_reserved":false,"is_disabled":false,"rental_uris":{"android":"levelo://app?vid=797253f7-9e44-4f79-a87c-300c0f9b90fb","ios":"levelo://app?vid=797253f7-9e44-4f79-a87c-300c0f9b90fb"},"vehicle_type_id":"4","last_reported":1777145847,"current_range_meters":5600,"station_id":"ce4bgj92rcd13ifvqbd0","pricing_plan_id":"cebpf4jnsgd1na2vs0mg"},{"bike_id":"9278db47-07ec-490b-96cb-556e160c5c2f","system_id":"levelo_inurba_marseille","lat":43.29672,"lon":5.37992,"is_reserved":false,"is_disabled":false,"rental_uris":{"android":"levelo://app?vid=9278db47-07ec-490b-96cb-556e160c5c2f","ios":"levelo://app?vid=9278db47-07ec-490b-96cb-556e160c5c2f"},"vehicle_type_id":"4","last_reported":1777145847,"current_range_meters":5600,"station_id":"","pricing_plan_id":"cebpf4jnsgd1na2vs0mg"},{"bike_id":"f5d16d6d-39fd-4d43-a4cc-2ffb6d5c9e41","system_id":"levelo_inurba_marseille","lat":43.29569,"lon":5.37515,"is_reserved":false,"is_disabled":false,"rental_uris":{"android":"levelo://app?vid=f5d16d6d-39fd-4d43-a4cc-2ffb6d5c9e41","ios":"levelo://app?vid=f5d16d6d-39fd-4d43-a4cc-2ffb6d5c9e41"},"vehicle_type_id":"4","last_reported":1777145847,"current_range_meters":5600,"station_id":"ce4bgh92rcd13ifvqb50","pricing_plan_id":"cebpf4jnsgd1na2vs0mg"},{"bike_id":"75471a09-e4ee-4438-b4e9-ebcc3c66f359","system_id":"levelo_inurba_marseille","lat":43.21202,"lon":5.35065,"is_reserved":false,"is_disabled":false,"rental_uris":{"android":"levelo://app?vid=75471a09-e4ee-4438-b4e9-ebcc3c66f359","ios":"levelo://app?vid=75471a09-e4ee-4438-b4e9-ebcc3c66f359"},"vehicle_type_id":"4","last_reported":1777145847,"current_range_meters":5600,"station_id":"st_cvj6sg6p6f1abm77japg","pricing_plan_id":"cebpf4jnsgd1na2vs0mg"},{"bike_id":"128521d5-883e-4bf6-af47-0bc59aee3e65","system_id":"levelo_inurba_marseille","lat":43.25349,"lon":5.42164,"is_reserved":false,"is_disabled":false,"rental_uris":{"android":"levelo://app?vid=128521d5-883e-4bf6-af47-0bc59aee3e65","ios":"levelo://app?vid=128521d5-883e-4bf6-af47-0bc59aee3e65"},"vehicle_type_id":"4","last_reported":1777145847,"current_range_meters":5600,"station_id":"st_d2m65c5bi1j21697t3ng","pricing_plan_id":"cebpf4jnsgd1na2vs0mg"},{"bike_id":"41e4fd2e-7fdb-45e6-9779-3a33c2dd479c","system_id":"levelo_inurba_marseille","lat":43.29243,"lon":5.38429,"is_reserved":false,"is_disabled":false,"rental_uris":{"android":"levelo://app?vid=41e4fd2e-7fdb-45e6-9779-3a33c2dd479c","ios":"levelo://app?vid=41e4fd2e-7fdb-45e6-9779-3a33c2dd479c"},"vehicle_type_id":"4","last_reported":1777145847,"current_range_meters":5600,"station_id":"ce4bh692rcd13ifvqea0","pricing_plan_id":"cebpf4jnsgd1na2vs0mg"},{"bike_id":"cd2ac400-ebcd-495e-bc57-bed49f55aed6","system_id":"levelo_inurba_marseille","lat":43.295269,"lon":5.385406,"is_reserved":false,"is_disabled":false,"rental_uris":{"android":"levelo://app?vid=cd2ac400-ebcd-495e-bc57-bed49f55aed6","ios":"levelo://app?vid=cd2ac400-ebcd-495e-bc57-bed49f55aed6"},"vehicle_type_id":"4","last_reported":1777145847,"current_range_meters":5600,"station_id":"ce4bgih2rcd13ifvqba0","pricing_plan_id":"cebpf4jnsgd1na2vs0mg"},{"bike_id":"c6e7d3cb-7e19-483f-a191-0c88543be223","system_id":"levelo_inurba_marseille","lat":43.30075,"lon":5.39107,"is_reserved":false,"is_disabled":false,"rental_uris":{"android":"levelo://app?vid=c6e7d3cb-7e19-483f-a191-0c88543be223","ios":"levelo://app?vid=c6e7d3cb-7e19-483f-a191-0c88543be223"},"vehicle_type_id":"4","last_reported":1777145847,"current_range_meters":5600,"station_id":"ce4bh192rcd13ifvqdb0","pricing_plan_id":"cebpf4jnsgd1na2vs0mg"},{"bike_id":"4f81052a-376c-4dec-a1c7-95196629e642","system_id":"levelo_inurba_marseille","lat":43.30944,"lon":5.39024,"is_reserved":false,"is_disabled":false,"rental_uris":{"android":"levelo://app?vid=4f81052a-376c-4dec-a1c7-95196629e642","ios":"levelo://app?vid=4f81052a-376c-4dec-a1c7-95196629e642"},"vehicle_type_id":"4","last_reported":1777145847,"current_range_meters":5600,"station_id":"ce4bgup2rcd13ifvqco0","pricing_plan_id":"cebpf4jnsgd1na2vs0mg"},{"bike_id":"318b0f19-64fa-4af9-92a2-6b5d9e2e4a7b","system_id":"levelo_inurba_marseille","lat":43.21179,"lon":5.35074,"is_reserved":false,"is_disabled":false,"rental_uris":{"android":"levelo://app?vid=318b0f19-64fa-4af9-92a2-6b5d9e2e4a7b","ios":"levelo://app?vid=318b0f19-64fa-4af9-92a2-6b5d9e2e4a7b"},"vehicle_type_id":"4","last_reported":1777145847,"current_range_meters":5600,"station_id":"st_cvj6sg6p6f1abm77japg","pricing_plan_id":"cebpf4jnsgd1na2vs0mg"},{"bike_id":"e5922d4f-603e-45d0-a9bc-40f6119c5fe5","system_id":"levelo_inurba_marseille","lat":43.25342,"lon":5.38484,"is_reserved":false,"is_disabled":false,"rental_uris":{"android":"levelo://app?vid=e5922d4f-603e-45d0-a9bc-40f6119c5fe5","ios":"levelo://app?vid=e5922d4f-603e-45d0-a9bc-40f6119c5fe5"},"vehicle_type_id":"4","last_reported":1777145847,"current_range_meters":5600,"station_id":"","pricing_plan_id":"cebpf4jnsgd1na2vs0mg"},{"bike_id":"5091d3df-140a-4a96-ba1e-f44ab742c57b","system_id":"levelo_inurba_marseille","lat":43.23186,"lon":5.40021,"is_reserved":false,"is_disabled":true,"rental_uris":{"android":"levelo://app?vid=5091d3df-140a-4a96-ba1e-f44ab742c57b","ios":"levelo://app?vid=5091d3df-140a-4a96-ba1e-f44ab742c57b"},"vehicle_type_id":"4","last_reported":1777145847,"current_range_meters":5600,"station_id":"ce4bhn12rcd13ifvqgqg","pricing_plan_id":"cebpf4jnsgd1na2vs0mg"},{"bike_id":"36083d0d-36eb-4ce6-bb81-4eee378f0183","system_id":"levelo_inurba_marseille","lat":43.30211,"lon":5.39473,"is_reserved":false,"is_disabled":false,"rental_uris":{"android":"levelo://app?vid=36083d0d-36eb-4ce6-bb81-4eee378f0183","ios":"levelo://app?vid=36083d0d-36eb-4ce6-bb81-4eee378f0183"},"vehicle_type_id":"4","last_reported":1777145847,"current_range_meters":5600,"station_id":"ce4bh0p2rcd13ifvqd70","pricing_plan_id":"cebpf4jnsgd1na2vs0mg"},{"bike_id":"3ba1478b-abeb-4ad1-83b7-36b5bf0ef775","system_id":"levelo_inurba_marseille","lat":43.29533,"lon":5.38539,"is_reserved":false,"is_disabled":false,"rental_uris":{"android":"levelo://app?vid=3ba1478b-abeb-4ad1-83b7-36b5bf0ef775","ios":"levelo://app?vid=3ba1478b-abeb-4ad1-83b7-36b5bf0ef775"},"vehicle_type_id":"4","last_reported":1777145847,"current_range_meters":5600,"station_id":"ce4bgih2rcd13ifvqba0","pricing_plan_id":"cebpf4jnsgd1na2vs0mg"},{"bike_id":"d54ba243-3fa7-4f57-81a5-dd9699270ba4","system_id":"levelo_inurba_marseille","lat":43.2747,"lon":5.42471,"is_reserved":false,"is_disabled":false,"rental_uris":{"android":"levelo://app?vid=d54ba243-3fa7-4f57-81a5-dd9699270ba4","ios":"levelo://app?vid=d54ba243-3fa7-4f57-81a5-dd9699270ba4"},"vehicle_type_id":"4","last_reported":1777145847,"current_range_meters":5600,"station_id":"ce4bhn92rcd13ifvqgrg","pricing_plan_id":"cebpf4jnsgd1na2vs0mg"},{"bike_id":"bb841770-77e0-438c-b90a-112e94cc769f","system_id":"levelo_inurba_marseille","lat":43.2987,"lon":5.39755,"is_reserved":false,"is_disabled":false,"rental_uris":{"android":"levelo://app?vid=bb841770-77e0-438c-b90a-112e94cc769f","ios":"levelo://app?vid=bb841770-77e0-438c-b90a-112e94cc769f"},"vehicle_type_id":"4","last_reported":1777145847,"current_range_meters":5600,"station_id":"ce4bh0h2rcd13ifvqd50","pricing_plan_id":"cebpf4jnsgd1na2vs0mg"},{"bike_id":"7aebbbfc-c11e-4024-b166-31ba95087b64","system_id":"levelo_inurba_marseille","lat":43.25578,"lon":5.38225,"is_reserved":false,"is_disabled":false,"rental_uris":{"android":"levelo://app?vid=7aebbbfc-c11e-4024-b166-31ba95087b64","ios":"levelo://app?vid=7aebbbfc-c11e-4024-b166-31ba95087b64"},"vehicle_type_id":"4","last_reported":1777145847,"current_range_meters":5600,"station_id":"ce4bhih2rcd13ifvqfs0","pricing_plan_id":"cebpf4jnsgd1na2vs0mg"},{"bike_id":"56365307-f337-4264-b14d-be5d1ec17d1e","system_id":"levelo_inurba_marseille","lat":43.28922,"lon":5.38423,"is_reserved":false,"is_disabled":false,"rental_uris":{"android":"levelo://app?vid=56365307-f337-4264-b14d-be5d1ec17d1e","ios":"levelo://app?vid=56365307-f337-4264-b14d-be5d1ec17d1e"},"vehicle_type_id":"4","last_reported":1777145847,"current_range_meters":5600,"station_id":"","pricing_plan_id":"cebpf4jnsgd1na2vs0mg"},{"bike_id":"c0126e79-e455-4033-aa6f-9cd2537e8b04","system_id":"levelo_inurba_marseille","lat":43.28653,"lon":5.46699,"is_reserved":false,"is_disabled":false,"rental_uris":{"android":"levelo://app?vid=c0126e79-e455-4033-aa6f-9cd2537e8b04","ios":"levelo://app?vid=c0126e79-e455-4033-aa6f-9cd2537e8b04"},"vehicle_type_id":"4","last_reported":1777145847,"current_range_meters":6000,"station_id":"st_d6tc3vkotcvc738tfjhg","pricing_plan_id":"cebpf4jnsgd1na2vs0mg"},{"bike_id":"d70320f1-5e83-436f-822f-c8457a777236","system_id":"levelo_inurba_marseille","lat":43.26229,"lon":5.4045,"is_reserved":false,"is_disabled":false,"rental_uris":{"android":"levelo://app?vid=d70320f1-5e83-436f-822f-c8457a777236","ios":"levelo://app?vid=d70320f1-5e83-436f-822f-c8457a777236"},"vehicle_type_id":"4","last_reported":1777145847,"current_range_meters":6000,"station_id":"ce4bhmh2rcd13ifvqgmg","pricing_plan_id":"cebpf4jnsgd1na2vs0mg"},{"bike_id":"8d087c60-78e6-40f1-847c-41984b3a6f63","system_id":"levelo_inurba_marseille","lat":43.2481,"lon":5.37476,"is_reserved":false,"is_disabled":false,"rental_uris":{"android":"levelo://app?vid=8d087c60-78e6-40f1-847c-41984b3a6f63","ios":"levelo://app?vid=8d087c60-78e6-40f1-847c-41984b3a6f63"},"vehicle_type_id":"4","last_reported":1777145847,"current_range_meters":6000,"station_id":"ce4bhgh2rcd13ifvqfb0","pricing_plan_id":"cebpf4jnsgd1na2vs0mg"},{"bike_id":"6fc400a6-f028-4b49-86c7-01a37f0c4d06","system_id":"levelo_inurba_marseille","lat":43.29611,"lon":5.37726,"is_reserved":false,"is_disabled":false,"rental_uris":{"android":"levelo://app?vid=6fc400a6-f028-4b49-86c7-01a37f0c4d06","ios":"levelo://app?vid=6fc400a6-f028-4b49-86c7-01a37f0c4d06"},"vehicle_type_id":"4","last_reported":1777145847,"current_range_meters":6000,"station_id":"ce4bgi92rcd13ifvqb90","pricing_plan_id":"cebpf4jnsgd1na2vs0mg"},{"bike_id":"307c3f88-4f5d-4b99-b380-40e42d12ae00","system_id":"levelo_inurba_marseille","lat":43.31538,"lon":5.38012,"is_reserved":false,"is_disabled":false,"rental_uris":{"android":"levelo://app?vid=307c3f88-4f5d-4b99-b380-40e42d12ae00","ios":"levelo://app?vid=307c3f88-4f5d-4b99-b380-40e42d12ae00"},"vehicle_type_id":"4","last_reported":1777145847,"current_range_meters":6000,"station_id":"ce4bhsp2rcd13ifvqi50","pricing_plan_id":"cebpf4jnsgd1na2vs0mg"},{"bike_id":"9bcb5bad-dbb2-431c-9005-5d79941461cd","system_id":"levelo_inurba_marseille","lat":43.24417,"lon":5.37045,"is_reserved":false,"is_disabled":false,"rental_uris":{"android":"levelo://app?vid=9bcb5bad-dbb2-431c-9005-5d79941461cd","ios":"levelo://app?vid=9bcb5bad-dbb2-431c-9005-5d79941461cd"},"vehicle_type_id":"4","last_reported":1777145847,"current_range_meters":6000,"station_id":"ce4bhhh2rcd13ifvqfk0","pricing_plan_id":"cebpf4jnsgd1na2vs0mg"},{"bike_id":"3c21f0ef-7f78-49a9-8bbf-12a3b7f18f2e","system_id":"levelo_inurba_marseille","lat":43.27491,"lon":5.42456,"is_reserved":false,"is_disabled":false,"rental_uris":{"android":"levelo://app?vid=3c21f0ef-7f78-49a9-8bbf-12a3b7f18f2e","ios":"levelo://app?vid=3c21f0ef-7f78-49a9-8bbf-12a3b7f18f2e"},"vehicle_type_id":"4","last_reported":1777145847,"current_range_meters":6000,"station_id":"ce4bhn92rcd13ifvqgrg","pricing_plan_id":"cebpf4jnsgd1na2vs0mg"},{"bike_id":"ec381707-e3cf-458c-ab27-d0aaa4d21a63","system_id":"levelo_inurba_marseille","lat":43.29544,"lon":5.37499,"is_reserved":false,"is_disabled":false,"rental_uris":{"android":"levelo://app?vid=ec381707-e3cf-458c-ab27-d0aaa4d21a63","ios":"levelo://app?vid=ec381707-e3cf-458c-ab27-d0aaa4d21a63"},"vehicle_type_id":"4","last_reported":1777145847,"current_range_meters":6000,"station_id":"ce4bgkp2rcd13ifvqbmg","pricing_plan_id":"cebpf4jnsgd1na2vs0mg"},{"bike_id":"724d0869-017c-4e7e-9911-705be0df09b1","system_id":"levelo_inurba_marseille","lat":43.24594,"lon":5.41818,"is_reserved":false,"is_disabled":false,"rental_uris":{"android":"levelo://app?vid=724d0869-017c-4e7e-9911-705be0df09b1","ios":"levelo://app?vid=724d0869-017c-4e7e-9911-705be0df09b1"},"vehicle_type_id":"4","last_reported":1777145847,"current_range_meters":6000,"station_id":"","pricing_plan_id":"cebpf4jnsgd1na2vs0mg"},{"bike_id":"475140f4-b583-4984-8b03-5ba0e4640098","system_id":"levelo_inurba_marseille","lat":43.29531,"lon":5.38538,"is_reserved":false,"is_disabled":false,"rental_uris":{"android":"levelo://app?vid=475140f4-b583-4984-8b03-5ba0e4640098","ios":"levelo://app?vid=475140f4-b583-4984-8b03-5ba0e4640098"},"vehicle_type_id":"4","last_reported":1777145847,"current_range_meters":6000,"station_id":"ce4bgih2rcd13ifvqba0","pricing_plan_id":"cebpf4jnsgd1na2vs0mg"},{"bike_id":"754019d3-f125-49d6-bc3c-33aaf97a98b7","system_id":"levelo_inurba_marseille","lat":43.29873,"lon":5.38902,"is_reserved":false,"is_disabled":false,"rental_uris":{"android":"levelo://app?vid=754019d3-f125-49d6-bc3c-33aaf97a98b7","ios":"levelo://app?vid=754019d3-f125-49d6-bc3c-33aaf97a98b7"},"vehicle_type_id":"4","last_reported":1777145847,"current_range_meters":6000,"station_id":"ce4bh392rcd13ifvqdl0","pricing_plan_id":"cebpf4jnsgd1na2vs0mg"},{"bike_id":"12057cda-3ba8-482e-a13b-e249ec864342","system_id":"levelo_inurba_marseille","lat":43.28847,"lon":5.39316,"is_reserved":false,"is_disabled":false,"rental_uris":{"android":"levelo://app?vid=12057cda-3ba8-482e-a13b-e249ec864342","ios":"levelo://app?vid=12057cda-3ba8-482e-a13b-e249ec864342"},"vehicle_type_id":"4","last_reported":1777145847,"current_range_meters":6000,"station_id":"ce4bh2p2rcd13ifvqdi0","pricing_plan_id":"cebpf4jnsgd1na2vs0mg"},{"bike_id":"8af7cc4d-787c-4a52-85ef-58bed94c7550","system_id":"levelo_inurba_marseille","lat":43.26139,"lon":5.40444,"is_reserved":false,"is_disabled":false,"rental_uris":{"android":"levelo://app?vid=8af7cc4d-787c-4a52-85ef-58bed94c7550","ios":"levelo://app?vid=8af7cc4d-787c-4a52-85ef-58bed94c7550"},"vehicle_type_id":"4","last_reported":1777145847,"current_range_meters":6000,"station_id":"ce4bhmh2rcd13ifvqgmg","pricing_plan_id":"cebpf4jnsgd1na2vs0mg"},{"bike_id":"c59be3d3-cf96-4d7a-8c29-fb9caa097bc9","system_id":"levelo_inurba_marseille","lat":43.30938,"lon":5.39037,"is_reserved":false,"is_disabled":false,"rental_uris":{"android":"levelo://app?vid=c59be3d3-cf96-4d7a-8c29-fb9caa097bc9","ios":"levelo://app?vid=c59be3d3-cf96-4d7a-8c29-fb9caa097bc9"},"vehicle_type_id":"4","last_reported":1777145847,"current_range_meters":6000,"station_id":"ce4bgup2rcd13ifvqco0","pricing_plan_id":"cebpf4jnsgd1na2vs0mg"},{"bike_id":"bb0f2dfc-dc0c-4fb3-87e6-b8c689e7bb26","system_id":"levelo_inurba_marseille","lat":43.27905,"lon":5.37999,"is_reserved":false,"is_disabled":false,"rental_uris":{"android":"levelo://app?vid=bb0f2dfc-dc0c-4fb3-87e6-b8c689e7bb26","ios":"levelo://app?vid=bb0f2dfc-dc0c-4fb3-87e6-b8c689e7bb26"},"vehicle_type_id":"4","last_reported":1777145847,"current_range_meters":6000,"station_id":"ce4bhf92rcd13ifvqf50","pricing_plan_id":"cebpf4jnsgd1na2vs0mg"},{"bike_id":"c639e9dd-379a-46f8-b469-b2b3bc25eac4","system_id":"levelo_inurba_marseille","lat":43.28992,"lon":5.35621,"is_reserved":false,"is_disabled":true,"rental_uris":{"android":"levelo://app?vid=c639e9dd-379a-46f8-b469-b2b3bc25eac4","ios":"levelo://app?vid=c639e9dd-379a-46f8-b469-b2b3bc25eac4"},"vehicle_type_id":"4","last_reported":1777145847,"current_range_meters":6400,"station_id":"ce4bhb92rcd13ifvqen0","pricing_plan_id":"cebpf4jnsgd1na2vs0mg"},{"bike_id":"4bbbb14a-8fcc-43d3-a29a-3f8be7e2f321","system_id":"levelo_inurba_marseille","lat":43.29346,"lon":5.37208,"is_reserved":false,"is_disabled":false,"rental_uris":{"android":"levelo://app?vid=4bbbb14a-8fcc-43d3-a29a-3f8be7e2f321","ios":"levelo://app?vid=4bbbb14a-8fcc-43d3-a29a-3f8be7e2f321"},"vehicle_type_id":"4","last_reported":1777145847,"current_range_meters":6400,"station_id":"ce4bgh92rcd13ifvqb40","pricing_plan_id":"cebpf4jnsgd1na2vs0mg"},{"bike_id":"90610949-5042-40f1-8252-076aeddd7d81","system_id":"levelo_inurba_marseille","lat":43.3195,"lon":5.36777,"is_reserved":false,"is_disabled":false,"rental_uris":{"android":"levelo://app?vid=90610949-5042-40f1-8252-076aeddd7d81","ios":"levelo://app?vid=90610949-5042-40f1-8252-076aeddd7d81"},"vehicle_type_id":"4","last_reported":1777145847,"current_range_meters":6400,"station_id":"","pricing_plan_id":"cebpf4jnsgd1na2vs0mg"},{"bike_id":"47cdfd85-c850-4193-aaa5-b5a23a2b2f3d","system_id":"levelo_inurba_marseille","lat":43.31096,"lon":5.37235,"is_reserved":false,"is_disabled":false,"rental_uris":{"android":"levelo://app?vid=47cdfd85-c850-4193-aaa5-b5a23a2b2f3d","ios":"levelo://app?vid=47cdfd85-c850-4193-aaa5-b5a23a2b2f3d"},"vehicle_type_id":"4","last_reported":1777145847,"current_range_meters":6400,"station_id":"st_d4kl2rp97mjs73e7tdfg","pricing_plan_id":"cebpf4jnsgd1na2vs0mg"},{"bike_id":"085eefc3-42b6-4e5f-8fa3-5e096f60ac23","system_id":"levelo_inurba_marseille","lat":43.21757,"lon":5.34596,"is_reserved":false,"is_disabled":true,"rental_uris":{"android":"levelo://app?vid=085eefc3-42b6-4e5f-8fa3-5e096f60ac23","ios":"levelo://app?vid=085eefc3-42b6-4e5f-8fa3-5e096f60ac23"},"vehicle_type_id":"4","last_reported":1777145847,"current_range_meters":6400,"station_id":"st_cvj6r9ubvosntc0bgbag","pricing_plan_id":"cebpf4jnsgd1na2vs0mg"},{"bike_id":"31576ba8-1f4c-41d0-874e-23e65252a8a9","system_id":"levelo_inurba_marseille","lat":43.23893,"lon":5.37452,"is_reserved":false,"is_disabled":false,"rental_uris":{"android":"levelo://app?vid=31576ba8-1f4c-41d0-874e-23e65252a8a9","ios":"levelo://app?vid=31576ba8-1f4c-41d0-874e-23e65252a8a9"},"vehicle_type_id":"4","last_reported":1777145847,"current_range_meters":6400,"station_id":"st_d6sm7csbq4hs73f8fpjg","pricing_plan_id":"cebpf4jnsgd1na2vs0mg"},{"bike_id":"36fe2575-22d8-45fc-b110-398032622606","system_id":"levelo_inurba_marseille","lat":43.28484,"lon":5.38435,"is_reserved":false,"is_disabled":true,"rental_uris":{"android":"levelo://app?vid=36fe2575-22d8-45fc-b110-398032622606","ios":"levelo://app?vid=36fe2575-22d8-45fc-b110-398032622606"},"vehicle_type_id":"4","last_reported":1777145847,"current_range_meters":6400,"station_id":"ce4bh512rcd13ifvqe3g","pricing_plan_id":"cebpf4jnsgd1na2vs0mg"},{"bike_id":"f45c6cef-0c24-46b7-81bc-53822d8483bd","system_id":"levelo_inurba_marseille","lat":43.31373,"lon":5.3848,"is_reserved":false,"is_disabled":false,"rental_uris":{"android":"levelo://app?vid=f45c6cef-0c24-46b7-81bc-53822d8483bd","ios":"levelo://app?vid=f45c6cef-0c24-46b7-81bc-53822d8483bd"},"vehicle_type_id":"4","last_reported":1777145847,"current_range_meters":6400,"station_id":"ce4bgt92rcd13ifvqcf0","pricing_plan_id":"cebpf4jnsgd1na2vs0mg"},{"bike_id":"b7808ecd-7c49-495a-ae8b-eadddd23df3d","system_id":"levelo_inurba_marseille","lat":43.29056,"lon":5.37152,"is_reserved":false,"is_disabled":false,"rental_uris":{"android":"levelo://app?vid=b7808ecd-7c49-495a-ae8b-eadddd23df3d","ios":"levelo://app?vid=b7808ecd-7c49-495a-ae8b-eadddd23df3d"},"vehicle_type_id":"4","last_reported":1777145847,"current_range_meters":6400,"station_id":"ce4bh5p2rcd13ifvqe4g","pricing_plan_id":"cebpf4jnsgd1na2vs0mg"},{"bike_id":"1b220113-281c-47e6-acd7-9d49e8223553","system_id":"levelo_inurba_marseille","lat":43.26027,"lon":5.37545,"is_reserved":false,"is_disabled":false,"rental_uris":{"android":"levelo://app?vid=1b220113-281c-47e6-acd7-9d49e8223553","ios":"levelo://app?vid=1b220113-281c-47e6-acd7-9d49e8223553"},"vehicle_type_id":"4","last_reported":1777145847,"current_range_meters":6400,"station_id":"ce4bhgh2rcd13ifvqfa0","pricing_plan_id":"cebpf4jnsgd1na2vs0mg"},{"bike_id":"ab6f758a-3eca-407e-a136-980b0d3ef21b","system_id":"levelo_inurba_marseille","lat":43.29938,"lon":5.39736,"is_reserved":false,"is_disabled":false,"rental_uris":{"android":"levelo://app?vid=ab6f758a-3eca-407e-a136-980b0d3ef21b","ios":"levelo://app?vid=ab6f758a-3eca-407e-a136-980b0d3ef21b"},"vehicle_type_id":"4","last_reported":1777145847,"current_range_meters":6400,"station_id":"ce4bh0h2rcd13ifvqd50","pricing_plan_id":"cebpf4jnsgd1na2vs0mg"},{"bike_id":"6830a6a2-57b1-4138-8073-51c787ff3315","system_id":"levelo_inurba_marseille","lat":43.29574,"lon":5.37504,"is_reserved":false,"is_disabled":false,"rental_uris":{"android":"levelo://app?vid=6830a6a2-57b1-4138-8073-51c787ff3315","ios":"levelo://app?vid=6830a6a2-57b1-4138-8073-51c787ff3315"},"vehicle_type_id":"4","last_reported":1777145847,"current_range_meters":6400,"station_id":"ce4bgh92rcd13ifvqb50","pricing_plan_id":"cebpf4jnsgd1na2vs0mg"},{"bike_id":"4a7b1e50-be85-43f1-bb74-21775d2f463f","system_id":"levelo_inurba_marseille","lat":43.29366,"lon":5.37865,"is_reserved":false,"is_disabled":false,"rental_uris":{"android":"levelo://app?vid=4a7b1e50-be85-43f1-bb74-21775d2f463f","ios":"levelo://app?vid=4a7b1e50-be85-43f1-bb74-21775d2f463f"},"vehicle_type_id":"4","last_reported":1777145847,"current_range_meters":6400,"station_id":"ce4bgjh2rcd13ifvqbf0","pricing_plan_id":"cebpf4jnsgd1na2vs0mg"},{"bike_id":"36d7d4c9-1b24-4865-83e5-4587b97ae3f2","system_id":"levelo_inurba_marseille","lat":43.3009,"lon":5.39083,"is_reserved":false,"is_disabled":false,"rental_uris":{"android":"levelo://app?vid=36d7d4c9-1b24-4865-83e5-4587b97ae3f2","ios":"levelo://app?vid=36d7d4c9-1b24-4865-83e5-4587b97ae3f2"},"vehicle_type_id":"4","last_reported":1777145847,"current_range_meters":6400,"station_id":"ce4bh192rcd13ifvqdb0","pricing_plan_id":"cebpf4jnsgd1na2vs0mg"},{"bike_id":"d2dc1a36-51f9-4423-a54f-f3a7a5fdf737","system_id":"levelo_inurba_marseille","lat":43.23771,"lon":5.36617,"is_reserved":false,"is_disabled":false,"rental_uris":{"android":"levelo://app?vid=d2dc1a36-51f9-4423-a54f-f3a7a5fdf737","ios":"levelo://app?vid=d2dc1a36-51f9-4423-a54f-f3a7a5fdf737"},"vehicle_type_id":"4","last_reported":1777145847,"current_range_meters":6400,"station_id":"st_d3nk18o9ro0c73en2l3g","pricing_plan_id":"cebpf4jnsgd1na2vs0mg"},{"bike_id":"0cab9c48-9703-4c95-b62f-fb5b2a9716c0","system_id":"levelo_inurba_marseille","lat":43.29797,"lon":5.40408,"is_reserved":false,"is_disabled":false,"rental_uris":{"android":"levelo://app?vid=0cab9c48-9703-4c95-b62f-fb5b2a9716c0","ios":"levelo://app?vid=0cab9c48-9703-4c95-b62f-fb5b2a9716c0"},"vehicle_type_id":"4","last_reported":1777145847,"current_range_meters":6400,"station_id":"ce4bh112rcd13ifvqd90","pricing_plan_id":"cebpf4jnsgd1na2vs0mg"},{"bike_id":"d75d7a24-578f-4ebb-b9f1-97b3ca6b773b","system_id":"levelo_inurba_marseille","lat":43.28087,"lon":5.36185,"is_reserved":false,"is_disabled":false,"rental_uris":{"android":"levelo://app?vid=d75d7a24-578f-4ebb-b9f1-97b3ca6b773b","ios":"levelo://app?vid=d75d7a24-578f-4ebb-b9f1-97b3ca6b773b"},"vehicle_type_id":"4","last_reported":1777145847,"current_range_meters":6400,"station_id":"","pricing_plan_id":"cebpf4jnsgd1na2vs0mg"},{"bike_id":"1cfdc941-02f8-40cd-8818-fb2416fb8dbb","system_id":"levelo_inurba_marseille","lat":43.23195,"lon":5.35546,"is_reserved":false,"is_disabled":false,"rental_uris":{"android":"levelo://app?vid=1cfdc941-02f8-40cd-8818-fb2416fb8dbb","ios":"levelo://app?vid=1cfdc941-02f8-40cd-8818-fb2416fb8dbb"},"vehicle_type_id":"4","last_reported":1777145847,"current_range_meters":6400,"station_id":"ce4bhu92rcd13ifvqi70","pricing_plan_id":"cebpf4jnsgd1na2vs0mg"},{"bike_id":"1a53a67e-9022-4580-83c0-fc3f72c9ef8d","system_id":"levelo_inurba_marseille","lat":43.29589,"lon":5.38099,"is_reserved":false,"is_disabled":false,"rental_uris":{"android":"levelo://app?vid=1a53a67e-9022-4580-83c0-fc3f72c9ef8d","ios":"levelo://app?vid=1a53a67e-9022-4580-83c0-fc3f72c9ef8d"},"vehicle_type_id":"4","last_reported":1777145847,"current_range_meters":6400,"station_id":"ce4bgl12rcd13ifvqbo0","pricing_plan_id":"cebpf4jnsgd1na2vs0mg"},{"bike_id":"8d715502-1f4d-495a-aba7-e255ad4122f8","system_id":"levelo_inurba_marseille","lat":43.23959,"lon":5.36624,"is_reserved":false,"is_disabled":false,"rental_uris":{"android":"levelo://app?vid=8d715502-1f4d-495a-aba7-e255ad4122f8","ios":"levelo://app?vid=8d715502-1f4d-495a-aba7-e255ad4122f8"},"vehicle_type_id":"4","last_reported":1777145847,"current_range_meters":6800,"station_id":"ce4bhi12rcd13ifvqfp0","pricing_plan_id":"cebpf4jnsgd1na2vs0mg"},{"bike_id":"a18a394f-a610-42d7-b58a-6d9e4023733d","system_id":"levelo_inurba_marseille","lat":43.30592,"lon":5.39367,"is_reserved":false,"is_disabled":false,"rental_uris":{"android":"levelo://app?vid=a18a394f-a610-42d7-b58a-6d9e4023733d","ios":"levelo://app?vid=a18a394f-a610-42d7-b58a-6d9e4023733d"},"vehicle_type_id":"4","last_reported":1777145847,"current_range_meters":6800,"station_id":"ce4bh0p2rcd13ifvqd80","pricing_plan_id":"cebpf4jnsgd1na2vs0mg"},{"bike_id":"548e4a82-32b2-49d2-a8d0-a6b1676f8a48","system_id":"levelo_inurba_marseille","lat":43.32474,"lon":5.36605,"is_reserved":false,"is_disabled":false,"rental_uris":{"android":"levelo://app?vid=548e4a82-32b2-49d2-a8d0-a6b1676f8a48","ios":"levelo://app?vid=548e4a82-32b2-49d2-a8d0-a6b1676f8a48"},"vehicle_type_id":"4","last_reported":1777145847,"current_range_meters":6800,"station_id":"ce4bhs12rcd13ifvqhvg","pricing_plan_id":"cebpf4jnsgd1na2vs0mg"},{"bike_id":"40d69b45-a292-4d7d-b8e6-837b8b5a9d0c","system_id":"levelo_inurba_marseille","lat":43.28472,"lon":5.48401,"is_reserved":false,"is_disabled":false,"rental_uris":{"android":"levelo://app?vid=40d69b45-a292-4d7d-b8e6-837b8b5a9d0c","ios":"levelo://app?vid=40d69b45-a292-4d7d-b8e6-837b8b5a9d0c"},"vehicle_type_id":"4","last_reported":1777145847,"current_range_meters":6800,"station_id":"","pricing_plan_id":"cebpf4jnsgd1na2vs0mg"},{"bike_id":"2f388e14-7cf3-4e09-a391-9909d679c073","system_id":"levelo_inurba_marseille","lat":43.28701,"lon":5.3999,"is_reserved":false,"is_disabled":false,"rental_uris":{"android":"levelo://app?vid=2f388e14-7cf3-4e09-a391-9909d679c073","ios":"levelo://app?vid=2f388e14-7cf3-4e09-a391-9909d679c073"},"vehicle_type_id":"4","last_reported":1777145847,"current_range_meters":6800,"station_id":"ce4bho92rcd13ifvqh3g","pricing_plan_id":"cebpf4jnsgd1na2vs0mg"},{"bike_id":"5b6becf9-48ba-4d01-8e61-af84209dba34","system_id":"levelo_inurba_marseille","lat":43.29023,"lon":5.37543,"is_reserved":false,"is_disabled":false,"rental_uris":{"android":"levelo://app?vid=5b6becf9-48ba-4d01-8e61-af84209dba34","ios":"levelo://app?vid=5b6becf9-48ba-4d01-8e61-af84209dba34"},"vehicle_type_id":"4","last_reported":1777145847,"current_range_meters":6800,"station_id":"ce4bh692rcd13ifvqe90","pricing_plan_id":"cebpf4jnsgd1na2vs0mg"},{"bike_id":"85e28e2a-2421-4551-a813-382122811cec","system_id":"levelo_inurba_marseille","lat":43.31869,"lon":5.36835,"is_reserved":false,"is_disabled":false,"rental_uris":{"android":"levelo://app?vid=85e28e2a-2421-4551-a813-382122811cec","ios":"levelo://app?vid=85e28e2a-2421-4551-a813-382122811cec"},"vehicle_type_id":"4","last_reported":1777145847,"current_range_meters":6800,"station_id":"st_d6o2h0d0559c73evc1b0","pricing_plan_id":"cebpf4jnsgd1na2vs0mg"},{"bike_id":"541dbded-315f-4ca8-ac49-47fcb4294bb7","system_id":"levelo_inurba_marseille","lat":43.33511,"lon":5.37461,"is_reserved":false,"is_disabled":false,"rental_uris":{"android":"levelo://app?vid=541dbded-315f-4ca8-ac49-47fcb4294bb7","ios":"levelo://app?vid=541dbded-315f-4ca8-ac49-47fcb4294bb7"},"vehicle_type_id":"4","last_reported":1777145847,"current_range_meters":6800,"station_id":"st_d46tts09ee8s73dlu43g","pricing_plan_id":"cebpf4jnsgd1na2vs0mg"},{"bike_id":"28dc652e-391e-4daa-a243-946582e83158","system_id":"levelo_inurba_marseille","lat":43.31689,"lon":5.40465,"is_reserved":false,"is_disabled":false,"rental_uris":{"android":"levelo://app?vid=28dc652e-391e-4daa-a243-946582e83158","ios":"levelo://app?vid=28dc652e-391e-4daa-a243-946582e83158"},"vehicle_type_id":"4","last_reported":1777145847,"current_range_meters":6800,"station_id":"ce4bh012rcd13ifvqd00","pricing_plan_id":"cebpf4jnsgd1na2vs0mg"},{"bike_id":"443b98be-dc24-4cc0-a7e2-1626a15c571c","system_id":"levelo_inurba_marseille","lat":43.29201,"lon":5.39303,"is_reserved":false,"is_disabled":false,"rental_uris":{"android":"levelo://app?vid=443b98be-dc24-4cc0-a7e2-1626a15c571c","ios":"levelo://app?vid=443b98be-dc24-4cc0-a7e2-1626a15c571c"},"vehicle_type_id":"4","last_reported":1777145847,"current_range_meters":6800,"station_id":"ce4bh192rcd13ifvqdd0","pricing_plan_id":"cebpf4jnsgd1na2vs0mg"},{"bike_id":"55ab88c6-7693-4f53-b061-009fb06e1411","system_id":"levelo_inurba_marseille","lat":43.29534,"lon":5.38524,"is_reserved":false,"is_disabled":false,"rental_uris":{"android":"levelo://app?vid=55ab88c6-7693-4f53-b061-009fb06e1411","ios":"levelo://app?vid=55ab88c6-7693-4f53-b061-009fb06e1411"},"vehicle_type_id":"4","last_reported":1777145847,"current_range_meters":6800,"station_id":"ce4bgih2rcd13ifvqba0","pricing_plan_id":"cebpf4jnsgd1na2vs0mg"},{"bike_id":"b8e3a844-e71b-4415-bdec-bd3255f1413c","system_id":"levelo_inurba_marseille","lat":43.26032,"lon":5.37546,"is_reserved":false,"is_disabled":false,"rental_uris":{"android":"levelo://app?vid=b8e3a844-e71b-4415-bdec-bd3255f1413c","ios":"levelo://app?vid=b8e3a844-e71b-4415-bdec-bd3255f1413c"},"vehicle_type_id":"4","last_reported":1777145847,"current_range_meters":6800,"station_id":"ce4bhgh2rcd13ifvqfa0","pricing_plan_id":"cebpf4jnsgd1na2vs0mg"},{"bike_id":"1826a3f2-9a2f-44a6-a0b1-b75590a55af5","system_id":"levelo_inurba_marseille","lat":43.29259,"lon":5.40901,"is_reserved":false,"is_disabled":false,"rental_uris":{"android":"levelo://app?vid=1826a3f2-9a2f-44a6-a0b1-b75590a55af5","ios":"levelo://app?vid=1826a3f2-9a2f-44a6-a0b1-b75590a55af5"},"vehicle_type_id":"4","last_reported":1777145847,"current_range_meters":6800,"station_id":"ce4bh192rcd13ifvqdc0","pricing_plan_id":"cebpf4jnsgd1na2vs0mg"},{"bike_id":"7afb92e7-d975-4c02-9b44-c3a9ae72757e","system_id":"levelo_inurba_marseille","lat":43.29537,"lon":5.38534,"is_reserved":false,"is_disabled":false,"rental_uris":{"android":"levelo://app?vid=7afb92e7-d975-4c02-9b44-c3a9ae72757e","ios":"levelo://app?vid=7afb92e7-d975-4c02-9b44-c3a9ae72757e"},"vehicle_type_id":"4","last_reported":1777145847,"current_range_meters":6800,"station_id":"ce4bgih2rcd13ifvqba0","pricing_plan_id":"cebpf4jnsgd1na2vs0mg"},{"bike_id":"11ad53a9-ad16-4b23-ad85-7d2bae56fcee","system_id":"levelo_inurba_marseille","lat":43.2929,"lon":5.37472,"is_reserved":false,"is_disabled":false,"rental_uris":{"android":"levelo://app?vid=11ad53a9-ad16-4b23-ad85-7d2bae56fcee","ios":"levelo://app?vid=11ad53a9-ad16-4b23-ad85-7d2bae56fcee"},"vehicle_type_id":"4","last_reported":1777145847,"current_range_meters":7200,"station_id":"ce4bgi12rcd13ifvqb70","pricing_plan_id":"cebpf4jnsgd1na2vs0mg"},{"bike_id":"4e09535f-a46c-4fd9-8c4a-595683209474","system_id":"levelo_inurba_marseille","lat":43.23964,"lon":5.36652,"is_reserved":false,"is_disabled":false,"rental_uris":{"android":"levelo://app?vid=4e09535f-a46c-4fd9-8c4a-595683209474","ios":"levelo://app?vid=4e09535f-a46c-4fd9-8c4a-595683209474"},"vehicle_type_id":"4","last_reported":1777145847,"current_range_meters":7200,"station_id":"ce4bhi12rcd13ifvqfp0","pricing_plan_id":"cebpf4jnsgd1na2vs0mg"},{"bike_id":"d2e84e8f-0efb-4da1-b29f-eabc6893fefa","system_id":"levelo_inurba_marseille","lat":43.29265,"lon":5.38434,"is_reserved":false,"is_disabled":false,"rental_uris":{"android":"levelo://app?vid=d2e84e8f-0efb-4da1-b29f-eabc6893fefa","ios":"levelo://app?vid=d2e84e8f-0efb-4da1-b29f-eabc6893fefa"},"vehicle_type_id":"4","last_reported":1777145847,"current_range_meters":7200,"station_id":"ce4bh692rcd13ifvqea0","pricing_plan_id":"cebpf4jnsgd1na2vs0mg"},{"bike_id":"19ca21ff-92f3-46a1-b1dc-c5d64c8d102f","system_id":"levelo_inurba_marseille","lat":43.23967,"lon":5.36631,"is_reserved":false,"is_disabled":false,"rental_uris":{"android":"levelo://app?vid=19ca21ff-92f3-46a1-b1dc-c5d64c8d102f","ios":"levelo://app?vid=19ca21ff-92f3-46a1-b1dc-c5d64c8d102f"},"vehicle_type_id":"4","last_reported":1777145847,"current_range_meters":7200,"station_id":"ce4bhi12rcd13ifvqfp0","pricing_plan_id":"cebpf4jnsgd1na2vs0mg"},{"bike_id":"27cd71a7-0940-4415-a67f-21597fbf1cd9","system_id":"levelo_inurba_marseille","lat":43.35107,"lon":5.37387,"is_reserved":false,"is_disabled":false,"rental_uris":{"android":"levelo://app?vid=27cd71a7-0940-4415-a67f-21597fbf1cd9","ios":"levelo://app?vid=27cd71a7-0940-4415-a67f-21597fbf1cd9"},"vehicle_type_id":"4","last_reported":1777145847,"current_range_meters":7200,"station_id":"","pricing_plan_id":"cebpf4jnsgd1na2vs0mg"},{"bike_id":"044ce3d4-5f89-49a7-a22e-6dad240318c7","system_id":"levelo_inurba_marseille","lat":43.31274,"lon":5.40186,"is_reserved":false,"is_disabled":false,"rental_uris":{"android":"levelo://app?vid=044ce3d4-5f89-49a7-a22e-6dad240318c7","ios":"levelo://app?vid=044ce3d4-5f89-49a7-a22e-6dad240318c7"},"vehicle_type_id":"4","last_reported":1777145847,"current_range_meters":7200,"station_id":"ce4bh092rcd13ifvqd30","pricing_plan_id":"cebpf4jnsgd1na2vs0mg"},{"bike_id":"e5bab3d4-51df-40f4-acb7-898a38cfd436","system_id":"levelo_inurba_marseille","lat":43.21194,"lon":5.35074,"is_reserved":false,"is_disabled":false,"rental_uris":{"android":"levelo://app?vid=e5bab3d4-51df-40f4-acb7-898a38cfd436","ios":"levelo://app?vid=e5bab3d4-51df-40f4-acb7-898a38cfd436"},"vehicle_type_id":"4","last_reported":1777145847,"current_range_meters":7200,"station_id":"st_cvj6sg6p6f1abm77japg","pricing_plan_id":"cebpf4jnsgd1na2vs0mg"},{"bike_id":"af17ae5c-1230-49ce-b9e2-43b0d4f25b31","system_id":"levelo_inurba_marseille","lat":43.29292,"lon":5.37442,"is_reserved":false,"is_disabled":false,"rental_uris":{"android":"levelo://app?vid=af17ae5c-1230-49ce-b9e2-43b0d4f25b31","ios":"levelo://app?vid=af17ae5c-1230-49ce-b9e2-43b0d4f25b31"},"vehicle_type_id":"4","last_reported":1777145847,"current_range_meters":7200,"station_id":"ce4bgi12rcd13ifvqb70","pricing_plan_id":"cebpf4jnsgd1na2vs0mg"},{"bike_id":"a4b333a0-7fa7-42c6-a7d4-7b2b56a0efa1","system_id":"levelo_inurba_marseille","lat":43.29031,"lon":5.3864,"is_reserved":false,"is_disabled":false,"rental_uris":{"android":"levelo://app?vid=a4b333a0-7fa7-42c6-a7d4-7b2b56a0efa1","ios":"levelo://app?vid=a4b333a0-7fa7-42c6-a7d4-7b2b56a0efa1"},"vehicle_type_id":"4","last_reported":1777145847,"current_range_meters":7200,"station_id":"ce4bh4p2rcd13ifvqe0g","pricing_plan_id":"cebpf4jnsgd1na2vs0mg"},{"bike_id":"d1d5c7cf-8e64-4123-ad8a-ccd792fc4d10","system_id":"levelo_inurba_marseille","lat":43.29342,"lon":5.39854,"is_reserved":false,"is_disabled":false,"rental_uris":{"android":"levelo://app?vid=d1d5c7cf-8e64-4123-ad8a-ccd792fc4d10","ios":"levelo://app?vid=d1d5c7cf-8e64-4123-ad8a-ccd792fc4d10"},"vehicle_type_id":"4","last_reported":1777145847,"current_range_meters":7200,"station_id":"","pricing_plan_id":"cebpf4jnsgd1na2vs0mg"},{"bike_id":"14e84adb-1beb-4578-b9a1-984c00fab8b2","system_id":"levelo_inurba_marseille","lat":43.25868,"lon":5.39895,"is_reserved":false,"is_disabled":false,"rental_uris":{"android":"levelo://app?vid=14e84adb-1beb-4578-b9a1-984c00fab8b2","ios":"levelo://app?vid=14e84adb-1beb-4578-b9a1-984c00fab8b2"},"vehicle_type_id":"4","last_reported":1777145847,"current_range_meters":7200,"station_id":"ce4bhl92rcd13ifvqghg","pricing_plan_id":"cebpf4jnsgd1na2vs0mg"},{"bike_id":"7f14f307-ed9b-4bde-a995-2c9126a5e681","system_id":"levelo_inurba_marseille","lat":43.30477,"lon":5.37894,"is_reserved":false,"is_disabled":true,"rental_uris":{"android":"levelo://app?vid=7f14f307-ed9b-4bde-a995-2c9126a5e681","ios":"levelo://app?vid=7f14f307-ed9b-4bde-a995-2c9126a5e681"},"vehicle_type_id":"4","last_reported":1777145847,"current_range_meters":7200,"station_id":"ce4bgup2rcd13ifvqcn0","pricing_plan_id":"cebpf4jnsgd1na2vs0mg"},{"bike_id":"a9f687fa-3787-4871-811a-526256f79453","system_id":"levelo_inurba_marseille","lat":43.24395,"lon":5.37063,"is_reserved":false,"is_disabled":false,"rental_uris":{"android":"levelo://app?vid=a9f687fa-3787-4871-811a-526256f79453","ios":"levelo://app?vid=a9f687fa-3787-4871-811a-526256f79453"},"vehicle_type_id":"4","last_reported":1777145847,"current_range_meters":7200,"station_id":"ce4bhhh2rcd13ifvqfk0","pricing_plan_id":"cebpf4jnsgd1na2vs0mg"},{"bike_id":"00cadce8-7903-4092-8b5c-5695ce27b5b2","system_id":"levelo_inurba_marseille","lat":43.29532,"lon":5.38536,"is_reserved":false,"is_disabled":true,"rental_uris":{"android":"levelo://app?vid=00cadce8-7903-4092-8b5c-5695ce27b5b2","ios":"levelo://app?vid=00cadce8-7903-4092-8b5c-5695ce27b5b2"},"vehicle_type_id":"4","last_reported":1777145847,"current_range_meters":7200,"station_id":"ce4bgih2rcd13ifvqba0","pricing_plan_id":"cebpf4jnsgd1na2vs0mg"},{"bike_id":"3cc37908-32a6-4dbb-bca1-e1b546196cc1","system_id":"levelo_inurba_marseille","lat":43.29254,"lon":5.38441,"is_reserved":false,"is_disabled":false,"rental_uris":{"android":"levelo://app?vid=3cc37908-32a6-4dbb-bca1-e1b546196cc1","ios":"levelo://app?vid=3cc37908-32a6-4dbb-bca1-e1b546196cc1"},"vehicle_type_id":"4","last_reported":1777145847,"current_range_meters":7200,"station_id":"ce4bh692rcd13ifvqea0","pricing_plan_id":"cebpf4jnsgd1na2vs0mg"},{"bike_id":"7087f267-a052-4f9d-be43-355c21a4712c","system_id":"levelo_inurba_marseille","lat":43.31174,"lon":5.38712,"is_reserved":false,"is_disabled":false,"rental_uris":{"android":"levelo://app?vid=7087f267-a052-4f9d-be43-355c21a4712c","ios":"levelo://app?vid=7087f267-a052-4f9d-be43-355c21a4712c"},"vehicle_type_id":"4","last_reported":1777145847,"current_range_meters":7200,"station_id":"ce4bgv12rcd13ifvqcp0","pricing_plan_id":"cebpf4jnsgd1na2vs0mg"},{"bike_id":"8d1cc07a-c87d-4a7b-8797-cd61ba104d31","system_id":"levelo_inurba_marseille","lat":43.29528,"lon":5.39026,"is_reserved":false,"is_disabled":true,"rental_uris":{"android":"levelo://app?vid=8d1cc07a-c87d-4a7b-8797-cd61ba104d31","ios":"levelo://app?vid=8d1cc07a-c87d-4a7b-8797-cd61ba104d31"},"vehicle_type_id":"4","last_reported":1777145847,"current_range_meters":7200,"station_id":"ce4bh3p2rcd13ifvqdp0","pricing_plan_id":"cebpf4jnsgd1na2vs0mg"},{"bike_id":"3deb095f-0346-4d9f-aae1-8d59d80b3d6e","system_id":"levelo_inurba_marseille","lat":43.24404,"lon":5.37058,"is_reserved":false,"is_disabled":false,"rental_uris":{"android":"levelo://app?vid=3deb095f-0346-4d9f-aae1-8d59d80b3d6e","ios":"levelo://app?vid=3deb095f-0346-4d9f-aae1-8d59d80b3d6e"},"vehicle_type_id":"4","last_reported":1777145847,"current_range_meters":7200,"station_id":"ce4bhhh2rcd13ifvqfk0","pricing_plan_id":"cebpf4jnsgd1na2vs0mg"},{"bike_id":"90fac789-06e9-4c33-94b9-e82543e03c21","system_id":"levelo_inurba_marseille","lat":43.22558,"lon":5.4163,"is_reserved":false,"is_disabled":true,"rental_uris":{"android":"levelo://app?vid=90fac789-06e9-4c33-94b9-e82543e03c21","ios":"levelo://app?vid=90fac789-06e9-4c33-94b9-e82543e03c21"},"vehicle_type_id":"4","last_reported":1777145847,"current_range_meters":7200,"station_id":"st_d2o4gvlbi1j2169b742g","pricing_plan_id":"cebpf4jnsgd1na2vs0mg"},{"bike_id":"0852722a-7690-41d8-85ee-3e7c6221932f","system_id":"levelo_inurba_marseille","lat":43.2454,"lon":5.39503,"is_reserved":false,"is_disabled":false,"rental_uris":{"android":"levelo://app?vid=0852722a-7690-41d8-85ee-3e7c6221932f","ios":"levelo://app?vid=0852722a-7690-41d8-85ee-3e7c6221932f"},"vehicle_type_id":"4","last_reported":1777145847,"current_range_meters":7200,"station_id":"ce4bhlp2rcd13ifvqgjg","pricing_plan_id":"cebpf4jnsgd1na2vs0mg"},{"bike_id":"354385cb-cd42-4cc9-b4a2-04700bb645c3","system_id":"levelo_inurba_marseille","lat":43.24957,"lon":5.40482,"is_reserved":false,"is_disabled":false,"rental_uris":{"android":"levelo://app?vid=354385cb-cd42-4cc9-b4a2-04700bb645c3","ios":"levelo://app?vid=354385cb-cd42-4cc9-b4a2-04700bb645c3"},"vehicle_type_id":"4","last_reported":1777145847,"current_range_meters":7200,"station_id":"st_d2ngiaodas8pm72gd1h0","pricing_plan_id":"cebpf4jnsgd1na2vs0mg"},{"bike_id":"334dd1ff-5fd7-4d69-a49e-6b9c1e63a6d1","system_id":"levelo_inurba_marseille","lat":43.296165,"lon":5.371529,"is_reserved":false,"is_disabled":false,"rental_uris":{"android":"levelo://app?vid=334dd1ff-5fd7-4d69-a49e-6b9c1e63a6d1","ios":"levelo://app?vid=334dd1ff-5fd7-4d69-a49e-6b9c1e63a6d1"},"vehicle_type_id":"4","last_reported":1777145847,"current_range_meters":7200,"station_id":"ce4bgk12rcd13ifvqbj0","pricing_plan_id":"cebpf4jnsgd1na2vs0mg"},{"bike_id":"413e4623-e4a6-44c0-8fe0-f06c3e224af8","system_id":"levelo_inurba_marseille","lat":43.31883,"lon":5.36811,"is_reserved":false,"is_disabled":false,"rental_uris":{"android":"levelo://app?vid=413e4623-e4a6-44c0-8fe0-f06c3e224af8","ios":"levelo://app?vid=413e4623-e4a6-44c0-8fe0-f06c3e224af8"},"vehicle_type_id":"4","last_reported":1777145847,"current_range_meters":8000,"station_id":"st_d6o2h0d0559c73evc1b0","pricing_plan_id":"cebpf4jnsgd1na2vs0mg"},{"bike_id":"0cd2fd7c-6402-466e-aa1b-fa186d7a7ed3","system_id":"levelo_inurba_marseille","lat":43.33194,"lon":5.37792,"is_reserved":false,"is_disabled":false,"rental_uris":{"android":"levelo://app?vid=0cd2fd7c-6402-466e-aa1b-fa186d7a7ed3","ios":"levelo://app?vid=0cd2fd7c-6402-466e-aa1b-fa186d7a7ed3"},"vehicle_type_id":"4","last_reported":1777145847,"current_range_meters":8000,"station_id":"","pricing_plan_id":"cebpf4jnsgd1na2vs0mg"},{"bike_id":"15005d6f-459d-43bb-933c-3381cec43eca","system_id":"levelo_inurba_marseille","lat":43.29572,"lon":5.37513,"is_reserved":false,"is_disabled":false,"rental_uris":{"android":"levelo://app?vid=15005d6f-459d-43bb-933c-3381cec43eca","ios":"levelo://app?vid=15005d6f-459d-43bb-933c-3381cec43eca"},"vehicle_type_id":"4","last_reported":1777145847,"current_range_meters":8000,"station_id":"ce4bgh92rcd13ifvqb50","pricing_plan_id":"cebpf4jnsgd1na2vs0mg"},{"bike_id":"cd5ae753-0ce4-45ab-886c-3f79fabdb3b1","system_id":"levelo_inurba_marseille","lat":43.24809,"lon":5.37445,"is_reserved":false,"is_disabled":false,"rental_uris":{"android":"levelo://app?vid=cd5ae753-0ce4-45ab-886c-3f79fabdb3b1","ios":"levelo://app?vid=cd5ae753-0ce4-45ab-886c-3f79fabdb3b1"},"vehicle_type_id":"4","last_reported":1777145847,"current_range_meters":8000,"station_id":"ce4bhgh2rcd13ifvqfb0","pricing_plan_id":"cebpf4jnsgd1na2vs0mg"},{"bike_id":"7ac59c81-01df-4b8e-9807-86f926b0041a","system_id":"levelo_inurba_marseille","lat":43.28072,"lon":5.39114,"is_reserved":false,"is_disabled":false,"rental_uris":{"android":"levelo://app?vid=7ac59c81-01df-4b8e-9807-86f926b0041a","ios":"levelo://app?vid=7ac59c81-01df-4b8e-9807-86f926b0041a"},"vehicle_type_id":"4","last_reported":1777145847,"current_range_meters":8000,"station_id":"","pricing_plan_id":"cebpf4jnsgd1na2vs0mg"},{"bike_id":"a03ce919-3949-4c06-bbb8-c0f13ba943b2","system_id":"levelo_inurba_marseille","lat":43.25538,"lon":5.37654,"is_reserved":false,"is_disabled":true,"rental_uris":{"android":"levelo://app?vid=a03ce919-3949-4c06-bbb8-c0f13ba943b2","ios":"levelo://app?vid=a03ce919-3949-4c06-bbb8-c0f13ba943b2"},"vehicle_type_id":"4","last_reported":1777145847,"current_range_meters":8000,"station_id":"ce4bhh12rcd13ifvqff0","pricing_plan_id":"cebpf4jnsgd1na2vs0mg"},{"bike_id":"ace34436-51fe-4536-a1f6-cfa009f56977","system_id":"levelo_inurba_marseille","lat":43.33532,"lon":5.37451,"is_reserved":false,"is_disabled":false,"rental_uris":{"android":"levelo://app?vid=ace34436-51fe-4536-a1f6-cfa009f56977","ios":"levelo://app?vid=ace34436-51fe-4536-a1f6-cfa009f56977"},"vehicle_type_id":"4","last_reported":1777145847,"current_range_meters":8000,"station_id":"st_d46tts09ee8s73dlu43g","pricing_plan_id":"cebpf4jnsgd1na2vs0mg"},{"bike_id":"5825174c-c54d-48a7-9e86-0435e1df6c1c","system_id":"levelo_inurba_marseille","lat":43.29201,"lon":5.39301,"is_reserved":false,"is_disabled":false,"rental_uris":{"android":"levelo://app?vid=5825174c-c54d-48a7-9e86-0435e1df6c1c","ios":"levelo://app?vid=5825174c-c54d-48a7-9e86-0435e1df6c1c"},"vehicle_type_id":"4","last_reported":1777145847,"current_range_meters":8000,"station_id":"ce4bh192rcd13ifvqdd0","pricing_plan_id":"cebpf4jnsgd1na2vs0mg"},{"bike_id":"70c7e508-dee8-4c48-84ef-dd92c8416275","system_id":"levelo_inurba_marseille","lat":43.24155,"lon":5.36419,"is_reserved":false,"is_disabled":false,"rental_uris":{"android":"levelo://app?vid=70c7e508-dee8-4c48-84ef-dd92c8416275","ios":"levelo://app?vid=70c7e508-dee8-4c48-84ef-dd92c8416275"},"vehicle_type_id":"4","last_reported":1777145847,"current_range_meters":8000,"station_id":"cpo36qri1sfpv3e86is0","pricing_plan_id":"cebpf4jnsgd1na2vs0mg"},{"bike_id":"17fe3f56-b486-40dd-ac6a-710ede14c97d","system_id":"levelo_inurba_marseille","lat":43.314869,"lon":5.373029,"is_reserved":false,"is_disabled":false,"rental_uris":{"android":"levelo://app?vid=17fe3f56-b486-40dd-ac6a-710ede14c97d","ios":"levelo://app?vid=17fe3f56-b486-40dd-ac6a-710ede14c97d"},"vehicle_type_id":"4","last_reported":1777145847,"current_range_meters":8000,"station_id":"","pricing_plan_id":"cebpf4jnsgd1na2vs0mg"},{"bike_id":"0752925b-4cf9-48f5-b1c9-bd312a7f6169","system_id":"levelo_inurba_marseille","lat":43.29973,"lon":5.38488,"is_reserved":false,"is_disabled":false,"rental_uris":{"android":"levelo://app?vid=0752925b-4cf9-48f5-b1c9-bd312a7f6169","ios":"levelo://app?vid=0752925b-4cf9-48f5-b1c9-bd312a7f6169"},"vehicle_type_id":"4","last_reported":1777145847,"current_range_meters":8000,"station_id":"ce4bgj92rcd13ifvqbd0","pricing_plan_id":"cebpf4jnsgd1na2vs0mg"},{"bike_id":"81df374b-78e5-4afd-9272-8119b942b935","system_id":"levelo_inurba_marseille","lat":43.24171,"lon":5.36383,"is_reserved":false,"is_disabled":false,"rental_uris":{"android":"levelo://app?vid=81df374b-78e5-4afd-9272-8119b942b935","ios":"levelo://app?vid=81df374b-78e5-4afd-9272-8119b942b935"},"vehicle_type_id":"4","last_reported":1777145847,"current_range_meters":8000,"station_id":"cpo36qri1sfpv3e86is0","pricing_plan_id":"cebpf4jnsgd1na2vs0mg"},{"bike_id":"1c2caaee-55b8-489a-964c-02a5a01453f3","system_id":"levelo_inurba_marseille","lat":43.28845,"lon":5.39348,"is_reserved":false,"is_disabled":false,"rental_uris":{"android":"levelo://app?vid=1c2caaee-55b8-489a-964c-02a5a01453f3","ios":"levelo://app?vid=1c2caaee-55b8-489a-964c-02a5a01453f3"},"vehicle_type_id":"4","last_reported":1777145847,"current_range_meters":8000,"station_id":"ce4bh2p2rcd13ifvqdi0","pricing_plan_id":"cebpf4jnsgd1na2vs0mg"},{"bike_id":"06558e5b-846f-4e20-b375-c8972d75dc5a","system_id":"levelo_inurba_marseille","lat":43.27333,"lon":5.43124,"is_reserved":false,"is_disabled":false,"rental_uris":{"android":"levelo://app?vid=06558e5b-846f-4e20-b375-c8972d75dc5a","ios":"levelo://app?vid=06558e5b-846f-4e20-b375-c8972d75dc5a"},"vehicle_type_id":"4","last_reported":1777145847,"current_range_meters":8000,"station_id":"","pricing_plan_id":"cebpf4jnsgd1na2vs0mg"},{"bike_id":"21baa011-4537-4df6-84c3-8533443e5d50","system_id":"levelo_inurba_marseille","lat":43.28979,"lon":5.37829,"is_reserved":false,"is_disabled":false,"rental_uris":{"android":"levelo://app?vid=21baa011-4537-4df6-84c3-8533443e5d50","ios":"levelo://app?vid=21baa011-4537-4df6-84c3-8533443e5d50"},"vehicle_type_id":"4","last_reported":1777145847,"current_range_meters":8000,"station_id":"ce4bh9p2rcd13ifvqed0","pricing_plan_id":"cebpf4jnsgd1na2vs0mg"},{"bike_id":"918dc759-ae37-4875-a19b-b19a2d80d4fd","system_id":"levelo_inurba_marseille","lat":43.33162,"lon":5.37678,"is_reserved":false,"is_disabled":false,"rental_uris":{"android":"levelo://app?vid=918dc759-ae37-4875-a19b-b19a2d80d4fd","ios":"levelo://app?vid=918dc759-ae37-4875-a19b-b19a2d80d4fd"},"vehicle_type_id":"4","last_reported":1777145847,"current_range_meters":8000,"station_id":"st_d46cu089ee8s73dldbu0","pricing_plan_id":"cebpf4jnsgd1na2vs0mg"},{"bike_id":"eaa998ad-222a-4391-90e7-16a525f071eb","system_id":"levelo_inurba_marseille","lat":43.3047,"lon":5.37894,"is_reserved":false,"is_disabled":false,"rental_uris":{"android":"levelo://app?vid=eaa998ad-222a-4391-90e7-16a525f071eb","ios":"levelo://app?vid=eaa998ad-222a-4391-90e7-16a525f071eb"},"vehicle_type_id":"4","last_reported":1777145847,"current_range_meters":8000,"station_id":"ce4bgup2rcd13ifvqcn0","pricing_plan_id":"cebpf4jnsgd1na2vs0mg"},{"bike_id":"fea5a28c-0167-4a62-9062-e629ed9b3e8f","system_id":"levelo_inurba_marseille","lat":43.28477,"lon":5.48399,"is_reserved":false,"is_disabled":false,"rental_uris":{"android":"levelo://app?vid=fea5a28c-0167-4a62-9062-e629ed9b3e8f","ios":"levelo://app?vid=fea5a28c-0167-4a62-9062-e629ed9b3e8f"},"vehicle_type_id":"4","last_reported":1777145847,"current_range_meters":8000,"station_id":"st_d3svhcjqgbts73a3dn0g","pricing_plan_id":"cebpf4jnsgd1na2vs0mg"},{"bike_id":"648bc781-8e68-4ccd-aedc-987a153e904f","system_id":"levelo_inurba_marseille","lat":43.29265,"lon":5.38457,"is_reserved":false,"is_disabled":false,"rental_uris":{"android":"levelo://app?vid=648bc781-8e68-4ccd-aedc-987a153e904f","ios":"levelo://app?vid=648bc781-8e68-4ccd-aedc-987a153e904f"},"vehicle_type_id":"4","last_reported":1777145847,"current_range_meters":8000,"station_id":"ce4bh692rcd13ifvqea0","pricing_plan_id":"cebpf4jnsgd1na2vs0mg"},{"bike_id":"73b29586-6035-4b17-8f89-10c778399a16","system_id":"levelo_inurba_marseille","lat":43.31988,"lon":5.38137,"is_reserved":false,"is_disabled":false,"rental_uris":{"android":"levelo://app?vid=73b29586-6035-4b17-8f89-10c778399a16","ios":"levelo://app?vid=73b29586-6035-4b17-8f89-10c778399a16"},"vehicle_type_id":"4","last_reported":1777145847,"current_range_meters":8000,"station_id":"ce4bhr12rcd13ifvqhpg","pricing_plan_id":"cebpf4jnsgd1na2vs0mg"},{"bike_id":"2b011dfd-b31a-42cc-be3f-96f7ba6133ca","system_id":"levelo_inurba_marseille","lat":43.30942,"lon":5.39028,"is_reserved":false,"is_disabled":false,"rental_uris":{"android":"levelo://app?vid=2b011dfd-b31a-42cc-be3f-96f7ba6133ca","ios":"levelo://app?vid=2b011dfd-b31a-42cc-be3f-96f7ba6133ca"},"vehicle_type_id":"4","last_reported":1777145847,"current_range_meters":8000,"station_id":"ce4bgup2rcd13ifvqco0","pricing_plan_id":"cebpf4jnsgd1na2vs0mg"},{"bike_id":"86ada4ba-acda-451d-b4bb-f18e711da38a","system_id":"levelo_inurba_marseille","lat":43.29524,"lon":5.38542,"is_reserved":false,"is_disabled":false,"rental_uris":{"android":"levelo://app?vid=86ada4ba-acda-451d-b4bb-f18e711da38a","ios":"levelo://app?vid=86ada4ba-acda-451d-b4bb-f18e711da38a"},"vehicle_type_id":"4","last_reported":1777145847,"current_range_meters":8000,"station_id":"ce4bgih2rcd13ifvqba0","pricing_plan_id":"cebpf4jnsgd1na2vs0mg"},{"bike_id":"f9abfc14-4984-4633-bfe0-edc7f68db5b6","system_id":"levelo_inurba_marseille","lat":43.293,"lon":5.37449,"is_reserved":false,"is_disabled":false,"rental_uris":{"android":"levelo://app?vid=f9abfc14-4984-4633-bfe0-edc7f68db5b6","ios":"levelo://app?vid=f9abfc14-4984-4633-bfe0-edc7f68db5b6"},"vehicle_type_id":"4","last_reported":1777145847,"current_range_meters":8000,"station_id":"ce4bgi12rcd13ifvqb70","pricing_plan_id":"cebpf4jnsgd1na2vs0mg"},{"bike_id":"7624c497-d4ee-4eb2-94cb-4c71718db41a","system_id":"levelo_inurba_marseille","lat":43.31689,"lon":5.40474,"is_reserved":false,"is_disabled":false,"rental_uris":{"android":"levelo://app?vid=7624c497-d4ee-4eb2-94cb-4c71718db41a","ios":"levelo://app?vid=7624c497-d4ee-4eb2-94cb-4c71718db41a"},"vehicle_type_id":"4","last_reported":1777145847,"current_range_meters":8000,"station_id":"ce4bh012rcd13ifvqd00","pricing_plan_id":"cebpf4jnsgd1na2vs0mg"},{"bike_id":"a8efdf94-3910-4fe8-9ec0-bdf906b9c60c","system_id":"levelo_inurba_marseille","lat":43.30939,"lon":5.39024,"is_reserved":false,"is_disabled":false,"rental_uris":{"android":"levelo://app?vid=a8efdf94-3910-4fe8-9ec0-bdf906b9c60c","ios":"levelo://app?vid=a8efdf94-3910-4fe8-9ec0-bdf906b9c60c"},"vehicle_type_id":"4","last_reported":1777145847,"current_range_meters":8000,"station_id":"ce4bgup2rcd13ifvqco0","pricing_plan_id":"cebpf4jnsgd1na2vs0mg"},{"bike_id":"4504a775-1946-4aac-92b5-5d484d4b09a6","system_id":"levelo_inurba_marseille","lat":43.29519,"lon":5.39034,"is_reserved":false,"is_disabled":false,"rental_uris":{"android":"levelo://app?vid=4504a775-1946-4aac-92b5-5d484d4b09a6","ios":"levelo://app?vid=4504a775-1946-4aac-92b5-5d484d4b09a6"},"vehicle_type_id":"4","last_reported":1777145847,"current_range_meters":8000,"station_id":"ce4bh3p2rcd13ifvqdp0","pricing_plan_id":"cebpf4jnsgd1na2vs0mg"},{"bike_id":"f59c1d5f-cb00-4b2b-85d7-e7937af76e14","system_id":"levelo_inurba_marseille","lat":43.29532,"lon":5.38542,"is_reserved":false,"is_disabled":false,"rental_uris":{"android":"levelo://app?vid=f59c1d5f-cb00-4b2b-85d7-e7937af76e14","ios":"levelo://app?vid=f59c1d5f-cb00-4b2b-85d7-e7937af76e14"},"vehicle_type_id":"4","last_reported":1777145847,"current_range_meters":8000,"station_id":"ce4bgih2rcd13ifvqba0","pricing_plan_id":"cebpf4jnsgd1na2vs0mg"},{"bike_id":"eae15767-1273-4c97-a72b-146c0cc1aa60","system_id":"levelo_inurba_marseille","lat":43.30438,"lon":5.3975,"is_reserved":false,"is_disabled":false,"rental_uris":{"android":"levelo://app?vid=eae15767-1273-4c97-a72b-146c0cc1aa60","ios":"levelo://app?vid=eae15767-1273-4c97-a72b-146c0cc1aa60"},"vehicle_type_id":"4","last_reported":1777145847,"current_range_meters":8400,"station_id":"ce4bh092rcd13ifvqd20","pricing_plan_id":"cebpf4jnsgd1na2vs0mg"},{"bike_id":"daa11ca5-974e-44b7-acf5-fb3134fd68ec","system_id":"levelo_inurba_marseille","lat":43.29516,"lon":5.37509,"is_reserved":false,"is_disabled":false,"rental_uris":{"android":"levelo://app?vid=daa11ca5-974e-44b7-acf5-fb3134fd68ec","ios":"levelo://app?vid=daa11ca5-974e-44b7-acf5-fb3134fd68ec"},"vehicle_type_id":"4","last_reported":1777145847,"current_range_meters":8400,"station_id":"ce4bgkp2rcd13ifvqbmg","pricing_plan_id":"cebpf4jnsgd1na2vs0mg"},{"bike_id":"84c8a771-33c9-421f-a5d6-bf9791123e26","system_id":"levelo_inurba_marseille","lat":43.32,"lon":5.38145,"is_reserved":false,"is_disabled":false,"rental_uris":{"android":"levelo://app?vid=84c8a771-33c9-421f-a5d6-bf9791123e26","ios":"levelo://app?vid=84c8a771-33c9-421f-a5d6-bf9791123e26"},"vehicle_type_id":"4","last_reported":1777145847,"current_range_meters":8400,"station_id":"ce4bhr12rcd13ifvqhpg","pricing_plan_id":"cebpf4jnsgd1na2vs0mg"},{"bike_id":"bfa7c1d6-71d5-4139-8708-a911840c9801","system_id":"levelo_inurba_marseille","lat":43.28502,"lon":5.38517,"is_reserved":false,"is_disabled":true,"rental_uris":{"android":"levelo://app?vid=bfa7c1d6-71d5-4139-8708-a911840c9801","ios":"levelo://app?vid=bfa7c1d6-71d5-4139-8708-a911840c9801"},"vehicle_type_id":"4","last_reported":1777145847,"current_range_meters":8400,"station_id":"ce4bh8p2rcd13ifvqeb0","pricing_plan_id":"cebpf4jnsgd1na2vs0mg"},{"bike_id":"0a9b7875-83c5-4040-93be-3e301b98d43a","system_id":"levelo_inurba_marseille","lat":43.29516,"lon":5.37514,"is_reserved":false,"is_disabled":false,"rental_uris":{"android":"levelo://app?vid=0a9b7875-83c5-4040-93be-3e301b98d43a","ios":"levelo://app?vid=0a9b7875-83c5-4040-93be-3e301b98d43a"},"vehicle_type_id":"4","last_reported":1777145847,"current_range_meters":8400,"station_id":"ce4bgkp2rcd13ifvqbmg","pricing_plan_id":"cebpf4jnsgd1na2vs0mg"},{"bike_id":"9a7c39d8-ef30-4694-b180-b6fe0a089530","system_id":"levelo_inurba_marseille","lat":43.30116,"lon":5.43119,"is_reserved":false,"is_disabled":false,"rental_uris":{"android":"levelo://app?vid=9a7c39d8-ef30-4694-b180-b6fe0a089530","ios":"levelo://app?vid=9a7c39d8-ef30-4694-b180-b6fe0a089530"},"vehicle_type_id":"4","last_reported":1777145847,"current_range_meters":8400,"station_id":"st_d3js3co5814s73ftftug","pricing_plan_id":"cebpf4jnsgd1na2vs0mg"},{"bike_id":"cdd270f0-5f2f-4bbf-9ea6-e320df8433a0","system_id":"levelo_inurba_marseille","lat":43.29875,"lon":5.38928,"is_reserved":false,"is_disabled":false,"rental_uris":{"android":"levelo://app?vid=cdd270f0-5f2f-4bbf-9ea6-e320df8433a0","ios":"levelo://app?vid=cdd270f0-5f2f-4bbf-9ea6-e320df8433a0"},"vehicle_type_id":"4","last_reported":1777145847,"current_range_meters":8400,"station_id":"ce4bh392rcd13ifvqdl0","pricing_plan_id":"cebpf4jnsgd1na2vs0mg"},{"bike_id":"5687bcf3-d7dc-457c-91e4-c37491638fcd","system_id":"levelo_inurba_marseille","lat":43.24166,"lon":5.36377,"is_reserved":false,"is_disabled":false,"rental_uris":{"android":"levelo://app?vid=5687bcf3-d7dc-457c-91e4-c37491638fcd","ios":"levelo://app?vid=5687bcf3-d7dc-457c-91e4-c37491638fcd"},"vehicle_type_id":"4","last_reported":1777145847,"current_range_meters":8400,"station_id":"cpo36qri1sfpv3e86is0","pricing_plan_id":"cebpf4jnsgd1na2vs0mg"},{"bike_id":"bf79c585-92c4-4180-bf4d-de82ff559306","system_id":"levelo_inurba_marseille","lat":43.30595,"lon":5.39356,"is_reserved":false,"is_disabled":false,"rental_uris":{"android":"levelo://app?vid=bf79c585-92c4-4180-bf4d-de82ff559306","ios":"levelo://app?vid=bf79c585-92c4-4180-bf4d-de82ff559306"},"vehicle_type_id":"4","last_reported":1777145847,"current_range_meters":8400,"station_id":"ce4bh0p2rcd13ifvqd80","pricing_plan_id":"cebpf4jnsgd1na2vs0mg"},{"bike_id":"62bde582-a935-433c-991e-650c3253ecca","system_id":"levelo_inurba_marseille","lat":43.29274,"lon":5.38428,"is_reserved":false,"is_disabled":false,"rental_uris":{"android":"levelo://app?vid=62bde582-a935-433c-991e-650c3253ecca","ios":"levelo://app?vid=62bde582-a935-433c-991e-650c3253ecca"},"vehicle_type_id":"4","last_reported":1777145847,"current_range_meters":8400,"station_id":"ce4bh692rcd13ifvqea0","pricing_plan_id":"cebpf4jnsgd1na2vs0mg"},{"bike_id":"9a179763-1687-4b2b-8886-1b18924799ad","system_id":"levelo_inurba_marseille","lat":43.25864,"lon":5.39907,"is_reserved":false,"is_disabled":false,"rental_uris":{"android":"levelo://app?vid=9a179763-1687-4b2b-8886-1b18924799ad","ios":"levelo://app?vid=9a179763-1687-4b2b-8886-1b18924799ad"},"vehicle_type_id":"4","last_reported":1777145847,"current_range_meters":8400,"station_id":"ce4bhl92rcd13ifvqghg","pricing_plan_id":"cebpf4jnsgd1na2vs0mg"},{"bike_id":"43df043b-1577-46da-b387-d2a85f0af5d9","system_id":"levelo_inurba_marseille","lat":43.28936,"lon":5.36626,"is_reserved":false,"is_disabled":false,"rental_uris":{"android":"levelo://app?vid=43df043b-1577-46da-b387-d2a85f0af5d9","ios":"levelo://app?vid=43df043b-1577-46da-b387-d2a85f0af5d9"},"vehicle_type_id":"4","last_reported":1777145847,"current_range_meters":8400,"station_id":"ce4bhap2rcd13ifvqek0","pricing_plan_id":"cebpf4jnsgd1na2vs0mg"},{"bike_id":"c2287de2-d7a8-4633-9ec9-8787f2f3972a","system_id":"levelo_inurba_marseille","lat":43.28108,"lon":5.37826,"is_reserved":false,"is_disabled":false,"rental_uris":{"android":"levelo://app?vid=c2287de2-d7a8-4633-9ec9-8787f2f3972a","ios":"levelo://app?vid=c2287de2-d7a8-4633-9ec9-8787f2f3972a"},"vehicle_type_id":"4","last_reported":1777145847,"current_range_meters":8400,"station_id":"ce4bha12rcd13ifvqee0","pricing_plan_id":"cebpf4jnsgd1na2vs0mg"},{"bike_id":"2ac72f42-4414-46dd-8ec4-bd5b970d98e0","system_id":"levelo_inurba_marseille","lat":43.30932,"lon":5.39047,"is_reserved":false,"is_disabled":false,"rental_uris":{"android":"levelo://app?vid=2ac72f42-4414-46dd-8ec4-bd5b970d98e0","ios":"levelo://app?vid=2ac72f42-4414-46dd-8ec4-bd5b970d98e0"},"vehicle_type_id":"4","last_reported":1777145847,"current_range_meters":8400,"station_id":"ce4bgup2rcd13ifvqco0","pricing_plan_id":"cebpf4jnsgd1na2vs0mg"},{"bike_id":"2524bfe0-0be6-4026-a2a4-1135765d04bd","system_id":"levelo_inurba_marseille","lat":43.29701,"lon":5.36584,"is_reserved":false,"is_disabled":false,"rental_uris":{"android":"levelo://app?vid=2524bfe0-0be6-4026-a2a4-1135765d04bd","ios":"levelo://app?vid=2524bfe0-0be6-4026-a2a4-1135765d04bd"},"vehicle_type_id":"4","last_reported":1777145847,"current_range_meters":8400,"station_id":"ce4bgn12rcd13ifvqbt0","pricing_plan_id":"cebpf4jnsgd1na2vs0mg"},{"bike_id":"fefc40ca-0a68-44c8-b940-f37c7ade201d","system_id":"levelo_inurba_marseille","lat":43.29549,"lon":5.38153,"is_reserved":false,"is_disabled":false,"rental_uris":{"android":"levelo://app?vid=fefc40ca-0a68-44c8-b940-f37c7ade201d","ios":"levelo://app?vid=fefc40ca-0a68-44c8-b940-f37c7ade201d"},"vehicle_type_id":"4","last_reported":1777145847,"current_range_meters":8400,"station_id":"","pricing_plan_id":"cebpf4jnsgd1na2vs0mg"},{"bike_id":"9b81fa91-23fa-4304-bf32-3bf3a3b214d6","system_id":"levelo_inurba_marseille","lat":43.28432,"lon":5.3919,"is_reserved":false,"is_disabled":false,"rental_uris":{"android":"levelo://app?vid=9b81fa91-23fa-4304-bf32-3bf3a3b214d6","ios":"levelo://app?vid=9b81fa91-23fa-4304-bf32-3bf3a3b214d6"},"vehicle_type_id":"4","last_reported":1777145847,"current_range_meters":8400,"station_id":"ce4bhoh2rcd13ifvqh5g","pricing_plan_id":"cebpf4jnsgd1na2vs0mg"},{"bike_id":"e79bde01-2f2e-4687-9114-2908a926683e","system_id":"levelo_inurba_marseille","lat":43.3355,"lon":5.37462,"is_reserved":false,"is_disabled":false,"rental_uris":{"android":"levelo://app?vid=e79bde01-2f2e-4687-9114-2908a926683e","ios":"levelo://app?vid=e79bde01-2f2e-4687-9114-2908a926683e"},"vehicle_type_id":"4","last_reported":1777145847,"current_range_meters":8400,"station_id":"st_d46tts09ee8s73dlu43g","pricing_plan_id":"cebpf4jnsgd1na2vs0mg"},{"bike_id":"09b781c5-07ce-4225-9496-87b04af98e8a","system_id":"levelo_inurba_marseille","lat":43.31928,"lon":5.36787,"is_reserved":false,"is_disabled":false,"rental_uris":{"android":"levelo://app?vid=09b781c5-07ce-4225-9496-87b04af98e8a","ios":"levelo://app?vid=09b781c5-07ce-4225-9496-87b04af98e8a"},"vehicle_type_id":"4","last_reported":1777145847,"current_range_meters":8400,"station_id":"st_d6o2h0d0559c73evc1b0","pricing_plan_id":"cebpf4jnsgd1na2vs0mg"},{"bike_id":"74ea0707-705f-4342-8804-abebccbc3e01","system_id":"levelo_inurba_marseille","lat":43.24155,"lon":5.36401,"is_reserved":false,"is_disabled":false,"rental_uris":{"android":"levelo://app?vid=74ea0707-705f-4342-8804-abebccbc3e01","ios":"levelo://app?vid=74ea0707-705f-4342-8804-abebccbc3e01"},"vehicle_type_id":"4","last_reported":1777145847,"current_range_meters":8400,"station_id":"cpo36qri1sfpv3e86is0","pricing_plan_id":"cebpf4jnsgd1na2vs0mg"},{"bike_id":"0fb5bdad-cf89-4b49-8199-c24f462ae13f","system_id":"levelo_inurba_marseille","lat":43.298867,"lon":5.389108,"is_reserved":false,"is_disabled":false,"rental_uris":{"android":"levelo://app?vid=0fb5bdad-cf89-4b49-8199-c24f462ae13f","ios":"levelo://app?vid=0fb5bdad-cf89-4b49-8199-c24f462ae13f"},"vehicle_type_id":"4","last_reported":1777145847,"current_range_meters":8400,"station_id":"ce4bh392rcd13ifvqdl0","pricing_plan_id":"cebpf4jnsgd1na2vs0mg"},{"bike_id":"05a33fd5-e436-4ad0-a907-865e546c41d5","system_id":"levelo_inurba_marseille","lat":43.22554,"lon":5.41613,"is_reserved":false,"is_disabled":true,"rental_uris":{"android":"levelo://app?vid=05a33fd5-e436-4ad0-a907-865e546c41d5","ios":"levelo://app?vid=05a33fd5-e436-4ad0-a907-865e546c41d5"},"vehicle_type_id":"4","last_reported":1777145847,"current_range_meters":8400,"station_id":"","pricing_plan_id":"cebpf4jnsgd1na2vs0mg"},{"bike_id":"70fdbf99-5ae2-42d5-b0cb-e384ca74fc87","system_id":"levelo_inurba_marseille","lat":43.2786,"lon":5.3837,"is_reserved":false,"is_disabled":false,"rental_uris":{"android":"levelo://app?vid=70fdbf99-5ae2-42d5-b0cb-e384ca74fc87","ios":"levelo://app?vid=70fdbf99-5ae2-42d5-b0cb-e384ca74fc87"},"vehicle_type_id":"4","last_reported":1777145847,"current_range_meters":8400,"station_id":"","pricing_plan_id":"cebpf4jnsgd1na2vs0mg"},{"bike_id":"c2cf8898-e563-4eca-8255-6d7086f1310e","system_id":"levelo_inurba_marseille","lat":43.2972,"lon":5.36598,"is_reserved":false,"is_disabled":false,"rental_uris":{"android":"levelo://app?vid=c2cf8898-e563-4eca-8255-6d7086f1310e","ios":"levelo://app?vid=c2cf8898-e563-4eca-8255-6d7086f1310e"},"vehicle_type_id":"4","last_reported":1777145847,"current_range_meters":8400,"station_id":"ce4bgn12rcd13ifvqbt0","pricing_plan_id":"cebpf4jnsgd1na2vs0mg"},{"bike_id":"f33c6c9d-346a-4c73-9b31-f3ca6fe92254","system_id":"levelo_inurba_marseille","lat":43.29604,"lon":5.37721,"is_reserved":false,"is_disabled":true,"rental_uris":{"android":"levelo://app?vid=f33c6c9d-346a-4c73-9b31-f3ca6fe92254","ios":"levelo://app?vid=f33c6c9d-346a-4c73-9b31-f3ca6fe92254"},"vehicle_type_id":"4","last_reported":1777145847,"current_range_meters":8400,"station_id":"ce4bgi92rcd13ifvqb90","pricing_plan_id":"cebpf4jnsgd1na2vs0mg"},{"bike_id":"3d95f6c6-bfab-4bbb-82d8-8ef86c60283c","system_id":"levelo_inurba_marseille","lat":43.28935,"lon":5.36662,"is_reserved":false,"is_disabled":false,"rental_uris":{"android":"levelo://app?vid=3d95f6c6-bfab-4bbb-82d8-8ef86c60283c","ios":"levelo://app?vid=3d95f6c6-bfab-4bbb-82d8-8ef86c60283c"},"vehicle_type_id":"4","last_reported":1777145847,"current_range_meters":8400,"station_id":"ce4bhap2rcd13ifvqek0","pricing_plan_id":"cebpf4jnsgd1na2vs0mg"},{"bike_id":"867e4efb-03e8-466f-a027-d873140a375d","system_id":"levelo_inurba_marseille","lat":43.24799,"lon":5.37454,"is_reserved":false,"is_disabled":false,"rental_uris":{"android":"levelo://app?vid=867e4efb-03e8-466f-a027-d873140a375d","ios":"levelo://app?vid=867e4efb-03e8-466f-a027-d873140a375d"},"vehicle_type_id":"4","last_reported":1777145847,"current_range_meters":8400,"station_id":"ce4bhgh2rcd13ifvqfb0","pricing_plan_id":"cebpf4jnsgd1na2vs0mg"},{"bike_id":"0af624f0-ddbb-4f34-a3c6-e817d10f0925","system_id":"levelo_inurba_marseille","lat":43.25,"lon":5.38929,"is_reserved":false,"is_disabled":false,"rental_uris":{"android":"levelo://app?vid=0af624f0-ddbb-4f34-a3c6-e817d10f0925","ios":"levelo://app?vid=0af624f0-ddbb-4f34-a3c6-e817d10f0925"},"vehicle_type_id":"4","last_reported":1777145847,"current_range_meters":8800,"station_id":"ce4bhgp2rcd13ifvqfd0","pricing_plan_id":"cebpf4jnsgd1na2vs0mg"},{"bike_id":"23cb598b-32a2-4aea-b0bc-a88e2747f151","system_id":"levelo_inurba_marseille","lat":43.31625,"lon":5.39694,"is_reserved":false,"is_disabled":false,"rental_uris":{"android":"levelo://app?vid=23cb598b-32a2-4aea-b0bc-a88e2747f151","ios":"levelo://app?vid=23cb598b-32a2-4aea-b0bc-a88e2747f151"},"vehicle_type_id":"4","last_reported":1777145847,"current_range_meters":8800,"station_id":"","pricing_plan_id":"cebpf4jnsgd1na2vs0mg"},{"bike_id":"f0fddf77-db94-4521-8c9a-49bb6a461b7f","system_id":"levelo_inurba_marseille","lat":43.26924,"lon":5.40272,"is_reserved":false,"is_disabled":false,"rental_uris":{"android":"levelo://app?vid=f0fddf77-db94-4521-8c9a-49bb6a461b7f","ios":"levelo://app?vid=f0fddf77-db94-4521-8c9a-49bb6a461b7f"},"vehicle_type_id":"4","last_reported":1777145847,"current_range_meters":8800,"station_id":"cjm6bp8fraef2m0cb0m0","pricing_plan_id":"cebpf4jnsgd1na2vs0mg"},{"bike_id":"e7760414-c99e-4edb-8d77-254918982c51","system_id":"levelo_inurba_marseille","lat":43.280813,"lon":5.396654,"is_reserved":false,"is_disabled":false,"rental_uris":{"android":"levelo://app?vid=e7760414-c99e-4edb-8d77-254918982c51","ios":"levelo://app?vid=e7760414-c99e-4edb-8d77-254918982c51"},"vehicle_type_id":"4","last_reported":1777145847,"current_range_meters":8800,"station_id":"ce4bho12rcd13ifvqh2g","pricing_plan_id":"cebpf4jnsgd1na2vs0mg"},{"bike_id":"70578acc-b935-4f77-be23-bcde1db99b26","system_id":"levelo_inurba_marseille","lat":43.29794,"lon":5.38155,"is_reserved":false,"is_disabled":false,"rental_uris":{"android":"levelo://app?vid=70578acc-b935-4f77-be23-bcde1db99b26","ios":"levelo://app?vid=70578acc-b935-4f77-be23-bcde1db99b26"},"vehicle_type_id":"4","last_reported":1777145847,"current_range_meters":8800,"station_id":"ce4bgip2rcd13ifvqbb0","pricing_plan_id":"cebpf4jnsgd1na2vs0mg"},