{"last_updated":1720890382,"ttl":30,"version":"2.2","data":{"bikes":[{"bike_id":"bdd5bd0c-fab9-4738-856e-c1550a23dfc3","system_id":"levelo_inurba_marseille","lat":43.313391,"lon":5.36706,"is_reserved":false,"is_disabled":false,"rental_uris":{"android":"levelo://app?vid=bdd5bd0c-fab9-4738-856e-c1550a23dfc3","ios":"levelo://app?vid=bdd5bd0c-fab9-4738-856e-c1550a23dfc3"},"vehicle_type_id":"4","last_reported":1720890382,"current_range_meters":8000,"station_id":"ce4bgr92rcd13ifvqc6g","pricing_plan_id":"cebpf4jnsgd1na2vs0mg"},{"bike_id":"250ce43e-a31b-497d-9217-b532f6a53537","system_id":"levelo_inurba_marseille","lat":43.3134,"lon":5.36759,"is_reserved":false,"is_disabled":false,"rental_uris":{"android":"levelo://app?vid=250ce43e-a31b-497d-9217-b532f6a53537","ios":"levelo://app?vid=250ce43e-a31b-497d-9217-b532f6a53537"},"vehicle_type_id":"4","last_reported":1720890382,"current_range_meters":13600,"station_id":"","pricing_plan_id":"cebpf4jnsgd1na2vs0mg"},{"bike_id":"737b4a9f-eca1-4f4f-9509-bd3ddc92a32a","system_id":"levelo_inurba_marseille","lat":43.312196,"lon":5.368216,"is_reserved":false,"is_disabled":false,"rental_uris":{"android":"levelo://app?vid=737b4a9f-eca1-4f4f-9509-bd3ddc92a32a","ios":"levelo://app?vid=737b4a9f-eca1-4f4f-9509-bd3ddc92a32a"},"vehicle_type_id":"4","last_reported":1720890382,"current_range_meters":10400,"station_id":"ce4bgl92rcd13ifvqbq0","pricing_plan_id":"cebpf4jnsgd1na2vs0mg"},{"bike_id":"54a03aa3-c0bf-429f-b407-0d8d4b7bb5c4","system_id":"levelo_inurba_marseille","lat":43.312239,"lon":5.368562,"is_reserved":false,"is_disabled":false,"rental_uris":{"android":"levelo://app?vid=54a03aa3-c0bf-429f-b407-0d8d4b7bb5c4","ios":"levelo://app?vid=54a03aa3-c0bf-429f-b407-0d8d4b7bb5c4"},"vehicle_type_id":"4","last_reported":1720890382,"current_range_meters":0,"station_id":"ce4bgl92rcd13ifvqbq0","pricing_plan_id":"cebpf4jnsgd1na2vs0mg"},{"bike_id":"f1ed72fe-0d7e-4635-8f7a-4087cbe7ac1a","system_id":"levelo_inurba_marseille","lat":43.312239,"lon":5.368562,"is_reserved":false,"is_disabled":false,"rental_uris":{"android":"levelo://app?vid=f1ed72fe-0d7e-4635-8f7a-4087cbe7ac1a","ios":"levelo://app?vid=f1ed72fe-0d7e-4635-8f7a-4087cbe7ac1a"},"vehicle_type_id":"4","last_reported":1720890382,"current_range_meters":6800,"station_id":"ce4bgl92rcd13ifvqbq0","pricing_plan_id":"cebpf4jnsgd1na2vs0mg"},{"bike_id":"789ad842-366a-469c-bd07-ae9b2c2456c4","system_id":"levelo_inurba_marseille","lat":43.309076,"lon":5.368465,"is_reserved":false,"is_disabled":false,"rental_uris":{"android":"levelo://app?vid=789ad842-366a-469c-bd07-ae9b2c2456c4","ios":"levelo://app?vid=789ad842-366a-469c-bd07-ae9b2c2456c4"},"vehicle_type_id":"4","last_reported":1720890382,"current_range_meters":5600,"station_id":"ce4bgn92rcd13ifvqbvg","pricing_plan_id":"cebpf4jnsgd1na2vs0mg"},{"bike_id":"ee34554a-4f90-45ab-81a2-40c1b3f3e0c1","system_id":"levelo_inurba_marseille","lat":43.314811,"lon":5.373103,"is_reserved":false,"is_disabled":false,"rental_uris":{"android":"levelo://app?vid=ee34554a-4f90-45ab-81a2-40c1b3f3e0c1","ios":"levelo://app?vid=ee34554a-4f90-45ab-81a2-40c1b3f3e0c1"},"vehicle_type_id":"4","last_reported":1720890382,"current_range_meters":0,"station_id":"ce4bgt12rcd13ifvqcd0","pricing_plan_id":"cebpf4jnsgd1na2vs0mg"},{"bike_id":"d6734d71-7b77-45f7-9e32-bb507e2dcd81","system_id":"levelo_inurba_marseille","lat":43.3149,"lon":5.37315,"is_reserved":false,"is_disabled":false,"rental_uris":{"android":"levelo://app?vid=d6734d71-7b77-45f7-9e32-bb507e2dcd81","ios":"levelo://app?vid=d6734d71-7b77-45f7-9e32-bb507e2dcd81"},"vehicle_type_id":"4","last_reported":1720890382,"current_range_meters":0,"station_id":"ce4bgt12rcd13ifvqcd0","pricing_plan_id":"cebpf4jnsgd1na2vs0mg"},{"bike_id":"3ec2f6d4-a6e4-4aa4-9407-2730438c4a0f","system_id":"levelo_inurba_marseille","lat":43.30887,"lon":5.37193,"is_reserved":false,"is_disabled":false,"rental_uris":{"android":"levelo://app?vid=3ec2f6d4-a6e4-4aa4-9407-2730438c4a0f","ios":"levelo://app?vid=3ec2f6d4-a6e4-4aa4-9407-2730438c4a0f"},"vehicle_type_id":"4","last_reported":1720890382,"current_range_meters":5600,"station_id":"","pricing_plan_id":"cebpf4jnsgd1na2vs0mg"},{"bike_id":"114f8a67-4811-40f8-b821-b87446ee6704","system_id":"levelo_inurba_marseille","lat":43.309039,"lon":5.371797,"is_reserved":false,"is_disabled":false,"rental_uris":{"android":"levelo://app?vid=114f8a67-4811-40f8-b821-b87446ee6704","ios":"levelo://app?vid=114f8a67-4811-40f8-b821-b87446ee6704"},"vehicle_type_id":"4","last_reported":1720890382,"current_range_meters":1600,"station_id":"ce4bguh2rcd13ifvqckg","pricing_plan_id":"cebpf4jnsgd1na2vs0mg"},{"bike_id":"22525a8a-777b-48bc-8f96-a462f40a2a21","system_id":"levelo_inurba_marseille","lat":43.30537,"lon":5.367345,"is_reserved":false,"is_disabled":false,"rental_uris":{"android":"levelo://app?vid=22525a8a-777b-48bc-8f96-a462f40a2a21","ios":"levelo://app?vid=22525a8a-777b-48bc-8f96-a462f40a2a21"},"vehicle_type_id":"4","last_reported":1720890382,"current_range_meters":0,"station_id":"ce4bgrp2rcd13ifvqc9g","pricing_plan_id":"cebpf4jnsgd1na2vs0mg"},{"bike_id":"b13f32fc-2150-408e-9450-045bb8b1c30a","system_id":"levelo_inurba_marseille","lat":43.305706,"lon":5.365654,"is_reserved":false,"is_disabled":false,"rental_uris":{"android":"levelo://app?vid=b13f32fc-2150-408e-9450-045bb8b1c30a","ios":"levelo://app?vid=b13f32fc-2150-408e-9450-045bb8b1c30a"},"vehicle_type_id":"4","last_reported":1720890382,"current_range_meters":4800,"station_id":"ce4bgs12rcd13ifvqcag","pricing_plan_id":"cebpf4jnsgd1na2vs0mg"},{"bike_id":"dd73407a-7c09-4c0e-a907-bf9478956b66","system_id":"levelo_inurba_marseille","lat":43.305706,"lon":5.365654,"is_reserved":false,"is_disabled":false,"rental_uris":{"android":"levelo://app?vid=dd73407a-7c09-4c0e-a907-bf9478956b66","ios":"levelo://app?vid=dd73407a-7c09-4c0e-a907-bf9478956b66"},"vehicle_type_id":"4","last_reported":1720890382,"current_range_meters":6400,"station_id":"ce4bgs12rcd13ifvqcag","pricing_plan_id":"cebpf4jnsgd1na2vs0mg"},{"bike_id":"d3cb9e52-ff30-4759-b9e6-a566dca8937b","system_id":"levelo_inurba_marseille","lat":43.305706,"lon":5.365654,"is_reserved":false,"is_disabled":false,"rental_uris":{"android":"levelo://app?vid=d3cb9e52-ff30-4759-b9e6-a566dca8937b","ios":"levelo://app?vid=d3cb9e52-ff30-4759-b9e6-a566dca8937b"},"vehicle_type_id":"4","last_reported":1720890382,"current_range_meters":0,"station_id":"ce4bgs12rcd13ifvqcag","pricing_plan_id":"cebpf4jnsgd1na2vs0mg"},{"bike_id":"57c624fb-e696-4d46-be66-792e46999efe","system_id":"levelo_inurba_marseille","lat":43.305989,"lon":5.37225,"is_reserved":false,"is_disabled":false,"rental_uris":{"android":"levelo://app?vid=57c624fb-e696-4d46-be66-792e46999efe","ios":"levelo://app?vid=57c624fb-e696-4d46-be66-792e46999efe"},"vehicle_type_id":"4","last_reported":1720890382,"current_range_meters":2800,"station_id":"ce4bgqh2rcd13ifvqc4g","pricing_plan_id":"cebpf4jnsgd1na2vs0mg"},{"bike_id":"110da0fd-132b-4ba8-a4ce-eecd2cfd7bc6","system_id":"levelo_inurba_marseille","lat":43.305989,"lon":5.37225,"is_reserved":false,"is_disabled":false,"rental_uris":{"android":"levelo://app?vid=110da0fd-132b-4ba8-a4ce-eecd2cfd7bc6","ios":"levelo://app?vid=110da0fd-132b-4ba8-a4ce-eecd2cfd7bc6"},"vehicle_type_id":"4","last_reported":1720890382,"current_range_meters":2800,"station_id":"ce4bgqh2rcd13ifvqc4g","pricing_plan_id":"cebpf4jnsgd1na2vs0mg"},{"bike_id":"1edf64bc-af97-4221-903b-22b936afdf45","system_id":"levelo_inurba_marseille","lat":43.31121,"lon":5.37762,"is_reserved":false,"is_disabled":false,"rental_uris":{"android":"levelo://app?vid=1edf64bc-af97-4221-903b-22b936afdf45","ios":"levelo://app?vid=1edf64bc-af97-4221-903b-22b936afdf45"},"vehicle_type_id":"4","last_reported":1720890382,"current_range_meters":0,"station_id":"ce4bgt92rcd13ifvqcg0","pricing_plan_id":"cebpf4jnsgd1na2vs0mg"},{"bike_id":"ec021d0b-01b7-4ca4-9e78-7c1af6680fd7","system_id":"levelo_inurba_marseille","lat":43.311237,"lon":5.377631,"is_reserved":false,"is_disabled":false,"rental_uris":{"android":"levelo://app?vid=ec021d0b-01b7-4ca4-9e78-7c1af6680fd7","ios":"levelo://app?vid=ec021d0b-01b7-4ca4-9e78-7c1af6680fd7"},"vehicle_type_id":"4","last_reported":1720890382,"current_range_meters":0,"station_id":"ce4bgt92rcd13ifvqcg0","pricing_plan_id":"cebpf4jnsgd1na2vs0mg"},{"bike_id":"31b5f462-1c7d-4f9a-a81e-afe3b8f6180b","system_id":"levelo_inurba_marseille","lat":43.31122,"lon":5.37782,"is_reserved":false,"is_disabled":false,"rental_uris":{"android":"levelo://app?vid=31b5f462-1c7d-4f9a-a81e-afe3b8f6180b","ios":"levelo://app?vid=31b5f462-1c7d-4f9a-a81e-afe3b8f6180b"},"vehicle_type_id":"4","last_reported":1720890382,"current_range_meters":11600,"station_id":"ce4bgt92rcd13ifvqcg0","pricing_plan_id":"cebpf4jnsgd1na2vs0mg"},{"bike_id":"1afbcac9-178f-4a33-a1d9-251b0a4ada9c","system_id":"levelo_inurba_marseille","lat":43.307945,"lon":5.376487,"is_reserved":false,"is_disabled":false,"rental_uris":{"android":"levelo://app?vid=1afbcac9-178f-4a33-a1d9-251b0a4ada9c","ios":"levelo://app?vid=1afbcac9-178f-4a33-a1d9-251b0a4ada9c"},"vehicle_type_id":"4","last_reported":1720890382,"current_range_meters":0,"station_id":"ce4bgv92rcd13ifvqcq0","pricing_plan_id":"cebpf4jnsgd1na2vs0mg"},{"bike_id":"33693c0b-6321-4bf2-9f02-a4bba7e34b03","system_id":"levelo_inurba_marseille","lat":43.307945,"lon":5.376487,"is_reserved":false,"is_disabled":false,"rental_uris":{"android":"levelo://app?vid=33693c0b-6321-4bf2-9f02-a4bba7e34b03","ios":"levelo://app?vid=33693c0b-6321-4bf2-9f02-a4bba7e34b03"},"vehicle_type_id":"4","last_reported":1720890382,"current_range_meters":0,"station_id":"ce4bgv92rcd13ifvqcq0","pricing_plan_id":"cebpf4jnsgd1na2vs0mg"},{"bike_id":"2b4da476-2e26-40be-9aee-5dbf144bd864","system_id":"levelo_inurba_marseille","lat":43.312034,"lon":5.379023,"is_reserved":false,"is_disabled":false,"rental_uris":{"android":"levelo://app?vid=2b4da476-2e26-40be-9aee-5dbf144bd864","ios":"levelo://app?vid=2b4da476-2e26-40be-9aee-5dbf144bd864"},"vehicle_type_id":"4","last_reported":1720890382,"current_range_meters":11600,"station_id":"","pricing_plan_id":"cebpf4jnsgd1na2vs0mg"},{"bike_id":"cd9ede3a-7587-4814-aa4f-c70076c189bf","system_id":"levelo_inurba_marseille","lat":43.303046,"lon":5.368981,"is_reserved":false,"is_disabled":false,"rental_uris":{"android":"levelo://app?vid=cd9ede3a-7587-4814-aa4f-c70076c189bf","ios":"levelo://app?vid=cd9ede3a-7587-4814-aa4f-c70076c189bf"},"vehicle_type_id":"4","last_reported":1720890382,"current_range_meters":0,"station_id":"ce4bgqh2rcd13ifvqc5g","pricing_plan_id":"cebpf4jnsgd1na2vs0mg"},{"bike_id":"3a3c08b5-6f08-46bf-bb76-6ca7d8c72d6f","system_id":"levelo_inurba_marseille","lat":43.315289,"lon":5.380349,"is_reserved":false,"is_disabled":false,"rental_uris":{"android":"levelo://app?vid=3a3c08b5-6f08-46bf-bb76-6ca7d8c72d6f","ios":"levelo://app?vid=3a3c08b5-6f08-46bf-bb76-6ca7d8c72d6f"},"vehicle_type_id":"4","last_reported":1720890382,"current_range_meters":800,"station_id":"ce4bhsp2rcd13ifvqi50","pricing_plan_id":"cebpf4jnsgd1na2vs0mg"},{"bike_id":"67dc44ec-6bcd-492f-baed-83f33a186c87","system_id":"levelo_inurba_marseille","lat":43.320204,"lon":5.37652,"is_reserved":false,"is_disabled":false,"rental_uris":{"android":"levelo://app?vid=67dc44ec-6bcd-492f-baed-83f33a186c87","ios":"levelo://app?vid=67dc44ec-6bcd-492f-baed-83f33a186c87"},"vehicle_type_id":"4","last_reported":1720890382,"current_range_meters":28800,"station_id":"","pricing_plan_id":"cebpf4jnsgd1na2vs0mg"},{"bike_id":"a47285e7-2616-4dee-abb3-999bd832caf8","system_id":"levelo_inurba_marseille","lat":43.301312,"lon":5.368076,"is_reserved":false,"is_disabled":false,"rental_uris":{"android":"levelo://app?vid=a47285e7-2616-4dee-abb3-999bd832caf8","ios":"levelo://app?vid=a47285e7-2616-4dee-abb3-999bd832caf8"},"vehicle_type_id":"4","last_reported":1720890382,"current_range_meters":12000,"station_id":"","pricing_plan_id":"cebpf4jnsgd1na2vs0mg"},{"bike_id":"8f0f9e5e-a4b1-436d-a983-9ca439c841cb","system_id":"levelo_inurba_marseille","lat":43.30793,"lon":5.38149,"is_reserved":false,"is_disabled":false,"rental_uris":{"android":"levelo://app?vid=8f0f9e5e-a4b1-436d-a983-9ca439c841cb","ios":"levelo://app?vid=8f0f9e5e-a4b1-436d-a983-9ca439c841cb"},"vehicle_type_id":"4","last_reported":1720890382,"current_range_meters":20400,"station_id":"ce4bgt12rcd13ifvqce0","pricing_plan_id":"cebpf4jnsgd1na2vs0mg"},{"bike_id":"855ac766-f81e-49ac-94c7-249ae6481f4e","system_id":"levelo_inurba_marseille","lat":43.304606,"lon":5.379026,"is_reserved":false,"is_disabled":false,"rental_uris":{"android":"levelo://app?vid=855ac766-f81e-49ac-94c7-249ae6481f4e","ios":"levelo://app?vid=855ac766-f81e-49ac-94c7-249ae6481f4e"},"vehicle_type_id":"4","last_reported":1720890382,"current_range_meters":31200,"station_id":"ce4bgup2rcd13ifvqcn0","pricing_plan_id":"cebpf4jnsgd1na2vs0mg"},{"bike_id":"3868cadb-9813-4ccb-9470-3447a009ee7f","system_id":"levelo_inurba_marseille","lat":43.304606,"lon":5.379026,"is_reserved":false,"is_disabled":false,"rental_uris":{"android":"levelo://app?vid=3868cadb-9813-4ccb-9470-3447a009ee7f","ios":"levelo://app?vid=3868cadb-9813-4ccb-9470-3447a009ee7f"},"vehicle_type_id":"4","last_reported":1720890382,"current_range_meters":800,"station_id":"ce4bgup2rcd13ifvqcn0","pricing_plan_id":"cebpf4jnsgd1na2vs0mg"},{"bike_id":"4b761fba-2565-4644-a780-dd2c9921c9cf","system_id":"levelo_inurba_marseille","lat":43.304606,"lon":5.379026,"is_reserved":false,"is_disabled":false,"rental_uris":{"android":"levelo://app?vid=4b761fba-2565-4644-a780-dd2c9921c9cf","ios":"levelo://app?vid=4b761fba-2565-4644-a780-dd2c9921c9cf"},"vehicle_type_id":"4","last_reported":1720890382,"current_range_meters":2800,"station_id":"ce4bgup2rcd13ifvqcn0","pricing_plan_id":"cebpf4jnsgd1na2vs0mg"},{"bike_id":"ab609865-35fd-4998-a1c6-c10492446acd","system_id":"levelo_inurba_marseille","lat":43.324771,"lon":5.36557,"is_reserved":false,"is_disabled":false,"rental_uris":{"android":"levelo://app?vid=ab609865-35fd-4998-a1c6-c10492446acd","ios":"levelo://app?vid=ab609865-35fd-4998-a1c6-c10492446acd"},"vehicle_type_id":"4","last_reported":1720890382,"current_range_meters":20000,"station_id":"ce4bhs12rcd13ifvqhvg","pricing_plan_id":"cebpf4jnsgd1na2vs0mg"},{"bike_id":"cbb31597-60ef-4585-a808-72d1b8e3ea80","system_id":"levelo_inurba_marseille","lat":43.324771,"lon":5.36557,"is_reserved":false,"is_disabled":false,"rental_uris":{"android":"levelo://app?vid=cbb31597-60ef-4585-a808-72d1b8e3ea80","ios":"levelo://app?vid=cbb31597-60ef-4585-a808-72d1b8e3ea80"},"vehicle_type_id":"4","last_reported":1720890382,"current_range_meters":26000,"station_id":"ce4bhs12rcd13ifvqhvg","pricing_plan_id":"cebpf4jnsgd1na2vs0mg"},{"bike_id":"7e73aa4c-ea94-4d4e-ba2d-81421c5f4cb3","system_id":"levelo_inurba_marseille","lat":43.32479,"lon":5.36567,"is_reserved":false,"is_disabled":false,"rental_uris":{"android":"levelo://app?vid=7e73aa4c-ea94-4d4e-ba2d-81421c5f4cb3","ios":"levelo://app?vid=7e73aa4c-ea94-4d4e-ba2d-81421c5f4cb3"},"vehicle_type_id":"4","last_reported":1720890382,"current_range_meters":22000,"station_id":"","pricing_plan_id":"cebpf4jnsgd1na2vs0mg"},{"bike_id":"939b2c87-321c-4dcc-b645-38e85d661a8c","system_id":"levelo_inurba_marseille","lat":43.324771,"lon":5.36557,"is_reserved":false,"is_disabled":false,"rental_uris":{"android":"levelo://app?vid=939b2c87-321c-4dcc-b645-38e85d661a8c","ios":"levelo://app?vid=939b2c87-321c-4dcc-b645-38e85d661a8c"},"vehicle_type_id":"4","last_reported":1720890382,"current_range_meters":4400,"station_id":"ce4bhs12rcd13ifvqhvg","pricing_plan_id":"cebpf4jnsgd1na2vs0mg"},{"bike_id":"d43dd5fd-24a2-458f-aeb8-d07b18c4dd02","system_id":"levelo_inurba_marseille","lat":43.324801,"lon":5.365694,"is_reserved":false,"is_disabled":false,"rental_uris":{"android":"levelo://app?vid=d43dd5fd-24a2-458f-aeb8-d07b18c4dd02","ios":"levelo://app?vid=d43dd5fd-24a2-458f-aeb8-d07b18c4dd02"},"vehicle_type_id":"4","last_reported":1720890382,"current_range_meters":23200,"station_id":"","pricing_plan_id":"cebpf4jnsgd1na2vs0mg"},{"bike_id":"6bc47b41-820d-4f3b-b2d1-d1183ddfba94","system_id":"levelo_inurba_marseille","lat":43.324771,"lon":5.36557,"is_reserved":false,"is_disabled":false,"rental_uris":{"android":"levelo://app?vid=6bc47b41-820d-4f3b-b2d1-d1183ddfba94","ios":"levelo://app?vid=6bc47b41-820d-4f3b-b2d1-d1183ddfba94"},"vehicle_type_id":"4","last_reported":1720890382,"current_range_meters":2000,"station_id":"ce4bhs12rcd13ifvqhvg","pricing_plan_id":"cebpf4jnsgd1na2vs0mg"},{"bike_id":"ea9427d3-3844-4ab0-8397-5150365c96a8","system_id":"levelo_inurba_marseille","lat":43.32484,"lon":5.36571,"is_reserved":false,"is_disabled":false,"rental_uris":{"android":"levelo://app?vid=ea9427d3-3844-4ab0-8397-5150365c96a8","ios":"levelo://app?vid=ea9427d3-3844-4ab0-8397-5150365c96a8"},"vehicle_type_id":"4","last_reported":1720890382,"current_range_meters":20000,"station_id":"ce4bhs12rcd13ifvqhvg","pricing_plan_id":"cebpf4jnsgd1na2vs0mg"},{"bike_id":"445a5680-1b9e-48f1-94de-06deb522d251","system_id":"levelo_inurba_marseille","lat":43.324771,"lon":5.36557,"is_reserved":false,"is_disabled":false,"rental_uris":{"android":"levelo://app?vid=445a5680-1b9e-48f1-94de-06deb522d251","ios":"levelo://app?vid=445a5680-1b9e-48f1-94de-06deb522d251"},"vehicle_type_id":"4","last_reported":1720890382,"current_range_meters":13600,"station_id":"ce4bhs12rcd13ifvqhvg","pricing_plan_id":"cebpf4jnsgd1na2vs0mg"},{"bike_id":"8cef89db-5f5e-49ee-9ae1-a8cf17c4a2ad","system_id":"levelo_inurba_marseille","lat":43.324771,"lon":5.36557,"is_reserved":false,"is_disabled":false,"rental_uris":{"android":"levelo://app?vid=8cef89db-5f5e-49ee-9ae1-a8cf17c4a2ad","ios":"levelo://app?vid=8cef89db-5f5e-49ee-9ae1-a8cf17c4a2ad"},"vehicle_type_id":"4","last_reported":1720890382,"current_range_meters":0,"station_id":"ce4bhs12rcd13ifvqhvg","pricing_plan_id":"cebpf4jnsgd1na2vs0mg"},{"bike_id":"616bbced-b5d2-4bb1-8e61-76647ccd5559","system_id":"levelo_inurba_marseille","lat":43.324771,"lon":5.36557,"is_reserved":false,"is_disabled":false,"rental_uris":{"android":"levelo://app?vid=616bbced-b5d2-4bb1-8e61-76647ccd5559","ios":"levelo://app?vid=616bbced-b5d2-4bb1-8e61-76647ccd5559"},"vehicle_type_id":"4","last_reported":1720890382,"current_range_meters":17200,"station_id":"ce4bhs12rcd13ifvqhvg","pricing_plan_id":"cebpf4jnsgd1na2vs0mg"},{"bike_id":"01ec4e6e-72dc-4798-b2f0-ed454319c72d","system_id":"levelo_inurba_marseille","lat":43.324867,"lon":5.365817,"is_reserved":false,"is_disabled":false,"rental_uris":{"android":"levelo://app?vid=01ec4e6e-72dc-4798-b2f0-ed454319c72d","ios":"levelo://app?vid=01ec4e6e-72dc-4798-b2f0-ed454319c72d"},"vehicle_type_id":"4","last_reported":1720890382,"current_range_meters":10000,"station_id":"ce4bhs12rcd13ifvqhvg","pricing_plan_id":"cebpf4jnsgd1na2vs0mg"},{"bike_id":"25fcb7d6-1ab0-4aa0-b64b-966f1b6d0768","system_id":"levelo_inurba_marseille","lat":43.319935,"lon":5.381699,"is_reserved":false,"is_disabled":false,"rental_uris":{"android":"levelo://app?vid=25fcb7d6-1ab0-4aa0-b64b-966f1b6d0768","ios":"levelo://app?vid=25fcb7d6-1ab0-4aa0-b64b-966f1b6d0768"},"vehicle_type_id":"4","last_reported":1720890382,"current_range_meters":0,"station_id":"ce4bhr12rcd13ifvqhpg","pricing_plan_id":"cebpf4jnsgd1na2vs0mg"},{"bike_id":"aa095fef-49bd-4180-a4ce-e15fb320deb4","system_id":"levelo_inurba_marseille","lat":43.31361,"lon":5.3849,"is_reserved":false,"is_disabled":false,"rental_uris":{"android":"levelo://app?vid=aa095fef-49bd-4180-a4ce-e15fb320deb4","ios":"levelo://app?vid=aa095fef-49bd-4180-a4ce-e15fb320deb4"},"vehicle_type_id":"4","last_reported":1720890382,"current_range_meters":0,"station_id":"ce4bgt92rcd13ifvqcf0","pricing_plan_id":"cebpf4jnsgd1na2vs0mg"},{"bike_id":"35123e6d-00a6-4302-ac31-1798c30406e5","system_id":"levelo_inurba_marseille","lat":43.29995,"lon":5.37165,"is_reserved":false,"is_disabled":false,"rental_uris":{"android":"levelo://app?vid=35123e6d-00a6-4302-ac31-1798c30406e5","ios":"levelo://app?vid=35123e6d-00a6-4302-ac31-1798c30406e5"},"vehicle_type_id":"4","last_reported":1720890382,"current_range_meters":4000,"station_id":"","pricing_plan_id":"cebpf4jnsgd1na2vs0mg"},{"bike_id":"d53346a5-03fd-4ccf-a5c9-6259a1113263","system_id":"levelo_inurba_marseille","lat":43.299222,"lon":5.365554,"is_reserved":false,"is_disabled":false,"rental_uris":{"android":"levelo://app?vid=d53346a5-03fd-4ccf-a5c9-6259a1113263","ios":"levelo://app?vid=d53346a5-03fd-4ccf-a5c9-6259a1113263"},"vehicle_type_id":"4","last_reported":1720890382,"current_range_meters":6400,"station_id":"ce4bgm92rcd13ifvqbr0","pricing_plan_id":"cebpf4jnsgd1na2vs0mg"},{"bike_id":"ea415132-bf17-48b8-a22a-f251937652fc","system_id":"levelo_inurba_marseille","lat":43.299724,"lon":5.371829,"is_reserved":false,"is_disabled":false,"rental_uris":{"android":"levelo://app?vid=ea415132-bf17-48b8-a22a-f251937652fc","ios":"levelo://app?vid=ea415132-bf17-48b8-a22a-f251937652fc"},"vehicle_type_id":"4","last_reported":1720890382,"current_range_meters":0,"station_id":"ce4bgr92rcd13ifvqc7g","pricing_plan_id":"cebpf4jnsgd1na2vs0mg"},{"bike_id":"d22e410f-59ce-492c-9e64-6a61ead527b4","system_id":"levelo_inurba_marseille","lat":43.29843,"lon":5.36275,"is_reserved":false,"is_disabled":false,"rental_uris":{"android":"levelo://app?vid=d22e410f-59ce-492c-9e64-6a61ead527b4","ios":"levelo://app?vid=d22e410f-59ce-492c-9e64-6a61ead527b4"},"vehicle_type_id":"4","last_reported":1720890382,"current_range_meters":0,"station_id":"ce4bgpp2rcd13ifvqc3g","pricing_plan_id":"cebpf4jnsgd1na2vs0mg"},{"bike_id":"da7774e0-c004-4085-917d-ea7c65d573fc","system_id":"levelo_inurba_marseille","lat":43.305364,"lon":5.384119,"is_reserved":false,"is_disabled":false,"rental_uris":{"android":"levelo://app?vid=da7774e0-c004-4085-917d-ea7c65d573fc","ios":"levelo://app?vid=da7774e0-c004-4085-917d-ea7c65d573fc"},"vehicle_type_id":"4","last_reported":1720890382,"current_range_meters":3600,"station_id":"ce4bgg92rcd13ifvqb30","pricing_plan_id":"cebpf4jnsgd1na2vs0mg"},{"bike_id":"8db6acf5-e5b4-40b8-915b-0c719d87c287","system_id":"levelo_inurba_marseille","lat":43.299243,"lon":5.37481,"is_reserved":false,"is_disabled":false,"rental_uris":{"android":"levelo://app?vid=8db6acf5-e5b4-40b8-915b-0c719d87c287","ios":"levelo://app?vid=8db6acf5-e5b4-40b8-915b-0c719d87c287"},"vehicle_type_id":"4","last_reported":1720890382,"current_range_meters":1600,"station_id":"ce4bgjh2rcd13ifvqbg0","pricing_plan_id":"cebpf4jnsgd1na2vs0mg"},{"bike_id":"f26379f9-97fe-4b97-bcec-48876909f8d9","system_id":"levelo_inurba_marseille","lat":43.301573,"lon":5.38029,"is_reserved":false,"is_disabled":false,"rental_uris":{"android":"levelo://app?vid=f26379f9-97fe-4b97-bcec-48876909f8d9","ios":"levelo://app?vid=f26379f9-97fe-4b97-bcec-48876909f8d9"},"vehicle_type_id":"4","last_reported":1720890382,"current_range_meters":0,"station_id":"","pricing_plan_id":"cebpf4jnsgd1na2vs0mg"},{"bike_id":"ce11c82a-1c02-4fae-a866-e4b51874d42a","system_id":"levelo_inurba_marseille","lat":43.311722,"lon":5.387247,"is_reserved":false,"is_disabled":false,"rental_uris":{"android":"levelo://app?vid=ce11c82a-1c02-4fae-a866-e4b51874d42a","ios":"levelo://app?vid=ce11c82a-1c02-4fae-a866-e4b51874d42a"},"vehicle_type_id":"4","last_reported":1720890382,"current_range_meters":6800,"station_id":"ce4bgv12rcd13ifvqcp0","pricing_plan_id":"cebpf4jnsgd1na2vs0mg"},{"bike_id":"53226564-62be-4a9b-b10b-fa9777d84c54","system_id":"levelo_inurba_marseille","lat":43.32284,"lon":5.38262,"is_reserved":false,"is_disabled":false,"rental_uris":{"android":"levelo://app?vid=53226564-62be-4a9b-b10b-fa9777d84c54","ios":"levelo://app?vid=53226564-62be-4a9b-b10b-fa9777d84c54"},"vehicle_type_id":"4","last_reported":1720890382,"current_range_meters":8000,"station_id":"ce4bhr12rcd13ifvqhqg","pricing_plan_id":"cebpf4jnsgd1na2vs0mg"},{"bike_id":"c3f7600b-055d-41e7-8dde-c85e72222ff6","system_id":"levelo_inurba_marseille","lat":43.322872,"lon":5.382756,"is_reserved":false,"is_disabled":false,"rental_uris":{"android":"levelo://app?vid=c3f7600b-055d-41e7-8dde-c85e72222ff6","ios":"levelo://app?vid=c3f7600b-055d-41e7-8dde-c85e72222ff6"},"vehicle_type_id":"4","last_reported":1720890382,"current_range_meters":21200,"station_id":"ce4bhr12rcd13ifvqhqg","pricing_plan_id":"cebpf4jnsgd1na2vs0mg"},{"bike_id":"729c2a8a-b899-4d67-ac44-060e04cca798","system_id":"levelo_inurba_marseille","lat":43.322902,"lon":5.382649,"is_reserved":false,"is_disabled":false,"rental_uris":{"android":"levelo://app?vid=729c2a8a-b899-4d67-ac44-060e04cca798","ios":"levelo://app?vid=729c2a8a-b899-4d67-ac44-060e04cca798"},"vehicle_type_id":"4","last_reported":1720890382,"current_range_meters":9600,"station_id":"ce4bhr12rcd13ifvqhqg","pricing_plan_id":"cebpf4jnsgd1na2vs0mg"},{"bike_id":"621a1240-dcf9-4073-bd49-41934f332358","system_id":"levelo_inurba_marseille","lat":43.32292,"lon":5.38264,"is_reserved":false,"is_disabled":false,"rental_uris":{"android":"levelo://app?vid=621a1240-dcf9-4073-bd49-41934f332358","ios":"levelo://app?vid=621a1240-dcf9-4073-bd49-41934f332358"},"vehicle_type_id":"4","last_reported":1720890382,"current_range_meters":24800,"station_id":"","pricing_plan_id":"cebpf4jnsgd1na2vs0mg"},{"bike_id":"51e8ba81-f0e1-40ab-b620-8e1a5aff3e9f","system_id":"levelo_inurba_marseille","lat":43.32291,"lon":5.3827,"is_reserved":false,"is_disabled":false,"rental_uris":{"android":"levelo://app?vid=51e8ba81-f0e1-40ab-b620-8e1a5aff3e9f","ios":"levelo://app?vid=51e8ba81-f0e1-40ab-b620-8e1a5aff3e9f"},"vehicle_type_id":"4","last_reported":1720890382,"current_range_meters":0,"station_id":"ce4bhr12rcd13ifvqhqg","pricing_plan_id":"cebpf4jnsgd1na2vs0mg"},{"bike_id":"6ee5e055-8a08-4d0e-af75-d17a5a928ec3","system_id":"levelo_inurba_marseille","lat":43.322872,"lon":5.382756,"is_reserved":false,"is_disabled":false,"rental_uris":{"android":"levelo://app?vid=6ee5e055-8a08-4d0e-af75-d17a5a928ec3","ios":"levelo://app?vid=6ee5e055-8a08-4d0e-af75-d17a5a928ec3"},"vehicle_type_id":"4","last_reported":1720890382,"current_range_meters":20800,"station_id":"ce4bhr12rcd13ifvqhqg","pricing_plan_id":"cebpf4jnsgd1na2vs0mg"},{"bike_id":"0924df85-ceaa-4100-bb33-f3056ff7e83e","system_id":"levelo_inurba_marseille","lat":43.29713,"lon":5.36612,"is_reserved":false,"is_disabled":false,"rental_uris":{"android":"levelo://app?vid=0924df85-ceaa-4100-bb33-f3056ff7e83e","ios":"levelo://app?vid=0924df85-ceaa-4100-bb33-f3056ff7e83e"},"vehicle_type_id":"4","last_reported":1720890382,"current_range_meters":6000,"station_id":"ce4bgn12rcd13ifvqbt0","pricing_plan_id":"cebpf4jnsgd1na2vs0mg"},{"bike_id":"c9e34788-7e6d-4b23-b152-a64782a40e76","system_id":"levelo_inurba_marseille","lat":43.29696,"lon":5.37105,"is_reserved":false,"is_disabled":false,"rental_uris":{"android":"levelo://app?vid=c9e34788-7e6d-4b23-b152-a64782a40e76","ios":"levelo://app?vid=c9e34788-7e6d-4b23-b152-a64782a40e76"},"vehicle_type_id":"4","last_reported":1720890382,"current_range_meters":0,"station_id":"","pricing_plan_id":"cebpf4jnsgd1na2vs0mg"},{"bike_id":"8831571e-6ab5-469c-853d-de6b3210127c","system_id":"levelo_inurba_marseille","lat":43.2968,"lon":5.37291,"is_reserved":false,"is_disabled":false,"rental_uris":{"android":"levelo://app?vid=8831571e-6ab5-469c-853d-de6b3210127c","ios":"levelo://app?vid=8831571e-6ab5-469c-853d-de6b3210127c"},"vehicle_type_id":"4","last_reported":1720890382,"current_range_meters":24000,"station_id":"ce4bgk12rcd13ifvqbj0","pricing_plan_id":"cebpf4jnsgd1na2vs0mg"},{"bike_id":"9729b575-b4bf-452e-b96d-c403e7b83105","system_id":"levelo_inurba_marseille","lat":43.29685,"lon":5.372817,"is_reserved":false,"is_disabled":false,"rental_uris":{"android":"levelo://app?vid=9729b575-b4bf-452e-b96d-c403e7b83105","ios":"levelo://app?vid=9729b575-b4bf-452e-b96d-c403e7b83105"},"vehicle_type_id":"4","last_reported":1720890382,"current_range_meters":0,"station_id":"ce4bgk12rcd13ifvqbj0","pricing_plan_id":"cebpf4jnsgd1na2vs0mg"},{"bike_id":"901a6b10-565e-4803-972f-e128a7941323","system_id":"levelo_inurba_marseille","lat":43.2968,"lon":5.37291,"is_reserved":false,"is_disabled":false,"rental_uris":{"android":"levelo://app?vid=901a6b10-565e-4803-972f-e128a7941323","ios":"levelo://app?vid=901a6b10-565e-4803-972f-e128a7941323"},"vehicle_type_id":"4","last_reported":1720890382,"current_range_meters":28000,"station_id":"ce4bgk12rcd13ifvqbj0","pricing_plan_id":"cebpf4jnsgd1na2vs0mg"},{"bike_id":"33e2a9bc-1d51-45a1-8c99-1718c7a6f89f","system_id":"levelo_inurba_marseille","lat":43.2968,"lon":5.37291,"is_reserved":false,"is_disabled":false,"rental_uris":{"android":"levelo://app?vid=33e2a9bc-1d51-45a1-8c99-1718c7a6f89f","ios":"levelo://app?vid=33e2a9bc-1d51-45a1-8c99-1718c7a6f89f"},"vehicle_type_id":"4","last_reported":1720890382,"current_range_meters":400,"station_id":"ce4bgk12rcd13ifvqbj0","pricing_plan_id":"cebpf4jnsgd1na2vs0mg"},{"bike_id":"3731f108-d7da-4cc1-bc39-de1c363e7df1","system_id":"levelo_inurba_marseille","lat":43.29676,"lon":5.37289,"is_reserved":false,"is_disabled":false,"rental_uris":{"android":"levelo://app?vid=3731f108-d7da-4cc1-bc39-de1c363e7df1","ios":"levelo://app?vid=3731f108-d7da-4cc1-bc39-de1c363e7df1"},"vehicle_type_id":"4","last_reported":1720890382,"current_range_meters":0,"station_id":"ce4bgk12rcd13ifvqbj0","pricing_plan_id":"cebpf4jnsgd1na2vs0mg"},{"bike_id":"8061e277-7b01-4c2a-95a6-3b16e7a7e8b9","system_id":"levelo_inurba_marseille","lat":43.29582,"lon":5.36432,"is_reserved":false,"is_disabled":false,"rental_uris":{"android":"levelo://app?vid=8061e277-7b01-4c2a-95a6-3b16e7a7e8b9","ios":"levelo://app?vid=8061e277-7b01-4c2a-95a6-3b16e7a7e8b9"},"vehicle_type_id":"4","last_reported":1720890382,"current_range_meters":8000,"station_id":"","pricing_plan_id":"cebpf4jnsgd1na2vs0mg"},{"bike_id":"4d8e9a2a-15ea-4c48-a5c0-ff8cfac66e64","system_id":"levelo_inurba_marseille","lat":43.296921,"lon":5.376579,"is_reserved":false,"is_disabled":false,"rental_uris":{"android":"levelo://app?vid=4d8e9a2a-15ea-4c48-a5c0-ff8cfac66e64","ios":"levelo://app?vid=4d8e9a2a-15ea-4c48-a5c0-ff8cfac66e64"},"vehicle_type_id":"4","last_reported":1720890382,"current_range_meters":17200,"station_id":"ce4bgkh2rcd13ifvqbl0","pricing_plan_id":"cebpf4jnsgd1na2vs0mg"},{"bike_id":"916aaf6f-e710-4682-a5c5-5c26973033ce","system_id":"levelo_inurba_marseille","lat":43.296935,"lon":5.376544,"is_reserved":false,"is_disabled":false,"rental_uris":{"android":"levelo://app?vid=916aaf6f-e710-4682-a5c5-5c26973033ce","ios":"levelo://app?vid=916aaf6f-e710-4682-a5c5-5c26973033ce"},"vehicle_type_id":"4","last_reported":1720890382,"current_range_meters":8000,"station_id":"ce4bgkh2rcd13ifvqbl0","pricing_plan_id":"cebpf4jnsgd1na2vs0mg"},{"bike_id":"8a6a54a4-1fc7-4415-981f-2bd66e7b7175","system_id":"levelo_inurba_marseille","lat":43.309589,"lon":5.390258,"is_reserved":false,"is_disabled":false,"rental_uris":{"android":"levelo://app?vid=8a6a54a4-1fc7-4415-981f-2bd66e7b7175","ios":"levelo://app?vid=8a6a54a4-1fc7-4415-981f-2bd66e7b7175"},"vehicle_type_id":"4","last_reported":1720890382,"current_range_meters":8800,"station_id":"ce4bgup2rcd13ifvqco0","pricing_plan_id":"cebpf4jnsgd1na2vs0mg"},{"bike_id":"d52e04dd-42ae-4cff-9a20-244946b88a39","system_id":"levelo_inurba_marseille","lat":43.296935,"lon":5.376544,"is_reserved":false,"is_disabled":false,"rental_uris":{"android":"levelo://app?vid=d52e04dd-42ae-4cff-9a20-244946b88a39","ios":"levelo://app?vid=d52e04dd-42ae-4cff-9a20-244946b88a39"},"vehicle_type_id":"4","last_reported":1720890382,"current_range_meters":0,"station_id":"ce4bgkh2rcd13ifvqbl0","pricing_plan_id":"cebpf4jnsgd1na2vs0mg"},{"bike_id":"79a0f64c-455b-4f4e-9463-5cc496b9a708","system_id":"levelo_inurba_marseille","lat":43.317557,"lon":5.390173,"is_reserved":false,"is_disabled":false,"rental_uris":{"android":"levelo://app?vid=79a0f64c-455b-4f4e-9463-5cc496b9a708","ios":"levelo://app?vid=79a0f64c-455b-4f4e-9463-5cc496b9a708"},"vehicle_type_id":"4","last_reported":1720890382,"current_range_meters":26800,"station_id":"ce4bhqp2rcd13ifvqhng","pricing_plan_id":"cebpf4jnsgd1na2vs0mg"},{"bike_id":"162e1632-f091-476e-bf64-f342a40c3d9f","system_id":"levelo_inurba_marseille","lat":43.298037,"lon":5.381066,"is_reserved":false,"is_disabled":false,"rental_uris":{"android":"levelo://app?vid=162e1632-f091-476e-bf64-f342a40c3d9f","ios":"levelo://app?vid=162e1632-f091-476e-bf64-f342a40c3d9f"},"vehicle_type_id":"4","last_reported":1720890382,"current_range_meters":6000,"station_id":"ce4bgip2rcd13ifvqbb0","pricing_plan_id":"cebpf4jnsgd1na2vs0mg"},{"bike_id":"d98e0b0b-ec8e-41cf-9650-bda68ea4c082","system_id":"levelo_inurba_marseille","lat":43.29575,"lon":5.374997,"is_reserved":false,"is_disabled":false,"rental_uris":{"android":"levelo://app?vid=d98e0b0b-ec8e-41cf-9650-bda68ea4c082","ios":"levelo://app?vid=d98e0b0b-ec8e-41cf-9650-bda68ea4c082"},"vehicle_type_id":"4","last_reported":1720890382,"current_range_meters":0,"station_id":"ce4bgh92rcd13ifvqb50","pricing_plan_id":"cebpf4jnsgd1na2vs0mg"},{"bike_id":"d682996a-dc81-401b-9b83-8407b0b7b0a7","system_id":"levelo_inurba_marseille","lat":43.295733,"lon":5.375053,"is_reserved":false,"is_disabled":false,"rental_uris":{"android":"levelo://app?vid=d682996a-dc81-401b-9b83-8407b0b7b0a7","ios":"levelo://app?vid=d682996a-dc81-401b-9b83-8407b0b7b0a7"},"vehicle_type_id":"4","last_reported":1720890382,"current_range_meters":0,"station_id":"ce4bgh92rcd13ifvqb50","pricing_plan_id":"cebpf4jnsgd1na2vs0mg"},{"bike_id":"ba58602d-21b4-4c8b-b7df-b4bf2c326140","system_id":"levelo_inurba_marseille","lat":43.2958,"lon":5.37543,"is_reserved":false,"is_disabled":false,"rental_uris":{"android":"levelo://app?vid=ba58602d-21b4-4c8b-b7df-b4bf2c326140","ios":"levelo://app?vid=ba58602d-21b4-4c8b-b7df-b4bf2c326140"},"vehicle_type_id":"4","last_reported":1720890382,"current_range_meters":11600,"station_id":"","pricing_plan_id":"cebpf4jnsgd1na2vs0mg"},{"bike_id":"fd932025-544e-4106-b4f4-f444fa455131","system_id":"levelo_inurba_marseille","lat":43.298037,"lon":5.381066,"is_reserved":false,"is_disabled":false,"rental_uris":{"android":"levelo://app?vid=fd932025-544e-4106-b4f4-f444fa455131","ios":"levelo://app?vid=fd932025-544e-4106-b4f4-f444fa455131"},"vehicle_type_id":"4","last_reported":1720890382,"current_range_meters":2000,"station_id":"ce4bgip2rcd13ifvqbb0","pricing_plan_id":"cebpf4jnsgd1na2vs0mg"},{"bike_id":"77d3979d-85c6-4826-b371-69b2bfa50572","system_id":"levelo_inurba_marseille","lat":43.295748,"lon":5.37522,"is_reserved":false,"is_disabled":false,"rental_uris":{"android":"levelo://app?vid=77d3979d-85c6-4826-b371-69b2bfa50572","ios":"levelo://app?vid=77d3979d-85c6-4826-b371-69b2bfa50572"},"vehicle_type_id":"4","last_reported":1720890382,"current_range_meters":24800,"station_id":"ce4bgh92rcd13ifvqb50","pricing_plan_id":"cebpf4jnsgd1na2vs0mg"},{"bike_id":"f237f190-979a-4c1f-931e-92063a9fa516","system_id":"levelo_inurba_marseille","lat":43.29608,"lon":5.37721,"is_reserved":false,"is_disabled":false,"rental_uris":{"android":"levelo://app?vid=f237f190-979a-4c1f-931e-92063a9fa516","ios":"levelo://app?vid=f237f190-979a-4c1f-931e-92063a9fa516"},"vehicle_type_id":"4","last_reported":1720890382,"current_range_meters":0,"station_id":"ce4bgi92rcd13ifvqb90","pricing_plan_id":"cebpf4jnsgd1na2vs0mg"},{"bike_id":"107f9bc0-dafb-4991-be21-c2e6e3bbd29e","system_id":"levelo_inurba_marseille","lat":43.295279,"lon":5.375048,"is_reserved":false,"is_disabled":false,"rental_uris":{"android":"levelo://app?vid=107f9bc0-dafb-4991-be21-c2e6e3bbd29e","ios":"levelo://app?vid=107f9bc0-dafb-4991-be21-c2e6e3bbd29e"},"vehicle_type_id":"4","last_reported":1720890382,"current_range_meters":0,"station_id":"ce4bgkp2rcd13ifvqbmg","pricing_plan_id":"cebpf4jnsgd1na2vs0mg"},{"bike_id":"edb14428-b781-4288-91c7-6b4ea01626cb","system_id":"levelo_inurba_marseille","lat":43.29974,"lon":5.38488,"is_reserved":false,"is_disabled":false,"rental_uris":{"android":"levelo://app?vid=edb14428-b781-4288-91c7-6b4ea01626cb","ios":"levelo://app?vid=edb14428-b781-4288-91c7-6b4ea01626cb"},"vehicle_type_id":"4","last_reported":1720890382,"current_range_meters":0,"station_id":"ce4bgj92rcd13ifvqbd0","pricing_plan_id":"cebpf4jnsgd1na2vs0mg"},{"bike_id":"b291367a-3c27-486c-9edd-44e4b0f86588","system_id":"levelo_inurba_marseille","lat":43.299717,"lon":5.384845,"is_reserved":false,"is_disabled":false,"rental_uris":{"android":"levelo://app?vid=b291367a-3c27-486c-9edd-44e4b0f86588","ios":"levelo://app?vid=b291367a-3c27-486c-9edd-44e4b0f86588"},"vehicle_type_id":"4","last_reported":1720890382,"current_range_meters":0,"station_id":"ce4bgj92rcd13ifvqbd0","pricing_plan_id":"cebpf4jnsgd1na2vs0mg"},{"bike_id":"4a03cc47-b29f-4aa9-9d07-a9a411eaec5c","system_id":"levelo_inurba_marseille","lat":43.299724,"lon":5.384848,"is_reserved":false,"is_disabled":false,"rental_uris":{"android":"levelo://app?vid=4a03cc47-b29f-4aa9-9d07-a9a411eaec5c","ios":"levelo://app?vid=4a03cc47-b29f-4aa9-9d07-a9a411eaec5c"},"vehicle_type_id":"4","last_reported":1720890382,"current_range_meters":6800,"station_id":"ce4bgj92rcd13ifvqbd0","pricing_plan_id":"cebpf4jnsgd1na2vs0mg"},{"bike_id":"a51d0944-c33d-47c8-868f-1a7253e73770","system_id":"levelo_inurba_marseille","lat":43.29553,"lon":5.37723,"is_reserved":false,"is_disabled":false,"rental_uris":{"android":"levelo://app?vid=a51d0944-c33d-47c8-868f-1a7253e73770","ios":"levelo://app?vid=a51d0944-c33d-47c8-868f-1a7253e73770"},"vehicle_type_id":"4","last_reported":1720890382,"current_range_meters":18800,"station_id":"","pricing_plan_id":"cebpf4jnsgd1na2vs0mg"},{"bike_id":"71a784e4-6e4b-4b6e-b76a-7f14a911c7f0","system_id":"levelo_inurba_marseille","lat":43.301396,"lon":5.387812,"is_reserved":false,"is_disabled":false,"rental_uris":{"android":"levelo://app?vid=71a784e4-6e4b-4b6e-b76a-7f14a911c7f0","ios":"levelo://app?vid=71a784e4-6e4b-4b6e-b76a-7f14a911c7f0"},"vehicle_type_id":"4","last_reported":1720890382,"current_range_meters":13600,"station_id":"ce4bghh2rcd13ifvqb60","pricing_plan_id":"cebpf4jnsgd1na2vs0mg"},{"bike_id":"0d63a511-f804-4f68-99f6-cde0cd2a1431","system_id":"levelo_inurba_marseille","lat":43.301396,"lon":5.387812,"is_reserved":false,"is_disabled":false,"rental_uris":{"android":"levelo://app?vid=0d63a511-f804-4f68-99f6-cde0cd2a1431","ios":"levelo://app?vid=0d63a511-f804-4f68-99f6-cde0cd2a1431"},"vehicle_type_id":"4","last_reported":1720890382,"current_range_meters":0,"station_id":"ce4bghh2rcd13ifvqb60","pricing_plan_id":"cebpf4jnsgd1na2vs0mg"},{"bike_id":"6a71a23c-6448-463a-b8f4-0e4083b8ea3d","system_id":"levelo_inurba_marseille","lat":43.29405,"lon":5.37341,"is_reserved":false,"is_disabled":false,"rental_uris":{"android":"levelo://app?vid=6a71a23c-6448-463a-b8f4-0e4083b8ea3d","ios":"levelo://app?vid=6a71a23c-6448-463a-b8f4-0e4083b8ea3d"},"vehicle_type_id":"4","last_reported":1720890382,"current_range_meters":10800,"station_id":"","pricing_plan_id":"cebpf4jnsgd1na2vs0mg"},{"bike_id":"f6989540-419d-4593-b878-7e5d83173210","system_id":"levelo_inurba_marseille","lat":43.29602,"lon":5.381084,"is_reserved":false,"is_disabled":false,"rental_uris":{"android":"levelo://app?vid=f6989540-419d-4593-b878-7e5d83173210","ios":"levelo://app?vid=f6989540-419d-4593-b878-7e5d83173210"},"vehicle_type_id":"4","last_reported":1720890382,"current_range_meters":4000,"station_id":"ce4bgl12rcd13ifvqbo0","pricing_plan_id":"cebpf4jnsgd1na2vs0mg"},{"bike_id":"bef59891-e335-4e65-9beb-0884541464a8","system_id":"levelo_inurba_marseille","lat":43.29602,"lon":5.381084,"is_reserved":false,"is_disabled":false,"rental_uris":{"android":"levelo://app?vid=bef59891-e335-4e65-9beb-0884541464a8","ios":"levelo://app?vid=bef59891-e335-4e65-9beb-0884541464a8"},"vehicle_type_id":"4","last_reported":1720890382,"current_range_meters":800,"station_id":"ce4bgl12rcd13ifvqbo0","pricing_plan_id":"cebpf4jnsgd1na2vs0mg"},{"bike_id":"7c219c4d-79f8-4db1-bfac-2d5cc31e64da","system_id":"levelo_inurba_marseille","lat":43.292947,"lon":5.370652,"is_reserved":false,"is_disabled":false,"rental_uris":{"android":"levelo://app?vid=7c219c4d-79f8-4db1-bfac-2d5cc31e64da","ios":"levelo://app?vid=7c219c4d-79f8-4db1-bfac-2d5cc31e64da"},"vehicle_type_id":"4","last_reported":1720890382,"current_range_meters":0,"station_id":"","pricing_plan_id":"cebpf4jnsgd1na2vs0mg"},{"bike_id":"b0d26e41-044e-4215-8cdf-5da135976de6","system_id":"levelo_inurba_marseille","lat":43.292393,"lon":5.366003,"is_reserved":false,"is_disabled":false,"rental_uris":{"android":"levelo://app?vid=b0d26e41-044e-4215-8cdf-5da135976de6","ios":"levelo://app?vid=b0d26e41-044e-4215-8cdf-5da135976de6"},"vehicle_type_id":"4","last_reported":1720890382,"current_range_meters":0,"station_id":"","pricing_plan_id":"cebpf4jnsgd1na2vs0mg"},{"bike_id":"48f78aa7-f459-473b-bb69-808b53cba4a8","system_id":"levelo_inurba_marseille","lat":43.29303,"lon":5.3745,"is_reserved":false,"is_disabled":false,"rental_uris":{"android":"levelo://app?vid=48f78aa7-f459-473b-bb69-808b53cba4a8","ios":"levelo://app?vid=48f78aa7-f459-473b-bb69-808b53cba4a8"},"vehicle_type_id":"4","last_reported":1720890382,"current_range_meters":0,"station_id":"ce4bgi12rcd13ifvqb70","pricing_plan_id":"cebpf4jnsgd1na2vs0mg"},{"bike_id":"57c670a7-ff55-426c-b492-10cf81d64390","system_id":"levelo_inurba_marseille","lat":43.293,"lon":5.37454,"is_reserved":false,"is_disabled":false,"rental_uris":{"android":"levelo://app?vid=57c670a7-ff55-426c-b492-10cf81d64390","ios":"levelo://app?vid=57c670a7-ff55-426c-b492-10cf81d64390"},"vehicle_type_id":"4","last_reported":1720890382,"current_range_meters":0,"station_id":"ce4bgi12rcd13ifvqb70","pricing_plan_id":"cebpf4jnsgd1na2vs0mg"},{"bike_id":"85b00bd5-d100-455b-9774-7b26d6fa1291","system_id":"levelo_inurba_marseille","lat":43.29298,"lon":5.37448,"is_reserved":false,"is_disabled":false,"rental_uris":{"android":"levelo://app?vid=85b00bd5-d100-455b-9774-7b26d6fa1291","ios":"levelo://app?vid=85b00bd5-d100-455b-9774-7b26d6fa1291"},"vehicle_type_id":"4","last_reported":1720890382,"current_range_meters":1200,"station_id":"ce4bgi12rcd13ifvqb70","pricing_plan_id":"cebpf4jnsgd1na2vs0mg"},{"bike_id":"d12d144b-17b5-4018-a06d-f7ef83bb7f5f","system_id":"levelo_inurba_marseille","lat":43.305994,"lon":5.393687,"is_reserved":false,"is_disabled":false,"rental_uris":{"android":"levelo://app?vid=d12d144b-17b5-4018-a06d-f7ef83bb7f5f","ios":"levelo://app?vid=d12d144b-17b5-4018-a06d-f7ef83bb7f5f"},"vehicle_type_id":"4","last_reported":1720890382,"current_range_meters":23200,"station_id":"ce4bh0p2rcd13ifvqd80","pricing_plan_id":"cebpf4jnsgd1na2vs0mg"},{"bike_id":"cd07d89a-7a02-49a3-9b09-2224f0cdae02","system_id":"levelo_inurba_marseille","lat":43.2936,"lon":5.37835,"is_reserved":false,"is_disabled":false,"rental_uris":{"android":"levelo://app?vid=cd07d89a-7a02-49a3-9b09-2224f0cdae02","ios":"levelo://app?vid=cd07d89a-7a02-49a3-9b09-2224f0cdae02"},"vehicle_type_id":"4","last_reported":1720890382,"current_range_meters":4000,"station_id":"ce4bgjh2rcd13ifvqbf0","pricing_plan_id":"cebpf4jnsgd1na2vs0mg"},{"bike_id":"e4d73c13-27bb-4015-91cf-2b9f98fdf6d1","system_id":"levelo_inurba_marseille","lat":43.2936,"lon":5.37835,"is_reserved":false,"is_disabled":false,"rental_uris":{"android":"levelo://app?vid=e4d73c13-27bb-4015-91cf-2b9f98fdf6d1","ios":"levelo://app?vid=e4d73c13-27bb-4015-91cf-2b9f98fdf6d1"},"vehicle_type_id":"4","last_reported":1720890382,"current_range_meters":16400,"station_id":"ce4bgjh2rcd13ifvqbf0","pricing_plan_id":"cebpf4jnsgd1na2vs0mg"},{"bike_id":"03fa0eb9-dc2a-49e1-8b71-d467cfcb8b00","system_id":"levelo_inurba_marseille","lat":43.30085,"lon":5.390856,"is_reserved":false,"is_disabled":false,"rental_uris":{"android":"levelo://app?vid=03fa0eb9-dc2a-49e1-8b71-d467cfcb8b00","ios":"levelo://app?vid=03fa0eb9-dc2a-49e1-8b71-d467cfcb8b00"},"vehicle_type_id":"4","last_reported":1720890382,"current_range_meters":0,"station_id":"ce4bh192rcd13ifvqdb0","pricing_plan_id":"cebpf4jnsgd1na2vs0mg"},{"bike_id":"fc405163-3f27-43d9-b4b8-7e76b958ab52","system_id":"levelo_inurba_marseille","lat":43.292311,"lon":5.360731,"is_reserved":false,"is_disabled":false,"rental_uris":{"android":"levelo://app?vid=fc405163-3f27-43d9-b4b8-7e76b958ab52","ios":"levelo://app?vid=fc405163-3f27-43d9-b4b8-7e76b958ab52"},"vehicle_type_id":"4","last_reported":1720890382,"current_range_meters":400,"station_id":"ce4bhbh2rcd13ifvqeqg","pricing_plan_id":"cebpf4jnsgd1na2vs0mg"},{"bike_id":"80a6e49f-786a-48e0-ae33-e5f0ad453448","system_id":"levelo_inurba_marseille","lat":43.292311,"lon":5.360731,"is_reserved":false,"is_disabled":false,"rental_uris":{"android":"levelo://app?vid=80a6e49f-786a-48e0-ae33-e5f0ad453448","ios":"levelo://app?vid=80a6e49f-786a-48e0-ae33-e5f0ad453448"},"vehicle_type_id":"4","last_reported":1720890382,"current_range_meters":16000,"station_id":"ce4bhbh2rcd13ifvqeqg","pricing_plan_id":"cebpf4jnsgd1na2vs0mg"},{"bike_id":"8a9b1bfa-22d6-49bc-84cc-0e2c5fa0313f","system_id":"levelo_inurba_marseille","lat":43.29221,"lon":5.36062,"is_reserved":false,"is_disabled":false,"rental_uris":{"android":"levelo://app?vid=8a9b1bfa-22d6-49bc-84cc-0e2c5fa0313f","ios":"levelo://app?vid=8a9b1bfa-22d6-49bc-84cc-0e2c5fa0313f"},"vehicle_type_id":"4","last_reported":1720890382,"current_range_meters":31200,"station_id":"ce4bhbh2rcd13ifvqeqg","pricing_plan_id":"cebpf4jnsgd1na2vs0mg"},{"bike_id":"a775c96c-2e17-415f-b1fc-33daf7860cfe","system_id":"levelo_inurba_marseille","lat":43.29214,"lon":5.36058,"is_reserved":false,"is_disabled":false,"rental_uris":{"android":"levelo://app?vid=a775c96c-2e17-415f-b1fc-33daf7860cfe","ios":"levelo://app?vid=a775c96c-2e17-415f-b1fc-33daf7860cfe"},"vehicle_type_id":"4","last_reported":1720890382,"current_range_meters":29200,"station_id":"ce4bhbh2rcd13ifvqeqg","pricing_plan_id":"cebpf4jnsgd1na2vs0mg"},{"bike_id":"d44443ac-f352-4d19-b029-3c2e6fe2f7ea","system_id":"levelo_inurba_marseille","lat":43.29174,"lon":5.371422,"is_reserved":false,"is_disabled":false,"rental_uris":{"android":"levelo://app?vid=d44443ac-f352-4d19-b029-3c2e6fe2f7ea","ios":"levelo://app?vid=d44443ac-f352-4d19-b029-3c2e6fe2f7ea"},"vehicle_type_id":"4","last_reported":1720890382,"current_range_meters":0,"station_id":"ce4bha92rcd13ifvqeh0","pricing_plan_id":"cebpf4jnsgd1na2vs0mg"},{"bike_id":"3502a6d3-3622-40f0-bd66-fca0c22bc8c7","system_id":"levelo_inurba_marseille","lat":43.291671,"lon":5.371575,"is_reserved":false,"is_disabled":false,"rental_uris":{"android":"levelo://app?vid=3502a6d3-3622-40f0-bd66-fca0c22bc8c7","ios":"levelo://app?vid=3502a6d3-3622-40f0-bd66-fca0c22bc8c7"},"vehicle_type_id":"4","last_reported":1720890382,"current_range_meters":29600,"station_id":"ce4bha92rcd13ifvqeh0","pricing_plan_id":"cebpf4jnsgd1na2vs0mg"},{"bike_id":"40154a62-7d39-4187-8928-ac86a077776b","system_id":"levelo_inurba_marseille","lat":43.291654,"lon":5.371511,"is_reserved":false,"is_disabled":false,"rental_uris":{"android":"levelo://app?vid=40154a62-7d39-4187-8928-ac86a077776b","ios":"levelo://app?vid=40154a62-7d39-4187-8928-ac86a077776b"},"vehicle_type_id":"4","last_reported":1720890382,"current_range_meters":0,"station_id":"ce4bha92rcd13ifvqeh0","pricing_plan_id":"cebpf4jnsgd1na2vs0mg"},{"bike_id":"73f785ff-a8ac-4a3b-a908-ce196ea0e43a","system_id":"levelo_inurba_marseille","lat":43.29878,"lon":5.38914,"is_reserved":false,"is_disabled":false,"rental_uris":{"android":"levelo://app?vid=73f785ff-a8ac-4a3b-a908-ce196ea0e43a","ios":"levelo://app?vid=73f785ff-a8ac-4a3b-a908-ce196ea0e43a"},"vehicle_type_id":"4","last_reported":1720890382,"current_range_meters":14000,"station_id":"ce4bh392rcd13ifvqdl0","pricing_plan_id":"cebpf4jnsgd1na2vs0mg"},{"bike_id":"98b07664-670c-4833-a81f-7ded3b6491e8","system_id":"levelo_inurba_marseille","lat":43.291994,"lon":5.357886,"is_reserved":false,"is_disabled":false,"rental_uris":{"android":"levelo://app?vid=98b07664-670c-4833-a81f-7ded3b6491e8","ios":"levelo://app?vid=98b07664-670c-4833-a81f-7ded3b6491e8"},"vehicle_type_id":"4","last_reported":1720890382,"current_range_meters":13600,"station_id":"ce4bhb12rcd13ifvqel0","pricing_plan_id":"cebpf4jnsgd1na2vs0mg"},{"bike_id":"3452b858-8044-496a-ad74-31ce0c486b5e","system_id":"levelo_inurba_marseille","lat":43.291994,"lon":5.357886,"is_reserved":false,"is_disabled":false,"rental_uris":{"android":"levelo://app?vid=3452b858-8044-496a-ad74-31ce0c486b5e","ios":"levelo://app?vid=3452b858-8044-496a-ad74-31ce0c486b5e"},"vehicle_type_id":"4","last_reported":1720890382,"current_range_meters":30400,"station_id":"ce4bhb12rcd13ifvqel0","pricing_plan_id":"cebpf4jnsgd1na2vs0mg"},{"bike_id":"4f2602bb-75e8-4e7c-a47c-91363f36444b","system_id":"levelo_inurba_marseille","lat":43.292005,"lon":5.357875,"is_reserved":false,"is_disabled":false,"rental_uris":{"android":"levelo://app?vid=4f2602bb-75e8-4e7c-a47c-91363f36444b","ios":"levelo://app?vid=4f2602bb-75e8-4e7c-a47c-91363f36444b"},"vehicle_type_id":"4","last_reported":1720890382,"current_range_meters":2000,"station_id":"ce4bhb12rcd13ifvqel0","pricing_plan_id":"cebpf4jnsgd1na2vs0mg"},{"bike_id":"efb8bafe-ca13-44b9-9a72-e3475f575380","system_id":"levelo_inurba_marseille","lat":43.309047,"lon":5.396551,"is_reserved":false,"is_disabled":false,"rental_uris":{"android":"levelo://app?vid=efb8bafe-ca13-44b9-9a72-e3475f575380","ios":"levelo://app?vid=efb8bafe-ca13-44b9-9a72-e3475f575380"},"vehicle_type_id":"4","last_reported":1720890382,"current_range_meters":0,"station_id":"ce4bh012rcd13ifvqcv0","pricing_plan_id":"cebpf4jnsgd1na2vs0mg"},{"bike_id":"f4fc2bd6-e5df-4e22-a2cf-71e1320aa84c","system_id":"levelo_inurba_marseille","lat":43.290319,"lon":5.375732,"is_reserved":false,"is_disabled":false,"rental_uris":{"android":"levelo://app?vid=f4fc2bd6-e5df-4e22-a2cf-71e1320aa84c","ios":"levelo://app?vid=f4fc2bd6-e5df-4e22-a2cf-71e1320aa84c"},"vehicle_type_id":"4","last_reported":1720890382,"current_range_meters":10400,"station_id":"ce4bh692rcd13ifvqe90","pricing_plan_id":"cebpf4jnsgd1na2vs0mg"},{"bike_id":"8d062aca-741c-4317-9ce7-5f14826b44a0","system_id":"levelo_inurba_marseille","lat":43.29417,"lon":5.38629,"is_reserved":false,"is_disabled":false,"rental_uris":{"android":"levelo://app?vid=8d062aca-741c-4317-9ce7-5f14826b44a0","ios":"levelo://app?vid=8d062aca-741c-4317-9ce7-5f14826b44a0"},"vehicle_type_id":"4","last_reported":1720890382,"current_range_meters":800,"station_id":"ce4bh2h2rcd13ifvqdh0","pricing_plan_id":"cebpf4jnsgd1na2vs0mg"},{"bike_id":"8462f9e4-e7ad-47c0-bd2c-c140de2fdb77","system_id":"levelo_inurba_marseille","lat":43.28942,"lon":5.36642,"is_reserved":false,"is_disabled":false,"rental_uris":{"android":"levelo://app?vid=8462f9e4-e7ad-47c0-bd2c-c140de2fdb77","ios":"levelo://app?vid=8462f9e4-e7ad-47c0-bd2c-c140de2fdb77"},"vehicle_type_id":"4","last_reported":1720890382,"current_range_meters":5200,"station_id":"ce4bhap2rcd13ifvqek0","pricing_plan_id":"cebpf4jnsgd1na2vs0mg"},{"bike_id":"28e6d1bc-8240-4ea3-86fa-d18001c6df9b","system_id":"levelo_inurba_marseille","lat":43.28939,"lon":5.366233,"is_reserved":false,"is_disabled":false,"rental_uris":{"android":"levelo://app?vid=28e6d1bc-8240-4ea3-86fa-d18001c6df9b","ios":"levelo://app?vid=28e6d1bc-8240-4ea3-86fa-d18001c6df9b"},"vehicle_type_id":"4","last_reported":1720890382,"current_range_meters":0,"station_id":"ce4bhap2rcd13ifvqek0","pricing_plan_id":"cebpf4jnsgd1na2vs0mg"},{"bike_id":"73eb63b2-f6d8-431e-8df3-a4b512bd2dfa","system_id":"levelo_inurba_marseille","lat":43.289184,"lon":5.366408,"is_reserved":false,"is_disabled":false,"rental_uris":{"android":"levelo://app?vid=73eb63b2-f6d8-431e-8df3-a4b512bd2dfa","ios":"levelo://app?vid=73eb63b2-f6d8-431e-8df3-a4b512bd2dfa"},"vehicle_type_id":"4","last_reported":1720890382,"current_range_meters":800,"station_id":"ce4bhap2rcd13ifvqek0","pricing_plan_id":"cebpf4jnsgd1na2vs0mg"},{"bike_id":"8830fdf9-18cb-4af7-80cd-f5c3fda54d33","system_id":"levelo_inurba_marseille","lat":43.289468,"lon":5.363719,"is_reserved":false,"is_disabled":false,"rental_uris":{"android":"levelo://app?vid=8830fdf9-18cb-4af7-80cd-f5c3fda54d33","ios":"levelo://app?vid=8830fdf9-18cb-4af7-80cd-f5c3fda54d33"},"vehicle_type_id":"4","last_reported":1720890382,"current_range_meters":26400,"station_id":"ce4bhc92rcd13ifvqetg","pricing_plan_id":"cebpf4jnsgd1na2vs0mg"},{"bike_id":"ad75dca8-5056-43da-b221-577565a2f566","system_id":"levelo_inurba_marseille","lat":43.289468,"lon":5.363719,"is_reserved":false,"is_disabled":false,"rental_uris":{"android":"levelo://app?vid=ad75dca8-5056-43da-b221-577565a2f566","ios":"levelo://app?vid=ad75dca8-5056-43da-b221-577565a2f566"},"vehicle_type_id":"4","last_reported":1720890382,"current_range_meters":3200,"station_id":"ce4bhc92rcd13ifvqetg","pricing_plan_id":"cebpf4jnsgd1na2vs0mg"},{"bike_id":"346d4fe9-cd5b-47ed-a9b8-64fa08f63535","system_id":"levelo_inurba_marseille","lat":43.290995,"lon":5.381361,"is_reserved":false,"is_disabled":false,"rental_uris":{"android":"levelo://app?vid=346d4fe9-cd5b-47ed-a9b8-64fa08f63535","ios":"levelo://app?vid=346d4fe9-cd5b-47ed-a9b8-64fa08f63535"},"vehicle_type_id":"4","last_reported":1720890382,"current_range_meters":400,"station_id":"ce4bh512rcd13ifvqe2g","pricing_plan_id":"cebpf4jnsgd1na2vs0mg"},{"bike_id":"822625b4-7213-4256-beb4-8288c25183f3","system_id":"levelo_inurba_marseille","lat":43.292644,"lon":5.384257,"is_reserved":false,"is_disabled":false,"rental_uris":{"android":"levelo://app?vid=822625b4-7213-4256-beb4-8288c25183f3","ios":"levelo://app?vid=822625b4-7213-4256-beb4-8288c25183f3"},"vehicle_type_id":"4","last_reported":1720890382,"current_range_meters":0,"station_id":"ce4bh692rcd13ifvqea0","pricing_plan_id":"cebpf4jnsgd1na2vs0mg"},{"bike_id":"0e6a83c8-e7ba-4342-85f2-518c12613a75","system_id":"levelo_inurba_marseille","lat":43.304274,"lon":5.397513,"is_reserved":false,"is_disabled":false,"rental_uris":{"android":"levelo://app?vid=0e6a83c8-e7ba-4342-85f2-518c12613a75","ios":"levelo://app?vid=0e6a83c8-e7ba-4342-85f2-518c12613a75"},"vehicle_type_id":"4","last_reported":1720890382,"current_range_meters":24400,"station_id":"ce4bh092rcd13ifvqd20","pricing_plan_id":"cebpf4jnsgd1na2vs0mg"},{"bike_id":"37d6bf93-02c1-4b46-9699-ca32e21451ec","system_id":"levelo_inurba_marseille","lat":43.29267,"lon":5.38445,"is_reserved":false,"is_disabled":false,"rental_uris":{"android":"levelo://app?vid=37d6bf93-02c1-4b46-9699-ca32e21451ec","ios":"levelo://app?vid=37d6bf93-02c1-4b46-9699-ca32e21451ec"},"vehicle_type_id":"4","last_reported":1720890382,"current_range_meters":0,"station_id":"ce4bh692rcd13ifvqea0","pricing_plan_id":"cebpf4jnsgd1na2vs0mg"},{"bike_id":"168dbe33-9c3f-4142-9a69-54b255baff58","system_id":"levelo_inurba_marseille","lat":43.29266,"lon":5.38446,"is_reserved":false,"is_disabled":false,"rental_uris":{"android":"levelo://app?vid=168dbe33-9c3f-4142-9a69-54b255baff58","ios":"levelo://app?vid=168dbe33-9c3f-4142-9a69-54b255baff58"},"vehicle_type_id":"4","last_reported":1720890382,"current_range_meters":0,"station_id":"ce4bh692rcd13ifvqea0","pricing_plan_id":"cebpf4jnsgd1na2vs0mg"},{"bike_id":"27d7d89f-fd31-4785-9aa6-995c62c89854","system_id":"levelo_inurba_marseille","lat":43.292659,"lon":5.384507,"is_reserved":false,"is_disabled":false,"rental_uris":{"android":"levelo://app?vid=27d7d89f-fd31-4785-9aa6-995c62c89854","ios":"levelo://app?vid=27d7d89f-fd31-4785-9aa6-995c62c89854"},"vehicle_type_id":"4","last_reported":1720890382,"current_range_meters":0,"station_id":"ce4bh692rcd13ifvqea0","pricing_plan_id":"cebpf4jnsgd1na2vs0mg"},{"bike_id":"27cbbea0-7571-49f4-866e-d195bb255f1a","system_id":"levelo_inurba_marseille","lat":43.29263,"lon":5.38447,"is_reserved":false,"is_disabled":false,"rental_uris":{"android":"levelo://app?vid=27cbbea0-7571-49f4-866e-d195bb255f1a","ios":"levelo://app?vid=27cbbea0-7571-49f4-866e-d195bb255f1a"},"vehicle_type_id":"4","last_reported":1720890382,"current_range_meters":0,"station_id":"ce4bh692rcd13ifvqea0","pricing_plan_id":"cebpf4jnsgd1na2vs0mg"},{"bike_id":"06959721-8eee-42ba-9f87-e0b198b6a9eb","system_id":"levelo_inurba_marseille","lat":43.29261,"lon":5.38449,"is_reserved":false,"is_disabled":false,"rental_uris":{"android":"levelo://app?vid=06959721-8eee-42ba-9f87-e0b198b6a9eb","ios":"levelo://app?vid=06959721-8eee-42ba-9f87-e0b198b6a9eb"},"vehicle_type_id":"4","last_reported":1720890382,"current_range_meters":0,"station_id":"ce4bh692rcd13ifvqea0","pricing_plan_id":"cebpf4jnsgd1na2vs0mg"},{"bike_id":"4f0707e5-d2ee-4fa7-8b31-dd4c29f10ed7","system_id":"levelo_inurba_marseille","lat":43.290103,"lon":5.356114,"is_reserved":false,"is_disabled":false,"rental_uris":{"android":"levelo://app?vid=4f0707e5-d2ee-4fa7-8b31-dd4c29f10ed7","ios":"levelo://app?vid=4f0707e5-d2ee-4fa7-8b31-dd4c29f10ed7"},"vehicle_type_id":"4","last_reported":1720890382,"current_range_meters":31200,"station_id":"ce4bhb92rcd13ifvqen0","pricing_plan_id":"cebpf4jnsgd1na2vs0mg"},{"bike_id":"ca9d5133-b696-4998-a6b7-f857ad7f2717","system_id":"levelo_inurba_marseille","lat":43.290104,"lon":5.356111,"is_reserved":false,"is_disabled":false,"rental_uris":{"android":"levelo://app?vid=ca9d5133-b696-4998-a6b7-f857ad7f2717","ios":"levelo://app?vid=ca9d5133-b696-4998-a6b7-f857ad7f2717"},"vehicle_type_id":"4","last_reported":1720890382,"current_range_meters":31200,"station_id":"ce4bhb92rcd13ifvqen0","pricing_plan_id":"cebpf4jnsgd1na2vs0mg"},{"bike_id":"ec5e70bc-e4eb-47b3-ba2b-af58e3da7dae","system_id":"levelo_inurba_marseille","lat":43.290104,"lon":5.356111,"is_reserved":false,"is_disabled":false,"rental_uris":{"android":"levelo://app?vid=ec5e70bc-e4eb-47b3-ba2b-af58e3da7dae","ios":"levelo://app?vid=ec5e70bc-e4eb-47b3-ba2b-af58e3da7dae"},"vehicle_type_id":"4","last_reported":1720890382,"current_range_meters":31200,"station_id":"ce4bhb92rcd13ifvqen0","pricing_plan_id":"cebpf4jnsgd1na2vs0mg"},{"bike_id":"5522c95c-7a69-40cc-a57e-9c346e2587b8","system_id":"levelo_inurba_marseille","lat":43.290103,"lon":5.356114,"is_reserved":false,"is_disabled":false,"rental_uris":{"android":"levelo://app?vid=5522c95c-7a69-40cc-a57e-9c346e2587b8","ios":"levelo://app?vid=5522c95c-7a69-40cc-a57e-9c346e2587b8"},"vehicle_type_id":"4","last_reported":1720890382,"current_range_meters":10400,"station_id":"ce4bhb92rcd13ifvqen0","pricing_plan_id":"cebpf4jnsgd1na2vs0mg"},{"bike_id":"408bf9d6-2609-473c-aac9-508d0204a564","system_id":"levelo_inurba_marseille","lat":43.290104,"lon":5.356111,"is_reserved":false,"is_disabled":false,"rental_uris":{"android":"levelo://app?vid=408bf9d6-2609-473c-aac9-508d0204a564","ios":"levelo://app?vid=408bf9d6-2609-473c-aac9-508d0204a564"},"vehicle_type_id":"4","last_reported":1720890382,"current_range_meters":31200,"station_id":"ce4bhb92rcd13ifvqen0","pricing_plan_id":"cebpf4jnsgd1na2vs0mg"},{"bike_id":"f5d5c60a-6776-4e4e-88af-5f0db633a64f","system_id":"levelo_inurba_marseille","lat":43.290103,"lon":5.356114,"is_reserved":false,"is_disabled":false,"rental_uris":{"android":"levelo://app?vid=f5d5c60a-6776-4e4e-88af-5f0db633a64f","ios":"levelo://app?vid=f5d5c60a-6776-4e4e-88af-5f0db633a64f"},"vehicle_type_id":"4","last_reported":1720890382,"current_range_meters":28800,"station_id":"ce4bhb92rcd13ifvqen0","pricing_plan_id":"cebpf4jnsgd1na2vs0mg"},{"bike_id":"d88fe6f4-1501-4858-80f2-202870248a86","system_id":"levelo_inurba_marseille","lat":43.295169,"lon":5.390426,"is_reserved":false,"is_disabled":false,"rental_uris":{"android":"levelo://app?vid=d88fe6f4-1501-4858-80f2-202870248a86","ios":"levelo://app?vid=d88fe6f4-1501-4858-80f2-202870248a86"},"vehicle_type_id":"4","last_reported":1720890382,"current_range_meters":20000,"station_id":"ce4bh3p2rcd13ifvqdp0","pricing_plan_id":"cebpf4jnsgd1na2vs0mg"},{"bike_id":"f07401b9-eb78-495a-a02a-d54170cc785b","system_id":"levelo_inurba_marseille","lat":43.295169,"lon":5.390426,"is_reserved":false,"is_disabled":false,"rental_uris":{"android":"levelo://app?vid=f07401b9-eb78-495a-a02a-d54170cc785b","ios":"levelo://app?vid=f07401b9-eb78-495a-a02a-d54170cc785b"},"vehicle_type_id":"4","last_reported":1720890382,"current_range_meters":18400,"station_id":"ce4bh3p2rcd13ifvqdp0","pricing_plan_id":"cebpf4jnsgd1na2vs0mg"},{"bike_id":"a3a59f09-6967-4f22-978a-0f1ba8f5bad9","system_id":"levelo_inurba_marseille","lat":43.330442,"lon":5.389148,"is_reserved":false,"is_disabled":false,"rental_uris":{"android":"levelo://app?vid=a3a59f09-6967-4f22-978a-0f1ba8f5bad9","ios":"levelo://app?vid=a3a59f09-6967-4f22-978a-0f1ba8f5bad9"},"vehicle_type_id":"4","last_reported":1720890382,"current_range_meters":27600,"station_id":"ce4bhr92rcd13ifvqhrg","pricing_plan_id":"cebpf4jnsgd1na2vs0mg"},{"bike_id":"9a6611e8-97f1-47f1-94a7-73957983b8fc","system_id":"levelo_inurba_marseille","lat":43.295169,"lon":5.390426,"is_reserved":false,"is_disabled":false,"rental_uris":{"android":"levelo://app?vid=9a6611e8-97f1-47f1-94a7-73957983b8fc","ios":"levelo://app?vid=9a6611e8-97f1-47f1-94a7-73957983b8fc"},"vehicle_type_id":"4","last_reported":1720890382,"current_range_meters":18400,"station_id":"ce4bh3p2rcd13ifvqdp0","pricing_plan_id":"cebpf4jnsgd1na2vs0mg"},{"bike_id":"ce6a10b5-2b6f-42f7-9f91-8e39f149acb0","system_id":"levelo_inurba_marseille","lat":43.330442,"lon":5.389148,"is_reserved":false,"is_disabled":false,"rental_uris":{"android":"levelo://app?vid=ce6a10b5-2b6f-42f7-9f91-8e39f149acb0","ios":"levelo://app?vid=ce6a10b5-2b6f-42f7-9f91-8e39f149acb0"},"vehicle_type_id":"4","last_reported":1720890382,"current_range_meters":20000,"station_id":"ce4bhr92rcd13ifvqhrg","pricing_plan_id":"cebpf4jnsgd1na2vs0mg"},{"bike_id":"ba1fb079-7a86-4f93-9e70-635527c73c2e","system_id":"levelo_inurba_marseille","lat":43.330442,"lon":5.389148,"is_reserved":false,"is_disabled":false,"rental_uris":{"android":"levelo://app?vid=ba1fb079-7a86-4f93-9e70-635527c73c2e","ios":"levelo://app?vid=ba1fb079-7a86-4f93-9e70-635527c73c2e"},"vehicle_type_id":"4","last_reported":1720890382,"current_range_meters":24800,"station_id":"ce4bhr92rcd13ifvqhrg","pricing_plan_id":"cebpf4jnsgd1na2vs0mg"},{"bike_id":"48eeccde-beaf-4962-b3bc-5f63b6e4a217","system_id":"levelo_inurba_marseille","lat":43.330442,"lon":5.389148,"is_reserved":false,"is_disabled":false,"rental_uris":{"android":"levelo://app?vid=48eeccde-beaf-4962-b3bc-5f63b6e4a217","ios":"levelo://app?vid=48eeccde-beaf-4962-b3bc-5f63b6e4a217"},"vehicle_type_id":"4","last_reported":1720890382,"current_range_meters":31600,"station_id":"ce4bhr92rcd13ifvqhrg","pricing_plan_id":"cebpf4jnsgd1na2vs0mg"},{"bike_id":"02b8f94f-7420-4a85-8e21-bb99a03250b0","system_id":"levelo_inurba_marseille","lat":43.330442,"lon":5.389148,"is_reserved":false,"is_disabled":false,"rental_uris":{"android":"levelo://app?vid=02b8f94f-7420-4a85-8e21-bb99a03250b0","ios":"levelo://app?vid=02b8f94f-7420-4a85-8e21-bb99a03250b0"},"vehicle_type_id":"4","last_reported":1720890382,"current_range_meters":7600,"station_id":"ce4bhr92rcd13ifvqhrg","pricing_plan_id":"cebpf4jnsgd1na2vs0mg"},{"bike_id":"e864ebcd-de91-4e5b-8fbf-94b546e3a403","system_id":"levelo_inurba_marseille","lat":43.290094,"lon":5.381264,"is_reserved":false,"is_disabled":false,"rental_uris":{"android":"levelo://app?vid=e864ebcd-de91-4e5b-8fbf-94b546e3a403","ios":"levelo://app?vid=e864ebcd-de91-4e5b-8fbf-94b546e3a403"},"vehicle_type_id":"4","last_reported":1720890382,"current_range_meters":0,"station_id":"ce4bh4p2rcd13ifvqe1g","pricing_plan_id":"cebpf4jnsgd1na2vs0mg"},{"bike_id":"542940b3-ae80-4fed-ada3-8ed41eb63afe","system_id":"levelo_inurba_marseille","lat":43.289479,"lon":5.354634,"is_reserved":false,"is_disabled":false,"rental_uris":{"android":"levelo://app?vid=542940b3-ae80-4fed-ada3-8ed41eb63afe","ios":"levelo://app?vid=542940b3-ae80-4fed-ada3-8ed41eb63afe"},"vehicle_type_id":"4","last_reported":1720890382,"current_range_meters":13600,"station_id":"","pricing_plan_id":"cebpf4jnsgd1na2vs0mg"},{"bike_id":"c24d4934-9b9b-4bb5-8a71-d84400afd5ba","system_id":"levelo_inurba_marseille","lat":43.295169,"lon":5.390426,"is_reserved":false,"is_disabled":false,"rental_uris":{"android":"levelo://app?vid=c24d4934-9b9b-4bb5-8a71-d84400afd5ba","ios":"levelo://app?vid=c24d4934-9b9b-4bb5-8a71-d84400afd5ba"},"vehicle_type_id":"4","last_reported":1720890382,"current_range_meters":1600,"station_id":"ce4bh3p2rcd13ifvqdp0","pricing_plan_id":"cebpf4jnsgd1na2vs0mg"},{"bike_id":"096f9b7e-a3e0-4c21-b994-22c00d42e4fc","system_id":"levelo_inurba_marseille","lat":43.28856,"lon":5.358371,"is_reserved":false,"is_disabled":false,"rental_uris":{"android":"levelo://app?vid=096f9b7e-a3e0-4c21-b994-22c00d42e4fc","ios":"levelo://app?vid=096f9b7e-a3e0-4c21-b994-22c00d42e4fc"},"vehicle_type_id":"4","last_reported":1720890382,"current_range_meters":16000,"station_id":"ce4bhb12rcd13ifvqem0","pricing_plan_id":"cebpf4jnsgd1na2vs0mg"},{"bike_id":"afd2921e-935a-43b0-a2e0-bca645301a6b","system_id":"levelo_inurba_marseille","lat":43.28856,"lon":5.358371,"is_reserved":false,"is_disabled":false,"rental_uris":{"android":"levelo://app?vid=afd2921e-935a-43b0-a2e0-bca645301a6b","ios":"levelo://app?vid=afd2921e-935a-43b0-a2e0-bca645301a6b"},"vehicle_type_id":"4","last_reported":1720890382,"current_range_meters":0,"station_id":"ce4bhb12rcd13ifvqem0","pricing_plan_id":"cebpf4jnsgd1na2vs0mg"},{"bike_id":"15f73f51-5ac8-4345-8fdb-ae2fbb18f1c2","system_id":"levelo_inurba_marseille","lat":43.2885,"lon":5.35853,"is_reserved":false,"is_disabled":false,"rental_uris":{"android":"levelo://app?vid=15f73f51-5ac8-4345-8fdb-ae2fbb18f1c2","ios":"levelo://app?vid=15f73f51-5ac8-4345-8fdb-ae2fbb18f1c2"},"vehicle_type_id":"4","last_reported":1720890382,"current_range_meters":0,"station_id":"ce4bhb12rcd13ifvqem0","pricing_plan_id":"cebpf4jnsgd1na2vs0mg"},{"bike_id":"e0386f68-9a9a-4363-b491-f62fc62639ac","system_id":"levelo_inurba_marseille","lat":43.28856,"lon":5.358371,"is_reserved":false,"is_disabled":false,"rental_uris":{"android":"levelo://app?vid=e0386f68-9a9a-4363-b491-f62fc62639ac","ios":"levelo://app?vid=e0386f68-9a9a-4363-b491-f62fc62639ac"},"vehicle_type_id":"4","last_reported":1720890382,"current_range_meters":0,"station_id":"ce4bhb12rcd13ifvqem0","pricing_plan_id":"cebpf4jnsgd1na2vs0mg"},{"bike_id":"6e136d8c-2cb8-40e0-b925-fa6bc58ec452","system_id":"levelo_inurba_marseille","lat":43.33664,"lon":5.3557,"is_reserved":false,"is_disabled":false,"rental_uris":{"android":"levelo://app?vid=6e136d8c-2cb8-40e0-b925-fa6bc58ec452","ios":"levelo://app?vid=6e136d8c-2cb8-40e0-b925-fa6bc58ec452"},"vehicle_type_id":"4","last_reported":1720890382,"current_range_meters":10800,"station_id":"","pricing_plan_id":"cebpf4jnsgd1na2vs0mg"},{"bike_id":"0137762c-e4a3-43e0-b74b-59113a0ddb55","system_id":"levelo_inurba_marseille","lat":43.31266,"lon":5.40167,"is_reserved":false,"is_disabled":false,"rental_uris":{"android":"levelo://app?vid=0137762c-e4a3-43e0-b74b-59113a0ddb55","ios":"levelo://app?vid=0137762c-e4a3-43e0-b74b-59113a0ddb55"},"vehicle_type_id":"4","last_reported":1720890382,"current_range_meters":0,"station_id":"ce4bh092rcd13ifvqd30","pricing_plan_id":"cebpf4jnsgd1na2vs0mg"},{"bike_id":"219d0d76-9416-4543-8766-4dd8adcfbf6b","system_id":"levelo_inurba_marseille","lat":43.33745,"lon":5.37459,"is_reserved":false,"is_disabled":false,"rental_uris":{"android":"levelo://app?vid=219d0d76-9416-4543-8766-4dd8adcfbf6b","ios":"levelo://app?vid=219d0d76-9416-4543-8766-4dd8adcfbf6b"},"vehicle_type_id":"4","last_reported":1720890382,"current_range_meters":26400,"station_id":"","pricing_plan_id":"cebpf4jnsgd1na2vs0mg"},{"bike_id":"fbf6e8af-ec69-4b59-abf8-42d5dd064900","system_id":"levelo_inurba_marseille","lat":43.309371,"lon":5.401449,"is_reserved":false,"is_disabled":false,"rental_uris":{"android":"levelo://app?vid=fbf6e8af-ec69-4b59-abf8-42d5dd064900","ios":"levelo://app?vid=fbf6e8af-ec69-4b59-abf8-42d5dd064900"},"vehicle_type_id":"4","last_reported":1720890382,"current_range_meters":3200,"station_id":"ce4bgvp2rcd13ifvqct0","pricing_plan_id":"cebpf4jnsgd1na2vs0mg"},{"bike_id":"7db14a83-5996-4107-aac5-8660c0fb36ae","system_id":"levelo_inurba_marseille","lat":43.337584,"lon":5.374721,"is_reserved":false,"is_disabled":false,"rental_uris":{"android":"levelo://app?vid=7db14a83-5996-4107-aac5-8660c0fb36ae","ios":"levelo://app?vid=7db14a83-5996-4107-aac5-8660c0fb36ae"},"vehicle_type_id":"4","last_reported":1720890382,"current_range_meters":21200,"station_id":"","pricing_plan_id":"cebpf4jnsgd1na2vs0mg"},{"bike_id":"d8487c96-bcef-4431-8b19-5b63fe8ad1bf","system_id":"levelo_inurba_marseille","lat":43.30644,"lon":5.40095,"is_reserved":false,"is_disabled":false,"rental_uris":{"android":"levelo://app?vid=d8487c96-bcef-4431-8b19-5b63fe8ad1bf","ios":"levelo://app?vid=d8487c96-bcef-4431-8b19-5b63fe8ad1bf"},"vehicle_type_id":"4","last_reported":1720890382,"current_range_meters":0,"station_id":"ce4bh112rcd13ifvqda0","pricing_plan_id":"cebpf4jnsgd1na2vs0mg"},{"bike_id":"0d58fd1b-f1d1-4fc6-a4e4-51a623e9a871","system_id":"levelo_inurba_marseille","lat":43.33766,"lon":5.37474,"is_reserved":false,"is_disabled":false,"rental_uris":{"android":"levelo://app?vid=0d58fd1b-f1d1-4fc6-a4e4-51a623e9a871","ios":"levelo://app?vid=0d58fd1b-f1d1-4fc6-a4e4-51a623e9a871"},"vehicle_type_id":"4","last_reported":1720890382,"current_range_meters":30800,"station_id":"","pricing_plan_id":"cebpf4jnsgd1na2vs0mg"},{"bike_id":"a005e922-b721-4196-b009-e1125dd6e3b2","system_id":"levelo_inurba_marseille","lat":43.33766,"lon":5.37476,"is_reserved":false,"is_disabled":false,"rental_uris":{"android":"levelo://app?vid=a005e922-b721-4196-b009-e1125dd6e3b2","ios":"levelo://app?vid=a005e922-b721-4196-b009-e1125dd6e3b2"},"vehicle_type_id":"4","last_reported":1720890382,"current_range_meters":30800,"station_id":"","pricing_plan_id":"cebpf4jnsgd1na2vs0mg"},{"bike_id":"39abbf07-2729-49b9-a62e-e135ca141c9b","system_id":"levelo_inurba_marseille","lat":43.33767,"lon":5.37473,"is_reserved":false,"is_disabled":false,"rental_uris":{"android":"levelo://app?vid=39abbf07-2729-49b9-a62e-e135ca141c9b","ios":"levelo://app?vid=39abbf07-2729-49b9-a62e-e135ca141c9b"},"vehicle_type_id":"4","last_reported":1720890382,"current_range_meters":29200,"station_id":"","pricing_plan_id":"cebpf4jnsgd1na2vs0mg"},{"bike_id":"e0930f6e-0056-47a6-888a-3b2b7032222c","system_id":"levelo_inurba_marseille","lat":43.33767,"lon":5.37473,"is_reserved":false,"is_disabled":false,"rental_uris":{"android":"levelo://app?vid=e0930f6e-0056-47a6-888a-3b2b7032222c","ios":"levelo://app?vid=e0930f6e-0056-47a6-888a-3b2b7032222c"},"vehicle_type_id":"4","last_reported":1720890382,"current_range_meters":4400,"station_id":"","pricing_plan_id":"cebpf4jnsgd1na2vs0mg"},{"bike_id":"b490573b-32d3-4854-ab3f-e801cde5a636","system_id":"levelo_inurba_marseille","lat":43.33767,"lon":5.37476,"is_reserved":false,"is_disabled":false,"rental_uris":{"android":"levelo://app?vid=b490573b-32d3-4854-ab3f-e801cde5a636","ios":"levelo://app?vid=b490573b-32d3-4854-ab3f-e801cde5a636"},"vehicle_type_id":"4","last_reported":1720890382,"current_range_meters":18400,"station_id":"","pricing_plan_id":"cebpf4jnsgd1na2vs0mg"},{"bike_id":"26f86cb7-ac0c-4cfd-84f1-3a9e9042360d","system_id":"levelo_inurba_marseille","lat":43.33766,"lon":5.37482,"is_reserved":false,"is_disabled":false,"rental_uris":{"android":"levelo://app?vid=26f86cb7-ac0c-4cfd-84f1-3a9e9042360d","ios":"levelo://app?vid=26f86cb7-ac0c-4cfd-84f1-3a9e9042360d"},"vehicle_type_id":"4","last_reported":1720890382,"current_range_meters":19200,"station_id":"","pricing_plan_id":"cebpf4jnsgd1na2vs0mg"},{"bike_id":"80ff1c69-9419-4f4b-9d57-bf214620b8b3","system_id":"levelo_inurba_marseille","lat":43.33768,"lon":5.3747,"is_reserved":false,"is_disabled":false,"rental_uris":{"android":"levelo://app?vid=80ff1c69-9419-4f4b-9d57-bf214620b8b3","ios":"levelo://app?vid=80ff1c69-9419-4f4b-9d57-bf214620b8b3"},"vehicle_type_id":"4","last_reported":1720890382,"current_range_meters":4800,"station_id":"","pricing_plan_id":"cebpf4jnsgd1na2vs0mg"},{"bike_id":"d688b433-cc83-4e65-bdd7-226d9daa6ab9","system_id":"levelo_inurba_marseille","lat":43.306412,"lon":5.401035,"is_reserved":false,"is_disabled":false,"rental_uris":{"android":"levelo://app?vid=d688b433-cc83-4e65-bdd7-226d9daa6ab9","ios":"levelo://app?vid=d688b433-cc83-4e65-bdd7-226d9daa6ab9"},"vehicle_type_id":"4","last_reported":1720890382,"current_range_meters":0,"station_id":"ce4bh112rcd13ifvqda0","pricing_plan_id":"cebpf4jnsgd1na2vs0mg"},{"bike_id":"cd48b539-8a8f-4ccd-a8aa-e74e2abaf1f5","system_id":"levelo_inurba_marseille","lat":43.33767,"lon":5.37477,"is_reserved":false,"is_disabled":false,"rental_uris":{"android":"levelo://app?vid=cd48b539-8a8f-4ccd-a8aa-e74e2abaf1f5","ios":"levelo://app?vid=cd48b539-8a8f-4ccd-a8aa-e74e2abaf1f5"},"vehicle_type_id":"4","last_reported":1720890382,"current_range_meters":28400,"station_id":"","pricing_plan_id":"cebpf4jnsgd1na2vs0mg"},{"bike_id":"f8ccaa8e-a40d-4875-9aac-97d8b2a25bab","system_id":"levelo_inurba_marseille","lat":43.33768,"lon":5.37472,"is_reserved":false,"is_disabled":false,"rental_uris":{"android":"levelo://app?vid=f8ccaa8e-a40d-4875-9aac-97d8b2a25bab","ios":"levelo://app?vid=f8ccaa8e-a40d-4875-9aac-97d8b2a25bab"},"vehicle_type_id":"4","last_reported":1720890382,"current_range_meters":17200,"station_id":"","pricing_plan_id":"cebpf4jnsgd1na2vs0mg"},{"bike_id":"039a10e5-aed9-4f01-a151-04375f715c5b","system_id":"levelo_inurba_marseille","lat":43.33768,"lon":5.37473,"is_reserved":false,"is_disabled":false,"rental_uris":{"android":"levelo://app?vid=039a10e5-aed9-4f01-a151-04375f715c5b","ios":"levelo://app?vid=039a10e5-aed9-4f01-a151-04375f715c5b"},"vehicle_type_id":"4","last_reported":1720890382,"current_range_meters":27600,"station_id":"","pricing_plan_id":"cebpf4jnsgd1na2vs0mg"},{"bike_id":"893b3f9e-8d19-4e89-b4e3-e6aa5e07ff06","system_id":"levelo_inurba_marseille","lat":43.33768,"lon":5.37474,"is_reserved":false,"is_disabled":false,"rental_uris":{"android":"levelo://app?vid=893b3f9e-8d19-4e89-b4e3-e6aa5e07ff06","ios":"levelo://app?vid=893b3f9e-8d19-4e89-b4e3-e6aa5e07ff06"},"vehicle_type_id":"4","last_reported":1720890382,"current_range_meters":30400,"station_id":"","pricing_plan_id":"cebpf4jnsgd1na2vs0mg"},{"bike_id":"ac9d66fe-9bf5-4789-93e4-8c7d750a082c","system_id":"levelo_inurba_marseille","lat":43.33768,"lon":5.37477,"is_reserved":false,"is_disabled":false,"rental_uris":{"android":"levelo://app?vid=ac9d66fe-9bf5-4789-93e4-8c7d750a082c","ios":"levelo://app?vid=ac9d66fe-9bf5-4789-93e4-8c7d750a082c"},"vehicle_type_id":"4","last_reported":1720890382,"current_range_meters":20400,"station_id":"","pricing_plan_id":"cebpf4jnsgd1na2vs0mg"},{"bike_id":"d77e79b4-bbcc-4fb4-abd6-01e5d49b13f4","system_id":"levelo_inurba_marseille","lat":43.33769,"lon":5.37472,"is_reserved":false,"is_disabled":false,"rental_uris":{"android":"levelo://app?vid=d77e79b4-bbcc-4fb4-abd6-01e5d49b13f4","ios":"levelo://app?vid=d77e79b4-bbcc-4fb4-abd6-01e5d49b13f4"},"vehicle_type_id":"4","last_reported":1720890382,"current_range_meters":19200,"station_id":"","pricing_plan_id":"cebpf4jnsgd1na2vs0mg"},{"bike_id":"0dd06392-f63f-44b8-af4f-590dfd121b02","system_id":"levelo_inurba_marseille","lat":43.3377,"lon":5.37466,"is_reserved":false,"is_disabled":false,"rental_uris":{"android":"levelo://app?vid=0dd06392-f63f-44b8-af4f-590dfd121b02","ios":"levelo://app?vid=0dd06392-f63f-44b8-af4f-590dfd121b02"},"vehicle_type_id":"4","last_reported":1720890382,"current_range_meters":10000,"station_id":"","pricing_plan_id":"cebpf4jnsgd1na2vs0mg"},{"bike_id":"db8d58e3-38a2-4c75-ae4a-e4abfcab3724","system_id":"levelo_inurba_marseille","lat":43.33769,"lon":5.37476,"is_reserved":false,"is_disabled":false,"rental_uris":{"android":"levelo://app?vid=db8d58e3-38a2-4c75-ae4a-e4abfcab3724","ios":"levelo://app?vid=db8d58e3-38a2-4c75-ae4a-e4abfcab3724"},"vehicle_type_id":"4","last_reported":1720890382,"current_range_meters":22400,"station_id":"","pricing_plan_id":"cebpf4jnsgd1na2vs0mg"},{"bike_id":"5aae94a6-c440-4789-857e-46a54718fede","system_id":"levelo_inurba_marseille","lat":43.33771,"lon":5.3747,"is_reserved":false,"is_disabled":false,"rental_uris":{"android":"levelo://app?vid=5aae94a6-c440-4789-857e-46a54718fede","ios":"levelo://app?vid=5aae94a6-c440-4789-857e-46a54718fede"},"vehicle_type_id":"4","last_reported":1720890382,"current_range_meters":30400,"station_id":"","pricing_plan_id":"cebpf4jnsgd1na2vs0mg"},{"bike_id":"e880369d-9e45-4e17-b710-89d03f821f41","system_id":"levelo_inurba_marseille","lat":43.33771,"lon":5.37471,"is_reserved":false,"is_disabled":false,"rental_uris":{"android":"levelo://app?vid=e880369d-9e45-4e17-b710-89d03f821f41","ios":"levelo://app?vid=e880369d-9e45-4e17-b710-89d03f821f41"},"vehicle_type_id":"4","last_reported":1720890382,"current_range_meters":9200,"station_id":"","pricing_plan_id":"cebpf4jnsgd1na2vs0mg"},{"bike_id":"bfbef46d-097c-4ecc-a4cf-db53c94b13b1","system_id":"levelo_inurba_marseille","lat":43.33771,"lon":5.37474,"is_reserved":false,"is_disabled":false,"rental_uris":{"android":"levelo://app?vid=bfbef46d-097c-4ecc-a4cf-db53c94b13b1","ios":"levelo://app?vid=bfbef46d-097c-4ecc-a4cf-db53c94b13b1"},"vehicle_type_id":"4","last_reported":1720890382,"current_range_meters":30800,"station_id":"","pricing_plan_id":"cebpf4jnsgd1na2vs0mg"},{"bike_id":"7fe8718f-2ce5-43ca-bf2f-4cadfbd7a814","system_id":"levelo_inurba_marseille","lat":43.33772,"lon":5.3747,"is_reserved":false,"is_disabled":false,"rental_uris":{"android":"levelo://app?vid=7fe8718f-2ce5-43ca-bf2f-4cadfbd7a814","ios":"levelo://app?vid=7fe8718f-2ce5-43ca-bf2f-4cadfbd7a814"},"vehicle_type_id":"4","last_reported":1720890382,"current_range_meters":26800,"station_id":"","pricing_plan_id":"cebpf4jnsgd1na2vs0mg"},{"bike_id":"9641f142-48bc-49b9-9b2a-634a9b288110","system_id":"levelo_inurba_marseille","lat":43.33769,"lon":5.37488,"is_reserved":false,"is_disabled":false,"rental_uris":{"android":"levelo://app?vid=9641f142-48bc-49b9-9b2a-634a9b288110","ios":"levelo://app?vid=9641f142-48bc-49b9-9b2a-634a9b288110"},"vehicle_type_id":"4","last_reported":1720890382,"current_range_meters":21200,"station_id":"","pricing_plan_id":"cebpf4jnsgd1na2vs0mg"},{"bike_id":"5a3400da-9e43-4c82-8777-38230563be8a","system_id":"levelo_inurba_marseille","lat":43.301117,"lon":5.398795,"is_reserved":false,"is_disabled":false,"rental_uris":{"android":"levelo://app?vid=5a3400da-9e43-4c82-8777-38230563be8a","ios":"levelo://app?vid=5a3400da-9e43-4c82-8777-38230563be8a"},"vehicle_type_id":"4","last_reported":1720890382,"current_range_meters":8400,"station_id":"ce4bh0h2rcd13ifvqd40","pricing_plan_id":"cebpf4jnsgd1na2vs0mg"},{"bike_id":"0146c428-cfdd-4a76-a91e-317ac3b8cedc","system_id":"levelo_inurba_marseille","lat":43.33773,"lon":5.37467,"is_reserved":false,"is_disabled":false,"rental_uris":{"android":"levelo://app?vid=0146c428-cfdd-4a76-a91e-317ac3b8cedc","ios":"levelo://app?vid=0146c428-cfdd-4a76-a91e-317ac3b8cedc"},"vehicle_type_id":"4","last_reported":1720890382,"current_range_meters":7200,"station_id":"","pricing_plan_id":"cebpf4jnsgd1na2vs0mg"},{"bike_id":"8f381f06-2b48-4b7f-9444-eca237a2fc44","system_id":"levelo_inurba_marseille","lat":43.291994,"lon":5.357886,"is_reserved":false,"is_disabled":false,"rental_uris":{"android":"levelo://app?vid=8f381f06-2b48-4b7f-9444-eca237a2fc44","ios":"levelo://app?vid=8f381f06-2b48-4b7f-9444-eca237a2fc44"},"vehicle_type_id":"4","last_reported":1720890382,"current_range_meters":29600,"station_id":"ce4bhb12rcd13ifvqel0","pricing_plan_id":"cebpf4jnsgd1na2vs0mg"},{"bike_id":"38b57823-eda1-4e58-a521-74a065ade509","system_id":"levelo_inurba_marseille","lat":43.33773,"lon":5.37469,"is_reserved":false,"is_disabled":false,"rental_uris":{"android":"levelo://app?vid=38b57823-eda1-4e58-a521-74a065ade509","ios":"levelo://app?vid=38b57823-eda1-4e58-a521-74a065ade509"},"vehicle_type_id":"4","last_reported":1720890382,"current_range_meters":28000,"station_id":"","pricing_plan_id":"cebpf4jnsgd1na2vs0mg"},{"bike_id":"c761b19e-877d-432b-bfa8-ed72a86a6759","system_id":"levelo_inurba_marseille","lat":43.33773,"lon":5.3747,"is_reserved":false,"is_disabled":false,"rental_uris":{"android":"levelo://app?vid=c761b19e-877d-432b-bfa8-ed72a86a6759","ios":"levelo://app?vid=c761b19e-877d-432b-bfa8-ed72a86a6759"},"vehicle_type_id":"4","last_reported":1720890382,"current_range_meters":10000,"station_id":"","pricing_plan_id":"cebpf4jnsgd1na2vs0mg"},{"bike_id":"51544219-3a97-477c-9642-d66a5be4ade3","system_id":"levelo_inurba_marseille","lat":43.33771,"lon":5.37483,"is_reserved":false,"is_disabled":false,"rental_uris":{"android":"levelo://app?vid=51544219-3a97-477c-9642-d66a5be4ade3","ios":"levelo://app?vid=51544219-3a97-477c-9642-d66a5be4ade3"},"vehicle_type_id":"4","last_reported":1720890382,"current_range_meters":24800,"station_id":"","pricing_plan_id":"cebpf4jnsgd1na2vs0mg"},{"bike_id":"0496dc13-34e3-45c2-af9a-f6e2516b223a","system_id":"levelo_inurba_marseille","lat":43.33772,"lon":5.37478,"is_reserved":false,"is_disabled":false,"rental_uris":{"android":"levelo://app?vid=0496dc13-34e3-45c2-af9a-f6e2516b223a","ios":"levelo://app?vid=0496dc13-34e3-45c2-af9a-f6e2516b223a"},"vehicle_type_id":"4","last_reported":1720890382,"current_range_meters":20000,"station_id":"","pricing_plan_id":"cebpf4jnsgd1na2vs0mg"},{"bike_id":"a73dad2b-dded-4096-b591-d9883c2ff43e","system_id":"levelo_inurba_marseille","lat":43.33774,"lon":5.37466,"is_reserved":false,"is_disabled":false,"rental_uris":{"android":"levelo://app?vid=a73dad2b-dded-4096-b591-d9883c2ff43e","ios":"levelo://app?vid=a73dad2b-dded-4096-b591-d9883c2ff43e"},"vehicle_type_id":"4","last_reported":1720890382,"current_range_meters":2000,"station_id":"","pricing_plan_id":"cebpf4jnsgd1na2vs0mg"},{"bike_id":"45416cd9-028f-41b0-ac5a-269637c45e42","system_id":"levelo_inurba_marseille","lat":43.33772,"lon":5.37479,"is_reserved":false,"is_disabled":false,"rental_uris":{"android":"levelo://app?vid=45416cd9-028f-41b0-ac5a-269637c45e42","ios":"levelo://app?vid=45416cd9-028f-41b0-ac5a-269637c45e42"},"vehicle_type_id":"4","last_reported":1720890382,"current_range_meters":11200,"station_id":"","pricing_plan_id":"cebpf4jnsgd1na2vs0mg"},{"bike_id":"a5b64c84-5508-41ed-bc97-8b733f293107","system_id":"levelo_inurba_marseille","lat":43.33773,"lon":5.37473,"is_reserved":false,"is_disabled":false,"rental_uris":{"android":"levelo://app?vid=a5b64c84-5508-41ed-bc97-8b733f293107","ios":"levelo://app?vid=a5b64c84-5508-41ed-bc97-8b733f293107"},"vehicle_type_id":"4","last_reported":1720890382,"current_range_meters":25600,"station_id":"","pricing_plan_id":"cebpf4jnsgd1na2vs0mg"},{"bike_id":"5cd2f239-467e-4111-8850-d9782eca2470","system_id":"levelo_inurba_marseille","lat":43.33773,"lon":5.37474,"is_reserved":false,"is_disabled":false,"rental_uris":{"android":"levelo://app?vid=5cd2f239-467e-4111-8850-d9782eca2470","ios":"levelo://app?vid=5cd2f239-467e-4111-8850-d9782eca2470"},"vehicle_type_id":"4","last_reported":1720890382,"current_range_meters":30000,"station_id":"","pricing_plan_id":"cebpf4jnsgd1na2vs0mg"},{"bike_id":"a7714764-2436-42f7-8089-0fc1ef357d42","system_id":"levelo_inurba_marseille","lat":43.33773,"lon":5.37475,"is_reserved":false,"is_disabled":false,"rental_uris":{"android":"levelo://app?vid=a7714764-2436-42f7-8089-0fc1ef357d42","ios":"levelo://app?vid=a7714764-2436-42f7-8089-0fc1ef357d42"},"vehicle_type_id":"4","last_reported":1720890382,"current_range_meters":7200,"station_id":"","pricing_plan_id":"cebpf4jnsgd1na2vs0mg"},{"bike_id":"ecca751a-c24b-4d06-bee9-480915f9bb4a","system_id":"levelo_inurba_marseille","lat":43.33773,"lon":5.37476,"is_reserved":false,"is_disabled":false,"rental_uris":{"android":"levelo://app?vid=ecca751a-c24b-4d06-bee9-480915f9bb4a","ios":"levelo://app?vid=ecca751a-c24b-4d06-bee9-480915f9bb4a"},"vehicle_type_id":"4","last_reported":1720890382,"current_range_meters":4400,"station_id":"","pricing_plan_id":"cebpf4jnsgd1na2vs0mg"},{"bike_id":"e951615b-5573-4435-a7b6-8167ff6ade63","system_id":"levelo_inurba_marseille","lat":43.33774,"lon":5.3747,"is_reserved":false,"is_disabled":false,"rental_uris":{"android":"levelo://app?vid=e951615b-5573-4435-a7b6-8167ff6ade63","ios":"levelo://app?vid=e951615b-5573-4435-a7b6-8167ff6ade63"},"vehicle_type_id":"4","last_reported":1720890382,"current_range_meters":18400,"station_id":"","pricing_plan_id":"cebpf4jnsgd1na2vs0mg"},{"bike_id":"a4701b34-a47a-4547-9be9-b5a6ebb6ef0f","system_id":"levelo_inurba_marseille","lat":43.33774,"lon":5.37471,"is_reserved":false,"is_disabled":false,"rental_uris":{"android":"levelo://app?vid=a4701b34-a47a-4547-9be9-b5a6ebb6ef0f","ios":"levelo://app?vid=a4701b34-a47a-4547-9be9-b5a6ebb6ef0f"},"vehicle_type_id":"4","last_reported":1720890382,"current_range_meters":17200,"station_id":"","pricing_plan_id":"cebpf4jnsgd1na2vs0mg"},{"bike_id":"c67a12ba-5c42-41ae-847c-0956c8b147e5","system_id":"levelo_inurba_marseille","lat":43.33774,"lon":5.37471,"is_reserved":false,"is_disabled":false,"rental_uris":{"android":"levelo://app?vid=c67a12ba-5c42-41ae-847c-0956c8b147e5","ios":"levelo://app?vid=c67a12ba-5c42-41ae-847c-0956c8b147e5"},"vehicle_type_id":"4","last_reported":1720890382,"current_range_meters":12400,"station_id":"","pricing_plan_id":"cebpf4jnsgd1na2vs0mg"},{"bike_id":"e4c5eb4a-41ad-4e61-8904-c3626df7599e","system_id":"levelo_inurba_marseille","lat":43.301117,"lon":5.398795,"is_reserved":false,"is_disabled":false,"rental_uris":{"android":"levelo://app?vid=e4c5eb4a-41ad-4e61-8904-c3626df7599e","ios":"levelo://app?vid=e4c5eb4a-41ad-4e61-8904-c3626df7599e"},"vehicle_type_id":"4","last_reported":1720890382,"current_range_meters":7600,"station_id":"ce4bh0h2rcd13ifvqd40","pricing_plan_id":"cebpf4jnsgd1na2vs0mg"},{"bike_id":"8f55e42a-3936-4652-bde2-523742260807","system_id":"levelo_inurba_marseille","lat":43.301117,"lon":5.398795,"is_reserved":false,"is_disabled":false,"rental_uris":{"android":"levelo://app?vid=8f55e42a-3936-4652-bde2-523742260807","ios":"levelo://app?vid=8f55e42a-3936-4652-bde2-523742260807"},"vehicle_type_id":"4","last_reported":1720890382,"current_range_meters":20400,"station_id":"ce4bh0h2rcd13ifvqd40","pricing_plan_id":"cebpf4jnsgd1na2vs0mg"},{"bike_id":"cf958edf-a973-4ef8-838e-9cc8f1679483","system_id":"levelo_inurba_marseille","lat":43.33774,"lon":5.37474,"is_reserved":false,"is_disabled":false,"rental_uris":{"android":"levelo://app?vid=cf958edf-a973-4ef8-838e-9cc8f1679483","ios":"levelo://app?vid=cf958edf-a973-4ef8-838e-9cc8f1679483"},"vehicle_type_id":"4","last_reported":1720890382,"current_range_meters":19200,"station_id":"","pricing_plan_id":"cebpf4jnsgd1na2vs0mg"},{"bike_id":"0c80325e-daf1-446d-8059-bffa294c7e3e","system_id":"levelo_inurba_marseille","lat":43.33775,"lon":5.37469,"is_reserved":false,"is_disabled":false,"rental_uris":{"android":"levelo://app?vid=0c80325e-daf1-446d-8059-bffa294c7e3e","ios":"levelo://app?vid=0c80325e-daf1-446d-8059-bffa294c7e3e"},"vehicle_type_id":"4","last_reported":1720890382,"current_range_meters":29600,"station_id":"","pricing_plan_id":"cebpf4jnsgd1na2vs0mg"},{"bike_id":"215d24e0-7b63-49a8-aed8-8b8c5a53b355","system_id":"levelo_inurba_marseille","lat":43.33774,"lon":5.37476,"is_reserved":false,"is_disabled":false,"rental_uris":{"android":"levelo://app?vid=215d24e0-7b63-49a8-aed8-8b8c5a53b355","ios":"levelo://app?vid=215d24e0-7b63-49a8-aed8-8b8c5a53b355"},"vehicle_type_id":"4","last_reported":1720890382,"current_range_meters":15200,"station_id":"","pricing_plan_id":"cebpf4jnsgd1na2vs0mg"},{"bike_id":"e6537933-0eb1-41a8-b76a-584d0a7d4a3c","system_id":"levelo_inurba_marseille","lat":43.33775,"lon":5.37471,"is_reserved":false,"is_disabled":false,"rental_uris":{"android":"levelo://app?vid=e6537933-0eb1-41a8-b76a-584d0a7d4a3c","ios":"levelo://app?vid=e6537933-0eb1-41a8-b76a-584d0a7d4a3c"},"vehicle_type_id":"4","last_reported":1720890382,"current_range_meters":29200,"station_id":"","pricing_plan_id":"cebpf4jnsgd1na2vs0mg"},{"bike_id":"2878ccff-3056-4d81-9565-caabd8a9f101","system_id":"levelo_inurba_marseille","lat":43.337747,"lon":5.374763,"is_reserved":false,"is_disabled":false,"rental_uris":{"android":"levelo://app?vid=2878ccff-3056-4d81-9565-caabd8a9f101","ios":"levelo://app?vid=2878ccff-3056-4d81-9565-caabd8a9f101"},"vehicle_type_id":"4","last_reported":1720890382,"current_range_meters":2400,"station_id":"","pricing_plan_id":"cebpf4jnsgd1na2vs0mg"},{"bike_id":"2fa411ed-3fa9-4268-b414-c8e45152bf4d","system_id":"levelo_inurba_marseille","lat":43.33776,"lon":5.37472,"is_reserved":false,"is_disabled":false,"rental_uris":{"android":"levelo://app?vid=2fa411ed-3fa9-4268-b414-c8e45152bf4d","ios":"levelo://app?vid=2fa411ed-3fa9-4268-b414-c8e45152bf4d"},"vehicle_type_id":"4","last_reported":1720890382,"current_range_meters":18400,"station_id":"","pricing_plan_id":"cebpf4jnsgd1na2vs0mg"},{"bike_id":"02f0d131-963f-495a-beaf-edc5a91d6439","system_id":"levelo_inurba_marseille","lat":43.33776,"lon":5.37476,"is_reserved":false,"is_disabled":false,"rental_uris":{"android":"levelo://app?vid=02f0d131-963f-495a-beaf-edc5a91d6439","ios":"levelo://app?vid=02f0d131-963f-495a-beaf-edc5a91d6439"},"vehicle_type_id":"4","last_reported":1720890382,"current_range_meters":29600,"station_id":"","pricing_plan_id":"cebpf4jnsgd1na2vs0mg"},{"bike_id":"9e13c9a5-7387-424a-b4fb-1dc4dce029b5","system_id":"levelo_inurba_marseille","lat":43.33777,"lon":5.37474,"is_reserved":false,"is_disabled":false,"rental_uris":{"android":"levelo://app?vid=9e13c9a5-7387-424a-b4fb-1dc4dce029b5","ios":"levelo://app?vid=9e13c9a5-7387-424a-b4fb-1dc4dce029b5"},"vehicle_type_id":"4","last_reported":1720890382,"current_range_meters":29200,"station_id":"","pricing_plan_id":"cebpf4jnsgd1na2vs0mg"},{"bike_id":"2c101ebf-47bb-4075-9995-419fb34d5f57","system_id":"levelo_inurba_marseille","lat":43.337772,"lon":5.374746,"is_reserved":false,"is_disabled":false,"rental_uris":{"android":"levelo://app?vid=2c101ebf-47bb-4075-9995-419fb34d5f57","ios":"levelo://app?vid=2c101ebf-47bb-4075-9995-419fb34d5f57"},"vehicle_type_id":"4","last_reported":1720890382,"current_range_meters":31200,"station_id":"","pricing_plan_id":"cebpf4jnsgd1na2vs0mg"},{"bike_id":"6005b925-bbeb-43fb-9a4b-148f3086b364","system_id":"levelo_inurba_marseille","lat":43.33777,"lon":5.37484,"is_reserved":false,"is_disabled":false,"rental_uris":{"android":"levelo://app?vid=6005b925-bbeb-43fb-9a4b-148f3086b364","ios":"levelo://app?vid=6005b925-bbeb-43fb-9a4b-148f3086b364"},"vehicle_type_id":"4","last_reported":1720890382,"current_range_meters":10400,"station_id":"","pricing_plan_id":"cebpf4jnsgd1na2vs0mg"},{"bike_id":"573b9d78-4adb-4e9e-b480-d279544660f2","system_id":"levelo_inurba_marseille","lat":43.33779,"lon":5.37476,"is_reserved":false,"is_disabled":false,"rental_uris":{"android":"levelo://app?vid=573b9d78-4adb-4e9e-b480-d279544660f2","ios":"levelo://app?vid=573b9d78-4adb-4e9e-b480-d279544660f2"},"vehicle_type_id":"4","last_reported":1720890382,"current_range_meters":12400,"station_id":"","pricing_plan_id":"cebpf4jnsgd1na2vs0mg"},{"bike_id":"540e4ff1-a45d-4edc-9ec5-e74cc22e17c4","system_id":"levelo_inurba_marseille","lat":43.301117,"lon":5.398795,"is_reserved":false,"is_disabled":false,"rental_uris":{"android":"levelo://app?vid=540e4ff1-a45d-4edc-9ec5-e74cc22e17c4","ios":"levelo://app?vid=540e4ff1-a45d-4edc-9ec5-e74cc22e17c4"},"vehicle_type_id":"4","last_reported":1720890382,"current_range_meters":1200,"station_id":"ce4bh0h2rcd13ifvqd40","pricing_plan_id":"cebpf4jnsgd1na2vs0mg"},{"bike_id":"c2e41e5e-d2f1-4b86-9779-a35f50f556ce","system_id":"levelo_inurba_marseille","lat":43.298681,"lon":5.397225,"is_reserved":false,"is_disabled":false,"rental_uris":{"android":"levelo://app?vid=c2e41e5e-d2f1-4b86-9779-a35f50f556ce","ios":"levelo://app?vid=c2e41e5e-d2f1-4b86-9779-a35f50f556ce"},"vehicle_type_id":"4","last_reported":1720890382,"current_range_meters":16000,"station_id":"ce4bh0h2rcd13ifvqd50","pricing_plan_id":"cebpf4jnsgd1na2vs0mg"},{"bike_id":"ed635401-56a9-47c8-9cfd-b32c2b5fc870","system_id":"levelo_inurba_marseille","lat":43.29879,"lon":5.39734,"is_reserved":false,"is_disabled":false,"rental_uris":{"android":"levelo://app?vid=ed635401-56a9-47c8-9cfd-b32c2b5fc870","ios":"levelo://app?vid=ed635401-56a9-47c8-9cfd-b32c2b5fc870"},"vehicle_type_id":"4","last_reported":1720890382,"current_range_meters":0,"station_id":"ce4bh0h2rcd13ifvqd50","pricing_plan_id":"cebpf4jnsgd1na2vs0mg"},{"bike_id":"160abe9e-9f20-4864-b851-a05258d21ab5","system_id":"levelo_inurba_marseille","lat":43.298681,"lon":5.397225,"is_reserved":false,"is_disabled":false,"rental_uris":{"android":"levelo://app?vid=160abe9e-9f20-4864-b851-a05258d21ab5","ios":"levelo://app?vid=160abe9e-9f20-4864-b851-a05258d21ab5"},"vehicle_type_id":"4","last_reported":1720890382,"current_range_meters":0,"station_id":"ce4bh0h2rcd13ifvqd50","pricing_plan_id":"cebpf4jnsgd1na2vs0mg"},{"bike_id":"0ca07db5-7d6c-48a0-a8a9-bafa871b5b4c","system_id":"levelo_inurba_marseille","lat":43.286591,"lon":5.363346,"is_reserved":false,"is_disabled":false,"rental_uris":{"android":"levelo://app?vid=0ca07db5-7d6c-48a0-a8a9-bafa871b5b4c","ios":"levelo://app?vid=0ca07db5-7d6c-48a0-a8a9-bafa871b5b4c"},"vehicle_type_id":"4","last_reported":1720890382,"current_range_meters":14400,"station_id":"ce4bhah2rcd13ifvqej0","pricing_plan_id":"cebpf4jnsgd1na2vs0mg"},{"bike_id":"da868b75-06ba-4f4d-846f-c64e9b4e5b4b","system_id":"levelo_inurba_marseille","lat":43.298681,"lon":5.397225,"is_reserved":false,"is_disabled":false,"rental_uris":{"android":"levelo://app?vid=da868b75-06ba-4f4d-846f-c64e9b4e5b4b","ios":"levelo://app?vid=da868b75-06ba-4f4d-846f-c64e9b4e5b4b"},"vehicle_type_id":"4","last_reported":1720890382,"current_range_meters":0,"station_id":"ce4bh0h2rcd13ifvqd50","pricing_plan_id":"cebpf4jnsgd1na2vs0mg"},{"bike_id":"4669fa3c-106e-4bab-b1de-0b71d7b3ba40","system_id":"levelo_inurba_marseille","lat":43.29861,"lon":5.39748,"is_reserved":false,"is_disabled":false,"rental_uris":{"android":"levelo://app?vid=4669fa3c-106e-4bab-b1de-0b71d7b3ba40","ios":"levelo://app?vid=4669fa3c-106e-4bab-b1de-0b71d7b3ba40"},"vehicle_type_id":"4","last_reported":1720890382,"current_range_meters":0,"station_id":"ce4bh0h2rcd13ifvqd50","pricing_plan_id":"cebpf4jnsgd1na2vs0mg"},{"bike_id":"1571e3ea-cf0a-48af-9dde-9499dc8f79f9","system_id":"levelo_inurba_marseille","lat":43.290419,"lon":5.386427,"is_reserved":false,"is_disabled":false,"rental_uris":{"android":"levelo://app?vid=1571e3ea-cf0a-48af-9dde-9499dc8f79f9","ios":"levelo://app?vid=1571e3ea-cf0a-48af-9dde-9499dc8f79f9"},"vehicle_type_id":"4","last_reported":1720890382,"current_range_meters":0,"station_id":"ce4bh4p2rcd13ifvqe0g","pricing_plan_id":"cebpf4jnsgd1na2vs0mg"},{"bike_id":"7eade765-2a0b-4c8d-9644-e2bf380d7c2f","system_id":"levelo_inurba_marseille","lat":43.290336,"lon":5.386425,"is_reserved":false,"is_disabled":false,"rental_uris":{"android":"levelo://app?vid=7eade765-2a0b-4c8d-9644-e2bf380d7c2f","ios":"levelo://app?vid=7eade765-2a0b-4c8d-9644-e2bf380d7c2f"},"vehicle_type_id":"4","last_reported":1720890382,"current_range_meters":0,"station_id":"ce4bh4p2rcd13ifvqe0g","pricing_plan_id":"cebpf4jnsgd1na2vs0mg"},{"bike_id":"fa9d5932-0568-4cc5-a3dc-96c3e13af95d","system_id":"levelo_inurba_marseille","lat":43.286039,"lon":5.370679,"is_reserved":false,"is_disabled":false,"rental_uris":{"android":"levelo://app?vid=fa9d5932-0568-4cc5-a3dc-96c3e13af95d","ios":"levelo://app?vid=fa9d5932-0568-4cc5-a3dc-96c3e13af95d"},"vehicle_type_id":"4","last_reported":1720890382,"current_range_meters":23600,"station_id":"ce4bht12rcd13ifvqi60","pricing_plan_id":"cebpf4jnsgd1na2vs0mg"},{"bike_id":"3895eb45-8db0-4147-bb29-f913a8219197","system_id":"levelo_inurba_marseille","lat":43.316828,"lon":5.404723,"is_reserved":false,"is_disabled":false,"rental_uris":{"android":"levelo://app?vid=3895eb45-8db0-4147-bb29-f913a8219197","ios":"levelo://app?vid=3895eb45-8db0-4147-bb29-f913a8219197"},"vehicle_type_id":"4","last_reported":1720890382,"current_range_meters":26400,"station_id":"ce4bh012rcd13ifvqd00","pricing_plan_id":"cebpf4jnsgd1na2vs0mg"},{"bike_id":"2fb1ddd8-84fe-4812-8353-94811c2a9975","system_id":"levelo_inurba_marseille","lat":43.29199,"lon":5.39314,"is_reserved":false,"is_disabled":false,"rental_uris":{"android":"levelo://app?vid=2fb1ddd8-84fe-4812-8353-94811c2a9975","ios":"levelo://app?vid=2fb1ddd8-84fe-4812-8353-94811c2a9975"},"vehicle_type_id":"4","last_reported":1720890382,"current_range_meters":0,"station_id":"ce4bh192rcd13ifvqdd0","pricing_plan_id":"cebpf4jnsgd1na2vs0mg"},{"bike_id":"8e784a58-a5f0-44c1-b71b-0ec9d1216f83","system_id":"levelo_inurba_marseille","lat":43.291994,"lon":5.392907,"is_reserved":false,"is_disabled":false,"rental_uris":{"android":"levelo://app?vid=8e784a58-a5f0-44c1-b71b-0ec9d1216f83","ios":"levelo://app?vid=8e784a58-a5f0-44c1-b71b-0ec9d1216f83"},"vehicle_type_id":"4","last_reported":1720890382,"current_range_meters":0,"station_id":"ce4bh192rcd13ifvqdd0","pricing_plan_id":"cebpf4jnsgd1na2vs0mg"},{"bike_id":"ff617d80-6343-413a-ac91-d784c7f859fb","system_id":"levelo_inurba_marseille","lat":43.284538,"lon":5.358657,"is_reserved":false,"is_disabled":false,"rental_uris":{"android":"levelo://app?vid=ff617d80-6343-413a-ac91-d784c7f859fb","ios":"levelo://app?vid=ff617d80-6343-413a-ac91-d784c7f859fb"},"vehicle_type_id":"4","last_reported":1720890382,"current_range_meters":0,"station_id":"ce4bhah2rcd13ifvqei0","pricing_plan_id":"cebpf4jnsgd1na2vs0mg"},{"bike_id":"d1fa2c00-0826-497d-8da1-61d5c30863ff","system_id":"levelo_inurba_marseille","lat":43.284538,"lon":5.358657,"is_reserved":false,"is_disabled":false,"rental_uris":{"android":"levelo://app?vid=d1fa2c00-0826-497d-8da1-61d5c30863ff","ios":"levelo://app?vid=d1fa2c00-0826-497d-8da1-61d5c30863ff"},"vehicle_type_id":"4","last_reported":1720890382,"current_range_meters":7600,"station_id":"ce4bhah2rcd13ifvqei0","pricing_plan_id":"cebpf4jnsgd1na2vs0mg"},{"bike_id":"c5ba5506-c898-48ae-ac12-5c186133604e","system_id":"levelo_inurba_marseille","lat":43.28459,"lon":5.35892,"is_reserved":false,"is_disabled":false,"rental_uris":{"android":"levelo://app?vid=c5ba5506-c898-48ae-ac12-5c186133604e","ios":"levelo://app?vid=c5ba5506-c898-48ae-ac12-5c186133604e"},"vehicle_type_id":"4","last_reported":1720890382,"current_range_meters":800,"station_id":"ce4bhah2rcd13ifvqei0","pricing_plan_id":"cebpf4jnsgd1na2vs0mg"},{"bike_id":"6115c90e-933f-4838-bcb3-566b02f7ed16","system_id":"levelo_inurba_marseille","lat":43.284597,"lon":5.358831,"is_reserved":false,"is_disabled":false,"rental_uris":{"android":"levelo://app?vid=6115c90e-933f-4838-bcb3-566b02f7ed16","ios":"levelo://app?vid=6115c90e-933f-4838-bcb3-566b02f7ed16"},"vehicle_type_id":"4","last_reported":1720890382,"current_range_meters":6400,"station_id":"ce4bhah2rcd13ifvqei0","pricing_plan_id":"cebpf4jnsgd1na2vs0mg"},{"bike_id":"3b3a647e-8cb9-497f-8358-cbc9ddf08e86","system_id":"levelo_inurba_marseille","lat":43.28457,"lon":5.359,"is_reserved":false,"is_disabled":false,"rental_uris":{"android":"levelo://app?vid=3b3a647e-8cb9-497f-8358-cbc9ddf08e86","ios":"levelo://app?vid=3b3a647e-8cb9-497f-8358-cbc9ddf08e86"},"vehicle_type_id":"4","last_reported":1720890382,"current_range_meters":15200,"station_id":"ce4bhah2rcd13ifvqei0","pricing_plan_id":"cebpf4jnsgd1na2vs0mg"},{"bike_id":"4e538273-3a35-4a85-be4e-83821eb08805","system_id":"levelo_inurba_marseille","lat":43.284583,"lon":5.3589,"is_reserved":false,"is_disabled":false,"rental_uris":{"android":"levelo://app?vid=4e538273-3a35-4a85-be4e-83821eb08805","ios":"levelo://app?vid=4e538273-3a35-4a85-be4e-83821eb08805"},"vehicle_type_id":"4","last_reported":1720890382,"current_range_meters":18400,"station_id":"ce4bhah2rcd13ifvqei0","pricing_plan_id":"cebpf4jnsgd1na2vs0mg"},{"bike_id":"aaed7d19-dcb6-4e78-8a59-fb5e436c8bbd","system_id":"levelo_inurba_marseille","lat":43.284538,"lon":5.358657,"is_reserved":false,"is_disabled":false,"rental_uris":{"android":"levelo://app?vid=aaed7d19-dcb6-4e78-8a59-fb5e436c8bbd","ios":"levelo://app?vid=aaed7d19-dcb6-4e78-8a59-fb5e436c8bbd"},"vehicle_type_id":"4","last_reported":1720890382,"current_range_meters":400,"station_id":"ce4bhah2rcd13ifvqei0","pricing_plan_id":"cebpf4jnsgd1na2vs0mg"},{"bike_id":"7a4af15e-3512-4d72-a431-51b321e4a453","system_id":"levelo_inurba_marseille","lat":43.28456,"lon":5.3589,"is_reserved":false,"is_disabled":false,"rental_uris":{"android":"levelo://app?vid=7a4af15e-3512-4d72-a431-51b321e4a453","ios":"levelo://app?vid=7a4af15e-3512-4d72-a431-51b321e4a453"},"vehicle_type_id":"4","last_reported":1720890382,"current_range_meters":0,"station_id":"ce4bhah2rcd13ifvqei0","pricing_plan_id":"cebpf4jnsgd1na2vs0mg"},{"bike_id":"a27e0692-d7b5-4f5e-946b-d57405607d8b","system_id":"levelo_inurba_marseille","lat":43.28455,"lon":5.35888,"is_reserved":false,"is_disabled":false,"rental_uris":{"android":"levelo://app?vid=a27e0692-d7b5-4f5e-946b-d57405607d8b","ios":"levelo://app?vid=a27e0692-d7b5-4f5e-946b-d57405607d8b"},