{"last_updated":1746076277,"ttl":60,"version":"2.2","data":{"bikes":[{"bike_id":"06bb3fbc-1701-4a06-9cc8-e6b4858e3eeb","system_id":"levelo_inurba_marseille","lat":43.29562,"lon":5.36531,"is_reserved":false,"is_disabled":false,"rental_uris":{"android":"levelo://app?vid=06bb3fbc-1701-4a06-9cc8-e6b4858e3eeb","ios":"levelo://app?vid=06bb3fbc-1701-4a06-9cc8-e6b4858e3eeb"},"vehicle_type_id":"4","last_reported":1746076277,"current_range_meters":2800,"station_id":"","pricing_plan_id":"cebpf4jnsgd1na2vs0mg"},{"bike_id":"5862d793-8af5-4231-8310-25d2f6e51ddf","system_id":"levelo_inurba_marseille","lat":43.30789,"lon":5.38172,"is_reserved":false,"is_disabled":false,"rental_uris":{"android":"levelo://app?vid=5862d793-8af5-4231-8310-25d2f6e51ddf","ios":"levelo://app?vid=5862d793-8af5-4231-8310-25d2f6e51ddf"},"vehicle_type_id":"4","last_reported":1746076277,"current_range_meters":2800,"station_id":"ce4bgt12rcd13ifvqce0","pricing_plan_id":"cebpf4jnsgd1na2vs0mg"},{"bike_id":"e709bb27-7a78-40be-af05-bf6177deb867","system_id":"levelo_inurba_marseille","lat":43.30165,"lon":5.3809,"is_reserved":false,"is_disabled":false,"rental_uris":{"android":"levelo://app?vid=e709bb27-7a78-40be-af05-bf6177deb867","ios":"levelo://app?vid=e709bb27-7a78-40be-af05-bf6177deb867"},"vehicle_type_id":"4","last_reported":1746076277,"current_range_meters":2800,"station_id":"ce4bgjp2rcd13ifvqbh0","pricing_plan_id":"cebpf4jnsgd1na2vs0mg"},{"bike_id":"7277521c-6e81-4afa-8525-ce183bafa14d","system_id":"levelo_inurba_marseille","lat":43.29264,"lon":5.40923,"is_reserved":false,"is_disabled":false,"rental_uris":{"android":"levelo://app?vid=7277521c-6e81-4afa-8525-ce183bafa14d","ios":"levelo://app?vid=7277521c-6e81-4afa-8525-ce183bafa14d"},"vehicle_type_id":"4","last_reported":1746076277,"current_range_meters":3200,"station_id":"ce4bh192rcd13ifvqdc0","pricing_plan_id":"cebpf4jnsgd1na2vs0mg"},{"bike_id":"b61f8a0a-563c-4e1b-962a-447d765b7b65","system_id":"levelo_inurba_marseille","lat":43.30261,"lon":5.37719,"is_reserved":false,"is_disabled":false,"rental_uris":{"android":"levelo://app?vid=b61f8a0a-563c-4e1b-962a-447d765b7b65","ios":"levelo://app?vid=b61f8a0a-563c-4e1b-962a-447d765b7b65"},"vehicle_type_id":"4","last_reported":1746076277,"current_range_meters":3200,"station_id":"ce4bguh2rcd13ifvqcj0","pricing_plan_id":"cebpf4jnsgd1na2vs0mg"},{"bike_id":"e3676e90-152e-48a7-80da-6baae6b20546","system_id":"levelo_inurba_marseille","lat":43.30268,"lon":5.37708,"is_reserved":false,"is_disabled":false,"rental_uris":{"android":"levelo://app?vid=e3676e90-152e-48a7-80da-6baae6b20546","ios":"levelo://app?vid=e3676e90-152e-48a7-80da-6baae6b20546"},"vehicle_type_id":"4","last_reported":1746076277,"current_range_meters":3600,"station_id":"ce4bguh2rcd13ifvqcj0","pricing_plan_id":"cebpf4jnsgd1na2vs0mg"},{"bike_id":"00efbeb5-872a-4078-9994-9640cb88c828","system_id":"levelo_inurba_marseille","lat":43.25712,"lon":5.41136,"is_reserved":false,"is_disabled":false,"rental_uris":{"android":"levelo://app?vid=00efbeb5-872a-4078-9994-9640cb88c828","ios":"levelo://app?vid=00efbeb5-872a-4078-9994-9640cb88c828"},"vehicle_type_id":"4","last_reported":1746076277,"current_range_meters":4000,"station_id":"ce4bhkp2rcd13ifvqgd0","pricing_plan_id":"cebpf4jnsgd1na2vs0mg"},{"bike_id":"4cf4dd17-8933-4015-85f9-46541bb00e54","system_id":"levelo_inurba_marseille","lat":43.25108,"lon":5.40324,"is_reserved":false,"is_disabled":false,"rental_uris":{"android":"levelo://app?vid=4cf4dd17-8933-4015-85f9-46541bb00e54","ios":"levelo://app?vid=4cf4dd17-8933-4015-85f9-46541bb00e54"},"vehicle_type_id":"4","last_reported":1746076277,"current_range_meters":4000,"station_id":"ce4bhlh2rcd13ifvqgig","pricing_plan_id":"cebpf4jnsgd1na2vs0mg"},{"bike_id":"673a0c3f-8ece-48df-a2aa-4780ac191d8f","system_id":"levelo_inurba_marseille","lat":43.32048,"lon":5.41581,"is_reserved":false,"is_disabled":false,"rental_uris":{"android":"levelo://app?vid=673a0c3f-8ece-48df-a2aa-4780ac191d8f","ios":"levelo://app?vid=673a0c3f-8ece-48df-a2aa-4780ac191d8f"},"vehicle_type_id":"4","last_reported":1746076277,"current_range_meters":4400,"station_id":"ce4bhq92rcd13ifvqhkg","pricing_plan_id":"cebpf4jnsgd1na2vs0mg"},{"bike_id":"abbaab27-89eb-406d-9f60-0fafede2ff71","system_id":"levelo_inurba_marseille","lat":43.30643,"lon":5.40107,"is_reserved":false,"is_disabled":false,"rental_uris":{"android":"levelo://app?vid=abbaab27-89eb-406d-9f60-0fafede2ff71","ios":"levelo://app?vid=abbaab27-89eb-406d-9f60-0fafede2ff71"},"vehicle_type_id":"4","last_reported":1746076277,"current_range_meters":4800,"station_id":"ce4bh112rcd13ifvqda0","pricing_plan_id":"cebpf4jnsgd1na2vs0mg"},{"bike_id":"a0dd5fc2-8200-4cab-bced-de20e33f9788","system_id":"levelo_inurba_marseille","lat":43.30158,"lon":5.38088,"is_reserved":false,"is_disabled":false,"rental_uris":{"android":"levelo://app?vid=a0dd5fc2-8200-4cab-bced-de20e33f9788","ios":"levelo://app?vid=a0dd5fc2-8200-4cab-bced-de20e33f9788"},"vehicle_type_id":"4","last_reported":1746076277,"current_range_meters":4800,"station_id":"ce4bgjp2rcd13ifvqbh0","pricing_plan_id":"cebpf4jnsgd1na2vs0mg"},{"bike_id":"2d0fea3e-041c-4d20-aeb7-63739e3d5c27","system_id":"levelo_inurba_marseille","lat":43.30648,"lon":5.36589,"is_reserved":false,"is_disabled":false,"rental_uris":{"android":"levelo://app?vid=2d0fea3e-041c-4d20-aeb7-63739e3d5c27","ios":"levelo://app?vid=2d0fea3e-041c-4d20-aeb7-63739e3d5c27"},"vehicle_type_id":"4","last_reported":1746076277,"current_range_meters":4800,"station_id":"","pricing_plan_id":"cebpf4jnsgd1na2vs0mg"},{"bike_id":"e06e3ad6-0e5a-49f2-98bb-d0b7ffaaf745","system_id":"levelo_inurba_marseille","lat":43.23386,"lon":5.3612,"is_reserved":false,"is_disabled":false,"rental_uris":{"android":"levelo://app?vid=e06e3ad6-0e5a-49f2-98bb-d0b7ffaaf745","ios":"levelo://app?vid=e06e3ad6-0e5a-49f2-98bb-d0b7ffaaf745"},"vehicle_type_id":"4","last_reported":1746076277,"current_range_meters":4800,"station_id":"","pricing_plan_id":"cebpf4jnsgd1na2vs0mg"},{"bike_id":"52ca5acc-fbb4-4576-bd29-894b4aca6054","system_id":"levelo_inurba_marseille","lat":43.29281,"lon":5.36843,"is_reserved":false,"is_disabled":false,"rental_uris":{"android":"levelo://app?vid=52ca5acc-fbb4-4576-bd29-894b4aca6054","ios":"levelo://app?vid=52ca5acc-fbb4-4576-bd29-894b4aca6054"},"vehicle_type_id":"4","last_reported":1746076277,"current_range_meters":4800,"station_id":"ce4bhbp2rcd13ifvqesg","pricing_plan_id":"cebpf4jnsgd1na2vs0mg"},{"bike_id":"3c45809c-b0fa-4bc2-b9c0-d5a87c8b30e1","system_id":"levelo_inurba_marseille","lat":43.30175,"lon":5.38085,"is_reserved":false,"is_disabled":false,"rental_uris":{"android":"levelo://app?vid=3c45809c-b0fa-4bc2-b9c0-d5a87c8b30e1","ios":"levelo://app?vid=3c45809c-b0fa-4bc2-b9c0-d5a87c8b30e1"},"vehicle_type_id":"4","last_reported":1746076277,"current_range_meters":5600,"station_id":"ce4bgjp2rcd13ifvqbh0","pricing_plan_id":"cebpf4jnsgd1na2vs0mg"},{"bike_id":"387bc5ea-7c2b-41e1-a1e6-3b4cc71c9638","system_id":"levelo_inurba_marseille","lat":43.24172,"lon":5.39739,"is_reserved":false,"is_disabled":false,"rental_uris":{"android":"levelo://app?vid=387bc5ea-7c2b-41e1-a1e6-3b4cc71c9638","ios":"levelo://app?vid=387bc5ea-7c2b-41e1-a1e6-3b4cc71c9638"},"vehicle_type_id":"4","last_reported":1746076277,"current_range_meters":5600,"station_id":"ce4bhn12rcd13ifvqgpg","pricing_plan_id":"cebpf4jnsgd1na2vs0mg"},{"bike_id":"97d372a4-7499-4980-ad60-515b98299387","system_id":"levelo_inurba_marseille","lat":43.30555,"lon":5.38441,"is_reserved":false,"is_disabled":false,"rental_uris":{"android":"levelo://app?vid=97d372a4-7499-4980-ad60-515b98299387","ios":"levelo://app?vid=97d372a4-7499-4980-ad60-515b98299387"},"vehicle_type_id":"4","last_reported":1746076277,"current_range_meters":6000,"station_id":"ce4bgg92rcd13ifvqb30","pricing_plan_id":"cebpf4jnsgd1na2vs0mg"},{"bike_id":"bc1d975a-af42-46ea-a9c7-0b3364dd6004","system_id":"levelo_inurba_marseille","lat":43.284062,"lon":5.375217,"is_reserved":false,"is_disabled":false,"rental_uris":{"android":"levelo://app?vid=bc1d975a-af42-46ea-a9c7-0b3364dd6004","ios":"levelo://app?vid=bc1d975a-af42-46ea-a9c7-0b3364dd6004"},"vehicle_type_id":"4","last_reported":1746076277,"current_range_meters":6000,"station_id":"ce4bh412rcd13ifvqds0","pricing_plan_id":"cebpf4jnsgd1na2vs0mg"},{"bike_id":"ed01b2d3-e777-4cde-b001-4acf8ff4f995","system_id":"levelo_inurba_marseille","lat":43.336071,"lon":5.410216,"is_reserved":false,"is_disabled":false,"rental_uris":{"android":"levelo://app?vid=ed01b2d3-e777-4cde-b001-4acf8ff4f995","ios":"levelo://app?vid=ed01b2d3-e777-4cde-b001-4acf8ff4f995"},"vehicle_type_id":"4","last_reported":1746076277,"current_range_meters":6000,"station_id":"ce4bhqh2rcd13ifvqhmg","pricing_plan_id":"cebpf4jnsgd1na2vs0mg"},{"bike_id":"0ad3bba1-4bc4-479c-8461-1db3bb0761ed","system_id":"levelo_inurba_marseille","lat":43.31312,"lon":5.39721,"is_reserved":false,"is_disabled":false,"rental_uris":{"android":"levelo://app?vid=0ad3bba1-4bc4-479c-8461-1db3bb0761ed","ios":"levelo://app?vid=0ad3bba1-4bc4-479c-8461-1db3bb0761ed"},"vehicle_type_id":"4","last_reported":1746076277,"current_range_meters":6000,"station_id":"ce4bgvp2rcd13ifvqcu0","pricing_plan_id":"cebpf4jnsgd1na2vs0mg"},{"bike_id":"4e3c6859-f214-4589-9cbd-7a616df62152","system_id":"levelo_inurba_marseille","lat":43.28262,"lon":5.35064,"is_reserved":false,"is_disabled":false,"rental_uris":{"android":"levelo://app?vid=4e3c6859-f214-4589-9cbd-7a616df62152","ios":"levelo://app?vid=4e3c6859-f214-4589-9cbd-7a616df62152"},"vehicle_type_id":"4","last_reported":1746076277,"current_range_meters":6000,"station_id":"ce4bhbp2rcd13ifvqerg","pricing_plan_id":"cebpf4jnsgd1na2vs0mg"},{"bike_id":"29004581-500e-4cc8-8d9f-f7ba87082b36","system_id":"levelo_inurba_marseille","lat":43.30819,"lon":5.38164,"is_reserved":false,"is_disabled":false,"rental_uris":{"android":"levelo://app?vid=29004581-500e-4cc8-8d9f-f7ba87082b36","ios":"levelo://app?vid=29004581-500e-4cc8-8d9f-f7ba87082b36"},"vehicle_type_id":"4","last_reported":1746076277,"current_range_meters":6000,"station_id":"ce4bgt12rcd13ifvqce0","pricing_plan_id":"cebpf4jnsgd1na2vs0mg"},{"bike_id":"fb3b8183-90cd-43f4-8e49-d95b7778732d","system_id":"levelo_inurba_marseille","lat":43.25611,"lon":5.40532,"is_reserved":false,"is_disabled":false,"rental_uris":{"android":"levelo://app?vid=fb3b8183-90cd-43f4-8e49-d95b7778732d","ios":"levelo://app?vid=fb3b8183-90cd-43f4-8e49-d95b7778732d"},"vehicle_type_id":"4","last_reported":1746076277,"current_range_meters":6400,"station_id":"","pricing_plan_id":"cebpf4jnsgd1na2vs0mg"},{"bike_id":"2f3b16e5-1506-48f4-8507-b6d411b6bed5","system_id":"levelo_inurba_marseille","lat":43.25731,"lon":5.41098,"is_reserved":false,"is_disabled":false,"rental_uris":{"android":"levelo://app?vid=2f3b16e5-1506-48f4-8507-b6d411b6bed5","ios":"levelo://app?vid=2f3b16e5-1506-48f4-8507-b6d411b6bed5"},"vehicle_type_id":"4","last_reported":1746076277,"current_range_meters":6400,"station_id":"ce4bhkp2rcd13ifvqgd0","pricing_plan_id":"cebpf4jnsgd1na2vs0mg"},{"bike_id":"7ee2ace5-c6dc-4bee-b035-d906a4f23f16","system_id":"levelo_inurba_marseille","lat":43.30429,"lon":5.38911,"is_reserved":false,"is_disabled":false,"rental_uris":{"android":"levelo://app?vid=7ee2ace5-c6dc-4bee-b035-d906a4f23f16","ios":"levelo://app?vid=7ee2ace5-c6dc-4bee-b035-d906a4f23f16"},"vehicle_type_id":"4","last_reported":1746076277,"current_range_meters":6000,"station_id":"ce4bgk12rcd13ifvqbi0","pricing_plan_id":"cebpf4jnsgd1na2vs0mg"},{"bike_id":"00d6f668-ccb9-47ae-b8ce-c39b1f313b6e","system_id":"levelo_inurba_marseille","lat":43.29333,"lon":5.37179,"is_reserved":false,"is_disabled":true,"rental_uris":{"android":"levelo://app?vid=00d6f668-ccb9-47ae-b8ce-c39b1f313b6e","ios":"levelo://app?vid=00d6f668-ccb9-47ae-b8ce-c39b1f313b6e"},"vehicle_type_id":"4","last_reported":1746076277,"current_range_meters":6400,"station_id":"ce4bgh92rcd13ifvqb40","pricing_plan_id":"cebpf4jnsgd1na2vs0mg"},{"bike_id":"38888685-ecee-457f-b7f2-6a456f769de8","system_id":"levelo_inurba_marseille","lat":43.32344,"lon":5.38888,"is_reserved":false,"is_disabled":false,"rental_uris":{"android":"levelo://app?vid=38888685-ecee-457f-b7f2-6a456f769de8","ios":"levelo://app?vid=38888685-ecee-457f-b7f2-6a456f769de8"},"vehicle_type_id":"4","last_reported":1746076277,"current_range_meters":6800,"station_id":"ce4bhqp2rcd13ifvqhog","pricing_plan_id":"cebpf4jnsgd1na2vs0mg"},{"bike_id":"2806b558-e7ec-472b-9609-45e5c29e99f3","system_id":"levelo_inurba_marseille","lat":43.28776,"lon":5.377,"is_reserved":false,"is_disabled":false,"rental_uris":{"android":"levelo://app?vid=2806b558-e7ec-472b-9609-45e5c29e99f3","ios":"levelo://app?vid=2806b558-e7ec-472b-9609-45e5c29e99f3"},"vehicle_type_id":"4","last_reported":1746076277,"current_range_meters":6800,"station_id":"","pricing_plan_id":"cebpf4jnsgd1na2vs0mg"},{"bike_id":"af45928f-99f5-4c10-8488-a1690bf972d2","system_id":"levelo_inurba_marseille","lat":43.294416,"lon":5.397696,"is_reserved":false,"is_disabled":true,"rental_uris":{"android":"levelo://app?vid=af45928f-99f5-4c10-8488-a1690bf972d2","ios":"levelo://app?vid=af45928f-99f5-4c10-8488-a1690bf972d2"},"vehicle_type_id":"4","last_reported":1746076277,"current_range_meters":6800,"station_id":"ce4bh3h2rcd13ifvqdo0","pricing_plan_id":"cebpf4jnsgd1na2vs0mg"},{"bike_id":"6f9efe46-94a4-44a8-924b-b257b20fbbb9","system_id":"levelo_inurba_marseille","lat":43.30644,"lon":5.40089,"is_reserved":false,"is_disabled":false,"rental_uris":{"android":"levelo://app?vid=6f9efe46-94a4-44a8-924b-b257b20fbbb9","ios":"levelo://app?vid=6f9efe46-94a4-44a8-924b-b257b20fbbb9"},"vehicle_type_id":"4","last_reported":1746076277,"current_range_meters":6800,"station_id":"ce4bh112rcd13ifvqda0","pricing_plan_id":"cebpf4jnsgd1na2vs0mg"},{"bike_id":"9965e496-e128-48a0-9487-d7af7b498698","system_id":"levelo_inurba_marseille","lat":43.29228,"lon":5.39314,"is_reserved":false,"is_disabled":true,"rental_uris":{"android":"levelo://app?vid=9965e496-e128-48a0-9487-d7af7b498698","ios":"levelo://app?vid=9965e496-e128-48a0-9487-d7af7b498698"},"vehicle_type_id":"4","last_reported":1746076277,"current_range_meters":6800,"station_id":"ce4bh192rcd13ifvqdd0","pricing_plan_id":"cebpf4jnsgd1na2vs0mg"},{"bike_id":"4441e734-dc78-4371-80f0-82ca88aaf54d","system_id":"levelo_inurba_marseille","lat":43.304723,"lon":5.379058,"is_reserved":false,"is_disabled":false,"rental_uris":{"android":"levelo://app?vid=4441e734-dc78-4371-80f0-82ca88aaf54d","ios":"levelo://app?vid=4441e734-dc78-4371-80f0-82ca88aaf54d"},"vehicle_type_id":"4","last_reported":1746076277,"current_range_meters":6800,"station_id":"ce4bgup2rcd13ifvqcn0","pricing_plan_id":"cebpf4jnsgd1na2vs0mg"},{"bike_id":"8fe0cc0b-a043-4280-a5e4-0783063c5830","system_id":"levelo_inurba_marseille","lat":43.31754,"lon":5.39023,"is_reserved":false,"is_disabled":false,"rental_uris":{"android":"levelo://app?vid=8fe0cc0b-a043-4280-a5e4-0783063c5830","ios":"levelo://app?vid=8fe0cc0b-a043-4280-a5e4-0783063c5830"},"vehicle_type_id":"4","last_reported":1746076277,"current_range_meters":6800,"station_id":"ce4bhqp2rcd13ifvqhng","pricing_plan_id":"cebpf4jnsgd1na2vs0mg"},{"bike_id":"946b2669-01f4-4d30-8e9f-8be8aa4b8038","system_id":"levelo_inurba_marseille","lat":43.30648,"lon":5.40088,"is_reserved":false,"is_disabled":false,"rental_uris":{"android":"levelo://app?vid=946b2669-01f4-4d30-8e9f-8be8aa4b8038","ios":"levelo://app?vid=946b2669-01f4-4d30-8e9f-8be8aa4b8038"},"vehicle_type_id":"4","last_reported":1746076277,"current_range_meters":6800,"station_id":"ce4bh112rcd13ifvqda0","pricing_plan_id":"cebpf4jnsgd1na2vs0mg"},{"bike_id":"76a9cd10-fdd4-4a05-acce-121be760d6db","system_id":"levelo_inurba_marseille","lat":43.2735,"lon":5.39112,"is_reserved":false,"is_disabled":true,"rental_uris":{"android":"levelo://app?vid=76a9cd10-fdd4-4a05-acce-121be760d6db","ios":"levelo://app?vid=76a9cd10-fdd4-4a05-acce-121be760d6db"},"vehicle_type_id":"4","last_reported":1746076277,"current_range_meters":6800,"station_id":"ce4bhgp2rcd13ifvqfe0","pricing_plan_id":"cebpf4jnsgd1na2vs0mg"},{"bike_id":"5824506f-80f6-4578-b8d9-963493773cb7","system_id":"levelo_inurba_marseille","lat":43.25737,"lon":5.41107,"is_reserved":false,"is_disabled":false,"rental_uris":{"android":"levelo://app?vid=5824506f-80f6-4578-b8d9-963493773cb7","ios":"levelo://app?vid=5824506f-80f6-4578-b8d9-963493773cb7"},"vehicle_type_id":"4","last_reported":1746076277,"current_range_meters":7200,"station_id":"ce4bhkp2rcd13ifvqgd0","pricing_plan_id":"cebpf4jnsgd1na2vs0mg"},{"bike_id":"489415b8-9254-45c1-b00c-e7554d56755c","system_id":"levelo_inurba_marseille","lat":43.245191,"lon":5.412155,"is_reserved":false,"is_disabled":false,"rental_uris":{"android":"levelo://app?vid=489415b8-9254-45c1-b00c-e7554d56755c","ios":"levelo://app?vid=489415b8-9254-45c1-b00c-e7554d56755c"},"vehicle_type_id":"4","last_reported":1746076277,"current_range_meters":7200,"station_id":"","pricing_plan_id":"cebpf4jnsgd1na2vs0mg"},{"bike_id":"4b51bf4a-e2aa-4cf3-aa98-e0d6af6f3d12","system_id":"levelo_inurba_marseille","lat":43.29536,"lon":5.37513,"is_reserved":false,"is_disabled":false,"rental_uris":{"android":"levelo://app?vid=4b51bf4a-e2aa-4cf3-aa98-e0d6af6f3d12","ios":"levelo://app?vid=4b51bf4a-e2aa-4cf3-aa98-e0d6af6f3d12"},"vehicle_type_id":"4","last_reported":1746076277,"current_range_meters":7200,"station_id":"ce4bgkp2rcd13ifvqbmg","pricing_plan_id":"cebpf4jnsgd1na2vs0mg"},{"bike_id":"be72c957-5086-45b5-b164-09f800df4fff","system_id":"levelo_inurba_marseille","lat":43.267916,"lon":5.402738,"is_reserved":false,"is_disabled":false,"rental_uris":{"android":"levelo://app?vid=be72c957-5086-45b5-b164-09f800df4fff","ios":"levelo://app?vid=be72c957-5086-45b5-b164-09f800df4fff"},"vehicle_type_id":"4","last_reported":1746076277,"current_range_meters":7200,"station_id":"ce501612rcd8frsf0b60","pricing_plan_id":"cebpf4jnsgd1na2vs0mg"},{"bike_id":"c4df782d-c1f5-4d8f-9d6a-dce65b2d2735","system_id":"levelo_inurba_marseille","lat":43.30805,"lon":5.38152,"is_reserved":false,"is_disabled":false,"rental_uris":{"android":"levelo://app?vid=c4df782d-c1f5-4d8f-9d6a-dce65b2d2735","ios":"levelo://app?vid=c4df782d-c1f5-4d8f-9d6a-dce65b2d2735"},"vehicle_type_id":"4","last_reported":1746076277,"current_range_meters":7200,"station_id":"ce4bgt12rcd13ifvqce0","pricing_plan_id":"cebpf4jnsgd1na2vs0mg"},{"bike_id":"07edfd45-c3fa-4b57-b865-cf1bf9963264","system_id":"levelo_inurba_marseille","lat":43.233892,"lon":5.364251,"is_reserved":false,"is_disabled":false,"rental_uris":{"android":"levelo://app?vid=07edfd45-c3fa-4b57-b865-cf1bf9963264","ios":"levelo://app?vid=07edfd45-c3fa-4b57-b865-cf1bf9963264"},"vehicle_type_id":"4","last_reported":1746076277,"current_range_meters":7200,"station_id":"","pricing_plan_id":"cebpf4jnsgd1na2vs0mg"},{"bike_id":"a15c0eb7-aafe-4062-a243-640408d7b8d9","system_id":"levelo_inurba_marseille","lat":43.30435,"lon":5.41286,"is_reserved":false,"is_disabled":false,"rental_uris":{"android":"levelo://app?vid=a15c0eb7-aafe-4062-a243-640408d7b8d9","ios":"levelo://app?vid=a15c0eb7-aafe-4062-a243-640408d7b8d9"},"vehicle_type_id":"4","last_reported":1746076277,"current_range_meters":7200,"station_id":"ce4bhop2rcd13ifvqh8g","pricing_plan_id":"cebpf4jnsgd1na2vs0mg"},{"bike_id":"1017aff5-1f73-4103-b379-a20915353f27","system_id":"levelo_inurba_marseille","lat":43.2511,"lon":5.4033,"is_reserved":false,"is_disabled":false,"rental_uris":{"android":"levelo://app?vid=1017aff5-1f73-4103-b379-a20915353f27","ios":"levelo://app?vid=1017aff5-1f73-4103-b379-a20915353f27"},"vehicle_type_id":"4","last_reported":1746076277,"current_range_meters":7200,"station_id":"ce4bhlh2rcd13ifvqgig","pricing_plan_id":"cebpf4jnsgd1na2vs0mg"},{"bike_id":"06d4aaca-eadb-4fef-91cf-7d39ca5b048c","system_id":"levelo_inurba_marseille","lat":43.32358,"lon":5.40595,"is_reserved":false,"is_disabled":false,"rental_uris":{"android":"levelo://app?vid=06d4aaca-eadb-4fef-91cf-7d39ca5b048c","ios":"levelo://app?vid=06d4aaca-eadb-4fef-91cf-7d39ca5b048c"},"vehicle_type_id":"4","last_reported":1746076277,"current_range_meters":7200,"station_id":"ce4bhq92rcd13ifvqhjg","pricing_plan_id":"cebpf4jnsgd1na2vs0mg"},{"bike_id":"c89af82b-d8de-4524-ac1f-cc5e38330d5b","system_id":"levelo_inurba_marseille","lat":43.324705,"lon":5.365812,"is_reserved":false,"is_disabled":false,"rental_uris":{"android":"levelo://app?vid=c89af82b-d8de-4524-ac1f-cc5e38330d5b","ios":"levelo://app?vid=c89af82b-d8de-4524-ac1f-cc5e38330d5b"},"vehicle_type_id":"4","last_reported":1746076277,"current_range_meters":8000,"station_id":"ce4bhs12rcd13ifvqhvg","pricing_plan_id":"cebpf4jnsgd1na2vs0mg"},{"bike_id":"05bc1beb-7322-4b6e-ac33-cb496e469d14","system_id":"levelo_inurba_marseille","lat":43.298731,"lon":5.397289,"is_reserved":false,"is_disabled":false,"rental_uris":{"android":"levelo://app?vid=05bc1beb-7322-4b6e-ac33-cb496e469d14","ios":"levelo://app?vid=05bc1beb-7322-4b6e-ac33-cb496e469d14"},"vehicle_type_id":"4","last_reported":1746076277,"current_range_meters":8000,"station_id":"ce4bh0h2rcd13ifvqd50","pricing_plan_id":"cebpf4jnsgd1na2vs0mg"},{"bike_id":"ab6cc9c9-69c8-48cc-bcbd-c9541d1c7966","system_id":"levelo_inurba_marseille","lat":43.29742,"lon":5.40167,"is_reserved":false,"is_disabled":false,"rental_uris":{"android":"levelo://app?vid=ab6cc9c9-69c8-48cc-bcbd-c9541d1c7966","ios":"levelo://app?vid=ab6cc9c9-69c8-48cc-bcbd-c9541d1c7966"},"vehicle_type_id":"4","last_reported":1746076277,"current_range_meters":8000,"station_id":"","pricing_plan_id":"cebpf4jnsgd1na2vs0mg"},{"bike_id":"7d981a24-ab9c-4d5b-b5fc-9f4e27dadc31","system_id":"levelo_inurba_marseille","lat":43.31718,"lon":5.40459,"is_reserved":false,"is_disabled":false,"rental_uris":{"android":"levelo://app?vid=7d981a24-ab9c-4d5b-b5fc-9f4e27dadc31","ios":"levelo://app?vid=7d981a24-ab9c-4d5b-b5fc-9f4e27dadc31"},"vehicle_type_id":"4","last_reported":1746076277,"current_range_meters":8000,"station_id":"ce4bh012rcd13ifvqd00","pricing_plan_id":"cebpf4jnsgd1na2vs0mg"},{"bike_id":"1835c88b-b018-42ea-b2b4-39a1410757b0","system_id":"levelo_inurba_marseille","lat":43.29041,"lon":5.37588,"is_reserved":false,"is_disabled":false,"rental_uris":{"android":"levelo://app?vid=1835c88b-b018-42ea-b2b4-39a1410757b0","ios":"levelo://app?vid=1835c88b-b018-42ea-b2b4-39a1410757b0"},"vehicle_type_id":"4","last_reported":1746076277,"current_range_meters":8000,"station_id":"ce4bh692rcd13ifvqe90","pricing_plan_id":"cebpf4jnsgd1na2vs0mg"},{"bike_id":"bece85b8-2770-4432-b8be-fedbf1f86cec","system_id":"levelo_inurba_marseille","lat":43.28701,"lon":5.39984,"is_reserved":false,"is_disabled":false,"rental_uris":{"android":"levelo://app?vid=bece85b8-2770-4432-b8be-fedbf1f86cec","ios":"levelo://app?vid=bece85b8-2770-4432-b8be-fedbf1f86cec"},"vehicle_type_id":"4","last_reported":1746076277,"current_range_meters":8000,"station_id":"ce4bho92rcd13ifvqh3g","pricing_plan_id":"cebpf4jnsgd1na2vs0mg"},{"bike_id":"06d2d3c8-9fc9-4d69-a070-0ce5daa9cb28","system_id":"levelo_inurba_marseille","lat":43.26953,"lon":5.4032,"is_reserved":false,"is_disabled":true,"rental_uris":{"android":"levelo://app?vid=06d2d3c8-9fc9-4d69-a070-0ce5daa9cb28","ios":"levelo://app?vid=06d2d3c8-9fc9-4d69-a070-0ce5daa9cb28"},"vehicle_type_id":"4","last_reported":1746076277,"current_range_meters":8000,"station_id":"cjm6bp8fraef2m0cb0m0","pricing_plan_id":"cebpf4jnsgd1na2vs0mg"},{"bike_id":"7bca0793-1176-4b81-940e-92a4b7af9ae5","system_id":"levelo_inurba_marseille","lat":43.280811,"lon":5.396571,"is_reserved":false,"is_disabled":false,"rental_uris":{"android":"levelo://app?vid=7bca0793-1176-4b81-940e-92a4b7af9ae5","ios":"levelo://app?vid=7bca0793-1176-4b81-940e-92a4b7af9ae5"},"vehicle_type_id":"4","last_reported":1746076277,"current_range_meters":8000,"station_id":"ce4bho12rcd13ifvqh2g","pricing_plan_id":"cebpf4jnsgd1na2vs0mg"},{"bike_id":"605a12db-4145-42a5-877a-b4a375a7cf38","system_id":"levelo_inurba_marseille","lat":43.31698,"lon":5.40463,"is_reserved":false,"is_disabled":false,"rental_uris":{"android":"levelo://app?vid=605a12db-4145-42a5-877a-b4a375a7cf38","ios":"levelo://app?vid=605a12db-4145-42a5-877a-b4a375a7cf38"},"vehicle_type_id":"4","last_reported":1746076277,"current_range_meters":8000,"station_id":"ce4bh012rcd13ifvqd00","pricing_plan_id":"cebpf4jnsgd1na2vs0mg"},{"bike_id":"bcfca232-e37d-4b20-84a4-30ed88596c85","system_id":"levelo_inurba_marseille","lat":43.29891,"lon":5.39752,"is_reserved":false,"is_disabled":false,"rental_uris":{"android":"levelo://app?vid=bcfca232-e37d-4b20-84a4-30ed88596c85","ios":"levelo://app?vid=bcfca232-e37d-4b20-84a4-30ed88596c85"},"vehicle_type_id":"4","last_reported":1746076277,"current_range_meters":8000,"station_id":"ce4bh0h2rcd13ifvqd50","pricing_plan_id":"cebpf4jnsgd1na2vs0mg"},{"bike_id":"306fca60-4da8-4cfc-8533-1d1bffc14093","system_id":"levelo_inurba_marseille","lat":43.308876,"lon":5.396787,"is_reserved":false,"is_disabled":false,"rental_uris":{"android":"levelo://app?vid=306fca60-4da8-4cfc-8533-1d1bffc14093","ios":"levelo://app?vid=306fca60-4da8-4cfc-8533-1d1bffc14093"},"vehicle_type_id":"4","last_reported":1746076277,"current_range_meters":8000,"station_id":"ce4bh012rcd13ifvqcv0","pricing_plan_id":"cebpf4jnsgd1na2vs0mg"},{"bike_id":"24fe4670-2cfb-49d4-a3ec-2dd67a898c28","system_id":"levelo_inurba_marseille","lat":43.25725,"lon":5.41118,"is_reserved":false,"is_disabled":false,"rental_uris":{"android":"levelo://app?vid=24fe4670-2cfb-49d4-a3ec-2dd67a898c28","ios":"levelo://app?vid=24fe4670-2cfb-49d4-a3ec-2dd67a898c28"},"vehicle_type_id":"4","last_reported":1746076277,"current_range_meters":8000,"station_id":"ce4bhkp2rcd13ifvqgd0","pricing_plan_id":"cebpf4jnsgd1na2vs0mg"},{"bike_id":"9f359211-8ebc-4789-9534-b541630d091b","system_id":"levelo_inurba_marseille","lat":43.27414,"lon":5.3943,"is_reserved":false,"is_disabled":false,"rental_uris":{"android":"levelo://app?vid=9f359211-8ebc-4789-9534-b541630d091b","ios":"levelo://app?vid=9f359211-8ebc-4789-9534-b541630d091b"},"vehicle_type_id":"4","last_reported":1746076277,"current_range_meters":8400,"station_id":"ce4bhdp2rcd13ifvqf20","pricing_plan_id":"cebpf4jnsgd1na2vs0mg"},{"bike_id":"9302c8f6-2254-4b52-bb8b-c5acfff44a93","system_id":"levelo_inurba_marseille","lat":43.29955,"lon":5.37021,"is_reserved":false,"is_disabled":false,"rental_uris":{"android":"levelo://app?vid=9302c8f6-2254-4b52-bb8b-c5acfff44a93","ios":"levelo://app?vid=9302c8f6-2254-4b52-bb8b-c5acfff44a93"},"vehicle_type_id":"4","last_reported":1746076277,"current_range_meters":8400,"station_id":"","pricing_plan_id":"cebpf4jnsgd1na2vs0mg"},{"bike_id":"c2359eb2-9d58-4285-8df1-ee95701995ba","system_id":"levelo_inurba_marseille","lat":43.31478,"lon":5.37305,"is_reserved":false,"is_disabled":false,"rental_uris":{"android":"levelo://app?vid=c2359eb2-9d58-4285-8df1-ee95701995ba","ios":"levelo://app?vid=c2359eb2-9d58-4285-8df1-ee95701995ba"},"vehicle_type_id":"4","last_reported":1746076277,"current_range_meters":8400,"station_id":"ce4bgt12rcd13ifvqcd0","pricing_plan_id":"cebpf4jnsgd1na2vs0mg"},{"bike_id":"21cb5785-6ae9-4cbc-800b-5b27fca2d337","system_id":"levelo_inurba_marseille","lat":43.30889,"lon":5.3963,"is_reserved":false,"is_disabled":false,"rental_uris":{"android":"levelo://app?vid=21cb5785-6ae9-4cbc-800b-5b27fca2d337","ios":"levelo://app?vid=21cb5785-6ae9-4cbc-800b-5b27fca2d337"},"vehicle_type_id":"4","last_reported":1746076277,"current_range_meters":8800,"station_id":"ce4bh012rcd13ifvqcv0","pricing_plan_id":"cebpf4jnsgd1na2vs0mg"},{"bike_id":"94c67595-7de3-4443-ab76-ab1b2a1e805b","system_id":"levelo_inurba_marseille","lat":43.28408,"lon":5.37521,"is_reserved":false,"is_disabled":false,"rental_uris":{"android":"levelo://app?vid=94c67595-7de3-4443-ab76-ab1b2a1e805b","ios":"levelo://app?vid=94c67595-7de3-4443-ab76-ab1b2a1e805b"},"vehicle_type_id":"4","last_reported":1746076277,"current_range_meters":8800,"station_id":"ce4bh412rcd13ifvqds0","pricing_plan_id":"cebpf4jnsgd1na2vs0mg"},{"bike_id":"8a08109b-abba-4662-b984-893ba2719fa3","system_id":"levelo_inurba_marseille","lat":43.24667,"lon":5.38154,"is_reserved":false,"is_disabled":false,"rental_uris":{"android":"levelo://app?vid=8a08109b-abba-4662-b984-893ba2719fa3","ios":"levelo://app?vid=8a08109b-abba-4662-b984-893ba2719fa3"},"vehicle_type_id":"4","last_reported":1746076277,"current_range_meters":8800,"station_id":"ce4bhih2rcd13ifvqfr0","pricing_plan_id":"cebpf4jnsgd1na2vs0mg"},{"bike_id":"b35319f1-b87e-4db8-ab3a-f11a22b07a4b","system_id":"levelo_inurba_marseille","lat":43.246689,"lon":5.381523,"is_reserved":false,"is_disabled":true,"rental_uris":{"android":"levelo://app?vid=b35319f1-b87e-4db8-ab3a-f11a22b07a4b","ios":"levelo://app?vid=b35319f1-b87e-4db8-ab3a-f11a22b07a4b"},"vehicle_type_id":"4","last_reported":1746076277,"current_range_meters":8800,"station_id":"ce4bhih2rcd13ifvqfr0","pricing_plan_id":"cebpf4jnsgd1na2vs0mg"},{"bike_id":"dfc94822-a1b6-48c6-802a-ca3521f0f26c","system_id":"levelo_inurba_marseille","lat":43.26579,"lon":5.39039,"is_reserved":false,"is_disabled":false,"rental_uris":{"android":"levelo://app?vid=dfc94822-a1b6-48c6-802a-ca3521f0f26c","ios":"levelo://app?vid=dfc94822-a1b6-48c6-802a-ca3521f0f26c"},"vehicle_type_id":"4","last_reported":1746076277,"current_range_meters":8800,"station_id":"ce4bhe12rcd13ifvqf30","pricing_plan_id":"cebpf4jnsgd1na2vs0mg"},{"bike_id":"c2822950-d0b4-4023-8870-6743aa9d2122","system_id":"levelo_inurba_marseille","lat":43.267762,"lon":5.394504,"is_reserved":false,"is_disabled":false,"rental_uris":{"android":"levelo://app?vid=c2822950-d0b4-4023-8870-6743aa9d2122","ios":"levelo://app?vid=c2822950-d0b4-4023-8870-6743aa9d2122"},"vehicle_type_id":"4","last_reported":1746076277,"current_range_meters":8800,"station_id":"ce4bhh12rcd13ifvqfg0","pricing_plan_id":"cebpf4jnsgd1na2vs0mg"},{"bike_id":"7f770ba9-2e48-47c9-8bb4-942855273bad","system_id":"levelo_inurba_marseille","lat":43.25432,"lon":5.42405,"is_reserved":false,"is_disabled":false,"rental_uris":{"android":"levelo://app?vid=7f770ba9-2e48-47c9-8bb4-942855273bad","ios":"levelo://app?vid=7f770ba9-2e48-47c9-8bb4-942855273bad"},"vehicle_type_id":"4","last_reported":1746076277,"current_range_meters":8800,"station_id":"","pricing_plan_id":"cebpf4jnsgd1na2vs0mg"},{"bike_id":"b0826034-18a6-444b-826a-5945b8aeb1bd","system_id":"levelo_inurba_marseille","lat":43.30147,"lon":5.38098,"is_reserved":false,"is_disabled":false,"rental_uris":{"android":"levelo://app?vid=b0826034-18a6-444b-826a-5945b8aeb1bd","ios":"levelo://app?vid=b0826034-18a6-444b-826a-5945b8aeb1bd"},"vehicle_type_id":"4","last_reported":1746076277,"current_range_meters":8400,"station_id":"ce4bgjp2rcd13ifvqbh0","pricing_plan_id":"cebpf4jnsgd1na2vs0mg"},{"bike_id":"cb799d30-a786-4212-8461-e5560b5b16ef","system_id":"levelo_inurba_marseille","lat":43.320857,"lon":5.440846,"is_reserved":false,"is_disabled":false,"rental_uris":{"android":"levelo://app?vid=cb799d30-a786-4212-8461-e5560b5b16ef","ios":"levelo://app?vid=cb799d30-a786-4212-8461-e5560b5b16ef"},"vehicle_type_id":"4","last_reported":1746076277,"current_range_meters":8800,"station_id":"","pricing_plan_id":"cebpf4jnsgd1na2vs0mg"},{"bike_id":"81e05ebe-9199-4b84-be27-50b827829ce3","system_id":"levelo_inurba_marseille","lat":43.28404,"lon":5.37525,"is_reserved":false,"is_disabled":false,"rental_uris":{"android":"levelo://app?vid=81e05ebe-9199-4b84-be27-50b827829ce3","ios":"levelo://app?vid=81e05ebe-9199-4b84-be27-50b827829ce3"},"vehicle_type_id":"4","last_reported":1746076277,"current_range_meters":8800,"station_id":"ce4bh412rcd13ifvqds0","pricing_plan_id":"cebpf4jnsgd1na2vs0mg"},{"bike_id":"4ff0db05-be29-471d-80d9-4fc345b5a0ff","system_id":"levelo_inurba_marseille","lat":43.30655,"lon":5.40105,"is_reserved":false,"is_disabled":false,"rental_uris":{"android":"levelo://app?vid=4ff0db05-be29-471d-80d9-4fc345b5a0ff","ios":"levelo://app?vid=4ff0db05-be29-471d-80d9-4fc345b5a0ff"},"vehicle_type_id":"4","last_reported":1746076277,"current_range_meters":9200,"station_id":"ce4bh112rcd13ifvqda0","pricing_plan_id":"cebpf4jnsgd1na2vs0mg"},{"bike_id":"afb3d955-a6d0-4e5a-acd8-3c4556dfba0a","system_id":"levelo_inurba_marseille","lat":43.28917,"lon":5.36872,"is_reserved":false,"is_disabled":false,"rental_uris":{"android":"levelo://app?vid=afb3d955-a6d0-4e5a-acd8-3c4556dfba0a","ios":"levelo://app?vid=afb3d955-a6d0-4e5a-acd8-3c4556dfba0a"},"vehicle_type_id":"4","last_reported":1746076277,"current_range_meters":9200,"station_id":"","pricing_plan_id":"cebpf4jnsgd1na2vs0mg"},{"bike_id":"f31bf073-e687-4787-90ee-691c464f7f3e","system_id":"levelo_inurba_marseille","lat":43.25722,"lon":5.41114,"is_reserved":false,"is_disabled":false,"rental_uris":{"android":"levelo://app?vid=f31bf073-e687-4787-90ee-691c464f7f3e","ios":"levelo://app?vid=f31bf073-e687-4787-90ee-691c464f7f3e"},"vehicle_type_id":"4","last_reported":1746076277,"current_range_meters":9200,"station_id":"ce4bhkp2rcd13ifvqgd0","pricing_plan_id":"cebpf4jnsgd1na2vs0mg"},{"bike_id":"7924b638-6bb2-4d04-8752-d92a7a4ba43a","system_id":"levelo_inurba_marseille","lat":43.24171,"lon":5.39737,"is_reserved":false,"is_disabled":false,"rental_uris":{"android":"levelo://app?vid=7924b638-6bb2-4d04-8752-d92a7a4ba43a","ios":"levelo://app?vid=7924b638-6bb2-4d04-8752-d92a7a4ba43a"},"vehicle_type_id":"4","last_reported":1746076277,"current_range_meters":9200,"station_id":"ce4bhn12rcd13ifvqgpg","pricing_plan_id":"cebpf4jnsgd1na2vs0mg"},{"bike_id":"912c7719-28e0-48e1-8454-fa465c703922","system_id":"levelo_inurba_marseille","lat":43.29498,"lon":5.37391,"is_reserved":false,"is_disabled":false,"rental_uris":{"android":"levelo://app?vid=912c7719-28e0-48e1-8454-fa465c703922","ios":"levelo://app?vid=912c7719-28e0-48e1-8454-fa465c703922"},"vehicle_type_id":"4","last_reported":1746076277,"current_range_meters":9200,"station_id":"","pricing_plan_id":"cebpf4jnsgd1na2vs0mg"},{"bike_id":"405fa080-f811-46f3-8582-d87d58738f3b","system_id":"levelo_inurba_marseille","lat":43.257158,"lon":5.418147,"is_reserved":false,"is_disabled":false,"rental_uris":{"android":"levelo://app?vid=405fa080-f811-46f3-8582-d87d58738f3b","ios":"levelo://app?vid=405fa080-f811-46f3-8582-d87d58738f3b"},"vehicle_type_id":"4","last_reported":1746076277,"current_range_meters":9200,"station_id":"","pricing_plan_id":"cebpf4jnsgd1na2vs0mg"},{"bike_id":"8261973d-7fd9-4c15-8fb8-294a251b0456","system_id":"levelo_inurba_marseille","lat":43.29216,"lon":5.38598,"is_reserved":false,"is_disabled":false,"rental_uris":{"android":"levelo://app?vid=8261973d-7fd9-4c15-8fb8-294a251b0456","ios":"levelo://app?vid=8261973d-7fd9-4c15-8fb8-294a251b0456"},"vehicle_type_id":"4","last_reported":1746076277,"current_range_meters":9200,"station_id":"","pricing_plan_id":"cebpf4jnsgd1na2vs0mg"},{"bike_id":"281f95ef-0e55-4a78-9d18-fa56583d1c72","system_id":"levelo_inurba_marseille","lat":43.28468,"lon":5.35916,"is_reserved":false,"is_disabled":false,"rental_uris":{"android":"levelo://app?vid=281f95ef-0e55-4a78-9d18-fa56583d1c72","ios":"levelo://app?vid=281f95ef-0e55-4a78-9d18-fa56583d1c72"},"vehicle_type_id":"4","last_reported":1746076277,"current_range_meters":9600,"station_id":"ce4bhah2rcd13ifvqei0","pricing_plan_id":"cebpf4jnsgd1na2vs0mg"},{"bike_id":"fa0013e1-384c-4a43-9dc8-c63fff3d2b7e","system_id":"levelo_inurba_marseille","lat":43.23186,"lon":5.39986,"is_reserved":false,"is_disabled":false,"rental_uris":{"android":"levelo://app?vid=fa0013e1-384c-4a43-9dc8-c63fff3d2b7e","ios":"levelo://app?vid=fa0013e1-384c-4a43-9dc8-c63fff3d2b7e"},"vehicle_type_id":"4","last_reported":1746076277,"current_range_meters":9600,"station_id":"ce4bhn12rcd13ifvqgqg","pricing_plan_id":"cebpf4jnsgd1na2vs0mg"},{"bike_id":"c1cbc237-cfab-474a-aa26-81a87506105a","system_id":"levelo_inurba_marseille","lat":43.21755,"lon":5.34611,"is_reserved":false,"is_disabled":false,"rental_uris":{"android":"levelo://app?vid=c1cbc237-cfab-474a-aa26-81a87506105a","ios":"levelo://app?vid=c1cbc237-cfab-474a-aa26-81a87506105a"},"vehicle_type_id":"4","last_reported":1746076277,"current_range_meters":9600,"station_id":"st_cvj6r9ubvosntc0bgbag","pricing_plan_id":"cebpf4jnsgd1na2vs0mg"},{"bike_id":"f77b66dc-df98-4767-bb4a-b3fb2fb7880b","system_id":"levelo_inurba_marseille","lat":43.298623,"lon":5.397396,"is_reserved":false,"is_disabled":false,"rental_uris":{"android":"levelo://app?vid=f77b66dc-df98-4767-bb4a-b3fb2fb7880b","ios":"levelo://app?vid=f77b66dc-df98-4767-bb4a-b3fb2fb7880b"},"vehicle_type_id":"4","last_reported":1746076277,"current_range_meters":9600,"station_id":"ce4bh0h2rcd13ifvqd50","pricing_plan_id":"cebpf4jnsgd1na2vs0mg"},{"bike_id":"e5e92a64-e709-4b1a-a9b1-cbffe85789ca","system_id":"levelo_inurba_marseille","lat":43.255417,"lon":5.381434,"is_reserved":false,"is_disabled":false,"rental_uris":{"android":"levelo://app?vid=e5e92a64-e709-4b1a-a9b1-cbffe85789ca","ios":"levelo://app?vid=e5e92a64-e709-4b1a-a9b1-cbffe85789ca"},"vehicle_type_id":"4","last_reported":1746076277,"current_range_meters":9600,"station_id":"","pricing_plan_id":"cebpf4jnsgd1na2vs0mg"},{"bike_id":"fca9dc8b-9c20-4eab-83ff-17d0ce9a6922","system_id":"levelo_inurba_marseille","lat":43.26041,"lon":5.41802,"is_reserved":false,"is_disabled":false,"rental_uris":{"android":"levelo://app?vid=fca9dc8b-9c20-4eab-83ff-17d0ce9a6922","ios":"levelo://app?vid=fca9dc8b-9c20-4eab-83ff-17d0ce9a6922"},"vehicle_type_id":"4","last_reported":1746076277,"current_range_meters":10000,"station_id":"","pricing_plan_id":"cebpf4jnsgd1na2vs0mg"},{"bike_id":"097d13a1-9558-4a72-b7ec-8017bd0f0a59","system_id":"levelo_inurba_marseille","lat":43.30646,"lon":5.40082,"is_reserved":false,"is_disabled":false,"rental_uris":{"android":"levelo://app?vid=097d13a1-9558-4a72-b7ec-8017bd0f0a59","ios":"levelo://app?vid=097d13a1-9558-4a72-b7ec-8017bd0f0a59"},"vehicle_type_id":"4","last_reported":1746076277,"current_range_meters":10000,"station_id":"ce4bh112rcd13ifvqda0","pricing_plan_id":"cebpf4jnsgd1na2vs0mg"},{"bike_id":"c5552acd-50fa-4b0d-95c7-8f6dc5626569","system_id":"levelo_inurba_marseille","lat":43.28083,"lon":5.39649,"is_reserved":false,"is_disabled":false,"rental_uris":{"android":"levelo://app?vid=c5552acd-50fa-4b0d-95c7-8f6dc5626569","ios":"levelo://app?vid=c5552acd-50fa-4b0d-95c7-8f6dc5626569"},"vehicle_type_id":"4","last_reported":1746076277,"current_range_meters":10000,"station_id":"ce4bho12rcd13ifvqh2g","pricing_plan_id":"cebpf4jnsgd1na2vs0mg"},{"bike_id":"77942475-b9df-43a6-af61-b22087b935d2","system_id":"levelo_inurba_marseille","lat":43.29196,"lon":5.38465,"is_reserved":false,"is_disabled":true,"rental_uris":{"android":"levelo://app?vid=77942475-b9df-43a6-af61-b22087b935d2","ios":"levelo://app?vid=77942475-b9df-43a6-af61-b22087b935d2"},"vehicle_type_id":"4","last_reported":1746076277,"current_range_meters":10000,"station_id":"","pricing_plan_id":"cebpf4jnsgd1na2vs0mg"},{"bike_id":"379b8933-bc6e-4164-9d36-daaf2941e50f","system_id":"levelo_inurba_marseille","lat":43.30767,"lon":5.37473,"is_reserved":false,"is_disabled":false,"rental_uris":{"android":"levelo://app?vid=379b8933-bc6e-4164-9d36-daaf2941e50f","ios":"levelo://app?vid=379b8933-bc6e-4164-9d36-daaf2941e50f"},"vehicle_type_id":"4","last_reported":1746076277,"current_range_meters":10000,"station_id":"","pricing_plan_id":"cebpf4jnsgd1na2vs0mg"},{"bike_id":"35a4ea1f-9b67-4442-86b4-c54579f8d259","system_id":"levelo_inurba_marseille","lat":43.30603,"lon":5.3723,"is_reserved":false,"is_disabled":false,"rental_uris":{"android":"levelo://app?vid=35a4ea1f-9b67-4442-86b4-c54579f8d259","ios":"levelo://app?vid=35a4ea1f-9b67-4442-86b4-c54579f8d259"},"vehicle_type_id":"4","last_reported":1746076277,"current_range_meters":10000,"station_id":"ce4bgqh2rcd13ifvqc4g","pricing_plan_id":"cebpf4jnsgd1na2vs0mg"},{"bike_id":"3ce5a6a0-7c75-4b93-962c-2dd6ababc3c9","system_id":"levelo_inurba_marseille","lat":43.22505,"lon":5.34783,"is_reserved":false,"is_disabled":false,"rental_uris":{"android":"levelo://app?vid=3ce5a6a0-7c75-4b93-962c-2dd6ababc3c9","ios":"levelo://app?vid=3ce5a6a0-7c75-4b93-962c-2dd6ababc3c9"},"vehicle_type_id":"4","last_reported":1746076277,"current_range_meters":10000,"station_id":"st_cvj5dfep6f1abm77gieg","pricing_plan_id":"cebpf4jnsgd1na2vs0mg"},{"bike_id":"a076933d-3a98-414c-b7e5-30c1a775a06f","system_id":"levelo_inurba_marseille","lat":43.31384,"lon":5.39089,"is_reserved":false,"is_disabled":false,"rental_uris":{"android":"levelo://app?vid=a076933d-3a98-414c-b7e5-30c1a775a06f","ios":"levelo://app?vid=a076933d-3a98-414c-b7e5-30c1a775a06f"},"vehicle_type_id":"4","last_reported":1746076277,"current_range_meters":10800,"station_id":"","pricing_plan_id":"cebpf4jnsgd1na2vs0mg"},{"bike_id":"7929f420-c4a9-46cb-a552-51417d44c0bd","system_id":"levelo_inurba_marseille","lat":43.298412,"lon":5.362639,"is_reserved":false,"is_disabled":false,"rental_uris":{"android":"levelo://app?vid=7929f420-c4a9-46cb-a552-51417d44c0bd","ios":"levelo://app?vid=7929f420-c4a9-46cb-a552-51417d44c0bd"},"vehicle_type_id":"4","last_reported":1746076277,"current_range_meters":10800,"station_id":"","pricing_plan_id":"cebpf4jnsgd1na2vs0mg"},{"bike_id":"df93e2e5-6077-4d47-ac12-eb3362d865a5","system_id":"levelo_inurba_marseille","lat":43.28403,"lon":5.37523,"is_reserved":false,"is_disabled":false,"rental_uris":{"android":"levelo://app?vid=df93e2e5-6077-4d47-ac12-eb3362d865a5","ios":"levelo://app?vid=df93e2e5-6077-4d47-ac12-eb3362d865a5"},"vehicle_type_id":"4","last_reported":1746076277,"current_range_meters":10800,"station_id":"ce4bh412rcd13ifvqds0","pricing_plan_id":"cebpf4jnsgd1na2vs0mg"},{"bike_id":"c326b9f7-c1e6-44d5-a0fe-0e3f0a410abd","system_id":"levelo_inurba_marseille","lat":43.27551,"lon":5.38429,"is_reserved":false,"is_disabled":false,"rental_uris":{"android":"levelo://app?vid=c326b9f7-c1e6-44d5-a0fe-0e3f0a410abd","ios":"levelo://app?vid=c326b9f7-c1e6-44d5-a0fe-0e3f0a410abd"},"vehicle_type_id":"4","last_reported":1746076277,"current_range_meters":10800,"station_id":"ce4bhh92rcd13ifvqfi0","pricing_plan_id":"cebpf4jnsgd1na2vs0mg"},{"bike_id":"58ea75ac-ba33-486d-953a-cfa6f13eb988","system_id":"levelo_inurba_marseille","lat":43.28394,"lon":5.37526,"is_reserved":false,"is_disabled":false,"rental_uris":{"android":"levelo://app?vid=58ea75ac-ba33-486d-953a-cfa6f13eb988","ios":"levelo://app?vid=58ea75ac-ba33-486d-953a-cfa6f13eb988"},"vehicle_type_id":"4","last_reported":1746076277,"current_range_meters":10800,"station_id":"ce4bh412rcd13ifvqds0","pricing_plan_id":"cebpf4jnsgd1na2vs0mg"},{"bike_id":"f42eda28-9fde-4d5b-8620-08d7e10a74c2","system_id":"levelo_inurba_marseille","lat":43.30931,"lon":5.40169,"is_reserved":false,"is_disabled":false,"rental_uris":{"android":"levelo://app?vid=f42eda28-9fde-4d5b-8620-08d7e10a74c2","ios":"levelo://app?vid=f42eda28-9fde-4d5b-8620-08d7e10a74c2"},"vehicle_type_id":"4","last_reported":1746076277,"current_range_meters":10800,"station_id":"ce4bgvp2rcd13ifvqct0","pricing_plan_id":"cebpf4jnsgd1na2vs0mg"},{"bike_id":"d08fe425-042c-4938-b862-c3dc2ac034aa","system_id":"levelo_inurba_marseille","lat":43.32369,"lon":5.389,"is_reserved":false,"is_disabled":false,"rental_uris":{"android":"levelo://app?vid=d08fe425-042c-4938-b862-c3dc2ac034aa","ios":"levelo://app?vid=d08fe425-042c-4938-b862-c3dc2ac034aa"},"vehicle_type_id":"4","last_reported":1746076277,"current_range_meters":10800,"station_id":"ce4bhqp2rcd13ifvqhog","pricing_plan_id":"cebpf4jnsgd1na2vs0mg"},{"bike_id":"42979274-76ae-42a2-b009-8dde9f74aa65","system_id":"levelo_inurba_marseille","lat":43.33058,"lon":5.39072,"is_reserved":false,"is_disabled":false,"rental_uris":{"android":"levelo://app?vid=42979274-76ae-42a2-b009-8dde9f74aa65","ios":"levelo://app?vid=42979274-76ae-42a2-b009-8dde9f74aa65"},"vehicle_type_id":"4","last_reported":1746076277,"current_range_meters":11200,"station_id":"","pricing_plan_id":"cebpf4jnsgd1na2vs0mg"},{"bike_id":"80651a87-6c3b-4ad8-a524-9ca686ad66c6","system_id":"levelo_inurba_marseille","lat":43.33026,"lon":5.39043,"is_reserved":false,"is_disabled":false,"rental_uris":{"android":"levelo://app?vid=80651a87-6c3b-4ad8-a524-9ca686ad66c6","ios":"levelo://app?vid=80651a87-6c3b-4ad8-a524-9ca686ad66c6"},"vehicle_type_id":"4","last_reported":1746076277,"current_range_meters":11200,"station_id":"ce4bhr92rcd13ifvqhrg","pricing_plan_id":"cebpf4jnsgd1na2vs0mg"},{"bike_id":"562276dc-22b8-4d74-876e-58926664ab2e","system_id":"levelo_inurba_marseille","lat":43.28995,"lon":5.3562,"is_reserved":false,"is_disabled":true,"rental_uris":{"android":"levelo://app?vid=562276dc-22b8-4d74-876e-58926664ab2e","ios":"levelo://app?vid=562276dc-22b8-4d74-876e-58926664ab2e"},"vehicle_type_id":"4","last_reported":1746076277,"current_range_meters":11200,"station_id":"ce4bhb92rcd13ifvqen0","pricing_plan_id":"cebpf4jnsgd1na2vs0mg"},{"bike_id":"9f87d872-9836-4a68-a4bb-b0ab837e0461","system_id":"levelo_inurba_marseille","lat":43.30527,"lon":5.36692,"is_reserved":false,"is_disabled":true,"rental_uris":{"android":"levelo://app?vid=9f87d872-9836-4a68-a4bb-b0ab837e0461","ios":"levelo://app?vid=9f87d872-9836-4a68-a4bb-b0ab837e0461"},"vehicle_type_id":"4","last_reported":1746076277,"current_range_meters":11200,"station_id":"ce4bgrp2rcd13ifvqc9g","pricing_plan_id":"cebpf4jnsgd1na2vs0mg"},{"bike_id":"87b611f6-ce76-49e3-867c-a8a806a0f0b9","system_id":"levelo_inurba_marseille","lat":43.30463,"lon":5.37905,"is_reserved":false,"is_disabled":false,"rental_uris":{"android":"levelo://app?vid=87b611f6-ce76-49e3-867c-a8a806a0f0b9","ios":"levelo://app?vid=87b611f6-ce76-49e3-867c-a8a806a0f0b9"},"vehicle_type_id":"4","last_reported":1746076277,"current_range_meters":11200,"station_id":"ce4bgup2rcd13ifvqcn0","pricing_plan_id":"cebpf4jnsgd1na2vs0mg"},{"bike_id":"d81abb63-9e29-43ff-affe-f5dd120de981","system_id":"levelo_inurba_marseille","lat":43.32373,"lon":5.38911,"is_reserved":false,"is_disabled":false,"rental_uris":{"android":"levelo://app?vid=d81abb63-9e29-43ff-affe-f5dd120de981","ios":"levelo://app?vid=d81abb63-9e29-43ff-affe-f5dd120de981"},"vehicle_type_id":"4","last_reported":1746076277,"current_range_meters":11200,"station_id":"ce4bhqp2rcd13ifvqhog","pricing_plan_id":"cebpf4jnsgd1na2vs0mg"},{"bike_id":"a85e7d57-20bb-408b-a496-dbdb98e11c73","system_id":"levelo_inurba_marseille","lat":43.30142,"lon":5.38795,"is_reserved":false,"is_disabled":false,"rental_uris":{"android":"levelo://app?vid=a85e7d57-20bb-408b-a496-dbdb98e11c73","ios":"levelo://app?vid=a85e7d57-20bb-408b-a496-dbdb98e11c73"},"vehicle_type_id":"4","last_reported":1746076277,"current_range_meters":11600,"station_id":"ce4bghh2rcd13ifvqb60","pricing_plan_id":"cebpf4jnsgd1na2vs0mg"},{"bike_id":"171cdde1-553e-41d8-ad20-22097af17faf","system_id":"levelo_inurba_marseille","lat":43.26526,"lon":5.3897,"is_reserved":false,"is_disabled":false,"rental_uris":{"android":"levelo://app?vid=171cdde1-553e-41d8-ad20-22097af17faf","ios":"levelo://app?vid=171cdde1-553e-41d8-ad20-22097af17faf"},"vehicle_type_id":"4","last_reported":1746076277,"current_range_meters":11600,"station_id":"ce4bhe12rcd13ifvqf30","pricing_plan_id":"cebpf4jnsgd1na2vs0mg"},{"bike_id":"032f267e-969d-4d7b-bc0f-2f07173a13d0","system_id":"levelo_inurba_marseille","lat":43.3015,"lon":5.38099,"is_reserved":false,"is_disabled":false,"rental_uris":{"android":"levelo://app?vid=032f267e-969d-4d7b-bc0f-2f07173a13d0","ios":"levelo://app?vid=032f267e-969d-4d7b-bc0f-2f07173a13d0"},"vehicle_type_id":"4","last_reported":1746076277,"current_range_meters":11600,"station_id":"ce4bgjp2rcd13ifvqbh0","pricing_plan_id":"cebpf4jnsgd1na2vs0mg"},{"bike_id":"22da4027-4f6f-45d1-9334-006a58311cd1","system_id":"levelo_inurba_marseille","lat":43.240673,"lon":5.367898,"is_reserved":false,"is_disabled":false,"rental_uris":{"android":"levelo://app?vid=22da4027-4f6f-45d1-9334-006a58311cd1","ios":"levelo://app?vid=22da4027-4f6f-45d1-9334-006a58311cd1"},"vehicle_type_id":"4","last_reported":1746076277,"current_range_meters":11600,"station_id":"","pricing_plan_id":"cebpf4jnsgd1na2vs0mg"},{"bike_id":"54f016eb-d4f2-4464-a9b5-1bd215f5c09b","system_id":"levelo_inurba_marseille","lat":43.32354,"lon":5.38897,"is_reserved":false,"is_disabled":false,"rental_uris":{"android":"levelo://app?vid=54f016eb-d4f2-4464-a9b5-1bd215f5c09b","ios":"levelo://app?vid=54f016eb-d4f2-4464-a9b5-1bd215f5c09b"},"vehicle_type_id":"4","last_reported":1746076277,"current_range_meters":11600,"station_id":"ce4bhqp2rcd13ifvqhog","pricing_plan_id":"cebpf4jnsgd1na2vs0mg"},{"bike_id":"568e8226-15e0-4a16-bfa2-70ee45a44145","system_id":"levelo_inurba_marseille","lat":43.33622,"lon":5.41058,"is_reserved":false,"is_disabled":false,"rental_uris":{"android":"levelo://app?vid=568e8226-15e0-4a16-bfa2-70ee45a44145","ios":"levelo://app?vid=568e8226-15e0-4a16-bfa2-70ee45a44145"},"vehicle_type_id":"4","last_reported":1746076277,"current_range_meters":11600,"station_id":"ce4bhqh2rcd13ifvqhmg","pricing_plan_id":"cebpf4jnsgd1na2vs0mg"},{"bike_id":"4f86a978-1faa-41c3-8974-e1b31a2703b5","system_id":"levelo_inurba_marseille","lat":43.25152,"lon":5.40323,"is_reserved":false,"is_disabled":false,"rental_uris":{"android":"levelo://app?vid=4f86a978-1faa-41c3-8974-e1b31a2703b5","ios":"levelo://app?vid=4f86a978-1faa-41c3-8974-e1b31a2703b5"},"vehicle_type_id":"4","last_reported":1746076277,"current_range_meters":11600,"station_id":"ce4bhlh2rcd13ifvqgig","pricing_plan_id":"cebpf4jnsgd1na2vs0mg"},{"bike_id":"a732b3d6-472a-46b2-b5fc-7d86a14ed2fc","system_id":"levelo_inurba_marseille","lat":43.32994,"lon":5.3907,"is_reserved":false,"is_disabled":false,"rental_uris":{"android":"levelo://app?vid=a732b3d6-472a-46b2-b5fc-7d86a14ed2fc","ios":"levelo://app?vid=a732b3d6-472a-46b2-b5fc-7d86a14ed2fc"},"vehicle_type_id":"4","last_reported":1746076277,"current_range_meters":12000,"station_id":"ce4bhr92rcd13ifvqhrg","pricing_plan_id":"cebpf4jnsgd1na2vs0mg"},{"bike_id":"fd427e05-8ad1-4dac-ba3a-e42fe8245eb3","system_id":"levelo_inurba_marseille","lat":43.28431,"lon":5.35029,"is_reserved":false,"is_disabled":true,"rental_uris":{"android":"levelo://app?vid=fd427e05-8ad1-4dac-ba3a-e42fe8245eb3","ios":"levelo://app?vid=fd427e05-8ad1-4dac-ba3a-e42fe8245eb3"},"vehicle_type_id":"4","last_reported":1746076277,"current_range_meters":12000,"station_id":"ce4bhbh2rcd13ifvqepg","pricing_plan_id":"cebpf4jnsgd1na2vs0mg"},{"bike_id":"74e43ab7-c22e-4e7e-9af4-ef7676b145b6","system_id":"levelo_inurba_marseille","lat":43.25716,"lon":5.41109,"is_reserved":false,"is_disabled":false,"rental_uris":{"android":"levelo://app?vid=74e43ab7-c22e-4e7e-9af4-ef7676b145b6","ios":"levelo://app?vid=74e43ab7-c22e-4e7e-9af4-ef7676b145b6"},"vehicle_type_id":"4","last_reported":1746076277,"current_range_meters":12000,"station_id":"ce4bhkp2rcd13ifvqgd0","pricing_plan_id":"cebpf4jnsgd1na2vs0mg"},{"bike_id":"da557341-b4a1-447e-9606-415e0f9c6127","system_id":"levelo_inurba_marseille","lat":43.304659,"lon":5.378971,"is_reserved":false,"is_disabled":true,"rental_uris":{"android":"levelo://app?vid=da557341-b4a1-447e-9606-415e0f9c6127","ios":"levelo://app?vid=da557341-b4a1-447e-9606-415e0f9c6127"},"vehicle_type_id":"4","last_reported":1746076277,"current_range_meters":12000,"station_id":"ce4bgup2rcd13ifvqcn0","pricing_plan_id":"cebpf4jnsgd1na2vs0mg"},{"bike_id":"8fead5b8-7d9b-4e9f-8d43-79e6b1d90d86","system_id":"levelo_inurba_marseille","lat":43.30246,"lon":5.40058,"is_reserved":false,"is_disabled":false,"rental_uris":{"android":"levelo://app?vid=8fead5b8-7d9b-4e9f-8d43-79e6b1d90d86","ios":"levelo://app?vid=8fead5b8-7d9b-4e9f-8d43-79e6b1d90d86"},"vehicle_type_id":"4","last_reported":1746076277,"current_range_meters":12000,"station_id":"ce4bgvh2rcd13ifvqcs0","pricing_plan_id":"cebpf4jnsgd1na2vs0mg"},{"bike_id":"2651b4a1-13e1-4235-9053-4ff760306dc9","system_id":"levelo_inurba_marseille","lat":43.303168,"lon":5.404444,"is_reserved":false,"is_disabled":false,"rental_uris":{"android":"levelo://app?vid=2651b4a1-13e1-4235-9053-4ff760306dc9","ios":"levelo://app?vid=2651b4a1-13e1-4235-9053-4ff760306dc9"},"vehicle_type_id":"4","last_reported":1746076277,"current_range_meters":12000,"station_id":"ce4bh012rcd13ifvqd10","pricing_plan_id":"cebpf4jnsgd1na2vs0mg"},{"bike_id":"bded5638-5663-46d5-b164-b8214836c3ea","system_id":"levelo_inurba_marseille","lat":43.27309,"lon":5.39182,"is_reserved":false,"is_disabled":false,"rental_uris":{"android":"levelo://app?vid=bded5638-5663-46d5-b164-b8214836c3ea","ios":"levelo://app?vid=bded5638-5663-46d5-b164-b8214836c3ea"},"vehicle_type_id":"4","last_reported":1746076277,"current_range_meters":12400,"station_id":"","pricing_plan_id":"cebpf4jnsgd1na2vs0mg"},{"bike_id":"ca5f449a-1b49-4061-8873-7462fef94966","system_id":"levelo_inurba_marseille","lat":43.25872,"lon":5.39912,"is_reserved":false,"is_disabled":false,"rental_uris":{"android":"levelo://app?vid=ca5f449a-1b49-4061-8873-7462fef94966","ios":"levelo://app?vid=ca5f449a-1b49-4061-8873-7462fef94966"},"vehicle_type_id":"4","last_reported":1746076277,"current_range_meters":12400,"station_id":"ce4bhl92rcd13ifvqghg","pricing_plan_id":"cebpf4jnsgd1na2vs0mg"},{"bike_id":"39df689c-ab87-4f4a-bd01-ff7e217b5f18","system_id":"levelo_inurba_marseille","lat":43.26239,"lon":5.40464,"is_reserved":false,"is_disabled":false,"rental_uris":{"android":"levelo://app?vid=39df689c-ab87-4f4a-bd01-ff7e217b5f18","ios":"levelo://app?vid=39df689c-ab87-4f4a-bd01-ff7e217b5f18"},"vehicle_type_id":"4","last_reported":1746076277,"current_range_meters":12400,"station_id":"ce4bhmh2rcd13ifvqgmg","pricing_plan_id":"cebpf4jnsgd1na2vs0mg"},{"bike_id":"d8f69332-d7da-463e-98da-8052c52b547e","system_id":"levelo_inurba_marseille","lat":43.27807,"lon":5.407172,"is_reserved":false,"is_disabled":false,"rental_uris":{"android":"levelo://app?vid=d8f69332-d7da-463e-98da-8052c52b547e","ios":"levelo://app?vid=d8f69332-d7da-463e-98da-8052c52b547e"},"vehicle_type_id":"4","last_reported":1746076277,"current_range_meters":12800,"station_id":"ce4bhnh2rcd13ifvqgtg","pricing_plan_id":"cebpf4jnsgd1na2vs0mg"},{"bike_id":"a688b131-ae29-4f11-8812-f85f61aa6706","system_id":"levelo_inurba_marseille","lat":43.292101,"lon":5.393194,"is_reserved":false,"is_disabled":true,"rental_uris":{"android":"levelo://app?vid=a688b131-ae29-4f11-8812-f85f61aa6706","ios":"levelo://app?vid=a688b131-ae29-4f11-8812-f85f61aa6706"},"vehicle_type_id":"4","last_reported":1746076277,"current_range_meters":12800,"station_id":"ce4bhbh2rcd13ifvqeo0","pricing_plan_id":"cebpf4jnsgd1na2vs0mg"},{"bike_id":"7940bc1b-eaa7-4f49-a435-46dc9391f6a1","system_id":"levelo_inurba_marseille","lat":43.211982,"lon":5.350843,"is_reserved":false,"is_disabled":false,"rental_uris":{"android":"levelo://app?vid=7940bc1b-eaa7-4f49-a435-46dc9391f6a1","ios":"levelo://app?vid=7940bc1b-eaa7-4f49-a435-46dc9391f6a1"},"vehicle_type_id":"4","last_reported":1746076277,"current_range_meters":12800,"station_id":"st_cvj6sg6p6f1abm77japg","pricing_plan_id":"cebpf4jnsgd1na2vs0mg"},{"bike_id":"34b484ab-c0f1-4e55-b51a-e2bafdafb63e","system_id":"levelo_inurba_marseille","lat":43.23072,"lon":5.355,"is_reserved":false,"is_disabled":false,"rental_uris":{"android":"levelo://app?vid=34b484ab-c0f1-4e55-b51a-e2bafdafb63e","ios":"levelo://app?vid=34b484ab-c0f1-4e55-b51a-e2bafdafb63e"},"vehicle_type_id":"4","last_reported":1746076277,"current_range_meters":12800,"station_id":"cpo3342slgdg3j2ifvpg","pricing_plan_id":"cebpf4jnsgd1na2vs0mg"},{"bike_id":"467050e6-9cdd-49b2-9d0d-8d0ce79691a3","system_id":"levelo_inurba_marseille","lat":43.279129,"lon":5.395919,"is_reserved":false,"is_disabled":false,"rental_uris":{"android":"levelo://app?vid=467050e6-9cdd-49b2-9d0d-8d0ce79691a3","ios":"levelo://app?vid=467050e6-9cdd-49b2-9d0d-8d0ce79691a3"},"vehicle_type_id":"4","last_reported":1746076277,"current_range_meters":12800,"station_id":"ce4bhf92rcd13ifvqf40","pricing_plan_id":"cebpf4jnsgd1na2vs0mg"},{"bike_id":"89ac3e66-b713-4190-942c-76e9ca884726","system_id":"levelo_inurba_marseille","lat":43.32099,"lon":5.36777,"is_reserved":false,"is_disabled":false,"rental_uris":{"android":"levelo://app?vid=89ac3e66-b713-4190-942c-76e9ca884726","ios":"levelo://app?vid=89ac3e66-b713-4190-942c-76e9ca884726"},"vehicle_type_id":"4","last_reported":1746076277,"current_range_meters":12800,"station_id":"ce4bhrh2rcd13ifvqhug","pricing_plan_id":"cebpf4jnsgd1na2vs0mg"},{"bike_id":"4fc13aab-47ec-41bf-ba18-3346f7c81d19","system_id":"levelo_inurba_marseille","lat":43.33588,"lon":5.41028,"is_reserved":false,"is_disabled":false,"rental_uris":{"android":"levelo://app?vid=4fc13aab-47ec-41bf-ba18-3346f7c81d19","ios":"levelo://app?vid=4fc13aab-47ec-41bf-ba18-3346f7c81d19"},"vehicle_type_id":"4","last_reported":1746076277,"current_range_meters":13600,"station_id":"ce4bhqh2rcd13ifvqhmg","pricing_plan_id":"cebpf4jnsgd1na2vs0mg"},{"bike_id":"55f63592-70ea-4970-899d-14e04ab1c395","system_id":"levelo_inurba_marseille","lat":43.30143,"lon":5.38079,"is_reserved":false,"is_disabled":false,"rental_uris":{"android":"levelo://app?vid=55f63592-70ea-4970-899d-14e04ab1c395","ios":"levelo://app?vid=55f63592-70ea-4970-899d-14e04ab1c395"},"vehicle_type_id":"4","last_reported":1746076277,"current_range_meters":13600,"station_id":"ce4bgjp2rcd13ifvqbh0","pricing_plan_id":"cebpf4jnsgd1na2vs0mg"},{"bike_id":"fe9083d3-036c-45c9-9372-5aa64c224af0","system_id":"levelo_inurba_marseille","lat":43.308825,"lon":5.371959,"is_reserved":false,"is_disabled":false,"rental_uris":{"android":"levelo://app?vid=fe9083d3-036c-45c9-9372-5aa64c224af0","ios":"levelo://app?vid=fe9083d3-036c-45c9-9372-5aa64c224af0"},"vehicle_type_id":"4","last_reported":1746076277,"current_range_meters":13600,"station_id":"ce4bguh2rcd13ifvqckg","pricing_plan_id":"cebpf4jnsgd1na2vs0mg"},{"bike_id":"083163f5-e2fd-40d2-9e4f-7b3d2d85df31","system_id":"levelo_inurba_marseille","lat":43.26992,"lon":5.38756,"is_reserved":false,"is_disabled":true,"rental_uris":{"android":"levelo://app?vid=083163f5-e2fd-40d2-9e4f-7b3d2d85df31","ios":"levelo://app?vid=083163f5-e2fd-40d2-9e4f-7b3d2d85df31"},"vehicle_type_id":"4","last_reported":1746076277,"current_range_meters":13600,"station_id":"","pricing_plan_id":"cebpf4jnsgd1na2vs0mg"},{"bike_id":"fd7875a1-1cd0-47f8-880b-6ef58a6b7e2e","system_id":"levelo_inurba_marseille","lat":43.22945,"lon":5.354,"is_reserved":false,"is_disabled":false,"rental_uris":{"android":"levelo://app?vid=fd7875a1-1cd0-47f8-880b-6ef58a6b7e2e","ios":"levelo://app?vid=fd7875a1-1cd0-47f8-880b-6ef58a6b7e2e"},"vehicle_type_id":"4","last_reported":1746076277,"current_range_meters":13600,"station_id":"cpo3532slgdg3j2ikp40","pricing_plan_id":"cebpf4jnsgd1na2vs0mg"},{"bike_id":"4215e336-130f-4e4e-ac75-ab1f2791ea4d","system_id":"levelo_inurba_marseille","lat":43.31708,"lon":5.40439,"is_reserved":false,"is_disabled":false,"rental_uris":{"android":"levelo://app?vid=4215e336-130f-4e4e-ac75-ab1f2791ea4d","ios":"levelo://app?vid=4215e336-130f-4e4e-ac75-ab1f2791ea4d"},"vehicle_type_id":"4","last_reported":1746076277,"current_range_meters":13600,"station_id":"ce4bh012rcd13ifvqd00","pricing_plan_id":"cebpf4jnsgd1na2vs0mg"},{"bike_id":"a0da20fc-88e0-400b-8360-717e1e8d72f2","system_id":"levelo_inurba_marseille","lat":43.309336,"lon":5.401394,"is_reserved":false,"is_disabled":false,"rental_uris":{"android":"levelo://app?vid=a0da20fc-88e0-400b-8360-717e1e8d72f2","ios":"levelo://app?vid=a0da20fc-88e0-400b-8360-717e1e8d72f2"},"vehicle_type_id":"4","last_reported":1746076277,"current_range_meters":14000,"station_id":"ce4bgvp2rcd13ifvqct0","pricing_plan_id":"cebpf4jnsgd1na2vs0mg"},{"bike_id":"da62e04f-aabf-4f2b-9e7f-761fdf6d967b","system_id":"levelo_inurba_marseille","lat":43.28398,"lon":5.3752,"is_reserved":false,"is_disabled":false,"rental_uris":{"android":"levelo://app?vid=da62e04f-aabf-4f2b-9e7f-761fdf6d967b","ios":"levelo://app?vid=da62e04f-aabf-4f2b-9e7f-761fdf6d967b"},"vehicle_type_id":"4","last_reported":1746076277,"current_range_meters":14000,"station_id":"ce4bh412rcd13ifvqds0","pricing_plan_id":"cebpf4jnsgd1na2vs0mg"},{"bike_id":"07541a4c-711f-473d-acfe-1eb9b677008b","system_id":"levelo_inurba_marseille","lat":43.32475,"lon":5.36589,"is_reserved":false,"is_disabled":true,"rental_uris":{"android":"levelo://app?vid=07541a4c-711f-473d-acfe-1eb9b677008b","ios":"levelo://app?vid=07541a4c-711f-473d-acfe-1eb9b677008b"},"vehicle_type_id":"4","last_reported":1746076277,"current_range_meters":14000,"station_id":"ce4bhs12rcd13ifvqhvg","pricing_plan_id":"cebpf4jnsgd1na2vs0mg"},{"bike_id":"66cf9de5-17de-4e38-9ee0-8d2cef3b4ab3","system_id":"levelo_inurba_marseille","lat":43.306611,"lon":5.400972,"is_reserved":false,"is_disabled":true,"rental_uris":{"android":"levelo://app?vid=66cf9de5-17de-4e38-9ee0-8d2cef3b4ab3","ios":"levelo://app?vid=66cf9de5-17de-4e38-9ee0-8d2cef3b4ab3"},"vehicle_type_id":"4","last_reported":1746076277,"current_range_meters":14000,"station_id":"ce4bh112rcd13ifvqda0","pricing_plan_id":"cebpf4jnsgd1na2vs0mg"},{"bike_id":"734c3611-7469-46e4-9c45-70060c2c0e34","system_id":"levelo_inurba_marseille","lat":43.27906,"lon":5.380105,"is_reserved":false,"is_disabled":false,"rental_uris":{"android":"levelo://app?vid=734c3611-7469-46e4-9c45-70060c2c0e34","ios":"levelo://app?vid=734c3611-7469-46e4-9c45-70060c2c0e34"},"vehicle_type_id":"4","last_reported":1746076277,"current_range_meters":14400,"station_id":"ce4bhf92rcd13ifvqf50","pricing_plan_id":"cebpf4jnsgd1na2vs0mg"},{"bike_id":"45066d0f-30a2-4611-a922-bd72c62b2873","system_id":"levelo_inurba_marseille","lat":43.25592,"lon":5.3824,"is_reserved":false,"is_disabled":false,"rental_uris":{"android":"levelo://app?vid=45066d0f-30a2-4611-a922-bd72c62b2873","ios":"levelo://app?vid=45066d0f-30a2-4611-a922-bd72c62b2873"},"vehicle_type_id":"4","last_reported":1746076277,"current_range_meters":14400,"station_id":"ce4bhih2rcd13ifvqfs0","pricing_plan_id":"cebpf4jnsgd1na2vs0mg"},{"bike_id":"03e963dc-ff13-4f21-bf5c-a2869ab832f6","system_id":"levelo_inurba_marseille","lat":43.30413,"lon":5.39783,"is_reserved":false,"is_disabled":false,"rental_uris":{"android":"levelo://app?vid=03e963dc-ff13-4f21-bf5c-a2869ab832f6","ios":"levelo://app?vid=03e963dc-ff13-4f21-bf5c-a2869ab832f6"},"vehicle_type_id":"4","last_reported":1746076277,"current_range_meters":14400,"station_id":"ce4bh092rcd13ifvqd20","pricing_plan_id":"cebpf4jnsgd1na2vs0mg"},{"bike_id":"1bd1a463-337f-4c4e-98b6-b927dde62105","system_id":"levelo_inurba_marseille","lat":43.30374,"lon":5.42492,"is_reserved":false,"is_disabled":false,"rental_uris":{"android":"levelo://app?vid=1bd1a463-337f-4c4e-98b6-b927dde62105","ios":"levelo://app?vid=1bd1a463-337f-4c4e-98b6-b927dde62105"},"vehicle_type_id":"4","last_reported":1746076277,"current_range_meters":14400,"station_id":"ce4bhoh2rcd13ifvqh6g","pricing_plan_id":"cebpf4jnsgd1na2vs0mg"},{"bike_id":"67f401c7-2b4b-4a1a-a6f0-da56056a14a5","system_id":"levelo_inurba_marseille","lat":43.29258,"lon":5.40145,"is_reserved":false,"is_disabled":false,"rental_uris":{"android":"levelo://app?vid=67f401c7-2b4b-4a1a-a6f0-da56056a14a5","ios":"levelo://app?vid=67f401c7-2b4b-4a1a-a6f0-da56056a14a5"},"vehicle_type_id":"4","last_reported":1746076277,"current_range_meters":14800,"station_id":"ce4bh312rcd13ifvqdk0","pricing_plan_id":"cebpf4jnsgd1na2vs0mg"},{"bike_id":"1130c3af-831f-4180-a824-77b5ac50d0ae","system_id":"levelo_inurba_marseille","lat":43.30879,"lon":5.39668,"is_reserved":false,"is_disabled":false,"rental_uris":{"android":"levelo://app?vid=1130c3af-831f-4180-a824-77b5ac50d0ae","ios":"levelo://app?vid=1130c3af-831f-4180-a824-77b5ac50d0ae"},"vehicle_type_id":"4","last_reported":1746076277,"current_range_meters":14800,"station_id":"ce4bh012rcd13ifvqcv0","pricing_plan_id":"cebpf4jnsgd1na2vs0mg"},{"bike_id":"68387bcf-91b9-4d94-9345-8087e5f6d466","system_id":"levelo_inurba_marseille","lat":43.31333,"lon":5.36771,"is_reserved":false,"is_disabled":true,"rental_uris":{"android":"levelo://app?vid=68387bcf-91b9-4d94-9345-8087e5f6d466","ios":"levelo://app?vid=68387bcf-91b9-4d94-9345-8087e5f6d466"},"vehicle_type_id":"4","last_reported":1746076277,"current_range_meters":15200,"station_id":"","pricing_plan_id":"cebpf4jnsgd1na2vs0mg"},{"bike_id":"a80efe56-7ec7-41b2-959d-a20ff548881b","system_id":"levelo_inurba_marseille","lat":43.323553,"lon":5.388828,"is_reserved":false,"is_disabled":false,"rental_uris":{"android":"levelo://app?vid=a80efe56-7ec7-41b2-959d-a20ff548881b","ios":"levelo://app?vid=a80efe56-7ec7-41b2-959d-a20ff548881b"},"vehicle_type_id":"4","last_reported":1746076277,"current_range_meters":15200,"station_id":"ce4bhqp2rcd13ifvqhog","pricing_plan_id":"cebpf4jnsgd1na2vs0mg"},{"bike_id":"d13198bf-44ec-4da7-acff-e922f2680bbe","system_id":"levelo_inurba_marseille","lat":43.336,"lon":5.41025,"is_reserved":false,"is_disabled":false,"rental_uris":{"android":"levelo://app?vid=d13198bf-44ec-4da7-acff-e922f2680bbe","ios":"levelo://app?vid=d13198bf-44ec-4da7-acff-e922f2680bbe"},"vehicle_type_id":"4","last_reported":1746076277,"current_range_meters":15200,"station_id":"ce4bhqh2rcd13ifvqhmg","pricing_plan_id":"cebpf4jnsgd1na2vs0mg"},{"bike_id":"b58385b2-d1b2-4ecc-af75-eb7cf4772905","system_id":"levelo_inurba_marseille","lat":43.23083,"lon":5.35512,"is_reserved":false,"is_disabled":false,"rental_uris":{"android":"levelo://app?vid=b58385b2-d1b2-4ecc-af75-eb7cf4772905","ios":"levelo://app?vid=b58385b2-d1b2-4ecc-af75-eb7cf4772905"},"vehicle_type_id":"4","last_reported":1746076277,"current_range_meters":15200,"station_id":"cpo3342slgdg3j2ifvpg","pricing_plan_id":"cebpf4jnsgd1na2vs0mg"},{"bike_id":"51fab5ef-a00d-4e32-90af-91019d86dee9","system_id":"levelo_inurba_marseille","lat":43.319944,"lon":5.381355,"is_reserved":false,"is_disabled":true,"rental_uris":{"android":"levelo://app?vid=51fab5ef-a00d-4e32-90af-91019d86dee9","ios":"levelo://app?vid=51fab5ef-a00d-4e32-90af-91019d86dee9"},"vehicle_type_id":"4","last_reported":1746076277,"current_range_meters":15200,"station_id":"ce4bhr12rcd13ifvqhpg","pricing_plan_id":"cebpf4jnsgd1na2vs0mg"},{"bike_id":"6daaf168-bfa9-48eb-82e8-fce6c84467fb","system_id":"levelo_inurba_marseille","lat":43.25833,"lon":5.39914,"is_reserved":false,"is_disabled":false,"rental_uris":{"android":"levelo://app?vid=6daaf168-bfa9-48eb-82e8-fce6c84467fb","ios":"levelo://app?vid=6daaf168-bfa9-48eb-82e8-fce6c84467fb"},"vehicle_type_id":"4","last_reported":1746076277,"current_range_meters":15200,"station_id":"ce4bhl92rcd13ifvqghg","pricing_plan_id":"cebpf4jnsgd1na2vs0mg"},{"bike_id":"58e61467-50db-4ef1-a23a-155c99fb9f5b","system_id":"levelo_inurba_marseille","lat":43.31524,"lon":5.37288,"is_reserved":false,"is_disabled":false,"rental_uris":{"android":"levelo://app?vid=58e61467-50db-4ef1-a23a-155c99fb9f5b","ios":"levelo://app?vid=58e61467-50db-4ef1-a23a-155c99fb9f5b"},"vehicle_type_id":"4","last_reported":1746076277,"current_range_meters":16000,"station_id":"","pricing_plan_id":"cebpf4jnsgd1na2vs0mg"},{"bike_id":"27907a82-5f36-4101-983a-441b34a5503f","system_id":"levelo_inurba_marseille","lat":43.29701,"lon":5.37308,"is_reserved":false,"is_disabled":false,"rental_uris":{"android":"levelo://app?vid=27907a82-5f36-4101-983a-441b34a5503f","ios":"levelo://app?vid=27907a82-5f36-4101-983a-441b34a5503f"},"vehicle_type_id":"4","last_reported":1746076277,"current_range_meters":15200,"station_id":"ce4bgk12rcd13ifvqbj0","pricing_plan_id":"cebpf4jnsgd1na2vs0mg"},{"bike_id":"cc6a794a-1920-4684-9d23-fbdf841a48dd","system_id":"levelo_inurba_marseille","lat":43.32333,"lon":5.40631,"is_reserved":false,"is_disabled":false,"rental_uris":{"android":"levelo://app?vid=cc6a794a-1920-4684-9d23-fbdf841a48dd","ios":"levelo://app?vid=cc6a794a-1920-4684-9d23-fbdf841a48dd"},"vehicle_type_id":"4","last_reported":1746076277,"current_range_meters":16000,"station_id":"ce4bhq92rcd13ifvqhjg","pricing_plan_id":"cebpf4jnsgd1na2vs0mg"},{"bike_id":"dc2dfdc7-73a2-4f18-837a-0677b3a23fbe","system_id":"levelo_inurba_marseille","lat":43.33597,"lon":5.41045,"is_reserved":false,"is_disabled":false,"rental_uris":{"android":"levelo://app?vid=dc2dfdc7-73a2-4f18-837a-0677b3a23fbe","ios":"levelo://app?vid=dc2dfdc7-73a2-4f18-837a-0677b3a23fbe"},"vehicle_type_id":"4","last_reported":1746076277,"current_range_meters":16000,"station_id":"ce4bhqh2rcd13ifvqhmg","pricing_plan_id":"cebpf4jnsgd1na2vs0mg"},{"bike_id":"db70917f-893e-4376-952f-11ed090f8af4","system_id":"levelo_inurba_marseille","lat":43.29572,"lon":5.37518,"is_reserved":false,"is_disabled":false,"rental_uris":{"android":"levelo://app?vid=db70917f-893e-4376-952f-11ed090f8af4","ios":"levelo://app?vid=db70917f-893e-4376-952f-11ed090f8af4"},"vehicle_type_id":"4","last_reported":1746076277,"current_range_meters":16400,"station_id":"ce4bgh92rcd13ifvqb50","pricing_plan_id":"cebpf4jnsgd1na2vs0mg"},{"bike_id":"0b2fd964-6f7e-4f0a-a370-f6b142ffbbef","system_id":"levelo_inurba_marseille","lat":43.282738,"lon":5.350784,"is_reserved":false,"is_disabled":false,"rental_uris":{"android":"levelo://app?vid=0b2fd964-6f7e-4f0a-a370-f6b142ffbbef","ios":"levelo://app?vid=0b2fd964-6f7e-4f0a-a370-f6b142ffbbef"},"vehicle_type_id":"4","last_reported":1746076277,"current_range_meters":16400,"station_id":"ce4bhbp2rcd13ifvqerg","pricing_plan_id":"cebpf4jnsgd1na2vs0mg"},{"bike_id":"b6370aa6-1cc0-4a8b-9774-235e8c2f66a8","system_id":"levelo_inurba_marseille","lat":43.31701,"lon":5.43682,"is_reserved":false,"is_disabled":false,"rental_uris":{"android":"levelo://app?vid=b6370aa6-1cc0-4a8b-9774-235e8c2f66a8","ios":"levelo://app?vid=b6370aa6-1cc0-4a8b-9774-235e8c2f66a8"},"vehicle_type_id":"4","last_reported":1746076277,"current_range_meters":16400,"station_id":"ce4bhp92rcd13ifvqhcg","pricing_plan_id":"cebpf4jnsgd1na2vs0mg"},{"bike_id":"32f40547-1e47-452e-97c4-464a94a80eb1","system_id":"levelo_inurba_marseille","lat":43.30931,"lon":5.40143,"is_reserved":false,"is_disabled":false,"rental_uris":{"android":"levelo://app?vid=32f40547-1e47-452e-97c4-464a94a80eb1","ios":"levelo://app?vid=32f40547-1e47-452e-97c4-464a94a80eb1"},"vehicle_type_id":"4","last_reported":1746076277,"current_range_meters":16400,"station_id":"ce4bgvp2rcd13ifvqct0","pricing_plan_id":"cebpf4jnsgd1na2vs0mg"},{"bike_id":"38ab34ee-b7ef-47bf-b499-4767b730cbc9","system_id":"levelo_inurba_marseille","lat":43.33775,"lon":5.37446,"is_reserved":false,"is_disabled":false,"rental_uris":{"android":"levelo://app?vid=38ab34ee-b7ef-47bf-b499-4767b730cbc9","ios":"levelo://app?vid=38ab34ee-b7ef-47bf-b499-4767b730cbc9"},"vehicle_type_id":"4","last_reported":1746076277,"current_range_meters":16400,"station_id":"","pricing_plan_id":"cebpf4jnsgd1na2vs0mg"},{"bike_id":"0c2fd97a-a68c-4bff-8f09-402b6ba070c9","system_id":"levelo_inurba_marseille","lat":43.33612,"lon":5.41029,"is_reserved":false,"is_disabled":false,"rental_uris":{"android":"levelo://app?vid=0c2fd97a-a68c-4bff-8f09-402b6ba070c9","ios":"levelo://app?vid=0c2fd97a-a68c-4bff-8f09-402b6ba070c9"},"vehicle_type_id":"4","last_reported":1746076277,"current_range_meters":16400,"station_id":"ce4bhqh2rcd13ifvqhmg","pricing_plan_id":"cebpf4jnsgd1na2vs0mg"},{"bike_id":"c8581763-0ce2-4bab-ab9e-b4108eaa2ed7","system_id":"levelo_inurba_marseille","lat":43.32367,"lon":5.38881,"is_reserved":false,"is_disabled":false,"rental_uris":{"android":"levelo://app?vid=c8581763-0ce2-4bab-ab9e-b4108eaa2ed7","ios":"levelo://app?vid=c8581763-0ce2-4bab-ab9e-b4108eaa2ed7"},"vehicle_type_id":"4","last_reported":1746076277,"current_range_meters":16400,"station_id":"ce4bhqp2rcd13ifvqhog","pricing_plan_id":"cebpf4jnsgd1na2vs0mg"},{"bike_id":"84463d6b-6301-4778-9cef-d0c25941cf21","system_id":"levelo_inurba_marseille","lat":43.31527,"lon":5.38041,"is_reserved":false,"is_disabled":false,"rental_uris":{"android":"levelo://app?vid=84463d6b-6301-4778-9cef-d0c25941cf21","ios":"levelo://app?vid=84463d6b-6301-4778-9cef-d0c25941cf21"},"vehicle_type_id":"4","last_reported":1746076277,"current_range_meters":16400,"station_id":"ce4bhsp2rcd13ifvqi50","pricing_plan_id":"cebpf4jnsgd1na2vs0mg"},{"bike_id":"d32a64f6-9000-467e-98fd-c83514f49197","system_id":"levelo_inurba_marseille","lat":43.3133,"lon":5.39756,"is_reserved":false,"is_disabled":false,"rental_uris":{"android":"levelo://app?vid=d32a64f6-9000-467e-98fd-c83514f49197","ios":"levelo://app?vid=d32a64f6-9000-467e-98fd-c83514f49197"},"vehicle_type_id":"4","last_reported":1746076277,"current_range_meters":16800,"station_id":"","pricing_plan_id":"cebpf4jnsgd1na2vs0mg"},{"bike_id":"3aba1d0c-e797-40ac-b0dc-2022445cb907","system_id":"levelo_inurba_marseille","lat":43.25116,"lon":5.40331,"is_reserved":false,"is_disabled":false,"rental_uris":{"android":"levelo://app?vid=3aba1d0c-e797-40ac-b0dc-2022445cb907","ios":"levelo://app?vid=3aba1d0c-e797-40ac-b0dc-2022445cb907"},"vehicle_type_id":"4","last_reported":1746076277,"current_range_meters":16800,"station_id":"ce4bhlh2rcd13ifvqgig","pricing_plan_id":"cebpf4jnsgd1na2vs0mg"},{"bike_id":"b1b4d74f-092b-476b-abae-f60870c92748","system_id":"levelo_inurba_marseille","lat":43.25073,"lon":5.39527,"is_reserved":false,"is_disabled":false,"rental_uris":{"android":"levelo://app?vid=b1b4d74f-092b-476b-abae-f60870c92748","ios":"levelo://app?vid=b1b4d74f-092b-476b-abae-f60870c92748"},"vehicle_type_id":"4","last_reported":1746076277,"current_range_meters":16800,"station_id":"ce4bhm12rcd13ifvqgkg","pricing_plan_id":"cebpf4jnsgd1na2vs0mg"},{"bike_id":"c29e36ac-2727-4e24-a089-8ad710d53619","system_id":"levelo_inurba_marseille","lat":43.309319,"lon":5.4015,"is_reserved":false,"is_disabled":false,"rental_uris":{"android":"levelo://app?vid=c29e36ac-2727-4e24-a089-8ad710d53619","ios":"levelo://app?vid=c29e36ac-2727-4e24-a089-8ad710d53619"},"vehicle_type_id":"4","last_reported":1746076277,"current_range_meters":16800,"station_id":"ce4bgvp2rcd13ifvqct0","pricing_plan_id":"cebpf4jnsgd1na2vs0mg"},{"bike_id":"41177f4d-9dde-49ed-af68-61a442fc2a4f","system_id":"levelo_inurba_marseille","lat":43.30256,"lon":5.40088,"is_reserved":false,"is_disabled":false,"rental_uris":{"android":"levelo://app?vid=41177f4d-9dde-49ed-af68-61a442fc2a4f","ios":"levelo://app?vid=41177f4d-9dde-49ed-af68-61a442fc2a4f"},"vehicle_type_id":"4","last_reported":1746076277,"current_range_meters":16800,"station_id":"ce4bgvh2rcd13ifvqcs0","pricing_plan_id":"cebpf4jnsgd1na2vs0mg"},{"bike_id":"5a92311b-afc6-484e-ba35-449afe75ce34","system_id":"levelo_inurba_marseille","lat":43.29828,"lon":5.38129,"is_reserved":false,"is_disabled":true,"rental_uris":{"android":"levelo://app?vid=5a92311b-afc6-484e-ba35-449afe75ce34","ios":"levelo://app?vid=5a92311b-afc6-484e-ba35-449afe75ce34"},"vehicle_type_id":"4","last_reported":1746076277,"current_range_meters":16800,"station_id":"ce4bgip2rcd13ifvqbb0","pricing_plan_id":"cebpf4jnsgd1na2vs0mg"},{"bike_id":"9ac44a7d-7a1b-425a-b08d-137b9e23d8ca","system_id":"levelo_inurba_marseille","lat":43.30933,"lon":5.40142,"is_reserved":false,"is_disabled":false,"rental_uris":{"android":"levelo://app?vid=9ac44a7d-7a1b-425a-b08d-137b9e23d8ca","ios":"levelo://app?vid=9ac44a7d-7a1b-425a-b08d-137b9e23d8ca"},"vehicle_type_id":"4","last_reported":1746076277,"current_range_meters":16800,"station_id":"ce4bgvp2rcd13ifvqct0","pricing_plan_id":"cebpf4jnsgd1na2vs0mg"},{"bike_id":"0b9ac188-19a7-4ad4-8279-34f1318ce56d","system_id":"levelo_inurba_marseille","lat":43.3127,"lon":5.37756,"is_reserved":false,"is_disabled":false,"rental_uris":{"android":"levelo://app?vid=0b9ac188-19a7-4ad4-8279-34f1318ce56d","ios":"levelo://app?vid=0b9ac188-19a7-4ad4-8279-34f1318ce56d"},"vehicle_type_id":"4","last_reported":1746076277,"current_range_meters":16800,"station_id":"","pricing_plan_id":"cebpf4jnsgd1na2vs0mg"},{"bike_id":"2e1ce04f-74c7-4d68-a96b-b9dc1d6897ee","system_id":"levelo_inurba_marseille","lat":43.322868,"lon":5.382659,"is_reserved":false,"is_disabled":false,"rental_uris":{"android":"levelo://app?vid=2e1ce04f-74c7-4d68-a96b-b9dc1d6897ee","ios":"levelo://app?vid=2e1ce04f-74c7-4d68-a96b-b9dc1d6897ee"},"vehicle_type_id":"4","last_reported":1746076277,"current_range_meters":16800,"station_id":"ce4bhr12rcd13ifvqhqg","pricing_plan_id":"cebpf4jnsgd1na2vs0mg"},{"bike_id":"e7ffe102-def9-44df-ab08-bcf2bfb76907","system_id":"levelo_inurba_marseille","lat":43.296124,"lon":5.377197,"is_reserved":false,"is_disabled":true,"rental_uris":{"android":"levelo://app?vid=e7ffe102-def9-44df-ab08-bcf2bfb76907","ios":"levelo://app?vid=e7ffe102-def9-44df-ab08-bcf2bfb76907"},"vehicle_type_id":"4","last_reported":1746076277,"current_range_meters":16800,"station_id":"ce4bgi92rcd13ifvqb90","pricing_plan_id":"cebpf4jnsgd1na2vs0mg"},{"bike_id":"314c570d-d342-4e1f-93ca-be55bfbed314","system_id":"levelo_inurba_marseille","lat":43.30732,"lon":5.42439,"is_reserved":false,"is_disabled":false,"rental_uris":{"android":"levelo://app?vid=314c570d-d342-4e1f-93ca-be55bfbed314","ios":"levelo://app?vid=314c570d-d342-4e1f-93ca-be55bfbed314"},"vehicle_type_id":"4","last_reported":1746076277,"current_range_meters":16800,"station_id":"st_cvj6ca6bvosntc0bfgr0","pricing_plan_id":"cebpf4jnsgd1na2vs0mg"},{"bike_id":"beb1d927-2520-405b-a87d-c20cf401f42b","system_id":"levelo_inurba_marseille","lat":43.28427,"lon":5.3749,"is_reserved":false,"is_disabled":false,"rental_uris":{"android":"levelo://app?vid=beb1d927-2520-405b-a87d-c20cf401f42b","ios":"levelo://app?vid=beb1d927-2520-405b-a87d-c20cf401f42b"},"vehicle_type_id":"4","last_reported":1746076277,"current_range_meters":16800,"station_id":"ce4bh412rcd13ifvqds0","pricing_plan_id":"cebpf4jnsgd1na2vs0mg"},{"bike_id":"0c7f2d70-b849-486d-bca2-848a564f0867","system_id":"levelo_inurba_marseille","lat":43.27995,"lon":5.40014,"is_reserved":false,"is_disabled":false,"rental_uris":{"android":"levelo://app?vid=0c7f2d70-b849-486d-bca2-848a564f0867","ios":"levelo://app?vid=0c7f2d70-b849-486d-bca2-848a564f0867"},"vehicle_type_id":"4","last_reported":1746076277,"current_range_meters":17200,"station_id":"ce4bho92rcd13ifvqh4g","pricing_plan_id":"cebpf4jnsgd1na2vs0mg"},{"bike_id":"d5dadec6-6d43-4080-8d17-bc655a9d07ff","system_id":"levelo_inurba_marseille","lat":43.28408,"lon":5.37527,"is_reserved":false,"is_disabled":false,"rental_uris":{"android":"levelo://app?vid=d5dadec6-6d43-4080-8d17-bc655a9d07ff","ios":"levelo://app?vid=d5dadec6-6d43-4080-8d17-bc655a9d07ff"},"vehicle_type_id":"4","last_reported":1746076277,"current_range_meters":17200,"station_id":"ce4bh412rcd13ifvqds0","pricing_plan_id":"cebpf4jnsgd1na2vs0mg"},{"bike_id":"8d17b367-8061-4c82-8409-5df859a79302","system_id":"levelo_inurba_marseille","lat":43.31992,"lon":5.381525,"is_reserved":false,"is_disabled":false,"rental_uris":{"android":"levelo://app?vid=8d17b367-8061-4c82-8409-5df859a79302","ios":"levelo://app?vid=8d17b367-8061-4c82-8409-5df859a79302"},"vehicle_type_id":"4","last_reported":1746076277,"current_range_meters":17200,"station_id":"ce4bhr12rcd13ifvqhpg","pricing_plan_id":"cebpf4jnsgd1na2vs0mg"},{"bike_id":"251e9dd1-1ef6-4d68-a53b-07ad88490391","system_id":"levelo_inurba_marseille","lat":43.30942,"lon":5.40159,"is_reserved":false,"is_disabled":false,"rental_uris":{"android":"levelo://app?vid=251e9dd1-1ef6-4d68-a53b-07ad88490391","ios":"levelo://app?vid=251e9dd1-1ef6-4d68-a53b-07ad88490391"},"vehicle_type_id":"4","last_reported":1746076277,"current_range_meters":17200,"station_id":"ce4bgvp2rcd13ifvqct0","pricing_plan_id":"cebpf4jnsgd1na2vs0mg"},{"bike_id":"1b5ee16c-1220-41a3-b71b-0bf601a3bc0a","system_id":"levelo_inurba_marseille","lat":43.300985,"lon":5.390861,"is_reserved":false,"is_disabled":true,"rental_uris":{"android":"levelo://app?vid=1b5ee16c-1220-41a3-b71b-0bf601a3bc0a","ios":"levelo://app?vid=1b5ee16c-1220-41a3-b71b-0bf601a3bc0a"},"vehicle_type_id":"4","last_reported":1746076277,"current_range_meters":17200,"station_id":"ce4bh192rcd13ifvqdb0","pricing_plan_id":"cebpf4jnsgd1na2vs0mg"},{"bike_id":"8a8397e0-61fe-438d-b107-2082f2a4a502","system_id":"levelo_inurba_marseille","lat":43.30156,"lon":5.38081,"is_reserved":false,"is_disabled":false,"rental_uris":{"android":"levelo://app?vid=8a8397e0-61fe-438d-b107-2082f2a4a502","ios":"levelo://app?vid=8a8397e0-61fe-438d-b107-2082f2a4a502"},"vehicle_type_id":"4","last_reported":1746076277,"current_range_meters":17200,"station_id":"ce4bgjp2rcd13ifvqbh0","pricing_plan_id":"cebpf4jnsgd1na2vs0mg"},{"bike_id":"44977203-d310-44b8-8a25-2f725ef03dd7","system_id":"levelo_inurba_marseille","lat":43.30153,"lon":5.38079,"is_reserved":false,"is_disabled":false,"rental_uris":{"android":"levelo://app?vid=44977203-d310-44b8-8a25-2f725ef03dd7","ios":"levelo://app?vid=44977203-d310-44b8-8a25-2f725ef03dd7"},"vehicle_type_id":"4","last_reported":1746076277,"current_range_meters":17200,"station_id":"ce4bgjp2rcd13ifvqbh0","pricing_plan_id":"cebpf4jnsgd1na2vs0mg"},{"bike_id":"b59f9ea1-ffd2-46de-a377-e32331e5f122","system_id":"levelo_inurba_marseille","lat":43.315343,"lon":5.380315,"is_reserved":false,"is_disabled":false,"rental_uris":{"android":"levelo://app?vid=b59f9ea1-ffd2-46de-a377-e32331e5f122","ios":"levelo://app?vid=b59f9ea1-ffd2-46de-a377-e32331e5f122"},"vehicle_type_id":"4","last_reported":1746076277,"current_range_meters":17600,"station_id":"ce4bhsp2rcd13ifvqi50","pricing_plan_id":"cebpf4jnsgd1na2vs0mg"},{"bike_id":"2563fea3-52d0-44d5-9e81-426c0ee1385b","system_id":"levelo_inurba_marseille","lat":43.29792,"lon":5.393453,"is_reserved":false,"is_disabled":false,"rental_uris":{"android":"levelo://app?vid=2563fea3-52d0-44d5-9e81-426c0ee1385b","ios":"levelo://app?vid=2563fea3-52d0-44d5-9e81-426c0ee1385b"},"vehicle_type_id":"4","last_reported":1746076277,"current_range_meters":17600,"station_id":"chh1huq6cuj3fo74tm60","pricing_plan_id":"cebpf4jnsgd1na2vs0mg"},{"bike_id":"5fc9a54d-ad5d-469b-807b-10c5d20729b5","system_id":"levelo_inurba_marseille","lat":43.307888,"lon":5.381674,"is_reserved":false,"is_disabled":false,"rental_uris":{"android":"levelo://app?vid=5fc9a54d-ad5d-469b-807b-10c5d20729b5","ios":"levelo://app?vid=5fc9a54d-ad5d-469b-807b-10c5d20729b5"},"vehicle_type_id":"4","last_reported":1746076277,"current_range_meters":17600,"station_id":"ce4bgt12rcd13ifvqce0","pricing_plan_id":"cebpf4jnsgd1na2vs0mg"},{"bike_id":"8a108257-ba62-40f1-b151-5864796d192a","system_id":"levelo_inurba_marseille","lat":43.21752,"lon":5.34616,"is_reserved":false,"is_disabled":false,"rental_uris":{"android":"levelo://app?vid=8a108257-ba62-40f1-b151-5864796d192a","ios":"levelo://app?vid=8a108257-ba62-40f1-b151-5864796d192a"},"vehicle_type_id":"4","last_reported":1746076277,"current_range_meters":17600,"station_id":"st_cvj6r9ubvosntc0bgbag","pricing_plan_id":"cebpf4jnsgd1na2vs0mg"},{"bike_id":"ad6de3d7-cd91-444d-b36f-ee082b79b2b4","system_id":"levelo_inurba_marseille","lat":43.30154,"lon":5.38117,"is_reserved":false,"is_disabled":false,"rental_uris":{"android":"levelo://app?vid=ad6de3d7-cd91-444d-b36f-ee082b79b2b4","ios":"levelo://app?vid=ad6de3d7-cd91-444d-b36f-ee082b79b2b4"},"vehicle_type_id":"4","last_reported":1746076277,"current_range_meters":17600,"station_id":"ce4bgjp2rcd13ifvqbh0","pricing_plan_id":"cebpf4jnsgd1na2vs0mg"},{"bike_id":"a0be4085-5aa1-4e70-8872-c0d0d5166c1f","system_id":"levelo_inurba_marseille","lat":43.32461,"lon":5.366,"is_reserved":false,"is_disabled":false,"rental_uris":{"android":"levelo://app?vid=a0be4085-5aa1-4e70-8872-c0d0d5166c1f","ios":"levelo://app?vid=a0be4085-5aa1-4e70-8872-c0d0d5166c1f"},"vehicle_type_id":"4","last_reported":1746076277,"current_range_meters":18000,"station_id":"ce4bhs12rcd13ifvqhvg","pricing_plan_id":"cebpf4jnsgd1na2vs0mg"},{"bike_id":"26c9e9a7-0cb5-4dd0-90da-6c5c4f2f8c1f","system_id":"levelo_inurba_marseille","lat":43.31751,"lon":5.39025,"is_reserved":false,"is_disabled":true,"rental_uris":{"android":"levelo://app?vid=26c9e9a7-0cb5-4dd0-90da-6c5c4f2f8c1f","ios":"levelo://app?vid=26c9e9a7-0cb5-4dd0-90da-6c5c4f2f8c1f"},"vehicle_type_id":"4","last_reported":1746076277,"current_range_meters":17600,"station_id":"ce4bhqp2rcd13ifvqhng","pricing_plan_id":"cebpf4jnsgd1na2vs0mg"},{"bike_id":"7b4ac271-3d33-4c11-8bfd-2a1bbfc82d7b","system_id":"levelo_inurba_marseille","lat":43.33599,"lon":5.41031,"is_reserved":false,"is_disabled":false,"rental_uris":{"android":"levelo://app?vid=7b4ac271-3d33-4c11-8bfd-2a1bbfc82d7b","ios":"levelo://app?vid=7b4ac271-3d33-4c11-8bfd-2a1bbfc82d7b"},"vehicle_type_id":"4","last_reported":1746076277,"current_range_meters":18000,"station_id":"ce4bhqh2rcd13ifvqhmg","pricing_plan_id":"cebpf4jnsgd1na2vs0mg"},{"bike_id":"14815240-d56c-4360-a98f-32688ccdff5f","system_id":"levelo_inurba_marseille","lat":43.295321,"lon":5.375003,"is_reserved":false,"is_disabled":false,"rental_uris":{"android":"levelo://app?vid=14815240-d56c-4360-a98f-32688ccdff5f","ios":"levelo://app?vid=14815240-d56c-4360-a98f-32688ccdff5f"},"vehicle_type_id":"4","last_reported":1746076277,"current_range_meters":18000,"station_id":"ce4bgkp2rcd13ifvqbmg","pricing_plan_id":"cebpf4jnsgd1na2vs0mg"},{"bike_id":"c7b75ff6-c0be-4f80-94ba-f7afc11fa6b7","system_id":"levelo_inurba_marseille","lat":43.21721,"lon":5.34646,"is_reserved":false,"is_disabled":false,"rental_uris":{"android":"levelo://app?vid=c7b75ff6-c0be-4f80-94ba-f7afc11fa6b7","ios":"levelo://app?vid=c7b75ff6-c0be-4f80-94ba-f7afc11fa6b7"},"vehicle_type_id":"4","last_reported":1746076277,"current_range_meters":18800,"station_id":"st_cvj6r9ubvosntc0bgbag","pricing_plan_id":"cebpf4jnsgd1na2vs0mg"},{"bike_id":"4fec10d1-ef71-4b58-8320-d49a3806ed8a","system_id":"levelo_inurba_marseille","lat":43.319965,"lon":5.381431,"is_reserved":false,"is_disabled":false,"rental_uris":{"android":"levelo://app?vid=4fec10d1-ef71-4b58-8320-d49a3806ed8a","ios":"levelo://app?vid=4fec10d1-ef71-4b58-8320-d49a3806ed8a"},"vehicle_type_id":"4","last_reported":1746076277,"current_range_meters":19200,"station_id":"ce4bhr12rcd13ifvqhpg","pricing_plan_id":"cebpf4jnsgd1na2vs0mg"},{"bike_id":"7c6dc1bf-0fa8-4cea-bdd8-7824d54eb30f","system_id":"levelo_inurba_marseille","lat":43.2991,"lon":5.43667,"is_reserved":false,"is_disabled":false,"rental_uris":{"android":"levelo://app?vid=7c6dc1bf-0fa8-4cea-bdd8-7824d54eb30f","ios":"levelo://app?vid=7c6dc1bf-0fa8-4cea-bdd8-7824d54eb30f"},"vehicle_type_id":"4","last_reported":1746076277,"current_range_meters":19200,"station_id":"ce4bhpp2rcd13ifvqhfg","pricing_plan_id":"cebpf4jnsgd1na2vs0mg"},{"bike_id":"2b633bb9-83a5-4d1e-8e12-e220dd22e2c0","system_id":"levelo_inurba_marseille","lat":43.324734,"lon":5.365714,"is_reserved":false,"is_disabled":false,"rental_uris":{"android":"levelo://app?vid=2b633bb9-83a5-4d1e-8e12-e220dd22e2c0","ios":"levelo://app?vid=2b633bb9-83a5-4d1e-8e12-e220dd22e2c0"},"vehicle_type_id":"4","last_reported":1746076277,"current_range_meters":19200,"station_id":"ce4bhs12rcd13ifvqhvg","pricing_plan_id":"cebpf4jnsgd1na2vs0mg"},{"bike_id":"c695bac2-0581-4a6a-b9c9-eb8e0d8673ed","system_id":"levelo_inurba_marseille","lat":43.33752,"lon":5.39197,"is_reserved":false,"is_disabled":false,"rental_uris":{"android":"levelo://app?vid=c695bac2-0581-4a6a-b9c9-eb8e0d8673ed","ios":"levelo://app?vid=c695bac2-0581-4a6a-b9c9-eb8e0d8673ed"},"vehicle_type_id":"4","last_reported":1746076277,"current_range_meters":19200,"station_id":"ce4bhr92rcd13ifvqhsg","pricing_plan_id":"cebpf4jnsgd1na2vs0mg"},{"bike_id":"cd1f00f1-de1f-4b99-b793-b6d2d379752c","system_id":"levelo_inurba_marseille","lat":43.25936,"lon":5.40904,"is_reserved":false,"is_disabled":false,"rental_uris":{"android":"levelo://app?vid=cd1f00f1-de1f-4b99-b793-b6d2d379752c","ios":"levelo://app?vid=cd1f00f1-de1f-4b99-b793-b6d2d379752c"},"vehicle_type_id":"4","last_reported":1746076277,"current_range_meters":19200,"station_id":"ce4bhm92rcd13ifvqglg","pricing_plan_id":"cebpf4jnsgd1na2vs0mg"},{"bike_id":"dbcdc79b-b3d2-4afc-9d54-e9c42c7937e6","system_id":"levelo_inurba_marseille","lat":43.27952,"lon":5.41048,"is_reserved":false,"is_disabled":false,"rental_uris":{"android":"levelo://app?vid=dbcdc79b-b3d2-4afc-9d54-e9c42c7937e6","ios":"levelo://app?vid=dbcdc79b-b3d2-4afc-9d54-e9c42c7937e6"},"vehicle_type_id":"4","last_reported":1746076277,"current_range_meters":19200,"station_id":"ce4bhnp2rcd13ifvqh0g","pricing_plan_id":"cebpf4jnsgd1na2vs0mg"},{"bike_id":"3aeb961f-88b6-47fd-986a-c7b2a855fefd","system_id":"levelo_inurba_marseille","lat":43.23061,"lon":5.35499,"is_reserved":false,"is_disabled":false,"rental_uris":{"android":"levelo://app?vid=3aeb961f-88b6-47fd-986a-c7b2a855fefd","ios":"levelo://app?vid=3aeb961f-88b6-47fd-986a-c7b2a855fefd"},"vehicle_type_id":"4","last_reported":1746076277,"current_range_meters":19200,"station_id":"cpo3342slgdg3j2ifvpg","pricing_plan_id":"cebpf4jnsgd1na2vs0mg"},{"bike_id":"a95dba47-54c0-43ea-a02c-c422bc9aa61b","system_id":"levelo_inurba_marseille","lat":43.25079,"lon":5.39518,"is_reserved":false,"is_disabled":false,"rental_uris":{"android":"levelo://app?vid=a95dba47-54c0-43ea-a02c-c422bc9aa61b","ios":"levelo://app?vid=a95dba47-54c0-43ea-a02c-c422bc9aa61b"},"vehicle_type_id":"4","last_reported":1746076277,"current_range_meters":19200,"station_id":"ce4bhm12rcd13ifvqgkg","pricing_plan_id":"cebpf4jnsgd1na2vs0mg"},{"bike_id":"677a381b-b527-42a3-b987-992902b9ea2d","system_id":"levelo_inurba_marseille","lat":43.23055,"lon":5.35499,"is_reserved":false,"is_disabled":false,"rental_uris":{"android":"levelo://app?vid=677a381b-b527-42a3-b987-992902b9ea2d","ios":"levelo://app?vid=677a381b-b527-42a3-b987-992902b9ea2d"},"vehicle_type_id":"4","last_reported":1746076277,"current_range_meters":19200,"station_id":"cpo3342slgdg3j2ifvpg","pricing_plan_id":"cebpf4jnsgd1na2vs0mg"},{"bike_id":"5bf1014c-0b0c-47d5-acac-c5042744773e","system_id":"levelo_inurba_marseille","lat":43.25475,"lon":5.37674,"is_reserved":false,"is_disabled":true,"rental_uris":{"android":"levelo://app?vid=5bf1014c-0b0c-47d5-acac-c5042744773e","ios":"levelo://app?vid=5bf1014c-0b0c-47d5-acac-c5042744773e"},"vehicle_type_id":"4","last_reported":1746076277,"current_range_meters":19200,"station_id":"ce4bhh12rcd13ifvqff0","pricing_plan_id":"cebpf4jnsgd1na2vs0mg"},{"bike_id":"c718ac56-1557-4bce-9365-9d539e2700bb","system_id":"levelo_inurba_marseille","lat":43.28412,"lon":5.37511,"is_reserved":false,"is_disabled":false,"rental_uris":{"android":"levelo://app?vid=c718ac56-1557-4bce-9365-9d539e2700bb","ios":"levelo://app?vid=c718ac56-1557-4bce-9365-9d539e2700bb"},"vehicle_type_id":"4","last_reported":1746076277,"current_range_meters":19600,"station_id":"ce4bh412rcd13ifvqds0","pricing_plan_id":"cebpf4jnsgd1na2vs0mg"},{"bike_id":"6bdc1a79-8e1b-4360-aec9-e6f9cc32b412","system_id":"levelo_inurba_marseille","lat":43.25729,"lon":5.41119,"is_reserved":false,"is_disabled":false,"rental_uris":{"android":"levelo://app?vid=6bdc1a79-8e1b-4360-aec9-e6f9cc32b412","ios":"levelo://app?vid=6bdc1a79-8e1b-4360-aec9-e6f9cc32b412"},"vehicle_type_id":"4","last_reported":1746076277,"current_range_meters":19600,"station_id":"ce4bhkp2rcd13ifvqgd0","pricing_plan_id":"cebpf4jnsgd1na2vs0mg"},{"bike_id":"3ccd4a9b-ce78-4056-9847-fcc92723e397","system_id":"levelo_inurba_marseille","lat":43.273862,"lon":5.362631,"is_reserved":false,"is_disabled":true,"rental_uris":{"android":"levelo://app?vid=3ccd4a9b-ce78-4056-9847-fcc92723e397","ios":"levelo://app?vid=3ccd4a9b-ce78-4056-9847-fcc92723e397"},"vehicle_type_id":"4","last_reported":1746076277,"current_range_meters":19600,"station_id":"ce4bhbh2rcd13ifvqeo0","pricing_plan_id":"cebpf4jnsgd1na2vs0mg"},{"bike_id":"70a31ff3-92e5-466a-b06f-961241a877e1","system_id":"levelo_inurba_marseille","lat":43.3057,"lon":5.38454,"is_reserved":false,"is_disabled":false,"rental_uris":{"android":"levelo://app?vid=70a31ff3-92e5-466a-b06f-961241a877e1","ios":"levelo://app?vid=70a31ff3-92e5-466a-b06f-961241a877e1"},"vehicle_type_id":"4","last_reported":1746076277,"current_range_meters":19600,"station_id":"","pricing_plan_id":"cebpf4jnsgd1na2vs0mg"},{"bike_id":"ed8154fe-4a28-44bd-b7ae-7c55d7aa378d","system_id":"levelo_inurba_marseille","lat":43.30316,"lon":5.4045,"is_reserved":false,"is_disabled":false,"rental_uris":{"android":"levelo://app?vid=ed8154fe-4a28-44bd-b7ae-7c55d7aa378d","ios":"levelo://app?vid=ed8154fe-4a28-44bd-b7ae-7c55d7aa378d"},"vehicle_type_id":"4","last_reported":1746076277,"current_range_meters":20000,"station_id":"ce4bh012rcd13ifvqd10","pricing_plan_id":"cebpf4jnsgd1na2vs0mg"},{"bike_id":"ecc289e6-a56d-4713-a9db-b1eebd05dac1","system_id":"levelo_inurba_marseille","lat":43.30813,"lon":5.3815,"is_reserved":false,"is_disabled":false,"rental_uris":{"android":"levelo://app?vid=ecc289e6-a56d-4713-a9db-b1eebd05dac1","ios":"levelo://app?vid=ecc289e6-a56d-4713-a9db-b1eebd05dac1"},"vehicle_type_id":"4","last_reported":1746076277,"current_range_meters":20000,"station_id":"ce4bgt12rcd13ifvqce0","pricing_plan_id":"cebpf4jnsgd1na2vs0mg"},{"bike_id":"33723d9a-d476-4493-80f8-a5af486490ea","system_id":"levelo_inurba_marseille","lat":43.30157,"lon":5.38086,"is_reserved":false,"is_disabled":false,"rental_uris":{"android":"levelo://app?vid=33723d9a-d476-4493-80f8-a5af486490ea","ios":"levelo://app?vid=33723d9a-d476-4493-80f8-a5af486490ea"},"vehicle_type_id":"4","last_reported":1746076277,"current_range_meters":20000,"station_id":"ce4bgjp2rcd13ifvqbh0","pricing_plan_id":"cebpf4jnsgd1na2vs0mg"},{"bike_id":"a9f84602-c7d0-4d6c-85bc-f3b5795dbc64","system_id":"levelo_inurba_marseille","lat":43.295738,"lon":5.375243,"is_reserved":false,"is_disabled":false,"rental_uris":{"android":"levelo://app?vid=a9f84602-c7d0-4d6c-85bc-f3b5795dbc64","ios":"levelo://app?vid=a9f84602-c7d0-4d6c-85bc-f3b5795dbc64"},"vehicle_type_id":"4","last_reported":1746076277,"current_range_meters":20000,"station_id":"ce4bgh92rcd13ifvqb50","pricing_plan_id":"cebpf4jnsgd1na2vs0mg"},{"bike_id":"7fb38267-65ef-45b1-8cc5-d9ec145a7880","system_id":"levelo_inurba_marseille","lat":43.29416,"lon":5.3863,"is_reserved":false,"is_disabled":true,"rental_uris":{"android":"levelo://app?vid=7fb38267-65ef-45b1-8cc5-d9ec145a7880","ios":"levelo://app?vid=7fb38267-65ef-45b1-8cc5-d9ec145a7880"},"vehicle_type_id":"4","last_reported":1746076277,"current_range_meters":20000,"station_id":"ce4bh2h2rcd13ifvqdh0","pricing_plan_id":"cebpf4jnsgd1na2vs0mg"},{"bike_id":"a88d2e3d-9dbf-40d4-a9e0-bc489904da4b","system_id":"levelo_inurba_marseille","lat":43.29267,"lon":5.3844,"is_reserved":false,"is_disabled":true,"rental_uris":{"android":"levelo://app?vid=a88d2e3d-9dbf-40d4-a9e0-bc489904da4b","ios":"levelo://app?vid=a88d2e3d-9dbf-40d4-a9e0-bc489904da4b"},"vehicle_type_id":"4","last_reported":1746076277,"current_range_meters":20000,"station_id":"ce4bh692rcd13ifvqea0","pricing_plan_id":"cebpf4jnsgd1na2vs0mg"},{"bike_id":"0dc3cddd-9707-4345-adfd-8cd70967af49","system_id":"levelo_inurba_marseille","lat":43.29911,"lon":5.38144,"is_reserved":false,"is_disabled":false,"rental_uris":{"android":"levelo://app?vid=0dc3cddd-9707-4345-adfd-8cd70967af49","ios":"levelo://app?vid=0dc3cddd-9707-4345-adfd-8cd70967af49"},"vehicle_type_id":"4","last_reported":1746076277,"current_range_meters":20400,"station_id":"ce4bgj12rcd13ifvqbc0","pricing_plan_id":"cebpf4jnsgd1na2vs0mg"},{"bike_id":"341ca93b-b8ea-44f1-87c3-945ae977c774","system_id":"levelo_inurba_marseille","lat":43.29764,"lon":5.37694,"is_reserved":false,"is_disabled":true,"rental_uris":{"android":"levelo://app?vid=341ca93b-b8ea-44f1-87c3-945ae977c774","ios":"levelo://app?vid=341ca93b-b8ea-44f1-87c3-945ae977c774"},"vehicle_type_id":"4","last_reported":1746076277,"current_range_meters":20400,"station_id":"","pricing_plan_id":"cebpf4jnsgd1na2vs0mg"},{"bike_id":"1379c0bb-2a62-43e7-8135-356457be17fb","system_id":"levelo_inurba_marseille","lat":43.33614,"lon":5.41029,"is_reserved":false,"is_disabled":false,"rental_uris":{"android":"levelo://app?vid=1379c0bb-2a62-43e7-8135-356457be17fb","ios":"levelo://app?vid=1379c0bb-2a62-43e7-8135-356457be17fb"},"vehicle_type_id":"4","last_reported":1746076277,"current_range_meters":20400,"station_id":"ce4bhqh2rcd13ifvqhmg","pricing_plan_id":"cebpf4jnsgd1na2vs0mg"},{"bike_id":"10fe5799-109b-4d80-885d-3358ac5a1648","system_id":"levelo_inurba_marseille","lat":43.30535,"lon":5.36936,"is_reserved":false,"is_disabled":true,"rental_uris":{"android":"levelo://app?vid=10fe5799-109b-4d80-885d-3358ac5a1648","ios":"levelo://app?vid=10fe5799-109b-4d80-885d-3358ac5a1648"},"vehicle_type_id":"4","last_reported":1746076277,"current_range_meters":20800,"station_id":"","pricing_plan_id":"cebpf4jnsgd1na2vs0mg"},{"bike_id":"6bef324a-098d-453b-95f8-09037e0802fc","system_id":"levelo_inurba_marseille","lat":43.30146,"lon":5.38089,"is_reserved":false,"is_disabled":false,"rental_uris":{"android":"levelo://app?vid=6bef324a-098d-453b-95f8-09037e0802fc","ios":"levelo://app?vid=6bef324a-098d-453b-95f8-09037e0802fc"},"vehicle_type_id":"4","last_reported":1746076277,"current_range_meters":20400,"station_id":"ce4bgjp2rcd13ifvqbh0","pricing_plan_id":"cebpf4jnsgd1na2vs0mg"},{"bike_id":"aa27357f-dc7f-4741-8b2f-ad8fc4d8dfe9","system_id":"levelo_inurba_marseille","lat":43.276064,"lon":5.361216,"is_reserved":false,"is_disabled":true,"rental_uris":{"android":"levelo://app?vid=aa27357f-dc7f-4741-8b2f-ad8fc4d8dfe9","ios":"levelo://app?vid=aa27357f-dc7f-4741-8b2f-ad8fc4d8dfe9"},"vehicle_type_id":"4","last_reported":1746076277,"current_range_meters":20800,"station_id":"ce4bgj92rcd13ifvqbe0","pricing_plan_id":"cebpf4jnsgd1na2vs0mg"},{"bike_id":"c46ea478-39dd-4c32-b490-86de1b4a7507","system_id":"levelo_inurba_marseille","lat":43.28078,"lon":5.39668,"is_reserved":false,"is_disabled":false,"rental_uris":{"android":"levelo://app?vid=c46ea478-39dd-4c32-b490-86de1b4a7507","ios":"levelo://app?vid=c46ea478-39dd-4c32-b490-86de1b4a7507"},"vehicle_type_id":"4","last_reported":1746076277,"current_range_meters":20800,"station_id":"ce4bho12rcd13ifvqh2g","pricing_plan_id":"cebpf4jnsgd1na2vs0mg"},{"bike_id":"fd4496d3-f665-4291-bea0-eab9c6c59058","system_id":"levelo_inurba_marseille","lat":43.306451,"lon":5.400777,"is_reserved":false,"is_disabled":false,"rental_uris":{"android":"levelo://app?vid=fd4496d3-f665-4291-bea0-eab9c6c59058","ios":"levelo://app?vid=fd4496d3-f665-4291-bea0-eab9c6c59058"},"vehicle_type_id":"4","last_reported":1746076277,"current_range_meters":20800,"station_id":"ce4bh112rcd13ifvqda0","pricing_plan_id":"cebpf4jnsgd1na2vs0mg"},{"bike_id":"c0a72000-46b6-4527-9b1c-7432d6b2252e","system_id":"levelo_inurba_marseille","lat":43.27538,"lon":5.38418,"is_reserved":false,"is_disabled":true,"rental_uris":{"android":"levelo://app?vid=c0a72000-46b6-4527-9b1c-7432d6b2252e","ios":"levelo://app?vid=c0a72000-46b6-4527-9b1c-7432d6b2252e"},"vehicle_type_id":"4","last_reported":1746076277,"current_range_meters":20800,"station_id":"ce4bhh92rcd13ifvqfi0","pricing_plan_id":"cebpf4jnsgd1na2vs0mg"},{"bike_id":"d3c63377-1a61-45d9-b356-805a6e455fd6","system_id":"levelo_inurba_marseille","lat":43.323376,"lon":5.406143,"is_reserved":false,"is_disabled":false,"rental_uris":{"android":"levelo://app?vid=d3c63377-1a61-45d9-b356-805a6e455fd6","ios":"levelo://app?vid=d3c63377-1a61-45d9-b356-805a6e455fd6"},"vehicle_type_id":"4","last_reported":1746076277,"current_range_meters":20800,"station_id":"ce4bhq92rcd13ifvqhjg","pricing_plan_id":"cebpf4jnsgd1na2vs0mg"},{"bike_id":"cad06a61-a806-487c-9e18-d7fbe1875c4f","system_id":"levelo_inurba_marseille","lat":43.265539,"lon":5.372893,"is_reserved":false,"is_disabled":true,"rental_uris":{"android":"levelo://app?vid=cad06a61-a806-487c-9e18-d7fbe1875c4f","ios":"levelo://app?vid=cad06a61-a806-487c-9e18-d7fbe1875c4f"},"vehicle_type_id":"4","last_reported":1746076277,"current_range_meters":21600,"station_id":"ce4bhg12rcd13ifvqf70","pricing_plan_id":"cebpf4jnsgd1na2vs0mg"},{"bike_id":"3387917c-3e63-4c3b-a6f2-fffb3e617ac2","system_id":"levelo_inurba_marseille","lat":43.30652,"lon":5.40073,"is_reserved":false,"is_disabled":false,"rental_uris":{"android":"levelo://app?vid=3387917c-3e63-4c3b-a6f2-fffb3e617ac2","ios":"levelo://app?vid=3387917c-3e63-4c3b-a6f2-fffb3e617ac2"},"vehicle_type_id":"4","last_reported":1746076277,"current_range_meters":21600,"station_id":"ce4bh112rcd13ifvqda0","pricing_plan_id":"cebpf4jnsgd1na2vs0mg"},{"bike_id":"9948b8c0-52d2-4eb8-8da4-a50a93afeb9b","system_id":"levelo_inurba_marseille","lat":43.22901,"lon":5.35341,"is_reserved":false,"is_disabled":false,"rental_uris":{"android":"levelo://app?vid=9948b8c0-52d2-4eb8-8da4-a50a93afeb9b","ios":"levelo://app?vid=9948b8c0-52d2-4eb8-8da4-a50a93afeb9b"},"vehicle_type_id":"4","last_reported":1746076277,"current_range_meters":21600,"station_id":"cpo3532slgdg3j2ikp40","pricing_plan_id":"cebpf4jnsgd1na2vs0mg"},{"bike_id":"354982e5-4a84-4326-82da-06275fa4daf1","system_id":"levelo_inurba_marseille","lat":43.30631,"lon":5.40067,"is_reserved":false,"is_disabled":false,"rental_uris":{"android":"levelo://app?vid=354982e5-4a84-4326-82da-06275fa4daf1","ios":"levelo://app?vid=354982e5-4a84-4326-82da-06275fa4daf1"},"vehicle_type_id":"4","last_reported":1746076277,"current_range_meters":21600,"station_id":"ce4bh112rcd13ifvqda0","pricing_plan_id":"cebpf4jnsgd1na2vs0mg"},